{"last_updated":1779216665,"ttl":60,"version":"2.2","data":{"bikes":[{"bike_id":"7d641315-6110-49cb-a9dd-d637ff032de1","system_id":"levelo_inurba_marseille","lat":43.337444,"lon":5.374475,"is_reserved":false,"is_disabled":false,"rental_uris":{"android":"levelo://app?vid=7d641315-6110-49cb-a9dd-d637ff032de1","ios":"levelo://app?vid=7d641315-6110-49cb-a9dd-d637ff032de1"},"vehicle_type_id":"4","last_reported":1779216666,"current_range_meters":0,"station_id":"","pricing_plan_id":"cebpf4jnsgd1na2vs0mg"},{"bike_id":"0a4d5b68-b2c9-4852-8806-b5541f3ef95e","system_id":"levelo_inurba_marseille","lat":43.30538,"lon":5.38429,"is_reserved":false,"is_disabled":false,"rental_uris":{"android":"levelo://app?vid=0a4d5b68-b2c9-4852-8806-b5541f3ef95e","ios":"levelo://app?vid=0a4d5b68-b2c9-4852-8806-b5541f3ef95e"},"vehicle_type_id":"4","last_reported":1779216666,"current_range_meters":2800,"station_id":"ce4bgg92rcd13ifvqb30","pricing_plan_id":"cebpf4jnsgd1na2vs0mg"},{"bike_id":"c0a60b06-5b55-47ef-b375-7496e0d713f4","system_id":"levelo_inurba_marseille","lat":43.28574,"lon":5.39486,"is_reserved":false,"is_disabled":false,"rental_uris":{"android":"levelo://app?vid=c0a60b06-5b55-47ef-b375-7496e0d713f4","ios":"levelo://app?vid=c0a60b06-5b55-47ef-b375-7496e0d713f4"},"vehicle_type_id":"4","last_reported":1779216666,"current_range_meters":2800,"station_id":"ce4bh292rcd13ifvqdg0","pricing_plan_id":"cebpf4jnsgd1na2vs0mg"},{"bike_id":"a00e0437-70b7-4b6b-b0dc-60d8ee1820e2","system_id":"levelo_inurba_marseille","lat":43.27073,"lon":5.42267,"is_reserved":false,"is_disabled":false,"rental_uris":{"android":"levelo://app?vid=a00e0437-70b7-4b6b-b0dc-60d8ee1820e2","ios":"levelo://app?vid=a00e0437-70b7-4b6b-b0dc-60d8ee1820e2"},"vehicle_type_id":"4","last_reported":1779216666,"current_range_meters":2800,"station_id":"ce4bhk92rcd13ifvqgb0","pricing_plan_id":"cebpf4jnsgd1na2vs0mg"},{"bike_id":"491fbb4d-ccf3-472a-977a-f51e4432ccec","system_id":"levelo_inurba_marseille","lat":43.23593,"lon":5.3619,"is_reserved":false,"is_disabled":false,"rental_uris":{"android":"levelo://app?vid=491fbb4d-ccf3-472a-977a-f51e4432ccec","ios":"levelo://app?vid=491fbb4d-ccf3-472a-977a-f51e4432ccec"},"vehicle_type_id":"4","last_reported":1779216666,"current_range_meters":2800,"station_id":"","pricing_plan_id":"cebpf4jnsgd1na2vs0mg"},{"bike_id":"de4ca0ab-982c-4df7-a73d-89ae31206679","system_id":"levelo_inurba_marseille","lat":43.33614,"lon":5.41014,"is_reserved":false,"is_disabled":false,"rental_uris":{"android":"levelo://app?vid=de4ca0ab-982c-4df7-a73d-89ae31206679","ios":"levelo://app?vid=de4ca0ab-982c-4df7-a73d-89ae31206679"},"vehicle_type_id":"4","last_reported":1779216666,"current_range_meters":2800,"station_id":"ce4bhqh2rcd13ifvqhmg","pricing_plan_id":"cebpf4jnsgd1na2vs0mg"},{"bike_id":"a38cb7d5-ac4f-4017-9fb4-cfff9737f93e","system_id":"levelo_inurba_marseille","lat":43.2989,"lon":5.3888,"is_reserved":false,"is_disabled":false,"rental_uris":{"android":"levelo://app?vid=a38cb7d5-ac4f-4017-9fb4-cfff9737f93e","ios":"levelo://app?vid=a38cb7d5-ac4f-4017-9fb4-cfff9737f93e"},"vehicle_type_id":"4","last_reported":1779216666,"current_range_meters":2800,"station_id":"ce4bh392rcd13ifvqdl0","pricing_plan_id":"cebpf4jnsgd1na2vs0mg"},{"bike_id":"63839fe2-66a2-4d82-8ae4-2b6b4677701f","system_id":"levelo_inurba_marseille","lat":43.23194,"lon":5.35554,"is_reserved":false,"is_disabled":false,"rental_uris":{"android":"levelo://app?vid=63839fe2-66a2-4d82-8ae4-2b6b4677701f","ios":"levelo://app?vid=63839fe2-66a2-4d82-8ae4-2b6b4677701f"},"vehicle_type_id":"4","last_reported":1779216666,"current_range_meters":2800,"station_id":"ce4bhu92rcd13ifvqi70","pricing_plan_id":"cebpf4jnsgd1na2vs0mg"},{"bike_id":"a1d674b5-24d6-4bb2-99f9-8d5cdca90134","system_id":"levelo_inurba_marseille","lat":43.2902,"lon":5.38128,"is_reserved":false,"is_disabled":false,"rental_uris":{"android":"levelo://app?vid=a1d674b5-24d6-4bb2-99f9-8d5cdca90134","ios":"levelo://app?vid=a1d674b5-24d6-4bb2-99f9-8d5cdca90134"},"vehicle_type_id":"4","last_reported":1779216666,"current_range_meters":2800,"station_id":"ce4bh4p2rcd13ifvqe1g","pricing_plan_id":"cebpf4jnsgd1na2vs0mg"},{"bike_id":"ad6ce05a-6224-48cf-9d81-9c948374cba9","system_id":"levelo_inurba_marseille","lat":43.25025,"lon":5.38928,"is_reserved":false,"is_disabled":false,"rental_uris":{"android":"levelo://app?vid=ad6ce05a-6224-48cf-9d81-9c948374cba9","ios":"levelo://app?vid=ad6ce05a-6224-48cf-9d81-9c948374cba9"},"vehicle_type_id":"4","last_reported":1779216666,"current_range_meters":2800,"station_id":"ce4bhgp2rcd13ifvqfd0","pricing_plan_id":"cebpf4jnsgd1na2vs0mg"},{"bike_id":"5a1c8a28-d79f-4b07-a4d8-bce75ba2c426","system_id":"levelo_inurba_marseille","lat":43.25865,"lon":5.39908,"is_reserved":false,"is_disabled":true,"rental_uris":{"android":"levelo://app?vid=5a1c8a28-d79f-4b07-a4d8-bce75ba2c426","ios":"levelo://app?vid=5a1c8a28-d79f-4b07-a4d8-bce75ba2c426"},"vehicle_type_id":"4","last_reported":1779216666,"current_range_meters":3200,"station_id":"ce4bhl92rcd13ifvqghg","pricing_plan_id":"cebpf4jnsgd1na2vs0mg"},{"bike_id":"f953e7df-9a8f-4f8e-8e56-6a5db7d34d82","system_id":"levelo_inurba_marseille","lat":43.269189,"lon":5.380411,"is_reserved":false,"is_disabled":false,"rental_uris":{"android":"levelo://app?vid=f953e7df-9a8f-4f8e-8e56-6a5db7d34d82","ios":"levelo://app?vid=f953e7df-9a8f-4f8e-8e56-6a5db7d34d82"},"vehicle_type_id":"4","last_reported":1779216666,"current_range_meters":3200,"station_id":"","pricing_plan_id":"cebpf4jnsgd1na2vs0mg"},{"bike_id":"d330ebaf-89a2-4938-8fb2-a03c97594a54","system_id":"levelo_inurba_marseille","lat":43.2899,"lon":5.3761,"is_reserved":false,"is_disabled":false,"rental_uris":{"android":"levelo://app?vid=d330ebaf-89a2-4938-8fb2-a03c97594a54","ios":"levelo://app?vid=d330ebaf-89a2-4938-8fb2-a03c97594a54"},"vehicle_type_id":"4","last_reported":1779216666,"current_range_meters":3200,"station_id":"","pricing_plan_id":"cebpf4jnsgd1na2vs0mg"},{"bike_id":"a6777b27-5702-4a2f-bd66-34fa9bb817ee","system_id":"levelo_inurba_marseille","lat":43.21755,"lon":5.34595,"is_reserved":false,"is_disabled":false,"rental_uris":{"android":"levelo://app?vid=a6777b27-5702-4a2f-bd66-34fa9bb817ee","ios":"levelo://app?vid=a6777b27-5702-4a2f-bd66-34fa9bb817ee"},"vehicle_type_id":"4","last_reported":1779216666,"current_range_meters":3200,"station_id":"st_cvj6r9ubvosntc0bgbag","pricing_plan_id":"cebpf4jnsgd1na2vs0mg"},{"bike_id":"7f792168-18c2-4d57-a00b-9a646f8a2ee9","system_id":"levelo_inurba_marseille","lat":43.29182,"lon":5.3928,"is_reserved":false,"is_disabled":false,"rental_uris":{"android":"levelo://app?vid=7f792168-18c2-4d57-a00b-9a646f8a2ee9","ios":"levelo://app?vid=7f792168-18c2-4d57-a00b-9a646f8a2ee9"},"vehicle_type_id":"4","last_reported":1779216666,"current_range_meters":3200,"station_id":"ce4bh192rcd13ifvqdd0","pricing_plan_id":"cebpf4jnsgd1na2vs0mg"},{"bike_id":"fa4f1eab-a365-4fde-acb7-5d259dae308a","system_id":"levelo_inurba_marseille","lat":43.30639,"lon":5.40094,"is_reserved":false,"is_disabled":false,"rental_uris":{"android":"levelo://app?vid=fa4f1eab-a365-4fde-acb7-5d259dae308a","ios":"levelo://app?vid=fa4f1eab-a365-4fde-acb7-5d259dae308a"},"vehicle_type_id":"4","last_reported":1779216666,"current_range_meters":3200,"station_id":"ce4bh112rcd13ifvqda0","pricing_plan_id":"cebpf4jnsgd1na2vs0mg"},{"bike_id":"b3e47a10-789b-4113-b169-face25d448d0","system_id":"levelo_inurba_marseille","lat":43.28709,"lon":5.46672,"is_reserved":false,"is_disabled":false,"rental_uris":{"android":"levelo://app?vid=b3e47a10-789b-4113-b169-face25d448d0","ios":"levelo://app?vid=b3e47a10-789b-4113-b169-face25d448d0"},"vehicle_type_id":"4","last_reported":1779216666,"current_range_meters":3200,"station_id":"st_d6tc3vkotcvc738tfjhg","pricing_plan_id":"cebpf4jnsgd1na2vs0mg"},{"bike_id":"67298b0d-96b3-4d14-87eb-fc9a2dd8b027","system_id":"levelo_inurba_marseille","lat":43.25123,"lon":5.40309,"is_reserved":false,"is_disabled":true,"rental_uris":{"android":"levelo://app?vid=67298b0d-96b3-4d14-87eb-fc9a2dd8b027","ios":"levelo://app?vid=67298b0d-96b3-4d14-87eb-fc9a2dd8b027"},"vehicle_type_id":"4","last_reported":1779216666,"current_range_meters":3200,"station_id":"ce4bhkp2rcd13ifvqgd0","pricing_plan_id":"cebpf4jnsgd1na2vs0mg"},{"bike_id":"e573ccad-7e51-42db-be9c-d11800e07cad","system_id":"levelo_inurba_marseille","lat":43.23151,"lon":5.43709,"is_reserved":false,"is_disabled":true,"rental_uris":{"android":"levelo://app?vid=e573ccad-7e51-42db-be9c-d11800e07cad","ios":"levelo://app?vid=e573ccad-7e51-42db-be9c-d11800e07cad"},"vehicle_type_id":"4","last_reported":1779216666,"current_range_meters":3200,"station_id":"ce4bhmp2rcd13ifvqgog","pricing_plan_id":"cebpf4jnsgd1na2vs0mg"},{"bike_id":"4ac48e20-f5b9-412d-bb5d-3e50f861f4d7","system_id":"levelo_inurba_marseille","lat":43.30592,"lon":5.37196,"is_reserved":false,"is_disabled":false,"rental_uris":{"android":"levelo://app?vid=4ac48e20-f5b9-412d-bb5d-3e50f861f4d7","ios":"levelo://app?vid=4ac48e20-f5b9-412d-bb5d-3e50f861f4d7"},"vehicle_type_id":"4","last_reported":1779216666,"current_range_meters":3200,"station_id":"ce4bgqh2rcd13ifvqc4g","pricing_plan_id":"cebpf4jnsgd1na2vs0mg"},{"bike_id":"329c07a3-ccb0-4032-93c6-626d3ae7b386","system_id":"levelo_inurba_marseille","lat":43.25035,"lon":5.3893,"is_reserved":false,"is_disabled":false,"rental_uris":{"android":"levelo://app?vid=329c07a3-ccb0-4032-93c6-626d3ae7b386","ios":"levelo://app?vid=329c07a3-ccb0-4032-93c6-626d3ae7b386"},"vehicle_type_id":"4","last_reported":1779216666,"current_range_meters":3200,"station_id":"ce4bhgp2rcd13ifvqfd0","pricing_plan_id":"cebpf4jnsgd1na2vs0mg"},{"bike_id":"7411be32-d8cb-4974-af25-ec6004deeb71","system_id":"levelo_inurba_marseille","lat":43.30935,"lon":5.40135,"is_reserved":false,"is_disabled":false,"rental_uris":{"android":"levelo://app?vid=7411be32-d8cb-4974-af25-ec6004deeb71","ios":"levelo://app?vid=7411be32-d8cb-4974-af25-ec6004deeb71"},"vehicle_type_id":"4","last_reported":1779216666,"current_range_meters":3600,"station_id":"ce4bgvp2rcd13ifvqct0","pricing_plan_id":"cebpf4jnsgd1na2vs0mg"},{"bike_id":"b6ddb926-c35e-451f-ae57-2d262b732323","system_id":"levelo_inurba_marseille","lat":43.29719,"lon":5.4134,"is_reserved":false,"is_disabled":false,"rental_uris":{"android":"levelo://app?vid=b6ddb926-c35e-451f-ae57-2d262b732323","ios":"levelo://app?vid=b6ddb926-c35e-451f-ae57-2d262b732323"},"vehicle_type_id":"4","last_reported":1779216666,"current_range_meters":3600,"station_id":"","pricing_plan_id":"cebpf4jnsgd1na2vs0mg"},{"bike_id":"5eb11d83-2461-40c2-9484-0a35868d2011","system_id":"levelo_inurba_marseille","lat":43.29756,"lon":5.42777,"is_reserved":false,"is_disabled":true,"rental_uris":{"android":"levelo://app?vid=5eb11d83-2461-40c2-9484-0a35868d2011","ios":"levelo://app?vid=5eb11d83-2461-40c2-9484-0a35868d2011"},"vehicle_type_id":"4","last_reported":1779216666,"current_range_meters":3600,"station_id":"st_d3md5207bmas73dh9klg","pricing_plan_id":"cebpf4jnsgd1na2vs0mg"},{"bike_id":"706c7866-5737-445f-aed2-80ce7a115851","system_id":"levelo_inurba_marseille","lat":43.28614,"lon":5.37055,"is_reserved":false,"is_disabled":false,"rental_uris":{"android":"levelo://app?vid=706c7866-5737-445f-aed2-80ce7a115851","ios":"levelo://app?vid=706c7866-5737-445f-aed2-80ce7a115851"},"vehicle_type_id":"4","last_reported":1779216666,"current_range_meters":3600,"station_id":"ce4bht12rcd13ifvqi60","pricing_plan_id":"cebpf4jnsgd1na2vs0mg"},{"bike_id":"8a6a8497-1fbe-4808-ab84-8db8dc53df89","system_id":"levelo_inurba_marseille","lat":43.313171,"lon":5.397031,"is_reserved":false,"is_disabled":false,"rental_uris":{"android":"levelo://app?vid=8a6a8497-1fbe-4808-ab84-8db8dc53df89","ios":"levelo://app?vid=8a6a8497-1fbe-4808-ab84-8db8dc53df89"},"vehicle_type_id":"4","last_reported":1779216666,"current_range_meters":3600,"station_id":"ce4bgvp2rcd13ifvqcu0","pricing_plan_id":"cebpf4jnsgd1na2vs0mg"},{"bike_id":"5e66fe38-137c-4911-aed3-3848d919299d","system_id":"levelo_inurba_marseille","lat":43.27056,"lon":5.40251,"is_reserved":false,"is_disabled":false,"rental_uris":{"android":"levelo://app?vid=5e66fe38-137c-4911-aed3-3848d919299d","ios":"levelo://app?vid=5e66fe38-137c-4911-aed3-3848d919299d"},"vehicle_type_id":"4","last_reported":1779216666,"current_range_meters":3600,"station_id":"ce4bhk92rcd13ifvqgc0","pricing_plan_id":"cebpf4jnsgd1na2vs0mg"},{"bike_id":"12bf4fc8-1010-4bcf-912e-46585ec3f84a","system_id":"levelo_inurba_marseille","lat":43.31368,"lon":5.38487,"is_reserved":false,"is_disabled":false,"rental_uris":{"android":"levelo://app?vid=12bf4fc8-1010-4bcf-912e-46585ec3f84a","ios":"levelo://app?vid=12bf4fc8-1010-4bcf-912e-46585ec3f84a"},"vehicle_type_id":"4","last_reported":1779216666,"current_range_meters":3600,"station_id":"ce4bgt92rcd13ifvqcf0","pricing_plan_id":"cebpf4jnsgd1na2vs0mg"},{"bike_id":"09ea10e2-43a5-428f-afcc-00b3ec7ae464","system_id":"levelo_inurba_marseille","lat":43.309143,"lon":5.372809,"is_reserved":false,"is_disabled":true,"rental_uris":{"android":"levelo://app?vid=09ea10e2-43a5-428f-afcc-00b3ec7ae464","ios":"levelo://app?vid=09ea10e2-43a5-428f-afcc-00b3ec7ae464"},"vehicle_type_id":"4","last_reported":1779216666,"current_range_meters":3600,"station_id":"ce4bguh2rcd13ifvqckg","pricing_plan_id":"cebpf4jnsgd1na2vs0mg"},{"bike_id":"0b980130-e233-47f6-aca4-1cc574db81ba","system_id":"levelo_inurba_marseille","lat":43.30384,"lon":5.42489,"is_reserved":false,"is_disabled":false,"rental_uris":{"android":"levelo://app?vid=0b980130-e233-47f6-aca4-1cc574db81ba","ios":"levelo://app?vid=0b980130-e233-47f6-aca4-1cc574db81ba"},"vehicle_type_id":"4","last_reported":1779216666,"current_range_meters":3600,"station_id":"ce4bhoh2rcd13ifvqh6g","pricing_plan_id":"cebpf4jnsgd1na2vs0mg"},{"bike_id":"7807c6e6-8d56-4edf-a6e7-d1280082b62b","system_id":"levelo_inurba_marseille","lat":43.29714,"lon":5.36579,"is_reserved":false,"is_disabled":false,"rental_uris":{"android":"levelo://app?vid=7807c6e6-8d56-4edf-a6e7-d1280082b62b","ios":"levelo://app?vid=7807c6e6-8d56-4edf-a6e7-d1280082b62b"},"vehicle_type_id":"4","last_reported":1779216666,"current_range_meters":3600,"station_id":"ce4bgn12rcd13ifvqbt0","pricing_plan_id":"cebpf4jnsgd1na2vs0mg"},{"bike_id":"4dbd280c-3953-4144-9625-9f881dbe4387","system_id":"levelo_inurba_marseille","lat":43.27395,"lon":5.36272,"is_reserved":false,"is_disabled":false,"rental_uris":{"android":"levelo://app?vid=4dbd280c-3953-4144-9625-9f881dbe4387","ios":"levelo://app?vid=4dbd280c-3953-4144-9625-9f881dbe4387"},"vehicle_type_id":"4","last_reported":1779216666,"current_range_meters":3600,"station_id":"ce4bhbh2rcd13ifvqeo0","pricing_plan_id":"cebpf4jnsgd1na2vs0mg"},{"bike_id":"cd66c22a-ad79-4141-a617-957c45914093","system_id":"levelo_inurba_marseille","lat":43.28082,"lon":5.39636,"is_reserved":false,"is_disabled":false,"rental_uris":{"android":"levelo://app?vid=cd66c22a-ad79-4141-a617-957c45914093","ios":"levelo://app?vid=cd66c22a-ad79-4141-a617-957c45914093"},"vehicle_type_id":"4","last_reported":1779216666,"current_range_meters":3600,"station_id":"ce4bho12rcd13ifvqh2g","pricing_plan_id":"cebpf4jnsgd1na2vs0mg"},{"bike_id":"76822842-6de5-44db-bee3-28d0eed2902b","system_id":"levelo_inurba_marseille","lat":43.22921,"lon":5.3537,"is_reserved":false,"is_disabled":false,"rental_uris":{"android":"levelo://app?vid=76822842-6de5-44db-bee3-28d0eed2902b","ios":"levelo://app?vid=76822842-6de5-44db-bee3-28d0eed2902b"},"vehicle_type_id":"4","last_reported":1779216666,"current_range_meters":3600,"station_id":"cpo3532slgdg3j2ikp40","pricing_plan_id":"cebpf4jnsgd1na2vs0mg"},{"bike_id":"3fa75b94-a5f7-4cdb-8981-5d966d52a5dc","system_id":"levelo_inurba_marseille","lat":43.31997,"lon":5.38159,"is_reserved":false,"is_disabled":false,"rental_uris":{"android":"levelo://app?vid=3fa75b94-a5f7-4cdb-8981-5d966d52a5dc","ios":"levelo://app?vid=3fa75b94-a5f7-4cdb-8981-5d966d52a5dc"},"vehicle_type_id":"4","last_reported":1779216666,"current_range_meters":3600,"station_id":"ce4bhr12rcd13ifvqhpg","pricing_plan_id":"cebpf4jnsgd1na2vs0mg"},{"bike_id":"36918830-c6c2-4593-92f8-03f9a4df8da4","system_id":"levelo_inurba_marseille","lat":43.2993,"lon":5.37469,"is_reserved":false,"is_disabled":false,"rental_uris":{"android":"levelo://app?vid=36918830-c6c2-4593-92f8-03f9a4df8da4","ios":"levelo://app?vid=36918830-c6c2-4593-92f8-03f9a4df8da4"},"vehicle_type_id":"4","last_reported":1779216666,"current_range_meters":3600,"station_id":"ce4bgjh2rcd13ifvqbg0","pricing_plan_id":"cebpf4jnsgd1na2vs0mg"},{"bike_id":"c4ac293d-74e0-43c5-bb85-bc6ebfc1758d","system_id":"levelo_inurba_marseille","lat":43.297129,"lon":5.376951,"is_reserved":false,"is_disabled":false,"rental_uris":{"android":"levelo://app?vid=c4ac293d-74e0-43c5-bb85-bc6ebfc1758d","ios":"levelo://app?vid=c4ac293d-74e0-43c5-bb85-bc6ebfc1758d"},"vehicle_type_id":"4","last_reported":1779216666,"current_range_meters":4000,"station_id":"ce4bgkh2rcd13ifvqbl0","pricing_plan_id":"cebpf4jnsgd1na2vs0mg"},{"bike_id":"6f2bd330-2761-4a50-8501-6b068a12f733","system_id":"levelo_inurba_marseille","lat":43.3354,"lon":5.37458,"is_reserved":false,"is_disabled":false,"rental_uris":{"android":"levelo://app?vid=6f2bd330-2761-4a50-8501-6b068a12f733","ios":"levelo://app?vid=6f2bd330-2761-4a50-8501-6b068a12f733"},"vehicle_type_id":"4","last_reported":1779216666,"current_range_meters":4000,"station_id":"st_d46tts09ee8s73dlu43g","pricing_plan_id":"cebpf4jnsgd1na2vs0mg"},{"bike_id":"1f8259a9-7e55-4812-b53f-6d999496a759","system_id":"levelo_inurba_marseille","lat":43.2878,"lon":5.46914,"is_reserved":false,"is_disabled":false,"rental_uris":{"android":"levelo://app?vid=1f8259a9-7e55-4812-b53f-6d999496a759","ios":"levelo://app?vid=1f8259a9-7e55-4812-b53f-6d999496a759"},"vehicle_type_id":"4","last_reported":1779216666,"current_range_meters":4000,"station_id":"","pricing_plan_id":"cebpf4jnsgd1na2vs0mg"},{"bike_id":"3d91a0c6-2313-4d07-9e3d-0d954422674f","system_id":"levelo_inurba_marseille","lat":43.2468,"lon":5.3817,"is_reserved":false,"is_disabled":true,"rental_uris":{"android":"levelo://app?vid=3d91a0c6-2313-4d07-9e3d-0d954422674f","ios":"levelo://app?vid=3d91a0c6-2313-4d07-9e3d-0d954422674f"},"vehicle_type_id":"4","last_reported":1779216666,"current_range_meters":4000,"station_id":"ce4bhih2rcd13ifvqfr0","pricing_plan_id":"cebpf4jnsgd1na2vs0mg"},{"bike_id":"cc8f3673-a173-4d10-9ef3-49e112fd2e3f","system_id":"levelo_inurba_marseille","lat":43.28354,"lon":5.38116,"is_reserved":false,"is_disabled":false,"rental_uris":{"android":"levelo://app?vid=cc8f3673-a173-4d10-9ef3-49e112fd2e3f","ios":"levelo://app?vid=cc8f3673-a173-4d10-9ef3-49e112fd2e3f"},"vehicle_type_id":"4","last_reported":1779216666,"current_range_meters":4000,"station_id":"ce4bh412rcd13ifvqdr0","pricing_plan_id":"cebpf4jnsgd1na2vs0mg"},{"bike_id":"443d5a25-9bbf-4ba8-a20d-d3e8966b35c0","system_id":"levelo_inurba_marseille","lat":43.2902,"lon":5.38127,"is_reserved":false,"is_disabled":false,"rental_uris":{"android":"levelo://app?vid=443d5a25-9bbf-4ba8-a20d-d3e8966b35c0","ios":"levelo://app?vid=443d5a25-9bbf-4ba8-a20d-d3e8966b35c0"},"vehicle_type_id":"4","last_reported":1779216666,"current_range_meters":4000,"station_id":"ce4bh4p2rcd13ifvqe1g","pricing_plan_id":"cebpf4jnsgd1na2vs0mg"},{"bike_id":"94cf005a-f3dd-46cc-b238-ed4879995a5a","system_id":"levelo_inurba_marseille","lat":43.29933,"lon":5.36553,"is_reserved":false,"is_disabled":false,"rental_uris":{"android":"levelo://app?vid=94cf005a-f3dd-46cc-b238-ed4879995a5a","ios":"levelo://app?vid=94cf005a-f3dd-46cc-b238-ed4879995a5a"},"vehicle_type_id":"4","last_reported":1779216666,"current_range_meters":4000,"station_id":"ce4bgm92rcd13ifvqbr0","pricing_plan_id":"cebpf4jnsgd1na2vs0mg"},{"bike_id":"c8bb7c41-7fb7-454b-9233-36b54957c093","system_id":"levelo_inurba_marseille","lat":43.28231,"lon":5.3502,"is_reserved":false,"is_disabled":false,"rental_uris":{"android":"levelo://app?vid=c8bb7c41-7fb7-454b-9233-36b54957c093","ios":"levelo://app?vid=c8bb7c41-7fb7-454b-9233-36b54957c093"},"vehicle_type_id":"4","last_reported":1779216666,"current_range_meters":4000,"station_id":"","pricing_plan_id":"cebpf4jnsgd1na2vs0mg"},{"bike_id":"cda1ba5b-bdc7-45c0-83eb-354580aa2daf","system_id":"levelo_inurba_marseille","lat":43.24176,"lon":5.39708,"is_reserved":false,"is_disabled":false,"rental_uris":{"android":"levelo://app?vid=cda1ba5b-bdc7-45c0-83eb-354580aa2daf","ios":"levelo://app?vid=cda1ba5b-bdc7-45c0-83eb-354580aa2daf"},"vehicle_type_id":"4","last_reported":1779216666,"current_range_meters":4000,"station_id":"ce4bhn12rcd13ifvqgpg","pricing_plan_id":"cebpf4jnsgd1na2vs0mg"},{"bike_id":"c6cd3645-d37b-46c5-874c-e9e7c654f3e7","system_id":"levelo_inurba_marseille","lat":43.27987,"lon":5.40024,"is_reserved":false,"is_disabled":false,"rental_uris":{"android":"levelo://app?vid=c6cd3645-d37b-46c5-874c-e9e7c654f3e7","ios":"levelo://app?vid=c6cd3645-d37b-46c5-874c-e9e7c654f3e7"},"vehicle_type_id":"4","last_reported":1779216666,"current_range_meters":4000,"station_id":"ce4bho92rcd13ifvqh4g","pricing_plan_id":"cebpf4jnsgd1na2vs0mg"},{"bike_id":"5756fb77-e92c-4653-a1f9-334152fe5020","system_id":"levelo_inurba_marseille","lat":43.28404,"lon":5.385751,"is_reserved":false,"is_disabled":false,"rental_uris":{"android":"levelo://app?vid=5756fb77-e92c-4653-a1f9-334152fe5020","ios":"levelo://app?vid=5756fb77-e92c-4653-a1f9-334152fe5020"},"vehicle_type_id":"4","last_reported":1779216666,"current_range_meters":4000,"station_id":"ce4bh492rcd13ifvqdvg","pricing_plan_id":"cebpf4jnsgd1na2vs0mg"},{"bike_id":"77b90cbb-5469-422f-a13e-e22bfc56040a","system_id":"levelo_inurba_marseille","lat":43.325,"lon":5.38318,"is_reserved":false,"is_disabled":false,"rental_uris":{"android":"levelo://app?vid=77b90cbb-5469-422f-a13e-e22bfc56040a","ios":"levelo://app?vid=77b90cbb-5469-422f-a13e-e22bfc56040a"},"vehicle_type_id":"4","last_reported":1779216666,"current_range_meters":4400,"station_id":"st_d4asgbiv49dc73anf9m0","pricing_plan_id":"cebpf4jnsgd1na2vs0mg"},{"bike_id":"d83491f8-1b3f-4d4f-90b3-1ba08a960f80","system_id":"levelo_inurba_marseille","lat":43.29976,"lon":5.3717,"is_reserved":false,"is_disabled":false,"rental_uris":{"android":"levelo://app?vid=d83491f8-1b3f-4d4f-90b3-1ba08a960f80","ios":"levelo://app?vid=d83491f8-1b3f-4d4f-90b3-1ba08a960f80"},"vehicle_type_id":"4","last_reported":1779216666,"current_range_meters":4400,"station_id":"ce4bgr92rcd13ifvqc7g","pricing_plan_id":"cebpf4jnsgd1na2vs0mg"},{"bike_id":"0e0d5418-4a56-4251-8866-025e6b539885","system_id":"levelo_inurba_marseille","lat":43.2887,"lon":5.42518,"is_reserved":false,"is_disabled":false,"rental_uris":{"android":"levelo://app?vid=0e0d5418-4a56-4251-8866-025e6b539885","ios":"levelo://app?vid=0e0d5418-4a56-4251-8866-025e6b539885"},"vehicle_type_id":"4","last_reported":1779216666,"current_range_meters":4400,"station_id":"st_d3b462108ojc7389ooeg","pricing_plan_id":"cebpf4jnsgd1na2vs0mg"},{"bike_id":"cd1dc5b4-310f-4c4a-bc55-2ffbc8ea9bb1","system_id":"levelo_inurba_marseille","lat":43.29048,"lon":5.37145,"is_reserved":false,"is_disabled":true,"rental_uris":{"android":"levelo://app?vid=cd1dc5b4-310f-4c4a-bc55-2ffbc8ea9bb1","ios":"levelo://app?vid=cd1dc5b4-310f-4c4a-bc55-2ffbc8ea9bb1"},"vehicle_type_id":"4","last_reported":1779216666,"current_range_meters":4400,"station_id":"ce4bh5p2rcd13ifvqe4g","pricing_plan_id":"cebpf4jnsgd1na2vs0mg"},{"bike_id":"cfffd32a-84c4-4cf8-8148-d8c3cfd77b61","system_id":"levelo_inurba_marseille","lat":43.254974,"lon":5.376492,"is_reserved":false,"is_disabled":false,"rental_uris":{"android":"levelo://app?vid=cfffd32a-84c4-4cf8-8148-d8c3cfd77b61","ios":"levelo://app?vid=cfffd32a-84c4-4cf8-8148-d8c3cfd77b61"},"vehicle_type_id":"4","last_reported":1779216666,"current_range_meters":4400,"station_id":"ce4bhh12rcd13ifvqff0","pricing_plan_id":"cebpf4jnsgd1na2vs0mg"},{"bike_id":"6072feaf-d5d7-418b-be6a-070a04bd53ca","system_id":"levelo_inurba_marseille","lat":43.28947,"lon":5.36636,"is_reserved":false,"is_disabled":false,"rental_uris":{"android":"levelo://app?vid=6072feaf-d5d7-418b-be6a-070a04bd53ca","ios":"levelo://app?vid=6072feaf-d5d7-418b-be6a-070a04bd53ca"},"vehicle_type_id":"4","last_reported":1779216666,"current_range_meters":4400,"station_id":"ce4bhap2rcd13ifvqek0","pricing_plan_id":"cebpf4jnsgd1na2vs0mg"},{"bike_id":"d9c65541-3529-4b79-8661-06b81b9fa2e1","system_id":"levelo_inurba_marseille","lat":43.30207,"lon":5.39471,"is_reserved":false,"is_disabled":false,"rental_uris":{"android":"levelo://app?vid=d9c65541-3529-4b79-8661-06b81b9fa2e1","ios":"levelo://app?vid=d9c65541-3529-4b79-8661-06b81b9fa2e1"},"vehicle_type_id":"4","last_reported":1779216666,"current_range_meters":4400,"station_id":"ce4bh0p2rcd13ifvqd70","pricing_plan_id":"cebpf4jnsgd1na2vs0mg"},{"bike_id":"7fd1ea88-de2d-4e61-b47c-1f882418f4cc","system_id":"levelo_inurba_marseille","lat":43.29366,"lon":5.378495,"is_reserved":false,"is_disabled":false,"rental_uris":{"android":"levelo://app?vid=7fd1ea88-de2d-4e61-b47c-1f882418f4cc","ios":"levelo://app?vid=7fd1ea88-de2d-4e61-b47c-1f882418f4cc"},"vehicle_type_id":"4","last_reported":1779216666,"current_range_meters":4400,"station_id":"ce4bgjh2rcd13ifvqbf0","pricing_plan_id":"cebpf4jnsgd1na2vs0mg"},{"bike_id":"859ff56d-18cc-492b-8658-56eb50f4e061","system_id":"levelo_inurba_marseille","lat":43.23895,"lon":5.37453,"is_reserved":false,"is_disabled":true,"rental_uris":{"android":"levelo://app?vid=859ff56d-18cc-492b-8658-56eb50f4e061","ios":"levelo://app?vid=859ff56d-18cc-492b-8658-56eb50f4e061"},"vehicle_type_id":"4","last_reported":1779216666,"current_range_meters":4800,"station_id":"st_d6sm7csbq4hs73f8fpjg","pricing_plan_id":"cebpf4jnsgd1na2vs0mg"},{"bike_id":"11e513a4-955a-4b20-bced-fd3548036d72","system_id":"levelo_inurba_marseille","lat":43.2894,"lon":5.36399,"is_reserved":false,"is_disabled":false,"rental_uris":{"android":"levelo://app?vid=11e513a4-955a-4b20-bced-fd3548036d72","ios":"levelo://app?vid=11e513a4-955a-4b20-bced-fd3548036d72"},"vehicle_type_id":"4","last_reported":1779216666,"current_range_meters":4800,"station_id":"ce4bhc92rcd13ifvqetg","pricing_plan_id":"cebpf4jnsgd1na2vs0mg"},{"bike_id":"fb615aac-f425-4c63-b598-34d66631c597","system_id":"levelo_inurba_marseille","lat":43.24962,"lon":5.40476,"is_reserved":false,"is_disabled":false,"rental_uris":{"android":"levelo://app?vid=fb615aac-f425-4c63-b598-34d66631c597","ios":"levelo://app?vid=fb615aac-f425-4c63-b598-34d66631c597"},"vehicle_type_id":"4","last_reported":1779216666,"current_range_meters":4800,"station_id":"st_d2ngiaodas8pm72gd1h0","pricing_plan_id":"cebpf4jnsgd1na2vs0mg"},{"bike_id":"ce36ba79-8db7-4f60-a6c8-3495d191c17f","system_id":"levelo_inurba_marseille","lat":43.27611,"lon":5.36098,"is_reserved":false,"is_disabled":true,"rental_uris":{"android":"levelo://app?vid=ce36ba79-8db7-4f60-a6c8-3495d191c17f","ios":"levelo://app?vid=ce36ba79-8db7-4f60-a6c8-3495d191c17f"},"vehicle_type_id":"4","last_reported":1779216666,"current_range_meters":4800,"station_id":"ce4bgj92rcd13ifvqbe0","pricing_plan_id":"cebpf4jnsgd1na2vs0mg"},{"bike_id":"8d9285c2-2b4c-4446-93e9-9aa598ed5463","system_id":"levelo_inurba_marseille","lat":43.24185,"lon":5.36377,"is_reserved":false,"is_disabled":false,"rental_uris":{"android":"levelo://app?vid=8d9285c2-2b4c-4446-93e9-9aa598ed5463","ios":"levelo://app?vid=8d9285c2-2b4c-4446-93e9-9aa598ed5463"},"vehicle_type_id":"4","last_reported":1779216666,"current_range_meters":4800,"station_id":"cpo36qri1sfpv3e86is0","pricing_plan_id":"cebpf4jnsgd1na2vs0mg"},{"bike_id":"a8ae5349-b91c-4463-a100-02257ab425d8","system_id":"levelo_inurba_marseille","lat":43.27208,"lon":5.38565,"is_reserved":false,"is_disabled":false,"rental_uris":{"android":"levelo://app?vid=a8ae5349-b91c-4463-a100-02257ab425d8","ios":"levelo://app?vid=a8ae5349-b91c-4463-a100-02257ab425d8"},"vehicle_type_id":"4","last_reported":1779216666,"current_range_meters":4800,"station_id":"","pricing_plan_id":"cebpf4jnsgd1na2vs0mg"},{"bike_id":"c20b49a0-499a-448e-96ef-2ec501f452ec","system_id":"levelo_inurba_marseille","lat":43.24393,"lon":5.37035,"is_reserved":false,"is_disabled":false,"rental_uris":{"android":"levelo://app?vid=c20b49a0-499a-448e-96ef-2ec501f452ec","ios":"levelo://app?vid=c20b49a0-499a-448e-96ef-2ec501f452ec"},"vehicle_type_id":"4","last_reported":1779216666,"current_range_meters":4800,"station_id":"ce4bhhh2rcd13ifvqfk0","pricing_plan_id":"cebpf4jnsgd1na2vs0mg"},{"bike_id":"64ad6566-84f4-4864-b7e3-c0e70b01a873","system_id":"levelo_inurba_marseille","lat":43.31374,"lon":5.38484,"is_reserved":false,"is_disabled":false,"rental_uris":{"android":"levelo://app?vid=64ad6566-84f4-4864-b7e3-c0e70b01a873","ios":"levelo://app?vid=64ad6566-84f4-4864-b7e3-c0e70b01a873"},"vehicle_type_id":"4","last_reported":1779216666,"current_range_meters":4800,"station_id":"ce4bgt92rcd13ifvqcf0","pricing_plan_id":"cebpf4jnsgd1na2vs0mg"},{"bike_id":"9c8d24bf-91d3-4c5b-9096-a77f28cf13db","system_id":"levelo_inurba_marseille","lat":43.30909,"lon":5.37184,"is_reserved":false,"is_disabled":false,"rental_uris":{"android":"levelo://app?vid=9c8d24bf-91d3-4c5b-9096-a77f28cf13db","ios":"levelo://app?vid=9c8d24bf-91d3-4c5b-9096-a77f28cf13db"},"vehicle_type_id":"4","last_reported":1779216666,"current_range_meters":4800,"station_id":"ce4bguh2rcd13ifvqckg","pricing_plan_id":"cebpf4jnsgd1na2vs0mg"},{"bike_id":"6eeab92c-af46-42b4-aaa4-59061b3466c0","system_id":"levelo_inurba_marseille","lat":43.308897,"lon":5.371913,"is_reserved":false,"is_disabled":false,"rental_uris":{"android":"levelo://app?vid=6eeab92c-af46-42b4-aaa4-59061b3466c0","ios":"levelo://app?vid=6eeab92c-af46-42b4-aaa4-59061b3466c0"},"vehicle_type_id":"4","last_reported":1779216666,"current_range_meters":4800,"station_id":"ce4bguh2rcd13ifvqckg","pricing_plan_id":"cebpf4jnsgd1na2vs0mg"},{"bike_id":"7fa655ab-ade4-45a2-810a-f9a16ce8131e","system_id":"levelo_inurba_marseille","lat":43.25488,"lon":5.41654,"is_reserved":false,"is_disabled":false,"rental_uris":{"android":"levelo://app?vid=7fa655ab-ade4-45a2-810a-f9a16ce8131e","ios":"levelo://app?vid=7fa655ab-ade4-45a2-810a-f9a16ce8131e"},"vehicle_type_id":"4","last_reported":1779216666,"current_range_meters":4800,"station_id":"","pricing_plan_id":"cebpf4jnsgd1na2vs0mg"},{"bike_id":"5310d44c-0754-479e-beef-d185a36dc9ef","system_id":"levelo_inurba_marseille","lat":43.28412,"lon":5.34982,"is_reserved":false,"is_disabled":false,"rental_uris":{"android":"levelo://app?vid=5310d44c-0754-479e-beef-d185a36dc9ef","ios":"levelo://app?vid=5310d44c-0754-479e-beef-d185a36dc9ef"},"vehicle_type_id":"4","last_reported":1779216666,"current_range_meters":4800,"station_id":"ce4bhbh2rcd13ifvqepg","pricing_plan_id":"cebpf4jnsgd1na2vs0mg"},{"bike_id":"086dd37e-5df9-4a21-a2e3-4fff2f41f6ce","system_id":"levelo_inurba_marseille","lat":43.29197,"lon":5.35829,"is_reserved":false,"is_disabled":false,"rental_uris":{"android":"levelo://app?vid=086dd37e-5df9-4a21-a2e3-4fff2f41f6ce","ios":"levelo://app?vid=086dd37e-5df9-4a21-a2e3-4fff2f41f6ce"},"vehicle_type_id":"4","last_reported":1779216666,"current_range_meters":4800,"station_id":"ce4bhb12rcd13ifvqel0","pricing_plan_id":"cebpf4jnsgd1na2vs0mg"},{"bike_id":"bc12875f-9dcb-4f14-8ec4-c5a179682ba7","system_id":"levelo_inurba_marseille","lat":43.27924,"lon":5.39562,"is_reserved":false,"is_disabled":false,"rental_uris":{"android":"levelo://app?vid=bc12875f-9dcb-4f14-8ec4-c5a179682ba7","ios":"levelo://app?vid=bc12875f-9dcb-4f14-8ec4-c5a179682ba7"},"vehicle_type_id":"4","last_reported":1779216666,"current_range_meters":5600,"station_id":"ce4bhf92rcd13ifvqf40","pricing_plan_id":"cebpf4jnsgd1na2vs0mg"},{"bike_id":"896cc048-96e9-4966-acec-26a71f53cc5b","system_id":"levelo_inurba_marseille","lat":43.30304,"lon":5.36897,"is_reserved":false,"is_disabled":false,"rental_uris":{"android":"levelo://app?vid=896cc048-96e9-4966-acec-26a71f53cc5b","ios":"levelo://app?vid=896cc048-96e9-4966-acec-26a71f53cc5b"},"vehicle_type_id":"4","last_reported":1779216666,"current_range_meters":5600,"station_id":"ce4bgqh2rcd13ifvqc5g","pricing_plan_id":"cebpf4jnsgd1na2vs0mg"},{"bike_id":"ca4f6bf2-59b9-4fb8-9cc3-7ba12b36fa60","system_id":"levelo_inurba_marseille","lat":43.29618,"lon":5.40569,"is_reserved":false,"is_disabled":false,"rental_uris":{"android":"levelo://app?vid=ca4f6bf2-59b9-4fb8-9cc3-7ba12b36fa60","ios":"levelo://app?vid=ca4f6bf2-59b9-4fb8-9cc3-7ba12b36fa60"},"vehicle_type_id":"4","last_reported":1779216666,"current_range_meters":5600,"station_id":"ce4bh0h2rcd13ifvqd60","pricing_plan_id":"cebpf4jnsgd1na2vs0mg"},{"bike_id":"1734c312-7ce2-4680-a9fc-a7d41ba84411","system_id":"levelo_inurba_marseille","lat":43.28255,"lon":5.35079,"is_reserved":false,"is_disabled":false,"rental_uris":{"android":"levelo://app?vid=1734c312-7ce2-4680-a9fc-a7d41ba84411","ios":"levelo://app?vid=1734c312-7ce2-4680-a9fc-a7d41ba84411"},"vehicle_type_id":"4","last_reported":1779216666,"current_range_meters":5600,"station_id":"ce4bhbp2rcd13ifvqerg","pricing_plan_id":"cebpf4jnsgd1na2vs0mg"},{"bike_id":"c9513b4e-0f0e-49bc-bbff-f4414a2b16f9","system_id":"levelo_inurba_marseille","lat":43.27477,"lon":5.4165,"is_reserved":false,"is_disabled":false,"rental_uris":{"android":"levelo://app?vid=c9513b4e-0f0e-49bc-bbff-f4414a2b16f9","ios":"levelo://app?vid=c9513b4e-0f0e-49bc-bbff-f4414a2b16f9"},"vehicle_type_id":"4","last_reported":1779216666,"current_range_meters":5600,"station_id":"","pricing_plan_id":"cebpf4jnsgd1na2vs0mg"},{"bike_id":"66aa3998-c506-45a5-83d5-cd9a42760e10","system_id":"levelo_inurba_marseille","lat":43.31127,"lon":5.37764,"is_reserved":false,"is_disabled":false,"rental_uris":{"android":"levelo://app?vid=66aa3998-c506-45a5-83d5-cd9a42760e10","ios":"levelo://app?vid=66aa3998-c506-45a5-83d5-cd9a42760e10"},"vehicle_type_id":"4","last_reported":1779216666,"current_range_meters":5600,"station_id":"ce4bgt92rcd13ifvqcg0","pricing_plan_id":"cebpf4jnsgd1na2vs0mg"},{"bike_id":"5a21a571-29b5-4804-874c-1f8a85e70e59","system_id":"levelo_inurba_marseille","lat":43.290343,"lon":5.386418,"is_reserved":false,"is_disabled":false,"rental_uris":{"android":"levelo://app?vid=5a21a571-29b5-4804-874c-1f8a85e70e59","ios":"levelo://app?vid=5a21a571-29b5-4804-874c-1f8a85e70e59"},"vehicle_type_id":"4","last_reported":1779216666,"current_range_meters":5600,"station_id":"ce4bh4p2rcd13ifvqe0g","pricing_plan_id":"cebpf4jnsgd1na2vs0mg"},{"bike_id":"2331a6d4-8d41-4e0f-bed5-5cb9966b12eb","system_id":"levelo_inurba_marseille","lat":43.28609,"lon":5.39872,"is_reserved":false,"is_disabled":false,"rental_uris":{"android":"levelo://app?vid=2331a6d4-8d41-4e0f-bed5-5cb9966b12eb","ios":"levelo://app?vid=2331a6d4-8d41-4e0f-bed5-5cb9966b12eb"},"vehicle_type_id":"4","last_reported":1779216666,"current_range_meters":5600,"station_id":"st_d4a7ka997mjs738ck50g","pricing_plan_id":"cebpf4jnsgd1na2vs0mg"},{"bike_id":"3fa4241d-9cd4-4d2a-ae09-71eea79a1fa0","system_id":"levelo_inurba_marseille","lat":43.28459,"lon":5.35894,"is_reserved":false,"is_disabled":false,"rental_uris":{"android":"levelo://app?vid=3fa4241d-9cd4-4d2a-ae09-71eea79a1fa0","ios":"levelo://app?vid=3fa4241d-9cd4-4d2a-ae09-71eea79a1fa0"},"vehicle_type_id":"4","last_reported":1779216666,"current_range_meters":5600,"station_id":"ce4bhah2rcd13ifvqei0","pricing_plan_id":"cebpf4jnsgd1na2vs0mg"},{"bike_id":"9b2671e3-4cd5-4e88-bec1-86db3fe930a0","system_id":"levelo_inurba_marseille","lat":43.28828,"lon":5.35874,"is_reserved":false,"is_disabled":false,"rental_uris":{"android":"levelo://app?vid=9b2671e3-4cd5-4e88-bec1-86db3fe930a0","ios":"levelo://app?vid=9b2671e3-4cd5-4e88-bec1-86db3fe930a0"},"vehicle_type_id":"4","last_reported":1779216666,"current_range_meters":5600,"station_id":"ce4bhb12rcd13ifvqem0","pricing_plan_id":"cebpf4jnsgd1na2vs0mg"},{"bike_id":"3def504d-de33-4514-b440-ecafa81cca57","system_id":"levelo_inurba_marseille","lat":43.30657,"lon":5.40102,"is_reserved":false,"is_disabled":false,"rental_uris":{"android":"levelo://app?vid=3def504d-de33-4514-b440-ecafa81cca57","ios":"levelo://app?vid=3def504d-de33-4514-b440-ecafa81cca57"},"vehicle_type_id":"4","last_reported":1779216666,"current_range_meters":5600,"station_id":"ce4bh112rcd13ifvqda0","pricing_plan_id":"cebpf4jnsgd1na2vs0mg"},{"bike_id":"1945c429-a6b3-4afe-8b4e-c989148ef8b4","system_id":"levelo_inurba_marseille","lat":43.28651,"lon":5.37805,"is_reserved":false,"is_disabled":false,"rental_uris":{"android":"levelo://app?vid=1945c429-a6b3-4afe-8b4e-c989148ef8b4","ios":"levelo://app?vid=1945c429-a6b3-4afe-8b4e-c989148ef8b4"},"vehicle_type_id":"4","last_reported":1779216666,"current_range_meters":5600,"station_id":"","pricing_plan_id":"cebpf4jnsgd1na2vs0mg"},{"bike_id":"604c8d35-0292-4781-b66d-7833a0f007ea","system_id":"levelo_inurba_marseille","lat":43.33536,"lon":5.37451,"is_reserved":false,"is_disabled":false,"rental_uris":{"android":"levelo://app?vid=604c8d35-0292-4781-b66d-7833a0f007ea","ios":"levelo://app?vid=604c8d35-0292-4781-b66d-7833a0f007ea"},"vehicle_type_id":"4","last_reported":1779216666,"current_range_meters":6000,"station_id":"st_d46tts09ee8s73dlu43g","pricing_plan_id":"cebpf4jnsgd1na2vs0mg"},{"bike_id":"9d45a253-1d3a-41f8-95ed-2518452886d5","system_id":"levelo_inurba_marseille","lat":43.25518,"lon":5.37646,"is_reserved":false,"is_disabled":true,"rental_uris":{"android":"levelo://app?vid=9d45a253-1d3a-41f8-95ed-2518452886d5","ios":"levelo://app?vid=9d45a253-1d3a-41f8-95ed-2518452886d5"},"vehicle_type_id":"4","last_reported":1779216666,"current_range_meters":6000,"station_id":"ce4bhh12rcd13ifvqff0","pricing_plan_id":"cebpf4jnsgd1na2vs0mg"},{"bike_id":"300be1e4-4062-4458-88d8-4af498daecd5","system_id":"levelo_inurba_marseille","lat":43.24484,"lon":5.42526,"is_reserved":false,"is_disabled":false,"rental_uris":{"android":"levelo://app?vid=300be1e4-4062-4458-88d8-4af498daecd5","ios":"levelo://app?vid=300be1e4-4062-4458-88d8-4af498daecd5"},"vehicle_type_id":"4","last_reported":1779216666,"current_range_meters":6000,"station_id":"st_d4a3vfp97mjs738cd8kg","pricing_plan_id":"cebpf4jnsgd1na2vs0mg"},{"bike_id":"e097b179-9efc-4dc7-900c-299d0357201d","system_id":"levelo_inurba_marseille","lat":43.30143,"lon":5.38763,"is_reserved":false,"is_disabled":false,"rental_uris":{"android":"levelo://app?vid=e097b179-9efc-4dc7-900c-299d0357201d","ios":"levelo://app?vid=e097b179-9efc-4dc7-900c-299d0357201d"},"vehicle_type_id":"4","last_reported":1779216666,"current_range_meters":6000,"station_id":"ce4bghh2rcd13ifvqb60","pricing_plan_id":"cebpf4jnsgd1na2vs0mg"},{"bike_id":"e8560f68-eaf2-492d-a96b-b541c016ad2d","system_id":"levelo_inurba_marseille","lat":43.28244,"lon":5.35083,"is_reserved":false,"is_disabled":false,"rental_uris":{"android":"levelo://app?vid=e8560f68-eaf2-492d-a96b-b541c016ad2d","ios":"levelo://app?vid=e8560f68-eaf2-492d-a96b-b541c016ad2d"},"vehicle_type_id":"4","last_reported":1779216666,"current_range_meters":6000,"station_id":"ce4bhbp2rcd13ifvqerg","pricing_plan_id":"cebpf4jnsgd1na2vs0mg"},{"bike_id":"b2831627-3b1e-437d-9966-063b64acbf7d","system_id":"levelo_inurba_marseille","lat":43.23954,"lon":5.36613,"is_reserved":false,"is_disabled":false,"rental_uris":{"android":"levelo://app?vid=b2831627-3b1e-437d-9966-063b64acbf7d","ios":"levelo://app?vid=b2831627-3b1e-437d-9966-063b64acbf7d"},"vehicle_type_id":"4","last_reported":1779216666,"current_range_meters":6000,"station_id":"ce4bhi12rcd13ifvqfp0","pricing_plan_id":"cebpf4jnsgd1na2vs0mg"},{"bike_id":"33794a08-c5df-45d6-afd4-eac42eacad4b","system_id":"levelo_inurba_marseille","lat":43.29741,"lon":5.36603,"is_reserved":false,"is_disabled":false,"rental_uris":{"android":"levelo://app?vid=33794a08-c5df-45d6-afd4-eac42eacad4b","ios":"levelo://app?vid=33794a08-c5df-45d6-afd4-eac42eacad4b"},"vehicle_type_id":"4","last_reported":1779216666,"current_range_meters":6000,"station_id":"ce4bgn12rcd13ifvqbt0","pricing_plan_id":"cebpf4jnsgd1na2vs0mg"},{"bike_id":"89dcf81e-d685-4eb4-82aa-fe68a85d332a","system_id":"levelo_inurba_marseille","lat":43.32105,"lon":5.36764,"is_reserved":false,"is_disabled":false,"rental_uris":{"android":"levelo://app?vid=89dcf81e-d685-4eb4-82aa-fe68a85d332a","ios":"levelo://app?vid=89dcf81e-d685-4eb4-82aa-fe68a85d332a"},"vehicle_type_id":"4","last_reported":1779216666,"current_range_meters":6000,"station_id":"ce4bhrh2rcd13ifvqhug","pricing_plan_id":"cebpf4jnsgd1na2vs0mg"},{"bike_id":"ee5fe437-24bf-482c-8cfc-fb6ec77b2c51","system_id":"levelo_inurba_marseille","lat":43.289296,"lon":5.36401,"is_reserved":false,"is_disabled":true,"rental_uris":{"android":"levelo://app?vid=ee5fe437-24bf-482c-8cfc-fb6ec77b2c51","ios":"levelo://app?vid=ee5fe437-24bf-482c-8cfc-fb6ec77b2c51"},"vehicle_type_id":"4","last_reported":1779216666,"current_range_meters":6000,"station_id":"ce4bhap2rcd13ifvqek0","pricing_plan_id":"cebpf4jnsgd1na2vs0mg"},{"bike_id":"be93d86b-1d32-4dab-aebd-70c3baa22be2","system_id":"levelo_inurba_marseille","lat":43.29551,"lon":5.38535,"is_reserved":false,"is_disabled":false,"rental_uris":{"android":"levelo://app?vid=be93d86b-1d32-4dab-aebd-70c3baa22be2","ios":"levelo://app?vid=be93d86b-1d32-4dab-aebd-70c3baa22be2"},"vehicle_type_id":"4","last_reported":1779216666,"current_range_meters":6000,"station_id":"ce4bgih2rcd13ifvqba0","pricing_plan_id":"cebpf4jnsgd1na2vs0mg"},{"bike_id":"fab81f93-1e51-4f0a-b1c6-82509cf94e5f","system_id":"levelo_inurba_marseille","lat":43.3032,"lon":5.40435,"is_reserved":false,"is_disabled":false,"rental_uris":{"android":"levelo://app?vid=fab81f93-1e51-4f0a-b1c6-82509cf94e5f","ios":"levelo://app?vid=fab81f93-1e51-4f0a-b1c6-82509cf94e5f"},"vehicle_type_id":"4","last_reported":1779216666,"current_range_meters":6000,"station_id":"ce4bh012rcd13ifvqd10","pricing_plan_id":"cebpf4jnsgd1na2vs0mg"},{"bike_id":"92a48778-5aae-45c8-9818-f9e9df801c2b","system_id":"levelo_inurba_marseille","lat":43.33156,"lon":5.37684,"is_reserved":false,"is_disabled":false,"rental_uris":{"android":"levelo://app?vid=92a48778-5aae-45c8-9818-f9e9df801c2b","ios":"levelo://app?vid=92a48778-5aae-45c8-9818-f9e9df801c2b"},"vehicle_type_id":"4","last_reported":1779216666,"current_range_meters":6000,"station_id":"st_d46cu089ee8s73dldbu0","pricing_plan_id":"cebpf4jnsgd1na2vs0mg"},{"bike_id":"b0642d75-648d-4db2-b8be-16fb9f7e1056","system_id":"levelo_inurba_marseille","lat":43.290097,"lon":5.356105,"is_reserved":false,"is_disabled":false,"rental_uris":{"android":"levelo://app?vid=b0642d75-648d-4db2-b8be-16fb9f7e1056","ios":"levelo://app?vid=b0642d75-648d-4db2-b8be-16fb9f7e1056"},"vehicle_type_id":"4","last_reported":1779216666,"current_range_meters":6000,"station_id":"ce4bhb92rcd13ifvqen0","pricing_plan_id":"cebpf4jnsgd1na2vs0mg"},{"bike_id":"089969f3-0189-48cc-bbac-b874cd751dde","system_id":"levelo_inurba_marseille","lat":43.3133,"lon":5.39689,"is_reserved":false,"is_disabled":false,"rental_uris":{"android":"levelo://app?vid=089969f3-0189-48cc-bbac-b874cd751dde","ios":"levelo://app?vid=089969f3-0189-48cc-bbac-b874cd751dde"},"vehicle_type_id":"4","last_reported":1779216666,"current_range_meters":6000,"station_id":"ce4bgvp2rcd13ifvqcu0","pricing_plan_id":"cebpf4jnsgd1na2vs0mg"},{"bike_id":"01a535c2-2aa8-486c-b4e8-7a7aace55e7e","system_id":"levelo_inurba_marseille","lat":43.21749,"lon":5.3457,"is_reserved":false,"is_disabled":true,"rental_uris":{"android":"levelo://app?vid=01a535c2-2aa8-486c-b4e8-7a7aace55e7e","ios":"levelo://app?vid=01a535c2-2aa8-486c-b4e8-7a7aace55e7e"},"vehicle_type_id":"4","last_reported":1779216666,"current_range_meters":6000,"station_id":"st_cvj6r9ubvosntc0bgbag","pricing_plan_id":"cebpf4jnsgd1na2vs0mg"},{"bike_id":"cfbfdf60-d81e-4d76-86b0-d916d82fdeb8","system_id":"levelo_inurba_marseille","lat":43.2176,"lon":5.34576,"is_reserved":false,"is_disabled":false,"rental_uris":{"android":"levelo://app?vid=cfbfdf60-d81e-4d76-86b0-d916d82fdeb8","ios":"levelo://app?vid=cfbfdf60-d81e-4d76-86b0-d916d82fdeb8"},"vehicle_type_id":"4","last_reported":1779216666,"current_range_meters":6000,"station_id":"st_cvj6r9ubvosntc0bgbag","pricing_plan_id":"cebpf4jnsgd1na2vs0mg"},{"bike_id":"30bc421b-9643-4577-b1ae-6661dc385036","system_id":"levelo_inurba_marseille","lat":43.26207,"lon":5.37445,"is_reserved":false,"is_disabled":false,"rental_uris":{"android":"levelo://app?vid=30bc421b-9643-4577-b1ae-6661dc385036","ios":"levelo://app?vid=30bc421b-9643-4577-b1ae-6661dc385036"},"vehicle_type_id":"4","last_reported":1779216666,"current_range_meters":6000,"station_id":"ce4bhgp2rcd13ifvqfc0","pricing_plan_id":"cebpf4jnsgd1na2vs0mg"},{"bike_id":"a518c5c6-9876-4ea3-b5aa-30c878529d26","system_id":"levelo_inurba_marseille","lat":43.303274,"lon":5.404322,"is_reserved":false,"is_disabled":false,"rental_uris":{"android":"levelo://app?vid=a518c5c6-9876-4ea3-b5aa-30c878529d26","ios":"levelo://app?vid=a518c5c6-9876-4ea3-b5aa-30c878529d26"},"vehicle_type_id":"4","last_reported":1779216666,"current_range_meters":6000,"station_id":"ce4bh012rcd13ifvqd10","pricing_plan_id":"cebpf4jnsgd1na2vs0mg"},{"bike_id":"d70f8af7-36a4-4ba4-9c62-f6f39d1bdcab","system_id":"levelo_inurba_marseille","lat":43.27813,"lon":5.40708,"is_reserved":false,"is_disabled":false,"rental_uris":{"android":"levelo://app?vid=d70f8af7-36a4-4ba4-9c62-f6f39d1bdcab","ios":"levelo://app?vid=d70f8af7-36a4-4ba4-9c62-f6f39d1bdcab"},"vehicle_type_id":"4","last_reported":1779216666,"current_range_meters":6000,"station_id":"ce4bhnh2rcd13ifvqgtg","pricing_plan_id":"cebpf4jnsgd1na2vs0mg"},{"bike_id":"771be989-48da-4e6d-8725-8db17e852ddd","system_id":"levelo_inurba_marseille","lat":43.28863,"lon":5.42522,"is_reserved":false,"is_disabled":false,"rental_uris":{"android":"levelo://app?vid=771be989-48da-4e6d-8725-8db17e852ddd","ios":"levelo://app?vid=771be989-48da-4e6d-8725-8db17e852ddd"},"vehicle_type_id":"4","last_reported":1779216666,"current_range_meters":6000,"station_id":"st_d3b462108ojc7389ooeg","pricing_plan_id":"cebpf4jnsgd1na2vs0mg"},{"bike_id":"38034984-a9a6-4442-a1e1-41a2c3609882","system_id":"levelo_inurba_marseille","lat":43.237864,"lon":5.4145,"is_reserved":false,"is_disabled":false,"rental_uris":{"android":"levelo://app?vid=38034984-a9a6-4442-a1e1-41a2c3609882","ios":"levelo://app?vid=38034984-a9a6-4442-a1e1-41a2c3609882"},"vehicle_type_id":"4","last_reported":1779216666,"current_range_meters":6000,"station_id":"","pricing_plan_id":"cebpf4jnsgd1na2vs0mg"},{"bike_id":"8f4befa1-b1bd-48b9-88e1-78cf74c9d7fa","system_id":"levelo_inurba_marseille","lat":43.27475,"lon":5.38255,"is_reserved":false,"is_disabled":false,"rental_uris":{"android":"levelo://app?vid=8f4befa1-b1bd-48b9-88e1-78cf74c9d7fa","ios":"levelo://app?vid=8f4befa1-b1bd-48b9-88e1-78cf74c9d7fa"},"vehicle_type_id":"4","last_reported":1779216666,"current_range_meters":6000,"station_id":"","pricing_plan_id":"cebpf4jnsgd1na2vs0mg"},{"bike_id":"11e1dce5-4d1f-4c00-b7fc-608412660018","system_id":"levelo_inurba_marseille","lat":43.28917,"lon":5.38428,"is_reserved":false,"is_disabled":false,"rental_uris":{"android":"levelo://app?vid=11e1dce5-4d1f-4c00-b7fc-608412660018","ios":"levelo://app?vid=11e1dce5-4d1f-4c00-b7fc-608412660018"},"vehicle_type_id":"4","last_reported":1779216666,"current_range_meters":6400,"station_id":"ce4bh612rcd13ifvqe6g","pricing_plan_id":"cebpf4jnsgd1na2vs0mg"},{"bike_id":"9b576622-682a-441d-b616-520a80f046f3","system_id":"levelo_inurba_marseille","lat":43.2835,"lon":5.38088,"is_reserved":false,"is_disabled":false,"rental_uris":{"android":"levelo://app?vid=9b576622-682a-441d-b616-520a80f046f3","ios":"levelo://app?vid=9b576622-682a-441d-b616-520a80f046f3"},"vehicle_type_id":"4","last_reported":1779216666,"current_range_meters":6400,"station_id":"ce4bh412rcd13ifvqdr0","pricing_plan_id":"cebpf4jnsgd1na2vs0mg"},{"bike_id":"4a8fff30-cbc5-491d-8d3e-d22b568d1485","system_id":"levelo_inurba_marseille","lat":43.26465,"lon":5.37422,"is_reserved":false,"is_disabled":false,"rental_uris":{"android":"levelo://app?vid=4a8fff30-cbc5-491d-8d3e-d22b568d1485","ios":"levelo://app?vid=4a8fff30-cbc5-491d-8d3e-d22b568d1485"},"vehicle_type_id":"4","last_reported":1779216666,"current_range_meters":6400,"station_id":"","pricing_plan_id":"cebpf4jnsgd1na2vs0mg"},{"bike_id":"8b089835-e8f9-4aee-ba86-0068499a6102","system_id":"levelo_inurba_marseille","lat":43.29524,"lon":5.39054,"is_reserved":false,"is_disabled":true,"rental_uris":{"android":"levelo://app?vid=8b089835-e8f9-4aee-ba86-0068499a6102","ios":"levelo://app?vid=8b089835-e8f9-4aee-ba86-0068499a6102"},"vehicle_type_id":"4","last_reported":1779216666,"current_range_meters":6400,"station_id":"ce4bh3p2rcd13ifvqdp0","pricing_plan_id":"cebpf4jnsgd1na2vs0mg"},{"bike_id":"a589afee-c55a-43a1-8dc9-b4e20ff4b3a0","system_id":"levelo_inurba_marseille","lat":43.25595,"lon":5.38197,"is_reserved":false,"is_disabled":false,"rental_uris":{"android":"levelo://app?vid=a589afee-c55a-43a1-8dc9-b4e20ff4b3a0","ios":"levelo://app?vid=a589afee-c55a-43a1-8dc9-b4e20ff4b3a0"},"vehicle_type_id":"4","last_reported":1779216666,"current_range_meters":6400,"station_id":"ce4bhih2rcd13ifvqfs0","pricing_plan_id":"cebpf4jnsgd1na2vs0mg"},{"bike_id":"963c4a80-14a6-4a77-a019-35e211efa3c7","system_id":"levelo_inurba_marseille","lat":43.30954,"lon":5.39032,"is_reserved":false,"is_disabled":false,"rental_uris":{"android":"levelo://app?vid=963c4a80-14a6-4a77-a019-35e211efa3c7","ios":"levelo://app?vid=963c4a80-14a6-4a77-a019-35e211efa3c7"},"vehicle_type_id":"4","last_reported":1779216666,"current_range_meters":6400,"station_id":"ce4bgup2rcd13ifvqco0","pricing_plan_id":"cebpf4jnsgd1na2vs0mg"},{"bike_id":"7c260c7d-d9ed-4ca3-9e2d-27bf132a1d6d","system_id":"levelo_inurba_marseille","lat":43.301559,"lon":5.38132,"is_reserved":false,"is_disabled":false,"rental_uris":{"android":"levelo://app?vid=7c260c7d-d9ed-4ca3-9e2d-27bf132a1d6d","ios":"levelo://app?vid=7c260c7d-d9ed-4ca3-9e2d-27bf132a1d6d"},"vehicle_type_id":"4","last_reported":1779216666,"current_range_meters":6400,"station_id":"ce4bgjp2rcd13ifvqbh0","pricing_plan_id":"cebpf4jnsgd1na2vs0mg"},{"bike_id":"e6a11dce-b475-400c-bb1b-c3b97e330203","system_id":"levelo_inurba_marseille","lat":43.28419,"lon":5.3498,"is_reserved":false,"is_disabled":false,"rental_uris":{"android":"levelo://app?vid=e6a11dce-b475-400c-bb1b-c3b97e330203","ios":"levelo://app?vid=e6a11dce-b475-400c-bb1b-c3b97e330203"},"vehicle_type_id":"4","last_reported":1779216666,"current_range_meters":6400,"station_id":"ce4bhbh2rcd13ifvqepg","pricing_plan_id":"cebpf4jnsgd1na2vs0mg"},{"bike_id":"0fc8a8de-84b0-49eb-adab-8aa38f828302","system_id":"levelo_inurba_marseille","lat":43.33039,"lon":5.39035,"is_reserved":false,"is_disabled":false,"rental_uris":{"android":"levelo://app?vid=0fc8a8de-84b0-49eb-adab-8aa38f828302","ios":"levelo://app?vid=0fc8a8de-84b0-49eb-adab-8aa38f828302"},"vehicle_type_id":"4","last_reported":1779216666,"current_range_meters":6400,"station_id":"ce4bhr92rcd13ifvqhrg","pricing_plan_id":"cebpf4jnsgd1na2vs0mg"},{"bike_id":"69fb0f2e-8291-4305-b561-741ac11e259e","system_id":"levelo_inurba_marseille","lat":43.276186,"lon":5.361004,"is_reserved":false,"is_disabled":true,"rental_uris":{"android":"levelo://app?vid=69fb0f2e-8291-4305-b561-741ac11e259e","ios":"levelo://app?vid=69fb0f2e-8291-4305-b561-741ac11e259e"},"vehicle_type_id":"4","last_reported":1779216666,"current_range_meters":6400,"station_id":"ce4bgj92rcd13ifvqbe0","pricing_plan_id":"cebpf4jnsgd1na2vs0mg"},{"bike_id":"355ecd15-f99b-4bfe-bf00-8fde28ffd9d2","system_id":"levelo_inurba_marseille","lat":43.27995,"lon":5.41656,"is_reserved":false,"is_disabled":false,"rental_uris":{"android":"levelo://app?vid=355ecd15-f99b-4bfe-bf00-8fde28ffd9d2","ios":"levelo://app?vid=355ecd15-f99b-4bfe-bf00-8fde28ffd9d2"},"vehicle_type_id":"4","last_reported":1779216666,"current_range_meters":6400,"station_id":"ce4bho12rcd13ifvqh1g","pricing_plan_id":"cebpf4jnsgd1na2vs0mg"},{"bike_id":"0fc5296a-420a-41dc-8f80-7003c304f09d","system_id":"levelo_inurba_marseille","lat":43.28444,"lon":5.39199,"is_reserved":false,"is_disabled":false,"rental_uris":{"android":"levelo://app?vid=0fc5296a-420a-41dc-8f80-7003c304f09d","ios":"levelo://app?vid=0fc5296a-420a-41dc-8f80-7003c304f09d"},"vehicle_type_id":"4","last_reported":1779216666,"current_range_meters":6400,"station_id":"ce4bhoh2rcd13ifvqh5g","pricing_plan_id":"cebpf4jnsgd1na2vs0mg"},{"bike_id":"a57b6d8c-426e-41f2-88fd-ed699a7b5fab","system_id":"levelo_inurba_marseille","lat":43.321,"lon":5.3677,"is_reserved":false,"is_disabled":false,"rental_uris":{"android":"levelo://app?vid=a57b6d8c-426e-41f2-88fd-ed699a7b5fab","ios":"levelo://app?vid=a57b6d8c-426e-41f2-88fd-ed699a7b5fab"},"vehicle_type_id":"4","last_reported":1779216666,"current_range_meters":6400,"station_id":"ce4bhrh2rcd13ifvqhug","pricing_plan_id":"cebpf4jnsgd1na2vs0mg"},{"bike_id":"fb98ec42-ab50-4435-af52-2b5eb011328c","system_id":"levelo_inurba_marseille","lat":43.29937,"lon":5.36545,"is_reserved":false,"is_disabled":false,"rental_uris":{"android":"levelo://app?vid=fb98ec42-ab50-4435-af52-2b5eb011328c","ios":"levelo://app?vid=fb98ec42-ab50-4435-af52-2b5eb011328c"},"vehicle_type_id":"4","last_reported":1779216666,"current_range_meters":6400,"station_id":"ce4bgm92rcd13ifvqbr0","pricing_plan_id":"cebpf4jnsgd1na2vs0mg"},{"bike_id":"71dd2ce2-b508-433c-a3b9-ab0e3c1db27f","system_id":"levelo_inurba_marseille","lat":43.28571,"lon":5.39501,"is_reserved":false,"is_disabled":false,"rental_uris":{"android":"levelo://app?vid=71dd2ce2-b508-433c-a3b9-ab0e3c1db27f","ios":"levelo://app?vid=71dd2ce2-b508-433c-a3b9-ab0e3c1db27f"},"vehicle_type_id":"4","last_reported":1779216666,"current_range_meters":6400,"station_id":"ce4bh292rcd13ifvqdg0","pricing_plan_id":"cebpf4jnsgd1na2vs0mg"},{"bike_id":"33d88ca2-c2d8-4c35-8e30-d26788d55278","system_id":"levelo_inurba_marseille","lat":43.24551,"lon":5.39514,"is_reserved":false,"is_disabled":false,"rental_uris":{"android":"levelo://app?vid=33d88ca2-c2d8-4c35-8e30-d26788d55278","ios":"levelo://app?vid=33d88ca2-c2d8-4c35-8e30-d26788d55278"},"vehicle_type_id":"4","last_reported":1779216666,"current_range_meters":6400,"station_id":"ce4bhlp2rcd13ifvqgjg","pricing_plan_id":"cebpf4jnsgd1na2vs0mg"},{"bike_id":"d5507518-cb58-4fc3-a22b-de5ad3c6e51d","system_id":"levelo_inurba_marseille","lat":43.29837,"lon":5.44067,"is_reserved":false,"is_disabled":false,"rental_uris":{"android":"levelo://app?vid=d5507518-cb58-4fc3-a22b-de5ad3c6e51d","ios":"levelo://app?vid=d5507518-cb58-4fc3-a22b-de5ad3c6e51d"},"vehicle_type_id":"4","last_reported":1779216666,"current_range_meters":6400,"station_id":"","pricing_plan_id":"cebpf4jnsgd1na2vs0mg"},{"bike_id":"bed30e45-52d3-4d59-a462-69ac09ce976c","system_id":"levelo_inurba_marseille","lat":43.27993,"lon":5.40017,"is_reserved":false,"is_disabled":false,"rental_uris":{"android":"levelo://app?vid=bed30e45-52d3-4d59-a462-69ac09ce976c","ios":"levelo://app?vid=bed30e45-52d3-4d59-a462-69ac09ce976c"},"vehicle_type_id":"4","last_reported":1779216666,"current_range_meters":6400,"station_id":"ce4bho92rcd13ifvqh4g","pricing_plan_id":"cebpf4jnsgd1na2vs0mg"},{"bike_id":"5b9c7a4f-0589-46e7-bcb8-d92a7849ff92","system_id":"levelo_inurba_marseille","lat":43.29583,"lon":5.375,"is_reserved":false,"is_disabled":false,"rental_uris":{"android":"levelo://app?vid=5b9c7a4f-0589-46e7-bcb8-d92a7849ff92","ios":"levelo://app?vid=5b9c7a4f-0589-46e7-bcb8-d92a7849ff92"},"vehicle_type_id":"4","last_reported":1779216666,"current_range_meters":6400,"station_id":"ce4bgh92rcd13ifvqb50","pricing_plan_id":"cebpf4jnsgd1na2vs0mg"},{"bike_id":"01330d36-0863-4660-98a2-b9b7fbccf6b4","system_id":"levelo_inurba_marseille","lat":43.28575,"lon":5.39525,"is_reserved":false,"is_disabled":false,"rental_uris":{"android":"levelo://app?vid=01330d36-0863-4660-98a2-b9b7fbccf6b4","ios":"levelo://app?vid=01330d36-0863-4660-98a2-b9b7fbccf6b4"},"vehicle_type_id":"4","last_reported":1779216666,"current_range_meters":6400,"station_id":"ce4bh292rcd13ifvqdg0","pricing_plan_id":"cebpf4jnsgd1na2vs0mg"},{"bike_id":"e17e909d-46f3-41dc-9547-4d3ffa4e2cc2","system_id":"levelo_inurba_marseille","lat":43.28281,"lon":5.35066,"is_reserved":false,"is_disabled":false,"rental_uris":{"android":"levelo://app?vid=e17e909d-46f3-41dc-9547-4d3ffa4e2cc2","ios":"levelo://app?vid=e17e909d-46f3-41dc-9547-4d3ffa4e2cc2"},"vehicle_type_id":"4","last_reported":1779216666,"current_range_meters":6400,"station_id":"ce4bhbp2rcd13ifvqerg","pricing_plan_id":"cebpf4jnsgd1na2vs0mg"},{"bike_id":"8b5fe887-0d07-4a23-9fbd-a7025800ec01","system_id":"levelo_inurba_marseille","lat":43.273725,"lon":5.36265,"is_reserved":false,"is_disabled":false,"rental_uris":{"android":"levelo://app?vid=8b5fe887-0d07-4a23-9fbd-a7025800ec01","ios":"levelo://app?vid=8b5fe887-0d07-4a23-9fbd-a7025800ec01"},"vehicle_type_id":"4","last_reported":1779216666,"current_range_meters":6400,"station_id":"ce4bhbh2rcd13ifvqeo0","pricing_plan_id":"cebpf4jnsgd1na2vs0mg"},{"bike_id":"836a39fe-84c6-4c08-8b7b-c701c4452eab","system_id":"levelo_inurba_marseille","lat":43.22537,"lon":5.34825,"is_reserved":false,"is_disabled":false,"rental_uris":{"android":"levelo://app?vid=836a39fe-84c6-4c08-8b7b-c701c4452eab","ios":"levelo://app?vid=836a39fe-84c6-4c08-8b7b-c701c4452eab"},"vehicle_type_id":"4","last_reported":1779216666,"current_range_meters":6400,"station_id":"st_cvj5dfep6f1abm77gieg","pricing_plan_id":"cebpf4jnsgd1na2vs0mg"},{"bike_id":"6b3c6003-290b-4634-a2c2-5d8bfc3afa5a","system_id":"levelo_inurba_marseille","lat":43.30396,"lon":5.42477,"is_reserved":false,"is_disabled":false,"rental_uris":{"android":"levelo://app?vid=6b3c6003-290b-4634-a2c2-5d8bfc3afa5a","ios":"levelo://app?vid=6b3c6003-290b-4634-a2c2-5d8bfc3afa5a"},"vehicle_type_id":"4","last_reported":1779216666,"current_range_meters":6800,"station_id":"ce4bhoh2rcd13ifvqh6g","pricing_plan_id":"cebpf4jnsgd1na2vs0mg"},{"bike_id":"e8703d1e-38d7-4a37-8b34-74e110535cc7","system_id":"levelo_inurba_marseille","lat":43.25059,"lon":5.39511,"is_reserved":false,"is_disabled":false,"rental_uris":{"android":"levelo://app?vid=e8703d1e-38d7-4a37-8b34-74e110535cc7","ios":"levelo://app?vid=e8703d1e-38d7-4a37-8b34-74e110535cc7"},"vehicle_type_id":"4","last_reported":1779216666,"current_range_meters":6800,"station_id":"ce4bhm12rcd13ifvqgkg","pricing_plan_id":"cebpf4jnsgd1na2vs0mg"},{"bike_id":"342cc1b3-f89e-4947-a5fe-91fbe283d8b0","system_id":"levelo_inurba_marseille","lat":43.30602,"lon":5.39336,"is_reserved":false,"is_disabled":false,"rental_uris":{"android":"levelo://app?vid=342cc1b3-f89e-4947-a5fe-91fbe283d8b0","ios":"levelo://app?vid=342cc1b3-f89e-4947-a5fe-91fbe283d8b0"},"vehicle_type_id":"4","last_reported":1779216666,"current_range_meters":6800,"station_id":"ce4bh0p2rcd13ifvqd80","pricing_plan_id":"cebpf4jnsgd1na2vs0mg"},{"bike_id":"5e88aa5f-bb07-4f5b-9b5f-d200ac3123af","system_id":"levelo_inurba_marseille","lat":43.27375,"lon":5.36249,"is_reserved":false,"is_disabled":false,"rental_uris":{"android":"levelo://app?vid=5e88aa5f-bb07-4f5b-9b5f-d200ac3123af","ios":"levelo://app?vid=5e88aa5f-bb07-4f5b-9b5f-d200ac3123af"},"vehicle_type_id":"4","last_reported":1779216666,"current_range_meters":6800,"station_id":"ce4bhbh2rcd13ifvqeo0","pricing_plan_id":"cebpf4jnsgd1na2vs0mg"},{"bike_id":"10bd0f51-e240-4369-bf08-0601db5205ca","system_id":"levelo_inurba_marseille","lat":43.30791,"lon":5.37636,"is_reserved":false,"is_disabled":false,"rental_uris":{"android":"levelo://app?vid=10bd0f51-e240-4369-bf08-0601db5205ca","ios":"levelo://app?vid=10bd0f51-e240-4369-bf08-0601db5205ca"},"vehicle_type_id":"4","last_reported":1779216666,"current_range_meters":6800,"station_id":"ce4bgv92rcd13ifvqcq0","pricing_plan_id":"cebpf4jnsgd1na2vs0mg"},{"bike_id":"88e061d4-200e-450e-b7c2-b8c848567f43","system_id":"levelo_inurba_marseille","lat":43.24831,"lon":5.37436,"is_reserved":false,"is_disabled":false,"rental_uris":{"android":"levelo://app?vid=88e061d4-200e-450e-b7c2-b8c848567f43","ios":"levelo://app?vid=88e061d4-200e-450e-b7c2-b8c848567f43"},"vehicle_type_id":"4","last_reported":1779216666,"current_range_meters":6800,"station_id":"ce4bhgh2rcd13ifvqfb0","pricing_plan_id":"cebpf4jnsgd1na2vs0mg"},{"bike_id":"a8c1c2d5-b2c0-4d38-925b-e17fb3c6114c","system_id":"levelo_inurba_marseille","lat":43.29537,"lon":5.38536,"is_reserved":false,"is_disabled":false,"rental_uris":{"android":"levelo://app?vid=a8c1c2d5-b2c0-4d38-925b-e17fb3c6114c","ios":"levelo://app?vid=a8c1c2d5-b2c0-4d38-925b-e17fb3c6114c"},"vehicle_type_id":"4","last_reported":1779216666,"current_range_meters":6800,"station_id":"ce4bgih2rcd13ifvqba0","pricing_plan_id":"cebpf4jnsgd1na2vs0mg"},{"bike_id":"db8a4dd4-5383-4c0f-a06a-3d7a00c725c2","system_id":"levelo_inurba_marseille","lat":43.24956,"lon":5.40479,"is_reserved":false,"is_disabled":false,"rental_uris":{"android":"levelo://app?vid=db8a4dd4-5383-4c0f-a06a-3d7a00c725c2","ios":"levelo://app?vid=db8a4dd4-5383-4c0f-a06a-3d7a00c725c2"},"vehicle_type_id":"4","last_reported":1779216666,"current_range_meters":6800,"station_id":"st_d2ngiaodas8pm72gd1h0","pricing_plan_id":"cebpf4jnsgd1na2vs0mg"},{"bike_id":"c833d4e9-9a79-4a78-92a9-1243c31bbc69","system_id":"levelo_inurba_marseille","lat":43.26244,"lon":5.38756,"is_reserved":false,"is_disabled":false,"rental_uris":{"android":"levelo://app?vid=c833d4e9-9a79-4a78-92a9-1243c31bbc69","ios":"levelo://app?vid=c833d4e9-9a79-4a78-92a9-1243c31bbc69"},"vehicle_type_id":"4","last_reported":1779216666,"current_range_meters":6800,"station_id":"","pricing_plan_id":"cebpf4jnsgd1na2vs0mg"},{"bike_id":"33f1022a-86ed-42b2-a2fa-b6b00d8323f5","system_id":"levelo_inurba_marseille","lat":43.31121,"lon":5.37786,"is_reserved":false,"is_disabled":false,"rental_uris":{"android":"levelo://app?vid=33f1022a-86ed-42b2-a2fa-b6b00d8323f5","ios":"levelo://app?vid=33f1022a-86ed-42b2-a2fa-b6b00d8323f5"},"vehicle_type_id":"4","last_reported":1779216666,"current_range_meters":6800,"station_id":"ce4bgt92rcd13ifvqcg0","pricing_plan_id":"cebpf4jnsgd1na2vs0mg"},{"bike_id":"7ab6650b-80e1-4261-ba2c-d19d89c04647","system_id":"levelo_inurba_marseille","lat":43.29581,"lon":5.39956,"is_reserved":false,"is_disabled":false,"rental_uris":{"android":"levelo://app?vid=7ab6650b-80e1-4261-ba2c-d19d89c04647","ios":"levelo://app?vid=7ab6650b-80e1-4261-ba2c-d19d89c04647"},"vehicle_type_id":"4","last_reported":1779216666,"current_range_meters":6800,"station_id":"ce4bh312rcd13ifvqdj0","pricing_plan_id":"cebpf4jnsgd1na2vs0mg"},{"bike_id":"c4974bd9-5751-460d-adbf-9b24dcd04bf3","system_id":"levelo_inurba_marseille","lat":43.25318,"lon":5.42173,"is_reserved":false,"is_disabled":false,"rental_uris":{"android":"levelo://app?vid=c4974bd9-5751-460d-adbf-9b24dcd04bf3","ios":"levelo://app?vid=c4974bd9-5751-460d-adbf-9b24dcd04bf3"},"vehicle_type_id":"4","last_reported":1779216666,"current_range_meters":6800,"station_id":"st_d2m65c5bi1j21697t3ng","pricing_plan_id":"cebpf4jnsgd1na2vs0mg"},{"bike_id":"307649aa-27e4-4df6-9f4f-6bc80d98bbbc","system_id":"levelo_inurba_marseille","lat":43.29231,"lon":5.3606,"is_reserved":false,"is_disabled":false,"rental_uris":{"android":"levelo://app?vid=307649aa-27e4-4df6-9f4f-6bc80d98bbbc","ios":"levelo://app?vid=307649aa-27e4-4df6-9f4f-6bc80d98bbbc"},"vehicle_type_id":"4","last_reported":1779216666,"current_range_meters":6800,"station_id":"ce4bhbh2rcd13ifvqeqg","pricing_plan_id":"cebpf4jnsgd1na2vs0mg"},{"bike_id":"6a91865e-a9b9-4e12-9a27-bd761f2df4bb","system_id":"levelo_inurba_marseille","lat":43.24636,"lon":5.43148,"is_reserved":false,"is_disabled":false,"rental_uris":{"android":"levelo://app?vid=6a91865e-a9b9-4e12-9a27-bd761f2df4bb","ios":"levelo://app?vid=6a91865e-a9b9-4e12-9a27-bd761f2df4bb"},"vehicle_type_id":"4","last_reported":1779216666,"current_range_meters":6800,"station_id":"st_d2m6c4gdas8pm72e190g","pricing_plan_id":"cebpf4jnsgd1na2vs0mg"},{"bike_id":"cf7373d3-c364-48da-9656-3acb8ea466d7","system_id":"levelo_inurba_marseille","lat":43.28401,"lon":5.34987,"is_reserved":false,"is_disabled":false,"rental_uris":{"android":"levelo://app?vid=cf7373d3-c364-48da-9656-3acb8ea466d7","ios":"levelo://app?vid=cf7373d3-c364-48da-9656-3acb8ea466d7"},"vehicle_type_id":"4","last_reported":1779216666,"current_range_meters":6800,"station_id":"ce4bhbh2rcd13ifvqepg","pricing_plan_id":"cebpf4jnsgd1na2vs0mg"},{"bike_id":"50b89e9a-8d9e-4c4e-af8b-895cd4c5e7fb","system_id":"levelo_inurba_marseille","lat":43.29198,"lon":5.358015,"is_reserved":false,"is_disabled":false,"rental_uris":{"android":"levelo://app?vid=50b89e9a-8d9e-4c4e-af8b-895cd4c5e7fb","ios":"levelo://app?vid=50b89e9a-8d9e-4c4e-af8b-895cd4c5e7fb"},"vehicle_type_id":"4","last_reported":1779216666,"current_range_meters":6800,"station_id":"ce4bh8p2rcd13ifvqeb0","pricing_plan_id":"cebpf4jnsgd1na2vs0mg"},{"bike_id":"db64407c-ffae-4dcc-8469-08e34001ef67","system_id":"levelo_inurba_marseille","lat":43.282702,"lon":5.350587,"is_reserved":false,"is_disabled":false,"rental_uris":{"android":"levelo://app?vid=db64407c-ffae-4dcc-8469-08e34001ef67","ios":"levelo://app?vid=db64407c-ffae-4dcc-8469-08e34001ef67"},"vehicle_type_id":"4","last_reported":1779216666,"current_range_meters":6800,"station_id":"ce4bhbp2rcd13ifvqerg","pricing_plan_id":"cebpf4jnsgd1na2vs0mg"},{"bike_id":"39f4d6cc-ccae-47f3-a1b2-596d73177702","system_id":"levelo_inurba_marseille","lat":43.3134,"lon":5.396667,"is_reserved":false,"is_disabled":false,"rental_uris":{"android":"levelo://app?vid=39f4d6cc-ccae-47f3-a1b2-596d73177702","ios":"levelo://app?vid=39f4d6cc-ccae-47f3-a1b2-596d73177702"},"vehicle_type_id":"4","last_reported":1779216666,"current_range_meters":6800,"station_id":"ce4bgvp2rcd13ifvqcu0","pricing_plan_id":"cebpf4jnsgd1na2vs0mg"},{"bike_id":"0ab54c51-2cd5-429e-99a7-d9b354415bcb","system_id":"levelo_inurba_marseille","lat":43.31205,"lon":5.37849,"is_reserved":false,"is_disabled":false,"rental_uris":{"android":"levelo://app?vid=0ab54c51-2cd5-429e-99a7-d9b354415bcb","ios":"levelo://app?vid=0ab54c51-2cd5-429e-99a7-d9b354415bcb"},"vehicle_type_id":"4","last_reported":1779216666,"current_range_meters":6800,"station_id":"","pricing_plan_id":"cebpf4jnsgd1na2vs0mg"},{"bike_id":"873721de-93c4-472a-bef9-bdc7109eae1b","system_id":"levelo_inurba_marseille","lat":43.2927,"lon":5.38422,"is_reserved":false,"is_disabled":false,"rental_uris":{"android":"levelo://app?vid=873721de-93c4-472a-bef9-bdc7109eae1b","ios":"levelo://app?vid=873721de-93c4-472a-bef9-bdc7109eae1b"},"vehicle_type_id":"4","last_reported":1779216666,"current_range_meters":6800,"station_id":"ce4bh692rcd13ifvqea0","pricing_plan_id":"cebpf4jnsgd1na2vs0mg"},{"bike_id":"641625a9-15d1-4318-92bd-6c7525fc2c00","system_id":"levelo_inurba_marseille","lat":43.309341,"lon":5.401384,"is_reserved":false,"is_disabled":false,"rental_uris":{"android":"levelo://app?vid=641625a9-15d1-4318-92bd-6c7525fc2c00","ios":"levelo://app?vid=641625a9-15d1-4318-92bd-6c7525fc2c00"},"vehicle_type_id":"4","last_reported":1779216666,"current_range_meters":6800,"station_id":"ce4bgvp2rcd13ifvqct0","pricing_plan_id":"cebpf4jnsgd1na2vs0mg"},{"bike_id":"408701cc-3f2d-4c32-b20d-587f50ccde82","system_id":"levelo_inurba_marseille","lat":43.305578,"lon":5.367156,"is_reserved":false,"is_disabled":false,"rental_uris":{"android":"levelo://app?vid=408701cc-3f2d-4c32-b20d-587f50ccde82","ios":"levelo://app?vid=408701cc-3f2d-4c32-b20d-587f50ccde82"},"vehicle_type_id":"4","last_reported":1779216666,"current_range_meters":6800,"station_id":"","pricing_plan_id":"cebpf4jnsgd1na2vs0mg"},{"bike_id":"36cdc993-b8ba-47a2-a619-a1f39172f477","system_id":"levelo_inurba_marseille","lat":43.30353,"lon":5.40459,"is_reserved":false,"is_disabled":true,"rental_uris":{"android":"levelo://app?vid=36cdc993-b8ba-47a2-a619-a1f39172f477","ios":"levelo://app?vid=36cdc993-b8ba-47a2-a619-a1f39172f477"},"vehicle_type_id":"4","last_reported":1779216666,"current_range_meters":6800,"station_id":"ce4bh012rcd13ifvqd10","pricing_plan_id":"cebpf4jnsgd1na2vs0mg"},{"bike_id":"a5378750-4170-4274-957e-6a189559614b","system_id":"levelo_inurba_marseille","lat":43.286167,"lon":5.351063,"is_reserved":false,"is_disabled":false,"rental_uris":{"android":"levelo://app?vid=a5378750-4170-4274-957e-6a189559614b","ios":"levelo://app?vid=a5378750-4170-4274-957e-6a189559614b"},"vehicle_type_id":"4","last_reported":1779216666,"current_range_meters":7200,"station_id":"ce4bhch2rcd13ifvqeug","pricing_plan_id":"cebpf4jnsgd1na2vs0mg"},{"bike_id":"631f5a0b-87cc-47ad-8b61-46a1163ec77e","system_id":"levelo_inurba_marseille","lat":43.25477,"lon":5.37658,"is_reserved":false,"is_disabled":false,"rental_uris":{"android":"levelo://app?vid=631f5a0b-87cc-47ad-8b61-46a1163ec77e","ios":"levelo://app?vid=631f5a0b-87cc-47ad-8b61-46a1163ec77e"},"vehicle_type_id":"4","last_reported":1779216666,"current_range_meters":7200,"station_id":"ce4bhh12rcd13ifvqff0","pricing_plan_id":"cebpf4jnsgd1na2vs0mg"},{"bike_id":"c46a8f8e-5bde-4459-b72a-15f7581d746a","system_id":"levelo_inurba_marseille","lat":43.27381,"lon":5.36258,"is_reserved":false,"is_disabled":false,"rental_uris":{"android":"levelo://app?vid=c46a8f8e-5bde-4459-b72a-15f7581d746a","ios":"levelo://app?vid=c46a8f8e-5bde-4459-b72a-15f7581d746a"},"vehicle_type_id":"4","last_reported":1779216666,"current_range_meters":7200,"station_id":"ce4bhbh2rcd13ifvqeo0","pricing_plan_id":"cebpf4jnsgd1na2vs0mg"},{"bike_id":"8aa4042b-067b-4783-a174-79e2496089f3","system_id":"levelo_inurba_marseille","lat":43.2862,"lon":5.35103,"is_reserved":false,"is_disabled":false,"rental_uris":{"android":"levelo://app?vid=8aa4042b-067b-4783-a174-79e2496089f3","ios":"levelo://app?vid=8aa4042b-067b-4783-a174-79e2496089f3"},"vehicle_type_id":"4","last_reported":1779216666,"current_range_meters":7200,"station_id":"ce4bhch2rcd13ifvqeug","pricing_plan_id":"cebpf4jnsgd1na2vs0mg"},{"bike_id":"e92354e0-efda-46e5-9d04-a0a3d49c8283","system_id":"levelo_inurba_marseille","lat":43.29004,"lon":5.35603,"is_reserved":false,"is_disabled":false,"rental_uris":{"android":"levelo://app?vid=e92354e0-efda-46e5-9d04-a0a3d49c8283","ios":"levelo://app?vid=e92354e0-efda-46e5-9d04-a0a3d49c8283"},"vehicle_type_id":"4","last_reported":1779216666,"current_range_meters":7200,"station_id":"ce4bhb92rcd13ifvqen0","pricing_plan_id":"cebpf4jnsgd1na2vs0mg"},{"bike_id":"51dd4bf5-1713-4336-8e5a-c0bbefdadd5c","system_id":"levelo_inurba_marseille","lat":43.289899,"lon":5.371529,"is_reserved":false,"is_disabled":false,"rental_uris":{"android":"levelo://app?vid=51dd4bf5-1713-4336-8e5a-c0bbefdadd5c","ios":"levelo://app?vid=51dd4bf5-1713-4336-8e5a-c0bbefdadd5c"},"vehicle_type_id":"4","last_reported":1779216666,"current_range_meters":7200,"station_id":"st_d4kl2rp97mjs73e7tdfg","pricing_plan_id":"cebpf4jnsgd1na2vs0mg"},{"bike_id":"c611833a-c5d3-40bb-9a95-d1f0c53110a1","system_id":"levelo_inurba_marseille","lat":43.24183,"lon":5.39738,"is_reserved":false,"is_disabled":false,"rental_uris":{"android":"levelo://app?vid=c611833a-c5d3-40bb-9a95-d1f0c53110a1","ios":"levelo://app?vid=c611833a-c5d3-40bb-9a95-d1f0c53110a1"},"vehicle_type_id":"4","last_reported":1779216666,"current_range_meters":7200,"station_id":"ce4bhn12rcd13ifvqgpg","pricing_plan_id":"cebpf4jnsgd1na2vs0mg"},{"bike_id":"40e11415-186d-4a53-ac50-ac693db6945a","system_id":"levelo_inurba_marseille","lat":43.33544,"lon":5.37476,"is_reserved":false,"is_disabled":false,"rental_uris":{"android":"levelo://app?vid=40e11415-186d-4a53-ac50-ac693db6945a","ios":"levelo://app?vid=40e11415-186d-4a53-ac50-ac693db6945a"},"vehicle_type_id":"4","last_reported":1779216666,"current_range_meters":7200,"station_id":"st_d46tts09ee8s73dlu43g","pricing_plan_id":"cebpf4jnsgd1na2vs0mg"},{"bike_id":"be2d9681-a512-43ef-94f6-c187d5a4e505","system_id":"levelo_inurba_marseille","lat":43.28351,"lon":5.38105,"is_reserved":false,"is_disabled":false,"rental_uris":{"android":"levelo://app?vid=be2d9681-a512-43ef-94f6-c187d5a4e505","ios":"levelo://app?vid=be2d9681-a512-43ef-94f6-c187d5a4e505"},"vehicle_type_id":"4","last_reported":1779216666,"current_range_meters":7200,"station_id":"ce4bh412rcd13ifvqdr0","pricing_plan_id":"cebpf4jnsgd1na2vs0mg"},{"bike_id":"a1610f26-4776-49a8-b278-ebb1ecff78fb","system_id":"levelo_inurba_marseille","lat":43.29177,"lon":5.37159,"is_reserved":false,"is_disabled":false,"rental_uris":{"android":"levelo://app?vid=a1610f26-4776-49a8-b278-ebb1ecff78fb","ios":"levelo://app?vid=a1610f26-4776-49a8-b278-ebb1ecff78fb"},"vehicle_type_id":"4","last_reported":1779216666,"current_range_meters":7200,"station_id":"ce4bha92rcd13ifvqeh0","pricing_plan_id":"cebpf4jnsgd1na2vs0mg"},{"bike_id":"da8541e3-ed3e-4422-a014-34586a869259","system_id":"levelo_inurba_marseille","lat":43.29024,"lon":5.35623,"is_reserved":false,"is_disabled":false,"rental_uris":{"android":"levelo://app?vid=da8541e3-ed3e-4422-a014-34586a869259","ios":"levelo://app?vid=da8541e3-ed3e-4422-a014-34586a869259"},"vehicle_type_id":"4","last_reported":1779216666,"current_range_meters":7200,"station_id":"ce4bhb92rcd13ifvqen0","pricing_plan_id":"cebpf4jnsgd1na2vs0mg"},{"bike_id":"3d581655-017e-4467-ae95-12aa6e5183a5","system_id":"levelo_inurba_marseille","lat":43.27057,"lon":5.40246,"is_reserved":false,"is_disabled":false,"rental_uris":{"android":"levelo://app?vid=3d581655-017e-4467-ae95-12aa6e5183a5","ios":"levelo://app?vid=3d581655-017e-4467-ae95-12aa6e5183a5"},"vehicle_type_id":"4","last_reported":1779216666,"current_range_meters":7200,"station_id":"ce4bhk92rcd13ifvqgc0","pricing_plan_id":"cebpf4jnsgd1na2vs0mg"},{"bike_id":"9b9605df-a3c8-42d6-ac00-c5f48bd6b477","system_id":"levelo_inurba_marseille","lat":43.28455,"lon":5.35893,"is_reserved":false,"is_disabled":false,"rental_uris":{"android":"levelo://app?vid=9b9605df-a3c8-42d6-ac00-c5f48bd6b477","ios":"levelo://app?vid=9b9605df-a3c8-42d6-ac00-c5f48bd6b477"},"vehicle_type_id":"4","last_reported":1779216666,"current_range_meters":7200,"station_id":"ce4bhah2rcd13ifvqei0","pricing_plan_id":"cebpf4jnsgd1na2vs0mg"},{"bike_id":"fe7d2be8-532a-4cce-80aa-8542ea1eb747","system_id":"levelo_inurba_marseille","lat":43.266737,"lon":5.38258,"is_reserved":false,"is_disabled":false,"rental_uris":{"android":"levelo://app?vid=fe7d2be8-532a-4cce-80aa-8542ea1eb747","ios":"levelo://app?vid=fe7d2be8-532a-4cce-80aa-8542ea1eb747"},"vehicle_type_id":"4","last_reported":1779216666,"current_range_meters":7200,"station_id":"ce4bhg92rcd13ifvqf90","pricing_plan_id":"cebpf4jnsgd1na2vs0mg"},{"bike_id":"819830c2-19fb-43de-9d7f-80f8b336949a","system_id":"levelo_inurba_marseille","lat":43.29189,"lon":5.35803,"is_reserved":false,"is_disabled":false,"rental_uris":{"android":"levelo://app?vid=819830c2-19fb-43de-9d7f-80f8b336949a","ios":"levelo://app?vid=819830c2-19fb-43de-9d7f-80f8b336949a"},"vehicle_type_id":"4","last_reported":1779216666,"current_range_meters":7200,"station_id":"ce4bhb12rcd13ifvqel0","pricing_plan_id":"cebpf4jnsgd1na2vs0mg"},{"bike_id":"cedd22a8-e3f8-4507-81be-7710046e06eb","system_id":"levelo_inurba_marseille","lat":43.28928,"lon":5.36643,"is_reserved":false,"is_disabled":false,"rental_uris":{"android":"levelo://app?vid=cedd22a8-e3f8-4507-81be-7710046e06eb","ios":"levelo://app?vid=cedd22a8-e3f8-4507-81be-7710046e06eb"},"vehicle_type_id":"4","last_reported":1779216666,"current_range_meters":7200,"station_id":"ce4bhap2rcd13ifvqek0","pricing_plan_id":"cebpf4jnsgd1na2vs0mg"},{"bike_id":"5316befc-b6bb-4df2-8c26-1fe76da62fde","system_id":"levelo_inurba_marseille","lat":43.25102,"lon":5.37933,"is_reserved":false,"is_disabled":false,"rental_uris":{"android":"levelo://app?vid=5316befc-b6bb-4df2-8c26-1fe76da62fde","ios":"levelo://app?vid=5316befc-b6bb-4df2-8c26-1fe76da62fde"},"vehicle_type_id":"4","last_reported":1779216666,"current_range_meters":7200,"station_id":"","pricing_plan_id":"cebpf4jnsgd1na2vs0mg"},{"bike_id":"e1edea3c-a9ec-4e1d-ae51-331278ede585","system_id":"levelo_inurba_marseille","lat":43.31034,"lon":5.39278,"is_reserved":false,"is_disabled":false,"rental_uris":{"android":"levelo://app?vid=e1edea3c-a9ec-4e1d-ae51-331278ede585","ios":"levelo://app?vid=e1edea3c-a9ec-4e1d-ae51-331278ede585"},"vehicle_type_id":"4","last_reported":1779216666,"current_range_meters":7200,"station_id":"","pricing_plan_id":"cebpf4jnsgd1na2vs0mg"},{"bike_id":"b1e2525a-d21b-402f-8a86-400ec7e03c66","system_id":"levelo_inurba_marseille","lat":43.27078,"lon":5.42268,"is_reserved":false,"is_disabled":false,"rental_uris":{"android":"levelo://app?vid=b1e2525a-d21b-402f-8a86-400ec7e03c66","ios":"levelo://app?vid=b1e2525a-d21b-402f-8a86-400ec7e03c66"},"vehicle_type_id":"4","last_reported":1779216666,"current_range_meters":7200,"station_id":"ce4bhk92rcd13ifvqgb0","pricing_plan_id":"cebpf4jnsgd1na2vs0mg"},{"bike_id":"3a30ab2c-6eaf-4898-86fa-29a4a792f3c5","system_id":"levelo_inurba_marseille","lat":43.29886,"lon":5.38899,"is_reserved":false,"is_disabled":false,"rental_uris":{"android":"levelo://app?vid=3a30ab2c-6eaf-4898-86fa-29a4a792f3c5","ios":"levelo://app?vid=3a30ab2c-6eaf-4898-86fa-29a4a792f3c5"},"vehicle_type_id":"4","last_reported":1779216666,"current_range_meters":7200,"station_id":"ce4bh392rcd13ifvqdl0","pricing_plan_id":"cebpf4jnsgd1na2vs0mg"},{"bike_id":"40cdbae6-714d-4f35-95a9-676040c67aef","system_id":"levelo_inurba_marseille","lat":43.2401,"lon":5.41296,"is_reserved":false,"is_disabled":false,"rental_uris":{"android":"levelo://app?vid=40cdbae6-714d-4f35-95a9-676040c67aef","ios":"levelo://app?vid=40cdbae6-714d-4f35-95a9-676040c67aef"},"vehicle_type_id":"4","last_reported":1779216666,"current_range_meters":7200,"station_id":"","pricing_plan_id":"cebpf4jnsgd1na2vs0mg"},{"bike_id":"261f2914-f86b-4668-a408-95acc694e9f6","system_id":"levelo_inurba_marseille","lat":43.27059,"lon":5.42283,"is_reserved":false,"is_disabled":false,"rental_uris":{"android":"levelo://app?vid=261f2914-f86b-4668-a408-95acc694e9f6","ios":"levelo://app?vid=261f2914-f86b-4668-a408-95acc694e9f6"},"vehicle_type_id":"4","last_reported":1779216666,"current_range_meters":7200,"station_id":"ce4bhk92rcd13ifvqgb0","pricing_plan_id":"cebpf4jnsgd1na2vs0mg"},{"bike_id":"8999dbc3-c664-43d4-845c-5fe63828eabe","system_id":"levelo_inurba_marseille","lat":43.29029,"lon":5.38636,"is_reserved":false,"is_disabled":false,"rental_uris":{"android":"levelo://app?vid=8999dbc3-c664-43d4-845c-5fe63828eabe","ios":"levelo://app?vid=8999dbc3-c664-43d4-845c-5fe63828eabe"},"vehicle_type_id":"4","last_reported":1779216666,"current_range_meters":7200,"station_id":"ce4bh4p2rcd13ifvqe0g","pricing_plan_id":"cebpf4jnsgd1na2vs0mg"},{"bike_id":"c76ea632-de6c-4695-b0d0-00e073e315ff","system_id":"levelo_inurba_marseille","lat":43.26009,"lon":5.38744,"is_reserved":false,"is_disabled":false,"rental_uris":{"android":"levelo://app?vid=c76ea632-de6c-4695-b0d0-00e073e315ff","ios":"levelo://app?vid=c76ea632-de6c-4695-b0d0-00e073e315ff"},"vehicle_type_id":"4","last_reported":1779216666,"current_range_meters":7200,"station_id":"","pricing_plan_id":"cebpf4jnsgd1na2vs0mg"},{"bike_id":"11dac49a-63ea-47b4-a217-88a1431807e3","system_id":"levelo_inurba_marseille","lat":43.28231,"lon":5.39055,"is_reserved":false,"is_disabled":false,"rental_uris":{"android":"levelo://app?vid=11dac49a-63ea-47b4-a217-88a1431807e3","ios":"levelo://app?vid=11dac49a-63ea-47b4-a217-88a1431807e3"},"vehicle_type_id":"4","last_reported":1779216666,"current_range_meters":7200,"station_id":"ce4bhn92rcd13ifvqgsg","pricing_plan_id":"cebpf4jnsgd1na2vs0mg"},{"bike_id":"135c7add-6606-4442-b287-76ca2dc1a53f","system_id":"levelo_inurba_marseille","lat":43.31121,"lon":5.37756,"is_reserved":false,"is_disabled":false,"rental_uris":{"android":"levelo://app?vid=135c7add-6606-4442-b287-76ca2dc1a53f","ios":"levelo://app?vid=135c7add-6606-4442-b287-76ca2dc1a53f"},"vehicle_type_id":"4","last_reported":1779216666,"current_range_meters":7200,"station_id":"ce4bgt92rcd13ifvqcg0","pricing_plan_id":"cebpf4jnsgd1na2vs0mg"},{"bike_id":"a4a8a46c-c191-4c20-b1bd-bdc6b21ff616","system_id":"levelo_inurba_marseille","lat":43.31055,"lon":5.37156,"is_reserved":false,"is_disabled":false,"rental_uris":{"android":"levelo://app?vid=a4a8a46c-c191-4c20-b1bd-bdc6b21ff616","ios":"levelo://app?vid=a4a8a46c-c191-4c20-b1bd-bdc6b21ff616"},"vehicle_type_id":"4","last_reported":1779216666,"current_range_meters":7200,"station_id":"st_d4kl2rp97mjs73e7tdfg","pricing_plan_id":"cebpf4jnsgd1na2vs0mg"},{"bike_id":"6670429d-30c2-446e-b4ab-7afb89fe35e0","system_id":"levelo_inurba_marseille","lat":43.2499,"lon":5.38948,"is_reserved":false,"is_disabled":false,"rental_uris":{"android":"levelo://app?vid=6670429d-30c2-446e-b4ab-7afb89fe35e0","ios":"levelo://app?vid=6670429d-30c2-446e-b4ab-7afb89fe35e0"},"vehicle_type_id":"4","last_reported":1779216666,"current_range_meters":8000,"station_id":"ce4bhgp2rcd13ifvqfd0","pricing_plan_id":"cebpf4jnsgd1na2vs0mg"},{"bike_id":"43cdbea8-df76-40e1-9a76-0694e77cf450","system_id":"levelo_inurba_marseille","lat":43.26228,"lon":5.3792,"is_reserved":false,"is_disabled":false,"rental_uris":{"android":"levelo://app?vid=43cdbea8-df76-40e1-9a76-0694e77cf450","ios":"levelo://app?vid=43cdbea8-df76-40e1-9a76-0694e77cf450"},"vehicle_type_id":"4","last_reported":1779216666,"current_range_meters":8000,"station_id":"ce4bhjp2rcd13ifvqg90","pricing_plan_id":"cebpf4jnsgd1na2vs0mg"},{"bike_id":"877aff4a-39d3-4bc9-9fb1-f03230c32990","system_id":"levelo_inurba_marseille","lat":43.32091,"lon":5.36778,"is_reserved":false,"is_disabled":false,"rental_uris":{"android":"levelo://app?vid=877aff4a-39d3-4bc9-9fb1-f03230c32990","ios":"levelo://app?vid=877aff4a-39d3-4bc9-9fb1-f03230c32990"},"vehicle_type_id":"4","last_reported":1779216666,"current_range_meters":8000,"station_id":"ce4bhrh2rcd13ifvqhug","pricing_plan_id":"cebpf4jnsgd1na2vs0mg"},{"bike_id":"c4c56dca-3c1e-48c7-b5bd-d8adea2c4f5c","system_id":"levelo_inurba_marseille","lat":43.27074,"lon":5.42277,"is_reserved":false,"is_disabled":false,"rental_uris":{"android":"levelo://app?vid=c4c56dca-3c1e-48c7-b5bd-d8adea2c4f5c","ios":"levelo://app?vid=c4c56dca-3c1e-48c7-b5bd-d8adea2c4f5c"},"vehicle_type_id":"4","last_reported":1779216666,"current_range_meters":8000,"station_id":"ce4bhk92rcd13ifvqgb0","pricing_plan_id":"cebpf4jnsgd1na2vs0mg"},{"bike_id":"1a874b07-b23b-4cde-8bc2-641c99002930","system_id":"levelo_inurba_marseille","lat":43.23101,"lon":5.354639,"is_reserved":false,"is_disabled":false,"rental_uris":{"android":"levelo://app?vid=1a874b07-b23b-4cde-8bc2-641c99002930","ios":"levelo://app?vid=1a874b07-b23b-4cde-8bc2-641c99002930"},"vehicle_type_id":"4","last_reported":1779216666,"current_range_meters":8000,"station_id":"cpo3342slgdg3j2ifvpg","pricing_plan_id":"cebpf4jnsgd1na2vs0mg"},{"bike_id":"62b133fe-5408-4ad5-8f72-72508b2f6ddf","system_id":"levelo_inurba_marseille","lat":43.30379,"lon":5.42484,"is_reserved":false,"is_disabled":false,"rental_uris":{"android":"levelo://app?vid=62b133fe-5408-4ad5-8f72-72508b2f6ddf","ios":"levelo://app?vid=62b133fe-5408-4ad5-8f72-72508b2f6ddf"},"vehicle_type_id":"4","last_reported":1779216666,"current_range_meters":8000,"station_id":"ce4bhoh2rcd13ifvqh6g","pricing_plan_id":"cebpf4jnsgd1na2vs0mg"},{"bike_id":"eba0a877-ff2f-46ae-892b-4aef38847a9a","system_id":"levelo_inurba_marseille","lat":43.28457,"lon":5.35883,"is_reserved":false,"is_disabled":false,"rental_uris":{"android":"levelo://app?vid=eba0a877-ff2f-46ae-892b-4aef38847a9a","ios":"levelo://app?vid=eba0a877-ff2f-46ae-892b-4aef38847a9a"},"vehicle_type_id":"4","last_reported":1779216666,"current_range_meters":8000,"station_id":"ce4bhah2rcd13ifvqei0","pricing_plan_id":"cebpf4jnsgd1na2vs0mg"},{"bike_id":"84e2bdea-040c-4b02-8461-3f29ac4c3630","system_id":"levelo_inurba_marseille","lat":43.3169,"lon":5.40473,"is_reserved":false,"is_disabled":false,"rental_uris":{"android":"levelo://app?vid=84e2bdea-040c-4b02-8461-3f29ac4c3630","ios":"levelo://app?vid=84e2bdea-040c-4b02-8461-3f29ac4c3630"},"vehicle_type_id":"4","last_reported":1779216666,"current_range_meters":8000,"station_id":"ce4bh012rcd13ifvqd00","pricing_plan_id":"cebpf4jnsgd1na2vs0mg"},{"bike_id":"7ee4f5d0-02d8-4154-8191-7a54550fc97d","system_id":"levelo_inurba_marseille","lat":43.30381,"lon":5.42486,"is_reserved":false,"is_disabled":false,"rental_uris":{"android":"levelo://app?vid=7ee4f5d0-02d8-4154-8191-7a54550fc97d","ios":"levelo://app?vid=7ee4f5d0-02d8-4154-8191-7a54550fc97d"},"vehicle_type_id":"4","last_reported":1779216666,"current_range_meters":8000,"station_id":"ce4bhoh2rcd13ifvqh6g","pricing_plan_id":"cebpf4jnsgd1na2vs0mg"},{"bike_id":"b3878761-b59b-4edf-93c4-e8103d518c8f","system_id":"levelo_inurba_marseille","lat":43.29887,"lon":5.39749,"is_reserved":false,"is_disabled":false,"rental_uris":{"android":"levelo://app?vid=b3878761-b59b-4edf-93c4-e8103d518c8f","ios":"levelo://app?vid=b3878761-b59b-4edf-93c4-e8103d518c8f"},"vehicle_type_id":"4","last_reported":1779216666,"current_range_meters":8000,"station_id":"ce4bh0h2rcd13ifvqd50","pricing_plan_id":"cebpf4jnsgd1na2vs0mg"},{"bike_id":"d0414475-f7f7-4bba-b121-909709505179","system_id":"levelo_inurba_marseille","lat":43.27386,"lon":5.36251,"is_reserved":false,"is_disabled":false,"rental_uris":{"android":"levelo://app?vid=d0414475-f7f7-4bba-b121-909709505179","ios":"levelo://app?vid=d0414475-f7f7-4bba-b121-909709505179"},"vehicle_type_id":"4","last_reported":1779216666,"current_range_meters":8000,"station_id":"ce4bhbh2rcd13ifvqeo0","pricing_plan_id":"cebpf4jnsgd1na2vs0mg"},{"bike_id":"854da997-21ff-48c4-ae70-cc3a0937e1c9","system_id":"levelo_inurba_marseille","lat":43.33528,"lon":5.37447,"is_reserved":false,"is_disabled":false,"rental_uris":{"android":"levelo://app?vid=854da997-21ff-48c4-ae70-cc3a0937e1c9","ios":"levelo://app?vid=854da997-21ff-48c4-ae70-cc3a0937e1c9"},"vehicle_type_id":"4","last_reported":1779216666,"current_range_meters":8000,"station_id":"st_d46tts09ee8s73dlu43g","pricing_plan_id":"cebpf4jnsgd1na2vs0mg"},{"bike_id":"291bce7d-95a9-4f5c-a2d8-de5b55889c52","system_id":"levelo_inurba_marseille","lat":43.29187,"lon":5.37275,"is_reserved":false,"is_disabled":false,"rental_uris":{"android":"levelo://app?vid=291bce7d-95a9-4f5c-a2d8-de5b55889c52","ios":"levelo://app?vid=291bce7d-95a9-4f5c-a2d8-de5b55889c52"},"vehicle_type_id":"4","last_reported":1779216666,"current_range_meters":8000,"station_id":"","pricing_plan_id":"cebpf4jnsgd1na2vs0mg"},{"bike_id":"d89c7724-5bd3-4698-9e4d-04aacc00cd2e","system_id":"levelo_inurba_marseille","lat":43.23154,"lon":5.43716,"is_reserved":false,"is_disabled":false,"rental_uris":{"android":"levelo://app?vid=d89c7724-5bd3-4698-9e4d-04aacc00cd2e","ios":"levelo://app?vid=d89c7724-5bd3-4698-9e4d-04aacc00cd2e"},"vehicle_type_id":"4","last_reported":1779216666,"current_range_meters":8000,"station_id":"ce4bhmp2rcd13ifvqgog","pricing_plan_id":"cebpf4jnsgd1na2vs0mg"},{"bike_id":"307c7586-7cb5-40d5-84d2-858f3b99ebf8","system_id":"levelo_inurba_marseille","lat":43.28476,"lon":5.38384,"is_reserved":false,"is_disabled":false,"rental_uris":{"android":"levelo://app?vid=307c7586-7cb5-40d5-84d2-858f3b99ebf8","ios":"levelo://app?vid=307c7586-7cb5-40d5-84d2-858f3b99ebf8"},"vehicle_type_id":"4","last_reported":1779216666,"current_range_meters":8000,"station_id":"ce4bh512rcd13ifvqe3g","pricing_plan_id":"cebpf4jnsgd1na2vs0mg"},{"bike_id":"10c3eae3-dd82-47ea-8fb9-881b284de473","system_id":"levelo_inurba_marseille","lat":43.30331,"lon":5.4042,"is_reserved":false,"is_disabled":false,"rental_uris":{"android":"levelo://app?vid=10c3eae3-dd82-47ea-8fb9-881b284de473","ios":"levelo://app?vid=10c3eae3-dd82-47ea-8fb9-881b284de473"},"vehicle_type_id":"4","last_reported":1779216666,"current_range_meters":8000,"station_id":"ce4bh012rcd13ifvqd10","pricing_plan_id":"cebpf4jnsgd1na2vs0mg"},{"bike_id":"5565afc3-d189-4daf-a6e1-34af30d71bf9","system_id":"levelo_inurba_marseille","lat":43.30645,"lon":5.40099,"is_reserved":false,"is_disabled":false,"rental_uris":{"android":"levelo://app?vid=5565afc3-d189-4daf-a6e1-34af30d71bf9","ios":"levelo://app?vid=5565afc3-d189-4daf-a6e1-34af30d71bf9"},"vehicle_type_id":"4","last_reported":1779216666,"current_range_meters":8000,"station_id":"ce4bh112rcd13ifvqda0","pricing_plan_id":"cebpf4jnsgd1na2vs0mg"},{"bike_id":"e35ca50a-e252-4fec-af7a-48a17bebc951","system_id":"levelo_inurba_marseille","lat":43.295856,"lon":5.375158,"is_reserved":false,"is_disabled":false,"rental_uris":{"android":"levelo://app?vid=e35ca50a-e252-4fec-af7a-48a17bebc951","ios":"levelo://app?vid=e35ca50a-e252-4fec-af7a-48a17bebc951"},"vehicle_type_id":"4","last_reported":1779216666,"current_range_meters":8000,"station_id":"ce4bgh92rcd13ifvqb50","pricing_plan_id":"cebpf4jnsgd1na2vs0mg"},{"bike_id":"1c1414c1-3413-415f-adc1-dde38dab9b68","system_id":"levelo_inurba_marseille","lat":43.29995,"lon":5.399,"is_reserved":false,"is_disabled":false,"rental_uris":{"android":"levelo://app?vid=1c1414c1-3413-415f-adc1-dde38dab9b68","ios":"levelo://app?vid=1c1414c1-3413-415f-adc1-dde38dab9b68"},"vehicle_type_id":"4","last_reported":1779216666,"current_range_meters":8000,"station_id":"","pricing_plan_id":"cebpf4jnsgd1na2vs0mg"},{"bike_id":"09b02ea9-3d31-4b7a-950d-7ab9f977d92e","system_id":"levelo_inurba_marseille","lat":43.241649,"lon":5.363892,"is_reserved":false,"is_disabled":false,"rental_uris":{"android":"levelo://app?vid=09b02ea9-3d31-4b7a-950d-7ab9f977d92e","ios":"levelo://app?vid=09b02ea9-3d31-4b7a-950d-7ab9f977d92e"},"vehicle_type_id":"4","last_reported":1779216666,"current_range_meters":8400,"station_id":"cpo36qri1sfpv3e86is0","pricing_plan_id":"cebpf4jnsgd1na2vs0mg"},{"bike_id":"f7c0230e-ed97-4f98-b053-4847a49bfcd9","system_id":"levelo_inurba_marseille","lat":43.27498,"lon":5.42453,"is_reserved":false,"is_disabled":false,"rental_uris":{"android":"levelo://app?vid=f7c0230e-ed97-4f98-b053-4847a49bfcd9","ios":"levelo://app?vid=f7c0230e-ed97-4f98-b053-4847a49bfcd9"},"vehicle_type_id":"4","last_reported":1779216666,"current_range_meters":8400,"station_id":"ce4bhn92rcd13ifvqgrg","pricing_plan_id":"cebpf4jnsgd1na2vs0mg"},{"bike_id":"7c7fb249-fc8e-4d79-a1ce-dd5b0f183060","system_id":"levelo_inurba_marseille","lat":43.29843,"lon":5.44091,"is_reserved":false,"is_disabled":false,"rental_uris":{"android":"levelo://app?vid=7c7fb249-fc8e-4d79-a1ce-dd5b0f183060","ios":"levelo://app?vid=7c7fb249-fc8e-4d79-a1ce-dd5b0f183060"},"vehicle_type_id":"4","last_reported":1779216666,"current_range_meters":8400,"station_id":"","pricing_plan_id":"cebpf4jnsgd1na2vs0mg"},{"bike_id":"cd85eca7-12d9-4f6b-9420-f9e7efa1ad9f","system_id":"levelo_inurba_marseille","lat":43.29274,"lon":5.37633,"is_reserved":false,"is_disabled":false,"rental_uris":{"android":"levelo://app?vid=cd85eca7-12d9-4f6b-9420-f9e7efa1ad9f","ios":"levelo://app?vid=cd85eca7-12d9-4f6b-9420-f9e7efa1ad9f"},"vehicle_type_id":"4","last_reported":1779216666,"current_range_meters":8400,"station_id":"ce4bgi12rcd13ifvqb80","pricing_plan_id":"cebpf4jnsgd1na2vs0mg"},{"bike_id":"1d8a0de7-dee9-4c46-b0dc-9cb1beff9b47","system_id":"levelo_inurba_marseille","lat":43.28417,"lon":5.34985,"is_reserved":false,"is_disabled":false,"rental_uris":{"android":"levelo://app?vid=1d8a0de7-dee9-4c46-b0dc-9cb1beff9b47","ios":"levelo://app?vid=1d8a0de7-dee9-4c46-b0dc-9cb1beff9b47"},"vehicle_type_id":"4","last_reported":1779216666,"current_range_meters":8400,"station_id":"ce4bhbh2rcd13ifvqepg","pricing_plan_id":"cebpf4jnsgd1na2vs0mg"},{"bike_id":"c4edc732-d527-4577-89ca-cb699e299957","system_id":"levelo_inurba_marseille","lat":43.28704,"lon":5.37391,"is_reserved":false,"is_disabled":false,"rental_uris":{"android":"levelo://app?vid=c4edc732-d527-4577-89ca-cb699e299957","ios":"levelo://app?vid=c4edc732-d527-4577-89ca-cb699e299957"},"vehicle_type_id":"4","last_reported":1779216666,"current_range_meters":8400,"station_id":"ce4bh3p2rcd13ifvqdq0","pricing_plan_id":"cebpf4jnsgd1na2vs0mg"},{"bike_id":"d2abe37c-883e-4b78-abe7-962a451ef821","system_id":"levelo_inurba_marseille","lat":43.28536,"lon":5.35184,"is_reserved":false,"is_disabled":false,"rental_uris":{"android":"levelo://app?vid=d2abe37c-883e-4b78-abe7-962a451ef821","ios":"levelo://app?vid=d2abe37c-883e-4b78-abe7-962a451ef821"},"vehicle_type_id":"4","last_reported":1779216666,"current_range_meters":8400,"station_id":"","pricing_plan_id":"cebpf4jnsgd1na2vs0mg"},{"bike_id":"7bcabde5-50b3-49a1-bde7-ef4e983b7b93","system_id":"levelo_inurba_marseille","lat":43.23191,"lon":5.39983,"is_reserved":false,"is_disabled":false,"rental_uris":{"android":"levelo://app?vid=7bcabde5-50b3-49a1-bde7-ef4e983b7b93","ios":"levelo://app?vid=7bcabde5-50b3-49a1-bde7-ef4e983b7b93"},"vehicle_type_id":"4","last_reported":1779216666,"current_range_meters":8400,"station_id":"ce4bhn12rcd13ifvqgqg","pricing_plan_id":"cebpf4jnsgd1na2vs0mg"},{"bike_id":"3f42a6d9-721c-4045-81f8-56e377ee5c6e","system_id":"levelo_inurba_marseille","lat":43.26478,"lon":5.39533,"is_reserved":false,"is_disabled":true,"rental_uris":{"android":"levelo://app?vid=3f42a6d9-721c-4045-81f8-56e377ee5c6e","ios":"levelo://app?vid=3f42a6d9-721c-4045-81f8-56e377ee5c6e"},"vehicle_type_id":"4","last_reported":1779216666,"current_range_meters":8400,"station_id":"ce4bhi12rcd13ifvqfq0","pricing_plan_id":"cebpf4jnsgd1na2vs0mg"},{"bike_id":"94133b29-971d-48eb-9475-ae0b64fbd116","system_id":"levelo_inurba_marseille","lat":43.282,"lon":5.3816,"is_reserved":false,"is_disabled":false,"rental_uris":{"android":"levelo://app?vid=94133b29-971d-48eb-9475-ae0b64fbd116","ios":"levelo://app?vid=94133b29-971d-48eb-9475-ae0b64fbd116"},"vehicle_type_id":"4","last_reported":1779216666,"current_range_meters":8400,"station_id":"","pricing_plan_id":"cebpf4jnsgd1na2vs0mg"},{"bike_id":"c9b15fbc-4add-4c3c-99e5-aaeaed51642c","system_id":"levelo_inurba_marseille","lat":43.30325,"lon":5.4043,"is_reserved":false,"is_disabled":false,"rental_uris":{"android":"levelo://app?vid=c9b15fbc-4add-4c3c-99e5-aaeaed51642c","ios":"levelo://app?vid=c9b15fbc-4add-4c3c-99e5-aaeaed51642c"},"vehicle_type_id":"4","last_reported":1779216666,"current_range_meters":8400,"station_id":"ce4bh012rcd13ifvqd10","pricing_plan_id":"cebpf4jnsgd1na2vs0mg"},{"bike_id":"d51ccc28-637e-4033-b31c-af9c753915e6","system_id":"levelo_inurba_marseille","lat":43.29024,"lon":5.38641,"is_reserved":false,"is_disabled":false,"rental_uris":{"android":"levelo://app?vid=d51ccc28-637e-4033-b31c-af9c753915e6","ios":"levelo://app?vid=d51ccc28-637e-4033-b31c-af9c753915e6"},"vehicle_type_id":"4","last_reported":1779216666,"current_range_meters":8400,"station_id":"ce4bh4p2rcd13ifvqe0g","pricing_plan_id":"cebpf4jnsgd1na2vs0mg"},{"bike_id":"04b0cf6f-3993-45be-9eb0-12ea2abb90d8","system_id":"levelo_inurba_marseille","lat":43.28703,"lon":5.37389,"is_reserved":false,"is_disabled":false,"rental_uris":{"android":"levelo://app?vid=04b0cf6f-3993-45be-9eb0-12ea2abb90d8","ios":"levelo://app?vid=04b0cf6f-3993-45be-9eb0-12ea2abb90d8"},"vehicle_type_id":"4","last_reported":1779216666,"current_range_meters":8400,"station_id":"ce4bh3p2rcd13ifvqdq0","pricing_plan_id":"cebpf4jnsgd1na2vs0mg"},{"bike_id":"55defc3b-224a-4014-89a7-46cebdf17a20","system_id":"levelo_inurba_marseille","lat":43.28961,"lon":5.36615,"is_reserved":false,"is_disabled":false,"rental_uris":{"android":"levelo://app?vid=55defc3b-224a-4014-89a7-46cebdf17a20","ios":"levelo://app?vid=55defc3b-224a-4014-89a7-46cebdf17a20"},"vehicle_type_id":"4","last_reported":1779216666,"current_range_meters":8400,"station_id":"","pricing_plan_id":"cebpf4jnsgd1na2vs0mg"},{"bike_id":"2f95f834-2c94-4db1-bc5c-e3c633836952","system_id":"levelo_inurba_marseille","lat":43.2657,"lon":5.39026,"is_reserved":false,"is_disabled":true,"rental_uris":{"android":"levelo://app?vid=2f95f834-2c94-4db1-bc5c-e3c633836952","ios":"levelo://app?vid=2f95f834-2c94-4db1-bc5c-e3c633836952"},"vehicle_type_id":"4","last_reported":1779216666,"current_range_meters":8400,"station_id":"ce4bhe12rcd13ifvqf30","pricing_plan_id":"cebpf4jnsgd1na2vs0mg"},{"bike_id":"061d2610-821e-4212-bdac-e3e03a31531f","system_id":"levelo_inurba_marseille","lat":43.29256,"lon":5.40903,"is_reserved":false,"is_disabled":false,"rental_uris":{"android":"levelo://app?vid=061d2610-821e-4212-bdac-e3e03a31531f","ios":"levelo://app?vid=061d2610-821e-4212-bdac-e3e03a31531f"},"vehicle_type_id":"4","last_reported":1779216666,"current_range_meters":8400,"station_id":"ce4bh192rcd13ifvqdc0","pricing_plan_id":"cebpf4jnsgd1na2vs0mg"},{"bike_id":"8e0c3a71-88fb-4dca-a732-c4fb201abb3e","system_id":"levelo_inurba_marseille","lat":43.306,"lon":5.37458,"is_reserved":false,"is_disabled":true,"rental_uris":{"android":"levelo://app?vid=8e0c3a71-88fb-4dca-a732-c4fb201abb3e","ios":"levelo://app?vid=8e0c3a71-88fb-4dca-a732-c4fb201abb3e"},"vehicle_type_id":"4","last_reported":1779216666,"current_range_meters":8400,"station_id":"","pricing_plan_id":"cebpf4jnsgd1na2vs0mg"},{"bike_id":"8263f75d-9989-4529-81b0-a9d6ce3abc36","system_id":"levelo_inurba_marseille","lat":43.2867,"lon":5.3636,"is_reserved":false,"is_disabled":false,"rental_uris":{"android":"levelo://app?vid=8263f75d-9989-4529-81b0-a9d6ce3abc36","ios":"levelo://app?vid=8263f75d-9989-4529-81b0-a9d6ce3abc36"},"vehicle_type_id":"4","last_reported":1779216666,"current_range_meters":8400,"station_id":"ce4bhah2rcd13ifvqej0","pricing_plan_id":"cebpf4jnsgd1na2vs0mg"},{"bike_id":"b34c1946-cf91-4d87-af25-adc23e0c3c1e","system_id":"levelo_inurba_marseille","lat":43.27906,"lon":5.37983,"is_reserved":false,"is_disabled":false,"rental_uris":{"android":"levelo://app?vid=b34c1946-cf91-4d87-af25-adc23e0c3c1e","ios":"levelo://app?vid=b34c1946-cf91-4d87-af25-adc23e0c3c1e"},"vehicle_type_id":"4","last_reported":1779216666,"current_range_meters":8400,"station_id":"ce4bhf92rcd13ifvqf50","pricing_plan_id":"cebpf4jnsgd1na2vs0mg"},{"bike_id":"c8535174-6ae4-4556-8edf-b04bbb49a0a2","system_id":"levelo_inurba_marseille","lat":43.24668,"lon":5.38159,"is_reserved":false,"is_disabled":false,"rental_uris":{"android":"levelo://app?vid=c8535174-6ae4-4556-8edf-b04bbb49a0a2","ios":"levelo://app?vid=c8535174-6ae4-4556-8edf-b04bbb49a0a2"},"vehicle_type_id":"4","last_reported":1779216666,"current_range_meters":8400,"station_id":"ce4bhih2rcd13ifvqfr0","pricing_plan_id":"cebpf4jnsgd1na2vs0mg"},{"bike_id":"7260c1c3-ddf8-4318-80c2-1aba04712990","system_id":"levelo_inurba_marseille","lat":43.29264,"lon":5.3843,"is_reserved":false,"is_disabled":false,"rental_uris":{"android":"levelo://app?vid=7260c1c3-ddf8-4318-80c2-1aba04712990","ios":"levelo://app?vid=7260c1c3-ddf8-4318-80c2-1aba04712990"},"vehicle_type_id":"4","last_reported":1779216666,"current_range_meters":8400,"station_id":"ce4bh692rcd13ifvqea0","pricing_plan_id":"cebpf4jnsgd1na2vs0mg"},{"bike_id":"46be8dd3-948b-467e-ad94-fd338307b9c7","system_id":"levelo_inurba_marseille","lat":43.29965,"lon":5.36764,"is_reserved":false,"is_disabled":false,"rental_uris":{"android":"levelo://app?vid=46be8dd3-948b-467e-ad94-fd338307b9c7","ios":"levelo://app?vid=46be8dd3-948b-467e-ad94-fd338307b9c7"},"vehicle_type_id":"4","last_reported":1779216666,"current_range_meters":8400,"station_id":"","pricing_plan_id":"cebpf4jnsgd1na2vs0mg"},{"bike_id":"aff1d8dc-5d10-49cf-ae10-12c9b6a31ddb","system_id":"levelo_inurba_marseille","lat":43.28618,"lon":5.37057,"is_reserved":false,"is_disabled":false,"rental_uris":{"android":"levelo://app?vid=aff1d8dc-5d10-49cf-ae10-12c9b6a31ddb","ios":"levelo://app?vid=aff1d8dc-5d10-49cf-ae10-12c9b6a31ddb"},"vehicle_type_id":"4","last_reported":1779216666,"current_range_meters":8400,"station_id":"ce4bht12rcd13ifvqi60","pricing_plan_id":"cebpf4jnsgd1na2vs0mg"},{"bike_id":"629d6bcb-91f0-4ae2-9282-59e0c256b391","system_id":"levelo_inurba_marseille","lat":43.32353,"lon":5.36731,"is_reserved":false,"is_disabled":false,"rental_uris":{"android":"levelo://app?vid=629d6bcb-91f0-4ae2-9282-59e0c256b391","ios":"levelo://app?vid=629d6bcb-91f0-4ae2-9282-59e0c256b391"},"vehicle_type_id":"4","last_reported":1779216666,"current_range_meters":8400,"station_id":"ce4bhsh2rcd13ifvqi2g","pricing_plan_id":"cebpf4jnsgd1na2vs0mg"},{"bike_id":"7ba9edaa-a1bb-4a70-a5f2-b9b5d3ae022f","system_id":"levelo_inurba_marseille","lat":43.337444,"lon":5.374475,"is_reserved":false,"is_disabled":false,"rental_uris":{"android":"levelo://app?vid=7ba9edaa-a1bb-4a70-a5f2-b9b5d3ae022f","ios":"levelo://app?vid=7ba9edaa-a1bb-4a70-a5f2-b9b5d3ae022f"},"vehicle_type_id":"4","last_reported":1779216666,"current_range_meters":8400,"station_id":"","pricing_plan_id":"cebpf4jnsgd1na2vs0mg"},{"bike_id":"a3badf53-0f6f-4ae1-bfc9-bf8d14cfdb90","system_id":"levelo_inurba_marseille","lat":43.23972,"lon":5.36628,"is_reserved":false,"is_disabled":false,"rental_uris":{"android":"levelo://app?vid=a3badf53-0f6f-4ae1-bfc9-bf8d14cfdb90","ios":"levelo://app?vid=a3badf53-0f6f-4ae1-bfc9-bf8d14cfdb90"},"vehicle_type_id":"4","last_reported":1779216666,"current_range_meters":8400,"station_id":"ce4bhi12rcd13ifvqfp0","pricing_plan_id":"cebpf4jnsgd1na2vs0mg"},