{"last_updated":1770287439,"ttl":60,"version":"2.2","data":{"bikes":[{"bike_id":"941d0b03-9ae1-4106-9296-775ca1406222","system_id":"levelo_inurba_marseille","lat":43.28312,"lon":5.42385,"is_reserved":false,"is_disabled":false,"rental_uris":{"android":"levelo://app?vid=941d0b03-9ae1-4106-9296-775ca1406222","ios":"levelo://app?vid=941d0b03-9ae1-4106-9296-775ca1406222"},"vehicle_type_id":"4","last_reported":1770287440,"current_range_meters":2800,"station_id":"","pricing_plan_id":"cebpf4jnsgd1na2vs0mg"},{"bike_id":"54a11bd8-bb4b-47a2-8028-659ab862a33d","system_id":"levelo_inurba_marseille","lat":43.26563,"lon":5.40323,"is_reserved":false,"is_disabled":false,"rental_uris":{"android":"levelo://app?vid=54a11bd8-bb4b-47a2-8028-659ab862a33d","ios":"levelo://app?vid=54a11bd8-bb4b-47a2-8028-659ab862a33d"},"vehicle_type_id":"4","last_reported":1770287440,"current_range_meters":2800,"station_id":"ce4bhmp2rcd13ifvqgng","pricing_plan_id":"cebpf4jnsgd1na2vs0mg"},{"bike_id":"ad450168-32bc-48e5-981d-10198d96911f","system_id":"levelo_inurba_marseille","lat":43.241657,"lon":5.364054,"is_reserved":false,"is_disabled":false,"rental_uris":{"android":"levelo://app?vid=ad450168-32bc-48e5-981d-10198d96911f","ios":"levelo://app?vid=ad450168-32bc-48e5-981d-10198d96911f"},"vehicle_type_id":"4","last_reported":1770287440,"current_range_meters":2800,"station_id":"cpo36qri1sfpv3e86is0","pricing_plan_id":"cebpf4jnsgd1na2vs0mg"},{"bike_id":"8d3e7d7f-fadb-4171-a139-ea9d29aba2b7","system_id":"levelo_inurba_marseille","lat":43.28413,"lon":5.43459,"is_reserved":false,"is_disabled":false,"rental_uris":{"android":"levelo://app?vid=8d3e7d7f-fadb-4171-a139-ea9d29aba2b7","ios":"levelo://app?vid=8d3e7d7f-fadb-4171-a139-ea9d29aba2b7"},"vehicle_type_id":"4","last_reported":1770287440,"current_range_meters":3200,"station_id":"","pricing_plan_id":"cebpf4jnsgd1na2vs0mg"},{"bike_id":"bc11b645-4a28-43a9-a15e-e34b2b942d16","system_id":"levelo_inurba_marseille","lat":43.29642,"lon":5.37985,"is_reserved":false,"is_disabled":false,"rental_uris":{"android":"levelo://app?vid=bc11b645-4a28-43a9-a15e-e34b2b942d16","ios":"levelo://app?vid=bc11b645-4a28-43a9-a15e-e34b2b942d16"},"vehicle_type_id":"4","last_reported":1770287440,"current_range_meters":3200,"station_id":"ce4bgl12rcd13ifvqbo0","pricing_plan_id":"cebpf4jnsgd1na2vs0mg"},{"bike_id":"83031ca8-9a01-425b-992d-e4dc7237fe73","system_id":"levelo_inurba_marseille","lat":43.22949,"lon":5.35382,"is_reserved":false,"is_disabled":false,"rental_uris":{"android":"levelo://app?vid=83031ca8-9a01-425b-992d-e4dc7237fe73","ios":"levelo://app?vid=83031ca8-9a01-425b-992d-e4dc7237fe73"},"vehicle_type_id":"4","last_reported":1770287440,"current_range_meters":3600,"station_id":"cpo3532slgdg3j2ikp40","pricing_plan_id":"cebpf4jnsgd1na2vs0mg"},{"bike_id":"8e443969-89bd-46f6-a10f-2e1233840320","system_id":"levelo_inurba_marseille","lat":43.24664,"lon":5.38165,"is_reserved":false,"is_disabled":false,"rental_uris":{"android":"levelo://app?vid=8e443969-89bd-46f6-a10f-2e1233840320","ios":"levelo://app?vid=8e443969-89bd-46f6-a10f-2e1233840320"},"vehicle_type_id":"4","last_reported":1770287440,"current_range_meters":3600,"station_id":"ce4bhih2rcd13ifvqfr0","pricing_plan_id":"cebpf4jnsgd1na2vs0mg"},{"bike_id":"150a8b9a-190b-4332-9099-9f2bc31398e1","system_id":"levelo_inurba_marseille","lat":43.31374,"lon":5.36709,"is_reserved":false,"is_disabled":false,"rental_uris":{"android":"levelo://app?vid=150a8b9a-190b-4332-9099-9f2bc31398e1","ios":"levelo://app?vid=150a8b9a-190b-4332-9099-9f2bc31398e1"},"vehicle_type_id":"4","last_reported":1770287440,"current_range_meters":3600,"station_id":"ce4bgr92rcd13ifvqc6g","pricing_plan_id":"cebpf4jnsgd1na2vs0mg"},{"bike_id":"605a645e-761d-4a85-acd6-fe955761eefa","system_id":"levelo_inurba_marseille","lat":43.29565,"lon":5.38333,"is_reserved":false,"is_disabled":false,"rental_uris":{"android":"levelo://app?vid=605a645e-761d-4a85-acd6-fe955761eefa","ios":"levelo://app?vid=605a645e-761d-4a85-acd6-fe955761eefa"},"vehicle_type_id":"4","last_reported":1770287440,"current_range_meters":3600,"station_id":"","pricing_plan_id":"cebpf4jnsgd1na2vs0mg"},{"bike_id":"2d334d5c-0886-4db9-83b0-7ae06d91ac1c","system_id":"levelo_inurba_marseille","lat":43.21197,"lon":5.35069,"is_reserved":false,"is_disabled":false,"rental_uris":{"android":"levelo://app?vid=2d334d5c-0886-4db9-83b0-7ae06d91ac1c","ios":"levelo://app?vid=2d334d5c-0886-4db9-83b0-7ae06d91ac1c"},"vehicle_type_id":"4","last_reported":1770287440,"current_range_meters":3600,"station_id":"st_cvj6sg6p6f1abm77japg","pricing_plan_id":"cebpf4jnsgd1na2vs0mg"},{"bike_id":"16c34f42-9a66-4fd5-8689-2fc8478b1531","system_id":"levelo_inurba_marseille","lat":43.22937,"lon":5.35392,"is_reserved":false,"is_disabled":false,"rental_uris":{"android":"levelo://app?vid=16c34f42-9a66-4fd5-8689-2fc8478b1531","ios":"levelo://app?vid=16c34f42-9a66-4fd5-8689-2fc8478b1531"},"vehicle_type_id":"4","last_reported":1770287440,"current_range_meters":3600,"station_id":"cpo3532slgdg3j2ikp40","pricing_plan_id":"cebpf4jnsgd1na2vs0mg"},{"bike_id":"c7fd0cc4-a197-46ca-aee1-7cb94bc0ffc0","system_id":"levelo_inurba_marseille","lat":43.23374,"lon":5.41223,"is_reserved":false,"is_disabled":false,"rental_uris":{"android":"levelo://app?vid=c7fd0cc4-a197-46ca-aee1-7cb94bc0ffc0","ios":"levelo://app?vid=c7fd0cc4-a197-46ca-aee1-7cb94bc0ffc0"},"vehicle_type_id":"4","last_reported":1770287440,"current_range_meters":3600,"station_id":"","pricing_plan_id":"cebpf4jnsgd1na2vs0mg"},{"bike_id":"58e1ce36-e582-4f29-9134-9cdfe5fd48e5","system_id":"levelo_inurba_marseille","lat":43.304657,"lon":5.379028,"is_reserved":false,"is_disabled":false,"rental_uris":{"android":"levelo://app?vid=58e1ce36-e582-4f29-9134-9cdfe5fd48e5","ios":"levelo://app?vid=58e1ce36-e582-4f29-9134-9cdfe5fd48e5"},"vehicle_type_id":"4","last_reported":1770287440,"current_range_meters":3600,"station_id":"ce4bgup2rcd13ifvqcn0","pricing_plan_id":"cebpf4jnsgd1na2vs0mg"},{"bike_id":"ef64cb18-c8a8-4251-87f8-703e259c4330","system_id":"levelo_inurba_marseille","lat":43.47654,"lon":5.48969,"is_reserved":false,"is_disabled":false,"rental_uris":{"android":"levelo://app?vid=ef64cb18-c8a8-4251-87f8-703e259c4330","ios":"levelo://app?vid=ef64cb18-c8a8-4251-87f8-703e259c4330"},"vehicle_type_id":"4","last_reported":1770287440,"current_range_meters":3600,"station_id":"","pricing_plan_id":"cebpf4jnsgd1na2vs0mg"},{"bike_id":"5ffc162c-3876-4a49-af02-3661f44effbb","system_id":"levelo_inurba_marseille","lat":43.28501,"lon":5.48411,"is_reserved":false,"is_disabled":false,"rental_uris":{"android":"levelo://app?vid=5ffc162c-3876-4a49-af02-3661f44effbb","ios":"levelo://app?vid=5ffc162c-3876-4a49-af02-3661f44effbb"},"vehicle_type_id":"4","last_reported":1770287440,"current_range_meters":3600,"station_id":"st_d3svhcjqgbts73a3dn0g","pricing_plan_id":"cebpf4jnsgd1na2vs0mg"},{"bike_id":"ff9f0976-a5d0-477e-ba63-2bce40929931","system_id":"levelo_inurba_marseille","lat":43.3148,"lon":5.37297,"is_reserved":false,"is_disabled":false,"rental_uris":{"android":"levelo://app?vid=ff9f0976-a5d0-477e-ba63-2bce40929931","ios":"levelo://app?vid=ff9f0976-a5d0-477e-ba63-2bce40929931"},"vehicle_type_id":"4","last_reported":1770287440,"current_range_meters":3600,"station_id":"ce4bgt12rcd13ifvqcd0","pricing_plan_id":"cebpf4jnsgd1na2vs0mg"},{"bike_id":"626974d3-ace9-41dd-9dbe-f4621ca953aa","system_id":"levelo_inurba_marseille","lat":43.29454,"lon":5.40988,"is_reserved":false,"is_disabled":false,"rental_uris":{"android":"levelo://app?vid=626974d3-ace9-41dd-9dbe-f4621ca953aa","ios":"levelo://app?vid=626974d3-ace9-41dd-9dbe-f4621ca953aa"},"vehicle_type_id":"4","last_reported":1770287440,"current_range_meters":4000,"station_id":"","pricing_plan_id":"cebpf4jnsgd1na2vs0mg"},{"bike_id":"493e9748-3a0a-4151-bd49-44aa76ff0b94","system_id":"levelo_inurba_marseille","lat":43.309559,"lon":5.390257,"is_reserved":false,"is_disabled":false,"rental_uris":{"android":"levelo://app?vid=493e9748-3a0a-4151-bd49-44aa76ff0b94","ios":"levelo://app?vid=493e9748-3a0a-4151-bd49-44aa76ff0b94"},"vehicle_type_id":"4","last_reported":1770287440,"current_range_meters":4000,"station_id":"ce4bgup2rcd13ifvqco0","pricing_plan_id":"cebpf4jnsgd1na2vs0mg"},{"bike_id":"8c419771-8669-49cb-9f64-116aa54b98af","system_id":"levelo_inurba_marseille","lat":43.29039,"lon":5.39948,"is_reserved":false,"is_disabled":false,"rental_uris":{"android":"levelo://app?vid=8c419771-8669-49cb-9f64-116aa54b98af","ios":"levelo://app?vid=8c419771-8669-49cb-9f64-116aa54b98af"},"vehicle_type_id":"4","last_reported":1770287440,"current_range_meters":4000,"station_id":"ce4bh392rcd13ifvqdm0","pricing_plan_id":"cebpf4jnsgd1na2vs0mg"},{"bike_id":"c6e323e3-4052-4940-8ba6-87e1847b0dcf","system_id":"levelo_inurba_marseille","lat":43.25927,"lon":5.40908,"is_reserved":false,"is_disabled":false,"rental_uris":{"android":"levelo://app?vid=c6e323e3-4052-4940-8ba6-87e1847b0dcf","ios":"levelo://app?vid=c6e323e3-4052-4940-8ba6-87e1847b0dcf"},"vehicle_type_id":"4","last_reported":1770287440,"current_range_meters":4000,"station_id":"ce4bhm92rcd13ifvqglg","pricing_plan_id":"cebpf4jnsgd1na2vs0mg"},{"bike_id":"390378ca-57b7-442f-b4f6-51ca83c1bfc9","system_id":"levelo_inurba_marseille","lat":43.26365,"lon":5.41082,"is_reserved":false,"is_disabled":false,"rental_uris":{"android":"levelo://app?vid=390378ca-57b7-442f-b4f6-51ca83c1bfc9","ios":"levelo://app?vid=390378ca-57b7-442f-b4f6-51ca83c1bfc9"},"vehicle_type_id":"4","last_reported":1770287440,"current_range_meters":4000,"station_id":"st_d4e5ca6na9uc73bfl5fg","pricing_plan_id":"cebpf4jnsgd1na2vs0mg"},{"bike_id":"a5c1703c-0b2d-4e6b-b820-25e716f1e211","system_id":"levelo_inurba_marseille","lat":43.28492,"lon":5.48431,"is_reserved":false,"is_disabled":false,"rental_uris":{"android":"levelo://app?vid=a5c1703c-0b2d-4e6b-b820-25e716f1e211","ios":"levelo://app?vid=a5c1703c-0b2d-4e6b-b820-25e716f1e211"},"vehicle_type_id":"4","last_reported":1770287440,"current_range_meters":4000,"station_id":"st_d3svhcjqgbts73a3dn0g","pricing_plan_id":"cebpf4jnsgd1na2vs0mg"},{"bike_id":"c64596a4-ef56-486a-b6c9-15c76a360303","system_id":"levelo_inurba_marseille","lat":43.31167,"lon":5.38721,"is_reserved":false,"is_disabled":false,"rental_uris":{"android":"levelo://app?vid=c64596a4-ef56-486a-b6c9-15c76a360303","ios":"levelo://app?vid=c64596a4-ef56-486a-b6c9-15c76a360303"},"vehicle_type_id":"4","last_reported":1770287440,"current_range_meters":4000,"station_id":"ce4bgv12rcd13ifvqcp0","pricing_plan_id":"cebpf4jnsgd1na2vs0mg"},{"bike_id":"d2552b84-e732-4f87-a2d3-975686408eda","system_id":"levelo_inurba_marseille","lat":43.31066,"lon":5.37184,"is_reserved":false,"is_disabled":false,"rental_uris":{"android":"levelo://app?vid=d2552b84-e732-4f87-a2d3-975686408eda","ios":"levelo://app?vid=d2552b84-e732-4f87-a2d3-975686408eda"},"vehicle_type_id":"4","last_reported":1770287440,"current_range_meters":4400,"station_id":"st_d4kl2rp97mjs73e7tdfg","pricing_plan_id":"cebpf4jnsgd1na2vs0mg"},{"bike_id":"d72c8d0b-6864-4eb2-b074-4484e5b3c2c1","system_id":"levelo_inurba_marseille","lat":43.28479,"lon":5.48403,"is_reserved":false,"is_disabled":false,"rental_uris":{"android":"levelo://app?vid=d72c8d0b-6864-4eb2-b074-4484e5b3c2c1","ios":"levelo://app?vid=d72c8d0b-6864-4eb2-b074-4484e5b3c2c1"},"vehicle_type_id":"4","last_reported":1770287440,"current_range_meters":4400,"station_id":"st_d3svhcjqgbts73a3dn0g","pricing_plan_id":"cebpf4jnsgd1na2vs0mg"},{"bike_id":"5b8adb20-03d0-4632-97c7-f94966ea18e0","system_id":"levelo_inurba_marseille","lat":43.25516,"lon":5.37653,"is_reserved":false,"is_disabled":false,"rental_uris":{"android":"levelo://app?vid=5b8adb20-03d0-4632-97c7-f94966ea18e0","ios":"levelo://app?vid=5b8adb20-03d0-4632-97c7-f94966ea18e0"},"vehicle_type_id":"4","last_reported":1770287440,"current_range_meters":4400,"station_id":"ce4bhh12rcd13ifvqff0","pricing_plan_id":"cebpf4jnsgd1na2vs0mg"},{"bike_id":"708d8107-a502-4715-8ee8-97e259938ef7","system_id":"levelo_inurba_marseille","lat":43.24146,"lon":5.36399,"is_reserved":false,"is_disabled":false,"rental_uris":{"android":"levelo://app?vid=708d8107-a502-4715-8ee8-97e259938ef7","ios":"levelo://app?vid=708d8107-a502-4715-8ee8-97e259938ef7"},"vehicle_type_id":"4","last_reported":1770287440,"current_range_meters":4400,"station_id":"cpo36qri1sfpv3e86is0","pricing_plan_id":"cebpf4jnsgd1na2vs0mg"},{"bike_id":"efea97cf-ff85-47aa-a6fd-26dd39fdf16c","system_id":"levelo_inurba_marseille","lat":43.30551,"lon":5.36708,"is_reserved":false,"is_disabled":false,"rental_uris":{"android":"levelo://app?vid=efea97cf-ff85-47aa-a6fd-26dd39fdf16c","ios":"levelo://app?vid=efea97cf-ff85-47aa-a6fd-26dd39fdf16c"},"vehicle_type_id":"4","last_reported":1770287440,"current_range_meters":4400,"station_id":"ce4bgrp2rcd13ifvqc9g","pricing_plan_id":"cebpf4jnsgd1na2vs0mg"},{"bike_id":"998b64b8-77bc-48b3-acfe-84b792ae571f","system_id":"levelo_inurba_marseille","lat":43.28678,"lon":5.38663,"is_reserved":false,"is_disabled":true,"rental_uris":{"android":"levelo://app?vid=998b64b8-77bc-48b3-acfe-84b792ae571f","ios":"levelo://app?vid=998b64b8-77bc-48b3-acfe-84b792ae571f"},"vehicle_type_id":"4","last_reported":1770287440,"current_range_meters":4400,"station_id":"ce4bh492rcd13ifvqdug","pricing_plan_id":"cebpf4jnsgd1na2vs0mg"},{"bike_id":"e55375b7-3afd-47f8-a340-f83f485617be","system_id":"levelo_inurba_marseille","lat":43.29924,"lon":5.36517,"is_reserved":false,"is_disabled":false,"rental_uris":{"android":"levelo://app?vid=e55375b7-3afd-47f8-a340-f83f485617be","ios":"levelo://app?vid=e55375b7-3afd-47f8-a340-f83f485617be"},"vehicle_type_id":"4","last_reported":1770287440,"current_range_meters":4400,"station_id":"ce4bgm92rcd13ifvqbr0","pricing_plan_id":"cebpf4jnsgd1na2vs0mg"},{"bike_id":"a2894a7e-61ce-42da-9c6d-f39ef7a50ad5","system_id":"levelo_inurba_marseille","lat":43.24078,"lon":5.37762,"is_reserved":false,"is_disabled":false,"rental_uris":{"android":"levelo://app?vid=a2894a7e-61ce-42da-9c6d-f39ef7a50ad5","ios":"levelo://app?vid=a2894a7e-61ce-42da-9c6d-f39ef7a50ad5"},"vehicle_type_id":"4","last_reported":1770287440,"current_range_meters":4800,"station_id":"ce4bhnp2rcd13ifvqgvg","pricing_plan_id":"cebpf4jnsgd1na2vs0mg"},{"bike_id":"d6cfd899-7464-4210-a2fb-c7c85e572317","system_id":"levelo_inurba_marseille","lat":43.29558,"lon":5.38539,"is_reserved":false,"is_disabled":false,"rental_uris":{"android":"levelo://app?vid=d6cfd899-7464-4210-a2fb-c7c85e572317","ios":"levelo://app?vid=d6cfd899-7464-4210-a2fb-c7c85e572317"},"vehicle_type_id":"4","last_reported":1770287440,"current_range_meters":4800,"station_id":"ce4bgih2rcd13ifvqba0","pricing_plan_id":"cebpf4jnsgd1na2vs0mg"},{"bike_id":"626e3e0d-1469-4644-b448-0f77283c0d83","system_id":"levelo_inurba_marseille","lat":43.29035,"lon":5.3814,"is_reserved":false,"is_disabled":false,"rental_uris":{"android":"levelo://app?vid=626e3e0d-1469-4644-b448-0f77283c0d83","ios":"levelo://app?vid=626e3e0d-1469-4644-b448-0f77283c0d83"},"vehicle_type_id":"4","last_reported":1770287440,"current_range_meters":4800,"station_id":"ce4bh4p2rcd13ifvqe1g","pricing_plan_id":"cebpf4jnsgd1na2vs0mg"},{"bike_id":"da4d19a5-63fa-471e-bc87-bb23db14643b","system_id":"levelo_inurba_marseille","lat":43.29555,"lon":5.42513,"is_reserved":false,"is_disabled":false,"rental_uris":{"android":"levelo://app?vid=da4d19a5-63fa-471e-bc87-bb23db14643b","ios":"levelo://app?vid=da4d19a5-63fa-471e-bc87-bb23db14643b"},"vehicle_type_id":"4","last_reported":1770287440,"current_range_meters":4800,"station_id":"","pricing_plan_id":"cebpf4jnsgd1na2vs0mg"},{"bike_id":"3376af0a-2c8a-4f7e-ab86-0856914ff72b","system_id":"levelo_inurba_marseille","lat":43.29528,"lon":5.38536,"is_reserved":false,"is_disabled":false,"rental_uris":{"android":"levelo://app?vid=3376af0a-2c8a-4f7e-ab86-0856914ff72b","ios":"levelo://app?vid=3376af0a-2c8a-4f7e-ab86-0856914ff72b"},"vehicle_type_id":"4","last_reported":1770287440,"current_range_meters":5600,"station_id":"ce4bgih2rcd13ifvqba0","pricing_plan_id":"cebpf4jnsgd1na2vs0mg"},{"bike_id":"dc557827-aa70-4c26-b155-69a8514c695a","system_id":"levelo_inurba_marseille","lat":43.33446,"lon":5.37471,"is_reserved":false,"is_disabled":false,"rental_uris":{"android":"levelo://app?vid=dc557827-aa70-4c26-b155-69a8514c695a","ios":"levelo://app?vid=dc557827-aa70-4c26-b155-69a8514c695a"},"vehicle_type_id":"4","last_reported":1770287440,"current_range_meters":5600,"station_id":"","pricing_plan_id":"cebpf4jnsgd1na2vs0mg"},{"bike_id":"ae0672e2-1839-431a-b388-02cf3de3f3a6","system_id":"levelo_inurba_marseille","lat":43.29499,"lon":5.43302,"is_reserved":false,"is_disabled":false,"rental_uris":{"android":"levelo://app?vid=ae0672e2-1839-431a-b388-02cf3de3f3a6","ios":"levelo://app?vid=ae0672e2-1839-431a-b388-02cf3de3f3a6"},"vehicle_type_id":"4","last_reported":1770287440,"current_range_meters":5600,"station_id":"st_d3j5ugp08ojc73fj9d10","pricing_plan_id":"cebpf4jnsgd1na2vs0mg"},{"bike_id":"408c8763-7ef3-40e0-86f7-8e22f4f38681","system_id":"levelo_inurba_marseille","lat":43.24096,"lon":5.3775,"is_reserved":false,"is_disabled":false,"rental_uris":{"android":"levelo://app?vid=408c8763-7ef3-40e0-86f7-8e22f4f38681","ios":"levelo://app?vid=408c8763-7ef3-40e0-86f7-8e22f4f38681"},"vehicle_type_id":"4","last_reported":1770287440,"current_range_meters":5600,"station_id":"","pricing_plan_id":"cebpf4jnsgd1na2vs0mg"},{"bike_id":"c269eff6-7414-4fb8-b35a-8132e5c63b79","system_id":"levelo_inurba_marseille","lat":43.250065,"lon":5.389179,"is_reserved":false,"is_disabled":false,"rental_uris":{"android":"levelo://app?vid=c269eff6-7414-4fb8-b35a-8132e5c63b79","ios":"levelo://app?vid=c269eff6-7414-4fb8-b35a-8132e5c63b79"},"vehicle_type_id":"4","last_reported":1770287440,"current_range_meters":5600,"station_id":"ce4bhgp2rcd13ifvqfd0","pricing_plan_id":"cebpf4jnsgd1na2vs0mg"},{"bike_id":"0d59add4-4b56-4ced-b456-94533a67403b","system_id":"levelo_inurba_marseille","lat":43.232054,"lon":5.355425,"is_reserved":false,"is_disabled":false,"rental_uris":{"android":"levelo://app?vid=0d59add4-4b56-4ced-b456-94533a67403b","ios":"levelo://app?vid=0d59add4-4b56-4ced-b456-94533a67403b"},"vehicle_type_id":"4","last_reported":1770287440,"current_range_meters":6000,"station_id":"ce4bhu92rcd13ifvqi70","pricing_plan_id":"cebpf4jnsgd1na2vs0mg"},{"bike_id":"1794fc4b-f1e9-4439-acd6-7a3c137a2b38","system_id":"levelo_inurba_marseille","lat":43.23798,"lon":5.36678,"is_reserved":false,"is_disabled":false,"rental_uris":{"android":"levelo://app?vid=1794fc4b-f1e9-4439-acd6-7a3c137a2b38","ios":"levelo://app?vid=1794fc4b-f1e9-4439-acd6-7a3c137a2b38"},"vehicle_type_id":"4","last_reported":1770287440,"current_range_meters":6000,"station_id":"st_d3nk18o9ro0c73en2l3g","pricing_plan_id":"cebpf4jnsgd1na2vs0mg"},{"bike_id":"b55cf58b-0b2d-45d8-b9da-9cab3935aa03","system_id":"levelo_inurba_marseille","lat":43.23065,"lon":5.35497,"is_reserved":false,"is_disabled":false,"rental_uris":{"android":"levelo://app?vid=b55cf58b-0b2d-45d8-b9da-9cab3935aa03","ios":"levelo://app?vid=b55cf58b-0b2d-45d8-b9da-9cab3935aa03"},"vehicle_type_id":"4","last_reported":1770287440,"current_range_meters":6000,"station_id":"cpo3342slgdg3j2ifvpg","pricing_plan_id":"cebpf4jnsgd1na2vs0mg"},{"bike_id":"27b91125-8725-4db7-bbdb-0b7821e21970","system_id":"levelo_inurba_marseille","lat":43.2339,"lon":5.41248,"is_reserved":false,"is_disabled":false,"rental_uris":{"android":"levelo://app?vid=27b91125-8725-4db7-bbdb-0b7821e21970","ios":"levelo://app?vid=27b91125-8725-4db7-bbdb-0b7821e21970"},"vehicle_type_id":"4","last_reported":1770287440,"current_range_meters":6000,"station_id":"","pricing_plan_id":"cebpf4jnsgd1na2vs0mg"},{"bike_id":"f1830544-ba15-48a1-af96-57c929901c4b","system_id":"levelo_inurba_marseille","lat":43.28448,"lon":5.39212,"is_reserved":false,"is_disabled":false,"rental_uris":{"android":"levelo://app?vid=f1830544-ba15-48a1-af96-57c929901c4b","ios":"levelo://app?vid=f1830544-ba15-48a1-af96-57c929901c4b"},"vehicle_type_id":"4","last_reported":1770287440,"current_range_meters":6000,"station_id":"ce4bhoh2rcd13ifvqh5g","pricing_plan_id":"cebpf4jnsgd1na2vs0mg"},{"bike_id":"f1af9694-470d-45d1-a048-c831347f1085","system_id":"levelo_inurba_marseille","lat":43.25584,"lon":5.38236,"is_reserved":false,"is_disabled":false,"rental_uris":{"android":"levelo://app?vid=f1af9694-470d-45d1-a048-c831347f1085","ios":"levelo://app?vid=f1af9694-470d-45d1-a048-c831347f1085"},"vehicle_type_id":"4","last_reported":1770287440,"current_range_meters":6000,"station_id":"ce4bhih2rcd13ifvqfs0","pricing_plan_id":"cebpf4jnsgd1na2vs0mg"},{"bike_id":"2ac00bb9-988f-4d8d-8d18-402f1f51b998","system_id":"levelo_inurba_marseille","lat":43.25868,"lon":5.384159,"is_reserved":false,"is_disabled":false,"rental_uris":{"android":"levelo://app?vid=2ac00bb9-988f-4d8d-8d18-402f1f51b998","ios":"levelo://app?vid=2ac00bb9-988f-4d8d-8d18-402f1f51b998"},"vehicle_type_id":"4","last_reported":1770287440,"current_range_meters":6000,"station_id":"ce4bhhp2rcd13ifvqfm0","pricing_plan_id":"cebpf4jnsgd1na2vs0mg"},{"bike_id":"59ee5f7d-ad97-4c4d-bf47-920683c932a5","system_id":"levelo_inurba_marseille","lat":43.259489,"lon":5.409091,"is_reserved":false,"is_disabled":false,"rental_uris":{"android":"levelo://app?vid=59ee5f7d-ad97-4c4d-bf47-920683c932a5","ios":"levelo://app?vid=59ee5f7d-ad97-4c4d-bf47-920683c932a5"},"vehicle_type_id":"4","last_reported":1770287440,"current_range_meters":6000,"station_id":"ce4bhm92rcd13ifvqglg","pricing_plan_id":"cebpf4jnsgd1na2vs0mg"},{"bike_id":"f9bc9bfe-5e5d-4f49-acf3-fb314b8fbb7d","system_id":"levelo_inurba_marseille","lat":43.27982,"lon":5.38747,"is_reserved":false,"is_disabled":false,"rental_uris":{"android":"levelo://app?vid=f9bc9bfe-5e5d-4f49-acf3-fb314b8fbb7d","ios":"levelo://app?vid=f9bc9bfe-5e5d-4f49-acf3-fb314b8fbb7d"},"vehicle_type_id":"4","last_reported":1770287440,"current_range_meters":6000,"station_id":"ce4bhg12rcd13ifvqf80","pricing_plan_id":"cebpf4jnsgd1na2vs0mg"},{"bike_id":"e44e7816-6809-4e44-b512-aba042c8c26b","system_id":"levelo_inurba_marseille","lat":43.25836,"lon":5.39257,"is_reserved":false,"is_disabled":false,"rental_uris":{"android":"levelo://app?vid=e44e7816-6809-4e44-b512-aba042c8c26b","ios":"levelo://app?vid=e44e7816-6809-4e44-b512-aba042c8c26b"},"vehicle_type_id":"4","last_reported":1770287440,"current_range_meters":6000,"station_id":"","pricing_plan_id":"cebpf4jnsgd1na2vs0mg"},{"bike_id":"c965c78f-506c-400a-837e-ec3be3b7f0ea","system_id":"levelo_inurba_marseille","lat":43.31175,"lon":5.38714,"is_reserved":false,"is_disabled":false,"rental_uris":{"android":"levelo://app?vid=c965c78f-506c-400a-837e-ec3be3b7f0ea","ios":"levelo://app?vid=c965c78f-506c-400a-837e-ec3be3b7f0ea"},"vehicle_type_id":"4","last_reported":1770287440,"current_range_meters":6000,"station_id":"ce4bgv12rcd13ifvqcp0","pricing_plan_id":"cebpf4jnsgd1na2vs0mg"},{"bike_id":"b88ca08c-66c2-495c-a43a-08063258e8a0","system_id":"levelo_inurba_marseille","lat":43.26188,"lon":5.37434,"is_reserved":false,"is_disabled":true,"rental_uris":{"android":"levelo://app?vid=b88ca08c-66c2-495c-a43a-08063258e8a0","ios":"levelo://app?vid=b88ca08c-66c2-495c-a43a-08063258e8a0"},"vehicle_type_id":"4","last_reported":1770287440,"current_range_meters":6400,"station_id":"ce4bhgp2rcd13ifvqfc0","pricing_plan_id":"cebpf4jnsgd1na2vs0mg"},{"bike_id":"2bf19671-0061-46e9-83e3-55d71bb70148","system_id":"levelo_inurba_marseille","lat":43.22935,"lon":5.35372,"is_reserved":false,"is_disabled":false,"rental_uris":{"android":"levelo://app?vid=2bf19671-0061-46e9-83e3-55d71bb70148","ios":"levelo://app?vid=2bf19671-0061-46e9-83e3-55d71bb70148"},"vehicle_type_id":"4","last_reported":1770287440,"current_range_meters":6400,"station_id":"cpo3532slgdg3j2ikp40","pricing_plan_id":"cebpf4jnsgd1na2vs0mg"},{"bike_id":"81843b81-dc05-4822-ac46-ea3aebd24a78","system_id":"levelo_inurba_marseille","lat":43.32369,"lon":5.36727,"is_reserved":false,"is_disabled":false,"rental_uris":{"android":"levelo://app?vid=81843b81-dc05-4822-ac46-ea3aebd24a78","ios":"levelo://app?vid=81843b81-dc05-4822-ac46-ea3aebd24a78"},"vehicle_type_id":"4","last_reported":1770287440,"current_range_meters":6400,"station_id":"ce4bhsh2rcd13ifvqi2g","pricing_plan_id":"cebpf4jnsgd1na2vs0mg"},{"bike_id":"96fc5ec4-8809-4451-b5aa-9de326329526","system_id":"levelo_inurba_marseille","lat":43.296061,"lon":5.373649,"is_reserved":false,"is_disabled":false,"rental_uris":{"android":"levelo://app?vid=96fc5ec4-8809-4451-b5aa-9de326329526","ios":"levelo://app?vid=96fc5ec4-8809-4451-b5aa-9de326329526"},"vehicle_type_id":"4","last_reported":1770287440,"current_range_meters":6400,"station_id":"ce4bgnh2rcd13ifvqc0g","pricing_plan_id":"cebpf4jnsgd1na2vs0mg"},{"bike_id":"3a4b7fad-d353-4ccb-8488-6ee8991487ab","system_id":"levelo_inurba_marseille","lat":43.23203,"lon":5.35559,"is_reserved":false,"is_disabled":false,"rental_uris":{"android":"levelo://app?vid=3a4b7fad-d353-4ccb-8488-6ee8991487ab","ios":"levelo://app?vid=3a4b7fad-d353-4ccb-8488-6ee8991487ab"},"vehicle_type_id":"4","last_reported":1770287440,"current_range_meters":6400,"station_id":"ce4bhu92rcd13ifvqi70","pricing_plan_id":"cebpf4jnsgd1na2vs0mg"},{"bike_id":"239edf4b-52a5-42bd-a57d-2d4cbfc6074d","system_id":"levelo_inurba_marseille","lat":43.24949,"lon":5.40504,"is_reserved":false,"is_disabled":false,"rental_uris":{"android":"levelo://app?vid=239edf4b-52a5-42bd-a57d-2d4cbfc6074d","ios":"levelo://app?vid=239edf4b-52a5-42bd-a57d-2d4cbfc6074d"},"vehicle_type_id":"4","last_reported":1770287440,"current_range_meters":6400,"station_id":"st_d2ngiaodas8pm72gd1h0","pricing_plan_id":"cebpf4jnsgd1na2vs0mg"},{"bike_id":"c9cf1bda-a378-4513-8aed-b2dba30c86f7","system_id":"levelo_inurba_marseille","lat":43.29567,"lon":5.42271,"is_reserved":false,"is_disabled":false,"rental_uris":{"android":"levelo://app?vid=c9cf1bda-a378-4513-8aed-b2dba30c86f7","ios":"levelo://app?vid=c9cf1bda-a378-4513-8aed-b2dba30c86f7"},"vehicle_type_id":"4","last_reported":1770287440,"current_range_meters":6400,"station_id":"ce4bhph2rcd13ifvqhdg","pricing_plan_id":"cebpf4jnsgd1na2vs0mg"},{"bike_id":"3c5f466a-30b7-4780-a724-cfc51041d205","system_id":"levelo_inurba_marseille","lat":43.2995,"lon":5.38129,"is_reserved":false,"is_disabled":false,"rental_uris":{"android":"levelo://app?vid=3c5f466a-30b7-4780-a724-cfc51041d205","ios":"levelo://app?vid=3c5f466a-30b7-4780-a724-cfc51041d205"},"vehicle_type_id":"4","last_reported":1770287440,"current_range_meters":6400,"station_id":"","pricing_plan_id":"cebpf4jnsgd1na2vs0mg"},{"bike_id":"e694b682-235c-4722-a653-0fb177ee02ce","system_id":"levelo_inurba_marseille","lat":43.25937,"lon":5.40907,"is_reserved":false,"is_disabled":false,"rental_uris":{"android":"levelo://app?vid=e694b682-235c-4722-a653-0fb177ee02ce","ios":"levelo://app?vid=e694b682-235c-4722-a653-0fb177ee02ce"},"vehicle_type_id":"4","last_reported":1770287440,"current_range_meters":6400,"station_id":"ce4bhm92rcd13ifvqglg","pricing_plan_id":"cebpf4jnsgd1na2vs0mg"},{"bike_id":"9c97ed08-c8de-49a9-b037-9c50c2f5044c","system_id":"levelo_inurba_marseille","lat":43.29426,"lon":5.41316,"is_reserved":false,"is_disabled":false,"rental_uris":{"android":"levelo://app?vid=9c97ed08-c8de-49a9-b037-9c50c2f5044c","ios":"levelo://app?vid=9c97ed08-c8de-49a9-b037-9c50c2f5044c"},"vehicle_type_id":"4","last_reported":1770287440,"current_range_meters":6400,"station_id":"","pricing_plan_id":"cebpf4jnsgd1na2vs0mg"},{"bike_id":"aca17575-adf4-4e24-8c79-a39e65809e00","system_id":"levelo_inurba_marseille","lat":43.2619,"lon":5.37963,"is_reserved":false,"is_disabled":false,"rental_uris":{"android":"levelo://app?vid=aca17575-adf4-4e24-8c79-a39e65809e00","ios":"levelo://app?vid=aca17575-adf4-4e24-8c79-a39e65809e00"},"vehicle_type_id":"4","last_reported":1770287440,"current_range_meters":6800,"station_id":"ce4bhjp2rcd13ifvqg90","pricing_plan_id":"cebpf4jnsgd1na2vs0mg"},{"bike_id":"39f4a979-c812-4ba2-845d-636000627f96","system_id":"levelo_inurba_marseille","lat":43.2987,"lon":5.39724,"is_reserved":false,"is_disabled":false,"rental_uris":{"android":"levelo://app?vid=39f4a979-c812-4ba2-845d-636000627f96","ios":"levelo://app?vid=39f4a979-c812-4ba2-845d-636000627f96"},"vehicle_type_id":"4","last_reported":1770287440,"current_range_meters":6800,"station_id":"ce4bh0h2rcd13ifvqd50","pricing_plan_id":"cebpf4jnsgd1na2vs0mg"},{"bike_id":"f4dd52d4-b484-44b9-94e9-12f3eec8dd3a","system_id":"levelo_inurba_marseille","lat":43.31216,"lon":5.38707,"is_reserved":false,"is_disabled":false,"rental_uris":{"android":"levelo://app?vid=f4dd52d4-b484-44b9-94e9-12f3eec8dd3a","ios":"levelo://app?vid=f4dd52d4-b484-44b9-94e9-12f3eec8dd3a"},"vehicle_type_id":"4","last_reported":1770287440,"current_range_meters":6800,"station_id":"ce4bgv12rcd13ifvqcp0","pricing_plan_id":"cebpf4jnsgd1na2vs0mg"},{"bike_id":"55bbdc9b-9062-47fe-8732-bd869f8d0d0e","system_id":"levelo_inurba_marseille","lat":43.27309,"lon":5.39096,"is_reserved":false,"is_disabled":false,"rental_uris":{"android":"levelo://app?vid=55bbdc9b-9062-47fe-8732-bd869f8d0d0e","ios":"levelo://app?vid=55bbdc9b-9062-47fe-8732-bd869f8d0d0e"},"vehicle_type_id":"4","last_reported":1770287440,"current_range_meters":6800,"station_id":"ce4bhgp2rcd13ifvqfe0","pricing_plan_id":"cebpf4jnsgd1na2vs0mg"},{"bike_id":"f7d0906b-23c2-4d3f-bf41-7c900c058085","system_id":"levelo_inurba_marseille","lat":43.28026,"lon":5.422035,"is_reserved":false,"is_disabled":false,"rental_uris":{"android":"levelo://app?vid=f7d0906b-23c2-4d3f-bf41-7c900c058085","ios":"levelo://app?vid=f7d0906b-23c2-4d3f-bf41-7c900c058085"},"vehicle_type_id":"4","last_reported":1770287440,"current_range_meters":6800,"station_id":"","pricing_plan_id":"cebpf4jnsgd1na2vs0mg"},{"bike_id":"85ea35d2-3956-47f8-af2a-f5d40ff2980c","system_id":"levelo_inurba_marseille","lat":43.2848,"lon":5.48392,"is_reserved":false,"is_disabled":false,"rental_uris":{"android":"levelo://app?vid=85ea35d2-3956-47f8-af2a-f5d40ff2980c","ios":"levelo://app?vid=85ea35d2-3956-47f8-af2a-f5d40ff2980c"},"vehicle_type_id":"4","last_reported":1770287440,"current_range_meters":6800,"station_id":"st_d3svhcjqgbts73a3dn0g","pricing_plan_id":"cebpf4jnsgd1na2vs0mg"},{"bike_id":"605622a6-1155-49ab-b7dc-23394e29551b","system_id":"levelo_inurba_marseille","lat":43.27207,"lon":5.39194,"is_reserved":false,"is_disabled":false,"rental_uris":{"android":"levelo://app?vid=605622a6-1155-49ab-b7dc-23394e29551b","ios":"levelo://app?vid=605622a6-1155-49ab-b7dc-23394e29551b"},"vehicle_type_id":"4","last_reported":1770287440,"current_range_meters":6800,"station_id":"ce4bhhp2rcd13ifvqfm0","pricing_plan_id":"cebpf4jnsgd1na2vs0mg"},{"bike_id":"37867e40-4e69-4e30-9726-c1f71541de4c","system_id":"levelo_inurba_marseille","lat":43.30868,"lon":5.37177,"is_reserved":false,"is_disabled":false,"rental_uris":{"android":"levelo://app?vid=37867e40-4e69-4e30-9726-c1f71541de4c","ios":"levelo://app?vid=37867e40-4e69-4e30-9726-c1f71541de4c"},"vehicle_type_id":"4","last_reported":1770287440,"current_range_meters":6800,"station_id":"ce4bguh2rcd13ifvqckg","pricing_plan_id":"cebpf4jnsgd1na2vs0mg"},{"bike_id":"4d350dd5-1d0c-4f30-bcca-d47f25924eb4","system_id":"levelo_inurba_marseille","lat":43.26372,"lon":5.41067,"is_reserved":false,"is_disabled":false,"rental_uris":{"android":"levelo://app?vid=4d350dd5-1d0c-4f30-bcca-d47f25924eb4","ios":"levelo://app?vid=4d350dd5-1d0c-4f30-bcca-d47f25924eb4"},"vehicle_type_id":"4","last_reported":1770287440,"current_range_meters":6800,"station_id":"st_d4e5ca6na9uc73bfl5fg","pricing_plan_id":"cebpf4jnsgd1na2vs0mg"},{"bike_id":"fee01d67-c7fb-42fb-9808-4298ed7a7849","system_id":"levelo_inurba_marseille","lat":43.24473,"lon":5.42537,"is_reserved":false,"is_disabled":false,"rental_uris":{"android":"levelo://app?vid=fee01d67-c7fb-42fb-9808-4298ed7a7849","ios":"levelo://app?vid=fee01d67-c7fb-42fb-9808-4298ed7a7849"},"vehicle_type_id":"4","last_reported":1770287440,"current_range_meters":6800,"station_id":"st_d4a3vfp97mjs738cd8kg","pricing_plan_id":"cebpf4jnsgd1na2vs0mg"},{"bike_id":"d3d63c27-06f0-4b77-9ac5-a9069aedd324","system_id":"levelo_inurba_marseille","lat":43.26205,"lon":5.37449,"is_reserved":false,"is_disabled":false,"rental_uris":{"android":"levelo://app?vid=d3d63c27-06f0-4b77-9ac5-a9069aedd324","ios":"levelo://app?vid=d3d63c27-06f0-4b77-9ac5-a9069aedd324"},"vehicle_type_id":"4","last_reported":1770287440,"current_range_meters":6800,"station_id":"ce4bhgp2rcd13ifvqfc0","pricing_plan_id":"cebpf4jnsgd1na2vs0mg"},{"bike_id":"c97cb073-8168-4347-8195-bc8c51c235c6","system_id":"levelo_inurba_marseille","lat":43.24057,"lon":5.37724,"is_reserved":false,"is_disabled":false,"rental_uris":{"android":"levelo://app?vid=c97cb073-8168-4347-8195-bc8c51c235c6","ios":"levelo://app?vid=c97cb073-8168-4347-8195-bc8c51c235c6"},"vehicle_type_id":"4","last_reported":1770287440,"current_range_meters":6800,"station_id":"ce4bhnp2rcd13ifvqgvg","pricing_plan_id":"cebpf4jnsgd1na2vs0mg"},{"bike_id":"2d36a833-9c1e-4986-b296-52f4e681367f","system_id":"levelo_inurba_marseille","lat":43.23172,"lon":5.43707,"is_reserved":false,"is_disabled":false,"rental_uris":{"android":"levelo://app?vid=2d36a833-9c1e-4986-b296-52f4e681367f","ios":"levelo://app?vid=2d36a833-9c1e-4986-b296-52f4e681367f"},"vehicle_type_id":"4","last_reported":1770287440,"current_range_meters":7200,"station_id":"ce4bhmp2rcd13ifvqgog","pricing_plan_id":"cebpf4jnsgd1na2vs0mg"},{"bike_id":"3f3e3bb5-fe50-47a1-937c-b8f922158a85","system_id":"levelo_inurba_marseille","lat":43.31367,"lon":5.36715,"is_reserved":false,"is_disabled":false,"rental_uris":{"android":"levelo://app?vid=3f3e3bb5-fe50-47a1-937c-b8f922158a85","ios":"levelo://app?vid=3f3e3bb5-fe50-47a1-937c-b8f922158a85"},"vehicle_type_id":"4","last_reported":1770287440,"current_range_meters":7200,"station_id":"ce4bgr92rcd13ifvqc6g","pricing_plan_id":"cebpf4jnsgd1na2vs0mg"},{"bike_id":"c26de9f0-aea6-437d-a752-448502a27f69","system_id":"levelo_inurba_marseille","lat":43.25944,"lon":5.40912,"is_reserved":false,"is_disabled":false,"rental_uris":{"android":"levelo://app?vid=c26de9f0-aea6-437d-a752-448502a27f69","ios":"levelo://app?vid=c26de9f0-aea6-437d-a752-448502a27f69"},"vehicle_type_id":"4","last_reported":1770287440,"current_range_meters":7200,"station_id":"ce4bhm92rcd13ifvqglg","pricing_plan_id":"cebpf4jnsgd1na2vs0mg"},{"bike_id":"b7fceb7d-5c94-4236-913d-205150a917a2","system_id":"levelo_inurba_marseille","lat":43.24471,"lon":5.42543,"is_reserved":false,"is_disabled":false,"rental_uris":{"android":"levelo://app?vid=b7fceb7d-5c94-4236-913d-205150a917a2","ios":"levelo://app?vid=b7fceb7d-5c94-4236-913d-205150a917a2"},"vehicle_type_id":"4","last_reported":1770287440,"current_range_meters":7200,"station_id":"st_d4a3vfp97mjs738cd8kg","pricing_plan_id":"cebpf4jnsgd1na2vs0mg"},{"bike_id":"d54d1be8-869f-4c63-b314-8eb80f9babad","system_id":"levelo_inurba_marseille","lat":43.22937,"lon":5.35377,"is_reserved":false,"is_disabled":false,"rental_uris":{"android":"levelo://app?vid=d54d1be8-869f-4c63-b314-8eb80f9babad","ios":"levelo://app?vid=d54d1be8-869f-4c63-b314-8eb80f9babad"},"vehicle_type_id":"4","last_reported":1770287440,"current_range_meters":7200,"station_id":"cpo3532slgdg3j2ikp40","pricing_plan_id":"cebpf4jnsgd1na2vs0mg"},{"bike_id":"38712b4b-754b-41b9-9f4d-8f2f4069c5f1","system_id":"levelo_inurba_marseille","lat":43.29914,"lon":5.37456,"is_reserved":false,"is_disabled":false,"rental_uris":{"android":"levelo://app?vid=38712b4b-754b-41b9-9f4d-8f2f4069c5f1","ios":"levelo://app?vid=38712b4b-754b-41b9-9f4d-8f2f4069c5f1"},"vehicle_type_id":"4","last_reported":1770287440,"current_range_meters":7200,"station_id":"ce4bgjh2rcd13ifvqbg0","pricing_plan_id":"cebpf4jnsgd1na2vs0mg"},{"bike_id":"ce4a1792-82ee-4044-b1b1-12f01e9fce90","system_id":"levelo_inurba_marseille","lat":43.27219,"lon":5.39182,"is_reserved":false,"is_disabled":false,"rental_uris":{"android":"levelo://app?vid=ce4a1792-82ee-4044-b1b1-12f01e9fce90","ios":"levelo://app?vid=ce4a1792-82ee-4044-b1b1-12f01e9fce90"},"vehicle_type_id":"4","last_reported":1770287440,"current_range_meters":7200,"station_id":"ce4bhhp2rcd13ifvqfm0","pricing_plan_id":"cebpf4jnsgd1na2vs0mg"},{"bike_id":"6c1a87f7-3116-4907-92cc-1b25b769ac54","system_id":"levelo_inurba_marseille","lat":43.23188,"lon":5.39995,"is_reserved":false,"is_disabled":false,"rental_uris":{"android":"levelo://app?vid=6c1a87f7-3116-4907-92cc-1b25b769ac54","ios":"levelo://app?vid=6c1a87f7-3116-4907-92cc-1b25b769ac54"},"vehicle_type_id":"4","last_reported":1770287440,"current_range_meters":7200,"station_id":"ce4bhn12rcd13ifvqgqg","pricing_plan_id":"cebpf4jnsgd1na2vs0mg"},{"bike_id":"3f023cf7-e8bf-427e-aac5-2c44d9c187f5","system_id":"levelo_inurba_marseille","lat":43.29577,"lon":5.37523,"is_reserved":false,"is_disabled":false,"rental_uris":{"android":"levelo://app?vid=3f023cf7-e8bf-427e-aac5-2c44d9c187f5","ios":"levelo://app?vid=3f023cf7-e8bf-427e-aac5-2c44d9c187f5"},"vehicle_type_id":"4","last_reported":1770287440,"current_range_meters":7200,"station_id":"ce4bgh92rcd13ifvqb50","pricing_plan_id":"cebpf4jnsgd1na2vs0mg"},{"bike_id":"c3f43aa2-1ae1-41b3-a072-0f15c8d488c0","system_id":"levelo_inurba_marseille","lat":43.28499,"lon":5.43736,"is_reserved":false,"is_disabled":false,"rental_uris":{"android":"levelo://app?vid=c3f43aa2-1ae1-41b3-a072-0f15c8d488c0","ios":"levelo://app?vid=c3f43aa2-1ae1-41b3-a072-0f15c8d488c0"},"vehicle_type_id":"4","last_reported":1770287440,"current_range_meters":7200,"station_id":"","pricing_plan_id":"cebpf4jnsgd1na2vs0mg"},{"bike_id":"1be79b39-519d-4004-8fc8-79c55282c459","system_id":"levelo_inurba_marseille","lat":43.24157,"lon":5.36403,"is_reserved":false,"is_disabled":false,"rental_uris":{"android":"levelo://app?vid=1be79b39-519d-4004-8fc8-79c55282c459","ios":"levelo://app?vid=1be79b39-519d-4004-8fc8-79c55282c459"},"vehicle_type_id":"4","last_reported":1770287440,"current_range_meters":7200,"station_id":"cpo36qri1sfpv3e86is0","pricing_plan_id":"cebpf4jnsgd1na2vs0mg"},{"bike_id":"bf0b7d00-0741-403e-9b41-d44cd83fcd1f","system_id":"levelo_inurba_marseille","lat":43.31347,"lon":5.3672,"is_reserved":false,"is_disabled":false,"rental_uris":{"android":"levelo://app?vid=bf0b7d00-0741-403e-9b41-d44cd83fcd1f","ios":"levelo://app?vid=bf0b7d00-0741-403e-9b41-d44cd83fcd1f"},"vehicle_type_id":"4","last_reported":1770287440,"current_range_meters":7200,"station_id":"ce4bgr92rcd13ifvqc6g","pricing_plan_id":"cebpf4jnsgd1na2vs0mg"},{"bike_id":"a03a0587-26a0-4743-94df-85cf192becc0","system_id":"levelo_inurba_marseille","lat":43.33535,"lon":5.37468,"is_reserved":false,"is_disabled":false,"rental_uris":{"android":"levelo://app?vid=a03a0587-26a0-4743-94df-85cf192becc0","ios":"levelo://app?vid=a03a0587-26a0-4743-94df-85cf192becc0"},"vehicle_type_id":"4","last_reported":1770287440,"current_range_meters":7200,"station_id":"st_d46tts09ee8s73dlu43g","pricing_plan_id":"cebpf4jnsgd1na2vs0mg"},{"bike_id":"d2c14433-6ee8-4acf-8c27-13116ae17eed","system_id":"levelo_inurba_marseille","lat":43.229269,"lon":5.353806,"is_reserved":false,"is_disabled":false,"rental_uris":{"android":"levelo://app?vid=d2c14433-6ee8-4acf-8c27-13116ae17eed","ios":"levelo://app?vid=d2c14433-6ee8-4acf-8c27-13116ae17eed"},"vehicle_type_id":"4","last_reported":1770287440,"current_range_meters":7200,"station_id":"cpo3532slgdg3j2ikp40","pricing_plan_id":"cebpf4jnsgd1na2vs0mg"},{"bike_id":"63b0defc-cb5e-4c6d-95eb-4fde2c849f72","system_id":"levelo_inurba_marseille","lat":43.3016,"lon":5.38081,"is_reserved":false,"is_disabled":false,"rental_uris":{"android":"levelo://app?vid=63b0defc-cb5e-4c6d-95eb-4fde2c849f72","ios":"levelo://app?vid=63b0defc-cb5e-4c6d-95eb-4fde2c849f72"},"vehicle_type_id":"4","last_reported":1770287440,"current_range_meters":7200,"station_id":"ce4bgjp2rcd13ifvqbh0","pricing_plan_id":"cebpf4jnsgd1na2vs0mg"},{"bike_id":"49bc0ac4-ec4c-46b4-bcba-c5b87d948aa1","system_id":"levelo_inurba_marseille","lat":43.2395,"lon":5.36648,"is_reserved":false,"is_disabled":false,"rental_uris":{"android":"levelo://app?vid=49bc0ac4-ec4c-46b4-bcba-c5b87d948aa1","ios":"levelo://app?vid=49bc0ac4-ec4c-46b4-bcba-c5b87d948aa1"},"vehicle_type_id":"4","last_reported":1770287440,"current_range_meters":8000,"station_id":"ce4bhi12rcd13ifvqfp0","pricing_plan_id":"cebpf4jnsgd1na2vs0mg"},{"bike_id":"dd80c901-c2fa-47d4-ae61-a97431ae582b","system_id":"levelo_inurba_marseille","lat":43.216357,"lon":5.346536,"is_reserved":false,"is_disabled":false,"rental_uris":{"android":"levelo://app?vid=dd80c901-c2fa-47d4-ae61-a97431ae582b","ios":"levelo://app?vid=dd80c901-c2fa-47d4-ae61-a97431ae582b"},"vehicle_type_id":"4","last_reported":1770287440,"current_range_meters":8000,"station_id":"","pricing_plan_id":"cebpf4jnsgd1na2vs0mg"},{"bike_id":"c54292e3-065f-4936-9d5e-2b6c416dceb3","system_id":"levelo_inurba_marseille","lat":43.23162,"lon":5.437,"is_reserved":false,"is_disabled":false,"rental_uris":{"android":"levelo://app?vid=c54292e3-065f-4936-9d5e-2b6c416dceb3","ios":"levelo://app?vid=c54292e3-065f-4936-9d5e-2b6c416dceb3"},"vehicle_type_id":"4","last_reported":1770287440,"current_range_meters":8000,"station_id":"ce4bhmp2rcd13ifvqgog","pricing_plan_id":"cebpf4jnsgd1na2vs0mg"},{"bike_id":"c1e23706-b5c7-4d8a-8806-4510eaf5a695","system_id":"levelo_inurba_marseille","lat":43.30144,"lon":5.3742,"is_reserved":false,"is_disabled":false,"rental_uris":{"android":"levelo://app?vid=c1e23706-b5c7-4d8a-8806-4510eaf5a695","ios":"levelo://app?vid=c1e23706-b5c7-4d8a-8806-4510eaf5a695"},"vehicle_type_id":"4","last_reported":1770287440,"current_range_meters":8000,"station_id":"ce4bgs92rcd13ifvqcc0","pricing_plan_id":"cebpf4jnsgd1na2vs0mg"},{"bike_id":"6fb99119-655d-47da-8c5f-3d60a34cd591","system_id":"levelo_inurba_marseille","lat":43.24949,"lon":5.40493,"is_reserved":false,"is_disabled":false,"rental_uris":{"android":"levelo://app?vid=6fb99119-655d-47da-8c5f-3d60a34cd591","ios":"levelo://app?vid=6fb99119-655d-47da-8c5f-3d60a34cd591"},"vehicle_type_id":"4","last_reported":1770287440,"current_range_meters":8000,"station_id":"st_d2ngiaodas8pm72gd1h0","pricing_plan_id":"cebpf4jnsgd1na2vs0mg"},{"bike_id":"b7830a53-f487-42ab-ad92-281457f67cf4","system_id":"levelo_inurba_marseille","lat":43.29262,"lon":5.37631,"is_reserved":false,"is_disabled":false,"rental_uris":{"android":"levelo://app?vid=b7830a53-f487-42ab-ad92-281457f67cf4","ios":"levelo://app?vid=b7830a53-f487-42ab-ad92-281457f67cf4"},"vehicle_type_id":"4","last_reported":1770287440,"current_range_meters":8000,"station_id":"ce4bgi12rcd13ifvqb80","pricing_plan_id":"cebpf4jnsgd1na2vs0mg"},{"bike_id":"c59be42f-0772-451e-a452-b56e08719067","system_id":"levelo_inurba_marseille","lat":43.23956,"lon":5.36638,"is_reserved":false,"is_disabled":false,"rental_uris":{"android":"levelo://app?vid=c59be42f-0772-451e-a452-b56e08719067","ios":"levelo://app?vid=c59be42f-0772-451e-a452-b56e08719067"},"vehicle_type_id":"4","last_reported":1770287440,"current_range_meters":8000,"station_id":"ce4bhi12rcd13ifvqfp0","pricing_plan_id":"cebpf4jnsgd1na2vs0mg"},{"bike_id":"755e59af-683d-4f2b-b573-16e19ef74443","system_id":"levelo_inurba_marseille","lat":43.29764,"lon":5.427776,"is_reserved":false,"is_disabled":false,"rental_uris":{"android":"levelo://app?vid=755e59af-683d-4f2b-b573-16e19ef74443","ios":"levelo://app?vid=755e59af-683d-4f2b-b573-16e19ef74443"},"vehicle_type_id":"4","last_reported":1770287440,"current_range_meters":8000,"station_id":"st_d3md5207bmas73dh9klg","pricing_plan_id":"cebpf4jnsgd1na2vs0mg"},{"bike_id":"a35d9d84-d307-4c41-9e1b-9df1b91f3af3","system_id":"levelo_inurba_marseille","lat":43.30546,"lon":5.36704,"is_reserved":false,"is_disabled":false,"rental_uris":{"android":"levelo://app?vid=a35d9d84-d307-4c41-9e1b-9df1b91f3af3","ios":"levelo://app?vid=a35d9d84-d307-4c41-9e1b-9df1b91f3af3"},"vehicle_type_id":"4","last_reported":1770287440,"current_range_meters":8000,"station_id":"ce4bgrp2rcd13ifvqc9g","pricing_plan_id":"cebpf4jnsgd1na2vs0mg"},{"bike_id":"6b57bf3b-8c0e-4c20-ac17-97c4a9b3eefe","system_id":"levelo_inurba_marseille","lat":43.23153,"lon":5.43711,"is_reserved":false,"is_disabled":false,"rental_uris":{"android":"levelo://app?vid=6b57bf3b-8c0e-4c20-ac17-97c4a9b3eefe","ios":"levelo://app?vid=6b57bf3b-8c0e-4c20-ac17-97c4a9b3eefe"},"vehicle_type_id":"4","last_reported":1770287440,"current_range_meters":8000,"station_id":"ce4bhmp2rcd13ifvqgog","pricing_plan_id":"cebpf4jnsgd1na2vs0mg"},{"bike_id":"d72ec66a-db3f-41c7-8ed5-45387a7e4906","system_id":"levelo_inurba_marseille","lat":43.31718,"lon":5.42387,"is_reserved":false,"is_disabled":false,"rental_uris":{"android":"levelo://app?vid=d72ec66a-db3f-41c7-8ed5-45387a7e4906","ios":"levelo://app?vid=d72ec66a-db3f-41c7-8ed5-45387a7e4906"},"vehicle_type_id":"4","last_reported":1770287440,"current_range_meters":8400,"station_id":"ce4bhp92rcd13ifvqhbg","pricing_plan_id":"cebpf4jnsgd1na2vs0mg"},{"bike_id":"e6aca556-ada4-4207-9528-35f8d7906ed0","system_id":"levelo_inurba_marseille","lat":43.270586,"lon":5.422869,"is_reserved":false,"is_disabled":false,"rental_uris":{"android":"levelo://app?vid=e6aca556-ada4-4207-9528-35f8d7906ed0","ios":"levelo://app?vid=e6aca556-ada4-4207-9528-35f8d7906ed0"},"vehicle_type_id":"4","last_reported":1770287440,"current_range_meters":8400,"station_id":"ce4bhk92rcd13ifvqgb0","pricing_plan_id":"cebpf4jnsgd1na2vs0mg"},{"bike_id":"29cc51ca-242f-4ad3-a62e-0213a22ae48c","system_id":"levelo_inurba_marseille","lat":43.30273,"lon":5.37749,"is_reserved":false,"is_disabled":false,"rental_uris":{"android":"levelo://app?vid=29cc51ca-242f-4ad3-a62e-0213a22ae48c","ios":"levelo://app?vid=29cc51ca-242f-4ad3-a62e-0213a22ae48c"},"vehicle_type_id":"4","last_reported":1770287440,"current_range_meters":8400,"station_id":"ce4bguh2rcd13ifvqcj0","pricing_plan_id":"cebpf4jnsgd1na2vs0mg"},{"bike_id":"1ed6b9ca-ddfc-4924-a822-55bd41d269be","system_id":"levelo_inurba_marseille","lat":43.29811,"lon":5.38081,"is_reserved":false,"is_disabled":false,"rental_uris":{"android":"levelo://app?vid=1ed6b9ca-ddfc-4924-a822-55bd41d269be","ios":"levelo://app?vid=1ed6b9ca-ddfc-4924-a822-55bd41d269be"},"vehicle_type_id":"4","last_reported":1770287440,"current_range_meters":8400,"station_id":"ce4bgip2rcd13ifvqbb0","pricing_plan_id":"cebpf4jnsgd1na2vs0mg"},{"bike_id":"6655b68c-34d5-4976-9b6b-2354fa7ac20f","system_id":"levelo_inurba_marseille","lat":43.28861,"lon":5.42525,"is_reserved":false,"is_disabled":false,"rental_uris":{"android":"levelo://app?vid=6655b68c-34d5-4976-9b6b-2354fa7ac20f","ios":"levelo://app?vid=6655b68c-34d5-4976-9b6b-2354fa7ac20f"},"vehicle_type_id":"4","last_reported":1770287440,"current_range_meters":8400,"station_id":"st_d3b462108ojc7389ooeg","pricing_plan_id":"cebpf4jnsgd1na2vs0mg"},{"bike_id":"c1141524-5343-4555-9ca5-2692a3456421","system_id":"levelo_inurba_marseille","lat":43.22924,"lon":5.35383,"is_reserved":false,"is_disabled":false,"rental_uris":{"android":"levelo://app?vid=c1141524-5343-4555-9ca5-2692a3456421","ios":"levelo://app?vid=c1141524-5343-4555-9ca5-2692a3456421"},"vehicle_type_id":"4","last_reported":1770287440,"current_range_meters":8400,"station_id":"cpo3532slgdg3j2ikp40","pricing_plan_id":"cebpf4jnsgd1na2vs0mg"},{"bike_id":"6d78624f-5bc6-4b6d-8627-53d9384af98a","system_id":"levelo_inurba_marseille","lat":43.24951,"lon":5.40494,"is_reserved":false,"is_disabled":false,"rental_uris":{"android":"levelo://app?vid=6d78624f-5bc6-4b6d-8627-53d9384af98a","ios":"levelo://app?vid=6d78624f-5bc6-4b6d-8627-53d9384af98a"},"vehicle_type_id":"4","last_reported":1770287440,"current_range_meters":8400,"station_id":"st_d2ngiaodas8pm72gd1h0","pricing_plan_id":"cebpf4jnsgd1na2vs0mg"},{"bike_id":"4e050dc2-18d1-48d2-bd3b-afdb4aa018e8","system_id":"levelo_inurba_marseille","lat":43.30294,"lon":5.37699,"is_reserved":false,"is_disabled":true,"rental_uris":{"android":"levelo://app?vid=4e050dc2-18d1-48d2-bd3b-afdb4aa018e8","ios":"levelo://app?vid=4e050dc2-18d1-48d2-bd3b-afdb4aa018e8"},"vehicle_type_id":"4","last_reported":1770287440,"current_range_meters":8400,"station_id":"ce4bguh2rcd13ifvqcj0","pricing_plan_id":"cebpf4jnsgd1na2vs0mg"},{"bike_id":"66843164-e6dd-46fc-8743-26489dd47f53","system_id":"levelo_inurba_marseille","lat":43.313677,"lon":5.367026,"is_reserved":false,"is_disabled":false,"rental_uris":{"android":"levelo://app?vid=66843164-e6dd-46fc-8743-26489dd47f53","ios":"levelo://app?vid=66843164-e6dd-46fc-8743-26489dd47f53"},"vehicle_type_id":"4","last_reported":1770287440,"current_range_meters":8400,"station_id":"ce4bgr92rcd13ifvqc6g","pricing_plan_id":"cebpf4jnsgd1na2vs0mg"},{"bike_id":"117def50-876b-4a77-bc7f-3e901c787b6b","system_id":"levelo_inurba_marseille","lat":43.2316,"lon":5.43701,"is_reserved":false,"is_disabled":false,"rental_uris":{"android":"levelo://app?vid=117def50-876b-4a77-bc7f-3e901c787b6b","ios":"levelo://app?vid=117def50-876b-4a77-bc7f-3e901c787b6b"},"vehicle_type_id":"4","last_reported":1770287440,"current_range_meters":8400,"station_id":"ce4bhmp2rcd13ifvqgog","pricing_plan_id":"cebpf4jnsgd1na2vs0mg"},{"bike_id":"34c50a61-22ac-4ed2-981f-46c8654fa2b9","system_id":"levelo_inurba_marseille","lat":43.33547,"lon":5.37448,"is_reserved":false,"is_disabled":false,"rental_uris":{"android":"levelo://app?vid=34c50a61-22ac-4ed2-981f-46c8654fa2b9","ios":"levelo://app?vid=34c50a61-22ac-4ed2-981f-46c8654fa2b9"},"vehicle_type_id":"4","last_reported":1770287440,"current_range_meters":8400,"station_id":"","pricing_plan_id":"cebpf4jnsgd1na2vs0mg"},{"bike_id":"b8f84804-3c6a-46e2-933b-865abf78412e","system_id":"levelo_inurba_marseille","lat":43.28497,"lon":5.48391,"is_reserved":false,"is_disabled":false,"rental_uris":{"android":"levelo://app?vid=b8f84804-3c6a-46e2-933b-865abf78412e","ios":"levelo://app?vid=b8f84804-3c6a-46e2-933b-865abf78412e"},"vehicle_type_id":"4","last_reported":1770287440,"current_range_meters":8400,"station_id":"st_d3svhcjqgbts73a3dn0g","pricing_plan_id":"cebpf4jnsgd1na2vs0mg"},{"bike_id":"041b55eb-1955-4acc-9086-a670f7f43fe1","system_id":"levelo_inurba_marseille","lat":43.30547,"lon":5.36556,"is_reserved":false,"is_disabled":false,"rental_uris":{"android":"levelo://app?vid=041b55eb-1955-4acc-9086-a670f7f43fe1","ios":"levelo://app?vid=041b55eb-1955-4acc-9086-a670f7f43fe1"},"vehicle_type_id":"4","last_reported":1770287440,"current_range_meters":8400,"station_id":"ce4bgs12rcd13ifvqcag","pricing_plan_id":"cebpf4jnsgd1na2vs0mg"},{"bike_id":"453579d7-6663-41ac-8c92-337a0b82bafa","system_id":"levelo_inurba_marseille","lat":43.24994,"lon":5.38926,"is_reserved":false,"is_disabled":false,"rental_uris":{"android":"levelo://app?vid=453579d7-6663-41ac-8c92-337a0b82bafa","ios":"levelo://app?vid=453579d7-6663-41ac-8c92-337a0b82bafa"},"vehicle_type_id":"4","last_reported":1770287440,"current_range_meters":8400,"station_id":"","pricing_plan_id":"cebpf4jnsgd1na2vs0mg"},{"bike_id":"b4511b2b-b40d-4489-aaec-8193a17f80e9","system_id":"levelo_inurba_marseille","lat":43.33572,"lon":5.37455,"is_reserved":false,"is_disabled":false,"rental_uris":{"android":"levelo://app?vid=b4511b2b-b40d-4489-aaec-8193a17f80e9","ios":"levelo://app?vid=b4511b2b-b40d-4489-aaec-8193a17f80e9"},"vehicle_type_id":"4","last_reported":1770287440,"current_range_meters":8400,"station_id":"","pricing_plan_id":"cebpf4jnsgd1na2vs0mg"},{"bike_id":"5309610c-bf76-4542-a232-389bbf17cbff","system_id":"levelo_inurba_marseille","lat":43.33539,"lon":5.37459,"is_reserved":false,"is_disabled":false,"rental_uris":{"android":"levelo://app?vid=5309610c-bf76-4542-a232-389bbf17cbff","ios":"levelo://app?vid=5309610c-bf76-4542-a232-389bbf17cbff"},"vehicle_type_id":"4","last_reported":1770287440,"current_range_meters":8800,"station_id":"","pricing_plan_id":"cebpf4jnsgd1na2vs0mg"},{"bike_id":"b53f497c-0cdf-42a8-ab5a-d6dc45b07b09","system_id":"levelo_inurba_marseille","lat":43.24157,"lon":5.36378,"is_reserved":false,"is_disabled":false,"rental_uris":{"android":"levelo://app?vid=b53f497c-0cdf-42a8-ab5a-d6dc45b07b09","ios":"levelo://app?vid=b53f497c-0cdf-42a8-ab5a-d6dc45b07b09"},"vehicle_type_id":"4","last_reported":1770287440,"current_range_meters":8800,"station_id":"cpo36qri1sfpv3e86is0","pricing_plan_id":"cebpf4jnsgd1na2vs0mg"},{"bike_id":"0ad61100-8c1e-4683-9cc6-748f02a03fec","system_id":"levelo_inurba_marseille","lat":43.29887,"lon":5.43646,"is_reserved":false,"is_disabled":false,"rental_uris":{"android":"levelo://app?vid=0ad61100-8c1e-4683-9cc6-748f02a03fec","ios":"levelo://app?vid=0ad61100-8c1e-4683-9cc6-748f02a03fec"},"vehicle_type_id":"4","last_reported":1770287440,"current_range_meters":8800,"station_id":"ce4bhpp2rcd13ifvqhfg","pricing_plan_id":"cebpf4jnsgd1na2vs0mg"},{"bike_id":"d2497ec2-d091-45cf-8cbe-2ca34f54e482","system_id":"levelo_inurba_marseille","lat":43.24805,"lon":5.37442,"is_reserved":false,"is_disabled":false,"rental_uris":{"android":"levelo://app?vid=d2497ec2-d091-45cf-8cbe-2ca34f54e482","ios":"levelo://app?vid=d2497ec2-d091-45cf-8cbe-2ca34f54e482"},"vehicle_type_id":"4","last_reported":1770287440,"current_range_meters":8800,"station_id":"ce4bhgh2rcd13ifvqfb0","pricing_plan_id":"cebpf4jnsgd1na2vs0mg"},{"bike_id":"14a0bfe2-9ad8-41a2-8100-306572082be4","system_id":"levelo_inurba_marseille","lat":43.24657,"lon":5.38919,"is_reserved":false,"is_disabled":false,"rental_uris":{"android":"levelo://app?vid=14a0bfe2-9ad8-41a2-8100-306572082be4","ios":"levelo://app?vid=14a0bfe2-9ad8-41a2-8100-306572082be4"},"vehicle_type_id":"4","last_reported":1770287440,"current_range_meters":8800,"station_id":"ce4bhg12rcd13ifvqf60","pricing_plan_id":"cebpf4jnsgd1na2vs0mg"},{"bike_id":"f1b1055e-06bd-4540-b5fe-11d8d0f72076","system_id":"levelo_inurba_marseille","lat":43.24558,"lon":5.39519,"is_reserved":false,"is_disabled":false,"rental_uris":{"android":"levelo://app?vid=f1b1055e-06bd-4540-b5fe-11d8d0f72076","ios":"levelo://app?vid=f1b1055e-06bd-4540-b5fe-11d8d0f72076"},"vehicle_type_id":"4","last_reported":1770287440,"current_range_meters":8800,"station_id":"ce4bhlp2rcd13ifvqgjg","pricing_plan_id":"cebpf4jnsgd1na2vs0mg"},{"bike_id":"0c0204e9-2e2c-4854-9498-c261c0135345","system_id":"levelo_inurba_marseille","lat":43.23767,"lon":5.36636,"is_reserved":false,"is_disabled":false,"rental_uris":{"android":"levelo://app?vid=0c0204e9-2e2c-4854-9498-c261c0135345","ios":"levelo://app?vid=0c0204e9-2e2c-4854-9498-c261c0135345"},"vehicle_type_id":"4","last_reported":1770287440,"current_range_meters":8800,"station_id":"st_d3nk18o9ro0c73en2l3g","pricing_plan_id":"cebpf4jnsgd1na2vs0mg"},{"bike_id":"ac551100-dc22-4913-9a52-4829a5f95f35","system_id":"levelo_inurba_marseille","lat":43.2861,"lon":5.39903,"is_reserved":false,"is_disabled":true,"rental_uris":{"android":"levelo://app?vid=ac551100-dc22-4913-9a52-4829a5f95f35","ios":"levelo://app?vid=ac551100-dc22-4913-9a52-4829a5f95f35"},"vehicle_type_id":"4","last_reported":1770287440,"current_range_meters":8800,"station_id":"st_d4a7ka997mjs738ck50g","pricing_plan_id":"cebpf4jnsgd1na2vs0mg"},{"bike_id":"b53c6c98-8c8f-43b4-8753-1f27fa4df19b","system_id":"levelo_inurba_marseille","lat":43.27267,"lon":5.4009,"is_reserved":false,"is_disabled":false,"rental_uris":{"android":"levelo://app?vid=b53c6c98-8c8f-43b4-8753-1f27fa4df19b","ios":"levelo://app?vid=b53c6c98-8c8f-43b4-8753-1f27fa4df19b"},"vehicle_type_id":"4","last_reported":1770287440,"current_range_meters":8800,"station_id":"","pricing_plan_id":"cebpf4jnsgd1na2vs0mg"},{"bike_id":"b27ef019-8d1a-418f-96a1-3960e3171226","system_id":"levelo_inurba_marseille","lat":43.29963,"lon":5.38497,"is_reserved":false,"is_disabled":false,"rental_uris":{"android":"levelo://app?vid=b27ef019-8d1a-418f-96a1-3960e3171226","ios":"levelo://app?vid=b27ef019-8d1a-418f-96a1-3960e3171226"},"vehicle_type_id":"4","last_reported":1770287440,"current_range_meters":8800,"station_id":"ce4bgj92rcd13ifvqbd0","pricing_plan_id":"cebpf4jnsgd1na2vs0mg"},{"bike_id":"e6c56c0f-8543-40e3-b0b7-23114589efc2","system_id":"levelo_inurba_marseille","lat":43.27368,"lon":5.36213,"is_reserved":false,"is_disabled":false,"rental_uris":{"android":"levelo://app?vid=e6c56c0f-8543-40e3-b0b7-23114589efc2","ios":"levelo://app?vid=e6c56c0f-8543-40e3-b0b7-23114589efc2"},"vehicle_type_id":"4","last_reported":1770287440,"current_range_meters":8800,"station_id":"ce4bhbh2rcd13ifvqeo0","pricing_plan_id":"cebpf4jnsgd1na2vs0mg"},{"bike_id":"f19552e5-b8be-4ac0-bab3-b1e24771cb0c","system_id":"levelo_inurba_marseille","lat":43.32112,"lon":5.36779,"is_reserved":false,"is_disabled":false,"rental_uris":{"android":"levelo://app?vid=f19552e5-b8be-4ac0-bab3-b1e24771cb0c","ios":"levelo://app?vid=f19552e5-b8be-4ac0-bab3-b1e24771cb0c"},"vehicle_type_id":"4","last_reported":1770287440,"current_range_meters":8800,"station_id":"ce4bhrh2rcd13ifvqhug","pricing_plan_id":"cebpf4jnsgd1na2vs0mg"},{"bike_id":"ddefaa18-0b8b-40c6-ba54-dfc09dde8e1b","system_id":"levelo_inurba_marseille","lat":43.2904,"lon":5.39998,"is_reserved":false,"is_disabled":false,"rental_uris":{"android":"levelo://app?vid=ddefaa18-0b8b-40c6-ba54-dfc09dde8e1b","ios":"levelo://app?vid=ddefaa18-0b8b-40c6-ba54-dfc09dde8e1b"},"vehicle_type_id":"4","last_reported":1770287440,"current_range_meters":8800,"station_id":"ce4bh392rcd13ifvqdm0","pricing_plan_id":"cebpf4jnsgd1na2vs0mg"},{"bike_id":"caa97350-846f-46e7-a056-75c0d3925cbd","system_id":"levelo_inurba_marseille","lat":43.25867,"lon":5.39895,"is_reserved":false,"is_disabled":false,"rental_uris":{"android":"levelo://app?vid=caa97350-846f-46e7-a056-75c0d3925cbd","ios":"levelo://app?vid=caa97350-846f-46e7-a056-75c0d3925cbd"},"vehicle_type_id":"4","last_reported":1770287440,"current_range_meters":8800,"station_id":"ce4bhl92rcd13ifvqghg","pricing_plan_id":"cebpf4jnsgd1na2vs0mg"},{"bike_id":"1eba52a5-a852-4ab1-ba0b-2dddcf59374d","system_id":"levelo_inurba_marseille","lat":43.25715,"lon":5.41118,"is_reserved":false,"is_disabled":false,"rental_uris":{"android":"levelo://app?vid=1eba52a5-a852-4ab1-ba0b-2dddcf59374d","ios":"levelo://app?vid=1eba52a5-a852-4ab1-ba0b-2dddcf59374d"},"vehicle_type_id":"4","last_reported":1770287440,"current_range_meters":8800,"station_id":"ce4bhkp2rcd13ifvqgd0","pricing_plan_id":"cebpf4jnsgd1na2vs0mg"},{"bike_id":"d90ad92a-480c-45ba-91af-83ba1be4179d","system_id":"levelo_inurba_marseille","lat":43.31215,"lon":5.36839,"is_reserved":false,"is_disabled":false,"rental_uris":{"android":"levelo://app?vid=d90ad92a-480c-45ba-91af-83ba1be4179d","ios":"levelo://app?vid=d90ad92a-480c-45ba-91af-83ba1be4179d"},"vehicle_type_id":"4","last_reported":1770287440,"current_range_meters":8800,"station_id":"ce4bgl92rcd13ifvqbq0","pricing_plan_id":"cebpf4jnsgd1na2vs0mg"},{"bike_id":"b5d4a021-0bb0-42cf-bd44-43afe8841e01","system_id":"levelo_inurba_marseille","lat":43.32364,"lon":5.36731,"is_reserved":false,"is_disabled":false,"rental_uris":{"android":"levelo://app?vid=b5d4a021-0bb0-42cf-bd44-43afe8841e01","ios":"levelo://app?vid=b5d4a021-0bb0-42cf-bd44-43afe8841e01"},"vehicle_type_id":"4","last_reported":1770287440,"current_range_meters":8800,"station_id":"ce4bhsh2rcd13ifvqi2g","pricing_plan_id":"cebpf4jnsgd1na2vs0mg"},{"bike_id":"f05273a3-d6fb-4126-b75c-98455115cb44","system_id":"levelo_inurba_marseille","lat":43.28263,"lon":5.35064,"is_reserved":false,"is_disabled":false,"rental_uris":{"android":"levelo://app?vid=f05273a3-d6fb-4126-b75c-98455115cb44","ios":"levelo://app?vid=f05273a3-d6fb-4126-b75c-98455115cb44"},"vehicle_type_id":"4","last_reported":1770287440,"current_range_meters":9200,"station_id":"ce4bhbp2rcd13ifvqerg","pricing_plan_id":"cebpf4jnsgd1na2vs0mg"},{"bike_id":"ef79007e-ef6d-4e7f-a3ae-3ed5ead69e87","system_id":"levelo_inurba_marseille","lat":43.23204,"lon":5.35548,"is_reserved":false,"is_disabled":false,"rental_uris":{"android":"levelo://app?vid=ef79007e-ef6d-4e7f-a3ae-3ed5ead69e87","ios":"levelo://app?vid=ef79007e-ef6d-4e7f-a3ae-3ed5ead69e87"},"vehicle_type_id":"4","last_reported":1770287440,"current_range_meters":9200,"station_id":"ce4bhu92rcd13ifvqi70","pricing_plan_id":"cebpf4jnsgd1na2vs0mg"},{"bike_id":"6c706595-1835-4ddf-8d94-5e35d4a0f5cb","system_id":"levelo_inurba_marseille","lat":43.31169,"lon":5.36852,"is_reserved":false,"is_disabled":false,"rental_uris":{"android":"levelo://app?vid=6c706595-1835-4ddf-8d94-5e35d4a0f5cb","ios":"levelo://app?vid=6c706595-1835-4ddf-8d94-5e35d4a0f5cb"},"vehicle_type_id":"4","last_reported":1770287440,"current_range_meters":9200,"station_id":"","pricing_plan_id":"cebpf4jnsgd1na2vs0mg"},{"bike_id":"e3818fee-bf5a-4fee-b7f1-bb17fc6a2b0a","system_id":"levelo_inurba_marseille","lat":43.29813,"lon":5.38071,"is_reserved":false,"is_disabled":false,"rental_uris":{"android":"levelo://app?vid=e3818fee-bf5a-4fee-b7f1-bb17fc6a2b0a","ios":"levelo://app?vid=e3818fee-bf5a-4fee-b7f1-bb17fc6a2b0a"},"vehicle_type_id":"4","last_reported":1770287440,"current_range_meters":9200,"station_id":"ce4bgip2rcd13ifvqbb0","pricing_plan_id":"cebpf4jnsgd1na2vs0mg"},{"bike_id":"d1bf575b-30da-41d4-9229-6ff6905b0804","system_id":"levelo_inurba_marseille","lat":43.3017,"lon":5.37405,"is_reserved":false,"is_disabled":false,"rental_uris":{"android":"levelo://app?vid=d1bf575b-30da-41d4-9229-6ff6905b0804","ios":"levelo://app?vid=d1bf575b-30da-41d4-9229-6ff6905b0804"},"vehicle_type_id":"4","last_reported":1770287440,"current_range_meters":9200,"station_id":"ce4bgs92rcd13ifvqcc0","pricing_plan_id":"cebpf4jnsgd1na2vs0mg"},{"bike_id":"46718fbf-dfaf-4a04-a440-ce25e7ca8e80","system_id":"levelo_inurba_marseille","lat":43.307307,"lon":5.424359,"is_reserved":false,"is_disabled":false,"rental_uris":{"android":"levelo://app?vid=46718fbf-dfaf-4a04-a440-ce25e7ca8e80","ios":"levelo://app?vid=46718fbf-dfaf-4a04-a440-ce25e7ca8e80"},"vehicle_type_id":"4","last_reported":1770287440,"current_range_meters":9200,"station_id":"st_cvj6ca6bvosntc0bfgr0","pricing_plan_id":"cebpf4jnsgd1na2vs0mg"},{"bike_id":"ff928da1-2e1c-4b3b-b22b-0a45a1a482af","system_id":"levelo_inurba_marseille","lat":43.29305,"lon":5.36859,"is_reserved":false,"is_disabled":false,"rental_uris":{"android":"levelo://app?vid=ff928da1-2e1c-4b3b-b22b-0a45a1a482af","ios":"levelo://app?vid=ff928da1-2e1c-4b3b-b22b-0a45a1a482af"},"vehicle_type_id":"4","last_reported":1770287440,"current_range_meters":9200,"station_id":"ce4bhbp2rcd13ifvqesg","pricing_plan_id":"cebpf4jnsgd1na2vs0mg"},{"bike_id":"5398432d-a54b-462a-8c32-a581e596acd8","system_id":"levelo_inurba_marseille","lat":43.29045,"lon":5.39991,"is_reserved":false,"is_disabled":false,"rental_uris":{"android":"levelo://app?vid=5398432d-a54b-462a-8c32-a581e596acd8","ios":"levelo://app?vid=5398432d-a54b-462a-8c32-a581e596acd8"},"vehicle_type_id":"4","last_reported":1770287440,"current_range_meters":9200,"station_id":"ce4bh392rcd13ifvqdm0","pricing_plan_id":"cebpf4jnsgd1na2vs0mg"},{"bike_id":"5c3d031a-a771-44bc-8903-4ef356b4460b","system_id":"levelo_inurba_marseille","lat":43.24808,"lon":5.37452,"is_reserved":false,"is_disabled":false,"rental_uris":{"android":"levelo://app?vid=5c3d031a-a771-44bc-8903-4ef356b4460b","ios":"levelo://app?vid=5c3d031a-a771-44bc-8903-4ef356b4460b"},"vehicle_type_id":"4","last_reported":1770287440,"current_range_meters":9200,"station_id":"ce4bhgh2rcd13ifvqfb0","pricing_plan_id":"cebpf4jnsgd1na2vs0mg"},{"bike_id":"8242b3dd-6d2d-45e8-b221-ea9e1f572586","system_id":"levelo_inurba_marseille","lat":43.3032,"lon":5.36899,"is_reserved":false,"is_disabled":false,"rental_uris":{"android":"levelo://app?vid=8242b3dd-6d2d-45e8-b221-ea9e1f572586","ios":"levelo://app?vid=8242b3dd-6d2d-45e8-b221-ea9e1f572586"},"vehicle_type_id":"4","last_reported":1770287440,"current_range_meters":9200,"station_id":"ce4bgqh2rcd13ifvqc5g","pricing_plan_id":"cebpf4jnsgd1na2vs0mg"},{"bike_id":"3ad30d18-407f-450f-be4e-78a4f654b655","system_id":"levelo_inurba_marseille","lat":43.31072,"lon":5.37175,"is_reserved":false,"is_disabled":false,"rental_uris":{"android":"levelo://app?vid=3ad30d18-407f-450f-be4e-78a4f654b655","ios":"levelo://app?vid=3ad30d18-407f-450f-be4e-78a4f654b655"},"vehicle_type_id":"4","last_reported":1770287440,"current_range_meters":9600,"station_id":"st_d4kl2rp97mjs73e7tdfg","pricing_plan_id":"cebpf4jnsgd1na2vs0mg"},{"bike_id":"ce42e7f7-46f5-4db3-9bac-ce86f1010cc5","system_id":"levelo_inurba_marseille","lat":43.23393,"lon":5.41228,"is_reserved":false,"is_disabled":false,"rental_uris":{"android":"levelo://app?vid=ce42e7f7-46f5-4db3-9bac-ce86f1010cc5","ios":"levelo://app?vid=ce42e7f7-46f5-4db3-9bac-ce86f1010cc5"},"vehicle_type_id":"4","last_reported":1770287440,"current_range_meters":9600,"station_id":"","pricing_plan_id":"cebpf4jnsgd1na2vs0mg"},{"bike_id":"7a9437dc-9620-4e4d-ac55-f97780f81760","system_id":"levelo_inurba_marseille","lat":43.24815,"lon":5.37457,"is_reserved":false,"is_disabled":false,"rental_uris":{"android":"levelo://app?vid=7a9437dc-9620-4e4d-ac55-f97780f81760","ios":"levelo://app?vid=7a9437dc-9620-4e4d-ac55-f97780f81760"},"vehicle_type_id":"4","last_reported":1770287440,"current_range_meters":9600,"station_id":"ce4bhgh2rcd13ifvqfb0","pricing_plan_id":"cebpf4jnsgd1na2vs0mg"},{"bike_id":"a76c2d90-7855-49de-80b4-3e0b4c33e593","system_id":"levelo_inurba_marseille","lat":43.24957,"lon":5.40519,"is_reserved":false,"is_disabled":false,"rental_uris":{"android":"levelo://app?vid=a76c2d90-7855-49de-80b4-3e0b4c33e593","ios":"levelo://app?vid=a76c2d90-7855-49de-80b4-3e0b4c33e593"},"vehicle_type_id":"4","last_reported":1770287440,"current_range_meters":9600,"station_id":"st_d2ngiaodas8pm72gd1h0","pricing_plan_id":"cebpf4jnsgd1na2vs0mg"},{"bike_id":"da76f900-b17d-4248-b9ba-2a8067b473bd","system_id":"levelo_inurba_marseille","lat":43.31723,"lon":5.42408,"is_reserved":false,"is_disabled":false,"rental_uris":{"android":"levelo://app?vid=da76f900-b17d-4248-b9ba-2a8067b473bd","ios":"levelo://app?vid=da76f900-b17d-4248-b9ba-2a8067b473bd"},"vehicle_type_id":"4","last_reported":1770287440,"current_range_meters":9600,"station_id":"ce4bhp92rcd13ifvqhbg","pricing_plan_id":"cebpf4jnsgd1na2vs0mg"},{"bike_id":"8267a59a-96fe-435a-a59a-5974d84dff18","system_id":"levelo_inurba_marseille","lat":43.25031,"lon":5.38936,"is_reserved":false,"is_disabled":false,"rental_uris":{"android":"levelo://app?vid=8267a59a-96fe-435a-a59a-5974d84dff18","ios":"levelo://app?vid=8267a59a-96fe-435a-a59a-5974d84dff18"},"vehicle_type_id":"4","last_reported":1770287440,"current_range_meters":9600,"station_id":"ce4bhgp2rcd13ifvqfd0","pricing_plan_id":"cebpf4jnsgd1na2vs0mg"},{"bike_id":"a29bd862-d4e1-4cab-b88a-2c26a3036667","system_id":"levelo_inurba_marseille","lat":43.31943,"lon":5.36907,"is_reserved":false,"is_disabled":false,"rental_uris":{"android":"levelo://app?vid=a29bd862-d4e1-4cab-b88a-2c26a3036667","ios":"levelo://app?vid=a29bd862-d4e1-4cab-b88a-2c26a3036667"},"vehicle_type_id":"4","last_reported":1770287440,"current_range_meters":9600,"station_id":"","pricing_plan_id":"cebpf4jnsgd1na2vs0mg"},{"bike_id":"c6782d87-e485-4a2c-b62b-9a52105fb0ef","system_id":"levelo_inurba_marseille","lat":43.24993,"lon":5.38936,"is_reserved":false,"is_disabled":false,"rental_uris":{"android":"levelo://app?vid=c6782d87-e485-4a2c-b62b-9a52105fb0ef","ios":"levelo://app?vid=c6782d87-e485-4a2c-b62b-9a52105fb0ef"},"vehicle_type_id":"4","last_reported":1770287440,"current_range_meters":9600,"station_id":"ce4bhgp2rcd13ifvqfd0","pricing_plan_id":"cebpf4jnsgd1na2vs0mg"},{"bike_id":"0388f24a-b566-45b1-a38a-12fb5d338f89","system_id":"levelo_inurba_marseille","lat":43.31664,"lon":5.37655,"is_reserved":false,"is_disabled":false,"rental_uris":{"android":"levelo://app?vid=0388f24a-b566-45b1-a38a-12fb5d338f89","ios":"levelo://app?vid=0388f24a-b566-45b1-a38a-12fb5d338f89"},"vehicle_type_id":"4","last_reported":1770287440,"current_range_meters":9600,"station_id":"","pricing_plan_id":"cebpf4jnsgd1na2vs0mg"},{"bike_id":"f032e3f9-5399-4635-8e00-5e4d3179bb75","system_id":"levelo_inurba_marseille","lat":43.24472,"lon":5.42545,"is_reserved":false,"is_disabled":false,"rental_uris":{"android":"levelo://app?vid=f032e3f9-5399-4635-8e00-5e4d3179bb75","ios":"levelo://app?vid=f032e3f9-5399-4635-8e00-5e4d3179bb75"},"vehicle_type_id":"4","last_reported":1770287440,"current_range_meters":9600,"station_id":"st_d4a3vfp97mjs738cd8kg","pricing_plan_id":"cebpf4jnsgd1na2vs0mg"},{"bike_id":"935e3e21-2f3b-4e8e-a6be-0b2d1af349b7","system_id":"levelo_inurba_marseille","lat":43.31498,"lon":5.37319,"is_reserved":false,"is_disabled":false,"rental_uris":{"android":"levelo://app?vid=935e3e21-2f3b-4e8e-a6be-0b2d1af349b7","ios":"levelo://app?vid=935e3e21-2f3b-4e8e-a6be-0b2d1af349b7"},"vehicle_type_id":"4","last_reported":1770287440,"current_range_meters":9600,"station_id":"ce4bgt12rcd13ifvqcd0","pricing_plan_id":"cebpf4jnsgd1na2vs0mg"},{"bike_id":"29daa5fa-a4db-4537-b3fe-0636c8936a67","system_id":"levelo_inurba_marseille","lat":43.30465,"lon":5.37907,"is_reserved":false,"is_disabled":false,"rental_uris":{"android":"levelo://app?vid=29daa5fa-a4db-4537-b3fe-0636c8936a67","ios":"levelo://app?vid=29daa5fa-a4db-4537-b3fe-0636c8936a67"},"vehicle_type_id":"4","last_reported":1770287440,"current_range_meters":9600,"station_id":"ce4bgup2rcd13ifvqcn0","pricing_plan_id":"cebpf4jnsgd1na2vs0mg"},{"bike_id":"0975d85d-a32b-4149-927f-b299925bb597","system_id":"levelo_inurba_marseille","lat":43.29803,"lon":5.39348,"is_reserved":false,"is_disabled":false,"rental_uris":{"android":"levelo://app?vid=0975d85d-a32b-4149-927f-b299925bb597","ios":"levelo://app?vid=0975d85d-a32b-4149-927f-b299925bb597"},"vehicle_type_id":"4","last_reported":1770287440,"current_range_meters":9600,"station_id":"chh1huq6cuj3fo74tm60","pricing_plan_id":"cebpf4jnsgd1na2vs0mg"},{"bike_id":"7d70eb5b-0c68-4c6b-845a-56956d2aa148","system_id":"levelo_inurba_marseille","lat":43.23785,"lon":5.36632,"is_reserved":false,"is_disabled":false,"rental_uris":{"android":"levelo://app?vid=7d70eb5b-0c68-4c6b-845a-56956d2aa148","ios":"levelo://app?vid=7d70eb5b-0c68-4c6b-845a-56956d2aa148"},"vehicle_type_id":"4","last_reported":1770287440,"current_range_meters":9600,"station_id":"st_d3nk18o9ro0c73en2l3g","pricing_plan_id":"cebpf4jnsgd1na2vs0mg"},{"bike_id":"23ea0006-875e-4e02-b7c3-7fd5a4f0b20d","system_id":"levelo_inurba_marseille","lat":43.27374,"lon":5.36261,"is_reserved":false,"is_disabled":false,"rental_uris":{"android":"levelo://app?vid=23ea0006-875e-4e02-b7c3-7fd5a4f0b20d","ios":"levelo://app?vid=23ea0006-875e-4e02-b7c3-7fd5a4f0b20d"},"vehicle_type_id":"4","last_reported":1770287440,"current_range_meters":10000,"station_id":"ce4bhbh2rcd13ifvqeo0","pricing_plan_id":"cebpf4jnsgd1na2vs0mg"},{"bike_id":"4e17e869-f79b-4310-a938-2fca3ea41d08","system_id":"levelo_inurba_marseille","lat":43.28722,"lon":5.37935,"is_reserved":false,"is_disabled":false,"rental_uris":{"android":"levelo://app?vid=4e17e869-f79b-4310-a938-2fca3ea41d08","ios":"levelo://app?vid=4e17e869-f79b-4310-a938-2fca3ea41d08"},"vehicle_type_id":"4","last_reported":1770287440,"current_range_meters":10000,"station_id":"ce4bh9p2rcd13ifvqec0","pricing_plan_id":"cebpf4jnsgd1na2vs0mg"},{"bike_id":"ea0a1780-5e61-4501-9de3-20395ebb94ec","system_id":"levelo_inurba_marseille","lat":43.2483,"lon":5.37457,"is_reserved":false,"is_disabled":false,"rental_uris":{"android":"levelo://app?vid=ea0a1780-5e61-4501-9de3-20395ebb94ec","ios":"levelo://app?vid=ea0a1780-5e61-4501-9de3-20395ebb94ec"},"vehicle_type_id":"4","last_reported":1770287440,"current_range_meters":10000,"station_id":"ce4bhgh2rcd13ifvqfb0","pricing_plan_id":"cebpf4jnsgd1na2vs0mg"},{"bike_id":"1f3ae490-d160-4f45-9396-b7c3677d4b60","system_id":"levelo_inurba_marseille","lat":43.32127,"lon":5.3678,"is_reserved":false,"is_disabled":false,"rental_uris":{"android":"levelo://app?vid=1f3ae490-d160-4f45-9396-b7c3677d4b60","ios":"levelo://app?vid=1f3ae490-d160-4f45-9396-b7c3677d4b60"},"vehicle_type_id":"4","last_reported":1770287440,"current_range_meters":10000,"station_id":"ce4bhrh2rcd13ifvqhug","pricing_plan_id":"cebpf4jnsgd1na2vs0mg"},{"bike_id":"2019aed1-4c5c-46a1-8cfd-39406ce16be5","system_id":"levelo_inurba_marseille","lat":43.32126,"lon":5.41678,"is_reserved":false,"is_disabled":false,"rental_uris":{"android":"levelo://app?vid=2019aed1-4c5c-46a1-8cfd-39406ce16be5","ios":"levelo://app?vid=2019aed1-4c5c-46a1-8cfd-39406ce16be5"},"vehicle_type_id":"4","last_reported":1770287440,"current_range_meters":10000,"station_id":"","pricing_plan_id":"cebpf4jnsgd1na2vs0mg"},{"bike_id":"225d59b0-ea5d-4ba4-8ad7-c418031d9d14","system_id":"levelo_inurba_marseille","lat":43.29847,"lon":5.36273,"is_reserved":false,"is_disabled":false,"rental_uris":{"android":"levelo://app?vid=225d59b0-ea5d-4ba4-8ad7-c418031d9d14","ios":"levelo://app?vid=225d59b0-ea5d-4ba4-8ad7-c418031d9d14"},"vehicle_type_id":"4","last_reported":1770287440,"current_range_meters":10000,"station_id":"ce4bgpp2rcd13ifvqc3g","pricing_plan_id":"cebpf4jnsgd1na2vs0mg"},{"bike_id":"e6960217-3980-48bf-9c37-36816acc575b","system_id":"levelo_inurba_marseille","lat":43.29918,"lon":5.38142,"is_reserved":false,"is_disabled":false,"rental_uris":{"android":"levelo://app?vid=e6960217-3980-48bf-9c37-36816acc575b","ios":"levelo://app?vid=e6960217-3980-48bf-9c37-36816acc575b"},"vehicle_type_id":"4","last_reported":1770287440,"current_range_meters":10000,"station_id":"ce4bgj12rcd13ifvqbc0","pricing_plan_id":"cebpf4jnsgd1na2vs0mg"},{"bike_id":"b8afbf8e-2386-4bad-bc33-00466b826e93","system_id":"levelo_inurba_marseille","lat":43.3094,"lon":5.40134,"is_reserved":false,"is_disabled":false,"rental_uris":{"android":"levelo://app?vid=b8afbf8e-2386-4bad-bc33-00466b826e93","ios":"levelo://app?vid=b8afbf8e-2386-4bad-bc33-00466b826e93"},"vehicle_type_id":"4","last_reported":1770287440,"current_range_meters":10000,"station_id":"ce4bgvp2rcd13ifvqct0","pricing_plan_id":"cebpf4jnsgd1na2vs0mg"},{"bike_id":"50f91c0c-a238-47a5-ba33-1dcb8e0a9877","system_id":"levelo_inurba_marseille","lat":43.30149,"lon":5.37418,"is_reserved":false,"is_disabled":false,"rental_uris":{"android":"levelo://app?vid=50f91c0c-a238-47a5-ba33-1dcb8e0a9877","ios":"levelo://app?vid=50f91c0c-a238-47a5-ba33-1dcb8e0a9877"},"vehicle_type_id":"4","last_reported":1770287440,"current_range_meters":10000,"station_id":"ce4bgs92rcd13ifvqcc0","pricing_plan_id":"cebpf4jnsgd1na2vs0mg"},{"bike_id":"97d8a72a-bde2-43ee-ac90-e71a61804cbc","system_id":"levelo_inurba_marseille","lat":43.24965,"lon":5.40489,"is_reserved":false,"is_disabled":false,"rental_uris":{"android":"levelo://app?vid=97d8a72a-bde2-43ee-ac90-e71a61804cbc","ios":"levelo://app?vid=97d8a72a-bde2-43ee-ac90-e71a61804cbc"},"vehicle_type_id":"4","last_reported":1770287440,"current_range_meters":10000,"station_id":"st_d2ngiaodas8pm72gd1h0","pricing_plan_id":"cebpf4jnsgd1na2vs0mg"},{"bike_id":"16cab38e-402a-484f-9577-66bbec4432a2","system_id":"levelo_inurba_marseille","lat":43.29934,"lon":5.37465,"is_reserved":false,"is_disabled":false,"rental_uris":{"android":"levelo://app?vid=16cab38e-402a-484f-9577-66bbec4432a2","ios":"levelo://app?vid=16cab38e-402a-484f-9577-66bbec4432a2"},"vehicle_type_id":"4","last_reported":1770287440,"current_range_meters":10000,"station_id":"ce4bgjh2rcd13ifvqbg0","pricing_plan_id":"cebpf4jnsgd1na2vs0mg"},{"bike_id":"00d586ec-ba06-4260-aa57-0dd6d10b7c16","system_id":"levelo_inurba_marseille","lat":43.317674,"lon":5.423499,"is_reserved":false,"is_disabled":false,"rental_uris":{"android":"levelo://app?vid=00d586ec-ba06-4260-aa57-0dd6d10b7c16","ios":"levelo://app?vid=00d586ec-ba06-4260-aa57-0dd6d10b7c16"},"vehicle_type_id":"4","last_reported":1770287440,"current_range_meters":10000,"station_id":"ce4bhp92rcd13ifvqhbg","pricing_plan_id":"cebpf4jnsgd1na2vs0mg"},{"bike_id":"3b986d99-7b42-471f-993a-11fde28f3c51","system_id":"levelo_inurba_marseille","lat":43.22571,"lon":5.41621,"is_reserved":false,"is_disabled":false,"rental_uris":{"android":"levelo://app?vid=3b986d99-7b42-471f-993a-11fde28f3c51","ios":"levelo://app?vid=3b986d99-7b42-471f-993a-11fde28f3c51"},"vehicle_type_id":"4","last_reported":1770287440,"current_range_meters":10000,"station_id":"st_d2o4gvlbi1j2169b742g","pricing_plan_id":"cebpf4jnsgd1na2vs0mg"},{"bike_id":"a37b3b16-e0d5-4ccc-8085-52352ddfde57","system_id":"levelo_inurba_marseille","lat":43.26805,"lon":5.39409,"is_reserved":false,"is_disabled":false,"rental_uris":{"android":"levelo://app?vid=a37b3b16-e0d5-4ccc-8085-52352ddfde57","ios":"levelo://app?vid=a37b3b16-e0d5-4ccc-8085-52352ddfde57"},"vehicle_type_id":"4","last_reported":1770287440,"current_range_meters":10000,"station_id":"ce4bhh12rcd13ifvqfg0","pricing_plan_id":"cebpf4jnsgd1na2vs0mg"},{"bike_id":"2ec9313e-d454-47f0-9199-9904693659bc","system_id":"levelo_inurba_marseille","lat":43.273838,"lon":5.36252,"is_reserved":false,"is_disabled":false,"rental_uris":{"android":"levelo://app?vid=2ec9313e-d454-47f0-9199-9904693659bc","ios":"levelo://app?vid=2ec9313e-d454-47f0-9199-9904693659bc"},"vehicle_type_id":"4","last_reported":1770287440,"current_range_meters":10000,"station_id":"ce4bhbh2rcd13ifvqeo0","pricing_plan_id":"cebpf4jnsgd1na2vs0mg"},{"bike_id":"31b7b2c9-2fdb-47c7-ab6d-b279d6f34512","system_id":"levelo_inurba_marseille","lat":43.27205,"lon":5.39172,"is_reserved":false,"is_disabled":false,"rental_uris":{"android":"levelo://app?vid=31b7b2c9-2fdb-47c7-ab6d-b279d6f34512","ios":"levelo://app?vid=31b7b2c9-2fdb-47c7-ab6d-b279d6f34512"},"vehicle_type_id":"4","last_reported":1770287440,"current_range_meters":10000,"station_id":"ce4bhhp2rcd13ifvqfm0","pricing_plan_id":"cebpf4jnsgd1na2vs0mg"},{"bike_id":"ddc87509-ae20-4d3a-aba3-5f2d7c91e914","system_id":"levelo_inurba_marseille","lat":43.23158,"lon":5.43718,"is_reserved":false,"is_disabled":false,"rental_uris":{"android":"levelo://app?vid=ddc87509-ae20-4d3a-aba3-5f2d7c91e914","ios":"levelo://app?vid=ddc87509-ae20-4d3a-aba3-5f2d7c91e914"},"vehicle_type_id":"4","last_reported":1770287440,"current_range_meters":10000,"station_id":"ce4bhmp2rcd13ifvqgog","pricing_plan_id":"cebpf4jnsgd1na2vs0mg"},{"bike_id":"29568cb5-48e1-4afd-96a8-69d8393592fe","system_id":"levelo_inurba_marseille","lat":43.284835,"lon":5.483916,"is_reserved":false,"is_disabled":false,"rental_uris":{"android":"levelo://app?vid=29568cb5-48e1-4afd-96a8-69d8393592fe","ios":"levelo://app?vid=29568cb5-48e1-4afd-96a8-69d8393592fe"},"vehicle_type_id":"4","last_reported":1770287440,"current_range_meters":10000,"station_id":"","pricing_plan_id":"cebpf4jnsgd1na2vs0mg"},{"bike_id":"e0c6a05b-eb02-486c-b185-09b703cc70a3","system_id":"levelo_inurba_marseille","lat":43.28256,"lon":5.40603,"is_reserved":false,"is_disabled":false,"rental_uris":{"android":"levelo://app?vid=e0c6a05b-eb02-486c-b185-09b703cc70a3","ios":"levelo://app?vid=e0c6a05b-eb02-486c-b185-09b703cc70a3"},"vehicle_type_id":"4","last_reported":1770287440,"current_range_meters":10000,"station_id":"","pricing_plan_id":"cebpf4jnsgd1na2vs0mg"},{"bike_id":"744797c6-4cca-4578-8686-da7701b97605","system_id":"levelo_inurba_marseille","lat":43.2905,"lon":5.39972,"is_reserved":false,"is_disabled":false,"rental_uris":{"android":"levelo://app?vid=744797c6-4cca-4578-8686-da7701b97605","ios":"levelo://app?vid=744797c6-4cca-4578-8686-da7701b97605"},"vehicle_type_id":"4","last_reported":1770287440,"current_range_meters":10800,"station_id":"ce4bh392rcd13ifvqdm0","pricing_plan_id":"cebpf4jnsgd1na2vs0mg"},{"bike_id":"f2251f8f-476c-490a-a2da-0d724c30184f","system_id":"levelo_inurba_marseille","lat":43.312313,"lon":5.368585,"is_reserved":false,"is_disabled":false,"rental_uris":{"android":"levelo://app?vid=f2251f8f-476c-490a-a2da-0d724c30184f","ios":"levelo://app?vid=f2251f8f-476c-490a-a2da-0d724c30184f"},"vehicle_type_id":"4","last_reported":1770287440,"current_range_meters":10800,"station_id":"ce4bgl92rcd13ifvqbq0","pricing_plan_id":"cebpf4jnsgd1na2vs0mg"},{"bike_id":"69c3a4fd-6abf-495d-aca1-26b778e6bd90","system_id":"levelo_inurba_marseille","lat":43.30142,"lon":5.37412,"is_reserved":false,"is_disabled":false,"rental_uris":{"android":"levelo://app?vid=69c3a4fd-6abf-495d-aca1-26b778e6bd90","ios":"levelo://app?vid=69c3a4fd-6abf-495d-aca1-26b778e6bd90"},"vehicle_type_id":"4","last_reported":1770287440,"current_range_meters":10800,"station_id":"ce4bgs92rcd13ifvqcc0","pricing_plan_id":"cebpf4jnsgd1na2vs0mg"},{"bike_id":"2b0a9e51-e647-4d4f-ac21-0093bc1d63da","system_id":"levelo_inurba_marseille","lat":43.297887,"lon":5.380991,"is_reserved":false,"is_disabled":false,"rental_uris":{"android":"levelo://app?vid=2b0a9e51-e647-4d4f-ac21-0093bc1d63da","ios":"levelo://app?vid=2b0a9e51-e647-4d4f-ac21-0093bc1d63da"},"vehicle_type_id":"4","last_reported":1770287440,"current_range_meters":10800,"station_id":"ce4bgip2rcd13ifvqbb0","pricing_plan_id":"cebpf4jnsgd1na2vs0mg"},{"bike_id":"f3834ac4-f29d-462b-a6a0-5d9b78d2ba71","system_id":"levelo_inurba_marseille","lat":43.27559,"lon":5.38437,"is_reserved":false,"is_disabled":false,"rental_uris":{"android":"levelo://app?vid=f3834ac4-f29d-462b-a6a0-5d9b78d2ba71","ios":"levelo://app?vid=f3834ac4-f29d-462b-a6a0-5d9b78d2ba71"},"vehicle_type_id":"4","last_reported":1770287440,"current_range_meters":10800,"station_id":"ce4bhh92rcd13ifvqfi0","pricing_plan_id":"cebpf4jnsgd1na2vs0mg"},{"bike_id":"7ce3271c-9e28-4d5e-b3b1-77311e5df5d7","system_id":"levelo_inurba_marseille","lat":43.31488,"lon":5.38089,"is_reserved":false,"is_disabled":false,"rental_uris":{"android":"levelo://app?vid=7ce3271c-9e28-4d5e-b3b1-77311e5df5d7","ios":"levelo://app?vid=7ce3271c-9e28-4d5e-b3b1-77311e5df5d7"},"vehicle_type_id":"4","last_reported":1770287440,"current_range_meters":10800,"station_id":"","pricing_plan_id":"cebpf4jnsgd1na2vs0mg"},{"bike_id":"38977987-51c2-4d0b-83a6-9522a0190598","system_id":"levelo_inurba_marseille","lat":43.289391,"lon":5.396532,"is_reserved":false,"is_disabled":false,"rental_uris":{"android":"levelo://app?vid=38977987-51c2-4d0b-83a6-9522a0190598","ios":"levelo://app?vid=38977987-51c2-4d0b-83a6-9522a0190598"},"vehicle_type_id":"4","last_reported":1770287440,"current_range_meters":10800,"station_id":"ce4bh3h2rcd13ifvqdn0","pricing_plan_id":"cebpf4jnsgd1na2vs0mg"},{"bike_id":"ea394ce4-561e-40c3-b5d8-13958e8a40d6","system_id":"levelo_inurba_marseille","lat":43.23195,"lon":5.35554,"is_reserved":false,"is_disabled":false,"rental_uris":{"android":"levelo://app?vid=ea394ce4-561e-40c3-b5d8-13958e8a40d6","ios":"levelo://app?vid=ea394ce4-561e-40c3-b5d8-13958e8a40d6"},"vehicle_type_id":"4","last_reported":1770287440,"current_range_meters":10800,"station_id":"ce4bhu92rcd13ifvqi70","pricing_plan_id":"cebpf4jnsgd1na2vs0mg"},{"bike_id":"50518e60-d55c-4763-a8b3-4e96d7b90221","system_id":"levelo_inurba_marseille","lat":43.31084,"lon":5.37161,"is_reserved":false,"is_disabled":false,"rental_uris":{"android":"levelo://app?vid=50518e60-d55c-4763-a8b3-4e96d7b90221","ios":"levelo://app?vid=50518e60-d55c-4763-a8b3-4e96d7b90221"},"vehicle_type_id":"4","last_reported":1770287440,"current_range_meters":10800,"station_id":"st_d4kl2rp97mjs73e7tdfg","pricing_plan_id":"cebpf4jnsgd1na2vs0mg"},{"bike_id":"b8930ff7-8ce5-4f8d-9e8d-e85cd2415d7d","system_id":"levelo_inurba_marseille","lat":43.31344,"lon":5.36735,"is_reserved":false,"is_disabled":false,"rental_uris":{"android":"levelo://app?vid=b8930ff7-8ce5-4f8d-9e8d-e85cd2415d7d","ios":"levelo://app?vid=b8930ff7-8ce5-4f8d-9e8d-e85cd2415d7d"},"vehicle_type_id":"4","last_reported":1770287440,"current_range_meters":10800,"station_id":"ce4bgr92rcd13ifvqc6g","pricing_plan_id":"cebpf4jnsgd1na2vs0mg"},{"bike_id":"4d4726cf-0b07-4c10-9c3e-35ee05b69ed7","system_id":"levelo_inurba_marseille","lat":43.30782,"lon":5.37413,"is_reserved":false,"is_disabled":true,"rental_uris":{"android":"levelo://app?vid=4d4726cf-0b07-4c10-9c3e-35ee05b69ed7","ios":"levelo://app?vid=4d4726cf-0b07-4c10-9c3e-35ee05b69ed7"},"vehicle_type_id":"4","last_reported":1770287440,"current_range_meters":10800,"station_id":"","pricing_plan_id":"cebpf4jnsgd1na2vs0mg"},{"bike_id":"07236d39-4234-4a66-b75f-4404b97effcf","system_id":"levelo_inurba_marseille","lat":43.23793,"lon":5.36629,"is_reserved":false,"is_disabled":false,"rental_uris":{"android":"levelo://app?vid=07236d39-4234-4a66-b75f-4404b97effcf","ios":"levelo://app?vid=07236d39-4234-4a66-b75f-4404b97effcf"},"vehicle_type_id":"4","last_reported":1770287440,"current_range_meters":10800,"station_id":"st_d3nk18o9ro0c73en2l3g","pricing_plan_id":"cebpf4jnsgd1na2vs0mg"},{"bike_id":"63b5e7ff-784a-44cb-b53d-dd43a84f5930","system_id":"levelo_inurba_marseille","lat":43.24163,"lon":5.36379,"is_reserved":false,"is_disabled":false,"rental_uris":{"android":"levelo://app?vid=63b5e7ff-784a-44cb-b53d-dd43a84f5930","ios":"levelo://app?vid=63b5e7ff-784a-44cb-b53d-dd43a84f5930"},"vehicle_type_id":"4","last_reported":1770287440,"current_range_meters":10800,"station_id":"cpo36qri1sfpv3e86is0","pricing_plan_id":"cebpf4jnsgd1na2vs0mg"},{"bike_id":"271ec86a-a143-42ed-8987-0ae75537ef92","system_id":"levelo_inurba_marseille","lat":43.24089,"lon":5.37778,"is_reserved":false,"is_disabled":false,"rental_uris":{"android":"levelo://app?vid=271ec86a-a143-42ed-8987-0ae75537ef92","ios":"levelo://app?vid=271ec86a-a143-42ed-8987-0ae75537ef92"},"vehicle_type_id":"4","last_reported":1770287440,"current_range_meters":10800,"station_id":"ce4bhnp2rcd13ifvqgvg","pricing_plan_id":"cebpf4jnsgd1na2vs0mg"},{"bike_id":"1937492d-117f-487c-8c08-5e82e3f3720b","system_id":"levelo_inurba_marseille","lat":43.31344,"lon":5.36702,"is_reserved":false,"is_disabled":false,"rental_uris":{"android":"levelo://app?vid=1937492d-117f-487c-8c08-5e82e3f3720b","ios":"levelo://app?vid=1937492d-117f-487c-8c08-5e82e3f3720b"},"vehicle_type_id":"4","last_reported":1770287440,"current_range_meters":10800,"station_id":"ce4bgr92rcd13ifvqc6g","pricing_plan_id":"cebpf4jnsgd1na2vs0mg"},{"bike_id":"b3ed2cd6-8e81-4348-923e-b3375b5b0d86","system_id":"levelo_inurba_marseille","lat":43.265118,"lon":5.395476,"is_reserved":false,"is_disabled":false,"rental_uris":{"android":"levelo://app?vid=b3ed2cd6-8e81-4348-923e-b3375b5b0d86","ios":"levelo://app?vid=b3ed2cd6-8e81-4348-923e-b3375b5b0d86"},"vehicle_type_id":"4","last_reported":1770287440,"current_range_meters":10800,"station_id":"ce4bhi12rcd13ifvqfq0","pricing_plan_id":"cebpf4jnsgd1na2vs0mg"},{"bike_id":"33e6b01d-cadc-4668-ba29-d6b917e280b4","system_id":"levelo_inurba_marseille","lat":43.24397,"lon":5.37074,"is_reserved":false,"is_disabled":false,"rental_uris":{"android":"levelo://app?vid=33e6b01d-cadc-4668-ba29-d6b917e280b4","ios":"levelo://app?vid=33e6b01d-cadc-4668-ba29-d6b917e280b4"},"vehicle_type_id":"4","last_reported":1770287440,"current_range_meters":10800,"station_id":"ce4bhhh2rcd13ifvqfk0","pricing_plan_id":"cebpf4jnsgd1na2vs0mg"},{"bike_id":"ac54ba30-7996-480b-b187-8af827d5974d","system_id":"levelo_inurba_marseille","lat":43.30156,"lon":5.37387,"is_reserved":false,"is_disabled":false,"rental_uris":{"android":"levelo://app?vid=ac54ba30-7996-480b-b187-8af827d5974d","ios":"levelo://app?vid=ac54ba30-7996-480b-b187-8af827d5974d"},"vehicle_type_id":"4","last_reported":1770287440,"current_range_meters":10800,"station_id":"ce4bgs92rcd13ifvqcc0","pricing_plan_id":"cebpf4jnsgd1na2vs0mg"},{"bike_id":"47c1b1f0-a905-4644-ad1e-723d7039b139","system_id":"levelo_inurba_marseille","lat":43.27317,"lon":5.39075,"is_reserved":false,"is_disabled":false,"rental_uris":{"android":"levelo://app?vid=47c1b1f0-a905-4644-ad1e-723d7039b139","ios":"levelo://app?vid=47c1b1f0-a905-4644-ad1e-723d7039b139"},"vehicle_type_id":"4","last_reported":1770287440,"current_range_meters":10800,"station_id":"ce4bhgp2rcd13ifvqfe0","pricing_plan_id":"cebpf4jnsgd1na2vs0mg"},{"bike_id":"0ff7d1fc-c942-4e04-bb24-6b30b880d197","system_id":"levelo_inurba_marseille","lat":43.315478,"lon":5.368934,"is_reserved":false,"is_disabled":false,"rental_uris":{"android":"levelo://app?vid=0ff7d1fc-c942-4e04-bb24-6b30b880d197","ios":"levelo://app?vid=0ff7d1fc-c942-4e04-bb24-6b30b880d197"},"vehicle_type_id":"4","last_reported":1770287440,"current_range_meters":10800,"station_id":"","pricing_plan_id":"cebpf4jnsgd1na2vs0mg"},{"bike_id":"97324a02-391d-4e3e-ab3e-de6f1bdf9688","system_id":"levelo_inurba_marseille","lat":43.26674,"lon":5.38259,"is_reserved":false,"is_disabled":false,"rental_uris":{"android":"levelo://app?vid=97324a02-391d-4e3e-ab3e-de6f1bdf9688","ios":"levelo://app?vid=97324a02-391d-4e3e-ab3e-de6f1bdf9688"},"vehicle_type_id":"4","last_reported":1770287440,"current_range_meters":11200,"station_id":"ce4bhg92rcd13ifvqf90","pricing_plan_id":"cebpf4jnsgd1na2vs0mg"},{"bike_id":"f6317564-eebe-4718-b43d-ebfc04d1cd80","system_id":"levelo_inurba_marseille","lat":43.30328,"lon":5.36896,"is_reserved":false,"is_disabled":false,"rental_uris":{"android":"levelo://app?vid=f6317564-eebe-4718-b43d-ebfc04d1cd80","ios":"levelo://app?vid=f6317564-eebe-4718-b43d-ebfc04d1cd80"},"vehicle_type_id":"4","last_reported":1770287440,"current_range_meters":11200,"station_id":"ce4bgqh2rcd13ifvqc5g","pricing_plan_id":"cebpf4jnsgd1na2vs0mg"},{"bike_id":"5f7a67bd-bf9a-45ef-8a56-0735dcc8358e","system_id":"levelo_inurba_marseille","lat":43.292023,"lon":5.393324,"is_reserved":false,"is_disabled":false,"rental_uris":{"android":"levelo://app?vid=5f7a67bd-bf9a-45ef-8a56-0735dcc8358e","ios":"levelo://app?vid=5f7a67bd-bf9a-45ef-8a56-0735dcc8358e"},"vehicle_type_id":"4","last_reported":1770287440,"current_range_meters":11200,"station_id":"ce4bghh2rcd13ifvqb60","pricing_plan_id":"cebpf4jnsgd1na2vs0mg"},{"bike_id":"b62bd3bf-3a8f-4a59-b001-afd3a67d5841","system_id":"levelo_inurba_marseille","lat":43.26227,"lon":5.40511,"is_reserved":false,"is_disabled":false,"rental_uris":{"android":"levelo://app?vid=b62bd3bf-3a8f-4a59-b001-afd3a67d5841","ios":"levelo://app?vid=b62bd3bf-3a8f-4a59-b001-afd3a67d5841"},"vehicle_type_id":"4","last_reported":1770287440,"current_range_meters":11200,"station_id":"","pricing_plan_id":"cebpf4jnsgd1na2vs0mg"},{"bike_id":"fde1a22c-1ef0-4f76-9efa-3838632a8694","system_id":"levelo_inurba_marseille","lat":43.27554,"lon":5.38445,"is_reserved":false,"is_disabled":false,"rental_uris":{"android":"levelo://app?vid=fde1a22c-1ef0-4f76-9efa-3838632a8694","ios":"levelo://app?vid=fde1a22c-1ef0-4f76-9efa-3838632a8694"},"vehicle_type_id":"4","last_reported":1770287440,"current_range_meters":11200,"station_id":"ce4bhh92rcd13ifvqfi0","pricing_plan_id":"cebpf4jnsgd1na2vs0mg"},{"bike_id":"06022918-bad5-4875-92db-f13638955eb6","system_id":"levelo_inurba_marseille","lat":43.31491,"lon":5.37289,"is_reserved":false,"is_disabled":false,"rental_uris":{"android":"levelo://app?vid=06022918-bad5-4875-92db-f13638955eb6","ios":"levelo://app?vid=06022918-bad5-4875-92db-f13638955eb6"},"vehicle_type_id":"4","last_reported":1770287440,"current_range_meters":11200,"station_id":"ce4bgt12rcd13ifvqcd0","pricing_plan_id":"cebpf4jnsgd1na2vs0mg"},{"bike_id":"98b89a63-b3c9-4748-8f93-0ccb5ab9560d","system_id":"levelo_inurba_marseille","lat":43.26553,"lon":5.37328,"is_reserved":false,"is_disabled":false,"rental_uris":{"android":"levelo://app?vid=98b89a63-b3c9-4748-8f93-0ccb5ab9560d","ios":"levelo://app?vid=98b89a63-b3c9-4748-8f93-0ccb5ab9560d"},"vehicle_type_id":"4","last_reported":1770287440,"current_range_meters":11200,"station_id":"ce4bhg12rcd13ifvqf70","pricing_plan_id":"cebpf4jnsgd1na2vs0mg"},{"bike_id":"88de999f-78fd-498c-86b8-c0b83e9a1087","system_id":"levelo_inurba_marseille","lat":43.25933,"lon":5.40879,"is_reserved":false,"is_disabled":false,"rental_uris":{"android":"levelo://app?vid=88de999f-78fd-498c-86b8-c0b83e9a1087","ios":"levelo://app?vid=88de999f-78fd-498c-86b8-c0b83e9a1087"},"vehicle_type_id":"4","last_reported":1770287440,"current_range_meters":11200,"station_id":"ce4bhm92rcd13ifvqglg","pricing_plan_id":"cebpf4jnsgd1na2vs0mg"},{"bike_id":"e6f11cd6-3531-4096-9079-debdff2f85fd","system_id":"levelo_inurba_marseille","lat":43.22941,"lon":5.35411,"is_reserved":false,"is_disabled":false,"rental_uris":{"android":"levelo://app?vid=e6f11cd6-3531-4096-9079-debdff2f85fd","ios":"levelo://app?vid=e6f11cd6-3531-4096-9079-debdff2f85fd"},"vehicle_type_id":"4","last_reported":1770287440,"current_range_meters":11200,"station_id":"cpo3532slgdg3j2ikp40","pricing_plan_id":"cebpf4jnsgd1na2vs0mg"},{"bike_id":"40479d4d-2262-4fca-b41e-5c786f3816c7","system_id":"levelo_inurba_marseille","lat":43.246576,"lon":5.381619,"is_reserved":false,"is_disabled":false,"rental_uris":{"android":"levelo://app?vid=40479d4d-2262-4fca-b41e-5c786f3816c7","ios":"levelo://app?vid=40479d4d-2262-4fca-b41e-5c786f3816c7"},"vehicle_type_id":"4","last_reported":1770287440,"current_range_meters":11600,"station_id":"ce4bhih2rcd13ifvqfr0","pricing_plan_id":"cebpf4jnsgd1na2vs0mg"},{"bike_id":"357e0761-0001-4df4-9647-5ddac10b57dd","system_id":"levelo_inurba_marseille","lat":43.32486,"lon":5.38235,"is_reserved":false,"is_disabled":false,"rental_uris":{"android":"levelo://app?vid=357e0761-0001-4df4-9647-5ddac10b57dd","ios":"levelo://app?vid=357e0761-0001-4df4-9647-5ddac10b57dd"},"vehicle_type_id":"4","last_reported":1770287440,"current_range_meters":11600,"station_id":"","pricing_plan_id":"cebpf4jnsgd1na2vs0mg"},{"bike_id":"bf81460b-78ad-4a32-91dd-3b0631f2a86a","system_id":"levelo_inurba_marseille","lat":43.27377,"lon":5.36261,"is_reserved":false,"is_disabled":false,"rental_uris":{"android":"levelo://app?vid=bf81460b-78ad-4a32-91dd-3b0631f2a86a","ios":"levelo://app?vid=bf81460b-78ad-4a32-91dd-3b0631f2a86a"},"vehicle_type_id":"4","last_reported":1770287440,"current_range_meters":11600,"station_id":"ce4bhbh2rcd13ifvqeo0","pricing_plan_id":"cebpf4jnsgd1na2vs0mg"},{"bike_id":"e6269944-5419-475a-a5df-64103c5dd5dd","system_id":"levelo_inurba_marseille","lat":43.29897,"lon":5.43668,"is_reserved":false,"is_disabled":false,"rental_uris":{"android":"levelo://app?vid=e6269944-5419-475a-a5df-64103c5dd5dd","ios":"levelo://app?vid=e6269944-5419-475a-a5df-64103c5dd5dd"},"vehicle_type_id":"4","last_reported":1770287440,"current_range_meters":11600,"station_id":"ce4bhpp2rcd13ifvqhfg","pricing_plan_id":"cebpf4jnsgd1na2vs0mg"},{"bike_id":"2ad4ec75-8d7a-4063-a959-81bfd96911a3","system_id":"levelo_inurba_marseille","lat":43.31489,"lon":5.37297,"is_reserved":false,"is_disabled":false,"rental_uris":{"android":"levelo://app?vid=2ad4ec75-8d7a-4063-a959-81bfd96911a3","ios":"levelo://app?vid=2ad4ec75-8d7a-4063-a959-81bfd96911a3"},"vehicle_type_id":"4","last_reported":1770287440,"current_range_meters":11600,"station_id":"ce4bgt12rcd13ifvqcd0","pricing_plan_id":"cebpf4jnsgd1na2vs0mg"},{"bike_id":"abad6f97-3bd4-4b32-b70f-39a0415cb500","system_id":"levelo_inurba_marseille","lat":43.26374,"lon":5.41077,"is_reserved":false,"is_disabled":false,"rental_uris":{"android":"levelo://app?vid=abad6f97-3bd4-4b32-b70f-39a0415cb500","ios":"levelo://app?vid=abad6f97-3bd4-4b32-b70f-39a0415cb500"},"vehicle_type_id":"4","last_reported":1770287440,"current_range_meters":11600,"station_id":"st_d4e5ca6na9uc73bfl5fg","pricing_plan_id":"cebpf4jnsgd1na2vs0mg"},{"bike_id":"2b358923-c030-4481-a0eb-830aa62ff249","system_id":"levelo_inurba_marseille","lat":43.27383,"lon":5.36257,"is_reserved":false,"is_disabled":false,"rental_uris":{"android":"levelo://app?vid=2b358923-c030-4481-a0eb-830aa62ff249","ios":"levelo://app?vid=2b358923-c030-4481-a0eb-830aa62ff249"},"vehicle_type_id":"4","last_reported":1770287440,"current_range_meters":11600,"station_id":"ce4bhbh2rcd13ifvqeo0","pricing_plan_id":"cebpf4jnsgd1na2vs0mg"},{"bike_id":"346787f4-b208-43b3-a13c-6d535139ef57","system_id":"levelo_inurba_marseille","lat":43.29906,"lon":5.43665,"is_reserved":false,"is_disabled":false,"rental_uris":{"android":"levelo://app?vid=346787f4-b208-43b3-a13c-6d535139ef57","ios":"levelo://app?vid=346787f4-b208-43b3-a13c-6d535139ef57"},"vehicle_type_id":"4","last_reported":1770287440,"current_range_meters":12000,"station_id":"ce4bhpp2rcd13ifvqhfg","pricing_plan_id":"cebpf4jnsgd1na2vs0mg"},{"bike_id":"e5d42ba6-752f-42c8-b185-5c572041d7b2","system_id":"levelo_inurba_marseille","lat":43.29164,"lon":5.37148,"is_reserved":false,"is_disabled":false,"rental_uris":{"android":"levelo://app?vid=e5d42ba6-752f-42c8-b185-5c572041d7b2","ios":"levelo://app?vid=e5d42ba6-752f-42c8-b185-5c572041d7b2"},"vehicle_type_id":"4","last_reported":1770287440,"current_range_meters":12000,"station_id":"ce4bha92rcd13ifvqeh0","pricing_plan_id":"cebpf4jnsgd1na2vs0mg"},{"bike_id":"82419a31-1f4e-4074-8713-7498e3076273","system_id":"levelo_inurba_marseille","lat":43.27205,"lon":5.39211,"is_reserved":false,"is_disabled":false,"rental_uris":{"android":"levelo://app?vid=82419a31-1f4e-4074-8713-7498e3076273","ios":"levelo://app?vid=82419a31-1f4e-4074-8713-7498e3076273"},"vehicle_type_id":"4","last_reported":1770287440,"current_range_meters":12000,"station_id":"ce4bhhp2rcd13ifvqfm0","pricing_plan_id":"cebpf4jnsgd1na2vs0mg"},{"bike_id":"2922a1cb-cbaf-4d33-8f49-0acc857a2d70","system_id":"levelo_inurba_marseille","lat":43.26683,"lon":5.38264,"is_reserved":false,"is_disabled":false,"rental_uris":{"android":"levelo://app?vid=2922a1cb-cbaf-4d33-8f49-0acc857a2d70","ios":"levelo://app?vid=2922a1cb-cbaf-4d33-8f49-0acc857a2d70"},"vehicle_type_id":"4","last_reported":1770287440,"current_range_meters":12000,"station_id":"ce4bhg92rcd13ifvqf90","pricing_plan_id":"cebpf4jnsgd1na2vs0mg"},{"bike_id":"2036c51b-a7bc-43d0-8480-66517b20ff87","system_id":"levelo_inurba_marseille","lat":43.26227,"lon":5.40441,"is_reserved":false,"is_disabled":false,"rental_uris":{"android":"levelo://app?vid=2036c51b-a7bc-43d0-8480-66517b20ff87","ios":"levelo://app?vid=2036c51b-a7bc-43d0-8480-66517b20ff87"},"vehicle_type_id":"4","last_reported":1770287440,"current_range_meters":12000,"station_id":"ce4bhmh2rcd13ifvqgmg","pricing_plan_id":"cebpf4jnsgd1na2vs0mg"},{"bike_id":"9f3c46af-a58f-47c4-b7da-6bb0a52cbbea","system_id":"levelo_inurba_marseille","lat":43.31055,"lon":5.37142,"is_reserved":false,"is_disabled":false,"rental_uris":{"android":"levelo://app?vid=9f3c46af-a58f-47c4-b7da-6bb0a52cbbea","ios":"levelo://app?vid=9f3c46af-a58f-47c4-b7da-6bb0a52cbbea"},"vehicle_type_id":"4","last_reported":1770287440,"current_range_meters":12000,"station_id":"st_d4kl2rp97mjs73e7tdfg","pricing_plan_id":"cebpf4jnsgd1na2vs0mg"},{"bike_id":"8018bfcd-8623-4252-9771-08b802ae9561","system_id":"levelo_inurba_marseille","lat":43.29598,"lon":5.37144,"is_reserved":false,"is_disabled":false,"rental_uris":{"android":"levelo://app?vid=8018bfcd-8623-4252-9771-08b802ae9561","ios":"levelo://app?vid=8018bfcd-8623-4252-9771-08b802ae9561"},"vehicle_type_id":"4","last_reported":1770287440,"current_range_meters":12000,"station_id":"ce4bgnh2rcd13ifvqc0g","pricing_plan_id":"cebpf4jnsgd1na2vs0mg"},{"bike_id":"90e59ac1-cd46-446b-b3a8-2b22481380d2","system_id":"levelo_inurba_marseille","lat":43.30887,"lon":5.37193,"is_reserved":false,"is_disabled":false,"rental_uris":{"android":"levelo://app?vid=90e59ac1-cd46-446b-b3a8-2b22481380d2","ios":"levelo://app?vid=90e59ac1-cd46-446b-b3a8-2b22481380d2"},"vehicle_type_id":"4","last_reported":1770287440,"current_range_meters":12000,"station_id":"ce4bguh2rcd13ifvqckg","pricing_plan_id":"cebpf4jnsgd1na2vs0mg"},{"bike_id":"3c1b7d1a-686f-4cb1-9e76-3bad7174c095","system_id":"levelo_inurba_marseille","lat":43.2986,"lon":5.36272,"is_reserved":false,"is_disabled":false,"rental_uris":{"android":"levelo://app?vid=3c1b7d1a-686f-4cb1-9e76-3bad7174c095","ios":"levelo://app?vid=3c1b7d1a-686f-4cb1-9e76-3bad7174c095"},"vehicle_type_id":"4","last_reported":1770287440,"current_range_meters":12000,"station_id":"ce4bgpp2rcd13ifvqc3g","pricing_plan_id":"cebpf4jnsgd1na2vs0mg"},{"bike_id":"06762acc-3ae8-4781-8a9f-1beaadfde8c5","system_id":"levelo_inurba_marseille","lat":43.30157,"lon":5.38078,"is_reserved":false,"is_disabled":false,"rental_uris":{"android":"levelo://app?vid=06762acc-3ae8-4781-8a9f-1beaadfde8c5","ios":"levelo://app?vid=06762acc-3ae8-4781-8a9f-1beaadfde8c5"},"vehicle_type_id":"4","last_reported":1770287440,"current_range_meters":12000,"station_id":"ce4bgjp2rcd13ifvqbh0","pricing_plan_id":"cebpf4jnsgd1na2vs0mg"},{"bike_id":"36af6b9c-3b6f-432b-8541-51b5e2f4a92f","system_id":"levelo_inurba_marseille","lat":43.25008,"lon":5.38911,"is_reserved":false,"is_disabled":false,"rental_uris":{"android":"levelo://app?vid=36af6b9c-3b6f-432b-8541-51b5e2f4a92f","ios":"levelo://app?vid=36af6b9c-3b6f-432b-8541-51b5e2f4a92f"},"vehicle_type_id":"4","last_reported":1770287440,"current_range_meters":12000,"station_id":"ce4bhgp2rcd13ifvqfd0","pricing_plan_id":"cebpf4jnsgd1na2vs0mg"},{"bike_id":"ff0ac499-46e1-4327-82ca-bb07c0316d35","system_id":"levelo_inurba_marseille","lat":43.24177,"lon":5.36395,"is_reserved":false,"is_disabled":false,"rental_uris":{"android":"levelo://app?vid=ff0ac499-46e1-4327-82ca-bb07c0316d35","ios":"levelo://app?vid=ff0ac499-46e1-4327-82ca-bb07c0316d35"},"vehicle_type_id":"4","last_reported":1770287440,"current_range_meters":12000,"station_id":"cpo36qri1sfpv3e86is0","pricing_plan_id":"cebpf4jnsgd1na2vs0mg"},