{"last_updated":1726467227,"ttl":30,"version":"2.2","data":{"bikes":[{"bike_id":"d58f3b34-cde5-44ff-86c6-a17c17dc7696","system_id":"levelo_inurba_marseille","lat":43.30467,"lon":5.37901,"is_reserved":false,"is_disabled":false,"rental_uris":{"android":"levelo://app?vid=d58f3b34-cde5-44ff-86c6-a17c17dc7696","ios":"levelo://app?vid=d58f3b34-cde5-44ff-86c6-a17c17dc7696"},"vehicle_type_id":"4","last_reported":1726467227,"current_range_meters":36000,"station_id":"ce4bgup2rcd13ifvqcn0","pricing_plan_id":"cebpf4jnsgd1na2vs0mg"},{"bike_id":"077bfdea-f50e-4ba4-9844-d90ab0d363b1","system_id":"levelo_inurba_marseille","lat":43.29042,"lon":5.39964,"is_reserved":false,"is_disabled":false,"rental_uris":{"android":"levelo://app?vid=077bfdea-f50e-4ba4-9844-d90ab0d363b1","ios":"levelo://app?vid=077bfdea-f50e-4ba4-9844-d90ab0d363b1"},"vehicle_type_id":"4","last_reported":1726467227,"current_range_meters":35200,"station_id":"ce4bh392rcd13ifvqdm0","pricing_plan_id":"cebpf4jnsgd1na2vs0mg"},{"bike_id":"d851b2c9-ad76-4c91-8b78-abb7f1e67f53","system_id":"levelo_inurba_marseille","lat":43.28563,"lon":5.39498,"is_reserved":false,"is_disabled":false,"rental_uris":{"android":"levelo://app?vid=d851b2c9-ad76-4c91-8b78-abb7f1e67f53","ios":"levelo://app?vid=d851b2c9-ad76-4c91-8b78-abb7f1e67f53"},"vehicle_type_id":"4","last_reported":1726467227,"current_range_meters":38800,"station_id":"ce4bh292rcd13ifvqdg0","pricing_plan_id":"cebpf4jnsgd1na2vs0mg"},{"bike_id":"23a85296-0e05-465d-8c60-2533b332185a","system_id":"levelo_inurba_marseille","lat":43.28727,"lon":5.37937,"is_reserved":false,"is_disabled":false,"rental_uris":{"android":"levelo://app?vid=23a85296-0e05-465d-8c60-2533b332185a","ios":"levelo://app?vid=23a85296-0e05-465d-8c60-2533b332185a"},"vehicle_type_id":"4","last_reported":1726467227,"current_range_meters":39200,"station_id":"ce4bh9p2rcd13ifvqec0","pricing_plan_id":"cebpf4jnsgd1na2vs0mg"},{"bike_id":"48a82de2-7872-40cb-b1bf-43e70b76834b","system_id":"levelo_inurba_marseille","lat":43.31294,"lon":5.37812,"is_reserved":false,"is_disabled":false,"rental_uris":{"android":"levelo://app?vid=48a82de2-7872-40cb-b1bf-43e70b76834b","ios":"levelo://app?vid=48a82de2-7872-40cb-b1bf-43e70b76834b"},"vehicle_type_id":"4","last_reported":1726467227,"current_range_meters":30400,"station_id":"","pricing_plan_id":"cebpf4jnsgd1na2vs0mg"},{"bike_id":"e0369998-adfb-44f5-89f4-a8e4ab56cff1","system_id":"levelo_inurba_marseille","lat":43.31717,"lon":5.42398,"is_reserved":false,"is_disabled":false,"rental_uris":{"android":"levelo://app?vid=e0369998-adfb-44f5-89f4-a8e4ab56cff1","ios":"levelo://app?vid=e0369998-adfb-44f5-89f4-a8e4ab56cff1"},"vehicle_type_id":"4","last_reported":1726467227,"current_range_meters":6000,"station_id":"ce4bhp92rcd13ifvqhbg","pricing_plan_id":"cebpf4jnsgd1na2vs0mg"},{"bike_id":"dbcac64b-23d5-4ed1-b3a2-1ac46e6ecbc2","system_id":"levelo_inurba_marseille","lat":43.304675,"lon":5.379205,"is_reserved":false,"is_disabled":false,"rental_uris":{"android":"levelo://app?vid=dbcac64b-23d5-4ed1-b3a2-1ac46e6ecbc2","ios":"levelo://app?vid=dbcac64b-23d5-4ed1-b3a2-1ac46e6ecbc2"},"vehicle_type_id":"4","last_reported":1726467227,"current_range_meters":38400,"station_id":"ce4bgup2rcd13ifvqcn0","pricing_plan_id":"cebpf4jnsgd1na2vs0mg"},{"bike_id":"bc006dae-0e0d-4007-85bc-357a5d55dd6b","system_id":"levelo_inurba_marseille","lat":43.2718,"lon":5.40988,"is_reserved":false,"is_disabled":false,"rental_uris":{"android":"levelo://app?vid=bc006dae-0e0d-4007-85bc-357a5d55dd6b","ios":"levelo://app?vid=bc006dae-0e0d-4007-85bc-357a5d55dd6b"},"vehicle_type_id":"4","last_reported":1726467227,"current_range_meters":38800,"station_id":"ce4bhl12rcd13ifvqgf0","pricing_plan_id":"cebpf4jnsgd1na2vs0mg"},{"bike_id":"8661cdbd-539b-4736-96ae-3b29c9f34a0b","system_id":"levelo_inurba_marseille","lat":43.24075,"lon":5.37753,"is_reserved":false,"is_disabled":false,"rental_uris":{"android":"levelo://app?vid=8661cdbd-539b-4736-96ae-3b29c9f34a0b","ios":"levelo://app?vid=8661cdbd-539b-4736-96ae-3b29c9f34a0b"},"vehicle_type_id":"4","last_reported":1726467227,"current_range_meters":4800,"station_id":"ce4bhnp2rcd13ifvqgvg","pricing_plan_id":"cebpf4jnsgd1na2vs0mg"},{"bike_id":"f71c5a6a-6336-4f0c-bb87-c555293170d8","system_id":"levelo_inurba_marseille","lat":43.30465,"lon":5.37906,"is_reserved":false,"is_disabled":false,"rental_uris":{"android":"levelo://app?vid=f71c5a6a-6336-4f0c-bb87-c555293170d8","ios":"levelo://app?vid=f71c5a6a-6336-4f0c-bb87-c555293170d8"},"vehicle_type_id":"4","last_reported":1726467227,"current_range_meters":36000,"station_id":"ce4bgup2rcd13ifvqcn0","pricing_plan_id":"cebpf4jnsgd1na2vs0mg"},{"bike_id":"892d6ba7-ec27-48aa-a06b-9fcc2866af0b","system_id":"levelo_inurba_marseille","lat":43.25928,"lon":5.4091,"is_reserved":false,"is_disabled":false,"rental_uris":{"android":"levelo://app?vid=892d6ba7-ec27-48aa-a06b-9fcc2866af0b","ios":"levelo://app?vid=892d6ba7-ec27-48aa-a06b-9fcc2866af0b"},"vehicle_type_id":"4","last_reported":1726467227,"current_range_meters":37600,"station_id":"ce4bhm92rcd13ifvqglg","pricing_plan_id":"cebpf4jnsgd1na2vs0mg"},{"bike_id":"399d5ca3-f4a1-4813-bcb2-424bd1414aa0","system_id":"levelo_inurba_marseille","lat":43.24078,"lon":5.37757,"is_reserved":false,"is_disabled":false,"rental_uris":{"android":"levelo://app?vid=399d5ca3-f4a1-4813-bcb2-424bd1414aa0","ios":"levelo://app?vid=399d5ca3-f4a1-4813-bcb2-424bd1414aa0"},"vehicle_type_id":"4","last_reported":1726467227,"current_range_meters":17200,"station_id":"ce4bhnp2rcd13ifvqgvg","pricing_plan_id":"cebpf4jnsgd1na2vs0mg"},{"bike_id":"7c475990-5c91-40de-8e97-2ed5070be005","system_id":"levelo_inurba_marseille","lat":43.23032,"lon":5.401,"is_reserved":false,"is_disabled":false,"rental_uris":{"android":"levelo://app?vid=7c475990-5c91-40de-8e97-2ed5070be005","ios":"levelo://app?vid=7c475990-5c91-40de-8e97-2ed5070be005"},"vehicle_type_id":"4","last_reported":1726467227,"current_range_meters":35200,"station_id":"","pricing_plan_id":"cebpf4jnsgd1na2vs0mg"},{"bike_id":"101ecf22-a95d-415b-bff0-6222d7db6736","system_id":"levelo_inurba_marseille","lat":43.26034,"lon":5.37544,"is_reserved":false,"is_disabled":false,"rental_uris":{"android":"levelo://app?vid=101ecf22-a95d-415b-bff0-6222d7db6736","ios":"levelo://app?vid=101ecf22-a95d-415b-bff0-6222d7db6736"},"vehicle_type_id":"4","last_reported":1726467227,"current_range_meters":38400,"station_id":"ce4bhgh2rcd13ifvqfa0","pricing_plan_id":"cebpf4jnsgd1na2vs0mg"},{"bike_id":"13ec4916-f0ea-4897-8afc-596425b42c42","system_id":"levelo_inurba_marseille","lat":43.23189,"lon":5.35556,"is_reserved":false,"is_disabled":false,"rental_uris":{"android":"levelo://app?vid=13ec4916-f0ea-4897-8afc-596425b42c42","ios":"levelo://app?vid=13ec4916-f0ea-4897-8afc-596425b42c42"},"vehicle_type_id":"4","last_reported":1726467227,"current_range_meters":17200,"station_id":"ce4bhu92rcd13ifvqi70","pricing_plan_id":"cebpf4jnsgd1na2vs0mg"},{"bike_id":"e8549387-9deb-4f66-b733-a7cdaa0db866","system_id":"levelo_inurba_marseille","lat":43.33023,"lon":5.39039,"is_reserved":false,"is_disabled":false,"rental_uris":{"android":"levelo://app?vid=e8549387-9deb-4f66-b733-a7cdaa0db866","ios":"levelo://app?vid=e8549387-9deb-4f66-b733-a7cdaa0db866"},"vehicle_type_id":"4","last_reported":1726467227,"current_range_meters":10800,"station_id":"ce4bhr92rcd13ifvqhrg","pricing_plan_id":"cebpf4jnsgd1na2vs0mg"},{"bike_id":"bb528d7b-0f69-4e0a-8583-058ac3227553","system_id":"levelo_inurba_marseille","lat":43.29786,"lon":5.3809,"is_reserved":false,"is_disabled":false,"rental_uris":{"android":"levelo://app?vid=bb528d7b-0f69-4e0a-8583-058ac3227553","ios":"levelo://app?vid=bb528d7b-0f69-4e0a-8583-058ac3227553"},"vehicle_type_id":"4","last_reported":1726467227,"current_range_meters":28000,"station_id":"ce4bgip2rcd13ifvqbb0","pricing_plan_id":"cebpf4jnsgd1na2vs0mg"},{"bike_id":"ebd5d50a-b150-49bc-9d4f-114901f1c43a","system_id":"levelo_inurba_marseille","lat":43.28485,"lon":5.38559,"is_reserved":false,"is_disabled":false,"rental_uris":{"android":"levelo://app?vid=ebd5d50a-b150-49bc-9d4f-114901f1c43a","ios":"levelo://app?vid=ebd5d50a-b150-49bc-9d4f-114901f1c43a"},"vehicle_type_id":"4","last_reported":1726467227,"current_range_meters":34000,"station_id":"ce4bh8p2rcd13ifvqeb0","pricing_plan_id":"cebpf4jnsgd1na2vs0mg"},{"bike_id":"5949ce40-ff52-43cb-b040-aa6e22f1a4ea","system_id":"levelo_inurba_marseille","lat":43.30457,"lon":5.37908,"is_reserved":false,"is_disabled":false,"rental_uris":{"android":"levelo://app?vid=5949ce40-ff52-43cb-b040-aa6e22f1a4ea","ios":"levelo://app?vid=5949ce40-ff52-43cb-b040-aa6e22f1a4ea"},"vehicle_type_id":"4","last_reported":1726467227,"current_range_meters":24400,"station_id":"ce4bgup2rcd13ifvqcn0","pricing_plan_id":"cebpf4jnsgd1na2vs0mg"},{"bike_id":"57b87d5c-c819-4ef6-97b0-dab8fd8c8e55","system_id":"levelo_inurba_marseille","lat":43.24084,"lon":5.37746,"is_reserved":false,"is_disabled":false,"rental_uris":{"android":"levelo://app?vid=57b87d5c-c819-4ef6-97b0-dab8fd8c8e55","ios":"levelo://app?vid=57b87d5c-c819-4ef6-97b0-dab8fd8c8e55"},"vehicle_type_id":"4","last_reported":1726467227,"current_range_meters":38400,"station_id":"ce4bhnp2rcd13ifvqgvg","pricing_plan_id":"cebpf4jnsgd1na2vs0mg"},{"bike_id":"ba5766e2-e9ff-4571-95a0-04988fd7fe6c","system_id":"levelo_inurba_marseille","lat":43.32484,"lon":5.36575,"is_reserved":false,"is_disabled":false,"rental_uris":{"android":"levelo://app?vid=ba5766e2-e9ff-4571-95a0-04988fd7fe6c","ios":"levelo://app?vid=ba5766e2-e9ff-4571-95a0-04988fd7fe6c"},"vehicle_type_id":"4","last_reported":1726467227,"current_range_meters":38000,"station_id":"ce4bhs12rcd13ifvqhvg","pricing_plan_id":"cebpf4jnsgd1na2vs0mg"},{"bike_id":"4721625d-cf54-48b5-87ba-2bbd9e031c70","system_id":"levelo_inurba_marseille","lat":43.24075,"lon":5.37759,"is_reserved":false,"is_disabled":false,"rental_uris":{"android":"levelo://app?vid=4721625d-cf54-48b5-87ba-2bbd9e031c70","ios":"levelo://app?vid=4721625d-cf54-48b5-87ba-2bbd9e031c70"},"vehicle_type_id":"4","last_reported":1726467227,"current_range_meters":36800,"station_id":"ce4bhnp2rcd13ifvqgvg","pricing_plan_id":"cebpf4jnsgd1na2vs0mg"},{"bike_id":"831dd52a-7adf-48a5-ba37-8bb767d9bc38","system_id":"levelo_inurba_marseille","lat":43.28042,"lon":5.42718,"is_reserved":false,"is_disabled":false,"rental_uris":{"android":"levelo://app?vid=831dd52a-7adf-48a5-ba37-8bb767d9bc38","ios":"levelo://app?vid=831dd52a-7adf-48a5-ba37-8bb767d9bc38"},"vehicle_type_id":"4","last_reported":1726467227,"current_range_meters":36800,"station_id":"ce4bhnh2rcd13ifvqgug","pricing_plan_id":"cebpf4jnsgd1na2vs0mg"},{"bike_id":"74c67d55-8a5f-40c9-8066-d68354718f8c","system_id":"levelo_inurba_marseille","lat":43.23189,"lon":5.35552,"is_reserved":false,"is_disabled":false,"rental_uris":{"android":"levelo://app?vid=74c67d55-8a5f-40c9-8066-d68354718f8c","ios":"levelo://app?vid=74c67d55-8a5f-40c9-8066-d68354718f8c"},"vehicle_type_id":"4","last_reported":1726467227,"current_range_meters":14800,"station_id":"ce4bhu92rcd13ifvqi70","pricing_plan_id":"cebpf4jnsgd1na2vs0mg"},{"bike_id":"aa0eb929-976c-44fa-bdef-aaecf3c97313","system_id":"levelo_inurba_marseille","lat":43.30878,"lon":5.37192,"is_reserved":false,"is_disabled":false,"rental_uris":{"android":"levelo://app?vid=aa0eb929-976c-44fa-bdef-aaecf3c97313","ios":"levelo://app?vid=aa0eb929-976c-44fa-bdef-aaecf3c97313"},"vehicle_type_id":"4","last_reported":1726467227,"current_range_meters":32800,"station_id":"ce4bguh2rcd13ifvqckg","pricing_plan_id":"cebpf4jnsgd1na2vs0mg"},{"bike_id":"347c4d00-be62-486d-946b-513151545bf3","system_id":"levelo_inurba_marseille","lat":43.24082,"lon":5.37754,"is_reserved":false,"is_disabled":false,"rental_uris":{"android":"levelo://app?vid=347c4d00-be62-486d-946b-513151545bf3","ios":"levelo://app?vid=347c4d00-be62-486d-946b-513151545bf3"},"vehicle_type_id":"4","last_reported":1726467227,"current_range_meters":24000,"station_id":"ce4bhnp2rcd13ifvqgvg","pricing_plan_id":"cebpf4jnsgd1na2vs0mg"},{"bike_id":"abed3885-d33d-469f-be3f-0a340877ea7b","system_id":"levelo_inurba_marseille","lat":43.30151,"lon":5.38086,"is_reserved":false,"is_disabled":false,"rental_uris":{"android":"levelo://app?vid=abed3885-d33d-469f-be3f-0a340877ea7b","ios":"levelo://app?vid=abed3885-d33d-469f-be3f-0a340877ea7b"},"vehicle_type_id":"4","last_reported":1726467227,"current_range_meters":23200,"station_id":"ce4bgjp2rcd13ifvqbh0","pricing_plan_id":"cebpf4jnsgd1na2vs0mg"},{"bike_id":"db78a2d6-0f52-4cd2-bd0b-9ebe31327c62","system_id":"levelo_inurba_marseille","lat":43.24392,"lon":5.37068,"is_reserved":false,"is_disabled":false,"rental_uris":{"android":"levelo://app?vid=db78a2d6-0f52-4cd2-bd0b-9ebe31327c62","ios":"levelo://app?vid=db78a2d6-0f52-4cd2-bd0b-9ebe31327c62"},"vehicle_type_id":"4","last_reported":1726467227,"current_range_meters":16400,"station_id":"ce4bhhh2rcd13ifvqfk0","pricing_plan_id":"cebpf4jnsgd1na2vs0mg"},{"bike_id":"270c5b77-3f57-4e6d-8672-90645933efbc","system_id":"levelo_inurba_marseille","lat":43.30543,"lon":5.36559,"is_reserved":false,"is_disabled":false,"rental_uris":{"android":"levelo://app?vid=270c5b77-3f57-4e6d-8672-90645933efbc","ios":"levelo://app?vid=270c5b77-3f57-4e6d-8672-90645933efbc"},"vehicle_type_id":"4","last_reported":1726467227,"current_range_meters":36400,"station_id":"ce4bgs12rcd13ifvqcag","pricing_plan_id":"cebpf4jnsgd1na2vs0mg"},{"bike_id":"212c501b-a753-4c1a-ba0c-b560582af171","system_id":"levelo_inurba_marseille","lat":43.29557,"lon":5.42295,"is_reserved":false,"is_disabled":false,"rental_uris":{"android":"levelo://app?vid=212c501b-a753-4c1a-ba0c-b560582af171","ios":"levelo://app?vid=212c501b-a753-4c1a-ba0c-b560582af171"},"vehicle_type_id":"4","last_reported":1726467227,"current_range_meters":14800,"station_id":"ce4bhph2rcd13ifvqhdg","pricing_plan_id":"cebpf4jnsgd1na2vs0mg"},{"bike_id":"ae85f144-866a-4ec0-9027-e49932a00529","system_id":"levelo_inurba_marseille","lat":43.29806,"lon":5.38098,"is_reserved":false,"is_disabled":false,"rental_uris":{"android":"levelo://app?vid=ae85f144-866a-4ec0-9027-e49932a00529","ios":"levelo://app?vid=ae85f144-866a-4ec0-9027-e49932a00529"},"vehicle_type_id":"4","last_reported":1726467227,"current_range_meters":34000,"station_id":"ce4bgip2rcd13ifvqbb0","pricing_plan_id":"cebpf4jnsgd1na2vs0mg"},{"bike_id":"7b295830-4034-490e-b301-ef0534e55373","system_id":"levelo_inurba_marseille","lat":43.30603,"lon":5.39362,"is_reserved":false,"is_disabled":false,"rental_uris":{"android":"levelo://app?vid=7b295830-4034-490e-b301-ef0534e55373","ios":"levelo://app?vid=7b295830-4034-490e-b301-ef0534e55373"},"vehicle_type_id":"4","last_reported":1726467227,"current_range_meters":28400,"station_id":"ce4bh0p2rcd13ifvqd80","pricing_plan_id":"cebpf4jnsgd1na2vs0mg"},{"bike_id":"04f19c5c-ca4d-4b00-be04-9e3e50d3369b","system_id":"levelo_inurba_marseille","lat":43.24165,"lon":5.3639,"is_reserved":false,"is_disabled":false,"rental_uris":{"android":"levelo://app?vid=04f19c5c-ca4d-4b00-be04-9e3e50d3369b","ios":"levelo://app?vid=04f19c5c-ca4d-4b00-be04-9e3e50d3369b"},"vehicle_type_id":"4","last_reported":1726467227,"current_range_meters":24800,"station_id":"cpo36qri1sfpv3e86is0","pricing_plan_id":"cebpf4jnsgd1na2vs0mg"},{"bike_id":"40869c76-4f82-404f-9cdf-639196b728f9","system_id":"levelo_inurba_marseille","lat":43.28564,"lon":5.39495,"is_reserved":false,"is_disabled":false,"rental_uris":{"android":"levelo://app?vid=40869c76-4f82-404f-9cdf-639196b728f9","ios":"levelo://app?vid=40869c76-4f82-404f-9cdf-639196b728f9"},"vehicle_type_id":"4","last_reported":1726467227,"current_range_meters":18000,"station_id":"ce4bh292rcd13ifvqdg0","pricing_plan_id":"cebpf4jnsgd1na2vs0mg"},{"bike_id":"cd225d70-6caa-40f5-b0a6-233eb91ea039","system_id":"levelo_inurba_marseille","lat":43.34094,"lon":5.39106,"is_reserved":false,"is_disabled":false,"rental_uris":{"android":"levelo://app?vid=cd225d70-6caa-40f5-b0a6-233eb91ea039","ios":"levelo://app?vid=cd225d70-6caa-40f5-b0a6-233eb91ea039"},"vehicle_type_id":"4","last_reported":1726467227,"current_range_meters":35600,"station_id":"","pricing_plan_id":"cebpf4jnsgd1na2vs0mg"},{"bike_id":"0aa75f12-c942-44d1-92b7-0b3badf3bf13","system_id":"levelo_inurba_marseille","lat":43.27492,"lon":5.42452,"is_reserved":false,"is_disabled":false,"rental_uris":{"android":"levelo://app?vid=0aa75f12-c942-44d1-92b7-0b3badf3bf13","ios":"levelo://app?vid=0aa75f12-c942-44d1-92b7-0b3badf3bf13"},"vehicle_type_id":"4","last_reported":1726467227,"current_range_meters":25200,"station_id":"ce4bhn92rcd13ifvqgrg","pricing_plan_id":"cebpf4jnsgd1na2vs0mg"},{"bike_id":"b8ae096d-0625-4a15-b0d0-1e55adea2f10","system_id":"levelo_inurba_marseille","lat":43.309122,"lon":5.368504,"is_reserved":false,"is_disabled":false,"rental_uris":{"android":"levelo://app?vid=b8ae096d-0625-4a15-b0d0-1e55adea2f10","ios":"levelo://app?vid=b8ae096d-0625-4a15-b0d0-1e55adea2f10"},"vehicle_type_id":"4","last_reported":1726467227,"current_range_meters":25200,"station_id":"ce4bgn92rcd13ifvqbvg","pricing_plan_id":"cebpf4jnsgd1na2vs0mg"},{"bike_id":"662bb949-a41e-4f71-83e7-b4366bf0d38b","system_id":"levelo_inurba_marseille","lat":43.28346,"lon":5.38097,"is_reserved":false,"is_disabled":false,"rental_uris":{"android":"levelo://app?vid=662bb949-a41e-4f71-83e7-b4366bf0d38b","ios":"levelo://app?vid=662bb949-a41e-4f71-83e7-b4366bf0d38b"},"vehicle_type_id":"4","last_reported":1726467227,"current_range_meters":36400,"station_id":"ce4bh412rcd13ifvqdr0","pricing_plan_id":"cebpf4jnsgd1na2vs0mg"},{"bike_id":"3e1bed70-23ec-4e39-aac3-29d1cd5e655c","system_id":"levelo_inurba_marseille","lat":43.29985,"lon":5.37243,"is_reserved":false,"is_disabled":false,"rental_uris":{"android":"levelo://app?vid=3e1bed70-23ec-4e39-aac3-29d1cd5e655c","ios":"levelo://app?vid=3e1bed70-23ec-4e39-aac3-29d1cd5e655c"},"vehicle_type_id":"4","last_reported":1726467227,"current_range_meters":36400,"station_id":"","pricing_plan_id":"cebpf4jnsgd1na2vs0mg"},{"bike_id":"519b8719-4413-4907-95e6-c423974a1da9","system_id":"levelo_inurba_marseille","lat":43.30475,"lon":5.37908,"is_reserved":false,"is_disabled":false,"rental_uris":{"android":"levelo://app?vid=519b8719-4413-4907-95e6-c423974a1da9","ios":"levelo://app?vid=519b8719-4413-4907-95e6-c423974a1da9"},"vehicle_type_id":"4","last_reported":1726467227,"current_range_meters":36800,"station_id":"ce4bgup2rcd13ifvqcn0","pricing_plan_id":"cebpf4jnsgd1na2vs0mg"},{"bike_id":"09d590c0-3a63-4093-8a46-e43fdbed6022","system_id":"levelo_inurba_marseille","lat":43.231752,"lon":5.435896,"is_reserved":false,"is_disabled":false,"rental_uris":{"android":"levelo://app?vid=09d590c0-3a63-4093-8a46-e43fdbed6022","ios":"levelo://app?vid=09d590c0-3a63-4093-8a46-e43fdbed6022"},"vehicle_type_id":"4","last_reported":1726467227,"current_range_meters":16000,"station_id":"ce4bhmp2rcd13ifvqgog","pricing_plan_id":"cebpf4jnsgd1na2vs0mg"},{"bike_id":"1bc1a215-2432-4373-8b56-47f98f72de4b","system_id":"levelo_inurba_marseille","lat":43.29912,"lon":5.37473,"is_reserved":false,"is_disabled":false,"rental_uris":{"android":"levelo://app?vid=1bc1a215-2432-4373-8b56-47f98f72de4b","ios":"levelo://app?vid=1bc1a215-2432-4373-8b56-47f98f72de4b"},"vehicle_type_id":"4","last_reported":1726467227,"current_range_meters":38400,"station_id":"ce4bgjh2rcd13ifvqbg0","pricing_plan_id":"cebpf4jnsgd1na2vs0mg"},{"bike_id":"b99b65cf-971a-40f1-a132-4396feb77650","system_id":"levelo_inurba_marseille","lat":43.28354,"lon":5.38101,"is_reserved":false,"is_disabled":false,"rental_uris":{"android":"levelo://app?vid=b99b65cf-971a-40f1-a132-4396feb77650","ios":"levelo://app?vid=b99b65cf-971a-40f1-a132-4396feb77650"},"vehicle_type_id":"4","last_reported":1726467227,"current_range_meters":30000,"station_id":"ce4bh412rcd13ifvqdr0","pricing_plan_id":"cebpf4jnsgd1na2vs0mg"},{"bike_id":"1a01e9be-b5ec-4708-9a6a-d302a65a4a05","system_id":"levelo_inurba_marseille","lat":43.3229,"lon":5.38284,"is_reserved":false,"is_disabled":false,"rental_uris":{"android":"levelo://app?vid=1a01e9be-b5ec-4708-9a6a-d302a65a4a05","ios":"levelo://app?vid=1a01e9be-b5ec-4708-9a6a-d302a65a4a05"},"vehicle_type_id":"4","last_reported":1726467227,"current_range_meters":9200,"station_id":"ce4bhr12rcd13ifvqhqg","pricing_plan_id":"cebpf4jnsgd1na2vs0mg"},{"bike_id":"d45458ce-2536-4241-8f9b-80c5160bf345","system_id":"levelo_inurba_marseille","lat":43.31082,"lon":5.42431,"is_reserved":false,"is_disabled":false,"rental_uris":{"android":"levelo://app?vid=d45458ce-2536-4241-8f9b-80c5160bf345","ios":"levelo://app?vid=d45458ce-2536-4241-8f9b-80c5160bf345"},"vehicle_type_id":"4","last_reported":1726467227,"current_range_meters":37600,"station_id":"ce4bhp92rcd13ifvqhag","pricing_plan_id":"cebpf4jnsgd1na2vs0mg"},{"bike_id":"f13ab7a8-3438-415b-8834-406048b7c626","system_id":"levelo_inurba_marseille","lat":43.29091,"lon":5.38147,"is_reserved":false,"is_disabled":false,"rental_uris":{"android":"levelo://app?vid=f13ab7a8-3438-415b-8834-406048b7c626","ios":"levelo://app?vid=f13ab7a8-3438-415b-8834-406048b7c626"},"vehicle_type_id":"4","last_reported":1726467227,"current_range_meters":27600,"station_id":"ce4bh512rcd13ifvqe2g","pricing_plan_id":"cebpf4jnsgd1na2vs0mg"},{"bike_id":"47b91095-5ba8-4a6c-aa9c-0350d707dda9","system_id":"levelo_inurba_marseille","lat":43.28721,"lon":5.37927,"is_reserved":false,"is_disabled":false,"rental_uris":{"android":"levelo://app?vid=47b91095-5ba8-4a6c-aa9c-0350d707dda9","ios":"levelo://app?vid=47b91095-5ba8-4a6c-aa9c-0350d707dda9"},"vehicle_type_id":"4","last_reported":1726467227,"current_range_meters":38400,"station_id":"ce4bh9p2rcd13ifvqec0","pricing_plan_id":"cebpf4jnsgd1na2vs0mg"},{"bike_id":"ac614bad-e26b-49bd-bd84-cf3d3b1357d8","system_id":"levelo_inurba_marseille","lat":43.28722,"lon":5.37931,"is_reserved":false,"is_disabled":false,"rental_uris":{"android":"levelo://app?vid=ac614bad-e26b-49bd-bd84-cf3d3b1357d8","ios":"levelo://app?vid=ac614bad-e26b-49bd-bd84-cf3d3b1357d8"},"vehicle_type_id":"4","last_reported":1726467227,"current_range_meters":31200,"station_id":"ce4bh9p2rcd13ifvqec0","pricing_plan_id":"cebpf4jnsgd1na2vs0mg"},{"bike_id":"f79ff168-7c1f-43a6-9a48-819ae1e3b151","system_id":"levelo_inurba_marseille","lat":43.24069,"lon":5.37757,"is_reserved":false,"is_disabled":false,"rental_uris":{"android":"levelo://app?vid=f79ff168-7c1f-43a6-9a48-819ae1e3b151","ios":"levelo://app?vid=f79ff168-7c1f-43a6-9a48-819ae1e3b151"},"vehicle_type_id":"4","last_reported":1726467227,"current_range_meters":8800,"station_id":"ce4bhnp2rcd13ifvqgvg","pricing_plan_id":"cebpf4jnsgd1na2vs0mg"},{"bike_id":"2e3fa3c1-55aa-4e86-bd3e-7bdc4a6b47ac","system_id":"levelo_inurba_marseille","lat":43.2749,"lon":5.42456,"is_reserved":false,"is_disabled":false,"rental_uris":{"android":"levelo://app?vid=2e3fa3c1-55aa-4e86-bd3e-7bdc4a6b47ac","ios":"levelo://app?vid=2e3fa3c1-55aa-4e86-bd3e-7bdc4a6b47ac"},"vehicle_type_id":"4","last_reported":1726467227,"current_range_meters":34000,"station_id":"ce4bhn92rcd13ifvqgrg","pricing_plan_id":"cebpf4jnsgd1na2vs0mg"},{"bike_id":"5d9ae75c-1c97-4220-9c50-bfa8676d2d69","system_id":"levelo_inurba_marseille","lat":43.28341,"lon":5.38105,"is_reserved":false,"is_disabled":false,"rental_uris":{"android":"levelo://app?vid=5d9ae75c-1c97-4220-9c50-bfa8676d2d69","ios":"levelo://app?vid=5d9ae75c-1c97-4220-9c50-bfa8676d2d69"},"vehicle_type_id":"4","last_reported":1726467227,"current_range_meters":33600,"station_id":"ce4bh412rcd13ifvqdr0","pricing_plan_id":"cebpf4jnsgd1na2vs0mg"},{"bike_id":"02b9c4ed-d5e3-4b14-aa1a-2bebc84df12a","system_id":"levelo_inurba_marseille","lat":43.26563,"lon":5.39013,"is_reserved":false,"is_disabled":false,"rental_uris":{"android":"levelo://app?vid=02b9c4ed-d5e3-4b14-aa1a-2bebc84df12a","ios":"levelo://app?vid=02b9c4ed-d5e3-4b14-aa1a-2bebc84df12a"},"vehicle_type_id":"4","last_reported":1726467227,"current_range_meters":38800,"station_id":"ce4bhe12rcd13ifvqf30","pricing_plan_id":"cebpf4jnsgd1na2vs0mg"},{"bike_id":"aa148cc5-c876-4c0c-bbf0-ac3d4251a57d","system_id":"levelo_inurba_marseille","lat":43.302128,"lon":5.394615,"is_reserved":false,"is_disabled":false,"rental_uris":{"android":"levelo://app?vid=aa148cc5-c876-4c0c-bbf0-ac3d4251a57d","ios":"levelo://app?vid=aa148cc5-c876-4c0c-bbf0-ac3d4251a57d"},"vehicle_type_id":"4","last_reported":1726467227,"current_range_meters":30400,"station_id":"ce4bh0p2rcd13ifvqd70","pricing_plan_id":"cebpf4jnsgd1na2vs0mg"},{"bike_id":"b0fed14a-8ca6-41c1-a7a1-3028dcb47f60","system_id":"levelo_inurba_marseille","lat":43.31174,"lon":5.38711,"is_reserved":false,"is_disabled":false,"rental_uris":{"android":"levelo://app?vid=b0fed14a-8ca6-41c1-a7a1-3028dcb47f60","ios":"levelo://app?vid=b0fed14a-8ca6-41c1-a7a1-3028dcb47f60"},"vehicle_type_id":"4","last_reported":1726467227,"current_range_meters":37600,"station_id":"ce4bgv12rcd13ifvqcp0","pricing_plan_id":"cebpf4jnsgd1na2vs0mg"},{"bike_id":"cbacf406-e04e-4215-8caa-3e92b3069462","system_id":"levelo_inurba_marseille","lat":43.24076,"lon":5.37755,"is_reserved":false,"is_disabled":false,"rental_uris":{"android":"levelo://app?vid=cbacf406-e04e-4215-8caa-3e92b3069462","ios":"levelo://app?vid=cbacf406-e04e-4215-8caa-3e92b3069462"},"vehicle_type_id":"4","last_reported":1726467227,"current_range_meters":38400,"station_id":"ce4bhnp2rcd13ifvqgvg","pricing_plan_id":"cebpf4jnsgd1na2vs0mg"},{"bike_id":"dc5bb796-c3d6-412d-9d67-20858f6327c6","system_id":"levelo_inurba_marseille","lat":43.28701,"lon":5.37909,"is_reserved":false,"is_disabled":false,"rental_uris":{"android":"levelo://app?vid=dc5bb796-c3d6-412d-9d67-20858f6327c6","ios":"levelo://app?vid=dc5bb796-c3d6-412d-9d67-20858f6327c6"},"vehicle_type_id":"4","last_reported":1726467227,"current_range_meters":35600,"station_id":"ce4bh9p2rcd13ifvqec0","pricing_plan_id":"cebpf4jnsgd1na2vs0mg"},{"bike_id":"4b850bb4-e07b-4864-a8eb-064b46aaa20d","system_id":"levelo_inurba_marseille","lat":43.31168,"lon":5.3871,"is_reserved":false,"is_disabled":false,"rental_uris":{"android":"levelo://app?vid=4b850bb4-e07b-4864-a8eb-064b46aaa20d","ios":"levelo://app?vid=4b850bb4-e07b-4864-a8eb-064b46aaa20d"},"vehicle_type_id":"4","last_reported":1726467227,"current_range_meters":39200,"station_id":"ce4bgv12rcd13ifvqcp0","pricing_plan_id":"cebpf4jnsgd1na2vs0mg"},{"bike_id":"4770f6cf-4c2c-4382-b209-a8dd3672082e","system_id":"levelo_inurba_marseille","lat":43.267852,"lon":5.394193,"is_reserved":false,"is_disabled":false,"rental_uris":{"android":"levelo://app?vid=4770f6cf-4c2c-4382-b209-a8dd3672082e","ios":"levelo://app?vid=4770f6cf-4c2c-4382-b209-a8dd3672082e"},"vehicle_type_id":"4","last_reported":1726467227,"current_range_meters":22000,"station_id":"ce4bhh12rcd13ifvqfg0","pricing_plan_id":"cebpf4jnsgd1na2vs0mg"},{"bike_id":"9e65d539-6c66-44a3-a08b-39d6eded0d67","system_id":"levelo_inurba_marseille","lat":43.29373,"lon":5.37862,"is_reserved":false,"is_disabled":false,"rental_uris":{"android":"levelo://app?vid=9e65d539-6c66-44a3-a08b-39d6eded0d67","ios":"levelo://app?vid=9e65d539-6c66-44a3-a08b-39d6eded0d67"},"vehicle_type_id":"4","last_reported":1726467227,"current_range_meters":38400,"station_id":"ce4bgjh2rcd13ifvqbf0","pricing_plan_id":"cebpf4jnsgd1na2vs0mg"},{"bike_id":"94a092c1-665c-4fa8-9eb0-3fd5a6a7d69c","system_id":"levelo_inurba_marseille","lat":43.25822,"lon":5.39424,"is_reserved":false,"is_disabled":false,"rental_uris":{"android":"levelo://app?vid=94a092c1-665c-4fa8-9eb0-3fd5a6a7d69c","ios":"levelo://app?vid=94a092c1-665c-4fa8-9eb0-3fd5a6a7d69c"},"vehicle_type_id":"4","last_reported":1726467227,"current_range_meters":38800,"station_id":"ce4bhip2rcd13ifvqft0","pricing_plan_id":"cebpf4jnsgd1na2vs0mg"},{"bike_id":"26db0265-0a91-4c66-8aa8-67a94f7eef0d","system_id":"levelo_inurba_marseille","lat":43.26937,"lon":5.40049,"is_reserved":false,"is_disabled":false,"rental_uris":{"android":"levelo://app?vid=26db0265-0a91-4c66-8aa8-67a94f7eef0d","ios":"levelo://app?vid=26db0265-0a91-4c66-8aa8-67a94f7eef0d"},"vehicle_type_id":"4","last_reported":1726467227,"current_range_meters":6400,"station_id":"","pricing_plan_id":"cebpf4jnsgd1na2vs0mg"},{"bike_id":"a35ec4d5-c8bb-4c1c-9bc7-09d38a3e1df1","system_id":"levelo_inurba_marseille","lat":43.31887,"lon":5.40737,"is_reserved":false,"is_disabled":false,"rental_uris":{"android":"levelo://app?vid=a35ec4d5-c8bb-4c1c-9bc7-09d38a3e1df1","ios":"levelo://app?vid=a35ec4d5-c8bb-4c1c-9bc7-09d38a3e1df1"},"vehicle_type_id":"4","last_reported":1726467227,"current_range_meters":18000,"station_id":"ce4bhq12rcd13ifvqhig","pricing_plan_id":"cebpf4jnsgd1na2vs0mg"},{"bike_id":"98146a55-0bb8-4140-892c-d49fa1ded5aa","system_id":"levelo_inurba_marseille","lat":43.28575,"lon":5.39489,"is_reserved":false,"is_disabled":false,"rental_uris":{"android":"levelo://app?vid=98146a55-0bb8-4140-892c-d49fa1ded5aa","ios":"levelo://app?vid=98146a55-0bb8-4140-892c-d49fa1ded5aa"},"vehicle_type_id":"4","last_reported":1726467227,"current_range_meters":38800,"station_id":"ce4bh292rcd13ifvqdg0","pricing_plan_id":"cebpf4jnsgd1na2vs0mg"},{"bike_id":"3818e3dd-9f09-42ad-ab7e-42059151beb8","system_id":"levelo_inurba_marseille","lat":43.29613,"lon":5.38103,"is_reserved":false,"is_disabled":false,"rental_uris":{"android":"levelo://app?vid=3818e3dd-9f09-42ad-ab7e-42059151beb8","ios":"levelo://app?vid=3818e3dd-9f09-42ad-ab7e-42059151beb8"},"vehicle_type_id":"4","last_reported":1726467227,"current_range_meters":38400,"station_id":"ce4bgl12rcd13ifvqbo0","pricing_plan_id":"cebpf4jnsgd1na2vs0mg"},{"bike_id":"af8a6781-0b28-4e35-9bd0-0e957a132687","system_id":"levelo_inurba_marseille","lat":43.2998,"lon":5.38498,"is_reserved":false,"is_disabled":false,"rental_uris":{"android":"levelo://app?vid=af8a6781-0b28-4e35-9bd0-0e957a132687","ios":"levelo://app?vid=af8a6781-0b28-4e35-9bd0-0e957a132687"},"vehicle_type_id":"4","last_reported":1726467227,"current_range_meters":16400,"station_id":"ce4bgj92rcd13ifvqbd0","pricing_plan_id":"cebpf4jnsgd1na2vs0mg"},{"bike_id":"2d28cbf5-e154-47fa-8362-08e59c8ad559","system_id":"levelo_inurba_marseille","lat":43.304252,"lon":5.413038,"is_reserved":false,"is_disabled":false,"rental_uris":{"android":"levelo://app?vid=2d28cbf5-e154-47fa-8362-08e59c8ad559","ios":"levelo://app?vid=2d28cbf5-e154-47fa-8362-08e59c8ad559"},"vehicle_type_id":"4","last_reported":1726467227,"current_range_meters":36800,"station_id":"ce4bhop2rcd13ifvqh8g","pricing_plan_id":"cebpf4jnsgd1na2vs0mg"},{"bike_id":"bb0b1bc1-4a45-4654-aa7c-5a487b877b13","system_id":"levelo_inurba_marseille","lat":43.28347,"lon":5.38102,"is_reserved":false,"is_disabled":false,"rental_uris":{"android":"levelo://app?vid=bb0b1bc1-4a45-4654-aa7c-5a487b877b13","ios":"levelo://app?vid=bb0b1bc1-4a45-4654-aa7c-5a487b877b13"},"vehicle_type_id":"4","last_reported":1726467227,"current_range_meters":33200,"station_id":"ce4bh412rcd13ifvqdr0","pricing_plan_id":"cebpf4jnsgd1na2vs0mg"},{"bike_id":"c45ca1bb-6626-4ef4-aa27-b128496f2c01","system_id":"levelo_inurba_marseille","lat":43.30145,"lon":5.38085,"is_reserved":false,"is_disabled":false,"rental_uris":{"android":"levelo://app?vid=c45ca1bb-6626-4ef4-aa27-b128496f2c01","ios":"levelo://app?vid=c45ca1bb-6626-4ef4-aa27-b128496f2c01"},"vehicle_type_id":"4","last_reported":1726467227,"current_range_meters":6800,"station_id":"ce4bgjp2rcd13ifvqbh0","pricing_plan_id":"cebpf4jnsgd1na2vs0mg"},{"bike_id":"8cb592d9-f82f-4171-894f-8d7ffa6525e5","system_id":"levelo_inurba_marseille","lat":43.232,"lon":5.35547,"is_reserved":false,"is_disabled":false,"rental_uris":{"android":"levelo://app?vid=8cb592d9-f82f-4171-894f-8d7ffa6525e5","ios":"levelo://app?vid=8cb592d9-f82f-4171-894f-8d7ffa6525e5"},"vehicle_type_id":"4","last_reported":1726467227,"current_range_meters":26000,"station_id":"ce4bhu92rcd13ifvqi70","pricing_plan_id":"cebpf4jnsgd1na2vs0mg"},{"bike_id":"f467b5fe-ad21-490c-a5d5-83ab0db50d18","system_id":"levelo_inurba_marseille","lat":43.29924,"lon":5.36555,"is_reserved":false,"is_disabled":false,"rental_uris":{"android":"levelo://app?vid=f467b5fe-ad21-490c-a5d5-83ab0db50d18","ios":"levelo://app?vid=f467b5fe-ad21-490c-a5d5-83ab0db50d18"},"vehicle_type_id":"4","last_reported":1726467227,"current_range_meters":12400,"station_id":"ce4bgm92rcd13ifvqbr0","pricing_plan_id":"cebpf4jnsgd1na2vs0mg"},{"bike_id":"4550b1a0-518c-469f-a56e-28cf550cc699","system_id":"levelo_inurba_marseille","lat":43.28956,"lon":5.36414,"is_reserved":false,"is_disabled":false,"rental_uris":{"android":"levelo://app?vid=4550b1a0-518c-469f-a56e-28cf550cc699","ios":"levelo://app?vid=4550b1a0-518c-469f-a56e-28cf550cc699"},"vehicle_type_id":"4","last_reported":1726467227,"current_range_meters":16400,"station_id":"ce4bhc92rcd13ifvqetg","pricing_plan_id":"cebpf4jnsgd1na2vs0mg"},{"bike_id":"d366068e-c52c-4f29-b697-9859c437bad9","system_id":"levelo_inurba_marseille","lat":43.28711,"lon":5.39993,"is_reserved":false,"is_disabled":false,"rental_uris":{"android":"levelo://app?vid=d366068e-c52c-4f29-b697-9859c437bad9","ios":"levelo://app?vid=d366068e-c52c-4f29-b697-9859c437bad9"},"vehicle_type_id":"4","last_reported":1726467227,"current_range_meters":32000,"station_id":"ce4bho92rcd13ifvqh3g","pricing_plan_id":"cebpf4jnsgd1na2vs0mg"},{"bike_id":"7861d110-425b-4fa7-90ad-db8dc904e41e","system_id":"levelo_inurba_marseille","lat":43.33602,"lon":5.41033,"is_reserved":false,"is_disabled":false,"rental_uris":{"android":"levelo://app?vid=7861d110-425b-4fa7-90ad-db8dc904e41e","ios":"levelo://app?vid=7861d110-425b-4fa7-90ad-db8dc904e41e"},"vehicle_type_id":"4","last_reported":1726467227,"current_range_meters":20800,"station_id":"ce4bhqh2rcd13ifvqhmg","pricing_plan_id":"cebpf4jnsgd1na2vs0mg"},{"bike_id":"c1a56775-b0a7-436e-9740-9e49548cb37d","system_id":"levelo_inurba_marseille","lat":43.23151,"lon":5.43714,"is_reserved":false,"is_disabled":false,"rental_uris":{"android":"levelo://app?vid=c1a56775-b0a7-436e-9740-9e49548cb37d","ios":"levelo://app?vid=c1a56775-b0a7-436e-9740-9e49548cb37d"},"vehicle_type_id":"4","last_reported":1726467227,"current_range_meters":22800,"station_id":"ce4bhmp2rcd13ifvqgog","pricing_plan_id":"cebpf4jnsgd1na2vs0mg"},{"bike_id":"f4e21541-cfe5-494b-b62b-57b811b05280","system_id":"levelo_inurba_marseille","lat":43.24118,"lon":5.37708,"is_reserved":false,"is_disabled":false,"rental_uris":{"android":"levelo://app?vid=f4e21541-cfe5-494b-b62b-57b811b05280","ios":"levelo://app?vid=f4e21541-cfe5-494b-b62b-57b811b05280"},"vehicle_type_id":"4","last_reported":1726467227,"current_range_meters":32800,"station_id":"ce4bhnp2rcd13ifvqgvg","pricing_plan_id":"cebpf4jnsgd1na2vs0mg"},{"bike_id":"164c84d0-965b-4b9d-907a-50978fd57489","system_id":"levelo_inurba_marseille","lat":43.3026,"lon":5.40076,"is_reserved":false,"is_disabled":false,"rental_uris":{"android":"levelo://app?vid=164c84d0-965b-4b9d-907a-50978fd57489","ios":"levelo://app?vid=164c84d0-965b-4b9d-907a-50978fd57489"},"vehicle_type_id":"4","last_reported":1726467227,"current_range_meters":24800,"station_id":"ce4bgvh2rcd13ifvqcs0","pricing_plan_id":"cebpf4jnsgd1na2vs0mg"},{"bike_id":"9c25d7f9-3117-44f1-acec-713cdafffebf","system_id":"levelo_inurba_marseille","lat":43.34144,"lon":5.4091,"is_reserved":false,"is_disabled":false,"rental_uris":{"android":"levelo://app?vid=9c25d7f9-3117-44f1-acec-713cdafffebf","ios":"levelo://app?vid=9c25d7f9-3117-44f1-acec-713cdafffebf"},"vehicle_type_id":"4","last_reported":1726467227,"current_range_meters":34800,"station_id":"ce4bhqh2rcd13ifvqhlg","pricing_plan_id":"cebpf4jnsgd1na2vs0mg"},{"bike_id":"8f979555-d0d6-4c8f-9fce-0747a350b182","system_id":"levelo_inurba_marseille","lat":43.28715,"lon":5.37947,"is_reserved":false,"is_disabled":false,"rental_uris":{"android":"levelo://app?vid=8f979555-d0d6-4c8f-9fce-0747a350b182","ios":"levelo://app?vid=8f979555-d0d6-4c8f-9fce-0747a350b182"},"vehicle_type_id":"4","last_reported":1726467227,"current_range_meters":37600,"station_id":"ce4bh9p2rcd13ifvqec0","pricing_plan_id":"cebpf4jnsgd1na2vs0mg"},{"bike_id":"ee61d895-0129-4f56-b53c-6162a3381582","system_id":"levelo_inurba_marseille","lat":43.308964,"lon":5.396562,"is_reserved":false,"is_disabled":false,"rental_uris":{"android":"levelo://app?vid=ee61d895-0129-4f56-b53c-6162a3381582","ios":"levelo://app?vid=ee61d895-0129-4f56-b53c-6162a3381582"},"vehicle_type_id":"4","last_reported":1726467227,"current_range_meters":17200,"station_id":"ce4bhq12rcd13ifvqhhg","pricing_plan_id":"cebpf4jnsgd1na2vs0mg"},{"bike_id":"b1db6496-7d7b-4acc-a88c-e5406d38e100","system_id":"levelo_inurba_marseille","lat":43.23192,"lon":5.35552,"is_reserved":false,"is_disabled":false,"rental_uris":{"android":"levelo://app?vid=b1db6496-7d7b-4acc-a88c-e5406d38e100","ios":"levelo://app?vid=b1db6496-7d7b-4acc-a88c-e5406d38e100"},"vehicle_type_id":"4","last_reported":1726467227,"current_range_meters":33200,"station_id":"ce4bhu92rcd13ifvqi70","pricing_plan_id":"cebpf4jnsgd1na2vs0mg"},{"bike_id":"96709300-0211-4b29-8fad-153835142d8f","system_id":"levelo_inurba_marseille","lat":43.27498,"lon":5.42449,"is_reserved":false,"is_disabled":false,"rental_uris":{"android":"levelo://app?vid=96709300-0211-4b29-8fad-153835142d8f","ios":"levelo://app?vid=96709300-0211-4b29-8fad-153835142d8f"},"vehicle_type_id":"4","last_reported":1726467227,"current_range_meters":27600,"station_id":"ce4bhn92rcd13ifvqgrg","pricing_plan_id":"cebpf4jnsgd1na2vs0mg"},{"bike_id":"ee721f16-71d0-49c8-9da4-858f78b55bcb","system_id":"levelo_inurba_marseille","lat":43.2594,"lon":5.40899,"is_reserved":false,"is_disabled":false,"rental_uris":{"android":"levelo://app?vid=ee721f16-71d0-49c8-9da4-858f78b55bcb","ios":"levelo://app?vid=ee721f16-71d0-49c8-9da4-858f78b55bcb"},"vehicle_type_id":"4","last_reported":1726467227,"current_range_meters":22400,"station_id":"ce4bhm92rcd13ifvqglg","pricing_plan_id":"cebpf4jnsgd1na2vs0mg"},{"bike_id":"f6012a56-244b-46b2-a455-ae0945e2beb3","system_id":"levelo_inurba_marseille","lat":43.30142,"lon":5.38084,"is_reserved":false,"is_disabled":false,"rental_uris":{"android":"levelo://app?vid=f6012a56-244b-46b2-a455-ae0945e2beb3","ios":"levelo://app?vid=f6012a56-244b-46b2-a455-ae0945e2beb3"},"vehicle_type_id":"4","last_reported":1726467227,"current_range_meters":20800,"station_id":"ce4bgjp2rcd13ifvqbh0","pricing_plan_id":"cebpf4jnsgd1na2vs0mg"},{"bike_id":"673c1b5e-9443-4dc4-bb54-52e29ea0abc7","system_id":"levelo_inurba_marseille","lat":43.23154,"lon":5.43722,"is_reserved":false,"is_disabled":false,"rental_uris":{"android":"levelo://app?vid=673c1b5e-9443-4dc4-bb54-52e29ea0abc7","ios":"levelo://app?vid=673c1b5e-9443-4dc4-bb54-52e29ea0abc7"},"vehicle_type_id":"4","last_reported":1726467227,"current_range_meters":16000,"station_id":"ce4bhmp2rcd13ifvqgog","pricing_plan_id":"cebpf4jnsgd1na2vs0mg"},{"bike_id":"5cf4c2f1-f092-4550-b8cf-369099ebc3bc","system_id":"levelo_inurba_marseille","lat":43.24563,"lon":5.41552,"is_reserved":false,"is_disabled":false,"rental_uris":{"android":"levelo://app?vid=5cf4c2f1-f092-4550-b8cf-369099ebc3bc","ios":"levelo://app?vid=5cf4c2f1-f092-4550-b8cf-369099ebc3bc"},"vehicle_type_id":"4","last_reported":1726467227,"current_range_meters":9600,"station_id":"ce4bhlh2rcd13ifvqgig","pricing_plan_id":"cebpf4jnsgd1na2vs0mg"},{"bike_id":"49630cfd-2369-4ecd-9ab1-a39878c6fb40","system_id":"levelo_inurba_marseille","lat":43.28719,"lon":5.37928,"is_reserved":false,"is_disabled":false,"rental_uris":{"android":"levelo://app?vid=49630cfd-2369-4ecd-9ab1-a39878c6fb40","ios":"levelo://app?vid=49630cfd-2369-4ecd-9ab1-a39878c6fb40"},"vehicle_type_id":"4","last_reported":1726467227,"current_range_meters":35600,"station_id":"ce4bh9p2rcd13ifvqec0","pricing_plan_id":"cebpf4jnsgd1na2vs0mg"},{"bike_id":"4721e0a5-8c0a-4c61-91fb-10c3ba183135","system_id":"levelo_inurba_marseille","lat":43.24073,"lon":5.37751,"is_reserved":false,"is_disabled":false,"rental_uris":{"android":"levelo://app?vid=4721e0a5-8c0a-4c61-91fb-10c3ba183135","ios":"levelo://app?vid=4721e0a5-8c0a-4c61-91fb-10c3ba183135"},"vehicle_type_id":"4","last_reported":1726467227,"current_range_meters":9600,"station_id":"ce4bhnp2rcd13ifvqgvg","pricing_plan_id":"cebpf4jnsgd1na2vs0mg"},{"bike_id":"738dc884-b3f0-4c47-a6a6-5399037f42a5","system_id":"levelo_inurba_marseille","lat":43.28725,"lon":5.37934,"is_reserved":false,"is_disabled":false,"rental_uris":{"android":"levelo://app?vid=738dc884-b3f0-4c47-a6a6-5399037f42a5","ios":"levelo://app?vid=738dc884-b3f0-4c47-a6a6-5399037f42a5"},"vehicle_type_id":"4","last_reported":1726467227,"current_range_meters":30800,"station_id":"ce4bh9p2rcd13ifvqec0","pricing_plan_id":"cebpf4jnsgd1na2vs0mg"},{"bike_id":"384ca147-e2d1-45e2-8eda-4f80db907d1d","system_id":"levelo_inurba_marseille","lat":43.24085,"lon":5.37751,"is_reserved":false,"is_disabled":false,"rental_uris":{"android":"levelo://app?vid=384ca147-e2d1-45e2-8eda-4f80db907d1d","ios":"levelo://app?vid=384ca147-e2d1-45e2-8eda-4f80db907d1d"},"vehicle_type_id":"4","last_reported":1726467227,"current_range_meters":23200,"station_id":"ce4bhnp2rcd13ifvqgvg","pricing_plan_id":"cebpf4jnsgd1na2vs0mg"},{"bike_id":"223bcd1f-bde5-46f7-ab5f-e5751f9d998e","system_id":"levelo_inurba_marseille","lat":43.30546,"lon":5.367,"is_reserved":false,"is_disabled":false,"rental_uris":{"android":"levelo://app?vid=223bcd1f-bde5-46f7-ab5f-e5751f9d998e","ios":"levelo://app?vid=223bcd1f-bde5-46f7-ab5f-e5751f9d998e"},"vehicle_type_id":"4","last_reported":1726467227,"current_range_meters":20800,"station_id":"ce4bgrp2rcd13ifvqc9g","pricing_plan_id":"cebpf4jnsgd1na2vs0mg"},{"bike_id":"b08950ba-02a0-46d4-8c68-863f0b3477e8","system_id":"levelo_inurba_marseille","lat":43.32477,"lon":5.36567,"is_reserved":false,"is_disabled":false,"rental_uris":{"android":"levelo://app?vid=b08950ba-02a0-46d4-8c68-863f0b3477e8","ios":"levelo://app?vid=b08950ba-02a0-46d4-8c68-863f0b3477e8"},"vehicle_type_id":"4","last_reported":1726467227,"current_range_meters":38000,"station_id":"ce4bhs12rcd13ifvqhvg","pricing_plan_id":"cebpf4jnsgd1na2vs0mg"},{"bike_id":"39631300-b771-4e23-bbdb-b2a1db467ce1","system_id":"levelo_inurba_marseille","lat":43.32366,"lon":5.3888,"is_reserved":false,"is_disabled":false,"rental_uris":{"android":"levelo://app?vid=39631300-b771-4e23-bbdb-b2a1db467ce1","ios":"levelo://app?vid=39631300-b771-4e23-bbdb-b2a1db467ce1"},"vehicle_type_id":"4","last_reported":1726467227,"current_range_meters":31200,"station_id":"ce4bhqp2rcd13ifvqhog","pricing_plan_id":"cebpf4jnsgd1na2vs0mg"},{"bike_id":"b645ac77-0d58-4fa9-8ad3-947af8bdb1d9","system_id":"levelo_inurba_marseille","lat":43.29899,"lon":5.4367,"is_reserved":false,"is_disabled":false,"rental_uris":{"android":"levelo://app?vid=b645ac77-0d58-4fa9-8ad3-947af8bdb1d9","ios":"levelo://app?vid=b645ac77-0d58-4fa9-8ad3-947af8bdb1d9"},"vehicle_type_id":"4","last_reported":1726467227,"current_range_meters":30000,"station_id":"ce4bhpp2rcd13ifvqhfg","pricing_plan_id":"cebpf4jnsgd1na2vs0mg"},{"bike_id":"03515e55-0de8-4f6d-953a-abbf71a9cce4","system_id":"levelo_inurba_marseille","lat":43.24075,"lon":5.37758,"is_reserved":false,"is_disabled":false,"rental_uris":{"android":"levelo://app?vid=03515e55-0de8-4f6d-953a-abbf71a9cce4","ios":"levelo://app?vid=03515e55-0de8-4f6d-953a-abbf71a9cce4"},"vehicle_type_id":"4","last_reported":1726467227,"current_range_meters":12400,"station_id":"ce4bhnp2rcd13ifvqgvg","pricing_plan_id":"cebpf4jnsgd1na2vs0mg"},{"bike_id":"8eebbc2d-5784-4769-8e34-9c2e86d3a7e6","system_id":"levelo_inurba_marseille","lat":43.29036,"lon":5.39977,"is_reserved":false,"is_disabled":false,"rental_uris":{"android":"levelo://app?vid=8eebbc2d-5784-4769-8e34-9c2e86d3a7e6","ios":"levelo://app?vid=8eebbc2d-5784-4769-8e34-9c2e86d3a7e6"},"vehicle_type_id":"4","last_reported":1726467227,"current_range_meters":13600,"station_id":"ce4bh392rcd13ifvqdm0","pricing_plan_id":"cebpf4jnsgd1na2vs0mg"},{"bike_id":"8e04ad42-4fb7-46a5-8bdd-901fc987436f","system_id":"levelo_inurba_marseille","lat":43.31035,"lon":5.3807,"is_reserved":false,"is_disabled":false,"rental_uris":{"android":"levelo://app?vid=8e04ad42-4fb7-46a5-8bdd-901fc987436f","ios":"levelo://app?vid=8e04ad42-4fb7-46a5-8bdd-901fc987436f"},"vehicle_type_id":"4","last_reported":1726467227,"current_range_meters":35200,"station_id":"","pricing_plan_id":"cebpf4jnsgd1na2vs0mg"},{"bike_id":"a9ef58bd-c145-4cb2-835a-84b3cf771872","system_id":"levelo_inurba_marseille","lat":43.29795,"lon":5.38099,"is_reserved":false,"is_disabled":false,"rental_uris":{"android":"levelo://app?vid=a9ef58bd-c145-4cb2-835a-84b3cf771872","ios":"levelo://app?vid=a9ef58bd-c145-4cb2-835a-84b3cf771872"},"vehicle_type_id":"4","last_reported":1726467227,"current_range_meters":35600,"station_id":"ce4bgip2rcd13ifvqbb0","pricing_plan_id":"cebpf4jnsgd1na2vs0mg"},{"bike_id":"ab5b987a-2481-4240-82cd-3ccd16d80177","system_id":"levelo_inurba_marseille","lat":43.30145,"lon":5.39867,"is_reserved":false,"is_disabled":false,"rental_uris":{"android":"levelo://app?vid=ab5b987a-2481-4240-82cd-3ccd16d80177","ios":"levelo://app?vid=ab5b987a-2481-4240-82cd-3ccd16d80177"},"vehicle_type_id":"4","last_reported":1726467227,"current_range_meters":4000,"station_id":"ce4bh0h2rcd13ifvqd40","pricing_plan_id":"cebpf4jnsgd1na2vs0mg"},{"bike_id":"402be0b8-686a-422a-8a20-0d7f85ead0da","system_id":"levelo_inurba_marseille","lat":43.310577,"lon":5.380738,"is_reserved":false,"is_disabled":false,"rental_uris":{"android":"levelo://app?vid=402be0b8-686a-422a-8a20-0d7f85ead0da","ios":"levelo://app?vid=402be0b8-686a-422a-8a20-0d7f85ead0da"},"vehicle_type_id":"4","last_reported":1726467227,"current_range_meters":25600,"station_id":"ce4bguh2rcd13ifvqckg","pricing_plan_id":"cebpf4jnsgd1na2vs0mg"},{"bike_id":"7abc2a25-404a-4f70-a7c0-c89315b5c4bc","system_id":"levelo_inurba_marseille","lat":43.29242,"lon":5.39928,"is_reserved":false,"is_disabled":false,"rental_uris":{"android":"levelo://app?vid=7abc2a25-404a-4f70-a7c0-c89315b5c4bc","ios":"levelo://app?vid=7abc2a25-404a-4f70-a7c0-c89315b5c4bc"},"vehicle_type_id":"4","last_reported":1726467227,"current_range_meters":28000,"station_id":"","pricing_plan_id":"cebpf4jnsgd1na2vs0mg"},{"bike_id":"677498c9-746b-4650-9a8e-2c7479635944","system_id":"levelo_inurba_marseille","lat":43.33022,"lon":5.3905,"is_reserved":false,"is_disabled":false,"rental_uris":{"android":"levelo://app?vid=677498c9-746b-4650-9a8e-2c7479635944","ios":"levelo://app?vid=677498c9-746b-4650-9a8e-2c7479635944"},"vehicle_type_id":"4","last_reported":1726467227,"current_range_meters":28400,"station_id":"ce4bhr92rcd13ifvqhrg","pricing_plan_id":"cebpf4jnsgd1na2vs0mg"},{"bike_id":"7c12df0e-dc72-46af-bd65-92de74c8bc7e","system_id":"levelo_inurba_marseille","lat":43.23156,"lon":5.4371,"is_reserved":false,"is_disabled":false,"rental_uris":{"android":"levelo://app?vid=7c12df0e-dc72-46af-bd65-92de74c8bc7e","ios":"levelo://app?vid=7c12df0e-dc72-46af-bd65-92de74c8bc7e"},"vehicle_type_id":"4","last_reported":1726467227,"current_range_meters":16000,"station_id":"ce4bhmp2rcd13ifvqgog","pricing_plan_id":"cebpf4jnsgd1na2vs0mg"},{"bike_id":"0c5268db-dfe0-4430-9479-92a45a7e6162","system_id":"levelo_inurba_marseille","lat":43.2938,"lon":5.37848,"is_reserved":false,"is_disabled":false,"rental_uris":{"android":"levelo://app?vid=0c5268db-dfe0-4430-9479-92a45a7e6162","ios":"levelo://app?vid=0c5268db-dfe0-4430-9479-92a45a7e6162"},"vehicle_type_id":"4","last_reported":1726467227,"current_range_meters":38800,"station_id":"ce4bgjh2rcd13ifvqbf0","pricing_plan_id":"cebpf4jnsgd1na2vs0mg"},{"bike_id":"3f5b63b5-9f49-4a52-a4be-0b706a026622","system_id":"levelo_inurba_marseille","lat":43.33027,"lon":5.39045,"is_reserved":false,"is_disabled":false,"rental_uris":{"android":"levelo://app?vid=3f5b63b5-9f49-4a52-a4be-0b706a026622","ios":"levelo://app?vid=3f5b63b5-9f49-4a52-a4be-0b706a026622"},"vehicle_type_id":"4","last_reported":1726467227,"current_range_meters":38800,"station_id":"ce4bhr92rcd13ifvqhrg","pricing_plan_id":"cebpf4jnsgd1na2vs0mg"},{"bike_id":"7e84a3ad-b6e2-47cb-a879-414e01b71399","system_id":"levelo_inurba_marseille","lat":43.27496,"lon":5.42449,"is_reserved":false,"is_disabled":false,"rental_uris":{"android":"levelo://app?vid=7e84a3ad-b6e2-47cb-a879-414e01b71399","ios":"levelo://app?vid=7e84a3ad-b6e2-47cb-a879-414e01b71399"},"vehicle_type_id":"4","last_reported":1726467227,"current_range_meters":36800,"station_id":"ce4bhn92rcd13ifvqgrg","pricing_plan_id":"cebpf4jnsgd1na2vs0mg"},{"bike_id":"c0042362-d76e-412e-8000-c06d63ef023d","system_id":"levelo_inurba_marseille","lat":43.29052,"lon":5.35914,"is_reserved":false,"is_disabled":false,"rental_uris":{"android":"levelo://app?vid=c0042362-d76e-412e-8000-c06d63ef023d","ios":"levelo://app?vid=c0042362-d76e-412e-8000-c06d63ef023d"},"vehicle_type_id":"4","last_reported":1726467227,"current_range_meters":38000,"station_id":"ce4bha92rcd13ifvqeg0","pricing_plan_id":"cebpf4jnsgd1na2vs0mg"},{"bike_id":"3bb5d2ce-174d-43dc-bb1b-a92d04845a29","system_id":"levelo_inurba_marseille","lat":43.31119,"lon":5.3778,"is_reserved":false,"is_disabled":false,"rental_uris":{"android":"levelo://app?vid=3bb5d2ce-174d-43dc-bb1b-a92d04845a29","ios":"levelo://app?vid=3bb5d2ce-174d-43dc-bb1b-a92d04845a29"},"vehicle_type_id":"4","last_reported":1726467227,"current_range_meters":9600,"station_id":"ce4bgt92rcd13ifvqcg0","pricing_plan_id":"cebpf4jnsgd1na2vs0mg"},{"bike_id":"3540bcdf-cf57-41b9-9163-5f5aeb577896","system_id":"levelo_inurba_marseille","lat":43.27381,"lon":5.36257,"is_reserved":false,"is_disabled":false,"rental_uris":{"android":"levelo://app?vid=3540bcdf-cf57-41b9-9163-5f5aeb577896","ios":"levelo://app?vid=3540bcdf-cf57-41b9-9163-5f5aeb577896"},"vehicle_type_id":"4","last_reported":1726467227,"current_range_meters":38000,"station_id":"ce4bhbh2rcd13ifvqeo0","pricing_plan_id":"cebpf4jnsgd1na2vs0mg"},{"bike_id":"e74ed122-c5ce-4707-9c5a-b01906b5ab8a","system_id":"levelo_inurba_marseille","lat":43.269342,"lon":5.389113,"is_reserved":false,"is_disabled":false,"rental_uris":{"android":"levelo://app?vid=e74ed122-c5ce-4707-9c5a-b01906b5ab8a","ios":"levelo://app?vid=e74ed122-c5ce-4707-9c5a-b01906b5ab8a"},"vehicle_type_id":"4","last_reported":1726467227,"current_range_meters":28800,"station_id":"ce4bhhh2rcd13ifvqfl0","pricing_plan_id":"cebpf4jnsgd1na2vs0mg"},{"bike_id":"05128204-7475-4978-ada7-4b9b3aaae58e","system_id":"levelo_inurba_marseille","lat":43.24668,"lon":5.38168,"is_reserved":false,"is_disabled":false,"rental_uris":{"android":"levelo://app?vid=05128204-7475-4978-ada7-4b9b3aaae58e","ios":"levelo://app?vid=05128204-7475-4978-ada7-4b9b3aaae58e"},"vehicle_type_id":"4","last_reported":1726467227,"current_range_meters":38800,"station_id":"ce4bhih2rcd13ifvqfr0","pricing_plan_id":"cebpf4jnsgd1na2vs0mg"},{"bike_id":"2111a376-953e-4819-884c-ca959235108d","system_id":"levelo_inurba_marseille","lat":43.30216,"lon":5.39467,"is_reserved":false,"is_disabled":false,"rental_uris":{"android":"levelo://app?vid=2111a376-953e-4819-884c-ca959235108d","ios":"levelo://app?vid=2111a376-953e-4819-884c-ca959235108d"},"vehicle_type_id":"4","last_reported":1726467227,"current_range_meters":38000,"station_id":"ce4bh0p2rcd13ifvqd70","pricing_plan_id":"cebpf4jnsgd1na2vs0mg"},{"bike_id":"93783884-b83c-4b81-963e-2e2708032bf5","system_id":"levelo_inurba_marseille","lat":43.25122,"lon":5.40315,"is_reserved":false,"is_disabled":false,"rental_uris":{"android":"levelo://app?vid=93783884-b83c-4b81-963e-2e2708032bf5","ios":"levelo://app?vid=93783884-b83c-4b81-963e-2e2708032bf5"},"vehicle_type_id":"4","last_reported":1726467227,"current_range_meters":38800,"station_id":"ce4bhlh2rcd13ifvqgig","pricing_plan_id":"cebpf4jnsgd1na2vs0mg"},{"bike_id":"d026a83b-f22d-4a8c-b2f2-7730a6b16272","system_id":"levelo_inurba_marseille","lat":43.23153,"lon":5.43722,"is_reserved":false,"is_disabled":false,"rental_uris":{"android":"levelo://app?vid=d026a83b-f22d-4a8c-b2f2-7730a6b16272","ios":"levelo://app?vid=d026a83b-f22d-4a8c-b2f2-7730a6b16272"},"vehicle_type_id":"4","last_reported":1726467227,"current_range_meters":5600,"station_id":"ce4bhmp2rcd13ifvqgog","pricing_plan_id":"cebpf4jnsgd1na2vs0mg"},{"bike_id":"d0428007-234d-4ac1-9880-363777a69845","system_id":"levelo_inurba_marseille","lat":43.33728,"lon":5.39183,"is_reserved":false,"is_disabled":false,"rental_uris":{"android":"levelo://app?vid=d0428007-234d-4ac1-9880-363777a69845","ios":"levelo://app?vid=d0428007-234d-4ac1-9880-363777a69845"},"vehicle_type_id":"4","last_reported":1726467227,"current_range_meters":37600,"station_id":"ce4bhr92rcd13ifvqhsg","pricing_plan_id":"cebpf4jnsgd1na2vs0mg"},{"bike_id":"9bcd9515-5b0d-416e-9e63-439f0684645a","system_id":"levelo_inurba_marseille","lat":43.30587,"lon":5.39352,"is_reserved":false,"is_disabled":false,"rental_uris":{"android":"levelo://app?vid=9bcd9515-5b0d-416e-9e63-439f0684645a","ios":"levelo://app?vid=9bcd9515-5b0d-416e-9e63-439f0684645a"},"vehicle_type_id":"4","last_reported":1726467227,"current_range_meters":35600,"station_id":"ce4bh0p2rcd13ifvqd80","pricing_plan_id":"cebpf4jnsgd1na2vs0mg"},{"bike_id":"da5fb52e-c1cc-413a-a035-839b0161708e","system_id":"levelo_inurba_marseille","lat":43.29039,"lon":5.39982,"is_reserved":false,"is_disabled":false,"rental_uris":{"android":"levelo://app?vid=da5fb52e-c1cc-413a-a035-839b0161708e","ios":"levelo://app?vid=da5fb52e-c1cc-413a-a035-839b0161708e"},"vehicle_type_id":"4","last_reported":1726467227,"current_range_meters":20000,"station_id":"ce4bh392rcd13ifvqdm0","pricing_plan_id":"cebpf4jnsgd1na2vs0mg"},{"bike_id":"e26cdc24-c624-4d47-b139-36e9c5ec5975","system_id":"levelo_inurba_marseille","lat":43.28579,"lon":5.39496,"is_reserved":false,"is_disabled":false,"rental_uris":{"android":"levelo://app?vid=e26cdc24-c624-4d47-b139-36e9c5ec5975","ios":"levelo://app?vid=e26cdc24-c624-4d47-b139-36e9c5ec5975"},"vehicle_type_id":"4","last_reported":1726467227,"current_range_meters":38800,"station_id":"ce4bh292rcd13ifvqdg0","pricing_plan_id":"cebpf4jnsgd1na2vs0mg"},{"bike_id":"99684f50-b398-427b-a4e9-7ca0a0382c79","system_id":"levelo_inurba_marseille","lat":43.23198,"lon":5.35551,"is_reserved":false,"is_disabled":false,"rental_uris":{"android":"levelo://app?vid=99684f50-b398-427b-a4e9-7ca0a0382c79","ios":"levelo://app?vid=99684f50-b398-427b-a4e9-7ca0a0382c79"},"vehicle_type_id":"4","last_reported":1726467227,"current_range_meters":38800,"station_id":"ce4bhu92rcd13ifvqi70","pricing_plan_id":"cebpf4jnsgd1na2vs0mg"},{"bike_id":"765e5c0b-1005-459e-be03-72e554c82b68","system_id":"levelo_inurba_marseille","lat":43.28041,"lon":5.3694,"is_reserved":false,"is_disabled":false,"rental_uris":{"android":"levelo://app?vid=765e5c0b-1005-459e-be03-72e554c82b68","ios":"levelo://app?vid=765e5c0b-1005-459e-be03-72e554c82b68"},"vehicle_type_id":"4","last_reported":1726467227,"current_range_meters":29600,"station_id":"ce4bha12rcd13ifvqef0","pricing_plan_id":"cebpf4jnsgd1na2vs0mg"},{"bike_id":"95f7dece-e609-4224-95c9-2b225df4086c","system_id":"levelo_inurba_marseille","lat":43.27985,"lon":5.41651,"is_reserved":false,"is_disabled":false,"rental_uris":{"android":"levelo://app?vid=95f7dece-e609-4224-95c9-2b225df4086c","ios":"levelo://app?vid=95f7dece-e609-4224-95c9-2b225df4086c"},"vehicle_type_id":"4","last_reported":1726467227,"current_range_meters":24800,"station_id":"ce4bho12rcd13ifvqh1g","pricing_plan_id":"cebpf4jnsgd1na2vs0mg"},{"bike_id":"28252d30-7a05-454e-9870-610a52d23e7d","system_id":"levelo_inurba_marseille","lat":43.30157,"lon":5.38076,"is_reserved":false,"is_disabled":false,"rental_uris":{"android":"levelo://app?vid=28252d30-7a05-454e-9870-610a52d23e7d","ios":"levelo://app?vid=28252d30-7a05-454e-9870-610a52d23e7d"},"vehicle_type_id":"4","last_reported":1726467227,"current_range_meters":5600,"station_id":"ce4bgjp2rcd13ifvqbh0","pricing_plan_id":"cebpf4jnsgd1na2vs0mg"},{"bike_id":"3709e871-70a4-471a-a01b-eee384645ff0","system_id":"levelo_inurba_marseille","lat":43.31723,"lon":5.42401,"is_reserved":false,"is_disabled":false,"rental_uris":{"android":"levelo://app?vid=3709e871-70a4-471a-a01b-eee384645ff0","ios":"levelo://app?vid=3709e871-70a4-471a-a01b-eee384645ff0"},"vehicle_type_id":"4","last_reported":1726467227,"current_range_meters":37600,"station_id":"ce4bhp92rcd13ifvqhbg","pricing_plan_id":"cebpf4jnsgd1na2vs0mg"},{"bike_id":"94efd957-5f21-494c-968c-c8fef795b8d6","system_id":"levelo_inurba_marseille","lat":43.31497,"lon":5.37307,"is_reserved":false,"is_disabled":false,"rental_uris":{"android":"levelo://app?vid=94efd957-5f21-494c-968c-c8fef795b8d6","ios":"levelo://app?vid=94efd957-5f21-494c-968c-c8fef795b8d6"},"vehicle_type_id":"4","last_reported":1726467227,"current_range_meters":38800,"station_id":"ce4bgt12rcd13ifvqcd0","pricing_plan_id":"cebpf4jnsgd1na2vs0mg"},{"bike_id":"34b1b949-69b8-4b19-a397-51b9a63abac3","system_id":"levelo_inurba_marseille","lat":43.24076,"lon":5.37759,"is_reserved":false,"is_disabled":false,"rental_uris":{"android":"levelo://app?vid=34b1b949-69b8-4b19-a397-51b9a63abac3","ios":"levelo://app?vid=34b1b949-69b8-4b19-a397-51b9a63abac3"},"vehicle_type_id":"4","last_reported":1726467227,"current_range_meters":5600,"station_id":"ce4bhnp2rcd13ifvqgvg","pricing_plan_id":"cebpf4jnsgd1na2vs0mg"},{"bike_id":"cb876a90-c846-4be0-ac9c-fb932ef5a75e","system_id":"levelo_inurba_marseille","lat":43.286948,"lon":5.373791,"is_reserved":false,"is_disabled":false,"rental_uris":{"android":"levelo://app?vid=cb876a90-c846-4be0-ac9c-fb932ef5a75e","ios":"levelo://app?vid=cb876a90-c846-4be0-ac9c-fb932ef5a75e"},"vehicle_type_id":"4","last_reported":1726467227,"current_range_meters":37600,"station_id":"ce4bh3p2rcd13ifvqdq0","pricing_plan_id":"cebpf4jnsgd1na2vs0mg"},{"bike_id":"1e54f664-623d-4b0d-9f47-e0922c9c7681","system_id":"levelo_inurba_marseille","lat":43.25938,"lon":5.40897,"is_reserved":false,"is_disabled":false,"rental_uris":{"android":"levelo://app?vid=1e54f664-623d-4b0d-9f47-e0922c9c7681","ios":"levelo://app?vid=1e54f664-623d-4b0d-9f47-e0922c9c7681"},"vehicle_type_id":"4","last_reported":1726467227,"current_range_meters":2800,"station_id":"ce4bhm92rcd13ifvqglg","pricing_plan_id":"cebpf4jnsgd1na2vs0mg"},{"bike_id":"c1fcd153-5567-4765-9736-73a42ed0d935","system_id":"levelo_inurba_marseille","lat":43.336132,"lon":5.410369,"is_reserved":false,"is_disabled":false,"rental_uris":{"android":"levelo://app?vid=c1fcd153-5567-4765-9736-73a42ed0d935","ios":"levelo://app?vid=c1fcd153-5567-4765-9736-73a42ed0d935"},"vehicle_type_id":"4","last_reported":1726467227,"current_range_meters":22800,"station_id":"ce4bhqh2rcd13ifvqhmg","pricing_plan_id":"cebpf4jnsgd1na2vs0mg"},{"bike_id":"819f609f-f79c-4385-9393-8a6179dde0bc","system_id":"levelo_inurba_marseille","lat":43.25822,"lon":5.39439,"is_reserved":false,"is_disabled":false,"rental_uris":{"android":"levelo://app?vid=819f609f-f79c-4385-9393-8a6179dde0bc","ios":"levelo://app?vid=819f609f-f79c-4385-9393-8a6179dde0bc"},"vehicle_type_id":"4","last_reported":1726467227,"current_range_meters":20800,"station_id":"ce4bhip2rcd13ifvqft0","pricing_plan_id":"cebpf4jnsgd1na2vs0mg"},{"bike_id":"0e98f397-eb8c-4ee5-9736-af522724e3e1","system_id":"levelo_inurba_marseille","lat":43.30955,"lon":5.390335,"is_reserved":false,"is_disabled":false,"rental_uris":{"android":"levelo://app?vid=0e98f397-eb8c-4ee5-9736-af522724e3e1","ios":"levelo://app?vid=0e98f397-eb8c-4ee5-9736-af522724e3e1"},"vehicle_type_id":"4","last_reported":1726467227,"current_range_meters":27600,"station_id":"","pricing_plan_id":"cebpf4jnsgd1na2vs0mg"},{"bike_id":"56dd57e1-406a-47f3-8427-644759b5da24","system_id":"levelo_inurba_marseille","lat":43.29035,"lon":5.3996,"is_reserved":false,"is_disabled":false,"rental_uris":{"android":"levelo://app?vid=56dd57e1-406a-47f3-8427-644759b5da24","ios":"levelo://app?vid=56dd57e1-406a-47f3-8427-644759b5da24"},"vehicle_type_id":"4","last_reported":1726467227,"current_range_meters":30800,"station_id":"ce4bh392rcd13ifvqdm0","pricing_plan_id":"cebpf4jnsgd1na2vs0mg"},{"bike_id":"0a2e1c3b-f8e0-4541-91a6-a4751989ba76","system_id":"levelo_inurba_marseille","lat":43.313273,"lon":5.367598,"is_reserved":false,"is_disabled":false,"rental_uris":{"android":"levelo://app?vid=0a2e1c3b-f8e0-4541-91a6-a4751989ba76","ios":"levelo://app?vid=0a2e1c3b-f8e0-4541-91a6-a4751989ba76"},"vehicle_type_id":"4","last_reported":1726467227,"current_range_meters":33200,"station_id":"ce4bgr92rcd13ifvqc6g","pricing_plan_id":"cebpf4jnsgd1na2vs0mg"},{"bike_id":"077814f0-6eb3-4aae-8692-09461da36e8a","system_id":"levelo_inurba_marseille","lat":43.28714,"lon":5.37926,"is_reserved":false,"is_disabled":false,"rental_uris":{"android":"levelo://app?vid=077814f0-6eb3-4aae-8692-09461da36e8a","ios":"levelo://app?vid=077814f0-6eb3-4aae-8692-09461da36e8a"},"vehicle_type_id":"4","last_reported":1726467227,"current_range_meters":24400,"station_id":"ce4bh9p2rcd13ifvqec0","pricing_plan_id":"cebpf4jnsgd1na2vs0mg"},{"bike_id":"b3a4329d-64e1-4178-b5c3-7a6ee2ba0361","system_id":"levelo_inurba_marseille","lat":43.27906,"lon":5.3802,"is_reserved":false,"is_disabled":false,"rental_uris":{"android":"levelo://app?vid=b3a4329d-64e1-4178-b5c3-7a6ee2ba0361","ios":"levelo://app?vid=b3a4329d-64e1-4178-b5c3-7a6ee2ba0361"},"vehicle_type_id":"4","last_reported":1726467227,"current_range_meters":22000,"station_id":"ce4bhf92rcd13ifvqf50","pricing_plan_id":"cebpf4jnsgd1na2vs0mg"},{"bike_id":"1d36a54e-eaf9-49af-8163-8dca50a71551","system_id":"levelo_inurba_marseille","lat":43.29287,"lon":5.40126,"is_reserved":false,"is_disabled":false,"rental_uris":{"android":"levelo://app?vid=1d36a54e-eaf9-49af-8163-8dca50a71551","ios":"levelo://app?vid=1d36a54e-eaf9-49af-8163-8dca50a71551"},"vehicle_type_id":"4","last_reported":1726467227,"current_range_meters":34800,"station_id":"ce4bh312rcd13ifvqdk0","pricing_plan_id":"cebpf4jnsgd1na2vs0mg"},{"bike_id":"c3bb106d-267f-4c7d-84e0-1a6378204a6c","system_id":"levelo_inurba_marseille","lat":43.29557,"lon":5.42292,"is_reserved":false,"is_disabled":false,"rental_uris":{"android":"levelo://app?vid=c3bb106d-267f-4c7d-84e0-1a6378204a6c","ios":"levelo://app?vid=c3bb106d-267f-4c7d-84e0-1a6378204a6c"},"vehicle_type_id":"4","last_reported":1726467227,"current_range_meters":38400,"station_id":"ce4bhph2rcd13ifvqhdg","pricing_plan_id":"cebpf4jnsgd1na2vs0mg"},{"bike_id":"be6a7145-0791-40f8-a3e4-321fb362448d","system_id":"levelo_inurba_marseille","lat":43.27494,"lon":5.4245,"is_reserved":false,"is_disabled":false,"rental_uris":{"android":"levelo://app?vid=be6a7145-0791-40f8-a3e4-321fb362448d","ios":"levelo://app?vid=be6a7145-0791-40f8-a3e4-321fb362448d"},"vehicle_type_id":"4","last_reported":1726467227,"current_range_meters":5600,"station_id":"ce4bhn92rcd13ifvqgrg","pricing_plan_id":"cebpf4jnsgd1na2vs0mg"},{"bike_id":"a7465c13-496b-4f35-a988-eb86d7c3845f","system_id":"levelo_inurba_marseille","lat":43.30146,"lon":5.38077,"is_reserved":false,"is_disabled":false,"rental_uris":{"android":"levelo://app?vid=a7465c13-496b-4f35-a988-eb86d7c3845f","ios":"levelo://app?vid=a7465c13-496b-4f35-a988-eb86d7c3845f"},"vehicle_type_id":"4","last_reported":1726467227,"current_range_meters":38800,"station_id":"ce4bgjp2rcd13ifvqbh0","pricing_plan_id":"cebpf4jnsgd1na2vs0mg"},{"bike_id":"3577277c-568a-462e-bd85-1481d47512c9","system_id":"levelo_inurba_marseille","lat":43.30488,"lon":5.37531,"is_reserved":false,"is_disabled":false,"rental_uris":{"android":"levelo://app?vid=3577277c-568a-462e-bd85-1481d47512c9","ios":"levelo://app?vid=3577277c-568a-462e-bd85-1481d47512c9"},"vehicle_type_id":"4","last_reported":1726467227,"current_range_meters":24000,"station_id":"ce4bgup2rcd13ifvqcn0","pricing_plan_id":"cebpf4jnsgd1na2vs0mg"},{"bike_id":"2d0788e2-f911-4f52-9476-653f8e7ad582","system_id":"levelo_inurba_marseille","lat":43.27493,"lon":5.42451,"is_reserved":false,"is_disabled":false,"rental_uris":{"android":"levelo://app?vid=2d0788e2-f911-4f52-9476-653f8e7ad582","ios":"levelo://app?vid=2d0788e2-f911-4f52-9476-653f8e7ad582"},"vehicle_type_id":"4","last_reported":1726467227,"current_range_meters":14400,"station_id":"ce4bhn92rcd13ifvqgrg","pricing_plan_id":"cebpf4jnsgd1na2vs0mg"},{"bike_id":"963be3bf-c0b8-4a11-aaff-3bbb65bf021e","system_id":"levelo_inurba_marseille","lat":43.31708,"lon":5.37757,"is_reserved":false,"is_disabled":false,"rental_uris":{"android":"levelo://app?vid=963be3bf-c0b8-4a11-aaff-3bbb65bf021e","ios":"levelo://app?vid=963be3bf-c0b8-4a11-aaff-3bbb65bf021e"},"vehicle_type_id":"4","last_reported":1726467227,"current_range_meters":11200,"station_id":"ce4bgth2rcd13ifvqch0","pricing_plan_id":"cebpf4jnsgd1na2vs0mg"},{"bike_id":"6ad2fe94-195b-4d58-9ac6-d3a9675a4c80","system_id":"levelo_inurba_marseille","lat":43.23063,"lon":5.3549,"is_reserved":false,"is_disabled":false,"rental_uris":{"android":"levelo://app?vid=6ad2fe94-195b-4d58-9ac6-d3a9675a4c80","ios":"levelo://app?vid=6ad2fe94-195b-4d58-9ac6-d3a9675a4c80"},"vehicle_type_id":"4","last_reported":1726467227,"current_range_meters":17600,"station_id":"cpo3342slgdg3j2ifvpg","pricing_plan_id":"cebpf4jnsgd1na2vs0mg"},{"bike_id":"6dd17a2f-59bb-4453-859d-2c09ab795824","system_id":"levelo_inurba_marseille","lat":43.33021,"lon":5.39047,"is_reserved":false,"is_disabled":false,"rental_uris":{"android":"levelo://app?vid=6dd17a2f-59bb-4453-859d-2c09ab795824","ios":"levelo://app?vid=6dd17a2f-59bb-4453-859d-2c09ab795824"},"vehicle_type_id":"4","last_reported":1726467227,"current_range_meters":38000,"station_id":"ce4bhr92rcd13ifvqhrg","pricing_plan_id":"cebpf4jnsgd1na2vs0mg"},{"bike_id":"ed395158-49bb-4ed0-a30f-caaeb4a15a1c","system_id":"levelo_inurba_marseille","lat":43.24076,"lon":5.37743,"is_reserved":false,"is_disabled":false,"rental_uris":{"android":"levelo://app?vid=ed395158-49bb-4ed0-a30f-caaeb4a15a1c","ios":"levelo://app?vid=ed395158-49bb-4ed0-a30f-caaeb4a15a1c"},"vehicle_type_id":"4","last_reported":1726467227,"current_range_meters":9200,"station_id":"ce4bhnp2rcd13ifvqgvg","pricing_plan_id":"cebpf4jnsgd1na2vs0mg"},{"bike_id":"be70b63a-c764-4fe4-944c-ea7e338d1412","system_id":"levelo_inurba_marseille","lat":43.26209,"lon":5.37925,"is_reserved":false,"is_disabled":false,"rental_uris":{"android":"levelo://app?vid=be70b63a-c764-4fe4-944c-ea7e338d1412","ios":"levelo://app?vid=be70b63a-c764-4fe4-944c-ea7e338d1412"},"vehicle_type_id":"4","last_reported":1726467227,"current_range_meters":36400,"station_id":"ce4bhjp2rcd13ifvqg90","pricing_plan_id":"cebpf4jnsgd1na2vs0mg"},{"bike_id":"025a6219-c78e-4d2c-ad74-62f64ed129a4","system_id":"levelo_inurba_marseille","lat":43.3052,"lon":5.38294,"is_reserved":false,"is_disabled":false,"rental_uris":{"android":"levelo://app?vid=025a6219-c78e-4d2c-ad74-62f64ed129a4","ios":"levelo://app?vid=025a6219-c78e-4d2c-ad74-62f64ed129a4"},"vehicle_type_id":"4","last_reported":1726467227,"current_range_meters":34800,"station_id":"ce4bgup2rcd13ifvqcn0","pricing_plan_id":"cebpf4jnsgd1na2vs0mg"},{"bike_id":"2a0e223c-8ce8-44e3-bbe9-cef12f58c9b6","system_id":"levelo_inurba_marseille","lat":43.28358,"lon":5.38647,"is_reserved":false,"is_disabled":false,"rental_uris":{"android":"levelo://app?vid=2a0e223c-8ce8-44e3-bbe9-cef12f58c9b6","ios":"levelo://app?vid=2a0e223c-8ce8-44e3-bbe9-cef12f58c9b6"},"vehicle_type_id":"4","last_reported":1726467227,"current_range_meters":38800,"station_id":"ce4bh492rcd13ifvqdvg","pricing_plan_id":"cebpf4jnsgd1na2vs0mg"},{"bike_id":"14deafc5-a716-454d-858f-d4247d57d26c","system_id":"levelo_inurba_marseille","lat":43.33608,"lon":5.41027,"is_reserved":false,"is_disabled":false,"rental_uris":{"android":"levelo://app?vid=14deafc5-a716-454d-858f-d4247d57d26c","ios":"levelo://app?vid=14deafc5-a716-454d-858f-d4247d57d26c"},"vehicle_type_id":"4","last_reported":1726467227,"current_range_meters":34000,"station_id":"ce4bhqh2rcd13ifvqhmg","pricing_plan_id":"cebpf4jnsgd1na2vs0mg"},{"bike_id":"354ca7f6-13a5-4117-9386-dbeabc33ce1c","system_id":"levelo_inurba_marseille","lat":43.27496,"lon":5.42449,"is_reserved":false,"is_disabled":false,"rental_uris":{"android":"levelo://app?vid=354ca7f6-13a5-4117-9386-dbeabc33ce1c","ios":"levelo://app?vid=354ca7f6-13a5-4117-9386-dbeabc33ce1c"},"vehicle_type_id":"4","last_reported":1726467227,"current_range_meters":30800,"station_id":"ce4bhn92rcd13ifvqgrg","pricing_plan_id":"cebpf4jnsgd1na2vs0mg"},{"bike_id":"969c4665-58e5-4282-90e4-5f077592e63c","system_id":"levelo_inurba_marseille","lat":43.30154,"lon":5.38083,"is_reserved":false,"is_disabled":false,"rental_uris":{"android":"levelo://app?vid=969c4665-58e5-4282-90e4-5f077592e63c","ios":"levelo://app?vid=969c4665-58e5-4282-90e4-5f077592e63c"},"vehicle_type_id":"4","last_reported":1726467227,"current_range_meters":36400,"station_id":"ce4bgjp2rcd13ifvqbh0","pricing_plan_id":"cebpf4jnsgd1na2vs0mg"},{"bike_id":"2a29b635-860d-4fcf-b9ef-7b9429843b40","system_id":"levelo_inurba_marseille","lat":43.31722,"lon":5.42396,"is_reserved":false,"is_disabled":false,"rental_uris":{"android":"levelo://app?vid=2a29b635-860d-4fcf-b9ef-7b9429843b40","ios":"levelo://app?vid=2a29b635-860d-4fcf-b9ef-7b9429843b40"},"vehicle_type_id":"4","last_reported":1726467227,"current_range_meters":33600,"station_id":"ce4bhp92rcd13ifvqhbg","pricing_plan_id":"cebpf4jnsgd1na2vs0mg"},{"bike_id":"0df5099f-c55f-4971-aa72-62a0105d3f50","system_id":"levelo_inurba_marseille","lat":43.29173,"lon":5.37146,"is_reserved":false,"is_disabled":false,"rental_uris":{"android":"levelo://app?vid=0df5099f-c55f-4971-aa72-62a0105d3f50","ios":"levelo://app?vid=0df5099f-c55f-4971-aa72-62a0105d3f50"},"vehicle_type_id":"4","last_reported":1726467227,"current_range_meters":38800,"station_id":"ce4bha92rcd13ifvqeh0","pricing_plan_id":"cebpf4jnsgd1na2vs0mg"},{"bike_id":"07a83925-dfef-4b2a-93ed-dfa02e7819ee","system_id":"levelo_inurba_marseille","lat":43.34143,"lon":5.409,"is_reserved":false,"is_disabled":false,"rental_uris":{"android":"levelo://app?vid=07a83925-dfef-4b2a-93ed-dfa02e7819ee","ios":"levelo://app?vid=07a83925-dfef-4b2a-93ed-dfa02e7819ee"},"vehicle_type_id":"4","last_reported":1726467227,"current_range_meters":28000,"station_id":"ce4bhqh2rcd13ifvqhlg","pricing_plan_id":"cebpf4jnsgd1na2vs0mg"},{"bike_id":"eb553e18-cacc-4a00-9e08-8a54da33c04e","system_id":"levelo_inurba_marseille","lat":43.30134,"lon":5.39862,"is_reserved":false,"is_disabled":false,"rental_uris":{"android":"levelo://app?vid=eb553e18-cacc-4a00-9e08-8a54da33c04e","ios":"levelo://app?vid=eb553e18-cacc-4a00-9e08-8a54da33c04e"},"vehicle_type_id":"4","last_reported":1726467227,"current_range_meters":38400,"station_id":"ce4bh0h2rcd13ifvqd40","pricing_plan_id":"cebpf4jnsgd1na2vs0mg"},{"bike_id":"5e82d872-2667-437e-a0a1-fa2441866d0a","system_id":"levelo_inurba_marseille","lat":43.3012,"lon":5.39881,"is_reserved":false,"is_disabled":false,"rental_uris":{"android":"levelo://app?vid=5e82d872-2667-437e-a0a1-fa2441866d0a","ios":"levelo://app?vid=5e82d872-2667-437e-a0a1-fa2441866d0a"},"vehicle_type_id":"4","last_reported":1726467227,"current_range_meters":8000,"station_id":"ce4bh0h2rcd13ifvqd40","pricing_plan_id":"cebpf4jnsgd1na2vs0mg"},{"bike_id":"a6d8bde0-f131-4561-b946-08445d5104f4","system_id":"levelo_inurba_marseille","lat":43.34141,"lon":5.40908,"is_reserved":false,"is_disabled":false,"rental_uris":{"android":"levelo://app?vid=a6d8bde0-f131-4561-b946-08445d5104f4","ios":"levelo://app?vid=a6d8bde0-f131-4561-b946-08445d5104f4"},"vehicle_type_id":"4","last_reported":1726467227,"current_range_meters":35200,"station_id":"ce4bhqh2rcd13ifvqhlg","pricing_plan_id":"cebpf4jnsgd1na2vs0mg"},{"bike_id":"ceed8f7f-9b48-48f4-941f-e2fac2b68b05","system_id":"levelo_inurba_marseille","lat":43.31275,"lon":5.40164,"is_reserved":false,"is_disabled":false,"rental_uris":{"android":"levelo://app?vid=ceed8f7f-9b48-48f4-941f-e2fac2b68b05","ios":"levelo://app?vid=ceed8f7f-9b48-48f4-941f-e2fac2b68b05"},"vehicle_type_id":"4","last_reported":1726467227,"current_range_meters":3600,"station_id":"","pricing_plan_id":"cebpf4jnsgd1na2vs0mg"},{"bike_id":"65eecb51-7024-4f30-af20-d65f809bce2b","system_id":"levelo_inurba_marseille","lat":43.31561,"lon":5.39254,"is_reserved":false,"is_disabled":false,"rental_uris":{"android":"levelo://app?vid=65eecb51-7024-4f30-af20-d65f809bce2b","ios":"levelo://app?vid=65eecb51-7024-4f30-af20-d65f809bce2b"},"vehicle_type_id":"4","last_reported":1726467227,"current_range_meters":14800,"station_id":"ce4bgvp2rcd13ifvqcu0","pricing_plan_id":"cebpf4jnsgd1na2vs0mg"},{"bike_id":"15e1280a-7d7e-4893-8cd4-18a7219c802d","system_id":"levelo_inurba_marseille","lat":43.29804,"lon":5.38097,"is_reserved":false,"is_disabled":false,"rental_uris":{"android":"levelo://app?vid=15e1280a-7d7e-4893-8cd4-18a7219c802d","ios":"levelo://app?vid=15e1280a-7d7e-4893-8cd4-18a7219c802d"},"vehicle_type_id":"4","last_reported":1726467227,"current_range_meters":35200,"station_id":"ce4bgip2rcd13ifvqbb0","pricing_plan_id":"cebpf4jnsgd1na2vs0mg"},{"bike_id":"d13330bb-66ab-42c4-9101-22a542a335d2","system_id":"levelo_inurba_marseille","lat":43.26682,"lon":5.38267,"is_reserved":false,"is_disabled":false,"rental_uris":{"android":"levelo://app?vid=d13330bb-66ab-42c4-9101-22a542a335d2","ios":"levelo://app?vid=d13330bb-66ab-42c4-9101-22a542a335d2"},"vehicle_type_id":"4","last_reported":1726467227,"current_range_meters":38800,"station_id":"ce4bhg92rcd13ifvqf90","pricing_plan_id":"cebpf4jnsgd1na2vs0mg"},{"bike_id":"50deafc8-acbf-4a9d-b8f2-72d17760fdf0","system_id":"levelo_inurba_marseille","lat":43.27497,"lon":5.42451,"is_reserved":false,"is_disabled":false,"rental_uris":{"android":"levelo://app?vid=50deafc8-acbf-4a9d-b8f2-72d17760fdf0","ios":"levelo://app?vid=50deafc8-acbf-4a9d-b8f2-72d17760fdf0"},"vehicle_type_id":"4","last_reported":1726467227,"current_range_meters":2800,"station_id":"ce4bhn92rcd13ifvqgrg","pricing_plan_id":"cebpf4jnsgd1na2vs0mg"},{"bike_id":"b5a32761-907b-43d9-87b6-bcd84e8dcd45","system_id":"levelo_inurba_marseille","lat":43.24545,"lon":5.39523,"is_reserved":false,"is_disabled":false,"rental_uris":{"android":"levelo://app?vid=b5a32761-907b-43d9-87b6-bcd84e8dcd45","ios":"levelo://app?vid=b5a32761-907b-43d9-87b6-bcd84e8dcd45"},"vehicle_type_id":"4","last_reported":1726467227,"current_range_meters":32000,"station_id":"ce4bhlp2rcd13ifvqgjg","pricing_plan_id":"cebpf4jnsgd1na2vs0mg"},{"bike_id":"d1f38fcd-be46-4877-a9ac-34b365272c30","system_id":"levelo_inurba_marseille","lat":43.27099,"lon":5.43323,"is_reserved":false,"is_disabled":false,"rental_uris":{"android":"levelo://app?vid=d1f38fcd-be46-4877-a9ac-34b365272c30","ios":"levelo://app?vid=d1f38fcd-be46-4877-a9ac-34b365272c30"},"vehicle_type_id":"4","last_reported":1726467227,"current_range_meters":10000,"station_id":"","pricing_plan_id":"cebpf4jnsgd1na2vs0mg"},{"bike_id":"666724b8-3273-4efd-a0fc-60e528f5525e","system_id":"levelo_inurba_marseille","lat":43.28964,"lon":5.36408,"is_reserved":false,"is_disabled":false,"rental_uris":{"android":"levelo://app?vid=666724b8-3273-4efd-a0fc-60e528f5525e","ios":"levelo://app?vid=666724b8-3273-4efd-a0fc-60e528f5525e"},"vehicle_type_id":"4","last_reported":1726467227,"current_range_meters":35600,"station_id":"ce4bhc92rcd13ifvqetg","pricing_plan_id":"cebpf4jnsgd1na2vs0mg"},{"bike_id":"6ecd53dc-53e4-48d5-bda8-7c842c437731","system_id":"levelo_inurba_marseille","lat":43.27613,"lon":5.36119,"is_reserved":false,"is_disabled":false,"rental_uris":{"android":"levelo://app?vid=6ecd53dc-53e4-48d5-bda8-7c842c437731","ios":"levelo://app?vid=6ecd53dc-53e4-48d5-bda8-7c842c437731"},"vehicle_type_id":"4","last_reported":1726467227,"current_range_meters":12400,"station_id":"ce4bgj92rcd13ifvqbe0","pricing_plan_id":"cebpf4jnsgd1na2vs0mg"},{"bike_id":"ce83ae07-4dd2-406a-b2bd-53f025539ed7","system_id":"levelo_inurba_marseille","lat":43.30151,"lon":5.38082,"is_reserved":false,"is_disabled":false,"rental_uris":{"android":"levelo://app?vid=ce83ae07-4dd2-406a-b2bd-53f025539ed7","ios":"levelo://app?vid=ce83ae07-4dd2-406a-b2bd-53f025539ed7"},"vehicle_type_id":"4","last_reported":1726467227,"current_range_meters":10800,"station_id":"ce4bgjp2rcd13ifvqbh0","pricing_plan_id":"cebpf4jnsgd1na2vs0mg"},{"bike_id":"041fc8e8-e431-468a-96bf-16772296ba60","system_id":"levelo_inurba_marseille","lat":43.31081,"lon":5.42424,"is_reserved":false,"is_disabled":false,"rental_uris":{"android":"levelo://app?vid=041fc8e8-e431-468a-96bf-16772296ba60","ios":"levelo://app?vid=041fc8e8-e431-468a-96bf-16772296ba60"},"vehicle_type_id":"4","last_reported":1726467227,"current_range_meters":38800,"station_id":"ce4bhp92rcd13ifvqhag","pricing_plan_id":"cebpf4jnsgd1na2vs0mg"},{"bike_id":"e3066535-70a8-435c-b3d4-d4edf2a4492d","system_id":"levelo_inurba_marseille","lat":43.28483,"lon":5.38414,"is_reserved":false,"is_disabled":false,"rental_uris":{"android":"levelo://app?vid=e3066535-70a8-435c-b3d4-d4edf2a4492d","ios":"levelo://app?vid=e3066535-70a8-435c-b3d4-d4edf2a4492d"},"vehicle_type_id":"4","last_reported":1726467227,"current_range_meters":26800,"station_id":"ce4bhl92rcd13ifvqghg","pricing_plan_id":"cebpf4jnsgd1na2vs0mg"},{"bike_id":"ca2957de-69fb-4977-87fd-ebd7d7c4717b","system_id":"levelo_inurba_marseille","lat":43.30469,"lon":5.37904,"is_reserved":false,"is_disabled":false,"rental_uris":{"android":"levelo://app?vid=ca2957de-69fb-4977-87fd-ebd7d7c4717b","ios":"levelo://app?vid=ca2957de-69fb-4977-87fd-ebd7d7c4717b"},"vehicle_type_id":"4","last_reported":1726467227,"current_range_meters":37600,"station_id":"ce4bgup2rcd13ifvqcn0","pricing_plan_id":"cebpf4jnsgd1na2vs0mg"},{"bike_id":"77be640b-ac4b-4617-be22-5763d79d29be","system_id":"levelo_inurba_marseille","lat":43.32481,"lon":5.36558,"is_reserved":false,"is_disabled":false,"rental_uris":{"android":"levelo://app?vid=77be640b-ac4b-4617-be22-5763d79d29be","ios":"levelo://app?vid=77be640b-ac4b-4617-be22-5763d79d29be"},"vehicle_type_id":"4","last_reported":1726467227,"current_range_meters":28800,"station_id":"ce4bhs12rcd13ifvqhvg","pricing_plan_id":"cebpf4jnsgd1na2vs0mg"},{"bike_id":"202dd9c2-bb4f-45c6-bbc8-f41cdd717080","system_id":"levelo_inurba_marseille","lat":43.3044,"lon":5.38886,"is_reserved":false,"is_disabled":false,"rental_uris":{"android":"levelo://app?vid=202dd9c2-bb4f-45c6-bbc8-f41cdd717080","ios":"levelo://app?vid=202dd9c2-bb4f-45c6-bbc8-f41cdd717080"},"vehicle_type_id":"4","last_reported":1726467227,"current_range_meters":27600,"station_id":"ce4bgk12rcd13ifvqbi0","pricing_plan_id":"cebpf4jnsgd1na2vs0mg"},{"bike_id":"9bd45288-f863-48c2-93c6-69280f2e9828","system_id":"levelo_inurba_marseille","lat":43.25502,"lon":5.37649,"is_reserved":false,"is_disabled":false,"rental_uris":{"android":"levelo://app?vid=9bd45288-f863-48c2-93c6-69280f2e9828","ios":"levelo://app?vid=9bd45288-f863-48c2-93c6-69280f2e9828"},"vehicle_type_id":"4","last_reported":1726467227,"current_range_meters":39200,"station_id":"ce4bhh12rcd13ifvqff0","pricing_plan_id":"cebpf4jnsgd1na2vs0mg"},{"bike_id":"321f0a0d-0768-4872-96e0-43ddba979ecf","system_id":"levelo_inurba_marseille","lat":43.27499,"lon":5.42448,"is_reserved":false,"is_disabled":false,"rental_uris":{"android":"levelo://app?vid=321f0a0d-0768-4872-96e0-43ddba979ecf","ios":"levelo://app?vid=321f0a0d-0768-4872-96e0-43ddba979ecf"},"vehicle_type_id":"4","last_reported":1726467227,"current_range_meters":31200,"station_id":"ce4bhn92rcd13ifvqgrg","pricing_plan_id":"cebpf4jnsgd1na2vs0mg"},{"bike_id":"67b5b757-e0f3-43f5-9024-da319fb1d16e","system_id":"levelo_inurba_marseille","lat":43.23184,"lon":5.39981,"is_reserved":false,"is_disabled":false,"rental_uris":{"android":"levelo://app?vid=67b5b757-e0f3-43f5-9024-da319fb1d16e","ios":"levelo://app?vid=67b5b757-e0f3-43f5-9024-da319fb1d16e"},"vehicle_type_id":"4","last_reported":1726467227,"current_range_meters":19200,"station_id":"ce4bhn12rcd13ifvqgqg","pricing_plan_id":"cebpf4jnsgd1na2vs0mg"},{"bike_id":"6da566a6-1c56-4830-ad07-012b26ffeade","system_id":"levelo_inurba_marseille","lat":43.32484,"lon":5.36566,"is_reserved":false,"is_disabled":false,"rental_uris":{"android":"levelo://app?vid=6da566a6-1c56-4830-ad07-012b26ffeade","ios":"levelo://app?vid=6da566a6-1c56-4830-ad07-012b26ffeade"},"vehicle_type_id":"4","last_reported":1726467227,"current_range_meters":38400,"station_id":"ce4bhs12rcd13ifvqhvg","pricing_plan_id":"cebpf4jnsgd1na2vs0mg"},{"bike_id":"a1c9059d-6b11-45b1-9b47-5ccdd72110c6","system_id":"levelo_inurba_marseille","lat":43.31716,"lon":5.43703,"is_reserved":false,"is_disabled":false,"rental_uris":{"android":"levelo://app?vid=a1c9059d-6b11-45b1-9b47-5ccdd72110c6","ios":"levelo://app?vid=a1c9059d-6b11-45b1-9b47-5ccdd72110c6"},"vehicle_type_id":"4","last_reported":1726467227,"current_range_meters":38000,"station_id":"ce4bhp92rcd13ifvqhcg","pricing_plan_id":"cebpf4jnsgd1na2vs0mg"},{"bike_id":"80fd067c-bf6d-4ada-828d-c4e2062b34c6","system_id":"levelo_inurba_marseille","lat":43.29789,"lon":5.38096,"is_reserved":false,"is_disabled":false,"rental_uris":{"android":"levelo://app?vid=80fd067c-bf6d-4ada-828d-c4e2062b34c6","ios":"levelo://app?vid=80fd067c-bf6d-4ada-828d-c4e2062b34c6"},"vehicle_type_id":"4","last_reported":1726467227,"current_range_meters":17200,"station_id":"ce4bgip2rcd13ifvqbb0","pricing_plan_id":"cebpf4jnsgd1na2vs0mg"},{"bike_id":"892cafa3-2b5e-4c2a-8f7d-90e295cb9c68","system_id":"levelo_inurba_marseille","lat":43.26569,"lon":5.39,"is_reserved":false,"is_disabled":false,"rental_uris":{"android":"levelo://app?vid=892cafa3-2b5e-4c2a-8f7d-90e295cb9c68","ios":"levelo://app?vid=892cafa3-2b5e-4c2a-8f7d-90e295cb9c68"},"vehicle_type_id":"4","last_reported":1726467227,"current_range_meters":31200,"station_id":"ce4bhe12rcd13ifvqf30","pricing_plan_id":"cebpf4jnsgd1na2vs0mg"},{"bike_id":"2c1b224d-90cc-4182-88ed-6ca31d8346fe","system_id":"levelo_inurba_marseille","lat":43.30474,"lon":5.3792,"is_reserved":false,"is_disabled":false,"rental_uris":{"android":"levelo://app?vid=2c1b224d-90cc-4182-88ed-6ca31d8346fe","ios":"levelo://app?vid=2c1b224d-90cc-4182-88ed-6ca31d8346fe"},"vehicle_type_id":"4","last_reported":1726467227,"current_range_meters":35600,"station_id":"ce4bgup2rcd13ifvqcn0","pricing_plan_id":"cebpf4jnsgd1na2vs0mg"},{"bike_id":"75703296-7f59-4b8f-a38a-80537d3bdaa2","system_id":"levelo_inurba_marseille","lat":43.33612,"lon":5.41033,"is_reserved":false,"is_disabled":false,"rental_uris":{"android":"levelo://app?vid=75703296-7f59-4b8f-a38a-80537d3bdaa2","ios":"levelo://app?vid=75703296-7f59-4b8f-a38a-80537d3bdaa2"},"vehicle_type_id":"4","last_reported":1726467227,"current_range_meters":9200,"station_id":"ce4bhqh2rcd13ifvqhmg","pricing_plan_id":"cebpf4jnsgd1na2vs0mg"},{"bike_id":"2b07acf9-6de4-48f6-afa8-3d446b12e477","system_id":"levelo_inurba_marseille","lat":43.31173,"lon":5.38711,"is_reserved":false,"is_disabled":false,"rental_uris":{"android":"levelo://app?vid=2b07acf9-6de4-48f6-afa8-3d446b12e477","ios":"levelo://app?vid=2b07acf9-6de4-48f6-afa8-3d446b12e477"},"vehicle_type_id":"4","last_reported":1726467227,"current_range_meters":6400,"station_id":"ce4bgv12rcd13ifvqcp0","pricing_plan_id":"cebpf4jnsgd1na2vs0mg"},{"bike_id":"5991597d-e7dc-4bc9-9ee7-7fb7a7a55348","system_id":"levelo_inurba_marseille","lat":43.31225,"lon":5.3686,"is_reserved":false,"is_disabled":false,"rental_uris":{"android":"levelo://app?vid=5991597d-e7dc-4bc9-9ee7-7fb7a7a55348","ios":"levelo://app?vid=5991597d-e7dc-4bc9-9ee7-7fb7a7a55348"},"vehicle_type_id":"4","last_reported":1726467227,"current_range_meters":36800,"station_id":"ce4bgl92rcd13ifvqbq0","pricing_plan_id":"cebpf4jnsgd1na2vs0mg"},{"bike_id":"0bf02778-2716-4f91-bd1d-5c2e8fe37934","system_id":"levelo_inurba_marseille","lat":43.29028,"lon":5.38133,"is_reserved":false,"is_disabled":false,"rental_uris":{"android":"levelo://app?vid=0bf02778-2716-4f91-bd1d-5c2e8fe37934","ios":"levelo://app?vid=0bf02778-2716-4f91-bd1d-5c2e8fe37934"},"vehicle_type_id":"4","last_reported":1726467227,"current_range_meters":26000,"station_id":"ce4bh4p2rcd13ifvqe1g","pricing_plan_id":"cebpf4jnsgd1na2vs0mg"},{"bike_id":"be700df8-4555-417d-b3de-6fa298551d25","system_id":"levelo_inurba_marseille","lat":43.28714,"lon":5.39991,"is_reserved":false,"is_disabled":false,"rental_uris":{"android":"levelo://app?vid=be700df8-4555-417d-b3de-6fa298551d25","ios":"levelo://app?vid=be700df8-4555-417d-b3de-6fa298551d25"},"vehicle_type_id":"4","last_reported":1726467227,"current_range_meters":36400,"station_id":"ce4bho92rcd13ifvqh3g","pricing_plan_id":"cebpf4jnsgd1na2vs0mg"},{"bike_id":"103368f7-6cf9-4f61-a9f7-0e638a4ed99a","system_id":"levelo_inurba_marseille","lat":43.24079,"lon":5.37756,"is_reserved":false,"is_disabled":false,"rental_uris":{"android":"levelo://app?vid=103368f7-6cf9-4f61-a9f7-0e638a4ed99a","ios":"levelo://app?vid=103368f7-6cf9-4f61-a9f7-0e638a4ed99a"},"vehicle_type_id":"4","last_reported":1726467227,"current_range_meters":8800,"station_id":"ce4bhnp2rcd13ifvqgvg","pricing_plan_id":"cebpf4jnsgd1na2vs0mg"},{"bike_id":"c651c869-7a3a-42cb-8808-51d3e56d67e2","system_id":"levelo_inurba_marseille","lat":43.29583,"lon":5.37506,"is_reserved":false,"is_disabled":false,"rental_uris":{"android":"levelo://app?vid=c651c869-7a3a-42cb-8808-51d3e56d67e2","ios":"levelo://app?vid=c651c869-7a3a-42cb-8808-51d3e56d67e2"},"vehicle_type_id":"4","last_reported":1726467227,"current_range_meters":21600,"station_id":"","pricing_plan_id":"cebpf4jnsgd1na2vs0mg"},{"bike_id":"39550384-f95b-49f6-a285-2000f3590696","system_id":"levelo_inurba_marseille","lat":43.30153,"lon":5.38082,"is_reserved":false,"is_disabled":false,"rental_uris":{"android":"levelo://app?vid=39550384-f95b-49f6-a285-2000f3590696","ios":"levelo://app?vid=39550384-f95b-49f6-a285-2000f3590696"},"vehicle_type_id":"4","last_reported":1726467227,"current_range_meters":33600,"station_id":"ce4bgjp2rcd13ifvqbh0","pricing_plan_id":"cebpf4jnsgd1na2vs0mg"},{"bike_id":"af78b383-cb47-4a8e-8a00-34ed69efc3a0","system_id":"levelo_inurba_marseille","lat":43.249084,"lon":5.390532,"is_reserved":false,"is_disabled":false,"rental_uris":{"android":"levelo://app?vid=af78b383-cb47-4a8e-8a00-34ed69efc3a0","ios":"levelo://app?vid=af78b383-cb47-4a8e-8a00-34ed69efc3a0"},"vehicle_type_id":"4","last_reported":1726467227,"current_range_meters":17600,"station_id":"","pricing_plan_id":"cebpf4jnsgd1na2vs0mg"},{"bike_id":"db2f509d-cfb7-451a-a00b-c4129bd3609a","system_id":"levelo_inurba_marseille","lat":43.25825,"lon":5.39432,"is_reserved":false,"is_disabled":false,"rental_uris":{"android":"levelo://app?vid=db2f509d-cfb7-451a-a00b-c4129bd3609a","ios":"levelo://app?vid=db2f509d-cfb7-451a-a00b-c4129bd3609a"},"vehicle_type_id":"4","last_reported":1726467227,"current_range_meters":24800,"station_id":"ce4bhip2rcd13ifvqft0","pricing_plan_id":"cebpf4jnsgd1na2vs0mg"},{"bike_id":"e5bb9d26-2270-4e77-ba9b-cae0a796a269","system_id":"levelo_inurba_marseille","lat":43.30466,"lon":5.37907,"is_reserved":false,"is_disabled":false,"rental_uris":{"android":"levelo://app?vid=e5bb9d26-2270-4e77-ba9b-cae0a796a269","ios":"levelo://app?vid=e5bb9d26-2270-4e77-ba9b-cae0a796a269"},"vehicle_type_id":"4","last_reported":1726467227,"current_range_meters":34000,"station_id":"ce4bgup2rcd13ifvqcn0","pricing_plan_id":"cebpf4jnsgd1na2vs0mg"},{"bike_id":"9594c4e3-d743-4722-8fcd-abb01dc9a03d","system_id":"levelo_inurba_marseille","lat":43.322871,"lon":5.382677,"is_reserved":false,"is_disabled":false,"rental_uris":{"android":"levelo://app?vid=9594c4e3-d743-4722-8fcd-abb01dc9a03d","ios":"levelo://app?vid=9594c4e3-d743-4722-8fcd-abb01dc9a03d"},"vehicle_type_id":"4","last_reported":1726467227,"current_range_meters":1600,"station_id":"ce4bhr12rcd13ifvqhqg","pricing_plan_id":"cebpf4jnsgd1na2vs0mg"},{"bike_id":"226a07e8-6b1e-4cec-bd78-56efae3253cc","system_id":"levelo_inurba_marseille","lat":43.27497,"lon":5.42446,"is_reserved":false,"is_disabled":false,"rental_uris":{"android":"levelo://app?vid=226a07e8-6b1e-4cec-bd78-56efae3253cc","ios":"levelo://app?vid=226a07e8-6b1e-4cec-bd78-56efae3253cc"},"vehicle_type_id":"4","last_reported":1726467227,"current_range_meters":23200,"station_id":"ce4bhn92rcd13ifvqgrg","pricing_plan_id":"cebpf4jnsgd1na2vs0mg"},{"bike_id":"7b5a067f-2447-4a17-8a0a-4f31d25d743b","system_id":"levelo_inurba_marseille","lat":43.304657,"lon":5.379078,"is_reserved":false,"is_disabled":false,"rental_uris":{"android":"levelo://app?vid=7b5a067f-2447-4a17-8a0a-4f31d25d743b","ios":"levelo://app?vid=7b5a067f-2447-4a17-8a0a-4f31d25d743b"},"vehicle_type_id":"4","last_reported":1726467227,"current_range_meters":32400,"station_id":"ce4bgup2rcd13ifvqcn0","pricing_plan_id":"cebpf4jnsgd1na2vs0mg"},{"bike_id":"3c66d06d-c39a-4dee-aab8-084e2c948122","system_id":"levelo_inurba_marseille","lat":43.28941,"lon":5.36645,"is_reserved":false,"is_disabled":false,"rental_uris":{"android":"levelo://app?vid=3c66d06d-c39a-4dee-aab8-084e2c948122","ios":"levelo://app?vid=3c66d06d-c39a-4dee-aab8-084e2c948122"},"vehicle_type_id":"4","last_reported":1726467227,"current_range_meters":22800,"station_id":"ce4bhap2rcd13ifvqek0","pricing_plan_id":"cebpf4jnsgd1na2vs0mg"},{"bike_id":"be4ab8d2-41df-42b8-816d-b5662ba69632","system_id":"levelo_inurba_marseille","lat":43.29611,"lon":5.38102,"is_reserved":false,"is_disabled":false,"rental_uris":{"android":"levelo://app?vid=be4ab8d2-41df-42b8-816d-b5662ba69632","ios":"levelo://app?vid=be4ab8d2-41df-42b8-816d-b5662ba69632"},"vehicle_type_id":"4","last_reported":1726467227,"current_range_meters":38400,"station_id":"ce4bgl12rcd13ifvqbo0","pricing_plan_id":"cebpf4jnsgd1na2vs0mg"},{"bike_id":"328d45f9-980e-4811-97c0-47d761861509","system_id":"levelo_inurba_marseille","lat":43.29847,"lon":5.37836,"is_reserved":false,"is_disabled":false,"rental_uris":{"android":"levelo://app?vid=328d45f9-980e-4811-97c0-47d761861509","ios":"levelo://app?vid=328d45f9-980e-4811-97c0-47d761861509"},"vehicle_type_id":"4","last_reported":1726467227,"current_range_meters":24800,"station_id":"ce4bgkh2rcd13ifvqbl0","pricing_plan_id":"cebpf4jnsgd1na2vs0mg"},{"bike_id":"a8dbccc5-07d3-42a6-808e-279375c97f74","system_id":"levelo_inurba_marseille","lat":43.25867,"lon":5.39892,"is_reserved":false,"is_disabled":false,"rental_uris":{"android":"levelo://app?vid=a8dbccc5-07d3-42a6-808e-279375c97f74","ios":"levelo://app?vid=a8dbccc5-07d3-42a6-808e-279375c97f74"},"vehicle_type_id":"4","last_reported":1726467227,"current_range_meters":6000,"station_id":"ce4bhl92rcd13ifvqghg","pricing_plan_id":"cebpf4jnsgd1na2vs0mg"},{"bike_id":"9f0909c8-dbe9-4b1d-bd44-44c66124ccc0","system_id":"levelo_inurba_marseille","lat":43.28928,"lon":5.366455,"is_reserved":false,"is_disabled":false,"rental_uris":{"android":"levelo://app?vid=9f0909c8-dbe9-4b1d-bd44-44c66124ccc0","ios":"levelo://app?vid=9f0909c8-dbe9-4b1d-bd44-44c66124ccc0"},"vehicle_type_id":"4","last_reported":1726467227,"current_range_meters":18000,"station_id":"ce4bhap2rcd13ifvqek0","pricing_plan_id":"cebpf4jnsgd1na2vs0mg"},{"bike_id":"faf816e6-4e87-4e93-88d4-5861eae33b5c","system_id":"levelo_inurba_marseille","lat":43.24077,"lon":5.37758,"is_reserved":false,"is_disabled":false,"rental_uris":{"android":"levelo://app?vid=faf816e6-4e87-4e93-88d4-5861eae33b5c","ios":"levelo://app?vid=faf816e6-4e87-4e93-88d4-5861eae33b5c"},"vehicle_type_id":"4","last_reported":1726467227,"current_range_meters":22000,"station_id":"ce4bhnp2rcd13ifvqgvg","pricing_plan_id":"cebpf4jnsgd1na2vs0mg"},{"bike_id":"d1bc1a92-c34f-45bd-b470-2fca788491ee","system_id":"levelo_inurba_marseille","lat":43.32479,"lon":5.36561,"is_reserved":false,"is_disabled":false,"rental_uris":{"android":"levelo://app?vid=d1bc1a92-c34f-45bd-b470-2fca788491ee","ios":"levelo://app?vid=d1bc1a92-c34f-45bd-b470-2fca788491ee"},"vehicle_type_id":"4","last_reported":1726467227,"current_range_meters":38400,"station_id":"ce4bhs12rcd13ifvqhvg","pricing_plan_id":"cebpf4jnsgd1na2vs0mg"},{"bike_id":"9b8db7f4-2e2f-4082-9a13-dbcdb4f63d39","system_id":"levelo_inurba_marseille","lat":43.30154,"lon":5.38075,"is_reserved":false,"is_disabled":false,"rental_uris":{"android":"levelo://app?vid=9b8db7f4-2e2f-4082-9a13-dbcdb4f63d39","ios":"levelo://app?vid=9b8db7f4-2e2f-4082-9a13-dbcdb4f63d39"},"vehicle_type_id":"4","last_reported":1726467227,"current_range_meters":30800,"station_id":"ce4bgjp2rcd13ifvqbh0","pricing_plan_id":"cebpf4jnsgd1na2vs0mg"},{"bike_id":"1c6e4eaa-e5c9-435f-b04d-790bc8c7df6a","system_id":"levelo_inurba_marseille","lat":43.32781,"lon":5.4134,"is_reserved":false,"is_disabled":false,"rental_uris":{"android":"levelo://app?vid=1c6e4eaa-e5c9-435f-b04d-790bc8c7df6a","ios":"levelo://app?vid=1c6e4eaa-e5c9-435f-b04d-790bc8c7df6a"},"vehicle_type_id":"4","last_reported":1726467227,"current_range_meters":38800,"station_id":"ce4bhq12rcd13ifvqhhg","pricing_plan_id":"cebpf4jnsgd1na2vs0mg"},{"bike_id":"fb6fc165-2425-480c-aa10-2a059f9c98b3","system_id":"levelo_inurba_marseille","lat":43.27949,"lon":5.41049,"is_reserved":false,"is_disabled":false,"rental_uris":{"android":"levelo://app?vid=fb6fc165-2425-480c-aa10-2a059f9c98b3","ios":"levelo://app?vid=fb6fc165-2425-480c-aa10-2a059f9c98b3"},"vehicle_type_id":"4","last_reported":1726467227,"current_range_meters":6800,"station_id":"ce4bhnp2rcd13ifvqh0g","pricing_plan_id":"cebpf4jnsgd1na2vs0mg"},{"bike_id":"8b608b96-fedf-4511-8d4b-09bad2606e1a","system_id":"levelo_inurba_marseille","lat":43.27724,"lon":5.41137,"is_reserved":false,"is_disabled":false,"rental_uris":{"android":"levelo://app?vid=8b608b96-fedf-4511-8d4b-09bad2606e1a","ios":"levelo://app?vid=8b608b96-fedf-4511-8d4b-09bad2606e1a"},"vehicle_type_id":"4","last_reported":1726467227,"current_range_meters":17200,"station_id":"","pricing_plan_id":"cebpf4jnsgd1na2vs0mg"},{"bike_id":"557f94c9-08c3-4971-8fa6-543c3d081224","system_id":"levelo_inurba_marseille","lat":43.33606,"lon":5.41031,"is_reserved":false,"is_disabled":false,"rental_uris":{"android":"levelo://app?vid=557f94c9-08c3-4971-8fa6-543c3d081224","ios":"levelo://app?vid=557f94c9-08c3-4971-8fa6-543c3d081224"},"vehicle_type_id":"4","last_reported":1726467227,"current_range_meters":35600,"station_id":"ce4bhqh2rcd13ifvqhmg","pricing_plan_id":"cebpf4jnsgd1na2vs0mg"},{"bike_id":"ccda6ee7-63ca-4b62-928a-9bdff7da9541","system_id":"levelo_inurba_marseille","lat":43.246408,"lon":5.395181,"is_reserved":false,"is_disabled":false,"rental_uris":{"android":"levelo://app?vid=ccda6ee7-63ca-4b62-928a-9bdff7da9541","ios":"levelo://app?vid=ccda6ee7-63ca-4b62-928a-9bdff7da9541"},"vehicle_type_id":"4","last_reported":1726467227,"current_range_meters":37600,"station_id":"ce4bhlp2rcd13ifvqgjg","pricing_plan_id":"cebpf4jnsgd1na2vs0mg"},{"bike_id":"dc7825cc-5379-4ea7-a598-2464755a693c","system_id":"levelo_inurba_marseille","lat":43.2816,"lon":5.42465,"is_reserved":false,"is_disabled":false,"rental_uris":{"android":"levelo://app?vid=dc7825cc-5379-4ea7-a598-2464755a693c","ios":"levelo://app?vid=dc7825cc-5379-4ea7-a598-2464755a693c"},"vehicle_type_id":"4","last_reported":1726467227,"current_range_meters":31200,"station_id":"ce4bhnh2rcd13ifvqgug","pricing_plan_id":"cebpf4jnsgd1na2vs0mg"},{"bike_id":"6f4f7321-2be7-4c36-bb04-a516f10e06a9","system_id":"levelo_inurba_marseille","lat":43.23183,"lon":5.39986,"is_reserved":false,"is_disabled":false,"rental_uris":{"android":"levelo://app?vid=6f4f7321-2be7-4c36-bb04-a516f10e06a9","ios":"levelo://app?vid=6f4f7321-2be7-4c36-bb04-a516f10e06a9"},"vehicle_type_id":"4","last_reported":1726467227,"current_range_meters":22400,"station_id":"ce4bhn12rcd13ifvqgqg","pricing_plan_id":"cebpf4jnsgd1na2vs0mg"},{"bike_id":"fa2b0a9f-66ad-4cd1-b7bb-93b9cffdc904","system_id":"levelo_inurba_marseille","lat":43.25934,"lon":5.40916,"is_reserved":false,"is_disabled":false,"rental_uris":{"android":"levelo://app?vid=fa2b0a9f-66ad-4cd1-b7bb-93b9cffdc904","ios":"levelo://app?vid=fa2b0a9f-66ad-4cd1-b7bb-93b9cffdc904"},"vehicle_type_id":"4","last_reported":1726467227,"current_range_meters":28400,"station_id":"ce4bhm92rcd13ifvqglg","pricing_plan_id":"cebpf4jnsgd1na2vs0mg"},{"bike_id":"0765e549-6483-41b2-9c4f-508c91efaba8","system_id":"levelo_inurba_marseille","lat":43.30463,"lon":5.37904,"is_reserved":false,"is_disabled":false,"rental_uris":{"android":"levelo://app?vid=0765e549-6483-41b2-9c4f-508c91efaba8","ios":"levelo://app?vid=0765e549-6483-41b2-9c4f-508c91efaba8"},"vehicle_type_id":"4","last_reported":1726467227,"current_range_meters":32400,"station_id":"ce4bgup2rcd13ifvqcn0","pricing_plan_id":"cebpf4jnsgd1na2vs0mg"},{"bike_id":"888ee03b-c954-4ddf-9678-10091fd37867","system_id":"levelo_inurba_marseille","lat":43.30127,"lon":5.38083,"is_reserved":false,"is_disabled":false,"rental_uris":{"android":"levelo://app?vid=888ee03b-c954-4ddf-9678-10091fd37867","ios":"levelo://app?vid=888ee03b-c954-4ddf-9678-10091fd37867"},"vehicle_type_id":"4","last_reported":1726467227,"current_range_meters":12400,"station_id":"ce4bgjp2rcd13ifvqbh0","pricing_plan_id":"cebpf4jnsgd1na2vs0mg"},{"bike_id":"57b3ec72-6977-4d75-8f63-f35fc0fa7201","system_id":"levelo_inurba_marseille","lat":43.294708,"lon":5.401328,"is_reserved":false,"is_disabled":false,"rental_uris":{"android":"levelo://app?vid=57b3ec72-6977-4d75-8f63-f35fc0fa7201","ios":"levelo://app?vid=57b3ec72-6977-4d75-8f63-f35fc0fa7201"},"vehicle_type_id":"4","last_reported":1726467227,"current_range_meters":8000,"station_id":"","pricing_plan_id":"cebpf4jnsgd1na2vs0mg"},{"bike_id":"487f5bf7-3179-41b4-890f-6a50baa0a8fc","system_id":"levelo_inurba_marseille","lat":43.24804,"lon":5.37451,"is_reserved":false,"is_disabled":false,"rental_uris":{"android":"levelo://app?vid=487f5bf7-3179-41b4-890f-6a50baa0a8fc","ios":"levelo://app?vid=487f5bf7-3179-41b4-890f-6a50baa0a8fc"},"vehicle_type_id":"4","last_reported":1726467227,"current_range_meters":10000,"station_id":"ce4bhgh2rcd13ifvqfb0","pricing_plan_id":"cebpf4jnsgd1na2vs0mg"},{"bike_id":"d2ca61ed-07b0-4f91-990e-b98a38e76d1b","system_id":"levelo_inurba_marseille","lat":43.24068,"lon":5.37758,"is_reserved":false,"is_disabled":false,"rental_uris":{"android":"levelo://app?vid=d2ca61ed-07b0-4f91-990e-b98a38e76d1b","ios":"levelo://app?vid=d2ca61ed-07b0-4f91-990e-b98a38e76d1b"},"vehicle_type_id":"4","last_reported":1726467227,"current_range_meters":8400,"station_id":"ce4bhnp2rcd13ifvqgvg","pricing_plan_id":"cebpf4jnsgd1na2vs0mg"},{"bike_id":"ef75e50e-c1e8-4032-97a4-2ca996c82f31","system_id":"levelo_inurba_marseille","lat":43.28974,"lon":5.37825,"is_reserved":false,"is_disabled":false,"rental_uris":{"android":"levelo://app?vid=ef75e50e-c1e8-4032-97a4-2ca996c82f31","ios":"levelo://app?vid=ef75e50e-c1e8-4032-97a4-2ca996c82f31"},"vehicle_type_id":"4","last_reported":1726467227,"current_range_meters":32400,"station_id":"ce4bh9p2rcd13ifvqed0","pricing_plan_id":"cebpf4jnsgd1na2vs0mg"},{"bike_id":"55df5b02-29bc-47d7-8ff9-e766eca94c85","system_id":"levelo_inurba_marseille","lat":43.30802,"lon":5.38161,"is_reserved":false,"is_disabled":false,"rental_uris":{"android":"levelo://app?vid=55df5b02-29bc-47d7-8ff9-e766eca94c85","ios":"levelo://app?vid=55df5b02-29bc-47d7-8ff9-e766eca94c85"},"vehicle_type_id":"4","last_reported":1726467227,"current_range_meters":33600,"station_id":"ce4bgt12rcd13ifvqce0","pricing_plan_id":"cebpf4jnsgd1na2vs0mg"},{"bike_id":"f55df913-5446-4e95-8950-b57e812e6e39","system_id":"levelo_inurba_marseille","lat":43.302124,"lon":5.39444,"is_reserved":false,"is_disabled":false,"rental_uris":{"android":"levelo://app?vid=f55df913-5446-4e95-8950-b57e812e6e39","ios":"levelo://app?vid=f55df913-5446-4e95-8950-b57e812e6e39"},"vehicle_type_id":"4","last_reported":1726467227,"current_range_meters":8400,"station_id":"ce4bh0p2rcd13ifvqd70","pricing_plan_id":"cebpf4jnsgd1na2vs0mg"},{"bike_id":"11120640-94d6-4a67-9dbe-e82b45a469cb","system_id":"levelo_inurba_marseille","lat":43.30535,"lon":5.36546,"is_reserved":false,"is_disabled":false,"rental_uris":{"android":"levelo://app?vid=11120640-94d6-4a67-9dbe-e82b45a469cb","ios":"levelo://app?vid=11120640-94d6-4a67-9dbe-e82b45a469cb"},"vehicle_type_id":"4","last_reported":1726467227,"current_range_meters":30000,"station_id":"ce4bgs12rcd13ifvqcag","pricing_plan_id":"cebpf4jnsgd1na2vs0mg"},{"bike_id":"16f68352-a855-48ab-9ad3-5be94cc79a5d","system_id":"levelo_inurba_marseille","lat":43.27496,"lon":5.42454,"is_reserved":false,"is_disabled":false,"rental_uris":{"android":"levelo://app?vid=16f68352-a855-48ab-9ad3-5be94cc79a5d","ios":"levelo://app?vid=16f68352-a855-48ab-9ad3-5be94cc79a5d"},"vehicle_type_id":"4","last_reported":1726467227,"current_range_meters":36800,"station_id":"ce4bhn92rcd13ifvqgrg","pricing_plan_id":"cebpf4jnsgd1na2vs0mg"},{"bike_id":"f87fcda1-24eb-4798-a3e8-b800535dcb03","system_id":"levelo_inurba_marseille","lat":43.28721,"lon":5.3793,"is_reserved":false,"is_disabled":false,"rental_uris":{"android":"levelo://app?vid=f87fcda1-24eb-4798-a3e8-b800535dcb03","ios":"levelo://app?vid=f87fcda1-24eb-4798-a3e8-b800535dcb03"},"vehicle_type_id":"4","last_reported":1726467227,"current_range_meters":32800,"station_id":"ce4bh9p2rcd13ifvqec0","pricing_plan_id":"cebpf4jnsgd1na2vs0mg"},