{"last_updated":1742969657,"ttl":60,"version":"2.2","data":{"bikes":[{"bike_id":"0c61cb13-5a36-44b8-8dd0-2e66a36d323d","system_id":"levelo_inurba_marseille","lat":43.27563,"lon":5.3842,"is_reserved":false,"is_disabled":false,"rental_uris":{"android":"levelo://app?vid=0c61cb13-5a36-44b8-8dd0-2e66a36d323d","ios":"levelo://app?vid=0c61cb13-5a36-44b8-8dd0-2e66a36d323d"},"vehicle_type_id":"4","last_reported":1742969657,"current_range_meters":2800,"station_id":"ce4bhh92rcd13ifvqfi0","pricing_plan_id":"cebpf4jnsgd1na2vs0mg"},{"bike_id":"4b82f9a6-2f12-42e5-86cc-35d0acf12b8e","system_id":"levelo_inurba_marseille","lat":43.25078,"lon":5.39544,"is_reserved":false,"is_disabled":false,"rental_uris":{"android":"levelo://app?vid=4b82f9a6-2f12-42e5-86cc-35d0acf12b8e","ios":"levelo://app?vid=4b82f9a6-2f12-42e5-86cc-35d0acf12b8e"},"vehicle_type_id":"4","last_reported":1742969657,"current_range_meters":2800,"station_id":"ce4bhm12rcd13ifvqgkg","pricing_plan_id":"cebpf4jnsgd1na2vs0mg"},{"bike_id":"69cae312-ca8c-4ddf-a945-cb9acdf08ab6","system_id":"levelo_inurba_marseille","lat":43.284399,"lon":5.39186,"is_reserved":false,"is_disabled":false,"rental_uris":{"android":"levelo://app?vid=69cae312-ca8c-4ddf-a945-cb9acdf08ab6","ios":"levelo://app?vid=69cae312-ca8c-4ddf-a945-cb9acdf08ab6"},"vehicle_type_id":"4","last_reported":1742969657,"current_range_meters":2800,"station_id":"ce4bhoh2rcd13ifvqh5g","pricing_plan_id":"cebpf4jnsgd1na2vs0mg"},{"bike_id":"0799628e-ae5e-4352-9b49-dc5e016977f0","system_id":"levelo_inurba_marseille","lat":43.27559,"lon":5.38438,"is_reserved":false,"is_disabled":false,"rental_uris":{"android":"levelo://app?vid=0799628e-ae5e-4352-9b49-dc5e016977f0","ios":"levelo://app?vid=0799628e-ae5e-4352-9b49-dc5e016977f0"},"vehicle_type_id":"4","last_reported":1742969657,"current_range_meters":3200,"station_id":"ce4bhh92rcd13ifvqfi0","pricing_plan_id":"cebpf4jnsgd1na2vs0mg"},{"bike_id":"78855946-f1ec-4dd3-b1cb-78a4f8659240","system_id":"levelo_inurba_marseille","lat":43.29506,"lon":5.39052,"is_reserved":false,"is_disabled":true,"rental_uris":{"android":"levelo://app?vid=78855946-f1ec-4dd3-b1cb-78a4f8659240","ios":"levelo://app?vid=78855946-f1ec-4dd3-b1cb-78a4f8659240"},"vehicle_type_id":"4","last_reported":1742969657,"current_range_meters":3200,"station_id":"ce4bh3p2rcd13ifvqdp0","pricing_plan_id":"cebpf4jnsgd1na2vs0mg"},{"bike_id":"6cfefdbe-5a71-4357-a802-1f278b92dc60","system_id":"levelo_inurba_marseille","lat":43.28927,"lon":5.36685,"is_reserved":false,"is_disabled":false,"rental_uris":{"android":"levelo://app?vid=6cfefdbe-5a71-4357-a802-1f278b92dc60","ios":"levelo://app?vid=6cfefdbe-5a71-4357-a802-1f278b92dc60"},"vehicle_type_id":"4","last_reported":1742969657,"current_range_meters":3200,"station_id":"ce4bhap2rcd13ifvqek0","pricing_plan_id":"cebpf4jnsgd1na2vs0mg"},{"bike_id":"69337c59-8532-4a81-825f-4365ed48eea9","system_id":"levelo_inurba_marseille","lat":43.30885,"lon":5.37194,"is_reserved":false,"is_disabled":false,"rental_uris":{"android":"levelo://app?vid=69337c59-8532-4a81-825f-4365ed48eea9","ios":"levelo://app?vid=69337c59-8532-4a81-825f-4365ed48eea9"},"vehicle_type_id":"4","last_reported":1742969657,"current_range_meters":3200,"station_id":"ce4bguh2rcd13ifvqckg","pricing_plan_id":"cebpf4jnsgd1na2vs0mg"},{"bike_id":"86c24361-5fab-4dea-a92e-d7ecae070174","system_id":"levelo_inurba_marseille","lat":43.27982,"lon":5.41689,"is_reserved":false,"is_disabled":false,"rental_uris":{"android":"levelo://app?vid=86c24361-5fab-4dea-a92e-d7ecae070174","ios":"levelo://app?vid=86c24361-5fab-4dea-a92e-d7ecae070174"},"vehicle_type_id":"4","last_reported":1742969657,"current_range_meters":3200,"station_id":"ce4bho12rcd13ifvqh1g","pricing_plan_id":"cebpf4jnsgd1na2vs0mg"},{"bike_id":"707edfa3-0a9a-4f1f-b2f3-c24e2f031881","system_id":"levelo_inurba_marseille","lat":43.29585,"lon":5.375201,"is_reserved":false,"is_disabled":false,"rental_uris":{"android":"levelo://app?vid=707edfa3-0a9a-4f1f-b2f3-c24e2f031881","ios":"levelo://app?vid=707edfa3-0a9a-4f1f-b2f3-c24e2f031881"},"vehicle_type_id":"4","last_reported":1742969657,"current_range_meters":3200,"station_id":"ce4bh4p2rcd13ifvqe1g","pricing_plan_id":"cebpf4jnsgd1na2vs0mg"},{"bike_id":"acc692d6-a495-412f-8aab-730673511c71","system_id":"levelo_inurba_marseille","lat":43.27934,"lon":5.41049,"is_reserved":false,"is_disabled":false,"rental_uris":{"android":"levelo://app?vid=acc692d6-a495-412f-8aab-730673511c71","ios":"levelo://app?vid=acc692d6-a495-412f-8aab-730673511c71"},"vehicle_type_id":"4","last_reported":1742969657,"current_range_meters":3200,"station_id":"ce4bhnp2rcd13ifvqh0g","pricing_plan_id":"cebpf4jnsgd1na2vs0mg"},{"bike_id":"7b429d45-b240-4e0e-adfa-4a69d6a65c3c","system_id":"levelo_inurba_marseille","lat":43.30548,"lon":5.38439,"is_reserved":false,"is_disabled":false,"rental_uris":{"android":"levelo://app?vid=7b429d45-b240-4e0e-adfa-4a69d6a65c3c","ios":"levelo://app?vid=7b429d45-b240-4e0e-adfa-4a69d6a65c3c"},"vehicle_type_id":"4","last_reported":1742969657,"current_range_meters":3200,"station_id":"ce4bgg92rcd13ifvqb30","pricing_plan_id":"cebpf4jnsgd1na2vs0mg"},{"bike_id":"ecb42ffe-a31e-4210-9fcc-a29d223e03d4","system_id":"levelo_inurba_marseille","lat":43.23201,"lon":5.35551,"is_reserved":false,"is_disabled":false,"rental_uris":{"android":"levelo://app?vid=ecb42ffe-a31e-4210-9fcc-a29d223e03d4","ios":"levelo://app?vid=ecb42ffe-a31e-4210-9fcc-a29d223e03d4"},"vehicle_type_id":"4","last_reported":1742969657,"current_range_meters":3600,"station_id":"ce4bhu92rcd13ifvqi70","pricing_plan_id":"cebpf4jnsgd1na2vs0mg"},{"bike_id":"7570db35-5ebf-4a5d-a0d3-e54fcf6db41a","system_id":"levelo_inurba_marseille","lat":43.25706,"lon":5.41129,"is_reserved":false,"is_disabled":false,"rental_uris":{"android":"levelo://app?vid=7570db35-5ebf-4a5d-a0d3-e54fcf6db41a","ios":"levelo://app?vid=7570db35-5ebf-4a5d-a0d3-e54fcf6db41a"},"vehicle_type_id":"4","last_reported":1742969657,"current_range_meters":3600,"station_id":"ce4bhkp2rcd13ifvqgd0","pricing_plan_id":"cebpf4jnsgd1na2vs0mg"},{"bike_id":"a5516228-2c65-4ab1-8174-cbfa24336356","system_id":"levelo_inurba_marseille","lat":43.281632,"lon":5.426452,"is_reserved":false,"is_disabled":false,"rental_uris":{"android":"levelo://app?vid=a5516228-2c65-4ab1-8174-cbfa24336356","ios":"levelo://app?vid=a5516228-2c65-4ab1-8174-cbfa24336356"},"vehicle_type_id":"4","last_reported":1742969657,"current_range_meters":4000,"station_id":"ce4bhnh2rcd13ifvqgug","pricing_plan_id":"cebpf4jnsgd1na2vs0mg"},{"bike_id":"3513a6f0-dbc9-4f37-8b52-79603521c288","system_id":"levelo_inurba_marseille","lat":43.23066,"lon":5.35494,"is_reserved":false,"is_disabled":false,"rental_uris":{"android":"levelo://app?vid=3513a6f0-dbc9-4f37-8b52-79603521c288","ios":"levelo://app?vid=3513a6f0-dbc9-4f37-8b52-79603521c288"},"vehicle_type_id":"4","last_reported":1742969657,"current_range_meters":4000,"station_id":"cpo3342slgdg3j2ifvpg","pricing_plan_id":"cebpf4jnsgd1na2vs0mg"},{"bike_id":"32f54dc6-3413-47f1-9b2d-810e06f763c7","system_id":"levelo_inurba_marseille","lat":43.292521,"lon":5.409079,"is_reserved":false,"is_disabled":false,"rental_uris":{"android":"levelo://app?vid=32f54dc6-3413-47f1-9b2d-810e06f763c7","ios":"levelo://app?vid=32f54dc6-3413-47f1-9b2d-810e06f763c7"},"vehicle_type_id":"4","last_reported":1742969657,"current_range_meters":4400,"station_id":"ce4bh192rcd13ifvqdc0","pricing_plan_id":"cebpf4jnsgd1na2vs0mg"},{"bike_id":"02c642d0-bab7-4205-b1fb-4419adeb4af1","system_id":"levelo_inurba_marseille","lat":43.29042,"lon":5.356,"is_reserved":false,"is_disabled":false,"rental_uris":{"android":"levelo://app?vid=02c642d0-bab7-4205-b1fb-4419adeb4af1","ios":"levelo://app?vid=02c642d0-bab7-4205-b1fb-4419adeb4af1"},"vehicle_type_id":"4","last_reported":1742969657,"current_range_meters":4400,"station_id":"","pricing_plan_id":"cebpf4jnsgd1na2vs0mg"},{"bike_id":"e1dce661-1e6a-485f-8c76-528b9245d91b","system_id":"levelo_inurba_marseille","lat":43.30376,"lon":5.42501,"is_reserved":false,"is_disabled":false,"rental_uris":{"android":"levelo://app?vid=e1dce661-1e6a-485f-8c76-528b9245d91b","ios":"levelo://app?vid=e1dce661-1e6a-485f-8c76-528b9245d91b"},"vehicle_type_id":"4","last_reported":1742969657,"current_range_meters":4400,"station_id":"ce4bhoh2rcd13ifvqh6g","pricing_plan_id":"cebpf4jnsgd1na2vs0mg"},{"bike_id":"ee8553ac-389d-40dc-8ff4-f6e1917ae579","system_id":"levelo_inurba_marseille","lat":43.27819,"lon":5.40738,"is_reserved":false,"is_disabled":false,"rental_uris":{"android":"levelo://app?vid=ee8553ac-389d-40dc-8ff4-f6e1917ae579","ios":"levelo://app?vid=ee8553ac-389d-40dc-8ff4-f6e1917ae579"},"vehicle_type_id":"4","last_reported":1742969657,"current_range_meters":4800,"station_id":"ce4bhnh2rcd13ifvqgtg","pricing_plan_id":"cebpf4jnsgd1na2vs0mg"},{"bike_id":"5eb00e60-b5d9-4a65-9bba-344db36c1e04","system_id":"levelo_inurba_marseille","lat":43.25821,"lon":5.3944,"is_reserved":false,"is_disabled":false,"rental_uris":{"android":"levelo://app?vid=5eb00e60-b5d9-4a65-9bba-344db36c1e04","ios":"levelo://app?vid=5eb00e60-b5d9-4a65-9bba-344db36c1e04"},"vehicle_type_id":"4","last_reported":1742969657,"current_range_meters":4800,"station_id":"ce4bhip2rcd13ifvqft0","pricing_plan_id":"cebpf4jnsgd1na2vs0mg"},{"bike_id":"b21195e5-e4c3-4373-887d-f1eda29a9a23","system_id":"levelo_inurba_marseille","lat":43.29254,"lon":5.40919,"is_reserved":false,"is_disabled":false,"rental_uris":{"android":"levelo://app?vid=b21195e5-e4c3-4373-887d-f1eda29a9a23","ios":"levelo://app?vid=b21195e5-e4c3-4373-887d-f1eda29a9a23"},"vehicle_type_id":"4","last_reported":1742969657,"current_range_meters":4800,"station_id":"ce4bh192rcd13ifvqdc0","pricing_plan_id":"cebpf4jnsgd1na2vs0mg"},{"bike_id":"63e8dafc-3749-4a42-ab44-2e79325ba0f1","system_id":"levelo_inurba_marseille","lat":43.25102,"lon":5.39523,"is_reserved":false,"is_disabled":false,"rental_uris":{"android":"levelo://app?vid=63e8dafc-3749-4a42-ab44-2e79325ba0f1","ios":"levelo://app?vid=63e8dafc-3749-4a42-ab44-2e79325ba0f1"},"vehicle_type_id":"4","last_reported":1742969657,"current_range_meters":4800,"station_id":"ce4bhm12rcd13ifvqgkg","pricing_plan_id":"cebpf4jnsgd1na2vs0mg"},{"bike_id":"594ed5c7-8cfc-4121-9975-0bd679e31edc","system_id":"levelo_inurba_marseille","lat":43.24662,"lon":5.38175,"is_reserved":false,"is_disabled":false,"rental_uris":{"android":"levelo://app?vid=594ed5c7-8cfc-4121-9975-0bd679e31edc","ios":"levelo://app?vid=594ed5c7-8cfc-4121-9975-0bd679e31edc"},"vehicle_type_id":"4","last_reported":1742969657,"current_range_meters":4800,"station_id":"ce4bhih2rcd13ifvqfr0","pricing_plan_id":"cebpf4jnsgd1na2vs0mg"},{"bike_id":"9e1900ad-e046-4f32-a94e-e5e6f986be4d","system_id":"levelo_inurba_marseille","lat":43.248119,"lon":5.374489,"is_reserved":false,"is_disabled":false,"rental_uris":{"android":"levelo://app?vid=9e1900ad-e046-4f32-a94e-e5e6f986be4d","ios":"levelo://app?vid=9e1900ad-e046-4f32-a94e-e5e6f986be4d"},"vehicle_type_id":"4","last_reported":1742969657,"current_range_meters":5600,"station_id":"ce4bhgh2rcd13ifvqfb0","pricing_plan_id":"cebpf4jnsgd1na2vs0mg"},{"bike_id":"c888cbd2-a211-4669-af91-061a347cfbda","system_id":"levelo_inurba_marseille","lat":43.279182,"lon":5.395874,"is_reserved":false,"is_disabled":false,"rental_uris":{"android":"levelo://app?vid=c888cbd2-a211-4669-af91-061a347cfbda","ios":"levelo://app?vid=c888cbd2-a211-4669-af91-061a347cfbda"},"vehicle_type_id":"4","last_reported":1742969657,"current_range_meters":5600,"station_id":"ce4bhf92rcd13ifvqf40","pricing_plan_id":"cebpf4jnsgd1na2vs0mg"},{"bike_id":"e3e58b7d-a745-42d7-bf54-3a94925681f1","system_id":"levelo_inurba_marseille","lat":43.23183,"lon":5.35564,"is_reserved":false,"is_disabled":false,"rental_uris":{"android":"levelo://app?vid=e3e58b7d-a745-42d7-bf54-3a94925681f1","ios":"levelo://app?vid=e3e58b7d-a745-42d7-bf54-3a94925681f1"},"vehicle_type_id":"4","last_reported":1742969657,"current_range_meters":5600,"station_id":"ce4bhu92rcd13ifvqi70","pricing_plan_id":"cebpf4jnsgd1na2vs0mg"},{"bike_id":"e06fd3a0-02a6-413f-81de-817b7da619bd","system_id":"levelo_inurba_marseille","lat":43.31269,"lon":5.40185,"is_reserved":false,"is_disabled":false,"rental_uris":{"android":"levelo://app?vid=e06fd3a0-02a6-413f-81de-817b7da619bd","ios":"levelo://app?vid=e06fd3a0-02a6-413f-81de-817b7da619bd"},"vehicle_type_id":"4","last_reported":1742969657,"current_range_meters":5600,"station_id":"ce4bh092rcd13ifvqd30","pricing_plan_id":"cebpf4jnsgd1na2vs0mg"},{"bike_id":"bc9e59da-24a5-43b2-9344-e686036c5b53","system_id":"levelo_inurba_marseille","lat":43.260671,"lon":5.394084,"is_reserved":false,"is_disabled":false,"rental_uris":{"android":"levelo://app?vid=bc9e59da-24a5-43b2-9344-e686036c5b53","ios":"levelo://app?vid=bc9e59da-24a5-43b2-9344-e686036c5b53"},"vehicle_type_id":"4","last_reported":1742969657,"current_range_meters":5600,"station_id":"ce4bhh92rcd13ifvqfj0","pricing_plan_id":"cebpf4jnsgd1na2vs0mg"},{"bike_id":"ddf6cb6f-e318-4ef7-9a4d-5581365f4cae","system_id":"levelo_inurba_marseille","lat":43.28035,"lon":5.3694,"is_reserved":false,"is_disabled":false,"rental_uris":{"android":"levelo://app?vid=ddf6cb6f-e318-4ef7-9a4d-5581365f4cae","ios":"levelo://app?vid=ddf6cb6f-e318-4ef7-9a4d-5581365f4cae"},"vehicle_type_id":"4","last_reported":1742969657,"current_range_meters":6000,"station_id":"ce4bha12rcd13ifvqef0","pricing_plan_id":"cebpf4jnsgd1na2vs0mg"},{"bike_id":"66f69882-9bc0-4f69-af42-1e4faa3ed134","system_id":"levelo_inurba_marseille","lat":43.29885,"lon":5.43659,"is_reserved":false,"is_disabled":false,"rental_uris":{"android":"levelo://app?vid=66f69882-9bc0-4f69-af42-1e4faa3ed134","ios":"levelo://app?vid=66f69882-9bc0-4f69-af42-1e4faa3ed134"},"vehicle_type_id":"4","last_reported":1742969657,"current_range_meters":6000,"station_id":"ce4bhpp2rcd13ifvqhfg","pricing_plan_id":"cebpf4jnsgd1na2vs0mg"},{"bike_id":"ef43d9bd-e531-4a59-b8a9-fdc80b41fa34","system_id":"levelo_inurba_marseille","lat":43.312842,"lon":5.40171,"is_reserved":false,"is_disabled":true,"rental_uris":{"android":"levelo://app?vid=ef43d9bd-e531-4a59-b8a9-fdc80b41fa34","ios":"levelo://app?vid=ef43d9bd-e531-4a59-b8a9-fdc80b41fa34"},"vehicle_type_id":"4","last_reported":1742969657,"current_range_meters":6000,"station_id":"ce4bh092rcd13ifvqd30","pricing_plan_id":"cebpf4jnsgd1na2vs0mg"},{"bike_id":"2abcdb2d-70e8-4c22-bc58-0e82a3648f22","system_id":"levelo_inurba_marseille","lat":43.28404,"lon":5.3924,"is_reserved":false,"is_disabled":false,"rental_uris":{"android":"levelo://app?vid=2abcdb2d-70e8-4c22-bc58-0e82a3648f22","ios":"levelo://app?vid=2abcdb2d-70e8-4c22-bc58-0e82a3648f22"},"vehicle_type_id":"4","last_reported":1742969657,"current_range_meters":6000,"station_id":"ce4bhoh2rcd13ifvqh5g","pricing_plan_id":"cebpf4jnsgd1na2vs0mg"},{"bike_id":"c353c957-fbb8-408a-9097-46c8d6b68074","system_id":"levelo_inurba_marseille","lat":43.24179,"lon":5.39735,"is_reserved":false,"is_disabled":false,"rental_uris":{"android":"levelo://app?vid=c353c957-fbb8-408a-9097-46c8d6b68074","ios":"levelo://app?vid=c353c957-fbb8-408a-9097-46c8d6b68074"},"vehicle_type_id":"4","last_reported":1742969657,"current_range_meters":6000,"station_id":"ce4bhn12rcd13ifvqgpg","pricing_plan_id":"cebpf4jnsgd1na2vs0mg"},{"bike_id":"38e476a3-7fa7-42ff-bc10-2fcb40220abd","system_id":"levelo_inurba_marseille","lat":43.23165,"lon":5.356,"is_reserved":false,"is_disabled":false,"rental_uris":{"android":"levelo://app?vid=38e476a3-7fa7-42ff-bc10-2fcb40220abd","ios":"levelo://app?vid=38e476a3-7fa7-42ff-bc10-2fcb40220abd"},"vehicle_type_id":"4","last_reported":1742969657,"current_range_meters":6000,"station_id":"ce4bhu92rcd13ifvqi70","pricing_plan_id":"cebpf4jnsgd1na2vs0mg"},{"bike_id":"2a00e69f-e8f0-4293-a71f-9f6c011d4f23","system_id":"levelo_inurba_marseille","lat":43.25007,"lon":5.38949,"is_reserved":false,"is_disabled":false,"rental_uris":{"android":"levelo://app?vid=2a00e69f-e8f0-4293-a71f-9f6c011d4f23","ios":"levelo://app?vid=2a00e69f-e8f0-4293-a71f-9f6c011d4f23"},"vehicle_type_id":"4","last_reported":1742969657,"current_range_meters":6400,"station_id":"ce4bhgp2rcd13ifvqfd0","pricing_plan_id":"cebpf4jnsgd1na2vs0mg"},{"bike_id":"497957ac-f634-47bb-825f-bbffb781347d","system_id":"levelo_inurba_marseille","lat":43.30878,"lon":5.39633,"is_reserved":false,"is_disabled":false,"rental_uris":{"android":"levelo://app?vid=497957ac-f634-47bb-825f-bbffb781347d","ios":"levelo://app?vid=497957ac-f634-47bb-825f-bbffb781347d"},"vehicle_type_id":"4","last_reported":1742969657,"current_range_meters":6400,"station_id":"ce4bh012rcd13ifvqcv0","pricing_plan_id":"cebpf4jnsgd1na2vs0mg"},{"bike_id":"a0d4632a-7a87-4031-aeeb-061ca0feaca6","system_id":"levelo_inurba_marseille","lat":43.239592,"lon":5.366257,"is_reserved":false,"is_disabled":false,"rental_uris":{"android":"levelo://app?vid=a0d4632a-7a87-4031-aeeb-061ca0feaca6","ios":"levelo://app?vid=a0d4632a-7a87-4031-aeeb-061ca0feaca6"},"vehicle_type_id":"4","last_reported":1742969657,"current_range_meters":6400,"station_id":"ce4bhi12rcd13ifvqfp0","pricing_plan_id":"cebpf4jnsgd1na2vs0mg"},{"bike_id":"c151b20c-15d2-4b12-8a62-0826c9de239f","system_id":"levelo_inurba_marseille","lat":43.23962,"lon":5.36632,"is_reserved":false,"is_disabled":false,"rental_uris":{"android":"levelo://app?vid=c151b20c-15d2-4b12-8a62-0826c9de239f","ios":"levelo://app?vid=c151b20c-15d2-4b12-8a62-0826c9de239f"},"vehicle_type_id":"4","last_reported":1742969657,"current_range_meters":6400,"station_id":"ce4bhi12rcd13ifvqfp0","pricing_plan_id":"cebpf4jnsgd1na2vs0mg"},{"bike_id":"15e3e5eb-d835-4728-a546-750b58ac5259","system_id":"levelo_inurba_marseille","lat":43.31761,"lon":5.39006,"is_reserved":false,"is_disabled":false,"rental_uris":{"android":"levelo://app?vid=15e3e5eb-d835-4728-a546-750b58ac5259","ios":"levelo://app?vid=15e3e5eb-d835-4728-a546-750b58ac5259"},"vehicle_type_id":"4","last_reported":1742969657,"current_range_meters":6400,"station_id":"ce4bhqp2rcd13ifvqhng","pricing_plan_id":"cebpf4jnsgd1na2vs0mg"},{"bike_id":"f0dc1799-be0b-41f2-87a2-bbe5c38b40e1","system_id":"levelo_inurba_marseille","lat":43.30599,"lon":5.39354,"is_reserved":false,"is_disabled":true,"rental_uris":{"android":"levelo://app?vid=f0dc1799-be0b-41f2-87a2-bbe5c38b40e1","ios":"levelo://app?vid=f0dc1799-be0b-41f2-87a2-bbe5c38b40e1"},"vehicle_type_id":"4","last_reported":1742969657,"current_range_meters":6400,"station_id":"ce4bh0p2rcd13ifvqd80","pricing_plan_id":"cebpf4jnsgd1na2vs0mg"},{"bike_id":"c28932a0-1d46-4fdf-8a30-865c10785be7","system_id":"levelo_inurba_marseille","lat":43.28425,"lon":5.37511,"is_reserved":false,"is_disabled":false,"rental_uris":{"android":"levelo://app?vid=c28932a0-1d46-4fdf-8a30-865c10785be7","ios":"levelo://app?vid=c28932a0-1d46-4fdf-8a30-865c10785be7"},"vehicle_type_id":"4","last_reported":1742969657,"current_range_meters":6400,"station_id":"ce4bh412rcd13ifvqds0","pricing_plan_id":"cebpf4jnsgd1na2vs0mg"},{"bike_id":"bfd8072e-8c0b-449c-a57c-74c00e79ef54","system_id":"levelo_inurba_marseille","lat":43.28628,"lon":5.35089,"is_reserved":false,"is_disabled":false,"rental_uris":{"android":"levelo://app?vid=bfd8072e-8c0b-449c-a57c-74c00e79ef54","ios":"levelo://app?vid=bfd8072e-8c0b-449c-a57c-74c00e79ef54"},"vehicle_type_id":"4","last_reported":1742969657,"current_range_meters":6400,"station_id":"ce4bhch2rcd13ifvqeug","pricing_plan_id":"cebpf4jnsgd1na2vs0mg"},{"bike_id":"4658672c-f05f-4c79-bc3e-455b1dba1066","system_id":"levelo_inurba_marseille","lat":43.31997,"lon":5.38155,"is_reserved":false,"is_disabled":false,"rental_uris":{"android":"levelo://app?vid=4658672c-f05f-4c79-bc3e-455b1dba1066","ios":"levelo://app?vid=4658672c-f05f-4c79-bc3e-455b1dba1066"},"vehicle_type_id":"4","last_reported":1742969657,"current_range_meters":6400,"station_id":"ce4bhr12rcd13ifvqhpg","pricing_plan_id":"cebpf4jnsgd1na2vs0mg"},{"bike_id":"f9c2d6f4-4513-4b26-a173-3b2adf92e672","system_id":"levelo_inurba_marseille","lat":43.30075,"lon":5.39095,"is_reserved":false,"is_disabled":false,"rental_uris":{"android":"levelo://app?vid=f9c2d6f4-4513-4b26-a173-3b2adf92e672","ios":"levelo://app?vid=f9c2d6f4-4513-4b26-a173-3b2adf92e672"},"vehicle_type_id":"4","last_reported":1742969657,"current_range_meters":6400,"station_id":"ce4bh192rcd13ifvqdb0","pricing_plan_id":"cebpf4jnsgd1na2vs0mg"},{"bike_id":"bbe912d0-9523-48a8-9e9e-535309c5eaa6","system_id":"levelo_inurba_marseille","lat":43.293024,"lon":5.374539,"is_reserved":false,"is_disabled":true,"rental_uris":{"android":"levelo://app?vid=bbe912d0-9523-48a8-9e9e-535309c5eaa6","ios":"levelo://app?vid=bbe912d0-9523-48a8-9e9e-535309c5eaa6"},"vehicle_type_id":"4","last_reported":1742969657,"current_range_meters":6400,"station_id":"ce4bgi12rcd13ifvqb70","pricing_plan_id":"cebpf4jnsgd1na2vs0mg"},{"bike_id":"52d363fe-5316-4f57-b127-d18678d2192d","system_id":"levelo_inurba_marseille","lat":43.30301,"lon":5.36938,"is_reserved":false,"is_disabled":false,"rental_uris":{"android":"levelo://app?vid=52d363fe-5316-4f57-b127-d18678d2192d","ios":"levelo://app?vid=52d363fe-5316-4f57-b127-d18678d2192d"},"vehicle_type_id":"4","last_reported":1742969657,"current_range_meters":6400,"station_id":"ce4bgqh2rcd13ifvqc5g","pricing_plan_id":"cebpf4jnsgd1na2vs0mg"},{"bike_id":"5a38931b-2d7b-4bf3-8299-4a90c2fd7d7b","system_id":"levelo_inurba_marseille","lat":43.24069,"lon":5.37765,"is_reserved":false,"is_disabled":false,"rental_uris":{"android":"levelo://app?vid=5a38931b-2d7b-4bf3-8299-4a90c2fd7d7b","ios":"levelo://app?vid=5a38931b-2d7b-4bf3-8299-4a90c2fd7d7b"},"vehicle_type_id":"4","last_reported":1742969657,"current_range_meters":6400,"station_id":"ce4bhnp2rcd13ifvqgvg","pricing_plan_id":"cebpf4jnsgd1na2vs0mg"},{"bike_id":"f79c72f1-af32-47df-99ec-857a9987b79c","system_id":"levelo_inurba_marseille","lat":43.2857,"lon":5.39503,"is_reserved":false,"is_disabled":false,"rental_uris":{"android":"levelo://app?vid=f79c72f1-af32-47df-99ec-857a9987b79c","ios":"levelo://app?vid=f79c72f1-af32-47df-99ec-857a9987b79c"},"vehicle_type_id":"4","last_reported":1742969657,"current_range_meters":6800,"station_id":"ce4bh292rcd13ifvqdg0","pricing_plan_id":"cebpf4jnsgd1na2vs0mg"},{"bike_id":"d65aa873-af88-4101-bc10-250c22b71ff0","system_id":"levelo_inurba_marseille","lat":43.26947,"lon":5.40249,"is_reserved":false,"is_disabled":false,"rental_uris":{"android":"levelo://app?vid=d65aa873-af88-4101-bc10-250c22b71ff0","ios":"levelo://app?vid=d65aa873-af88-4101-bc10-250c22b71ff0"},"vehicle_type_id":"4","last_reported":1742969657,"current_range_meters":6800,"station_id":"cjm6bp8fraef2m0cb0m0","pricing_plan_id":"cebpf4jnsgd1na2vs0mg"},{"bike_id":"bb6039b7-3a5e-4723-ae1e-1ed71bf967d4","system_id":"levelo_inurba_marseille","lat":43.24666,"lon":5.38159,"is_reserved":false,"is_disabled":false,"rental_uris":{"android":"levelo://app?vid=bb6039b7-3a5e-4723-ae1e-1ed71bf967d4","ios":"levelo://app?vid=bb6039b7-3a5e-4723-ae1e-1ed71bf967d4"},"vehicle_type_id":"4","last_reported":1742969657,"current_range_meters":6800,"station_id":"ce4bhih2rcd13ifvqfr0","pricing_plan_id":"cebpf4jnsgd1na2vs0mg"},{"bike_id":"6c40bd81-af13-42e4-8827-fa8af6ebc8cc","system_id":"levelo_inurba_marseille","lat":43.248,"lon":5.37486,"is_reserved":false,"is_disabled":false,"rental_uris":{"android":"levelo://app?vid=6c40bd81-af13-42e4-8827-fa8af6ebc8cc","ios":"levelo://app?vid=6c40bd81-af13-42e4-8827-fa8af6ebc8cc"},"vehicle_type_id":"4","last_reported":1742969657,"current_range_meters":6800,"station_id":"ce4bhgh2rcd13ifvqfb0","pricing_plan_id":"cebpf4jnsgd1na2vs0mg"},{"bike_id":"2da0b8a4-46fa-4f04-bde2-c98f7b51d9e0","system_id":"levelo_inurba_marseille","lat":43.28402,"lon":5.3753,"is_reserved":false,"is_disabled":false,"rental_uris":{"android":"levelo://app?vid=2da0b8a4-46fa-4f04-bde2-c98f7b51d9e0","ios":"levelo://app?vid=2da0b8a4-46fa-4f04-bde2-c98f7b51d9e0"},"vehicle_type_id":"4","last_reported":1742969657,"current_range_meters":6800,"station_id":"ce4bh412rcd13ifvqds0","pricing_plan_id":"cebpf4jnsgd1na2vs0mg"},{"bike_id":"d5b76229-ecbf-435e-8c64-cbdf6065f0a4","system_id":"levelo_inurba_marseille","lat":43.31712,"lon":5.43708,"is_reserved":false,"is_disabled":false,"rental_uris":{"android":"levelo://app?vid=d5b76229-ecbf-435e-8c64-cbdf6065f0a4","ios":"levelo://app?vid=d5b76229-ecbf-435e-8c64-cbdf6065f0a4"},"vehicle_type_id":"4","last_reported":1742969657,"current_range_meters":6800,"station_id":"ce4bhp92rcd13ifvqhcg","pricing_plan_id":"cebpf4jnsgd1na2vs0mg"},{"bike_id":"22a21f30-f926-4b55-9440-4d8cdfed855e","system_id":"levelo_inurba_marseille","lat":43.25939,"lon":5.40905,"is_reserved":false,"is_disabled":false,"rental_uris":{"android":"levelo://app?vid=22a21f30-f926-4b55-9440-4d8cdfed855e","ios":"levelo://app?vid=22a21f30-f926-4b55-9440-4d8cdfed855e"},"vehicle_type_id":"4","last_reported":1742969657,"current_range_meters":7200,"station_id":"ce4bhm92rcd13ifvqglg","pricing_plan_id":"cebpf4jnsgd1na2vs0mg"},{"bike_id":"2a99ecb7-4bf0-4c00-89bb-11ff019b8a6d","system_id":"levelo_inurba_marseille","lat":43.229418,"lon":5.353856,"is_reserved":false,"is_disabled":false,"rental_uris":{"android":"levelo://app?vid=2a99ecb7-4bf0-4c00-89bb-11ff019b8a6d","ios":"levelo://app?vid=2a99ecb7-4bf0-4c00-89bb-11ff019b8a6d"},"vehicle_type_id":"4","last_reported":1742969657,"current_range_meters":7200,"station_id":"cpo3532slgdg3j2ikp40","pricing_plan_id":"cebpf4jnsgd1na2vs0mg"},{"bike_id":"e3f76d45-4904-44a7-aac2-e04832e991bb","system_id":"levelo_inurba_marseille","lat":43.299656,"lon":5.413261,"is_reserved":false,"is_disabled":true,"rental_uris":{"android":"levelo://app?vid=e3f76d45-4904-44a7-aac2-e04832e991bb","ios":"levelo://app?vid=e3f76d45-4904-44a7-aac2-e04832e991bb"},"vehicle_type_id":"4","last_reported":1742969657,"current_range_meters":7200,"station_id":"ce4bhp12rcd13ifvqh9g","pricing_plan_id":"cebpf4jnsgd1na2vs0mg"},{"bike_id":"c9578b47-9857-4396-852d-050cd99a85f0","system_id":"levelo_inurba_marseille","lat":43.24673,"lon":5.38169,"is_reserved":false,"is_disabled":false,"rental_uris":{"android":"levelo://app?vid=c9578b47-9857-4396-852d-050cd99a85f0","ios":"levelo://app?vid=c9578b47-9857-4396-852d-050cd99a85f0"},"vehicle_type_id":"4","last_reported":1742969657,"current_range_meters":7200,"station_id":"ce4bhih2rcd13ifvqfr0","pricing_plan_id":"cebpf4jnsgd1na2vs0mg"},{"bike_id":"40c9879f-9142-4245-a7bc-60f5721fd202","system_id":"levelo_inurba_marseille","lat":43.25716,"lon":5.41106,"is_reserved":false,"is_disabled":false,"rental_uris":{"android":"levelo://app?vid=40c9879f-9142-4245-a7bc-60f5721fd202","ios":"levelo://app?vid=40c9879f-9142-4245-a7bc-60f5721fd202"},"vehicle_type_id":"4","last_reported":1742969657,"current_range_meters":7200,"station_id":"ce4bhkp2rcd13ifvqgd0","pricing_plan_id":"cebpf4jnsgd1na2vs0mg"},{"bike_id":"ada4ba7b-2dc8-47ef-a5a8-9dc4e4bd1916","system_id":"levelo_inurba_marseille","lat":43.30336,"lon":5.36806,"is_reserved":false,"is_disabled":false,"rental_uris":{"android":"levelo://app?vid=ada4ba7b-2dc8-47ef-a5a8-9dc4e4bd1916","ios":"levelo://app?vid=ada4ba7b-2dc8-47ef-a5a8-9dc4e4bd1916"},"vehicle_type_id":"4","last_reported":1742969657,"current_range_meters":7200,"station_id":"","pricing_plan_id":"cebpf4jnsgd1na2vs0mg"},{"bike_id":"1a3c5e1e-498d-4bf5-b5bd-2116c210ebf5","system_id":"levelo_inurba_marseille","lat":43.244009,"lon":5.370491,"is_reserved":false,"is_disabled":false,"rental_uris":{"android":"levelo://app?vid=1a3c5e1e-498d-4bf5-b5bd-2116c210ebf5","ios":"levelo://app?vid=1a3c5e1e-498d-4bf5-b5bd-2116c210ebf5"},"vehicle_type_id":"4","last_reported":1742969657,"current_range_meters":7200,"station_id":"ce4bhhh2rcd13ifvqfk0","pricing_plan_id":"cebpf4jnsgd1na2vs0mg"},{"bike_id":"896d5863-1ac5-46eb-b4be-2c9a5b236c8f","system_id":"levelo_inurba_marseille","lat":43.28445,"lon":5.39175,"is_reserved":false,"is_disabled":false,"rental_uris":{"android":"levelo://app?vid=896d5863-1ac5-46eb-b4be-2c9a5b236c8f","ios":"levelo://app?vid=896d5863-1ac5-46eb-b4be-2c9a5b236c8f"},"vehicle_type_id":"4","last_reported":1742969657,"current_range_meters":7200,"station_id":"ce4bhoh2rcd13ifvqh5g","pricing_plan_id":"cebpf4jnsgd1na2vs0mg"},{"bike_id":"f231fce1-4e45-4e91-9f3a-d048500c7ded","system_id":"levelo_inurba_marseille","lat":43.30892,"lon":5.39603,"is_reserved":false,"is_disabled":false,"rental_uris":{"android":"levelo://app?vid=f231fce1-4e45-4e91-9f3a-d048500c7ded","ios":"levelo://app?vid=f231fce1-4e45-4e91-9f3a-d048500c7ded"},"vehicle_type_id":"4","last_reported":1742969657,"current_range_meters":7200,"station_id":"ce4bh012rcd13ifvqcv0","pricing_plan_id":"cebpf4jnsgd1na2vs0mg"},{"bike_id":"d0ce6a4c-8c1a-4117-b620-bb8816808dbc","system_id":"levelo_inurba_marseille","lat":43.23962,"lon":5.36624,"is_reserved":false,"is_disabled":false,"rental_uris":{"android":"levelo://app?vid=d0ce6a4c-8c1a-4117-b620-bb8816808dbc","ios":"levelo://app?vid=d0ce6a4c-8c1a-4117-b620-bb8816808dbc"},"vehicle_type_id":"4","last_reported":1742969657,"current_range_meters":7200,"station_id":"ce4bhi12rcd13ifvqfp0","pricing_plan_id":"cebpf4jnsgd1na2vs0mg"},{"bike_id":"b6fd1ec3-47b2-486f-8b84-f71e2b87ecef","system_id":"levelo_inurba_marseille","lat":43.31065,"lon":5.4251,"is_reserved":false,"is_disabled":true,"rental_uris":{"android":"levelo://app?vid=b6fd1ec3-47b2-486f-8b84-f71e2b87ecef","ios":"levelo://app?vid=b6fd1ec3-47b2-486f-8b84-f71e2b87ecef"},"vehicle_type_id":"4","last_reported":1742969657,"current_range_meters":7200,"station_id":"","pricing_plan_id":"cebpf4jnsgd1na2vs0mg"},{"bike_id":"f63f5481-a6f7-4d46-af84-60ed21e786f8","system_id":"levelo_inurba_marseille","lat":43.28403,"lon":5.37519,"is_reserved":false,"is_disabled":false,"rental_uris":{"android":"levelo://app?vid=f63f5481-a6f7-4d46-af84-60ed21e786f8","ios":"levelo://app?vid=f63f5481-a6f7-4d46-af84-60ed21e786f8"},"vehicle_type_id":"4","last_reported":1742969657,"current_range_meters":7200,"station_id":"ce4bh412rcd13ifvqds0","pricing_plan_id":"cebpf4jnsgd1na2vs0mg"},{"bike_id":"225cbe9d-4f8e-432e-b5e7-cd7e14da2d62","system_id":"levelo_inurba_marseille","lat":43.281621,"lon":5.426563,"is_reserved":false,"is_disabled":false,"rental_uris":{"android":"levelo://app?vid=225cbe9d-4f8e-432e-b5e7-cd7e14da2d62","ios":"levelo://app?vid=225cbe9d-4f8e-432e-b5e7-cd7e14da2d62"},"vehicle_type_id":"4","last_reported":1742969657,"current_range_meters":8000,"station_id":"ce4bhnh2rcd13ifvqgug","pricing_plan_id":"cebpf4jnsgd1na2vs0mg"},{"bike_id":"2f3e2a92-1301-4a27-8eaa-7b0ea525530e","system_id":"levelo_inurba_marseille","lat":43.31712,"lon":5.43724,"is_reserved":false,"is_disabled":false,"rental_uris":{"android":"levelo://app?vid=2f3e2a92-1301-4a27-8eaa-7b0ea525530e","ios":"levelo://app?vid=2f3e2a92-1301-4a27-8eaa-7b0ea525530e"},"vehicle_type_id":"4","last_reported":1742969657,"current_range_meters":8000,"station_id":"ce4bhp92rcd13ifvqhcg","pricing_plan_id":"cebpf4jnsgd1na2vs0mg"},{"bike_id":"f2c78ca5-24f3-407b-8a58-759a953e6b2d","system_id":"levelo_inurba_marseille","lat":43.28697,"lon":5.39988,"is_reserved":false,"is_disabled":false,"rental_uris":{"android":"levelo://app?vid=f2c78ca5-24f3-407b-8a58-759a953e6b2d","ios":"levelo://app?vid=f2c78ca5-24f3-407b-8a58-759a953e6b2d"},"vehicle_type_id":"4","last_reported":1742969657,"current_range_meters":8000,"station_id":"ce4bho92rcd13ifvqh3g","pricing_plan_id":"cebpf4jnsgd1na2vs0mg"},{"bike_id":"5947461e-f1d9-4b8a-a16b-079c1e611686","system_id":"levelo_inurba_marseille","lat":43.282735,"lon":5.350691,"is_reserved":false,"is_disabled":true,"rental_uris":{"android":"levelo://app?vid=5947461e-f1d9-4b8a-a16b-079c1e611686","ios":"levelo://app?vid=5947461e-f1d9-4b8a-a16b-079c1e611686"},"vehicle_type_id":"4","last_reported":1742969657,"current_range_meters":8000,"station_id":"ce4bhbp2rcd13ifvqerg","pricing_plan_id":"cebpf4jnsgd1na2vs0mg"},{"bike_id":"bf897b90-1384-4a2f-ac27-95c9b1e77fd1","system_id":"levelo_inurba_marseille","lat":43.268104,"lon":5.402596,"is_reserved":false,"is_disabled":false,"rental_uris":{"android":"levelo://app?vid=bf897b90-1384-4a2f-ac27-95c9b1e77fd1","ios":"levelo://app?vid=bf897b90-1384-4a2f-ac27-95c9b1e77fd1"},"vehicle_type_id":"4","last_reported":1742969657,"current_range_meters":8000,"station_id":"ce501612rcd8frsf0b60","pricing_plan_id":"cebpf4jnsgd1na2vs0mg"},{"bike_id":"11438d8e-2d0f-46ba-9f5d-f2d8f9f5eadf","system_id":"levelo_inurba_marseille","lat":43.25075,"lon":5.39544,"is_reserved":false,"is_disabled":false,"rental_uris":{"android":"levelo://app?vid=11438d8e-2d0f-46ba-9f5d-f2d8f9f5eadf","ios":"levelo://app?vid=11438d8e-2d0f-46ba-9f5d-f2d8f9f5eadf"},"vehicle_type_id":"4","last_reported":1742969657,"current_range_meters":8000,"station_id":"ce4bhm12rcd13ifvqgkg","pricing_plan_id":"cebpf4jnsgd1na2vs0mg"},{"bike_id":"f3371853-40bf-4a23-bed4-87c9715e98c9","system_id":"levelo_inurba_marseille","lat":43.26803,"lon":5.40271,"is_reserved":false,"is_disabled":false,"rental_uris":{"android":"levelo://app?vid=f3371853-40bf-4a23-bed4-87c9715e98c9","ios":"levelo://app?vid=f3371853-40bf-4a23-bed4-87c9715e98c9"},"vehicle_type_id":"4","last_reported":1742969657,"current_range_meters":8000,"station_id":"ce501612rcd8frsf0b60","pricing_plan_id":"cebpf4jnsgd1na2vs0mg"},{"bike_id":"74ed019f-51e9-4336-8496-4c595e435551","system_id":"levelo_inurba_marseille","lat":43.28278,"lon":5.35061,"is_reserved":false,"is_disabled":false,"rental_uris":{"android":"levelo://app?vid=74ed019f-51e9-4336-8496-4c595e435551","ios":"levelo://app?vid=74ed019f-51e9-4336-8496-4c595e435551"},"vehicle_type_id":"4","last_reported":1742969657,"current_range_meters":8000,"station_id":"ce4bhbp2rcd13ifvqerg","pricing_plan_id":"cebpf4jnsgd1na2vs0mg"},{"bike_id":"8c5e09de-c9ee-4ecd-8bf7-a9da954099c1","system_id":"levelo_inurba_marseille","lat":43.27971,"lon":5.40023,"is_reserved":false,"is_disabled":false,"rental_uris":{"android":"levelo://app?vid=8c5e09de-c9ee-4ecd-8bf7-a9da954099c1","ios":"levelo://app?vid=8c5e09de-c9ee-4ecd-8bf7-a9da954099c1"},"vehicle_type_id":"4","last_reported":1742969657,"current_range_meters":8000,"station_id":"ce4bho92rcd13ifvqh4g","pricing_plan_id":"cebpf4jnsgd1na2vs0mg"},{"bike_id":"342f19f0-681f-4097-b14f-f905cbb3bfb3","system_id":"levelo_inurba_marseille","lat":43.2738,"lon":5.36249,"is_reserved":false,"is_disabled":false,"rental_uris":{"android":"levelo://app?vid=342f19f0-681f-4097-b14f-f905cbb3bfb3","ios":"levelo://app?vid=342f19f0-681f-4097-b14f-f905cbb3bfb3"},"vehicle_type_id":"4","last_reported":1742969657,"current_range_meters":8000,"station_id":"ce4bhbh2rcd13ifvqeo0","pricing_plan_id":"cebpf4jnsgd1na2vs0mg"},{"bike_id":"6a2be86c-5221-475d-ab8e-5d3542773aa2","system_id":"levelo_inurba_marseille","lat":43.31496,"lon":5.37286,"is_reserved":false,"is_disabled":false,"rental_uris":{"android":"levelo://app?vid=6a2be86c-5221-475d-ab8e-5d3542773aa2","ios":"levelo://app?vid=6a2be86c-5221-475d-ab8e-5d3542773aa2"},"vehicle_type_id":"4","last_reported":1742969657,"current_range_meters":8000,"station_id":"ce4bgt12rcd13ifvqcd0","pricing_plan_id":"cebpf4jnsgd1na2vs0mg"},{"bike_id":"1392a870-6300-4219-8b1a-6d76541db636","system_id":"levelo_inurba_marseille","lat":43.323335,"lon":5.406224,"is_reserved":false,"is_disabled":false,"rental_uris":{"android":"levelo://app?vid=1392a870-6300-4219-8b1a-6d76541db636","ios":"levelo://app?vid=1392a870-6300-4219-8b1a-6d76541db636"},"vehicle_type_id":"4","last_reported":1742969657,"current_range_meters":8000,"station_id":"ce4bhq92rcd13ifvqhjg","pricing_plan_id":"cebpf4jnsgd1na2vs0mg"},{"bike_id":"89e75ed9-7f20-48f7-ad37-e0033e47c633","system_id":"levelo_inurba_marseille","lat":43.24667,"lon":5.38893,"is_reserved":false,"is_disabled":false,"rental_uris":{"android":"levelo://app?vid=89e75ed9-7f20-48f7-ad37-e0033e47c633","ios":"levelo://app?vid=89e75ed9-7f20-48f7-ad37-e0033e47c633"},"vehicle_type_id":"4","last_reported":1742969657,"current_range_meters":8000,"station_id":"ce4bhg12rcd13ifvqf60","pricing_plan_id":"cebpf4jnsgd1na2vs0mg"},{"bike_id":"5eb0e2f0-8111-4362-8b3d-f072323b11aa","system_id":"levelo_inurba_marseille","lat":43.28608,"lon":5.37067,"is_reserved":false,"is_disabled":false,"rental_uris":{"android":"levelo://app?vid=5eb0e2f0-8111-4362-8b3d-f072323b11aa","ios":"levelo://app?vid=5eb0e2f0-8111-4362-8b3d-f072323b11aa"},"vehicle_type_id":"4","last_reported":1742969657,"current_range_meters":8400,"station_id":"ce4bht12rcd13ifvqi60","pricing_plan_id":"cebpf4jnsgd1na2vs0mg"},{"bike_id":"f294d69a-8637-46e9-95b8-3d82151d6376","system_id":"levelo_inurba_marseille","lat":43.279924,"lon":5.41667,"is_reserved":false,"is_disabled":true,"rental_uris":{"android":"levelo://app?vid=f294d69a-8637-46e9-95b8-3d82151d6376","ios":"levelo://app?vid=f294d69a-8637-46e9-95b8-3d82151d6376"},"vehicle_type_id":"4","last_reported":1742969657,"current_range_meters":8400,"station_id":"ce4bho12rcd13ifvqh1g","pricing_plan_id":"cebpf4jnsgd1na2vs0mg"},{"bike_id":"5aeb641c-8c67-430e-bd09-77076d22412d","system_id":"levelo_inurba_marseille","lat":43.31044,"lon":5.37587,"is_reserved":false,"is_disabled":false,"rental_uris":{"android":"levelo://app?vid=5aeb641c-8c67-430e-bd09-77076d22412d","ios":"levelo://app?vid=5aeb641c-8c67-430e-bd09-77076d22412d"},"vehicle_type_id":"4","last_reported":1742969657,"current_range_meters":8400,"station_id":"","pricing_plan_id":"cebpf4jnsgd1na2vs0mg"},{"bike_id":"c5a53012-3ad4-48af-9734-3592df1799d5","system_id":"levelo_inurba_marseille","lat":43.232,"lon":5.35546,"is_reserved":false,"is_disabled":false,"rental_uris":{"android":"levelo://app?vid=c5a53012-3ad4-48af-9734-3592df1799d5","ios":"levelo://app?vid=c5a53012-3ad4-48af-9734-3592df1799d5"},"vehicle_type_id":"4","last_reported":1742969657,"current_range_meters":8400,"station_id":"ce4bhu92rcd13ifvqi70","pricing_plan_id":"cebpf4jnsgd1na2vs0mg"},{"bike_id":"6633349b-54ae-41b8-88d5-61ec5d012302","system_id":"levelo_inurba_marseille","lat":43.321091,"lon":5.367694,"is_reserved":false,"is_disabled":false,"rental_uris":{"android":"levelo://app?vid=6633349b-54ae-41b8-88d5-61ec5d012302","ios":"levelo://app?vid=6633349b-54ae-41b8-88d5-61ec5d012302"},"vehicle_type_id":"4","last_reported":1742969657,"current_range_meters":8400,"station_id":"ce4bhrh2rcd13ifvqhug","pricing_plan_id":"cebpf4jnsgd1na2vs0mg"},{"bike_id":"0c9cada4-2764-4013-a528-15089818cb84","system_id":"levelo_inurba_marseille","lat":43.277521,"lon":5.411637,"is_reserved":false,"is_disabled":false,"rental_uris":{"android":"levelo://app?vid=0c9cada4-2764-4013-a528-15089818cb84","ios":"levelo://app?vid=0c9cada4-2764-4013-a528-15089818cb84"},"vehicle_type_id":"4","last_reported":1742969657,"current_range_meters":8400,"station_id":"","pricing_plan_id":"cebpf4jnsgd1na2vs0mg"},{"bike_id":"74406c35-ee35-437d-be26-2d7711378046","system_id":"levelo_inurba_marseille","lat":43.32363,"lon":5.368,"is_reserved":false,"is_disabled":false,"rental_uris":{"android":"levelo://app?vid=74406c35-ee35-437d-be26-2d7711378046","ios":"levelo://app?vid=74406c35-ee35-437d-be26-2d7711378046"},"vehicle_type_id":"4","last_reported":1742969657,"current_range_meters":8400,"station_id":"ce4bhsh2rcd13ifvqi2g","pricing_plan_id":"cebpf4jnsgd1na2vs0mg"},{"bike_id":"79511999-36a4-40b7-932f-a8d34fad90ac","system_id":"levelo_inurba_marseille","lat":43.30896,"lon":5.39617,"is_reserved":false,"is_disabled":false,"rental_uris":{"android":"levelo://app?vid=79511999-36a4-40b7-932f-a8d34fad90ac","ios":"levelo://app?vid=79511999-36a4-40b7-932f-a8d34fad90ac"},"vehicle_type_id":"4","last_reported":1742969657,"current_range_meters":8400,"station_id":"ce4bh012rcd13ifvqcv0","pricing_plan_id":"cebpf4jnsgd1na2vs0mg"},{"bike_id":"16e3790f-41b6-400e-8d88-6751ca433300","system_id":"levelo_inurba_marseille","lat":43.24988,"lon":5.38976,"is_reserved":false,"is_disabled":false,"rental_uris":{"android":"levelo://app?vid=16e3790f-41b6-400e-8d88-6751ca433300","ios":"levelo://app?vid=16e3790f-41b6-400e-8d88-6751ca433300"},"vehicle_type_id":"4","last_reported":1742969657,"current_range_meters":8400,"station_id":"","pricing_plan_id":"cebpf4jnsgd1na2vs0mg"},{"bike_id":"5714ec0e-6e53-4732-9ee8-b9024b34aca9","system_id":"levelo_inurba_marseille","lat":43.28562,"lon":5.39505,"is_reserved":false,"is_disabled":false,"rental_uris":{"android":"levelo://app?vid=5714ec0e-6e53-4732-9ee8-b9024b34aca9","ios":"levelo://app?vid=5714ec0e-6e53-4732-9ee8-b9024b34aca9"},"vehicle_type_id":"4","last_reported":1742969657,"current_range_meters":8400,"station_id":"ce4bh292rcd13ifvqdg0","pricing_plan_id":"cebpf4jnsgd1na2vs0mg"},{"bike_id":"c68f1691-f9ef-4fbb-9fec-19a72917558c","system_id":"levelo_inurba_marseille","lat":43.28452,"lon":5.359,"is_reserved":false,"is_disabled":false,"rental_uris":{"android":"levelo://app?vid=c68f1691-f9ef-4fbb-9fec-19a72917558c","ios":"levelo://app?vid=c68f1691-f9ef-4fbb-9fec-19a72917558c"},"vehicle_type_id":"4","last_reported":1742969657,"current_range_meters":8400,"station_id":"ce4bhah2rcd13ifvqei0","pricing_plan_id":"cebpf4jnsgd1na2vs0mg"},{"bike_id":"30d2fbca-239f-49cd-b89b-17b0ba382ee0","system_id":"levelo_inurba_marseille","lat":43.24071,"lon":5.377554,"is_reserved":false,"is_disabled":false,"rental_uris":{"android":"levelo://app?vid=30d2fbca-239f-49cd-b89b-17b0ba382ee0","ios":"levelo://app?vid=30d2fbca-239f-49cd-b89b-17b0ba382ee0"},"vehicle_type_id":"4","last_reported":1742969657,"current_range_meters":8400,"station_id":"ce4bhnp2rcd13ifvqgvg","pricing_plan_id":"cebpf4jnsgd1na2vs0mg"},{"bike_id":"4fce0cf0-781a-4abe-89c9-500e69515fd4","system_id":"levelo_inurba_marseille","lat":43.24665,"lon":5.38164,"is_reserved":false,"is_disabled":false,"rental_uris":{"android":"levelo://app?vid=4fce0cf0-781a-4abe-89c9-500e69515fd4","ios":"levelo://app?vid=4fce0cf0-781a-4abe-89c9-500e69515fd4"},"vehicle_type_id":"4","last_reported":1742969657,"current_range_meters":8400,"station_id":"ce4bhih2rcd13ifvqfr0","pricing_plan_id":"cebpf4jnsgd1na2vs0mg"},{"bike_id":"8046ef72-cb0a-400d-b1d8-b0250c67a0d7","system_id":"levelo_inurba_marseille","lat":43.24699,"lon":5.38141,"is_reserved":false,"is_disabled":false,"rental_uris":{"android":"levelo://app?vid=8046ef72-cb0a-400d-b1d8-b0250c67a0d7","ios":"levelo://app?vid=8046ef72-cb0a-400d-b1d8-b0250c67a0d7"},"vehicle_type_id":"4","last_reported":1742969657,"current_range_meters":8400,"station_id":"ce4bhih2rcd13ifvqfr0","pricing_plan_id":"cebpf4jnsgd1na2vs0mg"},{"bike_id":"28608dc9-a0fa-40f5-864a-a89d151a1db8","system_id":"levelo_inurba_marseille","lat":43.27565,"lon":5.38422,"is_reserved":false,"is_disabled":false,"rental_uris":{"android":"levelo://app?vid=28608dc9-a0fa-40f5-864a-a89d151a1db8","ios":"levelo://app?vid=28608dc9-a0fa-40f5-864a-a89d151a1db8"},"vehicle_type_id":"4","last_reported":1742969657,"current_range_meters":8400,"station_id":"ce4bhh92rcd13ifvqfi0","pricing_plan_id":"cebpf4jnsgd1na2vs0mg"},{"bike_id":"8583bcae-e817-4db7-ab92-448c595780ea","system_id":"levelo_inurba_marseille","lat":43.33009,"lon":5.39031,"is_reserved":false,"is_disabled":false,"rental_uris":{"android":"levelo://app?vid=8583bcae-e817-4db7-ab92-448c595780ea","ios":"levelo://app?vid=8583bcae-e817-4db7-ab92-448c595780ea"},"vehicle_type_id":"4","last_reported":1742969657,"current_range_meters":8400,"station_id":"ce4bhr92rcd13ifvqhrg","pricing_plan_id":"cebpf4jnsgd1na2vs0mg"},{"bike_id":"dd41cfbe-8291-4121-af39-06b86784c697","system_id":"levelo_inurba_marseille","lat":43.24799,"lon":5.37467,"is_reserved":false,"is_disabled":false,"rental_uris":{"android":"levelo://app?vid=dd41cfbe-8291-4121-af39-06b86784c697","ios":"levelo://app?vid=dd41cfbe-8291-4121-af39-06b86784c697"},"vehicle_type_id":"4","last_reported":1742969657,"current_range_meters":8800,"station_id":"ce4bhgh2rcd13ifvqfb0","pricing_plan_id":"cebpf4jnsgd1na2vs0mg"},{"bike_id":"d5b2bd81-96d0-404f-bd2d-fb8136270d73","system_id":"levelo_inurba_marseille","lat":43.31207,"lon":5.36879,"is_reserved":false,"is_disabled":false,"rental_uris":{"android":"levelo://app?vid=d5b2bd81-96d0-404f-bd2d-fb8136270d73","ios":"levelo://app?vid=d5b2bd81-96d0-404f-bd2d-fb8136270d73"},"vehicle_type_id":"4","last_reported":1742969657,"current_range_meters":8800,"station_id":"ce4bgl92rcd13ifvqbq0","pricing_plan_id":"cebpf4jnsgd1na2vs0mg"},{"bike_id":"b0398b2e-2bb9-4bbd-9664-3ee483348c23","system_id":"levelo_inurba_marseille","lat":43.28455,"lon":5.35898,"is_reserved":false,"is_disabled":false,"rental_uris":{"android":"levelo://app?vid=b0398b2e-2bb9-4bbd-9664-3ee483348c23","ios":"levelo://app?vid=b0398b2e-2bb9-4bbd-9664-3ee483348c23"},"vehicle_type_id":"4","last_reported":1742969657,"current_range_meters":8800,"station_id":"ce4bhah2rcd13ifvqei0","pricing_plan_id":"cebpf4jnsgd1na2vs0mg"},{"bike_id":"d0d65fe2-c566-4a74-9659-9e90652dfdb4","system_id":"levelo_inurba_marseille","lat":43.30914,"lon":5.40192,"is_reserved":false,"is_disabled":false,"rental_uris":{"android":"levelo://app?vid=d0d65fe2-c566-4a74-9659-9e90652dfdb4","ios":"levelo://app?vid=d0d65fe2-c566-4a74-9659-9e90652dfdb4"},"vehicle_type_id":"4","last_reported":1742969657,"current_range_meters":8800,"station_id":"ce4bgvp2rcd13ifvqct0","pricing_plan_id":"cebpf4jnsgd1na2vs0mg"},{"bike_id":"34a65679-9fb1-4403-90b3-341e4c2e2050","system_id":"levelo_inurba_marseille","lat":43.28388,"lon":5.37556,"is_reserved":false,"is_disabled":false,"rental_uris":{"android":"levelo://app?vid=34a65679-9fb1-4403-90b3-341e4c2e2050","ios":"levelo://app?vid=34a65679-9fb1-4403-90b3-341e4c2e2050"},"vehicle_type_id":"4","last_reported":1742969657,"current_range_meters":8800,"station_id":"ce4bh412rcd13ifvqds0","pricing_plan_id":"cebpf4jnsgd1na2vs0mg"},{"bike_id":"d7d0f06d-b2c4-4eea-a90b-13f59888a28b","system_id":"levelo_inurba_marseille","lat":43.31705,"lon":5.37747,"is_reserved":false,"is_disabled":false,"rental_uris":{"android":"levelo://app?vid=d7d0f06d-b2c4-4eea-a90b-13f59888a28b","ios":"levelo://app?vid=d7d0f06d-b2c4-4eea-a90b-13f59888a28b"},"vehicle_type_id":"4","last_reported":1742969657,"current_range_meters":8800,"station_id":"ce4bgth2rcd13ifvqch0","pricing_plan_id":"cebpf4jnsgd1na2vs0mg"},{"bike_id":"5afadd01-05af-47f2-b106-8c57133c5065","system_id":"levelo_inurba_marseille","lat":43.299785,"lon":5.384985,"is_reserved":false,"is_disabled":true,"rental_uris":{"android":"levelo://app?vid=5afadd01-05af-47f2-b106-8c57133c5065","ios":"levelo://app?vid=5afadd01-05af-47f2-b106-8c57133c5065"},"vehicle_type_id":"4","last_reported":1742969657,"current_range_meters":8800,"station_id":"ce4bgj92rcd13ifvqbd0","pricing_plan_id":"cebpf4jnsgd1na2vs0mg"},{"bike_id":"875767d7-7800-4e29-98b6-5d7c31e1815f","system_id":"levelo_inurba_marseille","lat":43.28599,"lon":5.35117,"is_reserved":false,"is_disabled":false,"rental_uris":{"android":"levelo://app?vid=875767d7-7800-4e29-98b6-5d7c31e1815f","ios":"levelo://app?vid=875767d7-7800-4e29-98b6-5d7c31e1815f"},"vehicle_type_id":"4","last_reported":1742969657,"current_range_meters":8800,"station_id":"ce4bhch2rcd13ifvqeug","pricing_plan_id":"cebpf4jnsgd1na2vs0mg"},{"bike_id":"0212deb9-29f3-4a07-9e8b-5135c180a147","system_id":"levelo_inurba_marseille","lat":43.30136,"lon":5.38098,"is_reserved":false,"is_disabled":false,"rental_uris":{"android":"levelo://app?vid=0212deb9-29f3-4a07-9e8b-5135c180a147","ios":"levelo://app?vid=0212deb9-29f3-4a07-9e8b-5135c180a147"},"vehicle_type_id":"4","last_reported":1742969657,"current_range_meters":9200,"station_id":"ce4bgjp2rcd13ifvqbh0","pricing_plan_id":"cebpf4jnsgd1na2vs0mg"},{"bike_id":"059c9c4c-3e3b-49b7-a193-d6a49b2ab23f","system_id":"levelo_inurba_marseille","lat":43.26999,"lon":5.43119,"is_reserved":false,"is_disabled":false,"rental_uris":{"android":"levelo://app?vid=059c9c4c-3e3b-49b7-a193-d6a49b2ab23f","ios":"levelo://app?vid=059c9c4c-3e3b-49b7-a193-d6a49b2ab23f"},"vehicle_type_id":"4","last_reported":1742969657,"current_range_meters":9200,"station_id":"","pricing_plan_id":"cebpf4jnsgd1na2vs0mg"},{"bike_id":"38351309-2dec-417c-a558-74c8bc991036","system_id":"levelo_inurba_marseille","lat":43.308111,"lon":5.40641,"is_reserved":false,"is_disabled":true,"rental_uris":{"android":"levelo://app?vid=38351309-2dec-417c-a558-74c8bc991036","ios":"levelo://app?vid=38351309-2dec-417c-a558-74c8bc991036"},"vehicle_type_id":"4","last_reported":1742969657,"current_range_meters":9200,"station_id":"","pricing_plan_id":"cebpf4jnsgd1na2vs0mg"},{"bike_id":"9f0995d2-191f-46af-9637-5898cf5c4319","system_id":"levelo_inurba_marseille","lat":43.32441,"lon":5.36593,"is_reserved":false,"is_disabled":false,"rental_uris":{"android":"levelo://app?vid=9f0995d2-191f-46af-9637-5898cf5c4319","ios":"levelo://app?vid=9f0995d2-191f-46af-9637-5898cf5c4319"},"vehicle_type_id":"4","last_reported":1742969657,"current_range_meters":9200,"station_id":"ce4bhs12rcd13ifvqhvg","pricing_plan_id":"cebpf4jnsgd1na2vs0mg"},{"bike_id":"a4014c6f-398b-43e5-8c6e-cc804506e935","system_id":"levelo_inurba_marseille","lat":43.284024,"lon":5.375203,"is_reserved":false,"is_disabled":false,"rental_uris":{"android":"levelo://app?vid=a4014c6f-398b-43e5-8c6e-cc804506e935","ios":"levelo://app?vid=a4014c6f-398b-43e5-8c6e-cc804506e935"},"vehicle_type_id":"4","last_reported":1742969657,"current_range_meters":9200,"station_id":"ce4bh412rcd13ifvqds0","pricing_plan_id":"cebpf4jnsgd1na2vs0mg"},{"bike_id":"fc2cc0a3-bfc1-483d-ac7a-d91e15d05d6c","system_id":"levelo_inurba_marseille","lat":43.254473,"lon":5.412823,"is_reserved":false,"is_disabled":false,"rental_uris":{"android":"levelo://app?vid=fc2cc0a3-bfc1-483d-ac7a-d91e15d05d6c","ios":"levelo://app?vid=fc2cc0a3-bfc1-483d-ac7a-d91e15d05d6c"},"vehicle_type_id":"4","last_reported":1742969657,"current_range_meters":9200,"station_id":"","pricing_plan_id":"cebpf4jnsgd1na2vs0mg"},{"bike_id":"6bd82c37-6406-4469-9def-05b97b777f5e","system_id":"levelo_inurba_marseille","lat":43.21844,"lon":5.42008,"is_reserved":false,"is_disabled":false,"rental_uris":{"android":"levelo://app?vid=6bd82c37-6406-4469-9def-05b97b777f5e","ios":"levelo://app?vid=6bd82c37-6406-4469-9def-05b97b777f5e"},"vehicle_type_id":"4","last_reported":1742969657,"current_range_meters":9200,"station_id":"","pricing_plan_id":"cebpf4jnsgd1na2vs0mg"},{"bike_id":"8e10d1b9-f227-4b61-a593-c5b8521e7750","system_id":"levelo_inurba_marseille","lat":43.28715,"lon":5.39977,"is_reserved":false,"is_disabled":false,"rental_uris":{"android":"levelo://app?vid=8e10d1b9-f227-4b61-a593-c5b8521e7750","ios":"levelo://app?vid=8e10d1b9-f227-4b61-a593-c5b8521e7750"},"vehicle_type_id":"4","last_reported":1742969657,"current_range_meters":9200,"station_id":"ce4bho92rcd13ifvqh3g","pricing_plan_id":"cebpf4jnsgd1na2vs0mg"},{"bike_id":"e7fb0541-4ec4-4639-9364-0dcd87fd24a7","system_id":"levelo_inurba_marseille","lat":43.28352,"lon":5.38072,"is_reserved":false,"is_disabled":false,"rental_uris":{"android":"levelo://app?vid=e7fb0541-4ec4-4639-9364-0dcd87fd24a7","ios":"levelo://app?vid=e7fb0541-4ec4-4639-9364-0dcd87fd24a7"},"vehicle_type_id":"4","last_reported":1742969657,"current_range_meters":9200,"station_id":"ce4bh412rcd13ifvqdr0","pricing_plan_id":"cebpf4jnsgd1na2vs0mg"},{"bike_id":"122cccd4-5fdc-42dd-85c3-c7bd8aefb118","system_id":"levelo_inurba_marseille","lat":43.26191,"lon":5.40457,"is_reserved":false,"is_disabled":false,"rental_uris":{"android":"levelo://app?vid=122cccd4-5fdc-42dd-85c3-c7bd8aefb118","ios":"levelo://app?vid=122cccd4-5fdc-42dd-85c3-c7bd8aefb118"},"vehicle_type_id":"4","last_reported":1742969657,"current_range_meters":9200,"station_id":"ce4bhmh2rcd13ifvqgmg","pricing_plan_id":"cebpf4jnsgd1na2vs0mg"},{"bike_id":"a86f77b5-4f60-4373-9e14-1c36c13ffed9","system_id":"levelo_inurba_marseille","lat":43.25859,"lon":5.39907,"is_reserved":false,"is_disabled":false,"rental_uris":{"android":"levelo://app?vid=a86f77b5-4f60-4373-9e14-1c36c13ffed9","ios":"levelo://app?vid=a86f77b5-4f60-4373-9e14-1c36c13ffed9"},"vehicle_type_id":"4","last_reported":1742969657,"current_range_meters":9600,"station_id":"ce4bhl92rcd13ifvqghg","pricing_plan_id":"cebpf4jnsgd1na2vs0mg"},{"bike_id":"bd518952-6d41-4e80-b474-f72c5dfa6ad8","system_id":"levelo_inurba_marseille","lat":43.269482,"lon":5.402665,"is_reserved":false,"is_disabled":false,"rental_uris":{"android":"levelo://app?vid=bd518952-6d41-4e80-b474-f72c5dfa6ad8","ios":"levelo://app?vid=bd518952-6d41-4e80-b474-f72c5dfa6ad8"},"vehicle_type_id":"4","last_reported":1742969657,"current_range_meters":9600,"station_id":"cjm6bp8fraef2m0cb0m0","pricing_plan_id":"cebpf4jnsgd1na2vs0mg"},{"bike_id":"e9cd2535-2fe5-47fb-832a-ec44b7461bac","system_id":"levelo_inurba_marseille","lat":43.31295,"lon":5.39761,"is_reserved":false,"is_disabled":false,"rental_uris":{"android":"levelo://app?vid=e9cd2535-2fe5-47fb-832a-ec44b7461bac","ios":"levelo://app?vid=e9cd2535-2fe5-47fb-832a-ec44b7461bac"},"vehicle_type_id":"4","last_reported":1742969657,"current_range_meters":9600,"station_id":"ce4bgvp2rcd13ifvqcu0","pricing_plan_id":"cebpf4jnsgd1na2vs0mg"},{"bike_id":"f204f5c3-279f-4a48-b597-ec996e78a497","system_id":"levelo_inurba_marseille","lat":43.30956,"lon":5.39049,"is_reserved":false,"is_disabled":false,"rental_uris":{"android":"levelo://app?vid=f204f5c3-279f-4a48-b597-ec996e78a497","ios":"levelo://app?vid=f204f5c3-279f-4a48-b597-ec996e78a497"},"vehicle_type_id":"4","last_reported":1742969657,"current_range_meters":9600,"station_id":"ce4bgup2rcd13ifvqco0","pricing_plan_id":"cebpf4jnsgd1na2vs0mg"},{"bike_id":"72ebcc1f-7481-4d77-8f35-ce937497917a","system_id":"levelo_inurba_marseille","lat":43.31531,"lon":5.37268,"is_reserved":false,"is_disabled":false,"rental_uris":{"android":"levelo://app?vid=72ebcc1f-7481-4d77-8f35-ce937497917a","ios":"levelo://app?vid=72ebcc1f-7481-4d77-8f35-ce937497917a"},"vehicle_type_id":"4","last_reported":1742969657,"current_range_meters":9600,"station_id":"ce4bgt12rcd13ifvqcd0","pricing_plan_id":"cebpf4jnsgd1na2vs0mg"},{"bike_id":"3082883e-716b-4940-977a-23703e6964ed","system_id":"levelo_inurba_marseille","lat":43.31331,"lon":5.39711,"is_reserved":false,"is_disabled":true,"rental_uris":{"android":"levelo://app?vid=3082883e-716b-4940-977a-23703e6964ed","ios":"levelo://app?vid=3082883e-716b-4940-977a-23703e6964ed"},"vehicle_type_id":"4","last_reported":1742969657,"current_range_meters":9600,"station_id":"ce4bgvp2rcd13ifvqcu0","pricing_plan_id":"cebpf4jnsgd1na2vs0mg"},{"bike_id":"f0e7f367-fc32-40de-99cb-eff7549b56ef","system_id":"levelo_inurba_marseille","lat":43.30273,"lon":5.37705,"is_reserved":false,"is_disabled":false,"rental_uris":{"android":"levelo://app?vid=f0e7f367-fc32-40de-99cb-eff7549b56ef","ios":"levelo://app?vid=f0e7f367-fc32-40de-99cb-eff7549b56ef"},"vehicle_type_id":"4","last_reported":1742969657,"current_range_meters":9600,"station_id":"ce4bguh2rcd13ifvqcj0","pricing_plan_id":"cebpf4jnsgd1na2vs0mg"},{"bike_id":"eabd143a-8972-4edf-b06c-bc64019aeee7","system_id":"levelo_inurba_marseille","lat":43.28071,"lon":5.39848,"is_reserved":false,"is_disabled":false,"rental_uris":{"android":"levelo://app?vid=eabd143a-8972-4edf-b06c-bc64019aeee7","ios":"levelo://app?vid=eabd143a-8972-4edf-b06c-bc64019aeee7"},"vehicle_type_id":"4","last_reported":1742969657,"current_range_meters":9600,"station_id":"","pricing_plan_id":"cebpf4jnsgd1na2vs0mg"},{"bike_id":"ab952469-2651-4342-98fd-8d0d40520a98","system_id":"levelo_inurba_marseille","lat":43.2987,"lon":5.39728,"is_reserved":false,"is_disabled":false,"rental_uris":{"android":"levelo://app?vid=ab952469-2651-4342-98fd-8d0d40520a98","ios":"levelo://app?vid=ab952469-2651-4342-98fd-8d0d40520a98"},"vehicle_type_id":"4","last_reported":1742969657,"current_range_meters":10000,"station_id":"ce4bh0h2rcd13ifvqd50","pricing_plan_id":"cebpf4jnsgd1na2vs0mg"},{"bike_id":"4612989a-eaa0-4a5d-aa10-3a4a27eba668","system_id":"levelo_inurba_marseille","lat":43.28794,"lon":5.35841,"is_reserved":false,"is_disabled":false,"rental_uris":{"android":"levelo://app?vid=4612989a-eaa0-4a5d-aa10-3a4a27eba668","ios":"levelo://app?vid=4612989a-eaa0-4a5d-aa10-3a4a27eba668"},"vehicle_type_id":"4","last_reported":1742969657,"current_range_meters":10000,"station_id":"ce4bhb12rcd13ifvqem0","pricing_plan_id":"cebpf4jnsgd1na2vs0mg"},{"bike_id":"10de7768-924a-4558-9779-5aa45bd3d6cb","system_id":"levelo_inurba_marseille","lat":43.31706,"lon":5.43706,"is_reserved":false,"is_disabled":false,"rental_uris":{"android":"levelo://app?vid=10de7768-924a-4558-9779-5aa45bd3d6cb","ios":"levelo://app?vid=10de7768-924a-4558-9779-5aa45bd3d6cb"},"vehicle_type_id":"4","last_reported":1742969657,"current_range_meters":10000,"station_id":"ce4bhp92rcd13ifvqhcg","pricing_plan_id":"cebpf4jnsgd1na2vs0mg"},{"bike_id":"68a58c58-1d21-4816-87f8-62f18507cf20","system_id":"levelo_inurba_marseille","lat":43.246616,"lon":5.381649,"is_reserved":false,"is_disabled":false,"rental_uris":{"android":"levelo://app?vid=68a58c58-1d21-4816-87f8-62f18507cf20","ios":"levelo://app?vid=68a58c58-1d21-4816-87f8-62f18507cf20"},"vehicle_type_id":"4","last_reported":1742969657,"current_range_meters":10000,"station_id":"ce4bhih2rcd13ifvqfr0","pricing_plan_id":"cebpf4jnsgd1na2vs0mg"},{"bike_id":"7fdecdeb-36cb-4cf4-9c98-d803f5809435","system_id":"levelo_inurba_marseille","lat":43.26111,"lon":5.39804,"is_reserved":false,"is_disabled":false,"rental_uris":{"android":"levelo://app?vid=7fdecdeb-36cb-4cf4-9c98-d803f5809435","ios":"levelo://app?vid=7fdecdeb-36cb-4cf4-9c98-d803f5809435"},"vehicle_type_id":"4","last_reported":1742969657,"current_range_meters":10000,"station_id":"","pricing_plan_id":"cebpf4jnsgd1na2vs0mg"},{"bike_id":"54eba66e-0dc9-4fab-a9e6-e33c09196d8d","system_id":"levelo_inurba_marseille","lat":43.28158,"lon":5.4264,"is_reserved":false,"is_disabled":false,"rental_uris":{"android":"levelo://app?vid=54eba66e-0dc9-4fab-a9e6-e33c09196d8d","ios":"levelo://app?vid=54eba66e-0dc9-4fab-a9e6-e33c09196d8d"},"vehicle_type_id":"4","last_reported":1742969657,"current_range_meters":10000,"station_id":"ce4bhnh2rcd13ifvqgug","pricing_plan_id":"cebpf4jnsgd1na2vs0mg"},{"bike_id":"fa14eb3a-1fdb-4bc8-8092-af468e8ded60","system_id":"levelo_inurba_marseille","lat":43.279964,"lon":5.400123,"is_reserved":false,"is_disabled":false,"rental_uris":{"android":"levelo://app?vid=fa14eb3a-1fdb-4bc8-8092-af468e8ded60","ios":"levelo://app?vid=fa14eb3a-1fdb-4bc8-8092-af468e8ded60"},"vehicle_type_id":"4","last_reported":1742969657,"current_range_meters":10000,"station_id":"ce4bho92rcd13ifvqh4g","pricing_plan_id":"cebpf4jnsgd1na2vs0mg"},{"bike_id":"19b89665-83f2-4ac2-84ba-195b9ac8bcd1","system_id":"levelo_inurba_marseille","lat":43.27917,"lon":5.39564,"is_reserved":false,"is_disabled":false,"rental_uris":{"android":"levelo://app?vid=19b89665-83f2-4ac2-84ba-195b9ac8bcd1","ios":"levelo://app?vid=19b89665-83f2-4ac2-84ba-195b9ac8bcd1"},"vehicle_type_id":"4","last_reported":1742969657,"current_range_meters":10000,"station_id":"ce4bhf92rcd13ifvqf40","pricing_plan_id":"cebpf4jnsgd1na2vs0mg"},{"bike_id":"6f7b7d36-e730-45db-9635-0f6452cc5c96","system_id":"levelo_inurba_marseille","lat":43.26767,"lon":5.39445,"is_reserved":false,"is_disabled":false,"rental_uris":{"android":"levelo://app?vid=6f7b7d36-e730-45db-9635-0f6452cc5c96","ios":"levelo://app?vid=6f7b7d36-e730-45db-9635-0f6452cc5c96"},"vehicle_type_id":"4","last_reported":1742969657,"current_range_meters":10000,"station_id":"","pricing_plan_id":"cebpf4jnsgd1na2vs0mg"},{"bike_id":"1d8a3249-9200-4972-bc96-75314e87b237","system_id":"levelo_inurba_marseille","lat":43.306079,"lon":5.367195,"is_reserved":false,"is_disabled":false,"rental_uris":{"android":"levelo://app?vid=1d8a3249-9200-4972-bc96-75314e87b237","ios":"levelo://app?vid=1d8a3249-9200-4972-bc96-75314e87b237"},"vehicle_type_id":"4","last_reported":1742969657,"current_range_meters":10000,"station_id":"","pricing_plan_id":"cebpf4jnsgd1na2vs0mg"},{"bike_id":"1cbcda32-77d4-444a-a60a-b7e8ed92ba8a","system_id":"levelo_inurba_marseille","lat":43.305935,"lon":5.39357,"is_reserved":false,"is_disabled":false,"rental_uris":{"android":"levelo://app?vid=1cbcda32-77d4-444a-a60a-b7e8ed92ba8a","ios":"levelo://app?vid=1cbcda32-77d4-444a-a60a-b7e8ed92ba8a"},"vehicle_type_id":"4","last_reported":1742969657,"current_range_meters":10000,"station_id":"ce4bh0p2rcd13ifvqd80","pricing_plan_id":"cebpf4jnsgd1na2vs0mg"},{"bike_id":"c4b88c2e-98e3-4499-8e1f-4f4d33a56e5a","system_id":"levelo_inurba_marseille","lat":43.2841,"lon":5.35005,"is_reserved":false,"is_disabled":true,"rental_uris":{"android":"levelo://app?vid=c4b88c2e-98e3-4499-8e1f-4f4d33a56e5a","ios":"levelo://app?vid=c4b88c2e-98e3-4499-8e1f-4f4d33a56e5a"},"vehicle_type_id":"4","last_reported":1742969657,"current_range_meters":10000,"station_id":"ce4bhbh2rcd13ifvqepg","pricing_plan_id":"cebpf4jnsgd1na2vs0mg"},{"bike_id":"e6b358bc-66d8-486b-9231-191979873c00","system_id":"levelo_inurba_marseille","lat":43.29571,"lon":5.36751,"is_reserved":false,"is_disabled":false,"rental_uris":{"android":"levelo://app?vid=e6b358bc-66d8-486b-9231-191979873c00","ios":"levelo://app?vid=e6b358bc-66d8-486b-9231-191979873c00"},"vehicle_type_id":"4","last_reported":1742969657,"current_range_meters":10000,"station_id":"ce4bgph2rcd13ifvqc2g","pricing_plan_id":"cebpf4jnsgd1na2vs0mg"},{"bike_id":"cd1d962e-0e5b-4d8e-a25c-31e8b32abf79","system_id":"levelo_inurba_marseille","lat":43.27998,"lon":5.40014,"is_reserved":false,"is_disabled":false,"rental_uris":{"android":"levelo://app?vid=cd1d962e-0e5b-4d8e-a25c-31e8b32abf79","ios":"levelo://app?vid=cd1d962e-0e5b-4d8e-a25c-31e8b32abf79"},"vehicle_type_id":"4","last_reported":1742969657,"current_range_meters":10800,"station_id":"ce4bho92rcd13ifvqh4g","pricing_plan_id":"cebpf4jnsgd1na2vs0mg"},{"bike_id":"a131070a-e779-4800-86bd-eec8ea7cf525","system_id":"levelo_inurba_marseille","lat":43.28104,"lon":5.37868,"is_reserved":false,"is_disabled":false,"rental_uris":{"android":"levelo://app?vid=a131070a-e779-4800-86bd-eec8ea7cf525","ios":"levelo://app?vid=a131070a-e779-4800-86bd-eec8ea7cf525"},"vehicle_type_id":"4","last_reported":1742969657,"current_range_meters":10800,"station_id":"ce4bha12rcd13ifvqee0","pricing_plan_id":"cebpf4jnsgd1na2vs0mg"},{"bike_id":"419e95d8-b511-4804-832e-48cb7b1519ff","system_id":"levelo_inurba_marseille","lat":43.27827,"lon":5.40701,"is_reserved":false,"is_disabled":false,"rental_uris":{"android":"levelo://app?vid=419e95d8-b511-4804-832e-48cb7b1519ff","ios":"levelo://app?vid=419e95d8-b511-4804-832e-48cb7b1519ff"},"vehicle_type_id":"4","last_reported":1742969657,"current_range_meters":10800,"station_id":"ce4bhnh2rcd13ifvqgtg","pricing_plan_id":"cebpf4jnsgd1na2vs0mg"},{"bike_id":"4ba6ebfa-6d64-4932-ae68-a1875df26d31","system_id":"levelo_inurba_marseille","lat":43.284584,"lon":5.35895,"is_reserved":false,"is_disabled":true,"rental_uris":{"android":"levelo://app?vid=4ba6ebfa-6d64-4932-ae68-a1875df26d31","ios":"levelo://app?vid=4ba6ebfa-6d64-4932-ae68-a1875df26d31"},"vehicle_type_id":"4","last_reported":1742969657,"current_range_meters":10800,"station_id":"ce4bhah2rcd13ifvqei0","pricing_plan_id":"cebpf4jnsgd1na2vs0mg"},{"bike_id":"0eedf9a7-c32c-4bae-a37f-32439201ac09","system_id":"levelo_inurba_marseille","lat":43.28859,"lon":5.39323,"is_reserved":false,"is_disabled":true,"rental_uris":{"android":"levelo://app?vid=0eedf9a7-c32c-4bae-a37f-32439201ac09","ios":"levelo://app?vid=0eedf9a7-c32c-4bae-a37f-32439201ac09"},"vehicle_type_id":"4","last_reported":1742969657,"current_range_meters":10800,"station_id":"ce4bh2p2rcd13ifvqdi0","pricing_plan_id":"cebpf4jnsgd1na2vs0mg"},{"bike_id":"8a9602e7-e6f2-4dac-845f-cea224e49dd5","system_id":"levelo_inurba_marseille","lat":43.230673,"lon":5.354937,"is_reserved":false,"is_disabled":false,"rental_uris":{"android":"levelo://app?vid=8a9602e7-e6f2-4dac-845f-cea224e49dd5","ios":"levelo://app?vid=8a9602e7-e6f2-4dac-845f-cea224e49dd5"},"vehicle_type_id":"4","last_reported":1742969657,"current_range_meters":10800,"station_id":"cpo3342slgdg3j2ifvpg","pricing_plan_id":"cebpf4jnsgd1na2vs0mg"},{"bike_id":"34ff9dfa-f521-4b06-a88c-c4e4d9d74f39","system_id":"levelo_inurba_marseille","lat":43.27809,"lon":5.40719,"is_reserved":false,"is_disabled":true,"rental_uris":{"android":"levelo://app?vid=34ff9dfa-f521-4b06-a88c-c4e4d9d74f39","ios":"levelo://app?vid=34ff9dfa-f521-4b06-a88c-c4e4d9d74f39"},"vehicle_type_id":"4","last_reported":1742969657,"current_range_meters":10800,"station_id":"ce4bhnh2rcd13ifvqgtg","pricing_plan_id":"cebpf4jnsgd1na2vs0mg"},{"bike_id":"da43d894-069e-486e-a738-14255c3635ad","system_id":"levelo_inurba_marseille","lat":43.260566,"lon":5.39397,"is_reserved":false,"is_disabled":false,"rental_uris":{"android":"levelo://app?vid=da43d894-069e-486e-a738-14255c3635ad","ios":"levelo://app?vid=da43d894-069e-486e-a738-14255c3635ad"},"vehicle_type_id":"4","last_reported":1742969657,"current_range_meters":10800,"station_id":"ce4bhh92rcd13ifvqfj0","pricing_plan_id":"cebpf4jnsgd1na2vs0mg"},{"bike_id":"12ea318b-9840-4793-818f-0141dbdbdaa3","system_id":"levelo_inurba_marseille","lat":43.28414,"lon":5.37529,"is_reserved":false,"is_disabled":false,"rental_uris":{"android":"levelo://app?vid=12ea318b-9840-4793-818f-0141dbdbdaa3","ios":"levelo://app?vid=12ea318b-9840-4793-818f-0141dbdbdaa3"},"vehicle_type_id":"4","last_reported":1742969657,"current_range_meters":10800,"station_id":"ce4bh412rcd13ifvqds0","pricing_plan_id":"cebpf4jnsgd1na2vs0mg"},{"bike_id":"974f5876-effd-44d0-911c-76ea7a107a8c","system_id":"levelo_inurba_marseille","lat":43.33346,"lon":5.35983,"is_reserved":false,"is_disabled":false,"rental_uris":{"android":"levelo://app?vid=974f5876-effd-44d0-911c-76ea7a107a8c","ios":"levelo://app?vid=974f5876-effd-44d0-911c-76ea7a107a8c"},"vehicle_type_id":"4","last_reported":1742969657,"current_range_meters":10800,"station_id":"","pricing_plan_id":"cebpf4jnsgd1na2vs0mg"},{"bike_id":"2f92400d-a27b-4dc5-9d21-bc1f27b9dda9","system_id":"levelo_inurba_marseille","lat":43.281027,"lon":5.378359,"is_reserved":false,"is_disabled":false,"rental_uris":{"android":"levelo://app?vid=2f92400d-a27b-4dc5-9d21-bc1f27b9dda9","ios":"levelo://app?vid=2f92400d-a27b-4dc5-9d21-bc1f27b9dda9"},"vehicle_type_id":"4","last_reported":1742969657,"current_range_meters":11200,"station_id":"ce4bha12rcd13ifvqee0","pricing_plan_id":"cebpf4jnsgd1na2vs0mg"},{"bike_id":"8e1b69fe-38a9-404e-9145-427fd10d244c","system_id":"levelo_inurba_marseille","lat":43.2838,"lon":5.35001,"is_reserved":false,"is_disabled":true,"rental_uris":{"android":"levelo://app?vid=8e1b69fe-38a9-404e-9145-427fd10d244c","ios":"levelo://app?vid=8e1b69fe-38a9-404e-9145-427fd10d244c"},"vehicle_type_id":"4","last_reported":1742969657,"current_range_meters":11200,"station_id":"ce4bhbh2rcd13ifvqepg","pricing_plan_id":"cebpf4jnsgd1na2vs0mg"},{"bike_id":"84a7a785-5392-42bc-8088-fb903bcc7f5c","system_id":"levelo_inurba_marseille","lat":43.23072,"lon":5.35485,"is_reserved":false,"is_disabled":false,"rental_uris":{"android":"levelo://app?vid=84a7a785-5392-42bc-8088-fb903bcc7f5c","ios":"levelo://app?vid=84a7a785-5392-42bc-8088-fb903bcc7f5c"},"vehicle_type_id":"4","last_reported":1742969657,"current_range_meters":11200,"station_id":"cpo3342slgdg3j2ifvpg","pricing_plan_id":"cebpf4jnsgd1na2vs0mg"},{"bike_id":"01cbffb0-3fb0-4769-96f8-4c2dd20b8277","system_id":"levelo_inurba_marseille","lat":43.28538,"lon":5.40572,"is_reserved":false,"is_disabled":true,"rental_uris":{"android":"levelo://app?vid=01cbffb0-3fb0-4769-96f8-4c2dd20b8277","ios":"levelo://app?vid=01cbffb0-3fb0-4769-96f8-4c2dd20b8277"},"vehicle_type_id":"4","last_reported":1742969657,"current_range_meters":11200,"station_id":"","pricing_plan_id":"cebpf4jnsgd1na2vs0mg"},{"bike_id":"5b13c166-aee1-4f02-b295-39cb7a010208","system_id":"levelo_inurba_marseille","lat":43.28487,"lon":5.38571,"is_reserved":false,"is_disabled":false,"rental_uris":{"android":"levelo://app?vid=5b13c166-aee1-4f02-b295-39cb7a010208","ios":"levelo://app?vid=5b13c166-aee1-4f02-b295-39cb7a010208"},"vehicle_type_id":"4","last_reported":1742969657,"current_range_meters":11200,"station_id":"ce4bh8p2rcd13ifvqeb0","pricing_plan_id":"cebpf4jnsgd1na2vs0mg"},{"bike_id":"82219511-549c-4b63-baf5-ff8405cca9d7","system_id":"levelo_inurba_marseille","lat":43.317109,"lon":5.437063,"is_reserved":false,"is_disabled":false,"rental_uris":{"android":"levelo://app?vid=82219511-549c-4b63-baf5-ff8405cca9d7","ios":"levelo://app?vid=82219511-549c-4b63-baf5-ff8405cca9d7"},"vehicle_type_id":"4","last_reported":1742969657,"current_range_meters":11200,"station_id":"ce4bhp92rcd13ifvqhcg","pricing_plan_id":"cebpf4jnsgd1na2vs0mg"},{"bike_id":"ee28380f-2566-499f-8ab8-5a75cb1ed72f","system_id":"levelo_inurba_marseille","lat":43.288329,"lon":5.393258,"is_reserved":false,"is_disabled":false,"rental_uris":{"android":"levelo://app?vid=ee28380f-2566-499f-8ab8-5a75cb1ed72f","ios":"levelo://app?vid=ee28380f-2566-499f-8ab8-5a75cb1ed72f"},"vehicle_type_id":"4","last_reported":1742969657,"current_range_meters":11200,"station_id":"","pricing_plan_id":"cebpf4jnsgd1na2vs0mg"},{"bike_id":"6f6e0ffd-e4c9-42b1-bc45-e9ebc551d612","system_id":"levelo_inurba_marseille","lat":43.33031,"lon":5.3905,"is_reserved":false,"is_disabled":false,"rental_uris":{"android":"levelo://app?vid=6f6e0ffd-e4c9-42b1-bc45-e9ebc551d612","ios":"levelo://app?vid=6f6e0ffd-e4c9-42b1-bc45-e9ebc551d612"},"vehicle_type_id":"4","last_reported":1742969657,"current_range_meters":11200,"station_id":"ce4bhr92rcd13ifvqhrg","pricing_plan_id":"cebpf4jnsgd1na2vs0mg"},{"bike_id":"8a3d879d-511e-4acb-8c51-331acb4ad7fa","system_id":"levelo_inurba_marseille","lat":43.284232,"lon":5.349868,"is_reserved":false,"is_disabled":true,"rental_uris":{"android":"levelo://app?vid=8a3d879d-511e-4acb-8c51-331acb4ad7fa","ios":"levelo://app?vid=8a3d879d-511e-4acb-8c51-331acb4ad7fa"},"vehicle_type_id":"4","last_reported":1742969657,"current_range_meters":11600,"station_id":"ce4bhbh2rcd13ifvqepg","pricing_plan_id":"cebpf4jnsgd1na2vs0mg"},{"bike_id":"d45a2f6c-957b-46cd-bd89-ee8e58d1536e","system_id":"levelo_inurba_marseille","lat":43.27716,"lon":5.40757,"is_reserved":false,"is_disabled":false,"rental_uris":{"android":"levelo://app?vid=d45a2f6c-957b-46cd-bd89-ee8e58d1536e","ios":"levelo://app?vid=d45a2f6c-957b-46cd-bd89-ee8e58d1536e"},"vehicle_type_id":"4","last_reported":1742969657,"current_range_meters":11600,"station_id":"","pricing_plan_id":"cebpf4jnsgd1na2vs0mg"},{"bike_id":"9c7b67ef-a80b-4d76-beff-aa96c2a3469a","system_id":"levelo_inurba_marseille","lat":43.27984,"lon":5.40027,"is_reserved":false,"is_disabled":false,"rental_uris":{"android":"levelo://app?vid=9c7b67ef-a80b-4d76-beff-aa96c2a3469a","ios":"levelo://app?vid=9c7b67ef-a80b-4d76-beff-aa96c2a3469a"},"vehicle_type_id":"4","last_reported":1742969657,"current_range_meters":11600,"station_id":"ce4bho92rcd13ifvqh4g","pricing_plan_id":"cebpf4jnsgd1na2vs0mg"},{"bike_id":"2349ea78-e5ff-44c1-8a9d-5755df83b4b0","system_id":"levelo_inurba_marseille","lat":43.28123,"lon":5.42704,"is_reserved":false,"is_disabled":false,"rental_uris":{"android":"levelo://app?vid=2349ea78-e5ff-44c1-8a9d-5755df83b4b0","ios":"levelo://app?vid=2349ea78-e5ff-44c1-8a9d-5755df83b4b0"},"vehicle_type_id":"4","last_reported":1742969657,"current_range_meters":11600,"station_id":"","pricing_plan_id":"cebpf4jnsgd1na2vs0mg"},{"bike_id":"52793577-8d59-4388-bc9a-d81f8bc1b0fa","system_id":"levelo_inurba_marseille","lat":43.3248,"lon":5.3658,"is_reserved":false,"is_disabled":true,"rental_uris":{"android":"levelo://app?vid=52793577-8d59-4388-bc9a-d81f8bc1b0fa","ios":"levelo://app?vid=52793577-8d59-4388-bc9a-d81f8bc1b0fa"},"vehicle_type_id":"4","last_reported":1742969657,"current_range_meters":11600,"station_id":"ce4bhs12rcd13ifvqhvg","pricing_plan_id":"cebpf4jnsgd1na2vs0mg"},{"bike_id":"75d89ffb-0e98-4900-bbef-b5d8ed9bccc0","system_id":"levelo_inurba_marseille","lat":43.30881,"lon":5.39642,"is_reserved":false,"is_disabled":false,"rental_uris":{"android":"levelo://app?vid=75d89ffb-0e98-4900-bbef-b5d8ed9bccc0","ios":"levelo://app?vid=75d89ffb-0e98-4900-bbef-b5d8ed9bccc0"},"vehicle_type_id":"4","last_reported":1742969657,"current_range_meters":12000,"station_id":"ce4bh012rcd13ifvqcv0","pricing_plan_id":"cebpf4jnsgd1na2vs0mg"},{"bike_id":"76fc525d-dd7d-4d56-bd19-f21e304e27e9","system_id":"levelo_inurba_marseille","lat":43.31489,"lon":5.37297,"is_reserved":false,"is_disabled":false,"rental_uris":{"android":"levelo://app?vid=76fc525d-dd7d-4d56-bd19-f21e304e27e9","ios":"levelo://app?vid=76fc525d-dd7d-4d56-bd19-f21e304e27e9"},"vehicle_type_id":"4","last_reported":1742969657,"current_range_meters":12000,"station_id":"ce4bgt12rcd13ifvqcd0","pricing_plan_id":"cebpf4jnsgd1na2vs0mg"},{"bike_id":"b83672f3-0293-447f-ab0b-c02d3ba7f660","system_id":"levelo_inurba_marseille","lat":43.27071,"lon":5.42284,"is_reserved":false,"is_disabled":false,"rental_uris":{"android":"levelo://app?vid=b83672f3-0293-447f-ab0b-c02d3ba7f660","ios":"levelo://app?vid=b83672f3-0293-447f-ab0b-c02d3ba7f660"},"vehicle_type_id":"4","last_reported":1742969657,"current_range_meters":12000,"station_id":"ce4bhk92rcd13ifvqgb0","pricing_plan_id":"cebpf4jnsgd1na2vs0mg"},{"bike_id":"cae5580c-c159-460b-a82f-48bc11cf4248","system_id":"levelo_inurba_marseille","lat":43.2984,"lon":5.36264,"is_reserved":false,"is_disabled":false,"rental_uris":{"android":"levelo://app?vid=cae5580c-c159-460b-a82f-48bc11cf4248","ios":"levelo://app?vid=cae5580c-c159-460b-a82f-48bc11cf4248"},"vehicle_type_id":"4","last_reported":1742969657,"current_range_meters":12000,"station_id":"ce4bgpp2rcd13ifvqc3g","pricing_plan_id":"cebpf4jnsgd1na2vs0mg"},{"bike_id":"9c23b3c2-c990-4dbf-aa18-6e694601de23","system_id":"levelo_inurba_marseille","lat":43.30408,"lon":5.41284,"is_reserved":false,"is_disabled":true,"rental_uris":{"android":"levelo://app?vid=9c23b3c2-c990-4dbf-aa18-6e694601de23","ios":"levelo://app?vid=9c23b3c2-c990-4dbf-aa18-6e694601de23"},"vehicle_type_id":"4","last_reported":1742969657,"current_range_meters":12400,"station_id":"ce4bhop2rcd13ifvqh8g","pricing_plan_id":"cebpf4jnsgd1na2vs0mg"},{"bike_id":"d1f0bfd4-c951-4e4e-b8ea-91fef0511b94","system_id":"levelo_inurba_marseille","lat":43.32359,"lon":5.36769,"is_reserved":false,"is_disabled":false,"rental_uris":{"android":"levelo://app?vid=d1f0bfd4-c951-4e4e-b8ea-91fef0511b94","ios":"levelo://app?vid=d1f0bfd4-c951-4e4e-b8ea-91fef0511b94"},"vehicle_type_id":"4","last_reported":1742969657,"current_range_meters":12400,"station_id":"ce4bhsh2rcd13ifvqi2g","pricing_plan_id":"cebpf4jnsgd1na2vs0mg"},{"bike_id":"4cdd5237-30fd-4b8c-86e9-ebadec42d07b","system_id":"levelo_inurba_marseille","lat":43.3093,"lon":5.40174,"is_reserved":false,"is_disabled":false,"rental_uris":{"android":"levelo://app?vid=4cdd5237-30fd-4b8c-86e9-ebadec42d07b","ios":"levelo://app?vid=4cdd5237-30fd-4b8c-86e9-ebadec42d07b"},"vehicle_type_id":"4","last_reported":1742969657,"current_range_meters":12400,"station_id":"ce4bgvp2rcd13ifvqct0","pricing_plan_id":"cebpf4jnsgd1na2vs0mg"},{"bike_id":"1dba6abe-c53a-49f9-b856-7067ac5ce46a","system_id":"levelo_inurba_marseille","lat":43.26814,"lon":5.40167,"is_reserved":false,"is_disabled":false,"rental_uris":{"android":"levelo://app?vid=1dba6abe-c53a-49f9-b856-7067ac5ce46a","ios":"levelo://app?vid=1dba6abe-c53a-49f9-b856-7067ac5ce46a"},"vehicle_type_id":"4","last_reported":1742969657,"current_range_meters":12400,"station_id":"ce501612rcd8frsf0b60","pricing_plan_id":"cebpf4jnsgd1na2vs0mg"},{"bike_id":"659be5e0-eeef-44bd-8ac1-256d4a3cadd4","system_id":"levelo_inurba_marseille","lat":43.248102,"lon":5.374512,"is_reserved":false,"is_disabled":false,"rental_uris":{"android":"levelo://app?vid=659be5e0-eeef-44bd-8ac1-256d4a3cadd4","ios":"levelo://app?vid=659be5e0-eeef-44bd-8ac1-256d4a3cadd4"},"vehicle_type_id":"4","last_reported":1742969657,"current_range_meters":12400,"station_id":"ce4bhgh2rcd13ifvqfb0","pricing_plan_id":"cebpf4jnsgd1na2vs0mg"},{"bike_id":"0d43dce8-283a-4441-a9c5-98b093f164f8","system_id":"levelo_inurba_marseille","lat":43.31273,"lon":5.40174,"is_reserved":false,"is_disabled":false,"rental_uris":{"android":"levelo://app?vid=0d43dce8-283a-4441-a9c5-98b093f164f8","ios":"levelo://app?vid=0d43dce8-283a-4441-a9c5-98b093f164f8"},"vehicle_type_id":"4","last_reported":1742969657,"current_range_meters":12400,"station_id":"ce4bh092rcd13ifvqd30","pricing_plan_id":"cebpf4jnsgd1na2vs0mg"},{"bike_id":"87807891-619d-45ef-9bc3-f89425f9a8a8","system_id":"levelo_inurba_marseille","lat":43.27977,"lon":5.41688,"is_reserved":false,"is_disabled":true,"rental_uris":{"android":"levelo://app?vid=87807891-619d-45ef-9bc3-f89425f9a8a8","ios":"levelo://app?vid=87807891-619d-45ef-9bc3-f89425f9a8a8"},"vehicle_type_id":"4","last_reported":1742969657,"current_range_meters":12400,"station_id":"ce4bho12rcd13ifvqh1g","pricing_plan_id":"cebpf4jnsgd1na2vs0mg"},{"bike_id":"94e79fc7-9367-4952-8689-794a28fc3d39","system_id":"levelo_inurba_marseille","lat":43.29898,"lon":5.43663,"is_reserved":false,"is_disabled":false,"rental_uris":{"android":"levelo://app?vid=94e79fc7-9367-4952-8689-794a28fc3d39","ios":"levelo://app?vid=94e79fc7-9367-4952-8689-794a28fc3d39"},"vehicle_type_id":"4","last_reported":1742969657,"current_range_meters":12400,"station_id":"ce4bhpp2rcd13ifvqhfg","pricing_plan_id":"cebpf4jnsgd1na2vs0mg"},{"bike_id":"cc3ff892-84c9-42d5-a2c0-3c18d1b2da7b","system_id":"levelo_inurba_marseille","lat":43.31334,"lon":5.3971,"is_reserved":false,"is_disabled":false,"rental_uris":{"android":"levelo://app?vid=cc3ff892-84c9-42d5-a2c0-3c18d1b2da7b","ios":"levelo://app?vid=cc3ff892-84c9-42d5-a2c0-3c18d1b2da7b"},"vehicle_type_id":"4","last_reported":1742969657,"current_range_meters":12400,"station_id":"ce4bgvp2rcd13ifvqcu0","pricing_plan_id":"cebpf4jnsgd1na2vs0mg"},{"bike_id":"ecbac42f-2a55-4e43-9449-9a512a44ac31","system_id":"levelo_inurba_marseille","lat":43.28476,"lon":5.35888,"is_reserved":false,"is_disabled":false,"rental_uris":{"android":"levelo://app?vid=ecbac42f-2a55-4e43-9449-9a512a44ac31","ios":"levelo://app?vid=ecbac42f-2a55-4e43-9449-9a512a44ac31"},"vehicle_type_id":"4","last_reported":1742969657,"current_range_meters":12800,"station_id":"ce4bhah2rcd13ifvqei0","pricing_plan_id":"cebpf4jnsgd1na2vs0mg"},{"bike_id":"ed34c53e-e794-4aee-a80a-fe705ed87913","system_id":"levelo_inurba_marseille","lat":43.30739,"lon":5.37658,"is_reserved":false,"is_disabled":false,"rental_uris":{"android":"levelo://app?vid=ed34c53e-e794-4aee-a80a-fe705ed87913","ios":"levelo://app?vid=ed34c53e-e794-4aee-a80a-fe705ed87913"},"vehicle_type_id":"4","last_reported":1742969657,"current_range_meters":12800,"station_id":"ce4bgv92rcd13ifvqcq0","pricing_plan_id":"cebpf4jnsgd1na2vs0mg"},{"bike_id":"c2558eac-9c83-4e5b-ae66-7f9519e3d933","system_id":"levelo_inurba_marseille","lat":43.2897,"lon":5.37825,"is_reserved":false,"is_disabled":true,"rental_uris":{"android":"levelo://app?vid=c2558eac-9c83-4e5b-ae66-7f9519e3d933","ios":"levelo://app?vid=c2558eac-9c83-4e5b-ae66-7f9519e3d933"},"vehicle_type_id":"4","last_reported":1742969657,"current_range_meters":12800,"station_id":"ce4bh9p2rcd13ifvqed0","pricing_plan_id":"cebpf4jnsgd1na2vs0mg"},{"bike_id":"63f6b197-29cc-4f34-a2f7-4e5dd03e6d97","system_id":"levelo_inurba_marseille","lat":43.28598,"lon":5.35138,"is_reserved":false,"is_disabled":false,"rental_uris":{"android":"levelo://app?vid=63f6b197-29cc-4f34-a2f7-4e5dd03e6d97","ios":"levelo://app?vid=63f6b197-29cc-4f34-a2f7-4e5dd03e6d97"},"vehicle_type_id":"4","last_reported":1742969657,"current_range_meters":12800,"station_id":"ce4bhch2rcd13ifvqeug","pricing_plan_id":"cebpf4jnsgd1na2vs0mg"},{"bike_id":"484928c8-8c60-48c3-a758-e3e274268153","system_id":"levelo_inurba_marseille","lat":43.241636,"lon":5.363938,"is_reserved":false,"is_disabled":false,"rental_uris":{"android":"levelo://app?vid=484928c8-8c60-48c3-a758-e3e274268153","ios":"levelo://app?vid=484928c8-8c60-48c3-a758-e3e274268153"},"vehicle_type_id":"4","last_reported":1742969657,"current_range_meters":12800,"station_id":"cpo36qri1sfpv3e86is0","pricing_plan_id":"cebpf4jnsgd1na2vs0mg"},{"bike_id":"7e7a371c-b9b4-41ba-9c03-4ba1bef7f880","system_id":"levelo_inurba_marseille","lat":43.23139,"lon":5.43698,"is_reserved":false,"is_disabled":false,"rental_uris":{"android":"levelo://app?vid=7e7a371c-b9b4-41ba-9c03-4ba1bef7f880","ios":"levelo://app?vid=7e7a371c-b9b4-41ba-9c03-4ba1bef7f880"},"vehicle_type_id":"4","last_reported":1742969657,"current_range_meters":12800,"station_id":"ce4bhmp2rcd13ifvqgog","pricing_plan_id":"cebpf4jnsgd1na2vs0mg"},{"bike_id":"ad63199a-a686-4e70-a63e-7bd998b7413d","system_id":"levelo_inurba_marseille","lat":43.2994,"lon":5.38565,"is_reserved":false,"is_disabled":true,"rental_uris":{"android":"levelo://app?vid=ad63199a-a686-4e70-a63e-7bd998b7413d","ios":"levelo://app?vid=ad63199a-a686-4e70-a63e-7bd998b7413d"},"vehicle_type_id":"4","last_reported":1742969657,"current_range_meters":13600,"station_id":"","pricing_plan_id":"cebpf4jnsgd1na2vs0mg"},{"bike_id":"60d9318d-39f6-46de-9e65-17d6f0c4a86d","system_id":"levelo_inurba_marseille","lat":43.30307,"lon":5.4044,"is_reserved":false,"is_disabled":false,"rental_uris":{"android":"levelo://app?vid=60d9318d-39f6-46de-9e65-17d6f0c4a86d","ios":"levelo://app?vid=60d9318d-39f6-46de-9e65-17d6f0c4a86d"},"vehicle_type_id":"4","last_reported":1742969657,"current_range_meters":13600,"station_id":"ce4bh012rcd13ifvqd10","pricing_plan_id":"cebpf4jnsgd1na2vs0mg"},{"bike_id":"8ee06270-6e68-4f36-943c-c6853abcfcb7","system_id":"levelo_inurba_marseille","lat":43.30954,"lon":5.39052,"is_reserved":false,"is_disabled":false,"rental_uris":{"android":"levelo://app?vid=8ee06270-6e68-4f36-943c-c6853abcfcb7","ios":"levelo://app?vid=8ee06270-6e68-4f36-943c-c6853abcfcb7"},"vehicle_type_id":"4","last_reported":1742969657,"current_range_meters":13600,"station_id":"ce4bgup2rcd13ifvqco0","pricing_plan_id":"cebpf4jnsgd1na2vs0mg"},{"bike_id":"2a79bb94-1125-49ce-bc53-31261919b5a6","system_id":"levelo_inurba_marseille","lat":43.306526,"lon":5.400705,"is_reserved":false,"is_disabled":false,"rental_uris":{"android":"levelo://app?vid=2a79bb94-1125-49ce-bc53-31261919b5a6","ios":"levelo://app?vid=2a79bb94-1125-49ce-bc53-31261919b5a6"},"vehicle_type_id":"4","last_reported":1742969657,"current_range_meters":13600,"station_id":"ce4bh112rcd13ifvqda0","pricing_plan_id":"cebpf4jnsgd1na2vs0mg"},{"bike_id":"316f4072-82c4-40ef-8d82-6240f4641413","system_id":"levelo_inurba_marseille","lat":43.27879,"lon":5.38013,"is_reserved":false,"is_disabled":false,"rental_uris":{"android":"levelo://app?vid=316f4072-82c4-40ef-8d82-6240f4641413","ios":"levelo://app?vid=316f4072-82c4-40ef-8d82-6240f4641413"},"vehicle_type_id":"4","last_reported":1742969657,"current_range_meters":13600,"station_id":"ce4bhf92rcd13ifvqf50","pricing_plan_id":"cebpf4jnsgd1na2vs0mg"},{"bike_id":"ccdfac36-22da-4f2d-bd50-7bf147cc0fff","system_id":"levelo_inurba_marseille","lat":43.29909,"lon":5.43645,"is_reserved":false,"is_disabled":false,"rental_uris":{"android":"levelo://app?vid=ccdfac36-22da-4f2d-bd50-7bf147cc0fff","ios":"levelo://app?vid=ccdfac36-22da-4f2d-bd50-7bf147cc0fff"},"vehicle_type_id":"4","last_reported":1742969657,"current_range_meters":14000,"station_id":"ce4bhpp2rcd13ifvqhfg","pricing_plan_id":"cebpf4jnsgd1na2vs0mg"},{"bike_id":"47638d21-0639-4611-a600-6a9a380e4d0f","system_id":"levelo_inurba_marseille","lat":43.28712,"lon":5.39973,"is_reserved":false,"is_disabled":false,"rental_uris":{"android":"levelo://app?vid=47638d21-0639-4611-a600-6a9a380e4d0f","ios":"levelo://app?vid=47638d21-0639-4611-a600-6a9a380e4d0f"},"vehicle_type_id":"4","last_reported":1742969657,"current_range_meters":14000,"station_id":"ce4bho92rcd13ifvqh3g","pricing_plan_id":"cebpf4jnsgd1na2vs0mg"},{"bike_id":"16f77351-adb0-493a-8003-75961abebd9d","system_id":"levelo_inurba_marseille","lat":43.26059,"lon":5.39396,"is_reserved":false,"is_disabled":false,"rental_uris":{"android":"levelo://app?vid=16f77351-adb0-493a-8003-75961abebd9d","ios":"levelo://app?vid=16f77351-adb0-493a-8003-75961abebd9d"},"vehicle_type_id":"4","last_reported":1742969657,"current_range_meters":14000,"station_id":"ce4bhh92rcd13ifvqfj0","pricing_plan_id":"cebpf4jnsgd1na2vs0mg"},{"bike_id":"10428461-8678-4bdb-a86a-6057b32464d0","system_id":"levelo_inurba_marseille","lat":43.31264,"lon":5.40187,"is_reserved":false,"is_disabled":false,"rental_uris":{"android":"levelo://app?vid=10428461-8678-4bdb-a86a-6057b32464d0","ios":"levelo://app?vid=10428461-8678-4bdb-a86a-6057b32464d0"},"vehicle_type_id":"4","last_reported":1742969657,"current_range_meters":14000,"station_id":"ce4bh092rcd13ifvqd30","pricing_plan_id":"cebpf4jnsgd1na2vs0mg"},{"bike_id":"2be79e3d-bb33-4848-acf4-93c714f254a7","system_id":"levelo_inurba_marseille","lat":43.2857,"lon":5.39506,"is_reserved":false,"is_disabled":false,"rental_uris":{"android":"levelo://app?vid=2be79e3d-bb33-4848-acf4-93c714f254a7","ios":"levelo://app?vid=2be79e3d-bb33-4848-acf4-93c714f254a7"},"vehicle_type_id":"4","last_reported":1742969657,"current_range_meters":14400,"station_id":"ce4bh292rcd13ifvqdg0","pricing_plan_id":"cebpf4jnsgd1na2vs0mg"},{"bike_id":"aecc4eea-6d74-45f5-896a-67373b901867","system_id":"levelo_inurba_marseille","lat":43.31532,"lon":5.38028,"is_reserved":false,"is_disabled":false,"rental_uris":{"android":"levelo://app?vid=aecc4eea-6d74-45f5-896a-67373b901867","ios":"levelo://app?vid=aecc4eea-6d74-45f5-896a-67373b901867"},"vehicle_type_id":"4","last_reported":1742969657,"current_range_meters":14400,"station_id":"ce4bhsp2rcd13ifvqi50","pricing_plan_id":"cebpf4jnsgd1na2vs0mg"},{"bike_id":"b6007c91-4e8a-420a-a5d7-87fe25bf4dc6","system_id":"levelo_inurba_marseille","lat":43.27825,"lon":5.39211,"is_reserved":false,"is_disabled":false,"rental_uris":{"android":"levelo://app?vid=b6007c91-4e8a-420a-a5d7-87fe25bf4dc6","ios":"levelo://app?vid=b6007c91-4e8a-420a-a5d7-87fe25bf4dc6"},"vehicle_type_id":"4","last_reported":1742969657,"current_range_meters":14400,"station_id":"ce4bhjp2rcd13ifvqga0","pricing_plan_id":"cebpf4jnsgd1na2vs0mg"},{"bike_id":"db7506bf-f731-4900-8df2-a57b85c6a313","system_id":"levelo_inurba_marseille","lat":43.30803,"lon":5.38143,"is_reserved":false,"is_disabled":false,"rental_uris":{"android":"levelo://app?vid=db7506bf-f731-4900-8df2-a57b85c6a313","ios":"levelo://app?vid=db7506bf-f731-4900-8df2-a57b85c6a313"},"vehicle_type_id":"4","last_reported":1742969657,"current_range_meters":14400,"station_id":"ce4bgt12rcd13ifvqce0","pricing_plan_id":"cebpf4jnsgd1na2vs0mg"},{"bike_id":"2623a753-dcde-4ffa-9bf1-3275e6037e7a","system_id":"levelo_inurba_marseille","lat":43.32438,"lon":5.36608,"is_reserved":false,"is_disabled":false,"rental_uris":{"android":"levelo://app?vid=2623a753-dcde-4ffa-9bf1-3275e6037e7a","ios":"levelo://app?vid=2623a753-dcde-4ffa-9bf1-3275e6037e7a"},"vehicle_type_id":"4","last_reported":1742969657,"current_range_meters":14400,"station_id":"ce4bhs12rcd13ifvqhvg","pricing_plan_id":"cebpf4jnsgd1na2vs0mg"},{"bike_id":"222e01eb-5419-4c3d-8346-1d1410ec7b1d","system_id":"levelo_inurba_marseille","lat":43.299792,"lon":5.384981,"is_reserved":false,"is_disabled":true,"rental_uris":{"android":"levelo://app?vid=222e01eb-5419-4c3d-8346-1d1410ec7b1d","ios":"levelo://app?vid=222e01eb-5419-4c3d-8346-1d1410ec7b1d"},"vehicle_type_id":"4","last_reported":1742969657,"current_range_meters":14400,"station_id":"ce4bgj92rcd13ifvqbd0","pricing_plan_id":"cebpf4jnsgd1na2vs0mg"},{"bike_id":"9f1f9006-3607-4412-acf3-ae2d77405871","system_id":"levelo_inurba_marseille","lat":43.323595,"lon":5.388869,"is_reserved":false,"is_disabled":false,"rental_uris":{"android":"levelo://app?vid=9f1f9006-3607-4412-acf3-ae2d77405871","ios":"levelo://app?vid=9f1f9006-3607-4412-acf3-ae2d77405871"},"vehicle_type_id":"4","last_reported":1742969657,"current_range_meters":14400,"station_id":"ce4bhqp2rcd13ifvqhog","pricing_plan_id":"cebpf4jnsgd1na2vs0mg"},{"bike_id":"2bb1639c-3d1e-42da-973c-aa124251e63d","system_id":"levelo_inurba_marseille","lat":43.283518,"lon":5.381018,"is_reserved":false,"is_disabled":false,"rental_uris":{"android":"levelo://app?vid=2bb1639c-3d1e-42da-973c-aa124251e63d","ios":"levelo://app?vid=2bb1639c-3d1e-42da-973c-aa124251e63d"},"vehicle_type_id":"4","last_reported":1742969657,"current_range_meters":14800,"station_id":"ce4bh412rcd13ifvqdr0","pricing_plan_id":"cebpf4jnsgd1na2vs0mg"},{"bike_id":"5b830359-30b8-45d9-a902-126192112277","system_id":"levelo_inurba_marseille","lat":43.23199,"lon":5.3555,"is_reserved":false,"is_disabled":false,"rental_uris":{"android":"levelo://app?vid=5b830359-30b8-45d9-a902-126192112277","ios":"levelo://app?vid=5b830359-30b8-45d9-a902-126192112277"},"vehicle_type_id":"4","last_reported":1742969657,"current_range_meters":14800,"station_id":"ce4bhu92rcd13ifvqi70","pricing_plan_id":"cebpf4jnsgd1na2vs0mg"},{"bike_id":"589f1146-20bc-4a88-9ab7-60ee275b3000","system_id":"levelo_inurba_marseille","lat":43.29698,"lon":5.38003,"is_reserved":false,"is_disabled":false,"rental_uris":{"android":"levelo://app?vid=589f1146-20bc-4a88-9ab7-60ee275b3000","ios":"levelo://app?vid=589f1146-20bc-4a88-9ab7-60ee275b3000"},"vehicle_type_id":"4","last_reported":1742969657,"current_range_meters":14800,"station_id":"","pricing_plan_id":"cebpf4jnsgd1na2vs0mg"},{"bike_id":"78b00920-5d49-4d38-b9e0-a44b1ec3ce32","system_id":"levelo_inurba_marseille","lat":43.298401,"lon":5.403899,"is_reserved":false,"is_disabled":false,"rental_uris":{"android":"levelo://app?vid=78b00920-5d49-4d38-b9e0-a44b1ec3ce32","ios":"levelo://app?vid=78b00920-5d49-4d38-b9e0-a44b1ec3ce32"},"vehicle_type_id":"4","last_reported":1742969657,"current_range_meters":14800,"station_id":"ce4bh0h2rcd13ifvqd60","pricing_plan_id":"cebpf4jnsgd1na2vs0mg"},{"bike_id":"d1554206-45ca-4b0e-8632-1c2c994cb33d","system_id":"levelo_inurba_marseille","lat":43.28407,"lon":5.37527,"is_reserved":false,"is_disabled":false,"rental_uris":{"android":"levelo://app?vid=d1554206-45ca-4b0e-8632-1c2c994cb33d","ios":"levelo://app?vid=d1554206-45ca-4b0e-8632-1c2c994cb33d"},"vehicle_type_id":"4","last_reported":1742969657,"current_range_meters":14800,"station_id":"ce4bh412rcd13ifvqds0","pricing_plan_id":"cebpf4jnsgd1na2vs0mg"},{"bike_id":"68d42813-4eb5-41fe-a58d-c64b32f2b935","system_id":"levelo_inurba_marseille","lat":43.32362,"lon":5.36759,"is_reserved":false,"is_disabled":false,"rental_uris":{"android":"levelo://app?vid=68d42813-4eb5-41fe-a58d-c64b32f2b935","ios":"levelo://app?vid=68d42813-4eb5-41fe-a58d-c64b32f2b935"},"vehicle_type_id":"4","last_reported":1742969657,"current_range_meters":14800,"station_id":"ce4bhsh2rcd13ifvqi2g","pricing_plan_id":"cebpf4jnsgd1na2vs0mg"},{"bike_id":"d00f9495-9593-4460-875a-d3841f1a62eb","system_id":"levelo_inurba_marseille","lat":43.28556,"lon":5.39516,"is_reserved":false,"is_disabled":false,"rental_uris":{"android":"levelo://app?vid=d00f9495-9593-4460-875a-d3841f1a62eb","ios":"levelo://app?vid=d00f9495-9593-4460-875a-d3841f1a62eb"},"vehicle_type_id":"4","last_reported":1742969657,"current_range_meters":14800,"station_id":"ce4bh292rcd13ifvqdg0","pricing_plan_id":"cebpf4jnsgd1na2vs0mg"},{"bike_id":"5aca9a3c-0b5c-44db-afab-2f805ad6dce7","system_id":"levelo_inurba_marseille","lat":43.31321,"lon":5.39746,"is_reserved":false,"is_disabled":false,"rental_uris":{"android":"levelo://app?vid=5aca9a3c-0b5c-44db-afab-2f805ad6dce7","ios":"levelo://app?vid=5aca9a3c-0b5c-44db-afab-2f805ad6dce7"},"vehicle_type_id":"4","last_reported":1742969657,"current_range_meters":14800,"station_id":"","pricing_plan_id":"cebpf4jnsgd1na2vs0mg"},{"bike_id":"9490ab3f-b563-4312-b2ed-009944c7886e","system_id":"levelo_inurba_marseille","lat":43.32475,"lon":5.36583,"is_reserved":false,"is_disabled":false,"rental_uris":{"android":"levelo://app?vid=9490ab3f-b563-4312-b2ed-009944c7886e","ios":"levelo://app?vid=9490ab3f-b563-4312-b2ed-009944c7886e"},"vehicle_type_id":"4","last_reported":1742969657,"current_range_meters":14800,"station_id":"ce4bhs12rcd13ifvqhvg","pricing_plan_id":"cebpf4jnsgd1na2vs0mg"},{"bike_id":"32587236-5e22-47d2-9fe2-6ecdcf34d69f","system_id":"levelo_inurba_marseille","lat":43.317135,"lon":5.43707,"is_reserved":false,"is_disabled":false,"rental_uris":{"android":"levelo://app?vid=32587236-5e22-47d2-9fe2-6ecdcf34d69f","ios":"levelo://app?vid=32587236-5e22-47d2-9fe2-6ecdcf34d69f"},"vehicle_type_id":"4","last_reported":1742969657,"current_range_meters":14800,"station_id":"ce4bhp92rcd13ifvqhcg","pricing_plan_id":"cebpf4jnsgd1na2vs0mg"},{"bike_id":"7baa2475-6b05-4927-b7e8-ae1df93e8443","system_id":"levelo_inurba_marseille","lat":43.29216,"lon":5.36076,"is_reserved":false,"is_disabled":false,"rental_uris":{"android":"levelo://app?vid=7baa2475-6b05-4927-b7e8-ae1df93e8443","ios":"levelo://app?vid=7baa2475-6b05-4927-b7e8-ae1df93e8443"},"vehicle_type_id":"4","last_reported":1742969657,"current_range_meters":15200,"station_id":"ce4bhbh2rcd13ifvqeqg","pricing_plan_id":"cebpf4jnsgd1na2vs0mg"},{"bike_id":"87d40f97-d9ae-4ab6-b6c1-0f9c9709d962","system_id":"levelo_inurba_marseille","lat":43.24173,"lon":5.39726,"is_reserved":false,"is_disabled":false,"rental_uris":{"android":"levelo://app?vid=87d40f97-d9ae-4ab6-b6c1-0f9c9709d962","ios":"levelo://app?vid=87d40f97-d9ae-4ab6-b6c1-0f9c9709d962"},"vehicle_type_id":"4","last_reported":1742969657,"current_range_meters":15200,"station_id":"ce4bhn12rcd13ifvqgpg","pricing_plan_id":"cebpf4jnsgd1na2vs0mg"},{"bike_id":"38b76ce0-0cb8-4ad5-afb3-3900307a1fc5","system_id":"levelo_inurba_marseille","lat":43.28413,"lon":5.37519,"is_reserved":false,"is_disabled":false,"rental_uris":{"android":"levelo://app?vid=38b76ce0-0cb8-4ad5-afb3-3900307a1fc5","ios":"levelo://app?vid=38b76ce0-0cb8-4ad5-afb3-3900307a1fc5"},"vehicle_type_id":"4","last_reported":1742969657,"current_range_meters":15200,"station_id":"ce4bh412rcd13ifvqds0","pricing_plan_id":"cebpf4jnsgd1na2vs0mg"},{"bike_id":"46bc7627-5963-437b-83ed-b3f9497370e8","system_id":"levelo_inurba_marseille","lat":43.299,"lon":5.43648,"is_reserved":false,"is_disabled":false,"rental_uris":{"android":"levelo://app?vid=46bc7627-5963-437b-83ed-b3f9497370e8","ios":"levelo://app?vid=46bc7627-5963-437b-83ed-b3f9497370e8"},"vehicle_type_id":"4","last_reported":1742969657,"current_range_meters":15200,"station_id":"ce4bhpp2rcd13ifvqhfg","pricing_plan_id":"cebpf4jnsgd1na2vs0mg"},{"bike_id":"fd15ca1a-57c7-453b-8cc7-8e2707a2298b","system_id":"levelo_inurba_marseille","lat":43.28559,"lon":5.39515,"is_reserved":false,"is_disabled":false,"rental_uris":{"android":"levelo://app?vid=fd15ca1a-57c7-453b-8cc7-8e2707a2298b","ios":"levelo://app?vid=fd15ca1a-57c7-453b-8cc7-8e2707a2298b"},"vehicle_type_id":"4","last_reported":1742969657,"current_range_meters":15200,"station_id":"ce4bh292rcd13ifvqdg0","pricing_plan_id":"cebpf4jnsgd1na2vs0mg"},{"bike_id":"5616e9a2-66ff-42bb-a972-7c7837f34545","system_id":"levelo_inurba_marseille","lat":43.3015,"lon":5.38078,"is_reserved":false,"is_disabled":false,"rental_uris":{"android":"levelo://app?vid=5616e9a2-66ff-42bb-a972-7c7837f34545","ios":"levelo://app?vid=5616e9a2-66ff-42bb-a972-7c7837f34545"},"vehicle_type_id":"4","last_reported":1742969657,"current_range_meters":15200,"station_id":"ce4bgjp2rcd13ifvqbh0","pricing_plan_id":"cebpf4jnsgd1na2vs0mg"},{"bike_id":"eb8e5fec-8d88-4fe6-abbe-56dc22a24ce1","system_id":"levelo_inurba_marseille","lat":43.29263,"lon":5.40896,"is_reserved":false,"is_disabled":false,"rental_uris":{"android":"levelo://app?vid=eb8e5fec-8d88-4fe6-abbe-56dc22a24ce1","ios":"levelo://app?vid=eb8e5fec-8d88-4fe6-abbe-56dc22a24ce1"},"vehicle_type_id":"4","last_reported":1742969657,"current_range_meters":16000,"station_id":"ce4bh192rcd13ifvqdc0","pricing_plan_id":"cebpf4jnsgd1na2vs0mg"},{"bike_id":"76e2dc0e-75ac-45c6-a04d-55fc353a242c","system_id":"levelo_inurba_marseille","lat":43.29709,"lon":5.3661,"is_reserved":false,"is_disabled":false,"rental_uris":{"android":"levelo://app?vid=76e2dc0e-75ac-45c6-a04d-55fc353a242c","ios":"levelo://app?vid=76e2dc0e-75ac-45c6-a04d-55fc353a242c"},"vehicle_type_id":"4","last_reported":1742969657,"current_range_meters":16000,"station_id":"ce4bgn12rcd13ifvqbt0","pricing_plan_id":"cebpf4jnsgd1na2vs0mg"},{"bike_id":"c00b0217-094a-464f-aff7-2563e8d2b451","system_id":"levelo_inurba_marseille","lat":43.31319,"lon":5.39702,"is_reserved":false,"is_disabled":false,"rental_uris":{"android":"levelo://app?vid=c00b0217-094a-464f-aff7-2563e8d2b451","ios":"levelo://app?vid=c00b0217-094a-464f-aff7-2563e8d2b451"},"vehicle_type_id":"4","last_reported":1742969657,"current_range_meters":16000,"station_id":"ce4bgvp2rcd13ifvqcu0","pricing_plan_id":"cebpf4jnsgd1na2vs0mg"},{"bike_id":"ab255577-419b-4b2c-b48f-5c6fb00afdfd","system_id":"levelo_inurba_marseille","lat":43.32356,"lon":5.36761,"is_reserved":false,"is_disabled":false,"rental_uris":{"android":"levelo://app?vid=ab255577-419b-4b2c-b48f-5c6fb00afdfd","ios":"levelo://app?vid=ab255577-419b-4b2c-b48f-5c6fb00afdfd"},"vehicle_type_id":"4","last_reported":1742969657,"current_range_meters":16000,"station_id":"ce4bhsh2rcd13ifvqi2g","pricing_plan_id":"cebpf4jnsgd1na2vs0mg"},{"bike_id":"fa16bf20-4a5d-4916-b3a2-8870facf7a86","system_id":"levelo_inurba_marseille","lat":43.30088,"lon":5.39087,"is_reserved":false,"is_disabled":false,"rental_uris":{"android":"levelo://app?vid=fa16bf20-4a5d-4916-b3a2-8870facf7a86","ios":"levelo://app?vid=fa16bf20-4a5d-4916-b3a2-8870facf7a86"},"vehicle_type_id":"4","last_reported":1742969657,"current_range_meters":16000,"station_id":"ce4bh192rcd13ifvqdb0","pricing_plan_id":"cebpf4jnsgd1na2vs0mg"},{"bike_id":"c872d420-982d-41b6-aabe-1f273b3c1ada","system_id":"levelo_inurba_marseille","lat":43.30417,"lon":5.39761,"is_reserved":false,"is_disabled":false,"rental_uris":{"android":"levelo://app?vid=c872d420-982d-41b6-aabe-1f273b3c1ada","ios":"levelo://app?vid=c872d420-982d-41b6-aabe-1f273b3c1ada"},"vehicle_type_id":"4","last_reported":1742969657,"current_range_meters":16000,"station_id":"ce4bh092rcd13ifvqd20","pricing_plan_id":"cebpf4jnsgd1na2vs0mg"},{"bike_id":"da06ee1d-1528-4aa9-994e-702e21d6e174","system_id":"levelo_inurba_marseille","lat":43.28257,"lon":5.35079,"is_reserved":false,"is_disabled":false,"rental_uris":{"android":"levelo://app?vid=da06ee1d-1528-4aa9-994e-702e21d6e174","ios":"levelo://app?vid=da06ee1d-1528-4aa9-994e-702e21d6e174"},"vehicle_type_id":"4","last_reported":1742969657,"current_range_meters":16400,"station_id":"ce4bhbp2rcd13ifvqerg","pricing_plan_id":"cebpf4jnsgd1na2vs0mg"},{"bike_id":"6b8955ea-75c1-4493-b0cf-c9fd77b2c14a","system_id":"levelo_inurba_marseille","lat":43.31486,"lon":5.37302,"is_reserved":false,"is_disabled":false,"rental_uris":{"android":"levelo://app?vid=6b8955ea-75c1-4493-b0cf-c9fd77b2c14a","ios":"levelo://app?vid=6b8955ea-75c1-4493-b0cf-c9fd77b2c14a"},"vehicle_type_id":"4","last_reported":1742969657,"current_range_meters":16400,"station_id":"ce4bgt12rcd13ifvqcd0","pricing_plan_id":"cebpf4jnsgd1na2vs0mg"},{"bike_id":"75c7187b-7cb5-4136-b180-795a32bcbe1d","system_id":"levelo_inurba_marseille","lat":43.27974,"lon":5.38589,"is_reserved":false,"is_disabled":false,"rental_uris":{"android":"levelo://app?vid=75c7187b-7cb5-4136-b180-795a32bcbe1d","ios":"levelo://app?vid=75c7187b-7cb5-4136-b180-795a32bcbe1d"},"vehicle_type_id":"4","last_reported":1742969657,"current_range_meters":16400,"station_id":"","pricing_plan_id":"cebpf4jnsgd1na2vs0mg"},{"bike_id":"0ac88cdf-dd3a-494f-aaa5-2b24d1ce393f","system_id":"levelo_inurba_marseille","lat":43.231895,"lon":5.355631,"is_reserved":false,"is_disabled":false,"rental_uris":{"android":"levelo://app?vid=0ac88cdf-dd3a-494f-aaa5-2b24d1ce393f","ios":"levelo://app?vid=0ac88cdf-dd3a-494f-aaa5-2b24d1ce393f"},"vehicle_type_id":"4","last_reported":1742969657,"current_range_meters":16400,"station_id":"ce4bhu92rcd13ifvqi70","pricing_plan_id":"cebpf4jnsgd1na2vs0mg"},{"bike_id":"9c2e4dde-50a0-4017-a708-38755f6fea80","system_id":"levelo_inurba_marseille","lat":43.32093,"lon":5.36793,"is_reserved":false,"is_disabled":false,"rental_uris":{"android":"levelo://app?vid=9c2e4dde-50a0-4017-a708-38755f6fea80","ios":"levelo://app?vid=9c2e4dde-50a0-4017-a708-38755f6fea80"},"vehicle_type_id":"4","last_reported":1742969657,"current_range_meters":16400,"station_id":"ce4bhrh2rcd13ifvqhug","pricing_plan_id":"cebpf4jnsgd1na2vs0mg"},{"bike_id":"15fb37cc-3d31-4557-a903-f82671505051","system_id":"levelo_inurba_marseille","lat":43.24985,"lon":5.38958,"is_reserved":false,"is_disabled":false,"rental_uris":{"android":"levelo://app?vid=15fb37cc-3d31-4557-a903-f82671505051","ios":"levelo://app?vid=15fb37cc-3d31-4557-a903-f82671505051"},"vehicle_type_id":"4","last_reported":1742969657,"current_range_meters":16400,"station_id":"ce4bhgp2rcd13ifvqfd0","pricing_plan_id":"cebpf4jnsgd1na2vs0mg"},{"bike_id":"16f39da6-d69b-40a5-b5aa-b21ac9386f3d","system_id":"levelo_inurba_marseille","lat":43.313239,"lon":5.396912,"is_reserved":false,"is_disabled":false,"rental_uris":{"android":"levelo://app?vid=16f39da6-d69b-40a5-b5aa-b21ac9386f3d","ios":"levelo://app?vid=16f39da6-d69b-40a5-b5aa-b21ac9386f3d"},