{"last_updated":1730517261,"ttl":60,"version":"2.2","data":{"bikes":[{"bike_id":"0c6602e3-5aca-43f3-be0a-a038da8eb8c2","system_id":"levelo_inurba_marseille","lat":43.24175,"lon":5.39725,"is_reserved":false,"is_disabled":false,"rental_uris":{"android":"levelo://app?vid=0c6602e3-5aca-43f3-be0a-a038da8eb8c2","ios":"levelo://app?vid=0c6602e3-5aca-43f3-be0a-a038da8eb8c2"},"vehicle_type_id":"4","last_reported":1730517261,"current_range_meters":14000,"station_id":"ce4bhn12rcd13ifvqgpg","pricing_plan_id":"cebpf4jnsgd1na2vs0mg"},{"bike_id":"1100e5a9-b924-4d01-8a4c-246bee3d586b","system_id":"levelo_inurba_marseille","lat":43.24696,"lon":5.41512,"is_reserved":false,"is_disabled":false,"rental_uris":{"android":"levelo://app?vid=1100e5a9-b924-4d01-8a4c-246bee3d586b","ios":"levelo://app?vid=1100e5a9-b924-4d01-8a4c-246bee3d586b"},"vehicle_type_id":"4","last_reported":1730517261,"current_range_meters":6400,"station_id":"","pricing_plan_id":"cebpf4jnsgd1na2vs0mg"},{"bike_id":"48f687da-824f-4872-94b4-66dc956b9a16","system_id":"levelo_inurba_marseille","lat":43.31262,"lon":5.40175,"is_reserved":false,"is_disabled":false,"rental_uris":{"android":"levelo://app?vid=48f687da-824f-4872-94b4-66dc956b9a16","ios":"levelo://app?vid=48f687da-824f-4872-94b4-66dc956b9a16"},"vehicle_type_id":"4","last_reported":1730517261,"current_range_meters":28000,"station_id":"ce4bh092rcd13ifvqd30","pricing_plan_id":"cebpf4jnsgd1na2vs0mg"},{"bike_id":"711e52ce-6bee-4358-9730-8f8daa893bf5","system_id":"levelo_inurba_marseille","lat":43.24672,"lon":5.38169,"is_reserved":false,"is_disabled":false,"rental_uris":{"android":"levelo://app?vid=711e52ce-6bee-4358-9730-8f8daa893bf5","ios":"levelo://app?vid=711e52ce-6bee-4358-9730-8f8daa893bf5"},"vehicle_type_id":"4","last_reported":1730517261,"current_range_meters":30800,"station_id":"ce4bhih2rcd13ifvqfr0","pricing_plan_id":"cebpf4jnsgd1na2vs0mg"},{"bike_id":"fb29093b-f2cf-4386-a4f0-84965008c68b","system_id":"levelo_inurba_marseille","lat":43.31117,"lon":5.37772,"is_reserved":false,"is_disabled":false,"rental_uris":{"android":"levelo://app?vid=fb29093b-f2cf-4386-a4f0-84965008c68b","ios":"levelo://app?vid=fb29093b-f2cf-4386-a4f0-84965008c68b"},"vehicle_type_id":"4","last_reported":1730517261,"current_range_meters":36000,"station_id":"ce4bgt92rcd13ifvqcg0","pricing_plan_id":"cebpf4jnsgd1na2vs0mg"},{"bike_id":"101b407e-4de3-4012-ac06-655c8dcb2097","system_id":"levelo_inurba_marseille","lat":43.27936,"lon":5.41043,"is_reserved":false,"is_disabled":false,"rental_uris":{"android":"levelo://app?vid=101b407e-4de3-4012-ac06-655c8dcb2097","ios":"levelo://app?vid=101b407e-4de3-4012-ac06-655c8dcb2097"},"vehicle_type_id":"4","last_reported":1730517261,"current_range_meters":34800,"station_id":"ce4bhnp2rcd13ifvqh0g","pricing_plan_id":"cebpf4jnsgd1na2vs0mg"},{"bike_id":"53361ed5-44e3-4331-b1db-d839ce43605d","system_id":"levelo_inurba_marseille","lat":43.32656,"lon":5.40986,"is_reserved":false,"is_disabled":false,"rental_uris":{"android":"levelo://app?vid=53361ed5-44e3-4331-b1db-d839ce43605d","ios":"levelo://app?vid=53361ed5-44e3-4331-b1db-d839ce43605d"},"vehicle_type_id":"4","last_reported":1730517261,"current_range_meters":9600,"station_id":"ce4bhpp2rcd13ifvqhgg","pricing_plan_id":"cebpf4jnsgd1na2vs0mg"},{"bike_id":"8682c02d-b75e-4986-bf40-c0b0cf6578e7","system_id":"levelo_inurba_marseille","lat":43.32105,"lon":5.36782,"is_reserved":false,"is_disabled":false,"rental_uris":{"android":"levelo://app?vid=8682c02d-b75e-4986-bf40-c0b0cf6578e7","ios":"levelo://app?vid=8682c02d-b75e-4986-bf40-c0b0cf6578e7"},"vehicle_type_id":"4","last_reported":1730517261,"current_range_meters":38800,"station_id":"ce4bhrh2rcd13ifvqhug","pricing_plan_id":"cebpf4jnsgd1na2vs0mg"},{"bike_id":"4060b50c-15a4-41ff-9d32-c5b655d62ee3","system_id":"levelo_inurba_marseille","lat":43.287696,"lon":5.390213,"is_reserved":false,"is_disabled":false,"rental_uris":{"android":"levelo://app?vid=4060b50c-15a4-41ff-9d32-c5b655d62ee3","ios":"levelo://app?vid=4060b50c-15a4-41ff-9d32-c5b655d62ee3"},"vehicle_type_id":"4","last_reported":1730517261,"current_range_meters":7200,"station_id":"","pricing_plan_id":"cebpf4jnsgd1na2vs0mg"},{"bike_id":"81f2d664-d16c-4126-847a-4f67dbd353b9","system_id":"levelo_inurba_marseille","lat":43.313646,"lon":5.384851,"is_reserved":false,"is_disabled":false,"rental_uris":{"android":"levelo://app?vid=81f2d664-d16c-4126-847a-4f67dbd353b9","ios":"levelo://app?vid=81f2d664-d16c-4126-847a-4f67dbd353b9"},"vehicle_type_id":"4","last_reported":1730517261,"current_range_meters":38000,"station_id":"ce4bgt92rcd13ifvqcf0","pricing_plan_id":"cebpf4jnsgd1na2vs0mg"},{"bike_id":"ae2ccb33-795f-44d2-a6c0-9c58090a88ce","system_id":"levelo_inurba_marseille","lat":43.24391,"lon":5.37049,"is_reserved":false,"is_disabled":false,"rental_uris":{"android":"levelo://app?vid=ae2ccb33-795f-44d2-a6c0-9c58090a88ce","ios":"levelo://app?vid=ae2ccb33-795f-44d2-a6c0-9c58090a88ce"},"vehicle_type_id":"4","last_reported":1730517261,"current_range_meters":32400,"station_id":"ce4bhhh2rcd13ifvqfk0","pricing_plan_id":"cebpf4jnsgd1na2vs0mg"},{"bike_id":"da4b1b9f-a552-4935-bde7-5d2e3f226f86","system_id":"levelo_inurba_marseille","lat":43.29555,"lon":5.42288,"is_reserved":false,"is_disabled":false,"rental_uris":{"android":"levelo://app?vid=da4b1b9f-a552-4935-bde7-5d2e3f226f86","ios":"levelo://app?vid=da4b1b9f-a552-4935-bde7-5d2e3f226f86"},"vehicle_type_id":"4","last_reported":1730517261,"current_range_meters":38800,"station_id":"ce4bhph2rcd13ifvqhdg","pricing_plan_id":"cebpf4jnsgd1na2vs0mg"},{"bike_id":"b46f1536-9668-4958-9926-bdb7af8ef666","system_id":"levelo_inurba_marseille","lat":43.31884,"lon":5.40727,"is_reserved":false,"is_disabled":false,"rental_uris":{"android":"levelo://app?vid=b46f1536-9668-4958-9926-bdb7af8ef666","ios":"levelo://app?vid=b46f1536-9668-4958-9926-bdb7af8ef666"},"vehicle_type_id":"4","last_reported":1730517261,"current_range_meters":37600,"station_id":"ce4bhq12rcd13ifvqhig","pricing_plan_id":"cebpf4jnsgd1na2vs0mg"},{"bike_id":"01247e72-d93d-44bb-a492-b9bb7634f5bf","system_id":"levelo_inurba_marseille","lat":43.31171,"lon":5.38711,"is_reserved":false,"is_disabled":false,"rental_uris":{"android":"levelo://app?vid=01247e72-d93d-44bb-a492-b9bb7634f5bf","ios":"levelo://app?vid=01247e72-d93d-44bb-a492-b9bb7634f5bf"},"vehicle_type_id":"4","last_reported":1730517261,"current_range_meters":37600,"station_id":"ce4bgv12rcd13ifvqcp0","pricing_plan_id":"cebpf4jnsgd1na2vs0mg"},{"bike_id":"fb7f8183-7447-4baa-b80d-313056d35dd4","system_id":"levelo_inurba_marseille","lat":43.25729,"lon":5.41107,"is_reserved":false,"is_disabled":false,"rental_uris":{"android":"levelo://app?vid=fb7f8183-7447-4baa-b80d-313056d35dd4","ios":"levelo://app?vid=fb7f8183-7447-4baa-b80d-313056d35dd4"},"vehicle_type_id":"4","last_reported":1730517261,"current_range_meters":28000,"station_id":"ce4bhkp2rcd13ifvqgd0","pricing_plan_id":"cebpf4jnsgd1na2vs0mg"},{"bike_id":"62a01b41-421a-4dd3-8d6d-c5a21c22ce3e","system_id":"levelo_inurba_marseille","lat":43.27571,"lon":5.38408,"is_reserved":false,"is_disabled":false,"rental_uris":{"android":"levelo://app?vid=62a01b41-421a-4dd3-8d6d-c5a21c22ce3e","ios":"levelo://app?vid=62a01b41-421a-4dd3-8d6d-c5a21c22ce3e"},"vehicle_type_id":"4","last_reported":1730517261,"current_range_meters":29600,"station_id":"ce4bhh92rcd13ifvqfi0","pricing_plan_id":"cebpf4jnsgd1na2vs0mg"},{"bike_id":"512c4bd5-3edb-49b7-a54a-bbe327a08aa0","system_id":"levelo_inurba_marseille","lat":43.25722,"lon":5.41102,"is_reserved":false,"is_disabled":false,"rental_uris":{"android":"levelo://app?vid=512c4bd5-3edb-49b7-a54a-bbe327a08aa0","ios":"levelo://app?vid=512c4bd5-3edb-49b7-a54a-bbe327a08aa0"},"vehicle_type_id":"4","last_reported":1730517261,"current_range_meters":23200,"station_id":"ce4bhkp2rcd13ifvqgd0","pricing_plan_id":"cebpf4jnsgd1na2vs0mg"},{"bike_id":"a4627486-a087-47d1-bdea-e9476cd49986","system_id":"levelo_inurba_marseille","lat":43.23196,"lon":5.3555,"is_reserved":false,"is_disabled":false,"rental_uris":{"android":"levelo://app?vid=a4627486-a087-47d1-bdea-e9476cd49986","ios":"levelo://app?vid=a4627486-a087-47d1-bdea-e9476cd49986"},"vehicle_type_id":"4","last_reported":1730517261,"current_range_meters":28400,"station_id":"ce4bhu92rcd13ifvqi70","pricing_plan_id":"cebpf4jnsgd1na2vs0mg"},{"bike_id":"7525bc00-1337-4380-92ac-81267b7c885f","system_id":"levelo_inurba_marseille","lat":43.295679,"lon":5.39978,"is_reserved":false,"is_disabled":false,"rental_uris":{"android":"levelo://app?vid=7525bc00-1337-4380-92ac-81267b7c885f","ios":"levelo://app?vid=7525bc00-1337-4380-92ac-81267b7c885f"},"vehicle_type_id":"4","last_reported":1730517261,"current_range_meters":38800,"station_id":"ce4bh312rcd13ifvqdj0","pricing_plan_id":"cebpf4jnsgd1na2vs0mg"},{"bike_id":"6f77ad84-d1e9-4926-90a4-095eb3e8ffcb","system_id":"levelo_inurba_marseille","lat":43.31176,"lon":5.3871,"is_reserved":false,"is_disabled":false,"rental_uris":{"android":"levelo://app?vid=6f77ad84-d1e9-4926-90a4-095eb3e8ffcb","ios":"levelo://app?vid=6f77ad84-d1e9-4926-90a4-095eb3e8ffcb"},"vehicle_type_id":"4","last_reported":1730517261,"current_range_meters":25600,"station_id":"ce4bgv12rcd13ifvqcp0","pricing_plan_id":"cebpf4jnsgd1na2vs0mg"},{"bike_id":"509a9bdc-ca48-4855-8040-748bb9b3087b","system_id":"levelo_inurba_marseille","lat":43.25934,"lon":5.409,"is_reserved":false,"is_disabled":false,"rental_uris":{"android":"levelo://app?vid=509a9bdc-ca48-4855-8040-748bb9b3087b","ios":"levelo://app?vid=509a9bdc-ca48-4855-8040-748bb9b3087b"},"vehicle_type_id":"4","last_reported":1730517261,"current_range_meters":24000,"station_id":"ce4bhm92rcd13ifvqglg","pricing_plan_id":"cebpf4jnsgd1na2vs0mg"},{"bike_id":"613a7d55-fbc6-427f-bf59-5c900b195db6","system_id":"levelo_inurba_marseille","lat":43.29028,"lon":5.38645,"is_reserved":false,"is_disabled":false,"rental_uris":{"android":"levelo://app?vid=613a7d55-fbc6-427f-bf59-5c900b195db6","ios":"levelo://app?vid=613a7d55-fbc6-427f-bf59-5c900b195db6"},"vehicle_type_id":"4","last_reported":1730517261,"current_range_meters":30400,"station_id":"ce4bh4p2rcd13ifvqe0g","pricing_plan_id":"cebpf4jnsgd1na2vs0mg"},{"bike_id":"c6b919ac-729f-4bb3-8ae8-188bdfc3cd3a","system_id":"levelo_inurba_marseille","lat":43.27177,"lon":5.4099,"is_reserved":false,"is_disabled":false,"rental_uris":{"android":"levelo://app?vid=c6b919ac-729f-4bb3-8ae8-188bdfc3cd3a","ios":"levelo://app?vid=c6b919ac-729f-4bb3-8ae8-188bdfc3cd3a"},"vehicle_type_id":"4","last_reported":1730517261,"current_range_meters":30000,"station_id":"ce4bhl12rcd13ifvqgf0","pricing_plan_id":"cebpf4jnsgd1na2vs0mg"},{"bike_id":"e08a616d-606a-4fc0-8079-b06795760ac9","system_id":"levelo_inurba_marseille","lat":43.29885,"lon":5.38899,"is_reserved":false,"is_disabled":false,"rental_uris":{"android":"levelo://app?vid=e08a616d-606a-4fc0-8079-b06795760ac9","ios":"levelo://app?vid=e08a616d-606a-4fc0-8079-b06795760ac9"},"vehicle_type_id":"4","last_reported":1730517261,"current_range_meters":39200,"station_id":"ce4bh392rcd13ifvqdl0","pricing_plan_id":"cebpf4jnsgd1na2vs0mg"},{"bike_id":"afcf058f-7c8d-4d4b-aef1-f8b80ff55cb5","system_id":"levelo_inurba_marseille","lat":43.30304,"lon":5.36891,"is_reserved":false,"is_disabled":false,"rental_uris":{"android":"levelo://app?vid=afcf058f-7c8d-4d4b-aef1-f8b80ff55cb5","ios":"levelo://app?vid=afcf058f-7c8d-4d4b-aef1-f8b80ff55cb5"},"vehicle_type_id":"4","last_reported":1730517261,"current_range_meters":39200,"station_id":"ce4bgqh2rcd13ifvqc5g","pricing_plan_id":"cebpf4jnsgd1na2vs0mg"},{"bike_id":"3a758925-ff45-4c49-b4ee-de6c8fbb558b","system_id":"levelo_inurba_marseille","lat":43.25119,"lon":5.4032,"is_reserved":false,"is_disabled":false,"rental_uris":{"android":"levelo://app?vid=3a758925-ff45-4c49-b4ee-de6c8fbb558b","ios":"levelo://app?vid=3a758925-ff45-4c49-b4ee-de6c8fbb558b"},"vehicle_type_id":"4","last_reported":1730517261,"current_range_meters":6000,"station_id":"ce4bhlh2rcd13ifvqgig","pricing_plan_id":"cebpf4jnsgd1na2vs0mg"},{"bike_id":"efbe383f-83c6-4df5-ac1f-ffa8f2e0197b","system_id":"levelo_inurba_marseille","lat":43.31339,"lon":5.39693,"is_reserved":false,"is_disabled":false,"rental_uris":{"android":"levelo://app?vid=efbe383f-83c6-4df5-ac1f-ffa8f2e0197b","ios":"levelo://app?vid=efbe383f-83c6-4df5-ac1f-ffa8f2e0197b"},"vehicle_type_id":"4","last_reported":1730517261,"current_range_meters":6800,"station_id":"ce4bgvp2rcd13ifvqcu0","pricing_plan_id":"cebpf4jnsgd1na2vs0mg"},{"bike_id":"6aee0ce1-c7a0-45e8-a515-069ca31b3763","system_id":"levelo_inurba_marseille","lat":43.2573,"lon":5.411139,"is_reserved":false,"is_disabled":false,"rental_uris":{"android":"levelo://app?vid=6aee0ce1-c7a0-45e8-a515-069ca31b3763","ios":"levelo://app?vid=6aee0ce1-c7a0-45e8-a515-069ca31b3763"},"vehicle_type_id":"4","last_reported":1730517261,"current_range_meters":38800,"station_id":"ce4bhkp2rcd13ifvqgd0","pricing_plan_id":"cebpf4jnsgd1na2vs0mg"},{"bike_id":"1586e445-a9a1-4791-922c-55fb02dcbcb9","system_id":"levelo_inurba_marseille","lat":43.30794,"lon":5.43524,"is_reserved":false,"is_disabled":false,"rental_uris":{"android":"levelo://app?vid=1586e445-a9a1-4791-922c-55fb02dcbcb9","ios":"levelo://app?vid=1586e445-a9a1-4791-922c-55fb02dcbcb9"},"vehicle_type_id":"4","last_reported":1730517261,"current_range_meters":38800,"station_id":"ce4bhph2rcd13ifvqheg","pricing_plan_id":"cebpf4jnsgd1na2vs0mg"},{"bike_id":"c368d0bc-b01f-4385-a5cb-f8e1caa1eaf3","system_id":"levelo_inurba_marseille","lat":43.30423,"lon":5.39755,"is_reserved":false,"is_disabled":false,"rental_uris":{"android":"levelo://app?vid=c368d0bc-b01f-4385-a5cb-f8e1caa1eaf3","ios":"levelo://app?vid=c368d0bc-b01f-4385-a5cb-f8e1caa1eaf3"},"vehicle_type_id":"4","last_reported":1730517261,"current_range_meters":32800,"station_id":"ce4bh092rcd13ifvqd20","pricing_plan_id":"cebpf4jnsgd1na2vs0mg"},{"bike_id":"d2896018-51ec-47f9-bd36-7737b82f546d","system_id":"levelo_inurba_marseille","lat":43.31499,"lon":5.37301,"is_reserved":false,"is_disabled":false,"rental_uris":{"android":"levelo://app?vid=d2896018-51ec-47f9-bd36-7737b82f546d","ios":"levelo://app?vid=d2896018-51ec-47f9-bd36-7737b82f546d"},"vehicle_type_id":"4","last_reported":1730517261,"current_range_meters":37600,"station_id":"ce4bgt12rcd13ifvqcd0","pricing_plan_id":"cebpf4jnsgd1na2vs0mg"},{"bike_id":"727f9214-35e2-4693-a132-fcd8d713c122","system_id":"levelo_inurba_marseille","lat":43.30933,"lon":5.40137,"is_reserved":false,"is_disabled":false,"rental_uris":{"android":"levelo://app?vid=727f9214-35e2-4693-a132-fcd8d713c122","ios":"levelo://app?vid=727f9214-35e2-4693-a132-fcd8d713c122"},"vehicle_type_id":"4","last_reported":1730517261,"current_range_meters":38800,"station_id":"ce4bgvp2rcd13ifvqct0","pricing_plan_id":"cebpf4jnsgd1na2vs0mg"},{"bike_id":"8cba0623-9dce-4e04-a8e4-327b466e7d92","system_id":"levelo_inurba_marseille","lat":43.286619,"lon":5.363561,"is_reserved":false,"is_disabled":false,"rental_uris":{"android":"levelo://app?vid=8cba0623-9dce-4e04-a8e4-327b466e7d92","ios":"levelo://app?vid=8cba0623-9dce-4e04-a8e4-327b466e7d92"},"vehicle_type_id":"4","last_reported":1730517261,"current_range_meters":38800,"station_id":"ce4bhah2rcd13ifvqej0","pricing_plan_id":"cebpf4jnsgd1na2vs0mg"},{"bike_id":"7264b11d-57cf-45b3-8d62-95fd166b1d0a","system_id":"levelo_inurba_marseille","lat":43.30141,"lon":5.38784,"is_reserved":false,"is_disabled":false,"rental_uris":{"android":"levelo://app?vid=7264b11d-57cf-45b3-8d62-95fd166b1d0a","ios":"levelo://app?vid=7264b11d-57cf-45b3-8d62-95fd166b1d0a"},"vehicle_type_id":"4","last_reported":1730517261,"current_range_meters":17600,"station_id":"ce4bghh2rcd13ifvqb60","pricing_plan_id":"cebpf4jnsgd1na2vs0mg"},{"bike_id":"d09648be-c068-4b81-b180-48ec7461483f","system_id":"levelo_inurba_marseille","lat":43.29511,"lon":5.39408,"is_reserved":false,"is_disabled":false,"rental_uris":{"android":"levelo://app?vid=d09648be-c068-4b81-b180-48ec7461483f","ios":"levelo://app?vid=d09648be-c068-4b81-b180-48ec7461483f"},"vehicle_type_id":"4","last_reported":1730517261,"current_range_meters":40000,"station_id":"ce4bh292rcd13ifvqdf0","pricing_plan_id":"cebpf4jnsgd1na2vs0mg"},{"bike_id":"edca092e-20e6-4b3a-92ed-c251139159af","system_id":"levelo_inurba_marseille","lat":43.30429,"lon":5.39751,"is_reserved":false,"is_disabled":false,"rental_uris":{"android":"levelo://app?vid=edca092e-20e6-4b3a-92ed-c251139159af","ios":"levelo://app?vid=edca092e-20e6-4b3a-92ed-c251139159af"},"vehicle_type_id":"4","last_reported":1730517261,"current_range_meters":36800,"station_id":"ce4bh092rcd13ifvqd20","pricing_plan_id":"cebpf4jnsgd1na2vs0mg"},{"bike_id":"35899c9a-01eb-4f85-bc4b-c14d5912c2f3","system_id":"levelo_inurba_marseille","lat":43.30145,"lon":5.39861,"is_reserved":false,"is_disabled":false,"rental_uris":{"android":"levelo://app?vid=35899c9a-01eb-4f85-bc4b-c14d5912c2f3","ios":"levelo://app?vid=35899c9a-01eb-4f85-bc4b-c14d5912c2f3"},"vehicle_type_id":"4","last_reported":1730517261,"current_range_meters":36000,"station_id":"ce4bh0h2rcd13ifvqd40","pricing_plan_id":"cebpf4jnsgd1na2vs0mg"},{"bike_id":"dda0e212-4309-4695-9f60-11cac500acd1","system_id":"levelo_inurba_marseille","lat":43.304351,"lon":5.388931,"is_reserved":false,"is_disabled":false,"rental_uris":{"android":"levelo://app?vid=dda0e212-4309-4695-9f60-11cac500acd1","ios":"levelo://app?vid=dda0e212-4309-4695-9f60-11cac500acd1"},"vehicle_type_id":"4","last_reported":1730517261,"current_range_meters":38400,"station_id":"ce4bgk12rcd13ifvqbi0","pricing_plan_id":"cebpf4jnsgd1na2vs0mg"},{"bike_id":"07a8603e-9415-4c0b-8be4-1b66f8b2c34f","system_id":"levelo_inurba_marseille","lat":43.31098,"lon":5.38364,"is_reserved":false,"is_disabled":false,"rental_uris":{"android":"levelo://app?vid=07a8603e-9415-4c0b-8be4-1b66f8b2c34f","ios":"levelo://app?vid=07a8603e-9415-4c0b-8be4-1b66f8b2c34f"},"vehicle_type_id":"4","last_reported":1730517261,"current_range_meters":27200,"station_id":"ce4bgv92rcd13ifvqcr0","pricing_plan_id":"cebpf4jnsgd1na2vs0mg"},{"bike_id":"0d4f48b5-8358-4d28-bb27-95b0b6589686","system_id":"levelo_inurba_marseille","lat":43.31497,"lon":5.37305,"is_reserved":false,"is_disabled":false,"rental_uris":{"android":"levelo://app?vid=0d4f48b5-8358-4d28-bb27-95b0b6589686","ios":"levelo://app?vid=0d4f48b5-8358-4d28-bb27-95b0b6589686"},"vehicle_type_id":"4","last_reported":1730517261,"current_range_meters":38400,"station_id":"ce4bgt12rcd13ifvqcd0","pricing_plan_id":"cebpf4jnsgd1na2vs0mg"},{"bike_id":"4109850f-6033-4b57-af3f-cfd0f5a4e9a0","system_id":"levelo_inurba_marseille","lat":43.28265,"lon":5.35077,"is_reserved":false,"is_disabled":false,"rental_uris":{"android":"levelo://app?vid=4109850f-6033-4b57-af3f-cfd0f5a4e9a0","ios":"levelo://app?vid=4109850f-6033-4b57-af3f-cfd0f5a4e9a0"},"vehicle_type_id":"4","last_reported":1730517261,"current_range_meters":35600,"station_id":"ce4bhbp2rcd13ifvqerg","pricing_plan_id":"cebpf4jnsgd1na2vs0mg"},{"bike_id":"0101f80a-f8f4-44bc-955f-cd8a22de3709","system_id":"levelo_inurba_marseille","lat":43.30786,"lon":5.37656,"is_reserved":false,"is_disabled":false,"rental_uris":{"android":"levelo://app?vid=0101f80a-f8f4-44bc-955f-cd8a22de3709","ios":"levelo://app?vid=0101f80a-f8f4-44bc-955f-cd8a22de3709"},"vehicle_type_id":"4","last_reported":1730517261,"current_range_meters":40000,"station_id":"ce4bgv92rcd13ifvqcq0","pricing_plan_id":"cebpf4jnsgd1na2vs0mg"},{"bike_id":"8ac4f741-2911-42d6-a00a-51cf057a7d47","system_id":"levelo_inurba_marseille","lat":43.27502,"lon":5.42445,"is_reserved":false,"is_disabled":false,"rental_uris":{"android":"levelo://app?vid=8ac4f741-2911-42d6-a00a-51cf057a7d47","ios":"levelo://app?vid=8ac4f741-2911-42d6-a00a-51cf057a7d47"},"vehicle_type_id":"4","last_reported":1730517261,"current_range_meters":38800,"station_id":"ce4bhn92rcd13ifvqgrg","pricing_plan_id":"cebpf4jnsgd1na2vs0mg"},{"bike_id":"927cdf92-a252-437e-96d0-20884e5c00d0","system_id":"levelo_inurba_marseille","lat":43.31181,"lon":5.38709,"is_reserved":false,"is_disabled":false,"rental_uris":{"android":"levelo://app?vid=927cdf92-a252-437e-96d0-20884e5c00d0","ios":"levelo://app?vid=927cdf92-a252-437e-96d0-20884e5c00d0"},"vehicle_type_id":"4","last_reported":1730517261,"current_range_meters":38000,"station_id":"ce4bgv12rcd13ifvqcp0","pricing_plan_id":"cebpf4jnsgd1na2vs0mg"},{"bike_id":"f48b9a12-4fac-4f4a-8b5c-44fe90694253","system_id":"levelo_inurba_marseille","lat":43.2989,"lon":5.43669,"is_reserved":false,"is_disabled":false,"rental_uris":{"android":"levelo://app?vid=f48b9a12-4fac-4f4a-8b5c-44fe90694253","ios":"levelo://app?vid=f48b9a12-4fac-4f4a-8b5c-44fe90694253"},"vehicle_type_id":"4","last_reported":1730517261,"current_range_meters":39200,"station_id":"ce4bhpp2rcd13ifvqhfg","pricing_plan_id":"cebpf4jnsgd1na2vs0mg"},{"bike_id":"a7125d65-74ce-495d-817a-4658be7b2ef8","system_id":"levelo_inurba_marseille","lat":43.287028,"lon":5.373837,"is_reserved":false,"is_disabled":false,"rental_uris":{"android":"levelo://app?vid=a7125d65-74ce-495d-817a-4658be7b2ef8","ios":"levelo://app?vid=a7125d65-74ce-495d-817a-4658be7b2ef8"},"vehicle_type_id":"4","last_reported":1730517261,"current_range_meters":18800,"station_id":"ce4bh3p2rcd13ifvqdq0","pricing_plan_id":"cebpf4jnsgd1na2vs0mg"},{"bike_id":"5ccaa622-d720-45ea-813a-04bb2887840e","system_id":"levelo_inurba_marseille","lat":43.28363,"lon":5.38101,"is_reserved":false,"is_disabled":false,"rental_uris":{"android":"levelo://app?vid=5ccaa622-d720-45ea-813a-04bb2887840e","ios":"levelo://app?vid=5ccaa622-d720-45ea-813a-04bb2887840e"},"vehicle_type_id":"4","last_reported":1730517261,"current_range_meters":25600,"station_id":"ce4bh412rcd13ifvqdr0","pricing_plan_id":"cebpf4jnsgd1na2vs0mg"},{"bike_id":"dccc613c-7c9d-44fc-9625-47ccbc365073","system_id":"levelo_inurba_marseille","lat":43.274923,"lon":5.424511,"is_reserved":false,"is_disabled":false,"rental_uris":{"android":"levelo://app?vid=dccc613c-7c9d-44fc-9625-47ccbc365073","ios":"levelo://app?vid=dccc613c-7c9d-44fc-9625-47ccbc365073"},"vehicle_type_id":"4","last_reported":1730517261,"current_range_meters":37600,"station_id":"ce4bhn92rcd13ifvqgrg","pricing_plan_id":"cebpf4jnsgd1na2vs0mg"},{"bike_id":"adfaff32-5e7d-44dd-a6ad-3322d753e148","system_id":"levelo_inurba_marseille","lat":43.28707,"lon":5.39987,"is_reserved":false,"is_disabled":false,"rental_uris":{"android":"levelo://app?vid=adfaff32-5e7d-44dd-a6ad-3322d753e148","ios":"levelo://app?vid=adfaff32-5e7d-44dd-a6ad-3322d753e148"},"vehicle_type_id":"4","last_reported":1730517261,"current_range_meters":16800,"station_id":"ce4bho92rcd13ifvqh3g","pricing_plan_id":"cebpf4jnsgd1na2vs0mg"},{"bike_id":"33c513c1-0c30-413c-9d3b-35dd29a13d6f","system_id":"levelo_inurba_marseille","lat":43.31688,"lon":5.40474,"is_reserved":false,"is_disabled":false,"rental_uris":{"android":"levelo://app?vid=33c513c1-0c30-413c-9d3b-35dd29a13d6f","ios":"levelo://app?vid=33c513c1-0c30-413c-9d3b-35dd29a13d6f"},"vehicle_type_id":"4","last_reported":1730517261,"current_range_meters":38800,"station_id":"ce4bh012rcd13ifvqd00","pricing_plan_id":"cebpf4jnsgd1na2vs0mg"},{"bike_id":"90f0cabd-ec2c-4869-a68e-3fa606f04d51","system_id":"levelo_inurba_marseille","lat":43.2884,"lon":5.39309,"is_reserved":false,"is_disabled":false,"rental_uris":{"android":"levelo://app?vid=90f0cabd-ec2c-4869-a68e-3fa606f04d51","ios":"levelo://app?vid=90f0cabd-ec2c-4869-a68e-3fa606f04d51"},"vehicle_type_id":"4","last_reported":1730517261,"current_range_meters":38800,"station_id":"ce4bh2p2rcd13ifvqdi0","pricing_plan_id":"cebpf4jnsgd1na2vs0mg"},{"bike_id":"ef71a38e-b485-4656-9d28-cdd95fa91cf3","system_id":"levelo_inurba_marseille","lat":43.26562,"lon":5.38992,"is_reserved":false,"is_disabled":false,"rental_uris":{"android":"levelo://app?vid=ef71a38e-b485-4656-9d28-cdd95fa91cf3","ios":"levelo://app?vid=ef71a38e-b485-4656-9d28-cdd95fa91cf3"},"vehicle_type_id":"4","last_reported":1730517261,"current_range_meters":38800,"station_id":"ce4bhe12rcd13ifvqf30","pricing_plan_id":"cebpf4jnsgd1na2vs0mg"},{"bike_id":"17fd750f-e42b-4cfa-b178-300f95762466","system_id":"levelo_inurba_marseille","lat":43.305341,"lon":5.384187,"is_reserved":false,"is_disabled":false,"rental_uris":{"android":"levelo://app?vid=17fd750f-e42b-4cfa-b178-300f95762466","ios":"levelo://app?vid=17fd750f-e42b-4cfa-b178-300f95762466"},"vehicle_type_id":"4","last_reported":1730517261,"current_range_meters":38800,"station_id":"ce4bgg92rcd13ifvqb30","pricing_plan_id":"cebpf4jnsgd1na2vs0mg"},{"bike_id":"81884082-00d5-4690-9d64-b12d1996e064","system_id":"levelo_inurba_marseille","lat":43.28337,"lon":5.38094,"is_reserved":false,"is_disabled":false,"rental_uris":{"android":"levelo://app?vid=81884082-00d5-4690-9d64-b12d1996e064","ios":"levelo://app?vid=81884082-00d5-4690-9d64-b12d1996e064"},"vehicle_type_id":"4","last_reported":1730517261,"current_range_meters":9200,"station_id":"ce4bh412rcd13ifvqdr0","pricing_plan_id":"cebpf4jnsgd1na2vs0mg"},{"bike_id":"cdd05299-4bda-4d93-b7aa-87ec00718ef1","system_id":"levelo_inurba_marseille","lat":43.28581,"lon":5.39495,"is_reserved":false,"is_disabled":false,"rental_uris":{"android":"levelo://app?vid=cdd05299-4bda-4d93-b7aa-87ec00718ef1","ios":"levelo://app?vid=cdd05299-4bda-4d93-b7aa-87ec00718ef1"},"vehicle_type_id":"4","last_reported":1730517261,"current_range_meters":35600,"station_id":"ce4bh292rcd13ifvqdg0","pricing_plan_id":"cebpf4jnsgd1na2vs0mg"},{"bike_id":"6805d9c9-4ec9-4d81-9a25-0d0c381ced42","system_id":"levelo_inurba_marseille","lat":43.2979,"lon":5.37109,"is_reserved":false,"is_disabled":false,"rental_uris":{"android":"levelo://app?vid=6805d9c9-4ec9-4d81-9a25-0d0c381ced42","ios":"levelo://app?vid=6805d9c9-4ec9-4d81-9a25-0d0c381ced42"},"vehicle_type_id":"4","last_reported":1730517261,"current_range_meters":31200,"station_id":"ce4bgop2rcd13ifvqc1g","pricing_plan_id":"cebpf4jnsgd1na2vs0mg"},{"bike_id":"1994cd20-32ae-4177-8030-69c11b23a867","system_id":"levelo_inurba_marseille","lat":43.25115,"lon":5.40329,"is_reserved":false,"is_disabled":false,"rental_uris":{"android":"levelo://app?vid=1994cd20-32ae-4177-8030-69c11b23a867","ios":"levelo://app?vid=1994cd20-32ae-4177-8030-69c11b23a867"},"vehicle_type_id":"4","last_reported":1730517261,"current_range_meters":9200,"station_id":"ce4bhlh2rcd13ifvqgig","pricing_plan_id":"cebpf4jnsgd1na2vs0mg"},{"bike_id":"af0f958e-34c3-444c-927f-1763ff36aafb","system_id":"levelo_inurba_marseille","lat":43.30436,"lon":5.3889,"is_reserved":false,"is_disabled":false,"rental_uris":{"android":"levelo://app?vid=af0f958e-34c3-444c-927f-1763ff36aafb","ios":"levelo://app?vid=af0f958e-34c3-444c-927f-1763ff36aafb"},"vehicle_type_id":"4","last_reported":1730517261,"current_range_meters":16800,"station_id":"ce4bgk12rcd13ifvqbi0","pricing_plan_id":"cebpf4jnsgd1na2vs0mg"},{"bike_id":"5a84c97e-f31d-4406-92af-5271994087b0","system_id":"levelo_inurba_marseille","lat":43.28406,"lon":5.37499,"is_reserved":false,"is_disabled":false,"rental_uris":{"android":"levelo://app?vid=5a84c97e-f31d-4406-92af-5271994087b0","ios":"levelo://app?vid=5a84c97e-f31d-4406-92af-5271994087b0"},"vehicle_type_id":"4","last_reported":1730517261,"current_range_meters":19200,"station_id":"ce4bh412rcd13ifvqds0","pricing_plan_id":"cebpf4jnsgd1na2vs0mg"},{"bike_id":"7dc1c1ed-2472-4dd8-84f9-9b00a0c2baff","system_id":"levelo_inurba_marseille","lat":43.29554,"lon":5.42282,"is_reserved":false,"is_disabled":false,"rental_uris":{"android":"levelo://app?vid=7dc1c1ed-2472-4dd8-84f9-9b00a0c2baff","ios":"levelo://app?vid=7dc1c1ed-2472-4dd8-84f9-9b00a0c2baff"},"vehicle_type_id":"4","last_reported":1730517261,"current_range_meters":38400,"station_id":"ce4bhph2rcd13ifvqhdg","pricing_plan_id":"cebpf4jnsgd1na2vs0mg"},{"bike_id":"cc2c6e9e-adec-4c59-b288-21ebbf8a6210","system_id":"levelo_inurba_marseille","lat":43.30805,"lon":5.38135,"is_reserved":false,"is_disabled":false,"rental_uris":{"android":"levelo://app?vid=cc2c6e9e-adec-4c59-b288-21ebbf8a6210","ios":"levelo://app?vid=cc2c6e9e-adec-4c59-b288-21ebbf8a6210"},"vehicle_type_id":"4","last_reported":1730517261,"current_range_meters":27200,"station_id":"ce4bgt12rcd13ifvqce0","pricing_plan_id":"cebpf4jnsgd1na2vs0mg"},{"bike_id":"471b4989-c077-4f57-bbe0-52b7ea1332e4","system_id":"levelo_inurba_marseille","lat":43.3042,"lon":5.39748,"is_reserved":false,"is_disabled":false,"rental_uris":{"android":"levelo://app?vid=471b4989-c077-4f57-bbe0-52b7ea1332e4","ios":"levelo://app?vid=471b4989-c077-4f57-bbe0-52b7ea1332e4"},"vehicle_type_id":"4","last_reported":1730517261,"current_range_meters":37600,"station_id":"ce4bh092rcd13ifvqd20","pricing_plan_id":"cebpf4jnsgd1na2vs0mg"},{"bike_id":"3e298234-f57f-4eba-8e7a-4b84891b1fba","system_id":"levelo_inurba_marseille","lat":43.30594,"lon":5.39359,"is_reserved":false,"is_disabled":false,"rental_uris":{"android":"levelo://app?vid=3e298234-f57f-4eba-8e7a-4b84891b1fba","ios":"levelo://app?vid=3e298234-f57f-4eba-8e7a-4b84891b1fba"},"vehicle_type_id":"4","last_reported":1730517261,"current_range_meters":37600,"station_id":"ce4bh0p2rcd13ifvqd80","pricing_plan_id":"cebpf4jnsgd1na2vs0mg"},{"bike_id":"4dd74b80-423d-4a82-8b5a-fef5ebd97f46","system_id":"levelo_inurba_marseille","lat":43.24393,"lon":5.37053,"is_reserved":false,"is_disabled":false,"rental_uris":{"android":"levelo://app?vid=4dd74b80-423d-4a82-8b5a-fef5ebd97f46","ios":"levelo://app?vid=4dd74b80-423d-4a82-8b5a-fef5ebd97f46"},"vehicle_type_id":"4","last_reported":1730517261,"current_range_meters":24400,"station_id":"ce4bhhh2rcd13ifvqfk0","pricing_plan_id":"cebpf4jnsgd1na2vs0mg"},{"bike_id":"afa39957-71be-4682-bdac-91a4c814290b","system_id":"levelo_inurba_marseille","lat":43.289284,"lon":5.384031,"is_reserved":false,"is_disabled":false,"rental_uris":{"android":"levelo://app?vid=afa39957-71be-4682-bdac-91a4c814290b","ios":"levelo://app?vid=afa39957-71be-4682-bdac-91a4c814290b"},"vehicle_type_id":"4","last_reported":1730517261,"current_range_meters":40000,"station_id":"ce4bh612rcd13ifvqe6g","pricing_plan_id":"cebpf4jnsgd1na2vs0mg"},{"bike_id":"9938ebcd-9900-4f33-ae62-087d07b91466","system_id":"levelo_inurba_marseille","lat":43.25724,"lon":5.41101,"is_reserved":false,"is_disabled":false,"rental_uris":{"android":"levelo://app?vid=9938ebcd-9900-4f33-ae62-087d07b91466","ios":"levelo://app?vid=9938ebcd-9900-4f33-ae62-087d07b91466"},"vehicle_type_id":"4","last_reported":1730517261,"current_range_meters":40000,"station_id":"ce4bhkp2rcd13ifvqgd0","pricing_plan_id":"cebpf4jnsgd1na2vs0mg"},{"bike_id":"9d4d7888-e57c-4697-8fc3-2691f4062dff","system_id":"levelo_inurba_marseille","lat":43.28582,"lon":5.39491,"is_reserved":false,"is_disabled":false,"rental_uris":{"android":"levelo://app?vid=9d4d7888-e57c-4697-8fc3-2691f4062dff","ios":"levelo://app?vid=9d4d7888-e57c-4697-8fc3-2691f4062dff"},"vehicle_type_id":"4","last_reported":1730517261,"current_range_meters":28400,"station_id":"ce4bh292rcd13ifvqdg0","pricing_plan_id":"cebpf4jnsgd1na2vs0mg"},{"bike_id":"e960ac30-070e-494a-a9c1-effafcd9c6f4","system_id":"levelo_inurba_marseille","lat":43.2946,"lon":5.39589,"is_reserved":false,"is_disabled":false,"rental_uris":{"android":"levelo://app?vid=e960ac30-070e-494a-a9c1-effafcd9c6f4","ios":"levelo://app?vid=e960ac30-070e-494a-a9c1-effafcd9c6f4"},"vehicle_type_id":"4","last_reported":1730517261,"current_range_meters":9600,"station_id":"","pricing_plan_id":"cebpf4jnsgd1na2vs0mg"},{"bike_id":"62d981e7-b1eb-4715-b6d9-bee9058cca8d","system_id":"levelo_inurba_marseille","lat":43.32361,"lon":5.38885,"is_reserved":false,"is_disabled":false,"rental_uris":{"android":"levelo://app?vid=62d981e7-b1eb-4715-b6d9-bee9058cca8d","ios":"levelo://app?vid=62d981e7-b1eb-4715-b6d9-bee9058cca8d"},"vehicle_type_id":"4","last_reported":1730517261,"current_range_meters":24800,"station_id":"ce4bhqp2rcd13ifvqhog","pricing_plan_id":"cebpf4jnsgd1na2vs0mg"},{"bike_id":"31d707ad-9920-4676-98a7-f222aae4777a","system_id":"levelo_inurba_marseille","lat":43.2988,"lon":5.38908,"is_reserved":false,"is_disabled":false,"rental_uris":{"android":"levelo://app?vid=31d707ad-9920-4676-98a7-f222aae4777a","ios":"levelo://app?vid=31d707ad-9920-4676-98a7-f222aae4777a"},"vehicle_type_id":"4","last_reported":1730517261,"current_range_meters":39200,"station_id":"ce4bh392rcd13ifvqdl0","pricing_plan_id":"cebpf4jnsgd1na2vs0mg"},{"bike_id":"fe334fc1-8d3b-44ae-b081-23ee7c86ea50","system_id":"levelo_inurba_marseille","lat":43.29166,"lon":5.37169,"is_reserved":false,"is_disabled":false,"rental_uris":{"android":"levelo://app?vid=fe334fc1-8d3b-44ae-b081-23ee7c86ea50","ios":"levelo://app?vid=fe334fc1-8d3b-44ae-b081-23ee7c86ea50"},"vehicle_type_id":"4","last_reported":1730517261,"current_range_meters":11200,"station_id":"ce4bha92rcd13ifvqeh0","pricing_plan_id":"cebpf4jnsgd1na2vs0mg"},{"bike_id":"5a588df1-fc21-4202-a0ec-c725a0368f37","system_id":"levelo_inurba_marseille","lat":43.27938,"lon":5.41042,"is_reserved":false,"is_disabled":false,"rental_uris":{"android":"levelo://app?vid=5a588df1-fc21-4202-a0ec-c725a0368f37","ios":"levelo://app?vid=5a588df1-fc21-4202-a0ec-c725a0368f37"},"vehicle_type_id":"4","last_reported":1730517261,"current_range_meters":36000,"station_id":"ce4bhnp2rcd13ifvqh0g","pricing_plan_id":"cebpf4jnsgd1na2vs0mg"},{"bike_id":"42890dc6-02c7-4ea9-9f5a-99ce200c07cf","system_id":"levelo_inurba_marseille","lat":43.30206,"lon":5.3946,"is_reserved":false,"is_disabled":false,"rental_uris":{"android":"levelo://app?vid=42890dc6-02c7-4ea9-9f5a-99ce200c07cf","ios":"levelo://app?vid=42890dc6-02c7-4ea9-9f5a-99ce200c07cf"},"vehicle_type_id":"4","last_reported":1730517261,"current_range_meters":36800,"station_id":"ce4bh0p2rcd13ifvqd70","pricing_plan_id":"cebpf4jnsgd1na2vs0mg"},{"bike_id":"cd9c51c3-66f1-4423-a637-2a576f24f89d","system_id":"levelo_inurba_marseille","lat":43.27068,"lon":5.42275,"is_reserved":false,"is_disabled":false,"rental_uris":{"android":"levelo://app?vid=cd9c51c3-66f1-4423-a637-2a576f24f89d","ios":"levelo://app?vid=cd9c51c3-66f1-4423-a637-2a576f24f89d"},"vehicle_type_id":"4","last_reported":1730517261,"current_range_meters":14000,"station_id":"ce4bhk92rcd13ifvqgb0","pricing_plan_id":"cebpf4jnsgd1na2vs0mg"},{"bike_id":"c4827a96-b8bd-44da-bb6c-d9b780f8d7d8","system_id":"levelo_inurba_marseille","lat":43.3054,"lon":5.38424,"is_reserved":false,"is_disabled":false,"rental_uris":{"android":"levelo://app?vid=c4827a96-b8bd-44da-bb6c-d9b780f8d7d8","ios":"levelo://app?vid=c4827a96-b8bd-44da-bb6c-d9b780f8d7d8"},"vehicle_type_id":"4","last_reported":1730517261,"current_range_meters":30000,"station_id":"ce4bgg92rcd13ifvqb30","pricing_plan_id":"cebpf4jnsgd1na2vs0mg"},{"bike_id":"ca2f85fe-525a-48c9-95b5-53b5b61ca1b9","system_id":"levelo_inurba_marseille","lat":43.30419,"lon":5.38887,"is_reserved":false,"is_disabled":false,"rental_uris":{"android":"levelo://app?vid=ca2f85fe-525a-48c9-95b5-53b5b61ca1b9","ios":"levelo://app?vid=ca2f85fe-525a-48c9-95b5-53b5b61ca1b9"},"vehicle_type_id":"4","last_reported":1730517261,"current_range_meters":39200,"station_id":"ce4bgk12rcd13ifvqbi0","pricing_plan_id":"cebpf4jnsgd1na2vs0mg"},{"bike_id":"d69eef29-33f1-400b-9dbd-e583b4f600d8","system_id":"levelo_inurba_marseille","lat":43.24653,"lon":5.38902,"is_reserved":false,"is_disabled":false,"rental_uris":{"android":"levelo://app?vid=d69eef29-33f1-400b-9dbd-e583b4f600d8","ios":"levelo://app?vid=d69eef29-33f1-400b-9dbd-e583b4f600d8"},"vehicle_type_id":"4","last_reported":1730517261,"current_range_meters":40000,"station_id":"ce4bhg12rcd13ifvqf60","pricing_plan_id":"cebpf4jnsgd1na2vs0mg"},{"bike_id":"bd4e2b20-1aa1-479f-bd96-ad4e0572a62c","system_id":"levelo_inurba_marseille","lat":43.324798,"lon":5.365722,"is_reserved":false,"is_disabled":false,"rental_uris":{"android":"levelo://app?vid=bd4e2b20-1aa1-479f-bd96-ad4e0572a62c","ios":"levelo://app?vid=bd4e2b20-1aa1-479f-bd96-ad4e0572a62c"},"vehicle_type_id":"4","last_reported":1730517261,"current_range_meters":27200,"station_id":"ce4bhs12rcd13ifvqhvg","pricing_plan_id":"cebpf4jnsgd1na2vs0mg"},{"bike_id":"7ecf360b-c330-4319-b95c-5fe5e198de21","system_id":"levelo_inurba_marseille","lat":43.30781,"lon":5.37648,"is_reserved":false,"is_disabled":false,"rental_uris":{"android":"levelo://app?vid=7ecf360b-c330-4319-b95c-5fe5e198de21","ios":"levelo://app?vid=7ecf360b-c330-4319-b95c-5fe5e198de21"},"vehicle_type_id":"4","last_reported":1730517261,"current_range_meters":38400,"station_id":"ce4bgv92rcd13ifvqcq0","pricing_plan_id":"cebpf4jnsgd1na2vs0mg"},{"bike_id":"2749a0d0-f853-40f1-94a4-905f9c1a5e39","system_id":"levelo_inurba_marseille","lat":43.28712,"lon":5.37924,"is_reserved":false,"is_disabled":false,"rental_uris":{"android":"levelo://app?vid=2749a0d0-f853-40f1-94a4-905f9c1a5e39","ios":"levelo://app?vid=2749a0d0-f853-40f1-94a4-905f9c1a5e39"},"vehicle_type_id":"4","last_reported":1730517261,"current_range_meters":38800,"station_id":"ce4bh9p2rcd13ifvqec0","pricing_plan_id":"cebpf4jnsgd1na2vs0mg"},{"bike_id":"66047545-0fb8-424f-9043-6c30d457954a","system_id":"levelo_inurba_marseille","lat":43.3093,"lon":5.4014,"is_reserved":false,"is_disabled":false,"rental_uris":{"android":"levelo://app?vid=66047545-0fb8-424f-9043-6c30d457954a","ios":"levelo://app?vid=66047545-0fb8-424f-9043-6c30d457954a"},"vehicle_type_id":"4","last_reported":1730517261,"current_range_meters":11600,"station_id":"ce4bgvp2rcd13ifvqct0","pricing_plan_id":"cebpf4jnsgd1na2vs0mg"},{"bike_id":"e4169139-09e6-461b-a6a1-87cdd1c95ed6","system_id":"levelo_inurba_marseille","lat":43.27941,"lon":5.41046,"is_reserved":false,"is_disabled":false,"rental_uris":{"android":"levelo://app?vid=e4169139-09e6-461b-a6a1-87cdd1c95ed6","ios":"levelo://app?vid=e4169139-09e6-461b-a6a1-87cdd1c95ed6"},"vehicle_type_id":"4","last_reported":1730517261,"current_range_meters":28800,"station_id":"ce4bhnp2rcd13ifvqh0g","pricing_plan_id":"cebpf4jnsgd1na2vs0mg"},{"bike_id":"83c1d6b5-f16c-4753-89f0-d7b6569e701c","system_id":"levelo_inurba_marseille","lat":43.31074,"lon":5.38358,"is_reserved":false,"is_disabled":false,"rental_uris":{"android":"levelo://app?vid=83c1d6b5-f16c-4753-89f0-d7b6569e701c","ios":"levelo://app?vid=83c1d6b5-f16c-4753-89f0-d7b6569e701c"},"vehicle_type_id":"4","last_reported":1730517261,"current_range_meters":33600,"station_id":"ce4bgv92rcd13ifvqcr0","pricing_plan_id":"cebpf4jnsgd1na2vs0mg"},{"bike_id":"245b4e38-7d8f-4725-9697-1642283430f4","system_id":"levelo_inurba_marseille","lat":43.28936,"lon":5.39619,"is_reserved":false,"is_disabled":false,"rental_uris":{"android":"levelo://app?vid=245b4e38-7d8f-4725-9697-1642283430f4","ios":"levelo://app?vid=245b4e38-7d8f-4725-9697-1642283430f4"},"vehicle_type_id":"4","last_reported":1730517261,"current_range_meters":12800,"station_id":"ce4bh3h2rcd13ifvqdn0","pricing_plan_id":"cebpf4jnsgd1na2vs0mg"},{"bike_id":"f5b1e407-3225-4a1b-a796-f9d7ee942750","system_id":"levelo_inurba_marseille","lat":43.31535,"lon":5.38021,"is_reserved":false,"is_disabled":false,"rental_uris":{"android":"levelo://app?vid=f5b1e407-3225-4a1b-a796-f9d7ee942750","ios":"levelo://app?vid=f5b1e407-3225-4a1b-a796-f9d7ee942750"},"vehicle_type_id":"4","last_reported":1730517261,"current_range_meters":38000,"station_id":"ce4bhsp2rcd13ifvqi50","pricing_plan_id":"cebpf4jnsgd1na2vs0mg"},{"bike_id":"658dacf4-7ef3-4634-8126-9bbd88e5a6eb","system_id":"levelo_inurba_marseille","lat":43.23196,"lon":5.35545,"is_reserved":false,"is_disabled":false,"rental_uris":{"android":"levelo://app?vid=658dacf4-7ef3-4634-8126-9bbd88e5a6eb","ios":"levelo://app?vid=658dacf4-7ef3-4634-8126-9bbd88e5a6eb"},"vehicle_type_id":"4","last_reported":1730517261,"current_range_meters":22000,"station_id":"ce4bhu92rcd13ifvqi70","pricing_plan_id":"cebpf4jnsgd1na2vs0mg"},{"bike_id":"60e43d56-bbd7-49d9-b00f-8f0987dc2224","system_id":"levelo_inurba_marseille","lat":43.28845,"lon":5.39324,"is_reserved":false,"is_disabled":false,"rental_uris":{"android":"levelo://app?vid=60e43d56-bbd7-49d9-b00f-8f0987dc2224","ios":"levelo://app?vid=60e43d56-bbd7-49d9-b00f-8f0987dc2224"},"vehicle_type_id":"4","last_reported":1730517261,"current_range_meters":36400,"station_id":"ce4bh2p2rcd13ifvqdi0","pricing_plan_id":"cebpf4jnsgd1na2vs0mg"},{"bike_id":"b98cfd7f-acdf-400e-bf8f-9132b0f74693","system_id":"levelo_inurba_marseille","lat":43.28113,"lon":5.3786,"is_reserved":false,"is_disabled":false,"rental_uris":{"android":"levelo://app?vid=b98cfd7f-acdf-400e-bf8f-9132b0f74693","ios":"levelo://app?vid=b98cfd7f-acdf-400e-bf8f-9132b0f74693"},"vehicle_type_id":"4","last_reported":1730517261,"current_range_meters":28000,"station_id":"ce4bha12rcd13ifvqee0","pricing_plan_id":"cebpf4jnsgd1na2vs0mg"},{"bike_id":"e62e38a9-284c-4b15-bfe8-8b214b98f04b","system_id":"levelo_inurba_marseille","lat":43.23061,"lon":5.35491,"is_reserved":false,"is_disabled":false,"rental_uris":{"android":"levelo://app?vid=e62e38a9-284c-4b15-bfe8-8b214b98f04b","ios":"levelo://app?vid=e62e38a9-284c-4b15-bfe8-8b214b98f04b"},"vehicle_type_id":"4","last_reported":1730517261,"current_range_meters":24400,"station_id":"cpo3342slgdg3j2ifvpg","pricing_plan_id":"cebpf4jnsgd1na2vs0mg"},{"bike_id":"9eda4c11-d0b9-4549-9cb9-4c0dccf703ee","system_id":"levelo_inurba_marseille","lat":43.30256,"lon":5.40082,"is_reserved":false,"is_disabled":false,"rental_uris":{"android":"levelo://app?vid=9eda4c11-d0b9-4549-9cb9-4c0dccf703ee","ios":"levelo://app?vid=9eda4c11-d0b9-4549-9cb9-4c0dccf703ee"},"vehicle_type_id":"4","last_reported":1730517261,"current_range_meters":14800,"station_id":"ce4bgvh2rcd13ifvqcs0","pricing_plan_id":"cebpf4jnsgd1na2vs0mg"},{"bike_id":"98a941fc-7a33-4d92-b715-985da9d69b8b","system_id":"levelo_inurba_marseille","lat":43.27945,"lon":5.41047,"is_reserved":false,"is_disabled":false,"rental_uris":{"android":"levelo://app?vid=98a941fc-7a33-4d92-b715-985da9d69b8b","ios":"levelo://app?vid=98a941fc-7a33-4d92-b715-985da9d69b8b"},"vehicle_type_id":"4","last_reported":1730517261,"current_range_meters":28800,"station_id":"ce4bhnp2rcd13ifvqh0g","pricing_plan_id":"cebpf4jnsgd1na2vs0mg"},{"bike_id":"1ced4d08-43fd-46f8-ab9a-555d4f897397","system_id":"levelo_inurba_marseille","lat":43.3229,"lon":5.38273,"is_reserved":false,"is_disabled":false,"rental_uris":{"android":"levelo://app?vid=1ced4d08-43fd-46f8-ab9a-555d4f897397","ios":"levelo://app?vid=1ced4d08-43fd-46f8-ab9a-555d4f897397"},"vehicle_type_id":"4","last_reported":1730517261,"current_range_meters":40000,"station_id":"ce4bhr12rcd13ifvqhqg","pricing_plan_id":"cebpf4jnsgd1na2vs0mg"},{"bike_id":"5c365456-41b0-4b5d-bd3e-63294c58f9c6","system_id":"levelo_inurba_marseille","lat":43.30596,"lon":5.37214,"is_reserved":false,"is_disabled":false,"rental_uris":{"android":"levelo://app?vid=5c365456-41b0-4b5d-bd3e-63294c58f9c6","ios":"levelo://app?vid=5c365456-41b0-4b5d-bd3e-63294c58f9c6"},"vehicle_type_id":"4","last_reported":1730517261,"current_range_meters":8000,"station_id":"ce4bgqh2rcd13ifvqc4g","pricing_plan_id":"cebpf4jnsgd1na2vs0mg"},{"bike_id":"aad83483-aaa8-43f3-b586-ce82558627fc","system_id":"levelo_inurba_marseille","lat":43.3031,"lon":5.39196,"is_reserved":false,"is_disabled":false,"rental_uris":{"android":"levelo://app?vid=aad83483-aaa8-43f3-b586-ce82558627fc","ios":"levelo://app?vid=aad83483-aaa8-43f3-b586-ce82558627fc"},"vehicle_type_id":"4","last_reported":1730517261,"current_range_meters":37600,"station_id":"ce4bgkh2rcd13ifvqbk0","pricing_plan_id":"cebpf4jnsgd1na2vs0mg"},{"bike_id":"284faaa3-21e1-4483-8e3c-8ce4eb4e219e","system_id":"levelo_inurba_marseille","lat":43.317564,"lon":5.390236,"is_reserved":false,"is_disabled":false,"rental_uris":{"android":"levelo://app?vid=284faaa3-21e1-4483-8e3c-8ce4eb4e219e","ios":"levelo://app?vid=284faaa3-21e1-4483-8e3c-8ce4eb4e219e"},"vehicle_type_id":"4","last_reported":1730517261,"current_range_meters":19600,"station_id":"ce4bhqp2rcd13ifvqhng","pricing_plan_id":"cebpf4jnsgd1na2vs0mg"},{"bike_id":"c26eeef8-a0b8-4f07-9f71-c1559be85236","system_id":"levelo_inurba_marseille","lat":43.25724,"lon":5.41099,"is_reserved":false,"is_disabled":false,"rental_uris":{"android":"levelo://app?vid=c26eeef8-a0b8-4f07-9f71-c1559be85236","ios":"levelo://app?vid=c26eeef8-a0b8-4f07-9f71-c1559be85236"},"vehicle_type_id":"4","last_reported":1730517261,"current_range_meters":38800,"station_id":"ce4bhkp2rcd13ifvqgd0","pricing_plan_id":"cebpf4jnsgd1na2vs0mg"},{"bike_id":"b87c7bc1-75ed-434e-be1b-60a7d8b99ab6","system_id":"levelo_inurba_marseille","lat":43.2979,"lon":5.39343,"is_reserved":false,"is_disabled":false,"rental_uris":{"android":"levelo://app?vid=b87c7bc1-75ed-434e-be1b-60a7d8b99ab6","ios":"levelo://app?vid=b87c7bc1-75ed-434e-be1b-60a7d8b99ab6"},"vehicle_type_id":"4","last_reported":1730517261,"current_range_meters":10000,"station_id":"chh1huq6cuj3fo74tm60","pricing_plan_id":"cebpf4jnsgd1na2vs0mg"},{"bike_id":"b0d0f0bb-42ff-4ebf-8686-64832137c359","system_id":"levelo_inurba_marseille","lat":43.290268,"lon":5.38139,"is_reserved":false,"is_disabled":false,"rental_uris":{"android":"levelo://app?vid=b0d0f0bb-42ff-4ebf-8686-64832137c359","ios":"levelo://app?vid=b0d0f0bb-42ff-4ebf-8686-64832137c359"},"vehicle_type_id":"4","last_reported":1730517261,"current_range_meters":35200,"station_id":"ce4bh4p2rcd13ifvqe1g","pricing_plan_id":"cebpf4jnsgd1na2vs0mg"},{"bike_id":"b890158d-4cc0-42ea-b1b1-cf934d08cc8a","system_id":"levelo_inurba_marseille","lat":43.32365,"lon":5.38881,"is_reserved":false,"is_disabled":false,"rental_uris":{"android":"levelo://app?vid=b890158d-4cc0-42ea-b1b1-cf934d08cc8a","ios":"levelo://app?vid=b890158d-4cc0-42ea-b1b1-cf934d08cc8a"},"vehicle_type_id":"4","last_reported":1730517261,"current_range_meters":29600,"station_id":"ce4bhqp2rcd13ifvqhog","pricing_plan_id":"cebpf4jnsgd1na2vs0mg"},{"bike_id":"fe9625bd-3854-4eec-a593-8fa0f2878c84","system_id":"levelo_inurba_marseille","lat":43.29533,"lon":5.38534,"is_reserved":false,"is_disabled":false,"rental_uris":{"android":"levelo://app?vid=fe9625bd-3854-4eec-a593-8fa0f2878c84","ios":"levelo://app?vid=fe9625bd-3854-4eec-a593-8fa0f2878c84"},"vehicle_type_id":"4","last_reported":1730517261,"current_range_meters":13600,"station_id":"ce4bgih2rcd13ifvqba0","pricing_plan_id":"cebpf4jnsgd1na2vs0mg"},{"bike_id":"887d3f15-9262-4464-a567-0c0c5d22959d","system_id":"levelo_inurba_marseille","lat":43.3032,"lon":5.36904,"is_reserved":false,"is_disabled":false,"rental_uris":{"android":"levelo://app?vid=887d3f15-9262-4464-a567-0c0c5d22959d","ios":"levelo://app?vid=887d3f15-9262-4464-a567-0c0c5d22959d"},"vehicle_type_id":"4","last_reported":1730517261,"current_range_meters":31200,"station_id":"ce4bgqh2rcd13ifvqc5g","pricing_plan_id":"cebpf4jnsgd1na2vs0mg"},{"bike_id":"13204629-6f37-4fdc-ae71-efb691ec9cf2","system_id":"levelo_inurba_marseille","lat":43.27177,"lon":5.40987,"is_reserved":false,"is_disabled":false,"rental_uris":{"android":"levelo://app?vid=13204629-6f37-4fdc-ae71-efb691ec9cf2","ios":"levelo://app?vid=13204629-6f37-4fdc-ae71-efb691ec9cf2"},"vehicle_type_id":"4","last_reported":1730517261,"current_range_meters":28800,"station_id":"ce4bhl12rcd13ifvqgf0","pricing_plan_id":"cebpf4jnsgd1na2vs0mg"},{"bike_id":"564000bf-2324-48c2-a077-74c2ef866a16","system_id":"levelo_inurba_marseille","lat":43.29849,"lon":5.36284,"is_reserved":false,"is_disabled":false,"rental_uris":{"android":"levelo://app?vid=564000bf-2324-48c2-a077-74c2ef866a16","ios":"levelo://app?vid=564000bf-2324-48c2-a077-74c2ef866a16"},"vehicle_type_id":"4","last_reported":1730517261,"current_range_meters":37600,"station_id":"ce4bgpp2rcd13ifvqc3g","pricing_plan_id":"cebpf4jnsgd1na2vs0mg"},{"bike_id":"3737d45f-bc9c-4dcb-8135-f3653e5fa982","system_id":"levelo_inurba_marseille","lat":43.2987,"lon":5.39736,"is_reserved":false,"is_disabled":false,"rental_uris":{"android":"levelo://app?vid=3737d45f-bc9c-4dcb-8135-f3653e5fa982","ios":"levelo://app?vid=3737d45f-bc9c-4dcb-8135-f3653e5fa982"},"vehicle_type_id":"4","last_reported":1730517261,"current_range_meters":38000,"station_id":"ce4bh0h2rcd13ifvqd50","pricing_plan_id":"cebpf4jnsgd1na2vs0mg"},{"bike_id":"5561c01c-cab3-4297-89ff-4a484400938d","system_id":"levelo_inurba_marseille","lat":43.23963,"lon":5.36628,"is_reserved":false,"is_disabled":false,"rental_uris":{"android":"levelo://app?vid=5561c01c-cab3-4297-89ff-4a484400938d","ios":"levelo://app?vid=5561c01c-cab3-4297-89ff-4a484400938d"},"vehicle_type_id":"4","last_reported":1730517261,"current_range_meters":22400,"station_id":"ce4bhi12rcd13ifvqfp0","pricing_plan_id":"cebpf4jnsgd1na2vs0mg"},{"bike_id":"ed4b265d-1d35-4b1e-a20f-83de00489890","system_id":"levelo_inurba_marseille","lat":43.29014,"lon":5.38129,"is_reserved":false,"is_disabled":false,"rental_uris":{"android":"levelo://app?vid=ed4b265d-1d35-4b1e-a20f-83de00489890","ios":"levelo://app?vid=ed4b265d-1d35-4b1e-a20f-83de00489890"},"vehicle_type_id":"4","last_reported":1730517261,"current_range_meters":38400,"station_id":"ce4bh4p2rcd13ifvqe1g","pricing_plan_id":"cebpf4jnsgd1na2vs0mg"},{"bike_id":"d5f1c41f-0e7d-4d66-ba9f-fcff643ffac8","system_id":"levelo_inurba_marseille","lat":43.30133,"lon":5.39867,"is_reserved":false,"is_disabled":false,"rental_uris":{"android":"levelo://app?vid=d5f1c41f-0e7d-4d66-ba9f-fcff643ffac8","ios":"levelo://app?vid=d5f1c41f-0e7d-4d66-ba9f-fcff643ffac8"},"vehicle_type_id":"4","last_reported":1730517261,"current_range_meters":8000,"station_id":"ce4bh0h2rcd13ifvqd40","pricing_plan_id":"cebpf4jnsgd1na2vs0mg"},{"bike_id":"0de9401a-6f2b-4c84-9fa2-b25e90f56a5e","system_id":"levelo_inurba_marseille","lat":43.29199,"lon":5.39315,"is_reserved":false,"is_disabled":false,"rental_uris":{"android":"levelo://app?vid=0de9401a-6f2b-4c84-9fa2-b25e90f56a5e","ios":"levelo://app?vid=0de9401a-6f2b-4c84-9fa2-b25e90f56a5e"},"vehicle_type_id":"4","last_reported":1730517261,"current_range_meters":28800,"station_id":"ce4bh192rcd13ifvqdd0","pricing_plan_id":"cebpf4jnsgd1na2vs0mg"},{"bike_id":"bfab254b-dda0-49c5-ae2e-902568de5a52","system_id":"levelo_inurba_marseille","lat":43.25105,"lon":5.40321,"is_reserved":false,"is_disabled":false,"rental_uris":{"android":"levelo://app?vid=bfab254b-dda0-49c5-ae2e-902568de5a52","ios":"levelo://app?vid=bfab254b-dda0-49c5-ae2e-902568de5a52"},"vehicle_type_id":"4","last_reported":1730517261,"current_range_meters":8400,"station_id":"ce4bhlh2rcd13ifvqgig","pricing_plan_id":"cebpf4jnsgd1na2vs0mg"},{"bike_id":"f2a229b6-673a-4cbc-88d8-371eadbc4755","system_id":"levelo_inurba_marseille","lat":43.301407,"lon":5.380694,"is_reserved":false,"is_disabled":false,"rental_uris":{"android":"levelo://app?vid=f2a229b6-673a-4cbc-88d8-371eadbc4755","ios":"levelo://app?vid=f2a229b6-673a-4cbc-88d8-371eadbc4755"},"vehicle_type_id":"4","last_reported":1730517261,"current_range_meters":34000,"station_id":"ce4bgjp2rcd13ifvqbh0","pricing_plan_id":"cebpf4jnsgd1na2vs0mg"},{"bike_id":"9dc4bbff-21ca-407b-985c-c70214b6bc8c","system_id":"levelo_inurba_marseille","lat":43.32491,"lon":5.3656,"is_reserved":false,"is_disabled":false,"rental_uris":{"android":"levelo://app?vid=9dc4bbff-21ca-407b-985c-c70214b6bc8c","ios":"levelo://app?vid=9dc4bbff-21ca-407b-985c-c70214b6bc8c"},"vehicle_type_id":"4","last_reported":1730517261,"current_range_meters":38000,"station_id":"ce4bhs12rcd13ifvqhvg","pricing_plan_id":"cebpf4jnsgd1na2vs0mg"},{"bike_id":"040cbf3b-eb93-4917-afe1-b0b87610e589","system_id":"levelo_inurba_marseille","lat":43.31122,"lon":5.37773,"is_reserved":false,"is_disabled":false,"rental_uris":{"android":"levelo://app?vid=040cbf3b-eb93-4917-afe1-b0b87610e589","ios":"levelo://app?vid=040cbf3b-eb93-4917-afe1-b0b87610e589"},"vehicle_type_id":"4","last_reported":1730517261,"current_range_meters":36800,"station_id":"ce4bgt92rcd13ifvqcg0","pricing_plan_id":"cebpf4jnsgd1na2vs0mg"},{"bike_id":"b9dae35d-f9f9-4405-947e-479a57dd0f89","system_id":"levelo_inurba_marseille","lat":43.28847,"lon":5.35857,"is_reserved":false,"is_disabled":false,"rental_uris":{"android":"levelo://app?vid=b9dae35d-f9f9-4405-947e-479a57dd0f89","ios":"levelo://app?vid=b9dae35d-f9f9-4405-947e-479a57dd0f89"},"vehicle_type_id":"4","last_reported":1730517261,"current_range_meters":38000,"station_id":"ce4bhb12rcd13ifvqem0","pricing_plan_id":"cebpf4jnsgd1na2vs0mg"},{"bike_id":"379b04d9-20e2-4f2f-a080-e8290f8e87e1","system_id":"levelo_inurba_marseille","lat":43.31274,"lon":5.40171,"is_reserved":false,"is_disabled":false,"rental_uris":{"android":"levelo://app?vid=379b04d9-20e2-4f2f-a080-e8290f8e87e1","ios":"levelo://app?vid=379b04d9-20e2-4f2f-a080-e8290f8e87e1"},"vehicle_type_id":"4","last_reported":1730517261,"current_range_meters":40000,"station_id":"ce4bh092rcd13ifvqd30","pricing_plan_id":"cebpf4jnsgd1na2vs0mg"},{"bike_id":"7757bbcc-720d-4b04-93f0-6f8fb2cdb167","system_id":"levelo_inurba_marseille","lat":43.30324,"lon":5.40441,"is_reserved":false,"is_disabled":false,"rental_uris":{"android":"levelo://app?vid=7757bbcc-720d-4b04-93f0-6f8fb2cdb167","ios":"levelo://app?vid=7757bbcc-720d-4b04-93f0-6f8fb2cdb167"},"vehicle_type_id":"4","last_reported":1730517261,"current_range_meters":14000,"station_id":"ce4bh012rcd13ifvqd10","pricing_plan_id":"cebpf4jnsgd1na2vs0mg"},{"bike_id":"3798113a-4668-48bb-a3eb-8b2212053163","system_id":"levelo_inurba_marseille","lat":43.30539,"lon":5.36694,"is_reserved":false,"is_disabled":false,"rental_uris":{"android":"levelo://app?vid=3798113a-4668-48bb-a3eb-8b2212053163","ios":"levelo://app?vid=3798113a-4668-48bb-a3eb-8b2212053163"},"vehicle_type_id":"4","last_reported":1730517261,"current_range_meters":9200,"station_id":"ce4bgrp2rcd13ifvqc9g","pricing_plan_id":"cebpf4jnsgd1na2vs0mg"},{"bike_id":"91f7493f-832e-4490-ab02-f3bd3a59805d","system_id":"levelo_inurba_marseille","lat":43.28465,"lon":5.35895,"is_reserved":false,"is_disabled":false,"rental_uris":{"android":"levelo://app?vid=91f7493f-832e-4490-ab02-f3bd3a59805d","ios":"levelo://app?vid=91f7493f-832e-4490-ab02-f3bd3a59805d"},"vehicle_type_id":"4","last_reported":1730517261,"current_range_meters":40000,"station_id":"ce4bhah2rcd13ifvqei0","pricing_plan_id":"cebpf4jnsgd1na2vs0mg"},{"bike_id":"02230dac-ebce-4aa4-9174-db473244d1bc","system_id":"levelo_inurba_marseille","lat":43.3302,"lon":5.39046,"is_reserved":false,"is_disabled":false,"rental_uris":{"android":"levelo://app?vid=02230dac-ebce-4aa4-9174-db473244d1bc","ios":"levelo://app?vid=02230dac-ebce-4aa4-9174-db473244d1bc"},"vehicle_type_id":"4","last_reported":1730517261,"current_range_meters":38800,"station_id":"ce4bhr92rcd13ifvqhrg","pricing_plan_id":"cebpf4jnsgd1na2vs0mg"},{"bike_id":"2d7de978-fe7a-4748-bce2-9b270b74d3a7","system_id":"levelo_inurba_marseille","lat":43.28101,"lon":5.37842,"is_reserved":false,"is_disabled":false,"rental_uris":{"android":"levelo://app?vid=2d7de978-fe7a-4748-bce2-9b270b74d3a7","ios":"levelo://app?vid=2d7de978-fe7a-4748-bce2-9b270b74d3a7"},"vehicle_type_id":"4","last_reported":1730517261,"current_range_meters":37600,"station_id":"ce4bha12rcd13ifvqee0","pricing_plan_id":"cebpf4jnsgd1na2vs0mg"},{"bike_id":"64f2c005-032c-4707-acd0-06377d52b98a","system_id":"levelo_inurba_marseille","lat":43.31707,"lon":5.3776,"is_reserved":false,"is_disabled":false,"rental_uris":{"android":"levelo://app?vid=64f2c005-032c-4707-acd0-06377d52b98a","ios":"levelo://app?vid=64f2c005-032c-4707-acd0-06377d52b98a"},"vehicle_type_id":"4","last_reported":1730517261,"current_range_meters":16400,"station_id":"ce4bgth2rcd13ifvqch0","pricing_plan_id":"cebpf4jnsgd1na2vs0mg"},{"bike_id":"89f4e217-f3e8-49bc-98ee-4cb53f505767","system_id":"levelo_inurba_marseille","lat":43.31895,"lon":5.40727,"is_reserved":false,"is_disabled":false,"rental_uris":{"android":"levelo://app?vid=89f4e217-f3e8-49bc-98ee-4cb53f505767","ios":"levelo://app?vid=89f4e217-f3e8-49bc-98ee-4cb53f505767"},"vehicle_type_id":"4","last_reported":1730517261,"current_range_meters":38000,"station_id":"ce4bhq12rcd13ifvqhig","pricing_plan_id":"cebpf4jnsgd1na2vs0mg"},{"bike_id":"82a12530-6efc-4c63-9b19-8becd6918b8c","system_id":"levelo_inurba_marseille","lat":43.30147,"lon":5.37414,"is_reserved":false,"is_disabled":false,"rental_uris":{"android":"levelo://app?vid=82a12530-6efc-4c63-9b19-8becd6918b8c","ios":"levelo://app?vid=82a12530-6efc-4c63-9b19-8becd6918b8c"},"vehicle_type_id":"4","last_reported":1730517261,"current_range_meters":38000,"station_id":"ce4bgs92rcd13ifvqcc0","pricing_plan_id":"cebpf4jnsgd1na2vs0mg"},{"bike_id":"5d49116d-9ac2-4fe3-b140-1c8daccc859c","system_id":"levelo_inurba_marseille","lat":43.302854,"lon":5.376992,"is_reserved":false,"is_disabled":false,"rental_uris":{"android":"levelo://app?vid=5d49116d-9ac2-4fe3-b140-1c8daccc859c","ios":"levelo://app?vid=5d49116d-9ac2-4fe3-b140-1c8daccc859c"},"vehicle_type_id":"4","last_reported":1730517261,"current_range_meters":38800,"station_id":"ce4bguh2rcd13ifvqcj0","pricing_plan_id":"cebpf4jnsgd1na2vs0mg"},{"bike_id":"15097f61-a1d7-4b0b-80aa-883f8eebec37","system_id":"levelo_inurba_marseille","lat":43.30596,"lon":5.39356,"is_reserved":false,"is_disabled":false,"rental_uris":{"android":"levelo://app?vid=15097f61-a1d7-4b0b-80aa-883f8eebec37","ios":"levelo://app?vid=15097f61-a1d7-4b0b-80aa-883f8eebec37"},"vehicle_type_id":"4","last_reported":1730517261,"current_range_meters":38800,"station_id":"ce4bh0p2rcd13ifvqd80","pricing_plan_id":"cebpf4jnsgd1na2vs0mg"},{"bike_id":"b2362997-f37b-4511-b744-2795bb584636","system_id":"levelo_inurba_marseille","lat":43.28105,"lon":5.37842,"is_reserved":false,"is_disabled":false,"rental_uris":{"android":"levelo://app?vid=b2362997-f37b-4511-b744-2795bb584636","ios":"levelo://app?vid=b2362997-f37b-4511-b744-2795bb584636"},"vehicle_type_id":"4","last_reported":1730517261,"current_range_meters":33200,"station_id":"ce4bha12rcd13ifvqee0","pricing_plan_id":"cebpf4jnsgd1na2vs0mg"},{"bike_id":"9a669e9a-9212-4c69-b672-3c715ab74ea4","system_id":"levelo_inurba_marseille","lat":43.31686,"lon":5.40467,"is_reserved":false,"is_disabled":false,"rental_uris":{"android":"levelo://app?vid=9a669e9a-9212-4c69-b672-3c715ab74ea4","ios":"levelo://app?vid=9a669e9a-9212-4c69-b672-3c715ab74ea4"},"vehicle_type_id":"4","last_reported":1730517261,"current_range_meters":34800,"station_id":"ce4bh012rcd13ifvqd00","pricing_plan_id":"cebpf4jnsgd1na2vs0mg"},{"bike_id":"716c7c76-4931-4819-9594-e63fb04d4799","system_id":"levelo_inurba_marseille","lat":43.29044,"lon":5.35911,"is_reserved":false,"is_disabled":false,"rental_uris":{"android":"levelo://app?vid=716c7c76-4931-4819-9594-e63fb04d4799","ios":"levelo://app?vid=716c7c76-4931-4819-9594-e63fb04d4799"},"vehicle_type_id":"4","last_reported":1730517261,"current_range_meters":18800,"station_id":"ce4bha92rcd13ifvqeg0","pricing_plan_id":"cebpf4jnsgd1na2vs0mg"},{"bike_id":"e7795f3d-dfbe-4f5b-ad7a-ac51d5abae28","system_id":"levelo_inurba_marseille","lat":43.28702,"lon":5.39973,"is_reserved":false,"is_disabled":false,"rental_uris":{"android":"levelo://app?vid=e7795f3d-dfbe-4f5b-ad7a-ac51d5abae28","ios":"levelo://app?vid=e7795f3d-dfbe-4f5b-ad7a-ac51d5abae28"},"vehicle_type_id":"4","last_reported":1730517261,"current_range_meters":19600,"station_id":"ce4bho92rcd13ifvqh3g","pricing_plan_id":"cebpf4jnsgd1na2vs0mg"},{"bike_id":"5fb5fa84-352d-40ff-b332-81dccc5738c9","system_id":"levelo_inurba_marseille","lat":43.28841,"lon":5.35851,"is_reserved":false,"is_disabled":false,"rental_uris":{"android":"levelo://app?vid=5fb5fa84-352d-40ff-b332-81dccc5738c9","ios":"levelo://app?vid=5fb5fa84-352d-40ff-b332-81dccc5738c9"},"vehicle_type_id":"4","last_reported":1730517261,"current_range_meters":38800,"station_id":"ce4bhb12rcd13ifvqem0","pricing_plan_id":"cebpf4jnsgd1na2vs0mg"},{"bike_id":"25efdd14-e5a3-4f02-a8ea-e62e3c219fa3","system_id":"levelo_inurba_marseille","lat":43.28148,"lon":5.42648,"is_reserved":false,"is_disabled":false,"rental_uris":{"android":"levelo://app?vid=25efdd14-e5a3-4f02-a8ea-e62e3c219fa3","ios":"levelo://app?vid=25efdd14-e5a3-4f02-a8ea-e62e3c219fa3"},"vehicle_type_id":"4","last_reported":1730517261,"current_range_meters":40000,"station_id":"ce4bhnh2rcd13ifvqgug","pricing_plan_id":"cebpf4jnsgd1na2vs0mg"},{"bike_id":"a7539dfc-e8ec-47cd-8dbc-d48543cf053d","system_id":"levelo_inurba_marseille","lat":43.30531,"lon":5.36538,"is_reserved":false,"is_disabled":false,"rental_uris":{"android":"levelo://app?vid=a7539dfc-e8ec-47cd-8dbc-d48543cf053d","ios":"levelo://app?vid=a7539dfc-e8ec-47cd-8dbc-d48543cf053d"},"vehicle_type_id":"4","last_reported":1730517261,"current_range_meters":37600,"station_id":"ce4bgs12rcd13ifvqcag","pricing_plan_id":"cebpf4jnsgd1na2vs0mg"},{"bike_id":"c996306d-d72d-4cca-8a94-de3dbe2f6003","system_id":"levelo_inurba_marseille","lat":43.28105,"lon":5.37837,"is_reserved":false,"is_disabled":false,"rental_uris":{"android":"levelo://app?vid=c996306d-d72d-4cca-8a94-de3dbe2f6003","ios":"levelo://app?vid=c996306d-d72d-4cca-8a94-de3dbe2f6003"},"vehicle_type_id":"4","last_reported":1730517261,"current_range_meters":29600,"station_id":"ce4bha12rcd13ifvqee0","pricing_plan_id":"cebpf4jnsgd1na2vs0mg"},{"bike_id":"18402065-9e87-476b-95ad-30853de181a0","system_id":"levelo_inurba_marseille","lat":43.32448,"lon":5.45543,"is_reserved":false,"is_disabled":false,"rental_uris":{"android":"levelo://app?vid=18402065-9e87-476b-95ad-30853de181a0","ios":"levelo://app?vid=18402065-9e87-476b-95ad-30853de181a0"},"vehicle_type_id":"4","last_reported":1730517261,"current_range_meters":8800,"station_id":"","pricing_plan_id":"cebpf4jnsgd1na2vs0mg"},{"bike_id":"dc4f4ac9-cf8f-4e66-8a3f-44dca6d3cc43","system_id":"levelo_inurba_marseille","lat":43.27981,"lon":5.38763,"is_reserved":false,"is_disabled":false,"rental_uris":{"android":"levelo://app?vid=dc4f4ac9-cf8f-4e66-8a3f-44dca6d3cc43","ios":"levelo://app?vid=dc4f4ac9-cf8f-4e66-8a3f-44dca6d3cc43"},"vehicle_type_id":"4","last_reported":1730517261,"current_range_meters":40000,"station_id":"ce4bhg12rcd13ifvqf80","pricing_plan_id":"cebpf4jnsgd1na2vs0mg"},{"bike_id":"e9c03243-d163-4603-a333-c01b319b9f50","system_id":"levelo_inurba_marseille","lat":43.26212,"lon":5.37441,"is_reserved":false,"is_disabled":false,"rental_uris":{"android":"levelo://app?vid=e9c03243-d163-4603-a333-c01b319b9f50","ios":"levelo://app?vid=e9c03243-d163-4603-a333-c01b319b9f50"},"vehicle_type_id":"4","last_reported":1730517261,"current_range_meters":35600,"station_id":"ce4bhgp2rcd13ifvqfc0","pricing_plan_id":"cebpf4jnsgd1na2vs0mg"},{"bike_id":"711fc037-1485-48d1-a756-6d4246ae9cd4","system_id":"levelo_inurba_marseille","lat":43.24656,"lon":5.38902,"is_reserved":false,"is_disabled":false,"rental_uris":{"android":"levelo://app?vid=711fc037-1485-48d1-a756-6d4246ae9cd4","ios":"levelo://app?vid=711fc037-1485-48d1-a756-6d4246ae9cd4"},"vehicle_type_id":"4","last_reported":1730517261,"current_range_meters":5600,"station_id":"ce4bhg12rcd13ifvqf60","pricing_plan_id":"cebpf4jnsgd1na2vs0mg"},{"bike_id":"a5093d50-0b91-4cba-9353-a8e952aea555","system_id":"levelo_inurba_marseille","lat":43.3032,"lon":5.40441,"is_reserved":false,"is_disabled":false,"rental_uris":{"android":"levelo://app?vid=a5093d50-0b91-4cba-9353-a8e952aea555","ios":"levelo://app?vid=a5093d50-0b91-4cba-9353-a8e952aea555"},"vehicle_type_id":"4","last_reported":1730517261,"current_range_meters":35600,"station_id":"ce4bh012rcd13ifvqd10","pricing_plan_id":"cebpf4jnsgd1na2vs0mg"},{"bike_id":"79522278-bab5-48ef-ae84-096ed9c7c598","system_id":"levelo_inurba_marseille","lat":43.27948,"lon":5.41038,"is_reserved":false,"is_disabled":false,"rental_uris":{"android":"levelo://app?vid=79522278-bab5-48ef-ae84-096ed9c7c598","ios":"levelo://app?vid=79522278-bab5-48ef-ae84-096ed9c7c598"},"vehicle_type_id":"4","last_reported":1730517261,"current_range_meters":8400,"station_id":"ce4bhnp2rcd13ifvqh0g","pricing_plan_id":"cebpf4jnsgd1na2vs0mg"},{"bike_id":"e7d2d590-173c-47e5-a164-68db5b6e9fe4","system_id":"levelo_inurba_marseille","lat":43.3054,"lon":5.36696,"is_reserved":false,"is_disabled":false,"rental_uris":{"android":"levelo://app?vid=e7d2d590-173c-47e5-a164-68db5b6e9fe4","ios":"levelo://app?vid=e7d2d590-173c-47e5-a164-68db5b6e9fe4"},"vehicle_type_id":"4","last_reported":1730517261,"current_range_meters":37600,"station_id":"ce4bgrp2rcd13ifvqc9g","pricing_plan_id":"cebpf4jnsgd1na2vs0mg"},{"bike_id":"05289bf4-73c4-4b4e-830b-c6a22094e995","system_id":"levelo_inurba_marseille","lat":43.27368,"lon":5.36254,"is_reserved":false,"is_disabled":false,"rental_uris":{"android":"levelo://app?vid=05289bf4-73c4-4b4e-830b-c6a22094e995","ios":"levelo://app?vid=05289bf4-73c4-4b4e-830b-c6a22094e995"},"vehicle_type_id":"4","last_reported":1730517261,"current_range_meters":38400,"station_id":"ce4bhbh2rcd13ifvqeo0","pricing_plan_id":"cebpf4jnsgd1na2vs0mg"},{"bike_id":"460f8dbf-5c74-4538-b47c-2be4684064c4","system_id":"levelo_inurba_marseille","lat":43.24386,"lon":5.37062,"is_reserved":false,"is_disabled":false,"rental_uris":{"android":"levelo://app?vid=460f8dbf-5c74-4538-b47c-2be4684064c4","ios":"levelo://app?vid=460f8dbf-5c74-4538-b47c-2be4684064c4"},"vehicle_type_id":"4","last_reported":1730517261,"current_range_meters":38000,"station_id":"ce4bhhh2rcd13ifvqfk0","pricing_plan_id":"cebpf4jnsgd1na2vs0mg"},{"bike_id":"4fa38293-21db-4908-a002-6c1d0874c60f","system_id":"levelo_inurba_marseille","lat":43.30432,"lon":5.39754,"is_reserved":false,"is_disabled":false,"rental_uris":{"android":"levelo://app?vid=4fa38293-21db-4908-a002-6c1d0874c60f","ios":"levelo://app?vid=4fa38293-21db-4908-a002-6c1d0874c60f"},"vehicle_type_id":"4","last_reported":1730517261,"current_range_meters":38400,"station_id":"ce4bh092rcd13ifvqd20","pricing_plan_id":"cebpf4jnsgd1na2vs0mg"},{"bike_id":"003141cc-57ad-4350-872f-1e1448004c32","system_id":"levelo_inurba_marseille","lat":43.26779,"lon":5.41154,"is_reserved":false,"is_disabled":false,"rental_uris":{"android":"levelo://app?vid=003141cc-57ad-4350-872f-1e1448004c32","ios":"levelo://app?vid=003141cc-57ad-4350-872f-1e1448004c32"},"vehicle_type_id":"4","last_reported":1730517261,"current_range_meters":36400,"station_id":"","pricing_plan_id":"cebpf4jnsgd1na2vs0mg"},{"bike_id":"ef30c907-9b95-4f0a-99f1-0cbd098879ad","system_id":"levelo_inurba_marseille","lat":43.28575,"lon":5.39492,"is_reserved":false,"is_disabled":false,"rental_uris":{"android":"levelo://app?vid=ef30c907-9b95-4f0a-99f1-0cbd098879ad","ios":"levelo://app?vid=ef30c907-9b95-4f0a-99f1-0cbd098879ad"},"vehicle_type_id":"4","last_reported":1730517261,"current_range_meters":38000,"station_id":"ce4bh292rcd13ifvqdg0","pricing_plan_id":"cebpf4jnsgd1na2vs0mg"},{"bike_id":"c276a4cc-c93a-4644-bca7-af758417c8ff","system_id":"levelo_inurba_marseille","lat":43.28697,"lon":5.37371,"is_reserved":false,"is_disabled":false,"rental_uris":{"android":"levelo://app?vid=c276a4cc-c93a-4644-bca7-af758417c8ff","ios":"levelo://app?vid=c276a4cc-c93a-4644-bca7-af758417c8ff"},"vehicle_type_id":"4","last_reported":1730517261,"current_range_meters":24400,"station_id":"ce4bh3p2rcd13ifvqdq0","pricing_plan_id":"cebpf4jnsgd1na2vs0mg"},{"bike_id":"7643b77d-8578-4d48-871f-ca478e990d26","system_id":"levelo_inurba_marseille","lat":43.29275,"lon":5.40134,"is_reserved":false,"is_disabled":false,"rental_uris":{"android":"levelo://app?vid=7643b77d-8578-4d48-871f-ca478e990d26","ios":"levelo://app?vid=7643b77d-8578-4d48-871f-ca478e990d26"},"vehicle_type_id":"4","last_reported":1730517261,"current_range_meters":39200,"station_id":"ce4bh312rcd13ifvqdk0","pricing_plan_id":"cebpf4jnsgd1na2vs0mg"},{"bike_id":"5cc4497f-9bd6-4bf8-b6b4-af8a97a390d9","system_id":"levelo_inurba_marseille","lat":43.28701,"lon":5.3998,"is_reserved":false,"is_disabled":false,"rental_uris":{"android":"levelo://app?vid=5cc4497f-9bd6-4bf8-b6b4-af8a97a390d9","ios":"levelo://app?vid=5cc4497f-9bd6-4bf8-b6b4-af8a97a390d9"},"vehicle_type_id":"4","last_reported":1730517261,"current_range_meters":28800,"station_id":"ce4bho92rcd13ifvqh3g","pricing_plan_id":"cebpf4jnsgd1na2vs0mg"},{"bike_id":"c464d67e-1a73-40bd-b8bb-ad08b05c10b4","system_id":"levelo_inurba_marseille","lat":43.312761,"lon":5.40174,"is_reserved":false,"is_disabled":false,"rental_uris":{"android":"levelo://app?vid=c464d67e-1a73-40bd-b8bb-ad08b05c10b4","ios":"levelo://app?vid=c464d67e-1a73-40bd-b8bb-ad08b05c10b4"},"vehicle_type_id":"4","last_reported":1730517261,"current_range_meters":9200,"station_id":"ce4bh092rcd13ifvqd30","pricing_plan_id":"cebpf4jnsgd1na2vs0mg"},{"bike_id":"dd146168-981e-408f-b3fe-7656f2b9a9b9","system_id":"levelo_inurba_marseille","lat":43.30937,"lon":5.40138,"is_reserved":false,"is_disabled":false,"rental_uris":{"android":"levelo://app?vid=dd146168-981e-408f-b3fe-7656f2b9a9b9","ios":"levelo://app?vid=dd146168-981e-408f-b3fe-7656f2b9a9b9"},"vehicle_type_id":"4","last_reported":1730517261,"current_range_meters":38800,"station_id":"ce4bgvp2rcd13ifvqct0","pricing_plan_id":"cebpf4jnsgd1na2vs0mg"},{"bike_id":"039a64d6-5e87-4141-81e3-2e1ffc1e11a5","system_id":"levelo_inurba_marseille","lat":43.27996,"lon":5.40014,"is_reserved":false,"is_disabled":false,"rental_uris":{"android":"levelo://app?vid=039a64d6-5e87-4141-81e3-2e1ffc1e11a5","ios":"levelo://app?vid=039a64d6-5e87-4141-81e3-2e1ffc1e11a5"},"vehicle_type_id":"4","last_reported":1730517261,"current_range_meters":40000,"station_id":"ce4bho92rcd13ifvqh4g","pricing_plan_id":"cebpf4jnsgd1na2vs0mg"},{"bike_id":"a5058c7c-1905-4bd3-9d43-fefe64152d11","system_id":"levelo_inurba_marseille","lat":43.27816,"lon":5.40716,"is_reserved":false,"is_disabled":false,"rental_uris":{"android":"levelo://app?vid=a5058c7c-1905-4bd3-9d43-fefe64152d11","ios":"levelo://app?vid=a5058c7c-1905-4bd3-9d43-fefe64152d11"},"vehicle_type_id":"4","last_reported":1730517261,"current_range_meters":38800,"station_id":"ce4bhnh2rcd13ifvqgtg","pricing_plan_id":"cebpf4jnsgd1na2vs0mg"},{"bike_id":"21ff1bff-f285-482f-b9d5-5da60c9f151d","system_id":"levelo_inurba_marseille","lat":43.32475,"lon":5.36576,"is_reserved":false,"is_disabled":false,"rental_uris":{"android":"levelo://app?vid=21ff1bff-f285-482f-b9d5-5da60c9f151d","ios":"levelo://app?vid=21ff1bff-f285-482f-b9d5-5da60c9f151d"},"vehicle_type_id":"4","last_reported":1730517261,"current_range_meters":35600,"station_id":"ce4bhs12rcd13ifvqhvg","pricing_plan_id":"cebpf4jnsgd1na2vs0mg"},{"bike_id":"61598e10-de21-47f4-b729-70d2e0003a5b","system_id":"levelo_inurba_marseille","lat":43.27969,"lon":5.38759,"is_reserved":false,"is_disabled":false,"rental_uris":{"android":"levelo://app?vid=61598e10-de21-47f4-b729-70d2e0003a5b","ios":"levelo://app?vid=61598e10-de21-47f4-b729-70d2e0003a5b"},"vehicle_type_id":"4","last_reported":1730517261,"current_range_meters":6000,"station_id":"ce4bhg12rcd13ifvqf80","pricing_plan_id":"cebpf4jnsgd1na2vs0mg"},{"bike_id":"05a1b52d-ed51-46c3-9c46-ad7ff8006470","system_id":"levelo_inurba_marseille","lat":43.24671,"lon":5.38163,"is_reserved":false,"is_disabled":false,"rental_uris":{"android":"levelo://app?vid=05a1b52d-ed51-46c3-9c46-ad7ff8006470","ios":"levelo://app?vid=05a1b52d-ed51-46c3-9c46-ad7ff8006470"},"vehicle_type_id":"4","last_reported":1730517261,"current_range_meters":3600,"station_id":"ce4bhih2rcd13ifvqfr0","pricing_plan_id":"cebpf4jnsgd1na2vs0mg"},{"bike_id":"f9f09c98-2b39-4753-90e4-1b1810512c43","system_id":"levelo_inurba_marseille","lat":43.29882,"lon":5.38908,"is_reserved":false,"is_disabled":false,"rental_uris":{"android":"levelo://app?vid=f9f09c98-2b39-4753-90e4-1b1810512c43","ios":"levelo://app?vid=f9f09c98-2b39-4753-90e4-1b1810512c43"},"vehicle_type_id":"4","last_reported":1730517261,"current_range_meters":38800,"station_id":"ce4bh392rcd13ifvqdl0","pricing_plan_id":"cebpf4jnsgd1na2vs0mg"},{"bike_id":"b18f9999-3088-4ef8-9376-9cfecad69475","system_id":"levelo_inurba_marseille","lat":43.30781,"lon":5.37656,"is_reserved":false,"is_disabled":false,"rental_uris":{"android":"levelo://app?vid=b18f9999-3088-4ef8-9376-9cfecad69475","ios":"levelo://app?vid=b18f9999-3088-4ef8-9376-9cfecad69475"},"vehicle_type_id":"4","last_reported":1730517261,"current_range_meters":22400,"station_id":"ce4bgv92rcd13ifvqcq0","pricing_plan_id":"cebpf4jnsgd1na2vs0mg"},{"bike_id":"3e7b856b-ad36-4a0b-9619-82d8e9fb1a67","system_id":"levelo_inurba_marseille","lat":43.29254,"lon":5.40901,"is_reserved":false,"is_disabled":false,"rental_uris":{"android":"levelo://app?vid=3e7b856b-ad36-4a0b-9619-82d8e9fb1a67","ios":"levelo://app?vid=3e7b856b-ad36-4a0b-9619-82d8e9fb1a67"},"vehicle_type_id":"4","last_reported":1730517261,"current_range_meters":38400,"station_id":"ce4bh192rcd13ifvqdc0","pricing_plan_id":"cebpf4jnsgd1na2vs0mg"},{"bike_id":"181e392c-49ab-4006-ab89-c51519379775","system_id":"levelo_inurba_marseille","lat":43.28702,"lon":5.3738,"is_reserved":false,"is_disabled":false,"rental_uris":{"android":"levelo://app?vid=181e392c-49ab-4006-ab89-c51519379775","ios":"levelo://app?vid=181e392c-49ab-4006-ab89-c51519379775"},"vehicle_type_id":"4","last_reported":1730517261,"current_range_meters":38400,"station_id":"ce4bh3p2rcd13ifvqdq0","pricing_plan_id":"cebpf4jnsgd1na2vs0mg"},{"bike_id":"89f9b078-381e-4f1b-943b-461fcea88c01","system_id":"levelo_inurba_marseille","lat":43.287163,"lon":5.399947,"is_reserved":false,"is_disabled":false,"rental_uris":{"android":"levelo://app?vid=89f9b078-381e-4f1b-943b-461fcea88c01","ios":"levelo://app?vid=89f9b078-381e-4f1b-943b-461fcea88c01"},"vehicle_type_id":"4","last_reported":1730517261,"current_range_meters":38800,"station_id":"ce4bho92rcd13ifvqh3g","pricing_plan_id":"cebpf4jnsgd1na2vs0mg"},{"bike_id":"3e774943-d4aa-471b-a041-87e0abbf5d55","system_id":"levelo_inurba_marseille","lat":43.27172,"lon":5.40991,"is_reserved":false,"is_disabled":false,"rental_uris":{"android":"levelo://app?vid=3e774943-d4aa-471b-a041-87e0abbf5d55","ios":"levelo://app?vid=3e774943-d4aa-471b-a041-87e0abbf5d55"},"vehicle_type_id":"4","last_reported":1730517261,"current_range_meters":10800,"station_id":"ce4bhl12rcd13ifvqgf0","pricing_plan_id":"cebpf4jnsgd1na2vs0mg"},{"bike_id":"c7e7c0b0-5966-4107-8d4c-f58ccc4d9394","system_id":"levelo_inurba_marseille","lat":43.30809,"lon":5.38158,"is_reserved":false,"is_disabled":false,"rental_uris":{"android":"levelo://app?vid=c7e7c0b0-5966-4107-8d4c-f58ccc4d9394","ios":"levelo://app?vid=c7e7c0b0-5966-4107-8d4c-f58ccc4d9394"},"vehicle_type_id":"4","last_reported":1730517261,"current_range_meters":26000,"station_id":"ce4bgt12rcd13ifvqce0","pricing_plan_id":"cebpf4jnsgd1na2vs0mg"},{"bike_id":"ef10497a-439b-4c81-9e9b-6c7dcb7e5450","system_id":"levelo_inurba_marseille","lat":43.28707,"lon":5.40003,"is_reserved":false,"is_disabled":false,"rental_uris":{"android":"levelo://app?vid=ef10497a-439b-4c81-9e9b-6c7dcb7e5450","ios":"levelo://app?vid=ef10497a-439b-4c81-9e9b-6c7dcb7e5450"},"vehicle_type_id":"4","last_reported":1730517261,"current_range_meters":38000,"station_id":"ce4bho92rcd13ifvqh3g","pricing_plan_id":"cebpf4jnsgd1na2vs0mg"},{"bike_id":"bbdcb840-5f6c-4490-9fd4-391fed34b525","system_id":"levelo_inurba_marseille","lat":43.27371,"lon":5.36259,"is_reserved":false,"is_disabled":false,"rental_uris":{"android":"levelo://app?vid=bbdcb840-5f6c-4490-9fd4-391fed34b525","ios":"levelo://app?vid=bbdcb840-5f6c-4490-9fd4-391fed34b525"},"vehicle_type_id":"4","last_reported":1730517261,"current_range_meters":38000,"station_id":"ce4bhbh2rcd13ifvqeo0","pricing_plan_id":"cebpf4jnsgd1na2vs0mg"},{"bike_id":"ad3e9952-3f50-44d8-a74e-6763bc2ff022","system_id":"levelo_inurba_marseille","lat":43.26211,"lon":5.37438,"is_reserved":false,"is_disabled":false,"rental_uris":{"android":"levelo://app?vid=ad3e9952-3f50-44d8-a74e-6763bc2ff022","ios":"levelo://app?vid=ad3e9952-3f50-44d8-a74e-6763bc2ff022"},"vehicle_type_id":"4","last_reported":1730517261,"current_range_meters":34000,"station_id":"ce4bhgp2rcd13ifvqfc0","pricing_plan_id":"cebpf4jnsgd1na2vs0mg"},{"bike_id":"9c510165-3fd2-45d1-85c8-68b221c6f474","system_id":"levelo_inurba_marseille","lat":43.23966,"lon":5.36642,"is_reserved":false,"is_disabled":false,"rental_uris":{"android":"levelo://app?vid=9c510165-3fd2-45d1-85c8-68b221c6f474","ios":"levelo://app?vid=9c510165-3fd2-45d1-85c8-68b221c6f474"},"vehicle_type_id":"4","last_reported":1730517261,"current_range_meters":37600,"station_id":"ce4bhi12rcd13ifvqfp0","pricing_plan_id":"cebpf4jnsgd1na2vs0mg"},{"bike_id":"2f4a7e37-da0a-4dde-9156-866038c5d727","system_id":"levelo_inurba_marseille","lat":43.30801,"lon":5.38154,"is_reserved":false,"is_disabled":false,"rental_uris":{"android":"levelo://app?vid=2f4a7e37-da0a-4dde-9156-866038c5d727","ios":"levelo://app?vid=2f4a7e37-da0a-4dde-9156-866038c5d727"},"vehicle_type_id":"4","last_reported":1730517261,"current_range_meters":38800,"station_id":"ce4bgt12rcd13ifvqce0","pricing_plan_id":"cebpf4jnsgd1na2vs0mg"},{"bike_id":"57c9797f-e976-442f-8564-67b023f27179","system_id":"levelo_inurba_marseille","lat":43.287,"lon":5.39975,"is_reserved":false,"is_disabled":false,"rental_uris":{"android":"levelo://app?vid=57c9797f-e976-442f-8564-67b023f27179","ios":"levelo://app?vid=57c9797f-e976-442f-8564-67b023f27179"},"vehicle_type_id":"4","last_reported":1730517261,"current_range_meters":18000,"station_id":"ce4bho92rcd13ifvqh3g","pricing_plan_id":"cebpf4jnsgd1na2vs0mg"},{"bike_id":"4aca9276-a75c-423e-b263-5d8176dc7d7b","system_id":"levelo_inurba_marseille","lat":43.30932,"lon":5.4014,"is_reserved":false,"is_disabled":false,"rental_uris":{"android":"levelo://app?vid=4aca9276-a75c-423e-b263-5d8176dc7d7b","ios":"levelo://app?vid=4aca9276-a75c-423e-b263-5d8176dc7d7b"},"vehicle_type_id":"4","last_reported":1730517261,"current_range_meters":14400,"station_id":"ce4bgvp2rcd13ifvqct0","pricing_plan_id":"cebpf4jnsgd1na2vs0mg"},{"bike_id":"8c67d340-801d-46e5-b910-2f8aff3ff078","system_id":"levelo_inurba_marseille","lat":43.33364,"lon":5.3703,"is_reserved":false,"is_disabled":false,"rental_uris":{"android":"levelo://app?vid=8c67d340-801d-46e5-b910-2f8aff3ff078","ios":"levelo://app?vid=8c67d340-801d-46e5-b910-2f8aff3ff078"},"vehicle_type_id":"4","last_reported":1730517261,"current_range_meters":12000,"station_id":"","pricing_plan_id":"cebpf4jnsgd1na2vs0mg"},{"bike_id":"83356032-baeb-401a-bdff-8adddb83ed12","system_id":"levelo_inurba_marseille","lat":43.23202,"lon":5.35547,"is_reserved":false,"is_disabled":false,"rental_uris":{"android":"levelo://app?vid=83356032-baeb-401a-bdff-8adddb83ed12","ios":"levelo://app?vid=83356032-baeb-401a-bdff-8adddb83ed12"},"vehicle_type_id":"4","last_reported":1730517261,"current_range_meters":38000,"station_id":"ce4bhu92rcd13ifvqi70","pricing_plan_id":"cebpf4jnsgd1na2vs0mg"},{"bike_id":"af963c11-4218-4474-b8e9-bbb749cadb90","system_id":"levelo_inurba_marseille","lat":43.302048,"lon":5.394617,"is_reserved":false,"is_disabled":false,"rental_uris":{"android":"levelo://app?vid=af963c11-4218-4474-b8e9-bbb749cadb90","ios":"levelo://app?vid=af963c11-4218-4474-b8e9-bbb749cadb90"},"vehicle_type_id":"4","last_reported":1730517261,"current_range_meters":21600,"station_id":"ce4bh0p2rcd13ifvqd70","pricing_plan_id":"cebpf4jnsgd1na2vs0mg"},{"bike_id":"c51bdb8d-15a4-4391-9581-03faab0332bb","system_id":"levelo_inurba_marseille","lat":43.28448,"lon":5.35893,"is_reserved":false,"is_disabled":false,"rental_uris":{"android":"levelo://app?vid=c51bdb8d-15a4-4391-9581-03faab0332bb","ios":"levelo://app?vid=c51bdb8d-15a4-4391-9581-03faab0332bb"},"vehicle_type_id":"4","last_reported":1730517261,"current_range_meters":20800,"station_id":"ce4bhah2rcd13ifvqei0","pricing_plan_id":"cebpf4jnsgd1na2vs0mg"},{"bike_id":"d6989496-6ec0-4cb1-9a34-254c176dcde3","system_id":"levelo_inurba_marseille","lat":43.27916,"lon":5.395766,"is_reserved":false,"is_disabled":false,"rental_uris":{"android":"levelo://app?vid=d6989496-6ec0-4cb1-9a34-254c176dcde3","ios":"levelo://app?vid=d6989496-6ec0-4cb1-9a34-254c176dcde3"},"vehicle_type_id":"4","last_reported":1730517261,"current_range_meters":22400,"station_id":"ce4bhf92rcd13ifvqf40","pricing_plan_id":"cebpf4jnsgd1na2vs0mg"},{"bike_id":"df63b9c4-e15c-4263-a5c8-6ddf8c81a210","system_id":"levelo_inurba_marseille","lat":43.26058,"lon":5.39392,"is_reserved":false,"is_disabled":false,"rental_uris":{"android":"levelo://app?vid=df63b9c4-e15c-4263-a5c8-6ddf8c81a210","ios":"levelo://app?vid=df63b9c4-e15c-4263-a5c8-6ddf8c81a210"},"vehicle_type_id":"4","last_reported":1730517261,"current_range_meters":40000,"station_id":"ce4bhh92rcd13ifvqfj0","pricing_plan_id":"cebpf4jnsgd1na2vs0mg"},{"bike_id":"69a0d18e-0381-4102-9fad-3f8c57fc1228","system_id":"levelo_inurba_marseille","lat":43.23069,"lon":5.35492,"is_reserved":false,"is_disabled":false,"rental_uris":{"android":"levelo://app?vid=69a0d18e-0381-4102-9fad-3f8c57fc1228","ios":"levelo://app?vid=69a0d18e-0381-4102-9fad-3f8c57fc1228"},"vehicle_type_id":"4","last_reported":1730517261,"current_range_meters":38400,"station_id":"cpo3342slgdg3j2ifvpg","pricing_plan_id":"cebpf4jnsgd1na2vs0mg"},{"bike_id":"07d0df56-f8bc-46e6-871c-8e071fb175e5","system_id":"levelo_inurba_marseille","lat":43.23189,"lon":5.35562,"is_reserved":false,"is_disabled":false,"rental_uris":{"android":"levelo://app?vid=07d0df56-f8bc-46e6-871c-8e071fb175e5","ios":"levelo://app?vid=07d0df56-f8bc-46e6-871c-8e071fb175e5"},"vehicle_type_id":"4","last_reported":1730517261,"current_range_meters":38400,"station_id":"ce4bhu92rcd13ifvqi70","pricing_plan_id":"cebpf4jnsgd1na2vs0mg"},{"bike_id":"611a4c5d-9ad8-4a0d-8970-f67afd6a8351","system_id":"levelo_inurba_marseille","lat":43.30256,"lon":5.40079,"is_reserved":false,"is_disabled":false,"rental_uris":{"android":"levelo://app?vid=611a4c5d-9ad8-4a0d-8970-f67afd6a8351","ios":"levelo://app?vid=611a4c5d-9ad8-4a0d-8970-f67afd6a8351"},"vehicle_type_id":"4","last_reported":1730517261,"current_range_meters":32000,"station_id":"ce4bgvh2rcd13ifvqcs0","pricing_plan_id":"cebpf4jnsgd1na2vs0mg"},{"bike_id":"19e6008c-0743-45ac-b4bf-fc683ef0e14c","system_id":"levelo_inurba_marseille","lat":43.25721,"lon":5.41112,"is_reserved":false,"is_disabled":false,"rental_uris":{"android":"levelo://app?vid=19e6008c-0743-45ac-b4bf-fc683ef0e14c","ios":"levelo://app?vid=19e6008c-0743-45ac-b4bf-fc683ef0e14c"},"vehicle_type_id":"4","last_reported":1730517261,"current_range_meters":27600,"station_id":"ce4bhkp2rcd13ifvqgd0","pricing_plan_id":"cebpf4jnsgd1na2vs0mg"},{"bike_id":"ab8829f0-c8a7-44a4-9d60-322dda417b22","system_id":"levelo_inurba_marseille","lat":43.30445,"lon":5.39752,"is_reserved":false,"is_disabled":false,"rental_uris":{"android":"levelo://app?vid=ab8829f0-c8a7-44a4-9d60-322dda417b22","ios":"levelo://app?vid=ab8829f0-c8a7-44a4-9d60-322dda417b22"},"vehicle_type_id":"4","last_reported":1730517261,"current_range_meters":37600,"station_id":"ce4bh092rcd13ifvqd20","pricing_plan_id":"cebpf4jnsgd1na2vs0mg"},{"bike_id":"55b4d402-cd88-41c4-94f3-0c54ee939bb0","system_id":"levelo_inurba_marseille","lat":43.25866,"lon":5.399,"is_reserved":false,"is_disabled":false,"rental_uris":{"android":"levelo://app?vid=55b4d402-cd88-41c4-94f3-0c54ee939bb0","ios":"levelo://app?vid=55b4d402-cd88-41c4-94f3-0c54ee939bb0"},"vehicle_type_id":"4","last_reported":1730517261,"current_range_meters":20400,"station_id":"ce4bhl92rcd13ifvqghg","pricing_plan_id":"cebpf4jnsgd1na2vs0mg"},{"bike_id":"9dbd59d9-8696-4c35-8f8b-1be0b8000368","system_id":"levelo_inurba_marseille","lat":43.24074,"lon":5.3776,"is_reserved":false,"is_disabled":false,"rental_uris":{"android":"levelo://app?vid=9dbd59d9-8696-4c35-8f8b-1be0b8000368","ios":"levelo://app?vid=9dbd59d9-8696-4c35-8f8b-1be0b8000368"},"vehicle_type_id":"4","last_reported":1730517261,"current_range_meters":38800,"station_id":"ce4bhnp2rcd13ifvqgvg","pricing_plan_id":"cebpf4jnsgd1na2vs0mg"},{"bike_id":"da5c884d-cbc9-48d6-9f78-034621a79c11","system_id":"levelo_inurba_marseille","lat":43.28845,"lon":5.35845,"is_reserved":false,"is_disabled":false,"rental_uris":{"android":"levelo://app?vid=da5c884d-cbc9-48d6-9f78-034621a79c11","ios":"levelo://app?vid=da5c884d-cbc9-48d6-9f78-034621a79c11"},"vehicle_type_id":"4","last_reported":1730517261,"current_range_meters":24400,"station_id":"ce4bhb12rcd13ifvqem0","pricing_plan_id":"cebpf4jnsgd1na2vs0mg"},{"bike_id":"5b1e2d2d-097b-4803-9d98-a9e4053ecb72","system_id":"levelo_inurba_marseille","lat":43.3013,"lon":5.3878,"is_reserved":false,"is_disabled":false,"rental_uris":{"android":"levelo://app?vid=5b1e2d2d-097b-4803-9d98-a9e4053ecb72","ios":"levelo://app?vid=5b1e2d2d-097b-4803-9d98-a9e4053ecb72"},"vehicle_type_id":"4","last_reported":1730517261,"current_range_meters":33600,"station_id":"ce4bghh2rcd13ifvqb60","pricing_plan_id":"cebpf4jnsgd1na2vs0mg"},{"bike_id":"c14abbb4-4d06-46c3-8367-d2701001bce7","system_id":"levelo_inurba_marseille","lat":43.30325,"lon":5.36892,"is_reserved":false,"is_disabled":false,"rental_uris":{"android":"levelo://app?vid=c14abbb4-4d06-46c3-8367-d2701001bce7","ios":"levelo://app?vid=c14abbb4-4d06-46c3-8367-d2701001bce7"},"vehicle_type_id":"4","last_reported":1730517261,"current_range_meters":33200,"station_id":"ce4bgqh2rcd13ifvqc5g","pricing_plan_id":"cebpf4jnsgd1na2vs0mg"},{"bike_id":"b5139fe0-9de1-43e6-94a9-325eeaaa7d74","system_id":"levelo_inurba_marseille","lat":43.28847,"lon":5.39314,"is_reserved":false,"is_disabled":false,"rental_uris":{"android":"levelo://app?vid=b5139fe0-9de1-43e6-94a9-325eeaaa7d74","ios":"levelo://app?vid=b5139fe0-9de1-43e6-94a9-325eeaaa7d74"},"vehicle_type_id":"4","last_reported":1730517261,"current_range_meters":2800,"station_id":"ce4bh2p2rcd13ifvqdi0","pricing_plan_id":"cebpf4jnsgd1na2vs0mg"},{"bike_id":"11c750a2-d7b5-480d-8e51-6aba667e5991","system_id":"levelo_inurba_marseille","lat":43.31728,"lon":5.42398,"is_reserved":false,"is_disabled":false,"rental_uris":{"android":"levelo://app?vid=11c750a2-d7b5-480d-8e51-6aba667e5991","ios":"levelo://app?vid=11c750a2-d7b5-480d-8e51-6aba667e5991"},"vehicle_type_id":"4","last_reported":1730517261,"current_range_meters":38800,"station_id":"ce4bhp92rcd13ifvqhbg","pricing_plan_id":"cebpf4jnsgd1na2vs0mg"},{"bike_id":"b35737c6-49ec-46a6-98b7-a66d9ca0bf72","system_id":"levelo_inurba_marseille","lat":43.295225,"lon":5.390375,"is_reserved":false,"is_disabled":false,"rental_uris":{"android":"levelo://app?vid=b35737c6-49ec-46a6-98b7-a66d9ca0bf72","ios":"levelo://app?vid=b35737c6-49ec-46a6-98b7-a66d9ca0bf72"},"vehicle_type_id":"4","last_reported":1730517261,"current_range_meters":38400,"station_id":"ce4bh3p2rcd13ifvqdp0","pricing_plan_id":"cebpf4jnsgd1na2vs0mg"},{"bike_id":"2e13858c-5fda-4259-a025-e66ef674f431","system_id":"levelo_inurba_marseille","lat":43.290208,"lon":5.38134,"is_reserved":false,"is_disabled":false,"rental_uris":{"android":"levelo://app?vid=2e13858c-5fda-4259-a025-e66ef674f431","ios":"levelo://app?vid=2e13858c-5fda-4259-a025-e66ef674f431"},"vehicle_type_id":"4","last_reported":1730517261,"current_range_meters":39200,"station_id":"ce4bh4p2rcd13ifvqe1g","pricing_plan_id":"cebpf4jnsgd1na2vs0mg"},{"bike_id":"0180bcde-9c85-4250-aed6-ae51c598caef","system_id":"levelo_inurba_marseille","lat":43.2885,"lon":5.35857,"is_reserved":false,"is_disabled":false,"rental_uris":{"android":"levelo://app?vid=0180bcde-9c85-4250-aed6-ae51c598caef","ios":"levelo://app?vid=0180bcde-9c85-4250-aed6-ae51c598caef"},"vehicle_type_id":"4","last_reported":1730517261,"current_range_meters":26000,"station_id":"ce4bhb12rcd13ifvqem0","pricing_plan_id":"cebpf4jnsgd1na2vs0mg"},{"bike_id":"e316822c-24ef-41b5-8cad-fd80a2dd02f9","system_id":"levelo_inurba_marseille","lat":43.31075,"lon":5.38365,"is_reserved":false,"is_disabled":false,"rental_uris":{"android":"levelo://app?vid=e316822c-24ef-41b5-8cad-fd80a2dd02f9","ios":"levelo://app?vid=e316822c-24ef-41b5-8cad-fd80a2dd02f9"},"vehicle_type_id":"4","last_reported":1730517261,"current_range_meters":22000,"station_id":"ce4bgv92rcd13ifvqcr0","pricing_plan_id":"cebpf4jnsgd1na2vs0mg"},{"bike_id":"10ff0e75-6443-4419-b59b-5c0fc7db1fb9","system_id":"levelo_inurba_marseille","lat":43.30533,"lon":5.36697,"is_reserved":false,"is_disabled":false,"rental_uris":{"android":"levelo://app?vid=10ff0e75-6443-4419-b59b-5c0fc7db1fb9","ios":"levelo://app?vid=10ff0e75-6443-4419-b59b-5c0fc7db1fb9"},"vehicle_type_id":"4","last_reported":1730517261,"current_range_meters":40000,"station_id":"ce4bgrp2rcd13ifvqc9g","pricing_plan_id":"cebpf4jnsgd1na2vs0mg"},{"bike_id":"536b3b96-b168-48a9-900f-a9bfebbd46ad","system_id":"levelo_inurba_marseille","lat":43.2919,"lon":5.35801,"is_reserved":false,"is_disabled":false,"rental_uris":{"android":"levelo://app?vid=536b3b96-b168-48a9-900f-a9bfebbd46ad","ios":"levelo://app?vid=536b3b96-b168-48a9-900f-a9bfebbd46ad"},"vehicle_type_id":"4","last_reported":1730517261,"current_range_meters":36800,"station_id":"ce4bhb12rcd13ifvqel0","pricing_plan_id":"cebpf4jnsgd1na2vs0mg"},{"bike_id":"367151e3-d9d1-496e-afc3-1d3ad14f98c6","system_id":"levelo_inurba_marseille","lat":43.32367,"lon":5.38884,"is_reserved":false,"is_disabled":false,"rental_uris":{"android":"levelo://app?vid=367151e3-d9d1-496e-afc3-1d3ad14f98c6","ios":"levelo://app?vid=367151e3-d9d1-496e-afc3-1d3ad14f98c6"},"vehicle_type_id":"4","last_reported":1730517261,"current_range_meters":34000,"station_id":"ce4bhqp2rcd13ifvqhog","pricing_plan_id":"cebpf4jnsgd1na2vs0mg"},{"bike_id":"70f4385c-6b37-4d0d-8049-f1a6bce30f9f","system_id":"levelo_inurba_marseille","lat":43.28452,"lon":5.35898,"is_reserved":false,"is_disabled":false,"rental_uris":{"android":"levelo://app?vid=70f4385c-6b37-4d0d-8049-f1a6bce30f9f","ios":"levelo://app?vid=70f4385c-6b37-4d0d-8049-f1a6bce30f9f"},"vehicle_type_id":"4","last_reported":1730517261,"current_range_meters":38800,"station_id":"ce4bhah2rcd13ifvqei0","pricing_plan_id":"cebpf4jnsgd1na2vs0mg"},{"bike_id":"63ccde5a-d15c-43ed-b4dc-589fa356b4a8","system_id":"levelo_inurba_marseille","lat":43.27434,"lon":5.39412,"is_reserved":false,"is_disabled":false,"rental_uris":{"android":"levelo://app?vid=63ccde5a-d15c-43ed-b4dc-589fa356b4a8","ios":"levelo://app?vid=63ccde5a-d15c-43ed-b4dc-589fa356b4a8"},"vehicle_type_id":"4","last_reported":1730517261,"current_range_meters":38800,"station_id":"ce4bhdp2rcd13ifvqf20","pricing_plan_id":"cebpf4jnsgd1na2vs0mg"},{"bike_id":"95d1a7ff-d4ab-47df-8e80-0214147486da","system_id":"levelo_inurba_marseille","lat":43.298,"lon":5.39347,"is_reserved":false,"is_disabled":false,"rental_uris":{"android":"levelo://app?vid=95d1a7ff-d4ab-47df-8e80-0214147486da","ios":"levelo://app?vid=95d1a7ff-d4ab-47df-8e80-0214147486da"},"vehicle_type_id":"4","last_reported":1730517261,"current_range_meters":22400,"station_id":"chh1huq6cuj3fo74tm60","pricing_plan_id":"cebpf4jnsgd1na2vs0mg"},{"bike_id":"5c98e248-bf25-4d9d-94c7-5a2ff1a7d8a0","system_id":"levelo_inurba_marseille","lat":43.29196,"lon":5.39327,"is_reserved":false,"is_disabled":false,"rental_uris":{"android":"levelo://app?vid=5c98e248-bf25-4d9d-94c7-5a2ff1a7d8a0","ios":"levelo://app?vid=5c98e248-bf25-4d9d-94c7-5a2ff1a7d8a0"},"vehicle_type_id":"4","last_reported":1730517261,"current_range_meters":17600,"station_id":"ce4bh192rcd13ifvqdd0","pricing_plan_id":"cebpf4jnsgd1na2vs0mg"},{"bike_id":"488a32be-8339-4d1d-8516-8fc633e591b1","system_id":"levelo_inurba_marseille","lat":43.32289,"lon":5.3827,"is_reserved":false,"is_disabled":false,"rental_uris":{"android":"levelo://app?vid=488a32be-8339-4d1d-8516-8fc633e591b1","ios":"levelo://app?vid=488a32be-8339-4d1d-8516-8fc633e591b1"},"vehicle_type_id":"4","last_reported":1730517261,"current_range_meters":30000,"station_id":"ce4bhr12rcd13ifvqhqg","pricing_plan_id":"cebpf4jnsgd1na2vs0mg"},{"bike_id":"7b5926e1-eedd-44f1-87d6-605aba3c8473","system_id":"levelo_inurba_marseille","lat":43.27807,"lon":5.40719,"is_reserved":false,"is_disabled":false,"rental_uris":{"android":"levelo://app?vid=7b5926e1-eedd-44f1-87d6-605aba3c8473","ios":"levelo://app?vid=7b5926e1-eedd-44f1-87d6-605aba3c8473"},"vehicle_type_id":"4","last_reported":1730517261,"current_range_meters":36400,"station_id":"ce4bhnh2rcd13ifvqgtg","pricing_plan_id":"cebpf4jnsgd1na2vs0mg"},{"bike_id":"d63142b6-54a4-4479-bc4e-54b036c9cdde","system_id":"levelo_inurba_marseille","lat":43.28931,"lon":5.36389,"is_reserved":false,"is_disabled":false,"rental_uris":{"android":"levelo://app?vid=d63142b6-54a4-4479-bc4e-54b036c9cdde","ios":"levelo://app?vid=d63142b6-54a4-4479-bc4e-54b036c9cdde"},"vehicle_type_id":"4","last_reported":1730517261,"current_range_meters":16800,"station_id":"ce4bhc92rcd13ifvqetg","pricing_plan_id":"cebpf4jnsgd1na2vs0mg"},{"bike_id":"e380af21-a9ce-4fa0-8ec7-026ab3ce71e8","system_id":"levelo_inurba_marseille","lat":43.3043,"lon":5.3975,"is_reserved":false,"is_disabled":false,"rental_uris":{"android":"levelo://app?vid=e380af21-a9ce-4fa0-8ec7-026ab3ce71e8","ios":"levelo://app?vid=e380af21-a9ce-4fa0-8ec7-026ab3ce71e8"},"vehicle_type_id":"4","last_reported":1730517261,"current_range_meters":37600,"station_id":"ce4bh092rcd13ifvqd20","pricing_plan_id":"cebpf4jnsgd1na2vs0mg"},{"bike_id":"f8fe032d-85f5-447e-a12f-4e0a63195622","system_id":"levelo_inurba_marseille","lat":43.26561,"lon":5.38995,"is_reserved":false,"is_disabled":false,"rental_uris":{"android":"levelo://app?vid=f8fe032d-85f5-447e-a12f-4e0a63195622","ios":"levelo://app?vid=f8fe032d-85f5-447e-a12f-4e0a63195622"},"vehicle_type_id":"4","last_reported":1730517261,"current_range_meters":38800,"station_id":"ce4bhe12rcd13ifvqf30","pricing_plan_id":"cebpf4jnsgd1na2vs0mg"},{"bike_id":"1253142a-3431-44fc-88d3-dafaa2237fdb","system_id":"levelo_inurba_marseille","lat":43.27989,"lon":5.41658,"is_reserved":false,"is_disabled":false,"rental_uris":{"android":"levelo://app?vid=1253142a-3431-44fc-88d3-dafaa2237fdb","ios":"levelo://app?vid=1253142a-3431-44fc-88d3-dafaa2237fdb"},"vehicle_type_id":"4","last_reported":1730517261,"current_range_meters":8400,"station_id":"ce4bho12rcd13ifvqh1g","pricing_plan_id":"cebpf4jnsgd1na2vs0mg"},{"bike_id":"57d18951-2001-4003-92d2-aa5cb684af8c","system_id":"levelo_inurba_marseille","lat":43.271069,"lon":5.394546,"is_reserved":false,"is_disabled":false,"rental_uris":{"android":"levelo://app?vid=57d18951-2001-4003-92d2-aa5cb684af8c","ios":"levelo://app?vid=57d18951-2001-4003-92d2-aa5cb684af8c"},"vehicle_type_id":"4","last_reported":1730517261,"current_range_meters":19200,"station_id":"","pricing_plan_id":"cebpf4jnsgd1na2vs0mg"},{"bike_id":"5c27b960-6461-4f9d-887b-b61a1549abaa","system_id":"levelo_inurba_marseille","lat":43.25118,"lon":5.40321,"is_reserved":false,"is_disabled":false,"rental_uris":{"android":"levelo://app?vid=5c27b960-6461-4f9d-887b-b61a1549abaa","ios":"levelo://app?vid=5c27b960-6461-4f9d-887b-b61a1549abaa"},"vehicle_type_id":"4","last_reported":1730517261,"current_range_meters":6000,"station_id":"ce4bhlh2rcd13ifvqgig","pricing_plan_id":"cebpf4jnsgd1na2vs0mg"},{"bike_id":"2875d132-b86c-4530-91db-97c0e35f7115","system_id":"levelo_inurba_marseille","lat":43.23187,"lon":5.39981,"is_reserved":false,"is_disabled":false,"rental_uris":{"android":"levelo://app?vid=2875d132-b86c-4530-91db-97c0e35f7115","ios":"levelo://app?vid=2875d132-b86c-4530-91db-97c0e35f7115"},"vehicle_type_id":"4","last_reported":1730517261,"current_range_meters":39200,"station_id":"ce4bhn12rcd13ifvqgqg","pricing_plan_id":"cebpf4jnsgd1na2vs0mg"},{"bike_id":"c6732785-6f40-43c2-a1aa-56cd651bf33b","system_id":"levelo_inurba_marseille","lat":43.28928,"lon":5.38399,"is_reserved":false,"is_disabled":false,"rental_uris":{"android":"levelo://app?vid=c6732785-6f40-43c2-a1aa-56cd651bf33b","ios":"levelo://app?vid=c6732785-6f40-43c2-a1aa-56cd651bf33b"},"vehicle_type_id":"4","last_reported":1730517261,"current_range_meters":26000,"station_id":"ce4bh612rcd13ifvqe6g","pricing_plan_id":"cebpf4jnsgd1na2vs0mg"},{"bike_id":"bd9da8da-0e62-42e0-b8e3-48974947ce73","system_id":"levelo_inurba_marseille","lat":43.27816,"lon":5.40713,"is_reserved":false,"is_disabled":false,"rental_uris":{"android":"levelo://app?vid=bd9da8da-0e62-42e0-b8e3-48974947ce73","ios":"levelo://app?vid=bd9da8da-0e62-42e0-b8e3-48974947ce73"},"vehicle_type_id":"4","last_reported":1730517261,"current_range_meters":32000,"station_id":"ce4bhnh2rcd13ifvqgtg","pricing_plan_id":"cebpf4jnsgd1na2vs0mg"},{"bike_id":"b27b6b18-d801-4b0b-a4e3-bc55bc4a9aed","system_id":"levelo_inurba_marseille","lat":43.25727,"lon":5.41108,"is_reserved":false,"is_disabled":false,"rental_uris":{"android":"levelo://app?vid=b27b6b18-d801-4b0b-a4e3-bc55bc4a9aed","ios":"levelo://app?vid=b27b6b18-d801-4b0b-a4e3-bc55bc4a9aed"},"vehicle_type_id":"4","last_reported":1730517261,"current_range_meters":38800,"station_id":"ce4bhkp2rcd13ifvqgd0","pricing_plan_id":"cebpf4jnsgd1na2vs0mg"},{"bike_id":"4330ebfb-62b5-4535-b7ed-0b9e6b4a0e8f","system_id":"levelo_inurba_marseille","lat":43.278324,"lon":5.392024,"is_reserved":false,"is_disabled":false,"rental_uris":{"android":"levelo://app?vid=4330ebfb-62b5-4535-b7ed-0b9e6b4a0e8f","ios":"levelo://app?vid=4330ebfb-62b5-4535-b7ed-0b9e6b4a0e8f"},"vehicle_type_id":"4","last_reported":1730517261,"current_range_meters":19600,"station_id":"ce4bhjp2rcd13ifvqga0","pricing_plan_id":"cebpf4jnsgd1na2vs0mg"},{"bike_id":"f82cfb4f-c90d-4c29-b56c-0e4ee19bcf61","system_id":"levelo_inurba_marseille","lat":43.25117,"lon":5.40315,"is_reserved":false,"is_disabled":false,"rental_uris":{"android":"levelo://app?vid=f82cfb4f-c90d-4c29-b56c-0e4ee19bcf61","ios":"levelo://app?vid=f82cfb4f-c90d-4c29-b56c-0e4ee19bcf61"},"vehicle_type_id":"4","last_reported":1730517261,"current_range_meters":34800,"station_id":"ce4bhlh2rcd13ifvqgig","pricing_plan_id":"cebpf4jnsgd1na2vs0mg"},{"bike_id":"9dc03996-e494-461d-a2e6-0cceab572c73","system_id":"levelo_inurba_marseille","lat":43.30433,"lon":5.39752,"is_reserved":false,"is_disabled":false,"rental_uris":{"android":"levelo://app?vid=9dc03996-e494-461d-a2e6-0cceab572c73","ios":"levelo://app?vid=9dc03996-e494-461d-a2e6-0cceab572c73"},"vehicle_type_id":"4","last_reported":1730517261,"current_range_meters":38800,"station_id":"ce4bh092rcd13ifvqd20","pricing_plan_id":"cebpf4jnsgd1na2vs0mg"},{"bike_id":"639bb546-5a14-42d0-a97f-a7a60c11c0e2","system_id":"levelo_inurba_marseille","lat":43.30799,"lon":5.38151,"is_reserved":false,"is_disabled":false,"rental_uris":{"android":"levelo://app?vid=639bb546-5a14-42d0-a97f-a7a60c11c0e2","ios":"levelo://app?vid=639bb546-5a14-42d0-a97f-a7a60c11c0e2"},"vehicle_type_id":"4","last_reported":1730517261,"current_range_meters":38000,"station_id":"ce4bgt12rcd13ifvqce0","pricing_plan_id":"cebpf4jnsgd1na2vs0mg"},{"bike_id":"94279a57-03c0-47b7-abe3-7226e86fd3b0","system_id":"levelo_inurba_marseille","lat":43.27617,"lon":5.36111,"is_reserved":false,"is_disabled":false,"rental_uris":{"android":"levelo://app?vid=94279a57-03c0-47b7-abe3-7226e86fd3b0","ios":"levelo://app?vid=94279a57-03c0-47b7-abe3-7226e86fd3b0"},"vehicle_type_id":"4","last_reported":1730517261,"current_range_meters":22800,"station_id":"ce4bgj92rcd13ifvqbe0","pricing_plan_id":"cebpf4jnsgd1na2vs0mg"},{"bike_id":"5ba96efd-c7f6-4c98-a13a-ac0276d3d2f3","system_id":"levelo_inurba_marseille","lat":43.31682,"lon":5.37595,"is_reserved":false,"is_disabled":false,"rental_uris":{"android":"levelo://app?vid=5ba96efd-c7f6-4c98-a13a-ac0276d3d2f3","ios":"levelo://app?vid=5ba96efd-c7f6-4c98-a13a-ac0276d3d2f3"},"vehicle_type_id":"4","last_reported":1730517261,"current_range_meters":32400,"station_id":"","pricing_plan_id":"cebpf4jnsgd1na2vs0mg"},{"bike_id":"1bd5b08a-eda8-4406-8254-7f9d0b12de51","system_id":"levelo_inurba_marseille","lat":43.31331,"lon":5.39695,"is_reserved":false,"is_disabled":false,"rental_uris":{"android":"levelo://app?vid=1bd5b08a-eda8-4406-8254-7f9d0b12de51","ios":"levelo://app?vid=1bd5b08a-eda8-4406-8254-7f9d0b12de51"},"vehicle_type_id":"4","last_reported":1730517261,"current_range_meters":40000,"station_id":"ce4bgvp2rcd13ifvqcu0","pricing_plan_id":"cebpf4jnsgd1na2vs0mg"},{"bike_id":"5ba8e5a8-09bf-412b-b182-000192a6d1f7","system_id":"levelo_inurba_marseille","lat":43.33022,"lon":5.39049,"is_reserved":false,"is_disabled":false,"rental_uris":{"android":"levelo://app?vid=5ba8e5a8-09bf-412b-b182-000192a6d1f7","ios":"levelo://app?vid=5ba8e5a8-09bf-412b-b182-000192a6d1f7"},"vehicle_type_id":"4","last_reported":1730517261,"current_range_meters":24400,"station_id":"ce4bhr92rcd13ifvqhrg","pricing_plan_id":"cebpf4jnsgd1na2vs0mg"},{"bike_id":"0eff1061-a616-49c0-ab33-6fb0dddf5e95","system_id":"levelo_inurba_marseille","lat":43.31485,"lon":5.37303,"is_reserved":false,"is_disabled":false,"rental_uris":{"android":"levelo://app?vid=0eff1061-a616-49c0-ab33-6fb0dddf5e95","ios":"levelo://app?vid=0eff1061-a616-49c0-ab33-6fb0dddf5e95"},"vehicle_type_id":"4","last_reported":1730517261,"current_range_meters":38800,"station_id":"ce4bgt12rcd13ifvqcd0","pricing_plan_id":"cebpf4jnsgd1na2vs0mg"},{"bike_id":"2a76b31d-87b2-4525-b6f8-696046db54ef","system_id":"levelo_inurba_marseille","lat":43.296267,"lon":5.377349,"is_reserved":false,"is_disabled":false,"rental_uris":{"android":"levelo://app?vid=2a76b31d-87b2-4525-b6f8-696046db54ef","ios":"levelo://app?vid=2a76b31d-87b2-4525-b6f8-696046db54ef"},"vehicle_type_id":"4","last_reported":1730517261,"current_range_meters":37600,"station_id":"ce4bgi92rcd13ifvqb90","pricing_plan_id":"cebpf4jnsgd1na2vs0mg"},