{"last_updated":1740053873,"ttl":60,"version":"2.2","data":{"bikes":[{"bike_id":"1eb036f1-587c-42fa-b912-8fa053626401","system_id":"levelo_inurba_marseille","lat":43.26199,"lon":5.37931,"is_reserved":false,"is_disabled":false,"rental_uris":{"android":"levelo://app?vid=1eb036f1-587c-42fa-b912-8fa053626401","ios":"levelo://app?vid=1eb036f1-587c-42fa-b912-8fa053626401"},"vehicle_type_id":"4","last_reported":1740053873,"current_range_meters":2800,"station_id":"ce4bhjp2rcd13ifvqg90","pricing_plan_id":"cebpf4jnsgd1na2vs0mg"},{"bike_id":"4984b26a-fa9e-4c4b-b5da-84c55159b015","system_id":"levelo_inurba_marseille","lat":43.26561,"lon":5.37276,"is_reserved":false,"is_disabled":false,"rental_uris":{"android":"levelo://app?vid=4984b26a-fa9e-4c4b-b5da-84c55159b015","ios":"levelo://app?vid=4984b26a-fa9e-4c4b-b5da-84c55159b015"},"vehicle_type_id":"4","last_reported":1740053873,"current_range_meters":3600,"station_id":"ce4bhg12rcd13ifvqf70","pricing_plan_id":"cebpf4jnsgd1na2vs0mg"},{"bike_id":"92f79d8b-ebb3-4013-8ca9-55ce28ec1f7d","system_id":"levelo_inurba_marseille","lat":43.27838,"lon":5.39212,"is_reserved":false,"is_disabled":false,"rental_uris":{"android":"levelo://app?vid=92f79d8b-ebb3-4013-8ca9-55ce28ec1f7d","ios":"levelo://app?vid=92f79d8b-ebb3-4013-8ca9-55ce28ec1f7d"},"vehicle_type_id":"4","last_reported":1740053873,"current_range_meters":4000,"station_id":"ce4bhjp2rcd13ifvqga0","pricing_plan_id":"cebpf4jnsgd1na2vs0mg"},{"bike_id":"adb3d6df-7149-4295-84c9-8f4cb47f9c0e","system_id":"levelo_inurba_marseille","lat":43.27279,"lon":5.40676,"is_reserved":false,"is_disabled":true,"rental_uris":{"android":"levelo://app?vid=adb3d6df-7149-4295-84c9-8f4cb47f9c0e","ios":"levelo://app?vid=adb3d6df-7149-4295-84c9-8f4cb47f9c0e"},"vehicle_type_id":"4","last_reported":1740053873,"current_range_meters":4000,"station_id":"","pricing_plan_id":"cebpf4jnsgd1na2vs0mg"},{"bike_id":"fe4026b6-422f-48ac-b1b4-1f9d4c370e5a","system_id":"levelo_inurba_marseille","lat":43.2814,"lon":5.42644,"is_reserved":false,"is_disabled":false,"rental_uris":{"android":"levelo://app?vid=fe4026b6-422f-48ac-b1b4-1f9d4c370e5a","ios":"levelo://app?vid=fe4026b6-422f-48ac-b1b4-1f9d4c370e5a"},"vehicle_type_id":"4","last_reported":1740053873,"current_range_meters":4000,"station_id":"ce4bhnh2rcd13ifvqgug","pricing_plan_id":"cebpf4jnsgd1na2vs0mg"},{"bike_id":"cf64b7cd-4626-4d79-afac-2611db88ce28","system_id":"levelo_inurba_marseille","lat":43.2799,"lon":5.41667,"is_reserved":false,"is_disabled":false,"rental_uris":{"android":"levelo://app?vid=cf64b7cd-4626-4d79-afac-2611db88ce28","ios":"levelo://app?vid=cf64b7cd-4626-4d79-afac-2611db88ce28"},"vehicle_type_id":"4","last_reported":1740053873,"current_range_meters":4400,"station_id":"ce4bho12rcd13ifvqh1g","pricing_plan_id":"cebpf4jnsgd1na2vs0mg"},{"bike_id":"f360cd8c-75b2-4bab-899c-3db689d3a8f0","system_id":"levelo_inurba_marseille","lat":43.2842,"lon":5.34983,"is_reserved":false,"is_disabled":false,"rental_uris":{"android":"levelo://app?vid=f360cd8c-75b2-4bab-899c-3db689d3a8f0","ios":"levelo://app?vid=f360cd8c-75b2-4bab-899c-3db689d3a8f0"},"vehicle_type_id":"4","last_reported":1740053873,"current_range_meters":800,"station_id":"ce4bhbh2rcd13ifvqepg","pricing_plan_id":"cebpf4jnsgd1na2vs0mg"},{"bike_id":"e66295b1-0e3c-4637-99eb-49bc6399f6d8","system_id":"levelo_inurba_marseille","lat":43.299754,"lon":5.371759,"is_reserved":false,"is_disabled":false,"rental_uris":{"android":"levelo://app?vid=e66295b1-0e3c-4637-99eb-49bc6399f6d8","ios":"levelo://app?vid=e66295b1-0e3c-4637-99eb-49bc6399f6d8"},"vehicle_type_id":"4","last_reported":1740053873,"current_range_meters":4400,"station_id":"ce4bh292rcd13ifvqdf0","pricing_plan_id":"cebpf4jnsgd1na2vs0mg"},{"bike_id":"2dbc71c4-caa4-43c9-be0f-62f3ed4d514f","system_id":"levelo_inurba_marseille","lat":43.23974,"lon":5.36646,"is_reserved":false,"is_disabled":false,"rental_uris":{"android":"levelo://app?vid=2dbc71c4-caa4-43c9-be0f-62f3ed4d514f","ios":"levelo://app?vid=2dbc71c4-caa4-43c9-be0f-62f3ed4d514f"},"vehicle_type_id":"4","last_reported":1740053873,"current_range_meters":4800,"station_id":"ce4bhi12rcd13ifvqfp0","pricing_plan_id":"cebpf4jnsgd1na2vs0mg"},{"bike_id":"08a49a07-475f-4b5d-a3d3-6f4a7e942675","system_id":"levelo_inurba_marseille","lat":43.28622,"lon":5.35101,"is_reserved":false,"is_disabled":false,"rental_uris":{"android":"levelo://app?vid=08a49a07-475f-4b5d-a3d3-6f4a7e942675","ios":"levelo://app?vid=08a49a07-475f-4b5d-a3d3-6f4a7e942675"},"vehicle_type_id":"4","last_reported":1740053873,"current_range_meters":4800,"station_id":"ce4bhch2rcd13ifvqeug","pricing_plan_id":"cebpf4jnsgd1na2vs0mg"},{"bike_id":"ed356dd8-0353-427c-9cf0-284ca7b500d9","system_id":"levelo_inurba_marseille","lat":43.25086,"lon":5.39518,"is_reserved":false,"is_disabled":false,"rental_uris":{"android":"levelo://app?vid=ed356dd8-0353-427c-9cf0-284ca7b500d9","ios":"levelo://app?vid=ed356dd8-0353-427c-9cf0-284ca7b500d9"},"vehicle_type_id":"4","last_reported":1740053873,"current_range_meters":4800,"station_id":"ce4bhm12rcd13ifvqgkg","pricing_plan_id":"cebpf4jnsgd1na2vs0mg"},{"bike_id":"4089f1a0-cd12-42d3-a6c3-01d445970a86","system_id":"levelo_inurba_marseille","lat":43.31108,"lon":5.36743,"is_reserved":false,"is_disabled":false,"rental_uris":{"android":"levelo://app?vid=4089f1a0-cd12-42d3-a6c3-01d445970a86","ios":"levelo://app?vid=4089f1a0-cd12-42d3-a6c3-01d445970a86"},"vehicle_type_id":"4","last_reported":1740053873,"current_range_meters":5600,"station_id":"","pricing_plan_id":"cebpf4jnsgd1na2vs0mg"},{"bike_id":"fd7493cc-31f3-49ce-b79a-682a99a8fcec","system_id":"levelo_inurba_marseille","lat":43.25929,"lon":5.40875,"is_reserved":false,"is_disabled":false,"rental_uris":{"android":"levelo://app?vid=fd7493cc-31f3-49ce-b79a-682a99a8fcec","ios":"levelo://app?vid=fd7493cc-31f3-49ce-b79a-682a99a8fcec"},"vehicle_type_id":"4","last_reported":1740053873,"current_range_meters":6000,"station_id":"ce4bhm92rcd13ifvqglg","pricing_plan_id":"cebpf4jnsgd1na2vs0mg"},{"bike_id":"59367cd7-9146-4b42-8d6e-239fcbf25be5","system_id":"levelo_inurba_marseille","lat":43.26562,"lon":5.3901,"is_reserved":false,"is_disabled":false,"rental_uris":{"android":"levelo://app?vid=59367cd7-9146-4b42-8d6e-239fcbf25be5","ios":"levelo://app?vid=59367cd7-9146-4b42-8d6e-239fcbf25be5"},"vehicle_type_id":"4","last_reported":1740053873,"current_range_meters":6000,"station_id":"","pricing_plan_id":"cebpf4jnsgd1na2vs0mg"},{"bike_id":"0ca97e3c-2a03-4b04-be1d-242e6db9ca8b","system_id":"levelo_inurba_marseille","lat":43.25811,"lon":5.39416,"is_reserved":false,"is_disabled":false,"rental_uris":{"android":"levelo://app?vid=0ca97e3c-2a03-4b04-be1d-242e6db9ca8b","ios":"levelo://app?vid=0ca97e3c-2a03-4b04-be1d-242e6db9ca8b"},"vehicle_type_id":"4","last_reported":1740053873,"current_range_meters":6000,"station_id":"ce4bhip2rcd13ifvqft0","pricing_plan_id":"cebpf4jnsgd1na2vs0mg"},{"bike_id":"9198c6ef-bd5b-45d9-bd7b-e058d791d44b","system_id":"levelo_inurba_marseille","lat":43.24817,"lon":5.37461,"is_reserved":false,"is_disabled":true,"rental_uris":{"android":"levelo://app?vid=9198c6ef-bd5b-45d9-bd7b-e058d791d44b","ios":"levelo://app?vid=9198c6ef-bd5b-45d9-bd7b-e058d791d44b"},"vehicle_type_id":"4","last_reported":1740053873,"current_range_meters":6000,"station_id":"","pricing_plan_id":"cebpf4jnsgd1na2vs0mg"},{"bike_id":"ec2a2a80-692c-4e61-b758-ee418e5968e4","system_id":"levelo_inurba_marseille","lat":43.23962,"lon":5.36639,"is_reserved":false,"is_disabled":false,"rental_uris":{"android":"levelo://app?vid=ec2a2a80-692c-4e61-b758-ee418e5968e4","ios":"levelo://app?vid=ec2a2a80-692c-4e61-b758-ee418e5968e4"},"vehicle_type_id":"4","last_reported":1740053873,"current_range_meters":6000,"station_id":"ce4bhi12rcd13ifvqfp0","pricing_plan_id":"cebpf4jnsgd1na2vs0mg"},{"bike_id":"f85da4c8-b2ee-4697-b560-9252d5dbac80","system_id":"levelo_inurba_marseille","lat":43.29222,"lon":5.36054,"is_reserved":false,"is_disabled":false,"rental_uris":{"android":"levelo://app?vid=f85da4c8-b2ee-4697-b560-9252d5dbac80","ios":"levelo://app?vid=f85da4c8-b2ee-4697-b560-9252d5dbac80"},"vehicle_type_id":"4","last_reported":1740053873,"current_range_meters":6400,"station_id":"ce4bhbh2rcd13ifvqeqg","pricing_plan_id":"cebpf4jnsgd1na2vs0mg"},{"bike_id":"fde88e60-06df-44f1-9168-61675e77d9b8","system_id":"levelo_inurba_marseille","lat":43.23149,"lon":5.43725,"is_reserved":false,"is_disabled":false,"rental_uris":{"android":"levelo://app?vid=fde88e60-06df-44f1-9168-61675e77d9b8","ios":"levelo://app?vid=fde88e60-06df-44f1-9168-61675e77d9b8"},"vehicle_type_id":"4","last_reported":1740053873,"current_range_meters":6400,"station_id":"ce4bhmp2rcd13ifvqgog","pricing_plan_id":"cebpf4jnsgd1na2vs0mg"},{"bike_id":"1821cf5a-24bc-4763-9753-11df4acc4f4c","system_id":"levelo_inurba_marseille","lat":43.24166,"lon":5.36386,"is_reserved":false,"is_disabled":false,"rental_uris":{"android":"levelo://app?vid=1821cf5a-24bc-4763-9753-11df4acc4f4c","ios":"levelo://app?vid=1821cf5a-24bc-4763-9753-11df4acc4f4c"},"vehicle_type_id":"4","last_reported":1740053873,"current_range_meters":6400,"station_id":"cpo36qri1sfpv3e86is0","pricing_plan_id":"cebpf4jnsgd1na2vs0mg"},{"bike_id":"7f2b235d-b54a-4ba7-9884-b541f6dd74e7","system_id":"levelo_inurba_marseille","lat":43.27182,"lon":5.40987,"is_reserved":false,"is_disabled":false,"rental_uris":{"android":"levelo://app?vid=7f2b235d-b54a-4ba7-9884-b541f6dd74e7","ios":"levelo://app?vid=7f2b235d-b54a-4ba7-9884-b541f6dd74e7"},"vehicle_type_id":"4","last_reported":1740053873,"current_range_meters":6400,"station_id":"","pricing_plan_id":"cebpf4jnsgd1na2vs0mg"},{"bike_id":"90de8971-db22-4d27-8c08-4575a12860f9","system_id":"levelo_inurba_marseille","lat":43.27229,"lon":5.40955,"is_reserved":false,"is_disabled":false,"rental_uris":{"android":"levelo://app?vid=90de8971-db22-4d27-8c08-4575a12860f9","ios":"levelo://app?vid=90de8971-db22-4d27-8c08-4575a12860f9"},"vehicle_type_id":"4","last_reported":1740053873,"current_range_meters":6800,"station_id":"ce4bhl12rcd13ifvqgf0","pricing_plan_id":"cebpf4jnsgd1na2vs0mg"},{"bike_id":"d35b6e6b-0f81-49f1-a1da-7c7042f7f552","system_id":"levelo_inurba_marseille","lat":43.29092,"lon":5.3812,"is_reserved":false,"is_disabled":false,"rental_uris":{"android":"levelo://app?vid=d35b6e6b-0f81-49f1-a1da-7c7042f7f552","ios":"levelo://app?vid=d35b6e6b-0f81-49f1-a1da-7c7042f7f552"},"vehicle_type_id":"4","last_reported":1740053873,"current_range_meters":7200,"station_id":"ce4bh512rcd13ifvqe2g","pricing_plan_id":"cebpf4jnsgd1na2vs0mg"},{"bike_id":"07750a48-0a12-4e33-89cd-d0f50529fa8e","system_id":"levelo_inurba_marseille","lat":43.27957,"lon":5.41051,"is_reserved":false,"is_disabled":false,"rental_uris":{"android":"levelo://app?vid=07750a48-0a12-4e33-89cd-d0f50529fa8e","ios":"levelo://app?vid=07750a48-0a12-4e33-89cd-d0f50529fa8e"},"vehicle_type_id":"4","last_reported":1740053873,"current_range_meters":7200,"station_id":"ce4bhnp2rcd13ifvqh0g","pricing_plan_id":"cebpf4jnsgd1na2vs0mg"},{"bike_id":"66dcbd53-a4ec-40bb-bb30-3442dd93722a","system_id":"levelo_inurba_marseille","lat":43.302551,"lon":5.40056,"is_reserved":false,"is_disabled":false,"rental_uris":{"android":"levelo://app?vid=66dcbd53-a4ec-40bb-bb30-3442dd93722a","ios":"levelo://app?vid=66dcbd53-a4ec-40bb-bb30-3442dd93722a"},"vehicle_type_id":"4","last_reported":1740053873,"current_range_meters":7200,"station_id":"ce4bh192rcd13ifvqdb0","pricing_plan_id":"cebpf4jnsgd1na2vs0mg"},{"bike_id":"816e3e7b-b107-4001-b79f-e380ada67102","system_id":"levelo_inurba_marseille","lat":43.24156,"lon":5.36391,"is_reserved":false,"is_disabled":false,"rental_uris":{"android":"levelo://app?vid=816e3e7b-b107-4001-b79f-e380ada67102","ios":"levelo://app?vid=816e3e7b-b107-4001-b79f-e380ada67102"},"vehicle_type_id":"4","last_reported":1740053873,"current_range_meters":7200,"station_id":"cpo36qri1sfpv3e86is0","pricing_plan_id":"cebpf4jnsgd1na2vs0mg"},{"bike_id":"f027fe38-3f5d-42fa-b16a-68ca60104c09","system_id":"levelo_inurba_marseille","lat":43.24164,"lon":5.36409,"is_reserved":false,"is_disabled":false,"rental_uris":{"android":"levelo://app?vid=f027fe38-3f5d-42fa-b16a-68ca60104c09","ios":"levelo://app?vid=f027fe38-3f5d-42fa-b16a-68ca60104c09"},"vehicle_type_id":"4","last_reported":1740053873,"current_range_meters":8000,"station_id":"","pricing_plan_id":"cebpf4jnsgd1na2vs0mg"},{"bike_id":"d078d9e7-1854-4ad6-a4cc-af7788d393db","system_id":"levelo_inurba_marseille","lat":43.27061,"lon":5.40258,"is_reserved":false,"is_disabled":false,"rental_uris":{"android":"levelo://app?vid=d078d9e7-1854-4ad6-a4cc-af7788d393db","ios":"levelo://app?vid=d078d9e7-1854-4ad6-a4cc-af7788d393db"},"vehicle_type_id":"4","last_reported":1740053873,"current_range_meters":8000,"station_id":"ce4bhk92rcd13ifvqgc0","pricing_plan_id":"cebpf4jnsgd1na2vs0mg"},{"bike_id":"0f665ce8-0c8f-440c-85e8-380ef8e594f9","system_id":"levelo_inurba_marseille","lat":43.31204,"lon":5.36858,"is_reserved":false,"is_disabled":false,"rental_uris":{"android":"levelo://app?vid=0f665ce8-0c8f-440c-85e8-380ef8e594f9","ios":"levelo://app?vid=0f665ce8-0c8f-440c-85e8-380ef8e594f9"},"vehicle_type_id":"4","last_reported":1740053873,"current_range_meters":8000,"station_id":"ce4bgl92rcd13ifvqbq0","pricing_plan_id":"cebpf4jnsgd1na2vs0mg"},{"bike_id":"f8a1eefe-5190-4327-95c3-8138f343fe57","system_id":"levelo_inurba_marseille","lat":43.31185,"lon":5.39348,"is_reserved":false,"is_disabled":false,"rental_uris":{"android":"levelo://app?vid=f8a1eefe-5190-4327-95c3-8138f343fe57","ios":"levelo://app?vid=f8a1eefe-5190-4327-95c3-8138f343fe57"},"vehicle_type_id":"4","last_reported":1740053873,"current_range_meters":8000,"station_id":"ce4bgqh2rcd13ifvqc4g","pricing_plan_id":"cebpf4jnsgd1na2vs0mg"},{"bike_id":"a785767d-3278-4db8-8933-1f8eb2edc4a9","system_id":"levelo_inurba_marseille","lat":43.29849,"lon":5.36271,"is_reserved":false,"is_disabled":false,"rental_uris":{"android":"levelo://app?vid=a785767d-3278-4db8-8933-1f8eb2edc4a9","ios":"levelo://app?vid=a785767d-3278-4db8-8933-1f8eb2edc4a9"},"vehicle_type_id":"4","last_reported":1740053873,"current_range_meters":8400,"station_id":"ce4bgpp2rcd13ifvqc3g","pricing_plan_id":"cebpf4jnsgd1na2vs0mg"},{"bike_id":"c1de5362-8118-4160-9524-31e7be40226d","system_id":"levelo_inurba_marseille","lat":43.29573,"lon":5.39987,"is_reserved":false,"is_disabled":false,"rental_uris":{"android":"levelo://app?vid=c1de5362-8118-4160-9524-31e7be40226d","ios":"levelo://app?vid=c1de5362-8118-4160-9524-31e7be40226d"},"vehicle_type_id":"4","last_reported":1740053873,"current_range_meters":8400,"station_id":"ce4bh312rcd13ifvqdj0","pricing_plan_id":"cebpf4jnsgd1na2vs0mg"},{"bike_id":"406cb1a7-d127-4071-a696-204924f6ff95","system_id":"levelo_inurba_marseille","lat":43.25008,"lon":5.38942,"is_reserved":false,"is_disabled":false,"rental_uris":{"android":"levelo://app?vid=406cb1a7-d127-4071-a696-204924f6ff95","ios":"levelo://app?vid=406cb1a7-d127-4071-a696-204924f6ff95"},"vehicle_type_id":"4","last_reported":1740053873,"current_range_meters":8400,"station_id":"","pricing_plan_id":"cebpf4jnsgd1na2vs0mg"},{"bike_id":"d5173bbe-86f4-4afc-a8e0-76d62e3a8b83","system_id":"levelo_inurba_marseille","lat":43.23969,"lon":5.36634,"is_reserved":false,"is_disabled":false,"rental_uris":{"android":"levelo://app?vid=d5173bbe-86f4-4afc-a8e0-76d62e3a8b83","ios":"levelo://app?vid=d5173bbe-86f4-4afc-a8e0-76d62e3a8b83"},"vehicle_type_id":"4","last_reported":1740053873,"current_range_meters":8400,"station_id":"ce4bhi12rcd13ifvqfp0","pricing_plan_id":"cebpf4jnsgd1na2vs0mg"},{"bike_id":"093d36c4-f304-46a9-8792-5d9e19e468fc","system_id":"levelo_inurba_marseille","lat":43.29902,"lon":5.43666,"is_reserved":false,"is_disabled":false,"rental_uris":{"android":"levelo://app?vid=093d36c4-f304-46a9-8792-5d9e19e468fc","ios":"levelo://app?vid=093d36c4-f304-46a9-8792-5d9e19e468fc"},"vehicle_type_id":"4","last_reported":1740053873,"current_range_meters":8400,"station_id":"ce4bhpp2rcd13ifvqhfg","pricing_plan_id":"cebpf4jnsgd1na2vs0mg"},{"bike_id":"3fa131c8-d3bf-4fb9-b400-1daf371dcaa7","system_id":"levelo_inurba_marseille","lat":43.27146,"lon":5.41021,"is_reserved":false,"is_disabled":false,"rental_uris":{"android":"levelo://app?vid=3fa131c8-d3bf-4fb9-b400-1daf371dcaa7","ios":"levelo://app?vid=3fa131c8-d3bf-4fb9-b400-1daf371dcaa7"},"vehicle_type_id":"4","last_reported":1740053873,"current_range_meters":8400,"station_id":"ce4bhl12rcd13ifvqgf0","pricing_plan_id":"cebpf4jnsgd1na2vs0mg"},{"bike_id":"63c4cf47-dbff-4d5e-a88a-080b99df99de","system_id":"levelo_inurba_marseille","lat":43.29523,"lon":5.38896,"is_reserved":false,"is_disabled":true,"rental_uris":{"android":"levelo://app?vid=63c4cf47-dbff-4d5e-a88a-080b99df99de","ios":"levelo://app?vid=63c4cf47-dbff-4d5e-a88a-080b99df99de"},"vehicle_type_id":"4","last_reported":1740053873,"current_range_meters":8400,"station_id":"","pricing_plan_id":"cebpf4jnsgd1na2vs0mg"},{"bike_id":"34d14ec0-9a1d-4d07-8158-52ff5d0c0371","system_id":"levelo_inurba_marseille","lat":43.29437,"lon":5.38042,"is_reserved":false,"is_disabled":false,"rental_uris":{"android":"levelo://app?vid=34d14ec0-9a1d-4d07-8158-52ff5d0c0371","ios":"levelo://app?vid=34d14ec0-9a1d-4d07-8158-52ff5d0c0371"},"vehicle_type_id":"4","last_reported":1740053873,"current_range_meters":8400,"station_id":"","pricing_plan_id":"cebpf4jnsgd1na2vs0mg"},{"bike_id":"c67fb496-8441-458a-af2d-8f07c087bdd0","system_id":"levelo_inurba_marseille","lat":43.24182,"lon":5.364,"is_reserved":false,"is_disabled":true,"rental_uris":{"android":"levelo://app?vid=c67fb496-8441-458a-af2d-8f07c087bdd0","ios":"levelo://app?vid=c67fb496-8441-458a-af2d-8f07c087bdd0"},"vehicle_type_id":"4","last_reported":1740053873,"current_range_meters":8400,"station_id":"cpo36qri1sfpv3e86is0","pricing_plan_id":"cebpf4jnsgd1na2vs0mg"},{"bike_id":"24dd12c1-4d8a-40c0-b521-a98d2d462c41","system_id":"levelo_inurba_marseille","lat":43.24163,"lon":5.36406,"is_reserved":false,"is_disabled":false,"rental_uris":{"android":"levelo://app?vid=24dd12c1-4d8a-40c0-b521-a98d2d462c41","ios":"levelo://app?vid=24dd12c1-4d8a-40c0-b521-a98d2d462c41"},"vehicle_type_id":"4","last_reported":1740053873,"current_range_meters":8400,"station_id":"cpo36qri1sfpv3e86is0","pricing_plan_id":"cebpf4jnsgd1na2vs0mg"},{"bike_id":"407061d8-6ccd-411e-8d78-08f5ad643857","system_id":"levelo_inurba_marseille","lat":43.33719,"lon":5.3919,"is_reserved":false,"is_disabled":false,"rental_uris":{"android":"levelo://app?vid=407061d8-6ccd-411e-8d78-08f5ad643857","ios":"levelo://app?vid=407061d8-6ccd-411e-8d78-08f5ad643857"},"vehicle_type_id":"4","last_reported":1740053873,"current_range_meters":8400,"station_id":"ce4bhr92rcd13ifvqhsg","pricing_plan_id":"cebpf4jnsgd1na2vs0mg"},{"bike_id":"c71f51e6-0e8d-4f7d-a210-019f6e82ceba","system_id":"levelo_inurba_marseille","lat":43.28716,"lon":5.37366,"is_reserved":false,"is_disabled":false,"rental_uris":{"android":"levelo://app?vid=c71f51e6-0e8d-4f7d-a210-019f6e82ceba","ios":"levelo://app?vid=c71f51e6-0e8d-4f7d-a210-019f6e82ceba"},"vehicle_type_id":"4","last_reported":1740053873,"current_range_meters":8400,"station_id":"ce4bh3p2rcd13ifvqdq0","pricing_plan_id":"cebpf4jnsgd1na2vs0mg"},{"bike_id":"d89a1af6-e890-422b-8624-21139b9bea04","system_id":"levelo_inurba_marseille","lat":43.30134,"lon":5.39865,"is_reserved":false,"is_disabled":false,"rental_uris":{"android":"levelo://app?vid=d89a1af6-e890-422b-8624-21139b9bea04","ios":"levelo://app?vid=d89a1af6-e890-422b-8624-21139b9bea04"},"vehicle_type_id":"4","last_reported":1740053873,"current_range_meters":8400,"station_id":"ce4bh0h2rcd13ifvqd40","pricing_plan_id":"cebpf4jnsgd1na2vs0mg"},{"bike_id":"b64778c2-2434-4409-b125-e965a1fd469a","system_id":"levelo_inurba_marseille","lat":43.30303,"lon":5.36751,"is_reserved":false,"is_disabled":false,"rental_uris":{"android":"levelo://app?vid=b64778c2-2434-4409-b125-e965a1fd469a","ios":"levelo://app?vid=b64778c2-2434-4409-b125-e965a1fd469a"},"vehicle_type_id":"4","last_reported":1740053873,"current_range_meters":8400,"station_id":"ce4bgs12rcd13ifvqcag","pricing_plan_id":"cebpf4jnsgd1na2vs0mg"},{"bike_id":"4e2b468f-8f4a-4d73-8517-62fa28d3fb4c","system_id":"levelo_inurba_marseille","lat":43.24807,"lon":5.37461,"is_reserved":false,"is_disabled":false,"rental_uris":{"android":"levelo://app?vid=4e2b468f-8f4a-4d73-8517-62fa28d3fb4c","ios":"levelo://app?vid=4e2b468f-8f4a-4d73-8517-62fa28d3fb4c"},"vehicle_type_id":"4","last_reported":1740053873,"current_range_meters":8800,"station_id":"ce4bhgh2rcd13ifvqfb0","pricing_plan_id":"cebpf4jnsgd1na2vs0mg"},{"bike_id":"c323e2ff-640f-47b0-bbfe-fac4271a621c","system_id":"levelo_inurba_marseille","lat":43.28406,"lon":5.34986,"is_reserved":false,"is_disabled":false,"rental_uris":{"android":"levelo://app?vid=c323e2ff-640f-47b0-bbfe-fac4271a621c","ios":"levelo://app?vid=c323e2ff-640f-47b0-bbfe-fac4271a621c"},"vehicle_type_id":"4","last_reported":1740053873,"current_range_meters":8800,"station_id":"ce4bhbh2rcd13ifvqepg","pricing_plan_id":"cebpf4jnsgd1na2vs0mg"},{"bike_id":"a122b5e2-4273-4e35-ac0e-e74db87cc621","system_id":"levelo_inurba_marseille","lat":43.26962,"lon":5.38626,"is_reserved":false,"is_disabled":false,"rental_uris":{"android":"levelo://app?vid=a122b5e2-4273-4e35-ac0e-e74db87cc621","ios":"levelo://app?vid=a122b5e2-4273-4e35-ac0e-e74db87cc621"},"vehicle_type_id":"4","last_reported":1740053873,"current_range_meters":8800,"station_id":"ce4bhh92rcd13ifvqfh0","pricing_plan_id":"cebpf4jnsgd1na2vs0mg"},{"bike_id":"a00fb5cd-e0d2-4f96-befb-5275c0df0c87","system_id":"levelo_inurba_marseille","lat":43.27981,"lon":5.41671,"is_reserved":false,"is_disabled":false,"rental_uris":{"android":"levelo://app?vid=a00fb5cd-e0d2-4f96-befb-5275c0df0c87","ios":"levelo://app?vid=a00fb5cd-e0d2-4f96-befb-5275c0df0c87"},"vehicle_type_id":"4","last_reported":1740053873,"current_range_meters":8800,"station_id":"ce4bho12rcd13ifvqh1g","pricing_plan_id":"cebpf4jnsgd1na2vs0mg"},{"bike_id":"2c1fe067-4db5-4ee4-8eae-f27654fbab1e","system_id":"levelo_inurba_marseille","lat":43.27938,"lon":5.39575,"is_reserved":false,"is_disabled":false,"rental_uris":{"android":"levelo://app?vid=2c1fe067-4db5-4ee4-8eae-f27654fbab1e","ios":"levelo://app?vid=2c1fe067-4db5-4ee4-8eae-f27654fbab1e"},"vehicle_type_id":"4","last_reported":1740053873,"current_range_meters":8800,"station_id":"ce4bhf92rcd13ifvqf40","pricing_plan_id":"cebpf4jnsgd1na2vs0mg"},{"bike_id":"c8edfef6-42a6-40b3-a649-857afbe6fa02","system_id":"levelo_inurba_marseille","lat":43.25011,"lon":5.38932,"is_reserved":false,"is_disabled":false,"rental_uris":{"android":"levelo://app?vid=c8edfef6-42a6-40b3-a649-857afbe6fa02","ios":"levelo://app?vid=c8edfef6-42a6-40b3-a649-857afbe6fa02"},"vehicle_type_id":"4","last_reported":1740053873,"current_range_meters":8800,"station_id":"","pricing_plan_id":"cebpf4jnsgd1na2vs0mg"},{"bike_id":"86f4c95b-37f0-4f68-b16e-1a772c8371a8","system_id":"levelo_inurba_marseille","lat":43.28488,"lon":5.38424,"is_reserved":false,"is_disabled":false,"rental_uris":{"android":"levelo://app?vid=86f4c95b-37f0-4f68-b16e-1a772c8371a8","ios":"levelo://app?vid=86f4c95b-37f0-4f68-b16e-1a772c8371a8"},"vehicle_type_id":"4","last_reported":1740053873,"current_range_meters":8800,"station_id":"ce4bh512rcd13ifvqe3g","pricing_plan_id":"cebpf4jnsgd1na2vs0mg"},{"bike_id":"e1635589-a58b-4a69-a272-7bcd776fbb53","system_id":"levelo_inurba_marseille","lat":43.25933,"lon":5.40869,"is_reserved":false,"is_disabled":false,"rental_uris":{"android":"levelo://app?vid=e1635589-a58b-4a69-a272-7bcd776fbb53","ios":"levelo://app?vid=e1635589-a58b-4a69-a272-7bcd776fbb53"},"vehicle_type_id":"4","last_reported":1740053873,"current_range_meters":8800,"station_id":"ce4bhm92rcd13ifvqglg","pricing_plan_id":"cebpf4jnsgd1na2vs0mg"},{"bike_id":"104b15c6-bf74-407c-9a34-de8a1be58e4f","system_id":"levelo_inurba_marseille","lat":43.29208,"lon":5.37291,"is_reserved":false,"is_disabled":false,"rental_uris":{"android":"levelo://app?vid=104b15c6-bf74-407c-9a34-de8a1be58e4f","ios":"levelo://app?vid=104b15c6-bf74-407c-9a34-de8a1be58e4f"},"vehicle_type_id":"4","last_reported":1740053873,"current_range_meters":8800,"station_id":"","pricing_plan_id":"cebpf4jnsgd1na2vs0mg"},{"bike_id":"5180f318-4948-4085-aaf1-5f3160b57dbe","system_id":"levelo_inurba_marseille","lat":43.27605,"lon":5.36124,"is_reserved":false,"is_disabled":true,"rental_uris":{"android":"levelo://app?vid=5180f318-4948-4085-aaf1-5f3160b57dbe","ios":"levelo://app?vid=5180f318-4948-4085-aaf1-5f3160b57dbe"},"vehicle_type_id":"4","last_reported":1740053873,"current_range_meters":8800,"station_id":"","pricing_plan_id":"cebpf4jnsgd1na2vs0mg"},{"bike_id":"26779595-c177-40e8-a988-d5570ab1009d","system_id":"levelo_inurba_marseille","lat":43.29204,"lon":5.39786,"is_reserved":false,"is_disabled":false,"rental_uris":{"android":"levelo://app?vid=26779595-c177-40e8-a988-d5570ab1009d","ios":"levelo://app?vid=26779595-c177-40e8-a988-d5570ab1009d"},"vehicle_type_id":"4","last_reported":1740053873,"current_range_meters":9200,"station_id":"","pricing_plan_id":"cebpf4jnsgd1na2vs0mg"},{"bike_id":"fc971b16-bef3-4b6d-813c-ffc8ffa48842","system_id":"levelo_inurba_marseille","lat":43.2841,"lon":5.34986,"is_reserved":false,"is_disabled":true,"rental_uris":{"android":"levelo://app?vid=fc971b16-bef3-4b6d-813c-ffc8ffa48842","ios":"levelo://app?vid=fc971b16-bef3-4b6d-813c-ffc8ffa48842"},"vehicle_type_id":"4","last_reported":1740053873,"current_range_meters":9200,"station_id":"","pricing_plan_id":"cebpf4jnsgd1na2vs0mg"},{"bike_id":"c344789d-c362-498c-aa9b-aa2e440bfbf0","system_id":"levelo_inurba_marseille","lat":43.32368,"lon":5.36773,"is_reserved":false,"is_disabled":false,"rental_uris":{"android":"levelo://app?vid=c344789d-c362-498c-aa9b-aa2e440bfbf0","ios":"levelo://app?vid=c344789d-c362-498c-aa9b-aa2e440bfbf0"},"vehicle_type_id":"4","last_reported":1740053873,"current_range_meters":9200,"station_id":"ce4bhsh2rcd13ifvqi2g","pricing_plan_id":"cebpf4jnsgd1na2vs0mg"},{"bike_id":"7ee2f46d-cffb-4e12-bd63-8926020f9473","system_id":"levelo_inurba_marseille","lat":43.29866,"lon":5.39726,"is_reserved":false,"is_disabled":false,"rental_uris":{"android":"levelo://app?vid=7ee2f46d-cffb-4e12-bd63-8926020f9473","ios":"levelo://app?vid=7ee2f46d-cffb-4e12-bd63-8926020f9473"},"vehicle_type_id":"4","last_reported":1740053873,"current_range_meters":9200,"station_id":"ce4bh0h2rcd13ifvqd50","pricing_plan_id":"cebpf4jnsgd1na2vs0mg"},{"bike_id":"201ed5b5-4e38-439e-91de-f0932d416864","system_id":"levelo_inurba_marseille","lat":43.27899,"lon":5.37998,"is_reserved":false,"is_disabled":false,"rental_uris":{"android":"levelo://app?vid=201ed5b5-4e38-439e-91de-f0932d416864","ios":"levelo://app?vid=201ed5b5-4e38-439e-91de-f0932d416864"},"vehicle_type_id":"4","last_reported":1740053873,"current_range_meters":9200,"station_id":"","pricing_plan_id":"cebpf4jnsgd1na2vs0mg"},{"bike_id":"594e7ed4-ae80-4920-ac1b-3a0e998a3722","system_id":"levelo_inurba_marseille","lat":43.31338,"lon":5.39701,"is_reserved":false,"is_disabled":false,"rental_uris":{"android":"levelo://app?vid=594e7ed4-ae80-4920-ac1b-3a0e998a3722","ios":"levelo://app?vid=594e7ed4-ae80-4920-ac1b-3a0e998a3722"},"vehicle_type_id":"4","last_reported":1740053873,"current_range_meters":9600,"station_id":"ce4bgvp2rcd13ifvqcu0","pricing_plan_id":"cebpf4jnsgd1na2vs0mg"},{"bike_id":"9a1b3d0e-0204-43c9-9424-ed408755d9dd","system_id":"levelo_inurba_marseille","lat":43.25726,"lon":5.41105,"is_reserved":false,"is_disabled":false,"rental_uris":{"android":"levelo://app?vid=9a1b3d0e-0204-43c9-9424-ed408755d9dd","ios":"levelo://app?vid=9a1b3d0e-0204-43c9-9424-ed408755d9dd"},"vehicle_type_id":"4","last_reported":1740053873,"current_range_meters":9600,"station_id":"ce4bhkp2rcd13ifvqgd0","pricing_plan_id":"cebpf4jnsgd1na2vs0mg"},{"bike_id":"45ce2689-3d95-4f61-ae25-bcbe1d90eb9c","system_id":"levelo_inurba_marseille","lat":43.30949,"lon":5.39029,"is_reserved":false,"is_disabled":false,"rental_uris":{"android":"levelo://app?vid=45ce2689-3d95-4f61-ae25-bcbe1d90eb9c","ios":"levelo://app?vid=45ce2689-3d95-4f61-ae25-bcbe1d90eb9c"},"vehicle_type_id":"4","last_reported":1740053873,"current_range_meters":9600,"station_id":"ce4bgup2rcd13ifvqco0","pricing_plan_id":"cebpf4jnsgd1na2vs0mg"},{"bike_id":"cea5e88c-c467-4100-b0da-e152ac5a03c1","system_id":"levelo_inurba_marseille","lat":43.2791,"lon":5.37992,"is_reserved":false,"is_disabled":false,"rental_uris":{"android":"levelo://app?vid=cea5e88c-c467-4100-b0da-e152ac5a03c1","ios":"levelo://app?vid=cea5e88c-c467-4100-b0da-e152ac5a03c1"},"vehicle_type_id":"4","last_reported":1740053873,"current_range_meters":9600,"station_id":"","pricing_plan_id":"cebpf4jnsgd1na2vs0mg"},{"bike_id":"0686e433-82b6-4ced-b364-39b66b6a0983","system_id":"levelo_inurba_marseille","lat":43.255799,"lon":5.382359,"is_reserved":false,"is_disabled":false,"rental_uris":{"android":"levelo://app?vid=0686e433-82b6-4ced-b364-39b66b6a0983","ios":"levelo://app?vid=0686e433-82b6-4ced-b364-39b66b6a0983"},"vehicle_type_id":"4","last_reported":1740053873,"current_range_meters":9600,"station_id":"ce4bhih2rcd13ifvqfs0","pricing_plan_id":"cebpf4jnsgd1na2vs0mg"},{"bike_id":"d145d9fa-4eb2-420a-b148-7b29aadc0ea9","system_id":"levelo_inurba_marseille","lat":43.3095,"lon":5.39031,"is_reserved":false,"is_disabled":false,"rental_uris":{"android":"levelo://app?vid=d145d9fa-4eb2-420a-b148-7b29aadc0ea9","ios":"levelo://app?vid=d145d9fa-4eb2-420a-b148-7b29aadc0ea9"},"vehicle_type_id":"4","last_reported":1740053873,"current_range_meters":9600,"station_id":"ce4bgup2rcd13ifvqco0","pricing_plan_id":"cebpf4jnsgd1na2vs0mg"},{"bike_id":"058213af-b61b-486b-8e0a-0a8fd78595de","system_id":"levelo_inurba_marseille","lat":43.25094,"lon":5.39519,"is_reserved":false,"is_disabled":false,"rental_uris":{"android":"levelo://app?vid=058213af-b61b-486b-8e0a-0a8fd78595de","ios":"levelo://app?vid=058213af-b61b-486b-8e0a-0a8fd78595de"},"vehicle_type_id":"4","last_reported":1740053873,"current_range_meters":9600,"station_id":"ce4bhm12rcd13ifvqgkg","pricing_plan_id":"cebpf4jnsgd1na2vs0mg"},{"bike_id":"5428c4a6-2268-45c5-aff9-a5f8e308d92b","system_id":"levelo_inurba_marseille","lat":43.30952,"lon":5.37265,"is_reserved":false,"is_disabled":false,"rental_uris":{"android":"levelo://app?vid=5428c4a6-2268-45c5-aff9-a5f8e308d92b","ios":"levelo://app?vid=5428c4a6-2268-45c5-aff9-a5f8e308d92b"},"vehicle_type_id":"4","last_reported":1740053873,"current_range_meters":10000,"station_id":"ce4bguh2rcd13ifvqckg","pricing_plan_id":"cebpf4jnsgd1na2vs0mg"},{"bike_id":"0d34eb8c-c749-410b-a515-4800435ee933","system_id":"levelo_inurba_marseille","lat":43.24168,"lon":5.36399,"is_reserved":false,"is_disabled":false,"rental_uris":{"android":"levelo://app?vid=0d34eb8c-c749-410b-a515-4800435ee933","ios":"levelo://app?vid=0d34eb8c-c749-410b-a515-4800435ee933"},"vehicle_type_id":"4","last_reported":1740053873,"current_range_meters":10000,"station_id":"cpo36qri1sfpv3e86is0","pricing_plan_id":"cebpf4jnsgd1na2vs0mg"},{"bike_id":"1a77eac2-deb8-4f16-9ffb-79804812acc8","system_id":"levelo_inurba_marseille","lat":43.27376,"lon":5.36259,"is_reserved":false,"is_disabled":false,"rental_uris":{"android":"levelo://app?vid=1a77eac2-deb8-4f16-9ffb-79804812acc8","ios":"levelo://app?vid=1a77eac2-deb8-4f16-9ffb-79804812acc8"},"vehicle_type_id":"4","last_reported":1740053873,"current_range_meters":9600,"station_id":"ce4bhbh2rcd13ifvqeo0","pricing_plan_id":"cebpf4jnsgd1na2vs0mg"},{"bike_id":"46e9f51e-b9ef-4a2b-b954-42af97c9998e","system_id":"levelo_inurba_marseille","lat":43.31703,"lon":5.43705,"is_reserved":false,"is_disabled":false,"rental_uris":{"android":"levelo://app?vid=46e9f51e-b9ef-4a2b-b954-42af97c9998e","ios":"levelo://app?vid=46e9f51e-b9ef-4a2b-b954-42af97c9998e"},"vehicle_type_id":"4","last_reported":1740053873,"current_range_meters":10000,"station_id":"","pricing_plan_id":"cebpf4jnsgd1na2vs0mg"},{"bike_id":"aaebd9dd-8739-4bac-8523-b40333411361","system_id":"levelo_inurba_marseille","lat":43.28432,"lon":5.3918,"is_reserved":false,"is_disabled":false,"rental_uris":{"android":"levelo://app?vid=aaebd9dd-8739-4bac-8523-b40333411361","ios":"levelo://app?vid=aaebd9dd-8739-4bac-8523-b40333411361"},"vehicle_type_id":"4","last_reported":1740053873,"current_range_meters":10800,"station_id":"","pricing_plan_id":"cebpf4jnsgd1na2vs0mg"},{"bike_id":"5f9ede52-c720-4107-a864-980fb2608395","system_id":"levelo_inurba_marseille","lat":43.24101,"lon":5.38704,"is_reserved":false,"is_disabled":false,"rental_uris":{"android":"levelo://app?vid=5f9ede52-c720-4107-a864-980fb2608395","ios":"levelo://app?vid=5f9ede52-c720-4107-a864-980fb2608395"},"vehicle_type_id":"4","last_reported":1740053873,"current_range_meters":10800,"station_id":"ce4bhb92rcd13ifvqen0","pricing_plan_id":"cebpf4jnsgd1na2vs0mg"},{"bike_id":"6a7343ae-6f4c-427b-a7a9-6e5fc8dfa867","system_id":"levelo_inurba_marseille","lat":43.28486,"lon":5.38427,"is_reserved":false,"is_disabled":false,"rental_uris":{"android":"levelo://app?vid=6a7343ae-6f4c-427b-a7a9-6e5fc8dfa867","ios":"levelo://app?vid=6a7343ae-6f4c-427b-a7a9-6e5fc8dfa867"},"vehicle_type_id":"4","last_reported":1740053873,"current_range_meters":10800,"station_id":"ce4bh512rcd13ifvqe3g","pricing_plan_id":"cebpf4jnsgd1na2vs0mg"},{"bike_id":"4da6cc22-4d46-4a7c-8914-7b17d72dd95a","system_id":"levelo_inurba_marseille","lat":43.27175,"lon":5.4099,"is_reserved":false,"is_disabled":false,"rental_uris":{"android":"levelo://app?vid=4da6cc22-4d46-4a7c-8914-7b17d72dd95a","ios":"levelo://app?vid=4da6cc22-4d46-4a7c-8914-7b17d72dd95a"},"vehicle_type_id":"4","last_reported":1740053873,"current_range_meters":10800,"station_id":"ce4bhl12rcd13ifvqgf0","pricing_plan_id":"cebpf4jnsgd1na2vs0mg"},{"bike_id":"77ac049b-6848-4db1-94df-a16d6879e316","system_id":"levelo_inurba_marseille","lat":43.23193,"lon":5.35553,"is_reserved":false,"is_disabled":false,"rental_uris":{"android":"levelo://app?vid=77ac049b-6848-4db1-94df-a16d6879e316","ios":"levelo://app?vid=77ac049b-6848-4db1-94df-a16d6879e316"},"vehicle_type_id":"4","last_reported":1740053873,"current_range_meters":11200,"station_id":"","pricing_plan_id":"cebpf4jnsgd1na2vs0mg"},{"bike_id":"358f76ea-f584-4219-958b-460c0bb32bf7","system_id":"levelo_inurba_marseille","lat":43.31478,"lon":5.38573,"is_reserved":false,"is_disabled":false,"rental_uris":{"android":"levelo://app?vid=358f76ea-f584-4219-958b-460c0bb32bf7","ios":"levelo://app?vid=358f76ea-f584-4219-958b-460c0bb32bf7"},"vehicle_type_id":"4","last_reported":1740053873,"current_range_meters":11200,"station_id":"ce4bgt92rcd13ifvqcf0","pricing_plan_id":"cebpf4jnsgd1na2vs0mg"},{"bike_id":"ba379239-9216-4e46-a96c-a73988d910ff","system_id":"levelo_inurba_marseille","lat":43.26491,"lon":5.37145,"is_reserved":false,"is_disabled":false,"rental_uris":{"android":"levelo://app?vid=ba379239-9216-4e46-a96c-a73988d910ff","ios":"levelo://app?vid=ba379239-9216-4e46-a96c-a73988d910ff"},"vehicle_type_id":"4","last_reported":1740053873,"current_range_meters":11200,"station_id":"","pricing_plan_id":"cebpf4jnsgd1na2vs0mg"},{"bike_id":"7b19744e-f24f-4b7d-94e9-2a8fd4a78d0d","system_id":"levelo_inurba_marseille","lat":43.23214,"lon":5.35558,"is_reserved":false,"is_disabled":false,"rental_uris":{"android":"levelo://app?vid=7b19744e-f24f-4b7d-94e9-2a8fd4a78d0d","ios":"levelo://app?vid=7b19744e-f24f-4b7d-94e9-2a8fd4a78d0d"},"vehicle_type_id":"4","last_reported":1740053873,"current_range_meters":11200,"station_id":"","pricing_plan_id":"cebpf4jnsgd1na2vs0mg"},{"bike_id":"30f781b4-0c37-4f06-8146-403e76b61b21","system_id":"levelo_inurba_marseille","lat":43.29721,"lon":5.37744,"is_reserved":false,"is_disabled":false,"rental_uris":{"android":"levelo://app?vid=30f781b4-0c37-4f06-8146-403e76b61b21","ios":"levelo://app?vid=30f781b4-0c37-4f06-8146-403e76b61b21"},"vehicle_type_id":"4","last_reported":1740053873,"current_range_meters":11200,"station_id":"","pricing_plan_id":"cebpf4jnsgd1na2vs0mg"},{"bike_id":"ba93850d-5460-4501-a6ed-a71a7f8be937","system_id":"levelo_inurba_marseille","lat":43.29506,"lon":5.37503,"is_reserved":false,"is_disabled":false,"rental_uris":{"android":"levelo://app?vid=ba93850d-5460-4501-a6ed-a71a7f8be937","ios":"levelo://app?vid=ba93850d-5460-4501-a6ed-a71a7f8be937"},"vehicle_type_id":"4","last_reported":1740053873,"current_range_meters":11600,"station_id":"ce4bgkp2rcd13ifvqbmg","pricing_plan_id":"cebpf4jnsgd1na2vs0mg"},{"bike_id":"341bae22-75f3-4766-8fd7-413e8c4a7fee","system_id":"levelo_inurba_marseille","lat":43.2681,"lon":5.40254,"is_reserved":false,"is_disabled":false,"rental_uris":{"android":"levelo://app?vid=341bae22-75f3-4766-8fd7-413e8c4a7fee","ios":"levelo://app?vid=341bae22-75f3-4766-8fd7-413e8c4a7fee"},"vehicle_type_id":"4","last_reported":1740053873,"current_range_meters":11600,"station_id":"ce501612rcd8frsf0b60","pricing_plan_id":"cebpf4jnsgd1na2vs0mg"},{"bike_id":"e65f345e-7d7f-49ab-890f-11ea50da293b","system_id":"levelo_inurba_marseille","lat":43.24545,"lon":5.39522,"is_reserved":false,"is_disabled":false,"rental_uris":{"android":"levelo://app?vid=e65f345e-7d7f-49ab-890f-11ea50da293b","ios":"levelo://app?vid=e65f345e-7d7f-49ab-890f-11ea50da293b"},"vehicle_type_id":"4","last_reported":1740053873,"current_range_meters":11600,"station_id":"","pricing_plan_id":"cebpf4jnsgd1na2vs0mg"},{"bike_id":"3904da9c-2370-4925-9477-a21507c064ce","system_id":"levelo_inurba_marseille","lat":43.23975,"lon":5.36649,"is_reserved":false,"is_disabled":false,"rental_uris":{"android":"levelo://app?vid=3904da9c-2370-4925-9477-a21507c064ce","ios":"levelo://app?vid=3904da9c-2370-4925-9477-a21507c064ce"},"vehicle_type_id":"4","last_reported":1740053873,"current_range_meters":11600,"station_id":"ce4bhi12rcd13ifvqfp0","pricing_plan_id":"cebpf4jnsgd1na2vs0mg"},{"bike_id":"6736d919-6b94-4636-9dc7-6414ff53170d","system_id":"levelo_inurba_marseille","lat":43.29843,"lon":5.36274,"is_reserved":false,"is_disabled":false,"rental_uris":{"android":"levelo://app?vid=6736d919-6b94-4636-9dc7-6414ff53170d","ios":"levelo://app?vid=6736d919-6b94-4636-9dc7-6414ff53170d"},"vehicle_type_id":"4","last_reported":1740053873,"current_range_meters":12000,"station_id":"ce4bgpp2rcd13ifvqc3g","pricing_plan_id":"cebpf4jnsgd1na2vs0mg"},{"bike_id":"64ce37fc-3b3f-4c88-b3ef-956cc814e512","system_id":"levelo_inurba_marseille","lat":43.29199,"lon":5.39317,"is_reserved":false,"is_disabled":false,"rental_uris":{"android":"levelo://app?vid=64ce37fc-3b3f-4c88-b3ef-956cc814e512","ios":"levelo://app?vid=64ce37fc-3b3f-4c88-b3ef-956cc814e512"},"vehicle_type_id":"4","last_reported":1740053873,"current_range_meters":11600,"station_id":"ce4bh192rcd13ifvqdd0","pricing_plan_id":"cebpf4jnsgd1na2vs0mg"},{"bike_id":"bea5a9cb-5097-4506-9c2b-bb8e93fdd20b","system_id":"levelo_inurba_marseille","lat":43.27318,"lon":5.39074,"is_reserved":false,"is_disabled":false,"rental_uris":{"android":"levelo://app?vid=bea5a9cb-5097-4506-9c2b-bb8e93fdd20b","ios":"levelo://app?vid=bea5a9cb-5097-4506-9c2b-bb8e93fdd20b"},"vehicle_type_id":"4","last_reported":1740053873,"current_range_meters":12400,"station_id":"ce4bhgp2rcd13ifvqfe0","pricing_plan_id":"cebpf4jnsgd1na2vs0mg"},{"bike_id":"3ebc1cd9-4c66-4f45-b886-8b491b059d05","system_id":"levelo_inurba_marseille","lat":43.29929,"lon":5.36539,"is_reserved":false,"is_disabled":false,"rental_uris":{"android":"levelo://app?vid=3ebc1cd9-4c66-4f45-b886-8b491b059d05","ios":"levelo://app?vid=3ebc1cd9-4c66-4f45-b886-8b491b059d05"},"vehicle_type_id":"4","last_reported":1740053873,"current_range_meters":12400,"station_id":"","pricing_plan_id":"cebpf4jnsgd1na2vs0mg"},{"bike_id":"049bb38b-6529-44d2-b7ae-88be68665475","system_id":"levelo_inurba_marseille","lat":43.30124,"lon":5.37414,"is_reserved":false,"is_disabled":false,"rental_uris":{"android":"levelo://app?vid=049bb38b-6529-44d2-b7ae-88be68665475","ios":"levelo://app?vid=049bb38b-6529-44d2-b7ae-88be68665475"},"vehicle_type_id":"4","last_reported":1740053873,"current_range_meters":12400,"station_id":"ce4bgs92rcd13ifvqcc0","pricing_plan_id":"cebpf4jnsgd1na2vs0mg"},{"bike_id":"af8a0d8f-7cc7-4809-b36f-532606d71bf3","system_id":"levelo_inurba_marseille","lat":43.28618,"lon":5.35108,"is_reserved":false,"is_disabled":false,"rental_uris":{"android":"levelo://app?vid=af8a0d8f-7cc7-4809-b36f-532606d71bf3","ios":"levelo://app?vid=af8a0d8f-7cc7-4809-b36f-532606d71bf3"},"vehicle_type_id":"4","last_reported":1740053873,"current_range_meters":12400,"station_id":"ce4bhch2rcd13ifvqeug","pricing_plan_id":"cebpf4jnsgd1na2vs0mg"},{"bike_id":"713aa691-dcfa-4d18-86e5-ba295c6d53b5","system_id":"levelo_inurba_marseille","lat":43.31239,"lon":5.36873,"is_reserved":false,"is_disabled":false,"rental_uris":{"android":"levelo://app?vid=713aa691-dcfa-4d18-86e5-ba295c6d53b5","ios":"levelo://app?vid=713aa691-dcfa-4d18-86e5-ba295c6d53b5"},"vehicle_type_id":"4","last_reported":1740053873,"current_range_meters":12400,"station_id":"ce4bgl92rcd13ifvqbq0","pricing_plan_id":"cebpf4jnsgd1na2vs0mg"},{"bike_id":"02294ecb-63f1-466c-86e6-f94378485dff","system_id":"levelo_inurba_marseille","lat":43.28162,"lon":5.42655,"is_reserved":false,"is_disabled":true,"rental_uris":{"android":"levelo://app?vid=02294ecb-63f1-466c-86e6-f94378485dff","ios":"levelo://app?vid=02294ecb-63f1-466c-86e6-f94378485dff"},"vehicle_type_id":"4","last_reported":1740053873,"current_range_meters":12400,"station_id":"ce4bhnh2rcd13ifvqgug","pricing_plan_id":"cebpf4jnsgd1na2vs0mg"},{"bike_id":"987de0c2-b9bd-4bef-ba52-5ce350e4cb1b","system_id":"levelo_inurba_marseille","lat":43.27974,"lon":5.41659,"is_reserved":false,"is_disabled":false,"rental_uris":{"android":"levelo://app?vid=987de0c2-b9bd-4bef-ba52-5ce350e4cb1b","ios":"levelo://app?vid=987de0c2-b9bd-4bef-ba52-5ce350e4cb1b"},"vehicle_type_id":"4","last_reported":1740053873,"current_range_meters":12400,"station_id":"ce4bho12rcd13ifvqh1g","pricing_plan_id":"cebpf4jnsgd1na2vs0mg"},{"bike_id":"eb957a26-bf17-4629-9ed7-6dbd66fbcbaf","system_id":"levelo_inurba_marseille","lat":43.28416,"lon":5.37497,"is_reserved":false,"is_disabled":false,"rental_uris":{"android":"levelo://app?vid=eb957a26-bf17-4629-9ed7-6dbd66fbcbaf","ios":"levelo://app?vid=eb957a26-bf17-4629-9ed7-6dbd66fbcbaf"},"vehicle_type_id":"4","last_reported":1740053873,"current_range_meters":12400,"station_id":"ce4bh412rcd13ifvqds0","pricing_plan_id":"cebpf4jnsgd1na2vs0mg"},{"bike_id":"e779dcfa-d4f6-4c4c-ac42-69401c9f7bc8","system_id":"levelo_inurba_marseille","lat":43.2926,"lon":5.38442,"is_reserved":false,"is_disabled":false,"rental_uris":{"android":"levelo://app?vid=e779dcfa-d4f6-4c4c-ac42-69401c9f7bc8","ios":"levelo://app?vid=e779dcfa-d4f6-4c4c-ac42-69401c9f7bc8"},"vehicle_type_id":"4","last_reported":1740053873,"current_range_meters":12400,"station_id":"ce4bh692rcd13ifvqea0","pricing_plan_id":"cebpf4jnsgd1na2vs0mg"},{"bike_id":"4131ed30-1f43-4452-84c1-9ce618cb7cc0","system_id":"levelo_inurba_marseille","lat":43.27208,"lon":5.39189,"is_reserved":false,"is_disabled":false,"rental_uris":{"android":"levelo://app?vid=4131ed30-1f43-4452-84c1-9ce618cb7cc0","ios":"levelo://app?vid=4131ed30-1f43-4452-84c1-9ce618cb7cc0"},"vehicle_type_id":"4","last_reported":1740053873,"current_range_meters":12400,"station_id":"ce4bhhp2rcd13ifvqfm0","pricing_plan_id":"cebpf4jnsgd1na2vs0mg"},{"bike_id":"635050f9-a2c9-4910-8267-ff5a32e2982d","system_id":"levelo_inurba_marseille","lat":43.24822,"lon":5.37461,"is_reserved":false,"is_disabled":true,"rental_uris":{"android":"levelo://app?vid=635050f9-a2c9-4910-8267-ff5a32e2982d","ios":"levelo://app?vid=635050f9-a2c9-4910-8267-ff5a32e2982d"},"vehicle_type_id":"4","last_reported":1740053873,"current_range_meters":12400,"station_id":"","pricing_plan_id":"cebpf4jnsgd1na2vs0mg"},{"bike_id":"e533a42a-367c-4f4c-95a6-278a76c8d762","system_id":"levelo_inurba_marseille","lat":43.276484,"lon":5.388897,"is_reserved":false,"is_disabled":false,"rental_uris":{"android":"levelo://app?vid=e533a42a-367c-4f4c-95a6-278a76c8d762","ios":"levelo://app?vid=e533a42a-367c-4f4c-95a6-278a76c8d762"},"vehicle_type_id":"4","last_reported":1740053873,"current_range_meters":12400,"station_id":"ce4bhi12rcd13ifvqfo0","pricing_plan_id":"cebpf4jnsgd1na2vs0mg"},{"bike_id":"9d38cb1b-e979-4f74-afdf-24753271fe02","system_id":"levelo_inurba_marseille","lat":43.29273,"lon":5.40117,"is_reserved":false,"is_disabled":false,"rental_uris":{"android":"levelo://app?vid=9d38cb1b-e979-4f74-afdf-24753271fe02","ios":"levelo://app?vid=9d38cb1b-e979-4f74-afdf-24753271fe02"},"vehicle_type_id":"4","last_reported":1740053873,"current_range_meters":12800,"station_id":"ce4bh312rcd13ifvqdk0","pricing_plan_id":"cebpf4jnsgd1na2vs0mg"},{"bike_id":"bfa1afdd-6221-4a91-82bd-d18819a67e02","system_id":"levelo_inurba_marseille","lat":43.244238,"lon":5.370237,"is_reserved":false,"is_disabled":false,"rental_uris":{"android":"levelo://app?vid=bfa1afdd-6221-4a91-82bd-d18819a67e02","ios":"levelo://app?vid=bfa1afdd-6221-4a91-82bd-d18819a67e02"},"vehicle_type_id":"4","last_reported":1740053873,"current_range_meters":12800,"station_id":"ce4bhnp2rcd13ifvqgvg","pricing_plan_id":"cebpf4jnsgd1na2vs0mg"},{"bike_id":"ad47c7e9-f91e-4c76-a821-e7d2287689bf","system_id":"levelo_inurba_marseille","lat":43.27954,"lon":5.41046,"is_reserved":false,"is_disabled":false,"rental_uris":{"android":"levelo://app?vid=ad47c7e9-f91e-4c76-a821-e7d2287689bf","ios":"levelo://app?vid=ad47c7e9-f91e-4c76-a821-e7d2287689bf"},"vehicle_type_id":"4","last_reported":1740053873,"current_range_meters":12800,"station_id":"ce4bhnp2rcd13ifvqh0g","pricing_plan_id":"cebpf4jnsgd1na2vs0mg"},{"bike_id":"a70af82e-abb1-4052-a908-3f6d7385acd1","system_id":"levelo_inurba_marseille","lat":43.28604,"lon":5.37058,"is_reserved":false,"is_disabled":false,"rental_uris":{"android":"levelo://app?vid=a70af82e-abb1-4052-a908-3f6d7385acd1","ios":"levelo://app?vid=a70af82e-abb1-4052-a908-3f6d7385acd1"},"vehicle_type_id":"4","last_reported":1740053873,"current_range_meters":12800,"station_id":"ce4bht12rcd13ifvqi60","pricing_plan_id":"cebpf4jnsgd1na2vs0mg"},{"bike_id":"d9102e21-6294-472e-8da2-16dfb746ec2b","system_id":"levelo_inurba_marseille","lat":43.28138,"lon":5.44577,"is_reserved":false,"is_disabled":false,"rental_uris":{"android":"levelo://app?vid=d9102e21-6294-472e-8da2-16dfb746ec2b","ios":"levelo://app?vid=d9102e21-6294-472e-8da2-16dfb746ec2b"},"vehicle_type_id":"4","last_reported":1740053873,"current_range_meters":12800,"station_id":"ce4bhnh2rcd13ifvqgtg","pricing_plan_id":"cebpf4jnsgd1na2vs0mg"},{"bike_id":"3bad0b07-fa7a-4cc7-9650-b1214bfaef19","system_id":"levelo_inurba_marseille","lat":43.28152,"lon":5.4264,"is_reserved":false,"is_disabled":false,"rental_uris":{"android":"levelo://app?vid=3bad0b07-fa7a-4cc7-9650-b1214bfaef19","ios":"levelo://app?vid=3bad0b07-fa7a-4cc7-9650-b1214bfaef19"},"vehicle_type_id":"4","last_reported":1740053873,"current_range_meters":13600,"station_id":"ce4bhnh2rcd13ifvqgug","pricing_plan_id":"cebpf4jnsgd1na2vs0mg"},{"bike_id":"8becd64c-893d-4a08-8876-b1598e031c70","system_id":"levelo_inurba_marseille","lat":43.27963,"lon":5.38691,"is_reserved":false,"is_disabled":true,"rental_uris":{"android":"levelo://app?vid=8becd64c-893d-4a08-8876-b1598e031c70","ios":"levelo://app?vid=8becd64c-893d-4a08-8876-b1598e031c70"},"vehicle_type_id":"4","last_reported":1740053873,"current_range_meters":13600,"station_id":"","pricing_plan_id":"cebpf4jnsgd1na2vs0mg"},{"bike_id":"023ec72c-d164-42e6-a357-cee71b5b9a17","system_id":"levelo_inurba_marseille","lat":43.30309,"lon":5.36901,"is_reserved":false,"is_disabled":false,"rental_uris":{"android":"levelo://app?vid=023ec72c-d164-42e6-a357-cee71b5b9a17","ios":"levelo://app?vid=023ec72c-d164-42e6-a357-cee71b5b9a17"},"vehicle_type_id":"4","last_reported":1740053873,"current_range_meters":13600,"station_id":"ce4bgqh2rcd13ifvqc5g","pricing_plan_id":"cebpf4jnsgd1na2vs0mg"},{"bike_id":"6885618a-7cc9-40b2-9140-d18b33ce23c2","system_id":"levelo_inurba_marseille","lat":43.27913,"lon":5.39571,"is_reserved":false,"is_disabled":false,"rental_uris":{"android":"levelo://app?vid=6885618a-7cc9-40b2-9140-d18b33ce23c2","ios":"levelo://app?vid=6885618a-7cc9-40b2-9140-d18b33ce23c2"},"vehicle_type_id":"4","last_reported":1740053873,"current_range_meters":13600,"station_id":"ce4bhf92rcd13ifvqf40","pricing_plan_id":"cebpf4jnsgd1na2vs0mg"},{"bike_id":"cc1b11d9-2a71-4d8a-ada6-c148a8cf72cb","system_id":"levelo_inurba_marseille","lat":43.308965,"lon":5.380478,"is_reserved":false,"is_disabled":false,"rental_uris":{"android":"levelo://app?vid=cc1b11d9-2a71-4d8a-ada6-c148a8cf72cb","ios":"levelo://app?vid=cc1b11d9-2a71-4d8a-ada6-c148a8cf72cb"},"vehicle_type_id":"4","last_reported":1740053873,"current_range_meters":12800,"station_id":"ce4bgg92rcd13ifvqb30","pricing_plan_id":"cebpf4jnsgd1na2vs0mg"},{"bike_id":"e57c9bc0-0acd-45cf-960e-860bda9e0ce5","system_id":"levelo_inurba_marseille","lat":43.30886,"lon":5.37174,"is_reserved":false,"is_disabled":false,"rental_uris":{"android":"levelo://app?vid=e57c9bc0-0acd-45cf-960e-860bda9e0ce5","ios":"levelo://app?vid=e57c9bc0-0acd-45cf-960e-860bda9e0ce5"},"vehicle_type_id":"4","last_reported":1740053873,"current_range_meters":13600,"station_id":"ce4bguh2rcd13ifvqckg","pricing_plan_id":"cebpf4jnsgd1na2vs0mg"},{"bike_id":"53324156-0b5f-4ee4-beb8-65d71f0308f4","system_id":"levelo_inurba_marseille","lat":43.26568,"lon":5.39009,"is_reserved":false,"is_disabled":false,"rental_uris":{"android":"levelo://app?vid=53324156-0b5f-4ee4-beb8-65d71f0308f4","ios":"levelo://app?vid=53324156-0b5f-4ee4-beb8-65d71f0308f4"},"vehicle_type_id":"4","last_reported":1740053873,"current_range_meters":13600,"station_id":"ce4bhe12rcd13ifvqf30","pricing_plan_id":"cebpf4jnsgd1na2vs0mg"},{"bike_id":"a1a2b460-b478-43af-913b-5e3f11e44138","system_id":"levelo_inurba_marseille","lat":43.271872,"lon":5.382737,"is_reserved":false,"is_disabled":false,"rental_uris":{"android":"levelo://app?vid=a1a2b460-b478-43af-913b-5e3f11e44138","ios":"levelo://app?vid=a1a2b460-b478-43af-913b-5e3f11e44138"},"vehicle_type_id":"4","last_reported":1740053873,"current_range_meters":13600,"station_id":"","pricing_plan_id":"cebpf4jnsgd1na2vs0mg"},{"bike_id":"867e49ca-1fcf-4c4a-b641-c20eee771353","system_id":"levelo_inurba_marseille","lat":43.28174,"lon":5.42651,"is_reserved":false,"is_disabled":false,"rental_uris":{"android":"levelo://app?vid=867e49ca-1fcf-4c4a-b641-c20eee771353","ios":"levelo://app?vid=867e49ca-1fcf-4c4a-b641-c20eee771353"},"vehicle_type_id":"4","last_reported":1740053873,"current_range_meters":14000,"station_id":"","pricing_plan_id":"cebpf4jnsgd1na2vs0mg"},{"bike_id":"3addd8d2-327f-4e60-8639-267e28d7c956","system_id":"levelo_inurba_marseille","lat":43.28665,"lon":5.38677,"is_reserved":false,"is_disabled":true,"rental_uris":{"android":"levelo://app?vid=3addd8d2-327f-4e60-8639-267e28d7c956","ios":"levelo://app?vid=3addd8d2-327f-4e60-8639-267e28d7c956"},"vehicle_type_id":"4","last_reported":1740053873,"current_range_meters":14000,"station_id":"","pricing_plan_id":"cebpf4jnsgd1na2vs0mg"},{"bike_id":"601afe4a-25bf-4b56-a5ec-02075de1ee82","system_id":"levelo_inurba_marseille","lat":43.230613,"lon":5.35494,"is_reserved":false,"is_disabled":false,"rental_uris":{"android":"levelo://app?vid=601afe4a-25bf-4b56-a5ec-02075de1ee82","ios":"levelo://app?vid=601afe4a-25bf-4b56-a5ec-02075de1ee82"},"vehicle_type_id":"4","last_reported":1740053873,"current_range_meters":14000,"station_id":"cpo3342slgdg3j2ifvpg","pricing_plan_id":"cebpf4jnsgd1na2vs0mg"},{"bike_id":"4be223db-6d37-41cb-a4f6-bc1db137e77a","system_id":"levelo_inurba_marseille","lat":43.294173,"lon":5.386213,"is_reserved":false,"is_disabled":true,"rental_uris":{"android":"levelo://app?vid=4be223db-6d37-41cb-a4f6-bc1db137e77a","ios":"levelo://app?vid=4be223db-6d37-41cb-a4f6-bc1db137e77a"},"vehicle_type_id":"4","last_reported":1740053873,"current_range_meters":14000,"station_id":"ce4bh2h2rcd13ifvqdh0","pricing_plan_id":"cebpf4jnsgd1na2vs0mg"},{"bike_id":"35cdc792-a7d5-4315-be5b-8aec986c50f8","system_id":"levelo_inurba_marseille","lat":43.29567,"lon":5.39958,"is_reserved":false,"is_disabled":true,"rental_uris":{"android":"levelo://app?vid=35cdc792-a7d5-4315-be5b-8aec986c50f8","ios":"levelo://app?vid=35cdc792-a7d5-4315-be5b-8aec986c50f8"},"vehicle_type_id":"4","last_reported":1740053873,"current_range_meters":14400,"station_id":"ce4bh312rcd13ifvqdj0","pricing_plan_id":"cebpf4jnsgd1na2vs0mg"},{"bike_id":"9786a26a-800b-4393-bf29-c5e64b2b9571","system_id":"levelo_inurba_marseille","lat":43.33729,"lon":5.39184,"is_reserved":false,"is_disabled":false,"rental_uris":{"android":"levelo://app?vid=9786a26a-800b-4393-bf29-c5e64b2b9571","ios":"levelo://app?vid=9786a26a-800b-4393-bf29-c5e64b2b9571"},"vehicle_type_id":"4","last_reported":1740053873,"current_range_meters":14400,"station_id":"ce4bhr92rcd13ifvqhsg","pricing_plan_id":"cebpf4jnsgd1na2vs0mg"},{"bike_id":"378a21a7-b1ec-4051-850d-b470f3510d96","system_id":"levelo_inurba_marseille","lat":43.26817,"lon":5.40259,"is_reserved":false,"is_disabled":true,"rental_uris":{"android":"levelo://app?vid=378a21a7-b1ec-4051-850d-b470f3510d96","ios":"levelo://app?vid=378a21a7-b1ec-4051-850d-b470f3510d96"},"vehicle_type_id":"4","last_reported":1740053873,"current_range_meters":14400,"station_id":"ce501612rcd8frsf0b60","pricing_plan_id":"cebpf4jnsgd1na2vs0mg"},{"bike_id":"3447e7b6-f8ed-4872-a45f-cf3cd80ed8ad","system_id":"levelo_inurba_marseille","lat":43.29732,"lon":5.37892,"is_reserved":false,"is_disabled":false,"rental_uris":{"android":"levelo://app?vid=3447e7b6-f8ed-4872-a45f-cf3cd80ed8ad","ios":"levelo://app?vid=3447e7b6-f8ed-4872-a45f-cf3cd80ed8ad"},"vehicle_type_id":"4","last_reported":1740053873,"current_range_meters":14400,"station_id":"ce4bguh2rcd13ifvqckg","pricing_plan_id":"cebpf4jnsgd1na2vs0mg"},{"bike_id":"5ff24b8e-1c99-4eef-b501-322474842fe2","system_id":"levelo_inurba_marseille","lat":43.29703,"lon":5.36611,"is_reserved":false,"is_disabled":false,"rental_uris":{"android":"levelo://app?vid=5ff24b8e-1c99-4eef-b501-322474842fe2","ios":"levelo://app?vid=5ff24b8e-1c99-4eef-b501-322474842fe2"},"vehicle_type_id":"4","last_reported":1740053873,"current_range_meters":14000,"station_id":"ce4bgn12rcd13ifvqbt0","pricing_plan_id":"cebpf4jnsgd1na2vs0mg"},{"bike_id":"81192873-4d38-4061-82a0-70521ec3ade0","system_id":"levelo_inurba_marseille","lat":43.2941,"lon":5.3861,"is_reserved":false,"is_disabled":true,"rental_uris":{"android":"levelo://app?vid=81192873-4d38-4061-82a0-70521ec3ade0","ios":"levelo://app?vid=81192873-4d38-4061-82a0-70521ec3ade0"},"vehicle_type_id":"4","last_reported":1740053873,"current_range_meters":14400,"station_id":"","pricing_plan_id":"cebpf4jnsgd1na2vs0mg"},{"bike_id":"195ed1a3-f345-4983-9e14-e6017ed24c59","system_id":"levelo_inurba_marseille","lat":43.288818,"lon":5.380019,"is_reserved":false,"is_disabled":false,"rental_uris":{"android":"levelo://app?vid=195ed1a3-f345-4983-9e14-e6017ed24c59","ios":"levelo://app?vid=195ed1a3-f345-4983-9e14-e6017ed24c59"},"vehicle_type_id":"4","last_reported":1740053873,"current_range_meters":14800,"station_id":"ce4bh9p2rcd13ifvqed0","pricing_plan_id":"cebpf4jnsgd1na2vs0mg"},{"bike_id":"2248a686-da6b-4ef8-880e-8db6a1c23aab","system_id":"levelo_inurba_marseille","lat":43.27392,"lon":5.36254,"is_reserved":false,"is_disabled":false,"rental_uris":{"android":"levelo://app?vid=2248a686-da6b-4ef8-880e-8db6a1c23aab","ios":"levelo://app?vid=2248a686-da6b-4ef8-880e-8db6a1c23aab"},"vehicle_type_id":"4","last_reported":1740053873,"current_range_meters":14800,"station_id":"","pricing_plan_id":"cebpf4jnsgd1na2vs0mg"},{"bike_id":"e53b91c8-67fd-4f40-acea-7f7adf31cf25","system_id":"levelo_inurba_marseille","lat":43.29767,"lon":5.38084,"is_reserved":false,"is_disabled":false,"rental_uris":{"android":"levelo://app?vid=e53b91c8-67fd-4f40-acea-7f7adf31cf25","ios":"levelo://app?vid=e53b91c8-67fd-4f40-acea-7f7adf31cf25"},"vehicle_type_id":"4","last_reported":1740053873,"current_range_meters":14800,"station_id":"","pricing_plan_id":"cebpf4jnsgd1na2vs0mg"},{"bike_id":"c78d2ed2-63ad-45db-80eb-999899fb9ab6","system_id":"levelo_inurba_marseille","lat":43.337444,"lon":5.374475,"is_reserved":false,"is_disabled":false,"rental_uris":{"android":"levelo://app?vid=c78d2ed2-63ad-45db-80eb-999899fb9ab6","ios":"levelo://app?vid=c78d2ed2-63ad-45db-80eb-999899fb9ab6"},"vehicle_type_id":"4","last_reported":1740053873,"current_range_meters":14800,"station_id":"","pricing_plan_id":"cebpf4jnsgd1na2vs0mg"},{"bike_id":"3bbb1aa0-3833-4003-a8f2-f680351315bc","system_id":"levelo_inurba_marseille","lat":43.28815,"lon":5.35847,"is_reserved":false,"is_disabled":false,"rental_uris":{"android":"levelo://app?vid=3bbb1aa0-3833-4003-a8f2-f680351315bc","ios":"levelo://app?vid=3bbb1aa0-3833-4003-a8f2-f680351315bc"},"vehicle_type_id":"4","last_reported":1740053873,"current_range_meters":15200,"station_id":"ce4bhb12rcd13ifvqem0","pricing_plan_id":"cebpf4jnsgd1na2vs0mg"},{"bike_id":"fe85977b-a22e-4193-a152-c3144029e068","system_id":"levelo_inurba_marseille","lat":43.23985,"lon":5.3661,"is_reserved":false,"is_disabled":false,"rental_uris":{"android":"levelo://app?vid=fe85977b-a22e-4193-a152-c3144029e068","ios":"levelo://app?vid=fe85977b-a22e-4193-a152-c3144029e068"},"vehicle_type_id":"4","last_reported":1740053873,"current_range_meters":15200,"station_id":"ce4bhi12rcd13ifvqfp0","pricing_plan_id":"cebpf4jnsgd1na2vs0mg"},{"bike_id":"f5b4d1ee-d614-44d8-8c18-e4488c7555fa","system_id":"levelo_inurba_marseille","lat":43.24717,"lon":5.38111,"is_reserved":false,"is_disabled":false,"rental_uris":{"android":"levelo://app?vid=f5b4d1ee-d614-44d8-8c18-e4488c7555fa","ios":"levelo://app?vid=f5b4d1ee-d614-44d8-8c18-e4488c7555fa"},"vehicle_type_id":"4","last_reported":1740053873,"current_range_meters":16000,"station_id":"ce4bhih2rcd13ifvqfr0","pricing_plan_id":"cebpf4jnsgd1na2vs0mg"},{"bike_id":"0a56f9d1-0a16-443d-8e0e-b767591ef2e6","system_id":"levelo_inurba_marseille","lat":43.26808,"lon":5.40267,"is_reserved":false,"is_disabled":false,"rental_uris":{"android":"levelo://app?vid=0a56f9d1-0a16-443d-8e0e-b767591ef2e6","ios":"levelo://app?vid=0a56f9d1-0a16-443d-8e0e-b767591ef2e6"},"vehicle_type_id":"4","last_reported":1740053873,"current_range_meters":16000,"station_id":"ce501612rcd8frsf0b60","pricing_plan_id":"cebpf4jnsgd1na2vs0mg"},{"bike_id":"ce0caea6-6d1c-48ef-b0eb-fae6199eb4e1","system_id":"levelo_inurba_marseille","lat":43.23066,"lon":5.35508,"is_reserved":false,"is_disabled":false,"rental_uris":{"android":"levelo://app?vid=ce0caea6-6d1c-48ef-b0eb-fae6199eb4e1","ios":"levelo://app?vid=ce0caea6-6d1c-48ef-b0eb-fae6199eb4e1"},"vehicle_type_id":"4","last_reported":1740053873,"current_range_meters":16000,"station_id":"cpo3342slgdg3j2ifvpg","pricing_plan_id":"cebpf4jnsgd1na2vs0mg"},{"bike_id":"ea745138-460b-4e17-a859-b1506abe4ed3","system_id":"levelo_inurba_marseille","lat":43.30172,"lon":5.37361,"is_reserved":false,"is_disabled":false,"rental_uris":{"android":"levelo://app?vid=ea745138-460b-4e17-a859-b1506abe4ed3","ios":"levelo://app?vid=ea745138-460b-4e17-a859-b1506abe4ed3"},"vehicle_type_id":"4","last_reported":1740053873,"current_range_meters":16000,"station_id":"ce4bgs92rcd13ifvqcc0","pricing_plan_id":"cebpf4jnsgd1na2vs0mg"},{"bike_id":"a80518aa-f08a-4a4b-96b7-999de2e33525","system_id":"levelo_inurba_marseille","lat":43.28998,"lon":5.35615,"is_reserved":false,"is_disabled":true,"rental_uris":{"android":"levelo://app?vid=a80518aa-f08a-4a4b-96b7-999de2e33525","ios":"levelo://app?vid=a80518aa-f08a-4a4b-96b7-999de2e33525"},"vehicle_type_id":"4","last_reported":1740053873,"current_range_meters":16000,"station_id":"ce4bhb92rcd13ifvqen0","pricing_plan_id":"cebpf4jnsgd1na2vs0mg"},{"bike_id":"b265a26e-d5bd-4e89-9486-8f4ae972affc","system_id":"levelo_inurba_marseille","lat":43.28421,"lon":5.34982,"is_reserved":false,"is_disabled":false,"rental_uris":{"android":"levelo://app?vid=b265a26e-d5bd-4e89-9486-8f4ae972affc","ios":"levelo://app?vid=b265a26e-d5bd-4e89-9486-8f4ae972affc"},"vehicle_type_id":"4","last_reported":1740053873,"current_range_meters":16000,"station_id":"ce4bhbh2rcd13ifvqepg","pricing_plan_id":"cebpf4jnsgd1na2vs0mg"},{"bike_id":"5a001ab7-5813-41f4-b1cb-bc211d4e2327","system_id":"levelo_inurba_marseille","lat":43.28001,"lon":5.40016,"is_reserved":false,"is_disabled":false,"rental_uris":{"android":"levelo://app?vid=5a001ab7-5813-41f4-b1cb-bc211d4e2327","ios":"levelo://app?vid=5a001ab7-5813-41f4-b1cb-bc211d4e2327"},"vehicle_type_id":"4","last_reported":1740053873,"current_range_meters":16000,"station_id":"ce4bho92rcd13ifvqh4g","pricing_plan_id":"cebpf4jnsgd1na2vs0mg"},{"bike_id":"1838b1bf-70c1-4179-bc34-4dcdb4794941","system_id":"levelo_inurba_marseille","lat":43.26206,"lon":5.37919,"is_reserved":false,"is_disabled":false,"rental_uris":{"android":"levelo://app?vid=1838b1bf-70c1-4179-bc34-4dcdb4794941","ios":"levelo://app?vid=1838b1bf-70c1-4179-bc34-4dcdb4794941"},"vehicle_type_id":"4","last_reported":1740053873,"current_range_meters":16400,"station_id":"ce4bhjp2rcd13ifvqg90","pricing_plan_id":"cebpf4jnsgd1na2vs0mg"},{"bike_id":"15cef14a-8e39-4e12-9572-8dfb246c81d8","system_id":"levelo_inurba_marseille","lat":43.28946,"lon":5.39639,"is_reserved":false,"is_disabled":false,"rental_uris":{"android":"levelo://app?vid=15cef14a-8e39-4e12-9572-8dfb246c81d8","ios":"levelo://app?vid=15cef14a-8e39-4e12-9572-8dfb246c81d8"},"vehicle_type_id":"4","last_reported":1740053873,"current_range_meters":16400,"station_id":"ce4bh3h2rcd13ifvqdn0","pricing_plan_id":"cebpf4jnsgd1na2vs0mg"},{"bike_id":"c72fcdb0-826e-424c-ade7-557f9c84df0a","system_id":"levelo_inurba_marseille","lat":43.27211,"lon":5.39176,"is_reserved":false,"is_disabled":false,"rental_uris":{"android":"levelo://app?vid=c72fcdb0-826e-424c-ade7-557f9c84df0a","ios":"levelo://app?vid=c72fcdb0-826e-424c-ade7-557f9c84df0a"},"vehicle_type_id":"4","last_reported":1740053873,"current_range_meters":16400,"station_id":"","pricing_plan_id":"cebpf4jnsgd1na2vs0mg"},{"bike_id":"560d223c-b4e7-4e1b-b550-fd5ce779d4d6","system_id":"levelo_inurba_marseille","lat":43.29577,"lon":5.3675,"is_reserved":false,"is_disabled":false,"rental_uris":{"android":"levelo://app?vid=560d223c-b4e7-4e1b-b550-fd5ce779d4d6","ios":"levelo://app?vid=560d223c-b4e7-4e1b-b550-fd5ce779d4d6"},"vehicle_type_id":"4","last_reported":1740053873,"current_range_meters":16000,"station_id":"ce4bgph2rcd13ifvqc2g","pricing_plan_id":"cebpf4jnsgd1na2vs0mg"},{"bike_id":"2d325a80-bb6d-45f9-abcd-4d4a5375f560","system_id":"levelo_inurba_marseille","lat":43.2939,"lon":5.37267,"is_reserved":false,"is_disabled":false,"rental_uris":{"android":"levelo://app?vid=2d325a80-bb6d-45f9-abcd-4d4a5375f560","ios":"levelo://app?vid=2d325a80-bb6d-45f9-abcd-4d4a5375f560"},"vehicle_type_id":"4","last_reported":1740053873,"current_range_meters":16400,"station_id":"ce4bhbp2rcd13ifvqerg","pricing_plan_id":"cebpf4jnsgd1na2vs0mg"},{"bike_id":"6106393f-3645-48aa-b132-3d2def6b4674","system_id":"levelo_inurba_marseille","lat":43.3047,"lon":5.38137,"is_reserved":false,"is_disabled":false,"rental_uris":{"android":"levelo://app?vid=6106393f-3645-48aa-b132-3d2def6b4674","ios":"levelo://app?vid=6106393f-3645-48aa-b132-3d2def6b4674"},"vehicle_type_id":"4","last_reported":1740053873,"current_range_meters":16400,"station_id":"ce4bgv92rcd13ifvqcq0","pricing_plan_id":"cebpf4jnsgd1na2vs0mg"},{"bike_id":"ebb1ec4f-f528-413e-942a-dc6bb47a8d29","system_id":"levelo_inurba_marseille","lat":43.28458,"lon":5.38418,"is_reserved":false,"is_disabled":false,"rental_uris":{"android":"levelo://app?vid=ebb1ec4f-f528-413e-942a-dc6bb47a8d29","ios":"levelo://app?vid=ebb1ec4f-f528-413e-942a-dc6bb47a8d29"},"vehicle_type_id":"4","last_reported":1740053873,"current_range_meters":16800,"station_id":"ce4bh512rcd13ifvqe3g","pricing_plan_id":"cebpf4jnsgd1na2vs0mg"},{"bike_id":"290b0bd1-b10b-488f-919a-6343a7d9b3f2","system_id":"levelo_inurba_marseille","lat":43.30429,"lon":5.38888,"is_reserved":false,"is_disabled":false,"rental_uris":{"android":"levelo://app?vid=290b0bd1-b10b-488f-919a-6343a7d9b3f2","ios":"levelo://app?vid=290b0bd1-b10b-488f-919a-6343a7d9b3f2"},"vehicle_type_id":"4","last_reported":1740053873,"current_range_meters":16400,"station_id":"ce4bgk12rcd13ifvqbi0","pricing_plan_id":"cebpf4jnsgd1na2vs0mg"},{"bike_id":"6ae63a06-afd2-492c-90c0-1f43710d830b","system_id":"levelo_inurba_marseille","lat":43.28467,"lon":5.38445,"is_reserved":false,"is_disabled":false,"rental_uris":{"android":"levelo://app?vid=6ae63a06-afd2-492c-90c0-1f43710d830b","ios":"levelo://app?vid=6ae63a06-afd2-492c-90c0-1f43710d830b"},"vehicle_type_id":"4","last_reported":1740053873,"current_range_meters":16400,"station_id":"ce4bh512rcd13ifvqe3g","pricing_plan_id":"cebpf4jnsgd1na2vs0mg"},{"bike_id":"0acb53c6-517f-4b0b-81a6-4e247c67e378","system_id":"levelo_inurba_marseille","lat":43.24173,"lon":5.39725,"is_reserved":false,"is_disabled":false,"rental_uris":{"android":"levelo://app?vid=0acb53c6-517f-4b0b-81a6-4e247c67e378","ios":"levelo://app?vid=0acb53c6-517f-4b0b-81a6-4e247c67e378"},"vehicle_type_id":"4","last_reported":1740053873,"current_range_meters":16800,"station_id":"ce4bhn12rcd13ifvqgpg","pricing_plan_id":"cebpf4jnsgd1na2vs0mg"},{"bike_id":"b96a9a23-cace-4a13-ac8a-e6d16cc6c0f0","system_id":"levelo_inurba_marseille","lat":43.290046,"lon":5.356186,"is_reserved":false,"is_disabled":false,"rental_uris":{"android":"levelo://app?vid=b96a9a23-cace-4a13-ac8a-e6d16cc6c0f0","ios":"levelo://app?vid=b96a9a23-cace-4a13-ac8a-e6d16cc6c0f0"},"vehicle_type_id":"4","last_reported":1740053873,"current_range_meters":16400,"station_id":"ce4bhhh2rcd13ifvqfk0","pricing_plan_id":"cebpf4jnsgd1na2vs0mg"},{"bike_id":"89aa97ce-7e92-4230-8b7a-8326b829cbe5","system_id":"levelo_inurba_marseille","lat":43.290222,"lon":5.356635,"is_reserved":false,"is_disabled":false,"rental_uris":{"android":"levelo://app?vid=89aa97ce-7e92-4230-8b7a-8326b829cbe5","ios":"levelo://app?vid=89aa97ce-7e92-4230-8b7a-8326b829cbe5"},"vehicle_type_id":"4","last_reported":1740053873,"current_range_meters":16800,"station_id":"ce4bh312rcd13ifvqdj0","pricing_plan_id":"cebpf4jnsgd1na2vs0mg"},{"bike_id":"b253065d-1074-4a51-bc2b-4e15dba86004","system_id":"levelo_inurba_marseille","lat":43.23043,"lon":5.35406,"is_reserved":false,"is_disabled":false,"rental_uris":{"android":"levelo://app?vid=b253065d-1074-4a51-bc2b-4e15dba86004","ios":"levelo://app?vid=b253065d-1074-4a51-bc2b-4e15dba86004"},"vehicle_type_id":"4","last_reported":1740053873,"current_range_meters":16800,"station_id":"cpo3342slgdg3j2ifvpg","pricing_plan_id":"cebpf4jnsgd1na2vs0mg"},{"bike_id":"cf51a63a-fbf0-4405-b25a-08e3b6a27849","system_id":"levelo_inurba_marseille","lat":43.29025,"lon":5.38133,"is_reserved":false,"is_disabled":false,"rental_uris":{"android":"levelo://app?vid=cf51a63a-fbf0-4405-b25a-08e3b6a27849","ios":"levelo://app?vid=cf51a63a-fbf0-4405-b25a-08e3b6a27849"},"vehicle_type_id":"4","last_reported":1740053873,"current_range_meters":17200,"station_id":"ce4bh4p2rcd13ifvqe1g","pricing_plan_id":"cebpf4jnsgd1na2vs0mg"},{"bike_id":"1736bdf7-065e-458a-8be8-137efe82e48a","system_id":"levelo_inurba_marseille","lat":43.33097,"lon":5.39055,"is_reserved":false,"is_disabled":false,"rental_uris":{"android":"levelo://app?vid=1736bdf7-065e-458a-8be8-137efe82e48a","ios":"levelo://app?vid=1736bdf7-065e-458a-8be8-137efe82e48a"},"vehicle_type_id":"4","last_reported":1740053873,"current_range_meters":17200,"station_id":"ce4bhqp2rcd13ifvqhog","pricing_plan_id":"cebpf4jnsgd1na2vs0mg"},{"bike_id":"96fbdd41-6e32-449c-95bf-cef2bc95fe19","system_id":"levelo_inurba_marseille","lat":43.2935,"lon":5.37832,"is_reserved":false,"is_disabled":false,"rental_uris":{"android":"levelo://app?vid=96fbdd41-6e32-449c-95bf-cef2bc95fe19","ios":"levelo://app?vid=96fbdd41-6e32-449c-95bf-cef2bc95fe19"},"vehicle_type_id":"4","last_reported":1740053873,"current_range_meters":17200,"station_id":"","pricing_plan_id":"cebpf4jnsgd1na2vs0mg"},{"bike_id":"790b0ff7-55c5-4c35-9f2a-78c4076d7d17","system_id":"levelo_inurba_marseille","lat":43.27941,"lon":5.38509,"is_reserved":false,"is_disabled":false,"rental_uris":{"android":"levelo://app?vid=790b0ff7-55c5-4c35-9f2a-78c4076d7d17","ios":"levelo://app?vid=790b0ff7-55c5-4c35-9f2a-78c4076d7d17"},"vehicle_type_id":"4","last_reported":1740053873,"current_range_meters":17200,"station_id":"","pricing_plan_id":"cebpf4jnsgd1na2vs0mg"},{"bike_id":"b0d906e5-4fcb-4e53-9687-163d202eaf5d","system_id":"levelo_inurba_marseille","lat":43.26495,"lon":5.39547,"is_reserved":false,"is_disabled":false,"rental_uris":{"android":"levelo://app?vid=b0d906e5-4fcb-4e53-9687-163d202eaf5d","ios":"levelo://app?vid=b0d906e5-4fcb-4e53-9687-163d202eaf5d"},"vehicle_type_id":"4","last_reported":1740053873,"current_range_meters":17200,"station_id":"ce4bhi12rcd13ifvqfq0","pricing_plan_id":"cebpf4jnsgd1na2vs0mg"},{"bike_id":"970d71e7-e450-420e-8062-02057dda3beb","system_id":"levelo_inurba_marseille","lat":43.33607,"lon":5.41013,"is_reserved":false,"is_disabled":false,"rental_uris":{"android":"levelo://app?vid=970d71e7-e450-420e-8062-02057dda3beb","ios":"levelo://app?vid=970d71e7-e450-420e-8062-02057dda3beb"},"vehicle_type_id":"4","last_reported":1740053873,"current_range_meters":17200,"station_id":"ce4bhqh2rcd13ifvqhmg","pricing_plan_id":"cebpf4jnsgd1na2vs0mg"},{"bike_id":"95bf57d2-9d5e-46e9-955d-d16e9478a33d","system_id":"levelo_inurba_marseille","lat":43.25011,"lon":5.38936,"is_reserved":false,"is_disabled":false,"rental_uris":{"android":"levelo://app?vid=95bf57d2-9d5e-46e9-955d-d16e9478a33d","ios":"levelo://app?vid=95bf57d2-9d5e-46e9-955d-d16e9478a33d"},"vehicle_type_id":"4","last_reported":1740053873,"current_range_meters":17600,"station_id":"","pricing_plan_id":"cebpf4jnsgd1na2vs0mg"},{"bike_id":"0c6dfc2a-5d46-4b56-a56c-62302e24179b","system_id":"levelo_inurba_marseille","lat":43.29865,"lon":5.36276,"is_reserved":false,"is_disabled":false,"rental_uris":{"android":"levelo://app?vid=0c6dfc2a-5d46-4b56-a56c-62302e24179b","ios":"levelo://app?vid=0c6dfc2a-5d46-4b56-a56c-62302e24179b"},"vehicle_type_id":"4","last_reported":1740053873,"current_range_meters":17600,"station_id":"ce4bgpp2rcd13ifvqc3g","pricing_plan_id":"cebpf4jnsgd1na2vs0mg"},{"bike_id":"4347ac42-d6bd-4898-bb54-db9da5fa21c6","system_id":"levelo_inurba_marseille","lat":43.26815,"lon":5.40234,"is_reserved":false,"is_disabled":false,"rental_uris":{"android":"levelo://app?vid=4347ac42-d6bd-4898-bb54-db9da5fa21c6","ios":"levelo://app?vid=4347ac42-d6bd-4898-bb54-db9da5fa21c6"},"vehicle_type_id":"4","last_reported":1740053873,"current_range_meters":17600,"station_id":"ce501612rcd8frsf0b60","pricing_plan_id":"cebpf4jnsgd1na2vs0mg"},{"bike_id":"0e65fbfb-6cda-4515-bf1d-9a37562354fd","system_id":"levelo_inurba_marseille","lat":43.30163,"lon":5.37408,"is_reserved":false,"is_disabled":false,"rental_uris":{"android":"levelo://app?vid=0e65fbfb-6cda-4515-bf1d-9a37562354fd","ios":"levelo://app?vid=0e65fbfb-6cda-4515-bf1d-9a37562354fd"},"vehicle_type_id":"4","last_reported":1740053873,"current_range_meters":17600,"station_id":"ce4bgs92rcd13ifvqcc0","pricing_plan_id":"cebpf4jnsgd1na2vs0mg"},{"bike_id":"d809ac67-6535-45d9-8ca7-d20832e7d6ec","system_id":"levelo_inurba_marseille","lat":43.24649,"lon":5.38889,"is_reserved":false,"is_disabled":false,"rental_uris":{"android":"levelo://app?vid=d809ac67-6535-45d9-8ca7-d20832e7d6ec","ios":"levelo://app?vid=d809ac67-6535-45d9-8ca7-d20832e7d6ec"},"vehicle_type_id":"4","last_reported":1740053873,"current_range_meters":17200,"station_id":"ce4bhg12rcd13ifvqf60","pricing_plan_id":"cebpf4jnsgd1na2vs0mg"},{"bike_id":"4e11b30d-0226-4b04-813f-4404772688cd","system_id":"levelo_inurba_marseille","lat":43.29015,"lon":5.37146,"is_reserved":false,"is_disabled":false,"rental_uris":{"android":"levelo://app?vid=4e11b30d-0226-4b04-813f-4404772688cd","ios":"levelo://app?vid=4e11b30d-0226-4b04-813f-4404772688cd"},"vehicle_type_id":"4","last_reported":1740053873,"current_range_meters":17600,"station_id":"","pricing_plan_id":"cebpf4jnsgd1na2vs0mg"},{"bike_id":"754e8652-34cf-4680-be20-250cc23116aa","system_id":"levelo_inurba_marseille","lat":43.2795,"lon":5.38711,"is_reserved":false,"is_disabled":false,"rental_uris":{"android":"levelo://app?vid=754e8652-34cf-4680-be20-250cc23116aa","ios":"levelo://app?vid=754e8652-34cf-4680-be20-250cc23116aa"},"vehicle_type_id":"4","last_reported":1740053873,"current_range_meters":18000,"station_id":"","pricing_plan_id":"cebpf4jnsgd1na2vs0mg"},{"bike_id":"7f77d183-c231-456a-93e4-32a63d975eb6","system_id":"levelo_inurba_marseille","lat":43.250858,"lon":5.39514,"is_reserved":false,"is_disabled":false,"rental_uris":{"android":"levelo://app?vid=7f77d183-c231-456a-93e4-32a63d975eb6","ios":"levelo://app?vid=7f77d183-c231-456a-93e4-32a63d975eb6"},"vehicle_type_id":"4","last_reported":1740053873,"current_range_meters":18000,"station_id":"ce4bhn12rcd13ifvqgqg","pricing_plan_id":"cebpf4jnsgd1na2vs0mg"},{"bike_id":"0f9b09d5-96c5-46f8-a357-5f2b259626e5","system_id":"levelo_inurba_marseille","lat":43.29712,"lon":5.37694,"is_reserved":false,"is_disabled":false,"rental_uris":{"android":"levelo://app?vid=0f9b09d5-96c5-46f8-a357-5f2b259626e5","ios":"levelo://app?vid=0f9b09d5-96c5-46f8-a357-5f2b259626e5"},"vehicle_type_id":"4","last_reported":1740053873,"current_range_meters":18000,"station_id":"","pricing_plan_id":"cebpf4jnsgd1na2vs0mg"},{"bike_id":"9afadc53-f652-499f-86d9-0d9fd69e9e7d","system_id":"levelo_inurba_marseille","lat":43.30538,"lon":5.36499,"is_reserved":false,"is_disabled":false,"rental_uris":{"android":"levelo://app?vid=9afadc53-f652-499f-86d9-0d9fd69e9e7d","ios":"levelo://app?vid=9afadc53-f652-499f-86d9-0d9fd69e9e7d"},"vehicle_type_id":"4","last_reported":1740053873,"current_range_meters":18000,"station_id":"ce4bgs12rcd13ifvqcag","pricing_plan_id":"cebpf4jnsgd1na2vs0mg"},{"bike_id":"f800bf4a-a88e-43ea-b4b8-11875d2f53c7","system_id":"levelo_inurba_marseille","lat":43.24827,"lon":5.37465,"is_reserved":false,"is_disabled":true,"rental_uris":{"android":"levelo://app?vid=f800bf4a-a88e-43ea-b4b8-11875d2f53c7","ios":"levelo://app?vid=f800bf4a-a88e-43ea-b4b8-11875d2f53c7"},"vehicle_type_id":"4","last_reported":1740053873,"current_range_meters":18000,"station_id":"","pricing_plan_id":"cebpf4jnsgd1na2vs0mg"},{"bike_id":"3a18a060-43b3-487c-bb23-8493264d5ba4","system_id":"levelo_inurba_marseille","lat":43.2418,"lon":5.36407,"is_reserved":false,"is_disabled":true,"rental_uris":{"android":"levelo://app?vid=3a18a060-43b3-487c-bb23-8493264d5ba4","ios":"levelo://app?vid=3a18a060-43b3-487c-bb23-8493264d5ba4"},"vehicle_type_id":"4","last_reported":1740053873,"current_range_meters":18000,"station_id":"","pricing_plan_id":"cebpf4jnsgd1na2vs0mg"},{"bike_id":"2f69ef9d-cde3-4490-913c-c3900a1ebe57","system_id":"levelo_inurba_marseille","lat":43.30946,"lon":5.39031,"is_reserved":false,"is_disabled":false,"rental_uris":{"android":"levelo://app?vid=2f69ef9d-cde3-4490-913c-c3900a1ebe57","ios":"levelo://app?vid=2f69ef9d-cde3-4490-913c-c3900a1ebe57"},"vehicle_type_id":"4","last_reported":1740053873,"current_range_meters":18000,"station_id":"ce4bgup2rcd13ifvqco0","pricing_plan_id":"cebpf4jnsgd1na2vs0mg"},{"bike_id":"e97972c8-18d6-4154-bf43-77c2450f4760","system_id":"levelo_inurba_marseille","lat":43.29037,"lon":5.38633,"is_reserved":false,"is_disabled":false,"rental_uris":{"android":"levelo://app?vid=e97972c8-18d6-4154-bf43-77c2450f4760","ios":"levelo://app?vid=e97972c8-18d6-4154-bf43-77c2450f4760"},"vehicle_type_id":"4","last_reported":1740053873,"current_range_meters":18000,"station_id":"ce4bh4p2rcd13ifvqe0g","pricing_plan_id":"cebpf4jnsgd1na2vs0mg"},{"bike_id":"44e45a0d-80e4-4777-b789-c9ff84761c0c","system_id":"levelo_inurba_marseille","lat":43.29274,"lon":5.39441,"is_reserved":false,"is_disabled":false,"rental_uris":{"android":"levelo://app?vid=44e45a0d-80e4-4777-b789-c9ff84761c0c","ios":"levelo://app?vid=44e45a0d-80e4-4777-b789-c9ff84761c0c"},"vehicle_type_id":"4","last_reported":1740053873,"current_range_meters":18000,"station_id":"","pricing_plan_id":"cebpf4jnsgd1na2vs0mg"},{"bike_id":"46c5b0a9-7902-47b9-8150-c4dc31711245","system_id":"levelo_inurba_marseille","lat":43.25822,"lon":5.3943,"is_reserved":false,"is_disabled":false,"rental_uris":{"android":"levelo://app?vid=46c5b0a9-7902-47b9-8150-c4dc31711245","ios":"levelo://app?vid=46c5b0a9-7902-47b9-8150-c4dc31711245"},"vehicle_type_id":"4","last_reported":1740053873,"current_range_meters":18000,"station_id":"ce4bhip2rcd13ifvqft0","pricing_plan_id":"cebpf4jnsgd1na2vs0mg"},{"bike_id":"6ac01c27-4e57-4962-954d-04b7361441dd","system_id":"levelo_inurba_marseille","lat":43.30804,"lon":5.37342,"is_reserved":false,"is_disabled":false,"rental_uris":{"android":"levelo://app?vid=6ac01c27-4e57-4962-954d-04b7361441dd","ios":"levelo://app?vid=6ac01c27-4e57-4962-954d-04b7361441dd"},"vehicle_type_id":"4","last_reported":1740053873,"current_range_meters":18000,"station_id":"ce4bgt92rcd13ifvqcg0","pricing_plan_id":"cebpf4jnsgd1na2vs0mg"},{"bike_id":"e6bd1c62-ca1b-47bb-b95c-d3a87dc972eb","system_id":"levelo_inurba_marseille","lat":43.30297,"lon":5.3689,"is_reserved":false,"is_disabled":false,"rental_uris":{"android":"levelo://app?vid=e6bd1c62-ca1b-47bb-b95c-d3a87dc972eb","ios":"levelo://app?vid=e6bd1c62-ca1b-47bb-b95c-d3a87dc972eb"},"vehicle_type_id":"4","last_reported":1740053873,"current_range_meters":18800,"station_id":"ce4bgqh2rcd13ifvqc5g","pricing_plan_id":"cebpf4jnsgd1na2vs0mg"},{"bike_id":"da0d8a57-dc35-4cad-a584-68768284fc4a","system_id":"levelo_inurba_marseille","lat":43.29572,"lon":5.3751,"is_reserved":false,"is_disabled":false,"rental_uris":{"android":"levelo://app?vid=da0d8a57-dc35-4cad-a584-68768284fc4a","ios":"levelo://app?vid=da0d8a57-dc35-4cad-a584-68768284fc4a"},"vehicle_type_id":"4","last_reported":1740053873,"current_range_meters":18800,"station_id":"","pricing_plan_id":"cebpf4jnsgd1na2vs0mg"},{"bike_id":"e6e11c1a-0155-4cea-9944-a8ebcaf0b17d","system_id":"levelo_inurba_marseille","lat":43.28836,"lon":5.39322,"is_reserved":false,"is_disabled":false,"rental_uris":{"android":"levelo://app?vid=e6e11c1a-0155-4cea-9944-a8ebcaf0b17d","ios":"levelo://app?vid=e6e11c1a-0155-4cea-9944-a8ebcaf0b17d"},"vehicle_type_id":"4","last_reported":1740053873,"current_range_meters":18000,"station_id":"ce4bh2p2rcd13ifvqdi0","pricing_plan_id":"cebpf4jnsgd1na2vs0mg"},{"bike_id":"5b2970b8-45e2-491f-b1e0-09329ec70504","system_id":"levelo_inurba_marseille","lat":43.3089,"lon":5.37179,"is_reserved":false,"is_disabled":false,"rental_uris":{"android":"levelo://app?vid=5b2970b8-45e2-491f-b1e0-09329ec70504","ios":"levelo://app?vid=5b2970b8-45e2-491f-b1e0-09329ec70504"},"vehicle_type_id":"4","last_reported":1740053873,"current_range_meters":18800,"station_id":"ce4bguh2rcd13ifvqckg","pricing_plan_id":"cebpf4jnsgd1na2vs0mg"},{"bike_id":"690bcf07-098d-4aa1-85b5-64dcf1501996","system_id":"levelo_inurba_marseille","lat":43.28847,"lon":5.35865,"is_reserved":false,"is_disabled":false,"rental_uris":{"android":"levelo://app?vid=690bcf07-098d-4aa1-85b5-64dcf1501996","ios":"levelo://app?vid=690bcf07-098d-4aa1-85b5-64dcf1501996"},"vehicle_type_id":"4","last_reported":1740053873,"current_range_meters":19200,"station_id":"ce4bhb12rcd13ifvqem0","pricing_plan_id":"cebpf4jnsgd1na2vs0mg"},{"bike_id":"cff7e479-9e10-47df-b1cb-df926e2a5d1f","system_id":"levelo_inurba_marseille","lat":43.27197,"lon":5.40976,"is_reserved":false,"is_disabled":false,"rental_uris":{"android":"levelo://app?vid=cff7e479-9e10-47df-b1cb-df926e2a5d1f","ios":"levelo://app?vid=cff7e479-9e10-47df-b1cb-df926e2a5d1f"},"vehicle_type_id":"4","last_reported":1740053873,"current_range_meters":19200,"station_id":"ce4bhl12rcd13ifvqgf0","pricing_plan_id":"cebpf4jnsgd1na2vs0mg"},{"bike_id":"37af59b7-a347-4edf-aee8-0076ebae390c","system_id":"levelo_inurba_marseille","lat":43.29775,"lon":5.37104,"is_reserved":false,"is_disabled":false,"rental_uris":{"android":"levelo://app?vid=37af59b7-a347-4edf-aee8-0076ebae390c","ios":"levelo://app?vid=37af59b7-a347-4edf-aee8-0076ebae390c"},"vehicle_type_id":"4","last_reported":1740053873,"current_range_meters":18800,"station_id":"ce4bgop2rcd13ifvqc1g","pricing_plan_id":"cebpf4jnsgd1na2vs0mg"},{"bike_id":"89fb68ec-1aa9-4c97-8b89-632e005ea687","system_id":"levelo_inurba_marseille","lat":43.337444,"lon":5.374475,"is_reserved":false,"is_disabled":true,"rental_uris":{"android":"levelo://app?vid=89fb68ec-1aa9-4c97-8b89-632e005ea687","ios":"levelo://app?vid=89fb68ec-1aa9-4c97-8b89-632e005ea687"},"vehicle_type_id":"4","last_reported":1740053873,"current_range_meters":19200,"station_id":"","pricing_plan_id":"cebpf4jnsgd1na2vs0mg"},{"bike_id":"ef254eb1-de6b-4268-9d75-fff6f65979ea","system_id":"levelo_inurba_marseille","lat":43.23196,"lon":5.39997,"is_reserved":false,"is_disabled":false,"rental_uris":{"android":"levelo://app?vid=ef254eb1-de6b-4268-9d75-fff6f65979ea","ios":"levelo://app?vid=ef254eb1-de6b-4268-9d75-fff6f65979ea"},"vehicle_type_id":"4","last_reported":1740053873,"current_range_meters":19200,"station_id":"ce4bhn12rcd13ifvqgqg","pricing_plan_id":"cebpf4jnsgd1na2vs0mg"},{"bike_id":"ed853263-6142-4e69-8396-096abe91f77e","system_id":"levelo_inurba_marseille","lat":43.26582,"lon":5.39005,"is_reserved":false,"is_disabled":false,"rental_uris":{"android":"levelo://app?vid=ed853263-6142-4e69-8396-096abe91f77e","ios":"levelo://app?vid=ed853263-6142-4e69-8396-096abe91f77e"},"vehicle_type_id":"4","last_reported":1740053873,"current_range_meters":19600,"station_id":"ce4bhe12rcd13ifvqf30","pricing_plan_id":"cebpf4jnsgd1na2vs0mg"},{"bike_id":"4425d015-adec-4c1e-bd9b-0894e4035698","system_id":"levelo_inurba_marseille","lat":43.25052,"lon":5.3899,"is_reserved":false,"is_disabled":false,"rental_uris":{"android":"levelo://app?vid=4425d015-adec-4c1e-bd9b-0894e4035698","ios":"levelo://app?vid=4425d015-adec-4c1e-bd9b-0894e4035698"},"vehicle_type_id":"4","last_reported":1740053873,"current_range_meters":19600,"station_id":"ce4bhgp2rcd13ifvqfd0","pricing_plan_id":"cebpf4jnsgd1na2vs0mg"},{"bike_id":"f603e5b7-6933-4f1d-a21b-50d5d47eec46","system_id":"levelo_inurba_marseille","lat":43.28974,"lon":5.37829,"is_reserved":false,"is_disabled":false,"rental_uris":{"android":"levelo://app?vid=f603e5b7-6933-4f1d-a21b-50d5d47eec46","ios":"levelo://app?vid=f603e5b7-6933-4f1d-a21b-50d5d47eec46"},"vehicle_type_id":"4","last_reported":1740053873,"current_range_meters":19600,"station_id":"ce4bh9p2rcd13ifvqed0","pricing_plan_id":"cebpf4jnsgd1na2vs0mg"},{"bike_id":"7c924480-4185-4aca-89a1-07bef3db51a7","system_id":"levelo_inurba_marseille","lat":43.2603,"lon":5.37552,"is_reserved":false,"is_disabled":false,"rental_uris":{"android":"levelo://app?vid=7c924480-4185-4aca-89a1-07bef3db51a7","ios":"levelo://app?vid=7c924480-4185-4aca-89a1-07bef3db51a7"},"vehicle_type_id":"4","last_reported":1740053873,"current_range_meters":19600,"station_id":"ce4bhgh2rcd13ifvqfa0","pricing_plan_id":"cebpf4jnsgd1na2vs0mg"},{"bike_id":"3490279c-bfee-4a33-a04c-5caaa00035a4","system_id":"levelo_inurba_marseille","lat":43.30541,"lon":5.36526,"is_reserved":false,"is_disabled":false,"rental_uris":{"android":"levelo://app?vid=3490279c-bfee-4a33-a04c-5caaa00035a4","ios":"levelo://app?vid=3490279c-bfee-4a33-a04c-5caaa00035a4"},"vehicle_type_id":"4","last_reported":1740053873,"current_range_meters":19600,"station_id":"ce4bgs12rcd13ifvqcag","pricing_plan_id":"cebpf4jnsgd1na2vs0mg"},{"bike_id":"7f32cafd-5558-42cf-a64b-674df5a94812","system_id":"levelo_inurba_marseille","lat":43.30316,"lon":5.37733,"is_reserved":false,"is_disabled":false,"rental_uris":{"android":"levelo://app?vid=7f32cafd-5558-42cf-a64b-674df5a94812","ios":"levelo://app?vid=7f32cafd-5558-42cf-a64b-674df5a94812"},"vehicle_type_id":"4","last_reported":1740053873,"current_range_meters":19600,"station_id":"ce4bguh2rcd13ifvqcj0","pricing_plan_id":"cebpf4jnsgd1na2vs0mg"},{"bike_id":"8c659c14-b958-4e7d-8a21-e615cb42a1da","system_id":"levelo_inurba_marseille","lat":43.25002,"lon":5.38937,"is_reserved":false,"is_disabled":false,"rental_uris":{"android":"levelo://app?vid=8c659c14-b958-4e7d-8a21-e615cb42a1da","ios":"levelo://app?vid=8c659c14-b958-4e7d-8a21-e615cb42a1da"},"vehicle_type_id":"4","last_reported":1740053873,"current_range_meters":20000,"station_id":"ce4bhgp2rcd13ifvqfd0","pricing_plan_id":"cebpf4jnsgd1na2vs0mg"},{"bike_id":"ebe8f273-5739-4753-ba61-e13e57e5e3ea","system_id":"levelo_inurba_marseille","lat":43.265747,"lon":5.390208,"is_reserved":false,"is_disabled":true,"rental_uris":{"android":"levelo://app?vid=ebe8f273-5739-4753-ba61-e13e57e5e3ea","ios":"levelo://app?vid=ebe8f273-5739-4753-ba61-e13e57e5e3ea"},"vehicle_type_id":"4","last_reported":1740053873,"current_range_meters":20000,"station_id":"","pricing_plan_id":"cebpf4jnsgd1na2vs0mg"},{"bike_id":"f489d4fc-09c9-404a-965d-a60b7da1a1d8","system_id":"levelo_inurba_marseille","lat":43.28422,"lon":5.34976,"is_reserved":false,"is_disabled":false,"rental_uris":{"android":"levelo://app?vid=f489d4fc-09c9-404a-965d-a60b7da1a1d8","ios":"levelo://app?vid=f489d4fc-09c9-404a-965d-a60b7da1a1d8"},"vehicle_type_id":"4","last_reported":1740053873,"current_range_meters":20000,"station_id":"ce4bhbh2rcd13ifvqepg","pricing_plan_id":"cebpf4jnsgd1na2vs0mg"},{"bike_id":"255db421-0ca7-4e35-b22f-dab1964774eb","system_id":"levelo_inurba_marseille","lat":43.23971,"lon":5.36632,"is_reserved":false,"is_disabled":false,"rental_uris":{"android":"levelo://app?vid=255db421-0ca7-4e35-b22f-dab1964774eb","ios":"levelo://app?vid=255db421-0ca7-4e35-b22f-dab1964774eb"},"vehicle_type_id":"4","last_reported":1740053873,"current_range_meters":20000,"station_id":"ce4bhi12rcd13ifvqfp0","pricing_plan_id":"cebpf4jnsgd1na2vs0mg"},{"bike_id":"5d81c9c4-d76b-4a54-b913-1c1f6abf7e3c","system_id":"levelo_inurba_marseille","lat":43.28473,"lon":5.38421,"is_reserved":false,"is_disabled":true,"rental_uris":{"android":"levelo://app?vid=5d81c9c4-d76b-4a54-b913-1c1f6abf7e3c","ios":"levelo://app?vid=5d81c9c4-d76b-4a54-b913-1c1f6abf7e3c"},"vehicle_type_id":"4","last_reported":1740053873,"current_range_meters":20000,"station_id":"ce4bh512rcd13ifvqe3g","pricing_plan_id":"cebpf4jnsgd1na2vs0mg"},{"bike_id":"2f528f47-64e0-4db2-badb-32005bb319d3","system_id":"levelo_inurba_marseille","lat":43.3372,"lon":5.39183,"is_reserved":false,"is_disabled":false,"rental_uris":{"android":"levelo://app?vid=2f528f47-64e0-4db2-badb-32005bb319d3","ios":"levelo://app?vid=2f528f47-64e0-4db2-badb-32005bb319d3"},"vehicle_type_id":"4","last_reported":1740053873,"current_range_meters":20000,"station_id":"ce4bhr92rcd13ifvqhsg","pricing_plan_id":"cebpf4jnsgd1na2vs0mg"},{"bike_id":"6e7e43ed-a5d3-42e4-95ff-eae1110c839f","system_id":"levelo_inurba_marseille","lat":43.27074,"lon":5.40247,"is_reserved":false,"is_disabled":false,"rental_uris":{"android":"levelo://app?vid=6e7e43ed-a5d3-42e4-95ff-eae1110c839f","ios":"levelo://app?vid=6e7e43ed-a5d3-42e4-95ff-eae1110c839f"},"vehicle_type_id":"4","last_reported":1740053873,"current_range_meters":20000,"station_id":"ce4bhk92rcd13ifvqgc0","pricing_plan_id":"cebpf4jnsgd1na2vs0mg"},{"bike_id":"5849157b-9338-456d-8339-cb9878bd5d3b","system_id":"levelo_inurba_marseille","lat":43.27838,"lon":5.39206,"is_reserved":false,"is_disabled":false,"rental_uris":{"android":"levelo://app?vid=5849157b-9338-456d-8339-cb9878bd5d3b","ios":"levelo://app?vid=5849157b-9338-456d-8339-cb9878bd5d3b"},"vehicle_type_id":"4","last_reported":1740053873,"current_range_meters":20000,"station_id":"ce4bhjp2rcd13ifvqga0","pricing_plan_id":"cebpf4jnsgd1na2vs0mg"},{"bike_id":"d5ade3c8-fb84-4e81-b5dc-389824553d3d","system_id":"levelo_inurba_marseille","lat":43.29011,"lon":5.36902,"is_reserved":false,"is_disabled":false,"rental_uris":{"android":"levelo://app?vid=d5ade3c8-fb84-4e81-b5dc-389824553d3d","ios":"levelo://app?vid=d5ade3c8-fb84-4e81-b5dc-389824553d3d"},"vehicle_type_id":"4","last_reported":1740053873,"current_range_meters":20000,"station_id":"","pricing_plan_id":"cebpf4jnsgd1na2vs0mg"},{"bike_id":"5153efbd-55eb-44b7-8f8a-6c63cc29b03d","system_id":"levelo_inurba_marseille","lat":43.25946,"lon":5.40888,"is_reserved":false,"is_disabled":false,"rental_uris":{"android":"levelo://app?vid=5153efbd-55eb-44b7-8f8a-6c63cc29b03d","ios":"levelo://app?vid=5153efbd-55eb-44b7-8f8a-6c63cc29b03d"},"vehicle_type_id":"4","last_reported":1740053873,"current_range_meters":20000,"station_id":"ce4bhm92rcd13ifvqglg","pricing_plan_id":"cebpf4jnsgd1na2vs0mg"},{"bike_id":"511c7529-a5e0-4d5e-80c1-8df634ba7636","system_id":"levelo_inurba_marseille","lat":43.2988,"lon":5.39707,"is_reserved":false,"is_disabled":false,"rental_uris":{"android":"levelo://app?vid=511c7529-a5e0-4d5e-80c1-8df634ba7636","ios":"levelo://app?vid=511c7529-a5e0-4d5e-80c1-8df634ba7636"},"vehicle_type_id":"4","last_reported":1740053873,"current_range_meters":20000,"station_id":"ce4bh0h2rcd13ifvqd50","pricing_plan_id":"cebpf4jnsgd1na2vs0mg"},{"bike_id":"43765774-4870-4bad-8d0a-d67b1fff398b","system_id":"levelo_inurba_marseille","lat":43.2572,"lon":5.41108,"is_reserved":false,"is_disabled":false,"rental_uris":{"android":"levelo://app?vid=43765774-4870-4bad-8d0a-d67b1fff398b","ios":"levelo://app?vid=43765774-4870-4bad-8d0a-d67b1fff398b"},"vehicle_type_id":"4","last_reported":1740053873,"current_range_meters":20400,"station_id":"ce4bhkp2rcd13ifvqgd0","pricing_plan_id":"cebpf4jnsgd1na2vs0mg"},{"bike_id":"cf95633d-7ae3-4174-afec-7606a81a9904","system_id":"levelo_inurba_marseille","lat":43.32692,"lon":5.39204,"is_reserved":false,"is_disabled":false,"rental_uris":{"android":"levelo://app?vid=cf95633d-7ae3-4174-afec-7606a81a9904","ios":"levelo://app?vid=cf95633d-7ae3-4174-afec-7606a81a9904"},"vehicle_type_id":"4","last_reported":1740053873,"current_range_meters":20400,"station_id":"ce4bhr92rcd13ifvqhrg","pricing_plan_id":"cebpf4jnsgd1na2vs0mg"},{"bike_id":"b1731310-cf78-4b27-8c41-912b9080f2fe","system_id":"levelo_inurba_marseille","lat":43.28704,"lon":5.3739,"is_reserved":false,"is_disabled":false,"rental_uris":{"android":"levelo://app?vid=b1731310-cf78-4b27-8c41-912b9080f2fe","ios":"levelo://app?vid=b1731310-cf78-4b27-8c41-912b9080f2fe"},"vehicle_type_id":"4","last_reported":1740053873,"current_range_meters":20400,"station_id":"ce4bh3p2rcd13ifvqdq0","pricing_plan_id":"cebpf4jnsgd1na2vs0mg"},{"bike_id":"a5f96c68-7d1f-4bcb-b4d4-6047b9faaa7a","system_id":"levelo_inurba_marseille","lat":43.27961,"lon":5.38743,"is_reserved":false,"is_disabled":false,"rental_uris":{"android":"levelo://app?vid=a5f96c68-7d1f-4bcb-b4d4-6047b9faaa7a","ios":"levelo://app?vid=a5f96c68-7d1f-4bcb-b4d4-6047b9faaa7a"},"vehicle_type_id":"4","last_reported":1740053873,"current_range_meters":20400,"station_id":"ce4bhg12rcd13ifvqf80","pricing_plan_id":"cebpf4jnsgd1na2vs0mg"},{"bike_id":"da35e427-426d-41ca-859b-7c63f22da96e","system_id":"levelo_inurba_marseille","lat":43.27988,"lon":5.41658,"is_reserved":false,"is_disabled":false,"rental_uris":{"android":"levelo://app?vid=da35e427-426d-41ca-859b-7c63f22da96e","ios":"levelo://app?vid=da35e427-426d-41ca-859b-7c63f22da96e"},"vehicle_type_id":"4","last_reported":1740053873,"current_range_meters":20400,"station_id":"ce4bho12rcd13ifvqh1g","pricing_plan_id":"cebpf4jnsgd1na2vs0mg"},{"bike_id":"4d084359-1b7e-42f1-b437-a00c700188d9","system_id":"levelo_inurba_marseille","lat":43.26031,"lon":5.37548,"is_reserved":false,"is_disabled":false,"rental_uris":{"android":"levelo://app?vid=4d084359-1b7e-42f1-b437-a00c700188d9","ios":"levelo://app?vid=4d084359-1b7e-42f1-b437-a00c700188d9"},"vehicle_type_id":"4","last_reported":1740053873,"current_range_meters":20000,"station_id":"ce4bhgh2rcd13ifvqfa0","pricing_plan_id":"cebpf4jnsgd1na2vs0mg"},{"bike_id":"76161de1-8bd6-424a-9d38-33d20d4422aa","system_id":"levelo_inurba_marseille","lat":43.33025,"lon":5.39069,"is_reserved":false,"is_disabled":false,"rental_uris":{"android":"levelo://app?vid=76161de1-8bd6-424a-9d38-33d20d4422aa","ios":"levelo://app?vid=76161de1-8bd6-424a-9d38-33d20d4422aa"},"vehicle_type_id":"4","last_reported":1740053873,"current_range_meters":20800,"station_id":"ce4bhr92rcd13ifvqhrg","pricing_plan_id":"cebpf4jnsgd1na2vs0mg"},{"bike_id":"c483c893-78f4-4e7e-90a2-e8e295196849","system_id":"levelo_inurba_marseille","lat":43.30883,"lon":5.37184,"is_reserved":false,"is_disabled":false,"rental_uris":{"android":"levelo://app?vid=c483c893-78f4-4e7e-90a2-e8e295196849","ios":"levelo://app?vid=c483c893-78f4-4e7e-90a2-e8e295196849"},"vehicle_type_id":"4","last_reported":1740053873,"current_range_meters":25600,"station_id":"","pricing_plan_id":"cebpf4jnsgd1na2vs0mg"},{"bike_id":"4156c3f4-1c00-4687-a78e-ff2dbdb866e0","system_id":"levelo_inurba_marseille","lat":43.27381,"lon":5.3624,"is_reserved":false,"is_disabled":false,"rental_uris":{"android":"levelo://app?vid=4156c3f4-1c00-4687-a78e-ff2dbdb866e0","ios":"levelo://app?vid=4156c3f4-1c00-4687-a78e-ff2dbdb866e0"},"vehicle_type_id":"4","last_reported":1740053873,"current_range_meters":20800,"station_id":"","pricing_plan_id":"cebpf4jnsgd1na2vs0mg"},{"bike_id":"fbaea280-58d1-483f-a26d-c689f30c49fb","system_id":"levelo_inurba_marseille","lat":43.33798,"lon":5.39287,"is_reserved":false,"is_disabled":false,"rental_uris":{"android":"levelo://app?vid=fbaea280-58d1-483f-a26d-c689f30c49fb","ios":"levelo://app?vid=fbaea280-58d1-483f-a26d-c689f30c49fb"},"vehicle_type_id":"4","last_reported":1740053873,"current_range_meters":20800,"station_id":"ce4bhr92rcd13ifvqhsg","pricing_plan_id":"cebpf4jnsgd1na2vs0mg"},{"bike_id":"ee8fd500-bb76-4c2c-9206-026696164b8f","system_id":"levelo_inurba_marseille","lat":43.28011,"lon":5.40948,"is_reserved":false,"is_disabled":false,"rental_uris":{"android":"levelo://app?vid=ee8fd500-bb76-4c2c-9206-026696164b8f","ios":"levelo://app?vid=ee8fd500-bb76-4c2c-9206-026696164b8f"},"vehicle_type_id":"4","last_reported":1740053873,"current_range_meters":20800,"station_id":"","pricing_plan_id":"cebpf4jnsgd1na2vs0mg"},{"bike_id":"1328edf3-5a18-4fc0-9160-64680c7251fc","system_id":"levelo_inurba_marseille","lat":43.31716,"lon":5.43711,"is_reserved":false,"is_disabled":false,"rental_uris":{"android":"levelo://app?vid=1328edf3-5a18-4fc0-9160-64680c7251fc","ios":"levelo://app?vid=1328edf3-5a18-4fc0-9160-64680c7251fc"},"vehicle_type_id":"4","last_reported":1740053873,"current_range_meters":20800,"station_id":"ce4bhp92rcd13ifvqhcg","pricing_plan_id":"cebpf4jnsgd1na2vs0mg"},{"bike_id":"4463c32e-f383-418d-927a-9377e2c88f8f","system_id":"levelo_inurba_marseille","lat":43.23183,"lon":5.4,"is_reserved":false,"is_disabled":false,"rental_uris":{"android":"levelo://app?vid=4463c32e-f383-418d-927a-9377e2c88f8f","ios":"levelo://app?vid=4463c32e-f383-418d-927a-9377e2c88f8f"},"vehicle_type_id":"4","last_reported":1740053873,"current_range_meters":20800,"station_id":"ce4bhn12rcd13ifvqgqg","pricing_plan_id":"cebpf4jnsgd1na2vs0mg"},{"bike_id":"f274f312-68ca-45d0-8230-632bc1110b1a","system_id":"levelo_inurba_marseille","lat":43.29246,"lon":5.38234,"is_reserved":false,"is_disabled":false,"rental_uris":{"android":"levelo://app?vid=f274f312-68ca-45d0-8230-632bc1110b1a","ios":"levelo://app?vid=f274f312-68ca-45d0-8230-632bc1110b1a"},"vehicle_type_id":"4","last_reported":1740053873,"current_range_meters":21600,"station_id":"","pricing_plan_id":"cebpf4jnsgd1na2vs0mg"},{"bike_id":"17d49994-81fd-4ba3-903c-e4c7abd2aea3","system_id":"levelo_inurba_marseille","lat":43.27089,"lon":5.4226,"is_reserved":false,"is_disabled":false,"rental_uris":{"android":"levelo://app?vid=17d49994-81fd-4ba3-903c-e4c7abd2aea3","ios":"levelo://app?vid=17d49994-81fd-4ba3-903c-e4c7abd2aea3"},"vehicle_type_id":"4","last_reported":1740053873,"current_range_meters":21600,"station_id":"ce4bhk92rcd13ifvqgb0","pricing_plan_id":"cebpf4jnsgd1na2vs0mg"},{"bike_id":"df665e06-27aa-4875-b3df-f60cbc6b5e2b","system_id":"levelo_inurba_marseille","lat":43.29038,"lon":5.38641,"is_reserved":false,"is_disabled":false,"rental_uris":{"android":"levelo://app?vid=df665e06-27aa-4875-b3df-f60cbc6b5e2b","ios":"levelo://app?vid=df665e06-27aa-4875-b3df-f60cbc6b5e2b"},"vehicle_type_id":"4","last_reported":1740053873,"current_range_meters":21600,"station_id":"ce4bh4p2rcd13ifvqe0g","pricing_plan_id":"cebpf4jnsgd1na2vs0mg"},{"bike_id":"b2ed6863-f39a-42df-9d15-179b513b31cd","system_id":"levelo_inurba_marseille","lat":43.3089,"lon":5.39649,"is_reserved":false,"is_disabled":false,"rental_uris":{"android":"levelo://app?vid=b2ed6863-f39a-42df-9d15-179b513b31cd","ios":"levelo://app?vid=b2ed6863-f39a-42df-9d15-179b513b31cd"},"vehicle_type_id":"4","last_reported":1740053873,"current_range_meters":21600,"station_id":"ce4bh012rcd13ifvqcv0","pricing_plan_id":"cebpf4jnsgd1na2vs0mg"},{"bike_id":"594faca2-9926-4075-a97a-a5b73ed7af06","system_id":"levelo_inurba_marseille","lat":43.24185,"lon":5.39732,"is_reserved":false,"is_disabled":false,"rental_uris":{"android":"levelo://app?vid=594faca2-9926-4075-a97a-a5b73ed7af06","ios":"levelo://app?vid=594faca2-9926-4075-a97a-a5b73ed7af06"},"vehicle_type_id":"4","last_reported":1740053873,"current_range_meters":21600,"station_id":"ce4bhn12rcd13ifvqgpg","pricing_plan_id":"cebpf4jnsgd1na2vs0mg"},{"bike_id":"51a3223a-a16e-4bd9-a6d4-b7751d856cc9","system_id":"levelo_inurba_marseille","lat":43.27271,"lon":5.3903,"is_reserved":false,"is_disabled":false,"rental_uris":{"android":"levelo://app?vid=51a3223a-a16e-4bd9-a6d4-b7751d856cc9","ios":"levelo://app?vid=51a3223a-a16e-4bd9-a6d4-b7751d856cc9"},"vehicle_type_id":"4","last_reported":1740053873,"current_range_meters":21600,"station_id":"ce4bhgp2rcd13ifvqfe0","pricing_plan_id":"cebpf4jnsgd1na2vs0mg"},{"bike_id":"d9a65716-32bf-413d-82eb-1e213a4dc4bb","system_id":"levelo_inurba_marseille","lat":43.30102,"lon":5.37799,"is_reserved":false,"is_disabled":false,"rental_uris":{"android":"levelo://app?vid=d9a65716-32bf-413d-82eb-1e213a4dc4bb","ios":"levelo://app?vid=d9a65716-32bf-413d-82eb-1e213a4dc4bb"},"vehicle_type_id":"4","last_reported":1740053873,"current_range_meters":21600,"station_id":"","pricing_plan_id":"cebpf4jnsgd1na2vs0mg"},{"bike_id":"2d629d50-c6c8-4d3f-be38-273bcb9dcad2","system_id":"levelo_inurba_marseille","lat":43.32352,"lon":5.38885,"is_reserved":false,"is_disabled":false,"rental_uris":{"android":"levelo://app?vid=2d629d50-c6c8-4d3f-be38-273bcb9dcad2","ios":"levelo://app?vid=2d629d50-c6c8-4d3f-be38-273bcb9dcad2"},"vehicle_type_id":"4","last_reported":1740053873,"current_range_meters":21600,"station_id":"ce4bhqp2rcd13ifvqhog","pricing_plan_id":"cebpf4jnsgd1na2vs0mg"},{"bike_id":"01fb4df8-644c-4b82-84e3-f1f9a5d92970","system_id":"levelo_inurba_marseille","lat":43.26212,"lon":5.40443,"is_reserved":false,"is_disabled":false,"rental_uris":{"android":"levelo://app?vid=01fb4df8-644c-4b82-84e3-f1f9a5d92970","ios":"levelo://app?vid=01fb4df8-644c-4b82-84e3-f1f9a5d92970"},"vehicle_type_id":"4","last_reported":1740053873,"current_range_meters":22000,"station_id":"ce4bhmh2rcd13ifvqgmg","pricing_plan_id":"cebpf4jnsgd1na2vs0mg"},{"bike_id":"b557c1cf-96ba-48bf-8f78-a37d8e1f7a78","system_id":"levelo_inurba_marseille","lat":43.30908,"lon":5.36845,"is_reserved":false,"is_disabled":false,"rental_uris":{"android":"levelo://app?vid=b557c1cf-96ba-48bf-8f78-a37d8e1f7a78","ios":"levelo://app?vid=b557c1cf-96ba-48bf-8f78-a37d8e1f7a78"},"vehicle_type_id":"4","last_reported":1740053873,"current_range_meters":21600,"station_id":"ce4bgn92rcd13ifvqbvg","pricing_plan_id":"cebpf4jnsgd1na2vs0mg"},{"bike_id":"57ad8b46-3871-4a9b-b3c3-bba760d26aa1","system_id":"levelo_inurba_marseille","lat":43.3025,"lon":5.40047,"is_reserved":false,"is_disabled":false,"rental_uris":{"android":"levelo://app?vid=57ad8b46-3871-4a9b-b3c3-bba760d26aa1","ios":"levelo://app?vid=57ad8b46-3871-4a9b-b3c3-bba760d26aa1"},"vehicle_type_id":"4","last_reported":1740053873,"current_range_meters":22000,"station_id":"ce4bgvh2rcd13ifvqcs0","pricing_plan_id":"cebpf4jnsgd1na2vs0mg"},{"bike_id":"3ed62399-111e-4e38-bdc6-413faeb688dc","system_id":"levelo_inurba_marseille","lat":43.26694,"lon":5.38269,"is_reserved":false,"is_disabled":false,"rental_uris":{"android":"levelo://app?vid=3ed62399-111e-4e38-bdc6-413faeb688dc","ios":"levelo://app?vid=3ed62399-111e-4e38-bdc6-413faeb688dc"},"vehicle_type_id":"4","last_reported":1740053873,"current_range_meters":22000,"station_id":"ce4bhjp2rcd13ifvqg90","pricing_plan_id":"cebpf4jnsgd1na2vs0mg"},{"bike_id":"7164c744-8e10-4199-a22a-2832fa2df736","system_id":"levelo_inurba_marseille","lat":43.28438,"lon":5.39185,"is_reserved":false,"is_disabled":false,"rental_uris":{"android":"levelo://app?vid=7164c744-8e10-4199-a22a-2832fa2df736","ios":"levelo://app?vid=7164c744-8e10-4199-a22a-2832fa2df736"},"vehicle_type_id":"4","last_reported":1740053873,"current_range_meters":22000,"station_id":"ce4bhoh2rcd13ifvqh5g","pricing_plan_id":"cebpf4jnsgd1na2vs0mg"},