{"last_updated":1702044417,"ttl":30,"version":"2.2","data":{"bikes":[{"bike_id":"e1e22c5b-1bae-4cd0-bf45-78079d5ce94d","system_id":"levelo_inurba_marseille","lat":43.283998,"lon":5.375062,"is_reserved":false,"is_disabled":false,"rental_uris":{"android":"levelo://app?vid=e1e22c5b-1bae-4cd0-bf45-78079d5ce94d","ios":"levelo://app?vid=e1e22c5b-1bae-4cd0-bf45-78079d5ce94d"},"vehicle_type_id":"4","last_reported":1702044417,"current_range_meters":30400,"station_id":"ce4bh412rcd13ifvqds0","pricing_plan_id":"free"},{"bike_id":"4c91d198-2d0a-482a-b4d0-563a4f1099ea","system_id":"levelo_inurba_marseille","lat":43.305706,"lon":5.365654,"is_reserved":false,"is_disabled":false,"rental_uris":{"android":"levelo://app?vid=4c91d198-2d0a-482a-b4d0-563a4f1099ea","ios":"levelo://app?vid=4c91d198-2d0a-482a-b4d0-563a4f1099ea"},"vehicle_type_id":"4","last_reported":1702044417,"current_range_meters":13600,"station_id":"ce4bgs12rcd13ifvqcag","pricing_plan_id":"free"},{"bike_id":"f668212b-a002-46c1-88bf-cc66531bd0c9","system_id":"levelo_inurba_marseille","lat":43.305989,"lon":5.37225,"is_reserved":false,"is_disabled":false,"rental_uris":{"android":"levelo://app?vid=f668212b-a002-46c1-88bf-cc66531bd0c9","ios":"levelo://app?vid=f668212b-a002-46c1-88bf-cc66531bd0c9"},"vehicle_type_id":"4","last_reported":1702044417,"current_range_meters":12800,"station_id":"ce4bgqh2rcd13ifvqc4g","pricing_plan_id":"free"},{"bike_id":"4e1bbe27-f08d-4eac-9e84-100ef30833d5","system_id":"levelo_inurba_marseille","lat":43.311131,"lon":5.377651,"is_reserved":false,"is_disabled":false,"rental_uris":{"android":"levelo://app?vid=4e1bbe27-f08d-4eac-9e84-100ef30833d5","ios":"levelo://app?vid=4e1bbe27-f08d-4eac-9e84-100ef30833d5"},"vehicle_type_id":"4","last_reported":1702044417,"current_range_meters":10400,"station_id":"ce4bgt92rcd13ifvqcg0","pricing_plan_id":"free"},{"bike_id":"48baf451-4bf3-4284-b2a5-ea64629cee8a","system_id":"levelo_inurba_marseille","lat":43.308138,"lon":5.376552,"is_reserved":false,"is_disabled":false,"rental_uris":{"android":"levelo://app?vid=48baf451-4bf3-4284-b2a5-ea64629cee8a","ios":"levelo://app?vid=48baf451-4bf3-4284-b2a5-ea64629cee8a"},"vehicle_type_id":"4","last_reported":1702044417,"current_range_meters":14800,"station_id":"ce4bgv92rcd13ifvqcq0","pricing_plan_id":"free"},{"bike_id":"b66968a0-088a-462b-bb1b-c4775cc3fa6c","system_id":"levelo_inurba_marseille","lat":43.307945,"lon":5.376487,"is_reserved":false,"is_disabled":false,"rental_uris":{"android":"levelo://app?vid=b66968a0-088a-462b-bb1b-c4775cc3fa6c","ios":"levelo://app?vid=b66968a0-088a-462b-bb1b-c4775cc3fa6c"},"vehicle_type_id":"4","last_reported":1702044417,"current_range_meters":25600,"station_id":"ce4bgv92rcd13ifvqcq0","pricing_plan_id":"free"},{"bike_id":"6218b7e5-7562-464b-b424-ae4d528e8b07","system_id":"levelo_inurba_marseille","lat":43.317075,"lon":5.377367,"is_reserved":false,"is_disabled":false,"rental_uris":{"android":"levelo://app?vid=6218b7e5-7562-464b-b424-ae4d528e8b07","ios":"levelo://app?vid=6218b7e5-7562-464b-b424-ae4d528e8b07"},"vehicle_type_id":"4","last_reported":1702044417,"current_range_meters":23600,"station_id":"ce4bgth2rcd13ifvqch0","pricing_plan_id":"free"},{"bike_id":"2f72653c-77b3-41ca-a34a-d30950e5bc7a","system_id":"levelo_inurba_marseille","lat":43.317075,"lon":5.377367,"is_reserved":false,"is_disabled":false,"rental_uris":{"android":"levelo://app?vid=2f72653c-77b3-41ca-a34a-d30950e5bc7a","ios":"levelo://app?vid=2f72653c-77b3-41ca-a34a-d30950e5bc7a"},"vehicle_type_id":"4","last_reported":1702044417,"current_range_meters":28400,"station_id":"ce4bgth2rcd13ifvqch0","pricing_plan_id":"free"},{"bike_id":"adf146c5-e4e1-4668-9a33-042940925130","system_id":"levelo_inurba_marseille","lat":43.31351,"lon":5.37909,"is_reserved":false,"is_disabled":false,"rental_uris":{"android":"levelo://app?vid=adf146c5-e4e1-4668-9a33-042940925130","ios":"levelo://app?vid=adf146c5-e4e1-4668-9a33-042940925130"},"vehicle_type_id":"4","last_reported":1702044417,"current_range_meters":0,"station_id":"","pricing_plan_id":"free"},{"bike_id":"1ea60f58-75f7-4484-b705-1156df4b02ad","system_id":"levelo_inurba_marseille","lat":43.302847,"lon":5.373326,"is_reserved":false,"is_disabled":false,"rental_uris":{"android":"levelo://app?vid=1ea60f58-75f7-4484-b705-1156df4b02ad","ios":"levelo://app?vid=1ea60f58-75f7-4484-b705-1156df4b02ad"},"vehicle_type_id":"4","last_reported":1702044417,"current_range_meters":400,"station_id":"","pricing_plan_id":"free"},{"bike_id":"ddd74a8b-2495-4e53-8ff1-b9c9d1b97b8c","system_id":"levelo_inurba_marseille","lat":43.30143,"lon":5.37413,"is_reserved":false,"is_disabled":false,"rental_uris":{"android":"levelo://app?vid=ddd74a8b-2495-4e53-8ff1-b9c9d1b97b8c","ios":"levelo://app?vid=ddd74a8b-2495-4e53-8ff1-b9c9d1b97b8c"},"vehicle_type_id":"4","last_reported":1702044417,"current_range_meters":29200,"station_id":"ce4bgs92rcd13ifvqcc0","pricing_plan_id":"free"},{"bike_id":"56121bb4-c7ea-4e7d-8769-71de5b01d837","system_id":"levelo_inurba_marseille","lat":43.3199,"lon":5.38165,"is_reserved":false,"is_disabled":false,"rental_uris":{"android":"levelo://app?vid=56121bb4-c7ea-4e7d-8769-71de5b01d837","ios":"levelo://app?vid=56121bb4-c7ea-4e7d-8769-71de5b01d837"},"vehicle_type_id":"4","last_reported":1702044417,"current_range_meters":14800,"station_id":"ce4bhr12rcd13ifvqhpg","pricing_plan_id":"free"},{"bike_id":"a49b99ee-38eb-49b5-978d-00cf198fff08","system_id":"levelo_inurba_marseille","lat":43.29959,"lon":5.36651,"is_reserved":false,"is_disabled":false,"rental_uris":{"android":"levelo://app?vid=a49b99ee-38eb-49b5-978d-00cf198fff08","ios":"levelo://app?vid=a49b99ee-38eb-49b5-978d-00cf198fff08"},"vehicle_type_id":"4","last_reported":1702044417,"current_range_meters":19600,"station_id":"","pricing_plan_id":"free"},{"bike_id":"04c2c2a0-7e57-4bff-bade-c4ce7fb5d583","system_id":"levelo_inurba_marseille","lat":43.29933,"lon":5.36559,"is_reserved":false,"is_disabled":false,"rental_uris":{"android":"levelo://app?vid=04c2c2a0-7e57-4bff-bade-c4ce7fb5d583","ios":"levelo://app?vid=04c2c2a0-7e57-4bff-bade-c4ce7fb5d583"},"vehicle_type_id":"4","last_reported":1702044417,"current_range_meters":25200,"station_id":"ce4bgm92rcd13ifvqbr0","pricing_plan_id":"free"},{"bike_id":"c0746209-f525-4225-920e-62a989ba34cb","system_id":"levelo_inurba_marseille","lat":43.299724,"lon":5.371829,"is_reserved":false,"is_disabled":false,"rental_uris":{"android":"levelo://app?vid=c0746209-f525-4225-920e-62a989ba34cb","ios":"levelo://app?vid=c0746209-f525-4225-920e-62a989ba34cb"},"vehicle_type_id":"4","last_reported":1702044417,"current_range_meters":24800,"station_id":"ce4bgr92rcd13ifvqc7g","pricing_plan_id":"free"},{"bike_id":"4509dbe5-dd18-4fba-bb19-aae5ee5d2dfe","system_id":"levelo_inurba_marseille","lat":43.297163,"lon":5.365866,"is_reserved":false,"is_disabled":false,"rental_uris":{"android":"levelo://app?vid=4509dbe5-dd18-4fba-bb19-aae5ee5d2dfe","ios":"levelo://app?vid=4509dbe5-dd18-4fba-bb19-aae5ee5d2dfe"},"vehicle_type_id":"4","last_reported":1702044417,"current_range_meters":20000,"station_id":"ce4bgn12rcd13ifvqbt0","pricing_plan_id":"free"},{"bike_id":"b536bce2-4601-4dbc-844b-a9e7d3d96805","system_id":"levelo_inurba_marseille","lat":43.2968,"lon":5.37291,"is_reserved":false,"is_disabled":false,"rental_uris":{"android":"levelo://app?vid=b536bce2-4601-4dbc-844b-a9e7d3d96805","ios":"levelo://app?vid=b536bce2-4601-4dbc-844b-a9e7d3d96805"},"vehicle_type_id":"4","last_reported":1702044417,"current_range_meters":18000,"station_id":"ce4bgk12rcd13ifvqbj0","pricing_plan_id":"free"},{"bike_id":"b9859299-0ce9-40df-a245-3f6262dfe741","system_id":"levelo_inurba_marseille","lat":43.2968,"lon":5.37291,"is_reserved":false,"is_disabled":false,"rental_uris":{"android":"levelo://app?vid=b9859299-0ce9-40df-a245-3f6262dfe741","ios":"levelo://app?vid=b9859299-0ce9-40df-a245-3f6262dfe741"},"vehicle_type_id":"4","last_reported":1702044417,"current_range_meters":19200,"station_id":"ce4bgk12rcd13ifvqbj0","pricing_plan_id":"free"},{"bike_id":"65e7d198-275b-407e-bf00-ed944ad95766","system_id":"levelo_inurba_marseille","lat":43.296129,"lon":5.370777,"is_reserved":false,"is_disabled":false,"rental_uris":{"android":"levelo://app?vid=65e7d198-275b-407e-bf00-ed944ad95766","ios":"levelo://app?vid=65e7d198-275b-407e-bf00-ed944ad95766"},"vehicle_type_id":"4","last_reported":1702044417,"current_range_meters":30800,"station_id":"ce4bgnh2rcd13ifvqc0g","pricing_plan_id":"free"},{"bike_id":"745c09c7-4b4d-4f79-aefe-48e6b1e2b5e3","system_id":"levelo_inurba_marseille","lat":43.296131,"lon":5.370791,"is_reserved":false,"is_disabled":false,"rental_uris":{"android":"levelo://app?vid=745c09c7-4b4d-4f79-aefe-48e6b1e2b5e3","ios":"levelo://app?vid=745c09c7-4b4d-4f79-aefe-48e6b1e2b5e3"},"vehicle_type_id":"4","last_reported":1702044417,"current_range_meters":27200,"station_id":"ce4bgnh2rcd13ifvqc0g","pricing_plan_id":"free"},{"bike_id":"410b4d28-8036-47d7-8f6e-9747e66a814a","system_id":"levelo_inurba_marseille","lat":43.296131,"lon":5.370791,"is_reserved":false,"is_disabled":false,"rental_uris":{"android":"levelo://app?vid=410b4d28-8036-47d7-8f6e-9747e66a814a","ios":"levelo://app?vid=410b4d28-8036-47d7-8f6e-9747e66a814a"},"vehicle_type_id":"4","last_reported":1702044417,"current_range_meters":28400,"station_id":"ce4bgnh2rcd13ifvqc0g","pricing_plan_id":"free"},{"bike_id":"92dc65d6-6823-4de3-93d4-056f738f090c","system_id":"levelo_inurba_marseille","lat":43.316538,"lon":5.38954,"is_reserved":false,"is_disabled":false,"rental_uris":{"android":"levelo://app?vid=92dc65d6-6823-4de3-93d4-056f738f090c","ios":"levelo://app?vid=92dc65d6-6823-4de3-93d4-056f738f090c"},"vehicle_type_id":"4","last_reported":1702044417,"current_range_meters":1600,"station_id":"","pricing_plan_id":"free"},{"bike_id":"52c07677-dffb-4298-9a3b-51819308472e","system_id":"levelo_inurba_marseille","lat":43.299028,"lon":5.381509,"is_reserved":false,"is_disabled":false,"rental_uris":{"android":"levelo://app?vid=52c07677-dffb-4298-9a3b-51819308472e","ios":"levelo://app?vid=52c07677-dffb-4298-9a3b-51819308472e"},"vehicle_type_id":"4","last_reported":1702044417,"current_range_meters":17200,"station_id":"ce4bgj12rcd13ifvqbc0","pricing_plan_id":"free"},{"bike_id":"0eff80ae-56b3-415f-a55c-ffb7060807e9","system_id":"levelo_inurba_marseille","lat":43.31757,"lon":5.39013,"is_reserved":false,"is_disabled":false,"rental_uris":{"android":"levelo://app?vid=0eff80ae-56b3-415f-a55c-ffb7060807e9","ios":"levelo://app?vid=0eff80ae-56b3-415f-a55c-ffb7060807e9"},"vehicle_type_id":"4","last_reported":1702044417,"current_range_meters":15200,"station_id":"ce4bhqp2rcd13ifvqhng","pricing_plan_id":"free"},{"bike_id":"1ac0b244-68f8-45b7-8d82-864156d78203","system_id":"levelo_inurba_marseille","lat":43.317557,"lon":5.390173,"is_reserved":false,"is_disabled":false,"rental_uris":{"android":"levelo://app?vid=1ac0b244-68f8-45b7-8d82-864156d78203","ios":"levelo://app?vid=1ac0b244-68f8-45b7-8d82-864156d78203"},"vehicle_type_id":"4","last_reported":1702044417,"current_range_meters":25600,"station_id":"ce4bhqp2rcd13ifvqhng","pricing_plan_id":"free"},{"bike_id":"77325df2-a387-45f8-8080-f5818d63a7d8","system_id":"levelo_inurba_marseille","lat":43.304278,"lon":5.388868,"is_reserved":false,"is_disabled":false,"rental_uris":{"android":"levelo://app?vid=77325df2-a387-45f8-8080-f5818d63a7d8","ios":"levelo://app?vid=77325df2-a387-45f8-8080-f5818d63a7d8"},"vehicle_type_id":"4","last_reported":1702044417,"current_range_meters":16000,"station_id":"ce4bgk12rcd13ifvqbi0","pricing_plan_id":"free"},{"bike_id":"6182a68d-fb48-4e4e-a80e-a7d7f926e551","system_id":"levelo_inurba_marseille","lat":43.295279,"lon":5.375048,"is_reserved":false,"is_disabled":false,"rental_uris":{"android":"levelo://app?vid=6182a68d-fb48-4e4e-a80e-a7d7f926e551","ios":"levelo://app?vid=6182a68d-fb48-4e4e-a80e-a7d7f926e551"},"vehicle_type_id":"4","last_reported":1702044417,"current_range_meters":18800,"station_id":"ce4bgkp2rcd13ifvqbmg","pricing_plan_id":"free"},{"bike_id":"e37ac621-b119-47db-a4a0-b01f262c7bd9","system_id":"levelo_inurba_marseille","lat":43.32363,"lon":5.38882,"is_reserved":false,"is_disabled":false,"rental_uris":{"android":"levelo://app?vid=e37ac621-b119-47db-a4a0-b01f262c7bd9","ios":"levelo://app?vid=e37ac621-b119-47db-a4a0-b01f262c7bd9"},"vehicle_type_id":"4","last_reported":1702044417,"current_range_meters":21600,"station_id":"ce4bhqp2rcd13ifvqhog","pricing_plan_id":"free"},{"bike_id":"6199797a-557d-44a3-9cf1-6f997e0d56b6","system_id":"levelo_inurba_marseille","lat":43.32363,"lon":5.38883,"is_reserved":false,"is_disabled":false,"rental_uris":{"android":"levelo://app?vid=6199797a-557d-44a3-9cf1-6f997e0d56b6","ios":"levelo://app?vid=6199797a-557d-44a3-9cf1-6f997e0d56b6"},"vehicle_type_id":"4","last_reported":1702044417,"current_range_meters":10800,"station_id":"ce4bhqp2rcd13ifvqhog","pricing_plan_id":"free"},{"bike_id":"edb65791-72fd-4efe-a1f5-46dfb8da63e8","system_id":"levelo_inurba_marseille","lat":43.32362,"lon":5.38887,"is_reserved":false,"is_disabled":false,"rental_uris":{"android":"levelo://app?vid=edb65791-72fd-4efe-a1f5-46dfb8da63e8","ios":"levelo://app?vid=edb65791-72fd-4efe-a1f5-46dfb8da63e8"},"vehicle_type_id":"4","last_reported":1702044417,"current_range_meters":29600,"station_id":"ce4bhqp2rcd13ifvqhog","pricing_plan_id":"free"},{"bike_id":"91c93745-1b35-41ed-9e31-cbc0ca989e2f","system_id":"levelo_inurba_marseille","lat":43.29601,"lon":5.381084,"is_reserved":false,"is_disabled":false,"rental_uris":{"android":"levelo://app?vid=91c93745-1b35-41ed-9e31-cbc0ca989e2f","ios":"levelo://app?vid=91c93745-1b35-41ed-9e31-cbc0ca989e2f"},"vehicle_type_id":"4","last_reported":1702044417,"current_range_meters":800,"station_id":"ce4bgl12rcd13ifvqbo0","pricing_plan_id":"free"},{"bike_id":"d9fdbf3e-6f6f-448c-870e-b56d50edab0c","system_id":"levelo_inurba_marseille","lat":43.29601,"lon":5.381084,"is_reserved":false,"is_disabled":false,"rental_uris":{"android":"levelo://app?vid=d9fdbf3e-6f6f-448c-870e-b56d50edab0c","ios":"levelo://app?vid=d9fdbf3e-6f6f-448c-870e-b56d50edab0c"},"vehicle_type_id":"4","last_reported":1702044417,"current_range_meters":5600,"station_id":"ce4bgl12rcd13ifvqbo0","pricing_plan_id":"free"},{"bike_id":"ece59a07-c8a6-45a8-8304-544587cae70b","system_id":"levelo_inurba_marseille","lat":43.29602,"lon":5.381084,"is_reserved":false,"is_disabled":false,"rental_uris":{"android":"levelo://app?vid=ece59a07-c8a6-45a8-8304-544587cae70b","ios":"levelo://app?vid=ece59a07-c8a6-45a8-8304-544587cae70b"},"vehicle_type_id":"4","last_reported":1702044417,"current_range_meters":22000,"station_id":"ce4bgl12rcd13ifvqbo0","pricing_plan_id":"free"},{"bike_id":"60cf0fc6-4675-4a17-b106-c6ca53e43421","system_id":"levelo_inurba_marseille","lat":43.293009,"lon":5.374584,"is_reserved":false,"is_disabled":false,"rental_uris":{"android":"levelo://app?vid=60cf0fc6-4675-4a17-b106-c6ca53e43421","ios":"levelo://app?vid=60cf0fc6-4675-4a17-b106-c6ca53e43421"},"vehicle_type_id":"4","last_reported":1702044417,"current_range_meters":30400,"station_id":"ce4bgi12rcd13ifvqb70","pricing_plan_id":"free"},{"bike_id":"523096b7-85c3-46d0-91c1-5e0ff788ee5b","system_id":"levelo_inurba_marseille","lat":43.305994,"lon":5.393687,"is_reserved":false,"is_disabled":false,"rental_uris":{"android":"levelo://app?vid=523096b7-85c3-46d0-91c1-5e0ff788ee5b","ios":"levelo://app?vid=523096b7-85c3-46d0-91c1-5e0ff788ee5b"},"vehicle_type_id":"4","last_reported":1702044417,"current_range_meters":13600,"station_id":"ce4bh0p2rcd13ifvqd80","pricing_plan_id":"free"},{"bike_id":"feef02c3-8430-4243-b148-70dc626cf07c","system_id":"levelo_inurba_marseille","lat":43.302992,"lon":5.392136,"is_reserved":false,"is_disabled":false,"rental_uris":{"android":"levelo://app?vid=feef02c3-8430-4243-b148-70dc626cf07c","ios":"levelo://app?vid=feef02c3-8430-4243-b148-70dc626cf07c"},"vehicle_type_id":"4","last_reported":1702044417,"current_range_meters":7600,"station_id":"ce4bgkh2rcd13ifvqbk0","pricing_plan_id":"free"},{"bike_id":"c20baaa4-6b67-4f19-b53f-cdd031ce94a1","system_id":"levelo_inurba_marseille","lat":43.291675,"lon":5.371583,"is_reserved":false,"is_disabled":false,"rental_uris":{"android":"levelo://app?vid=c20baaa4-6b67-4f19-b53f-cdd031ce94a1","ios":"levelo://app?vid=c20baaa4-6b67-4f19-b53f-cdd031ce94a1"},"vehicle_type_id":"4","last_reported":1702044417,"current_range_meters":21200,"station_id":"ce4bha92rcd13ifvqeh0","pricing_plan_id":"free"},{"bike_id":"aa3b6e07-a318-4d1f-8612-b508d2d74144","system_id":"levelo_inurba_marseille","lat":43.2987,"lon":5.3891,"is_reserved":false,"is_disabled":false,"rental_uris":{"android":"levelo://app?vid=aa3b6e07-a318-4d1f-8612-b508d2d74144","ios":"levelo://app?vid=aa3b6e07-a318-4d1f-8612-b508d2d74144"},"vehicle_type_id":"4","last_reported":1702044417,"current_range_meters":20000,"station_id":"","pricing_plan_id":"free"},{"bike_id":"e39e8f2d-f2e5-4d78-9689-fa2e0a545b2b","system_id":"levelo_inurba_marseille","lat":43.313241,"lon":5.396925,"is_reserved":false,"is_disabled":false,"rental_uris":{"android":"levelo://app?vid=e39e8f2d-f2e5-4d78-9689-fa2e0a545b2b","ios":"levelo://app?vid=e39e8f2d-f2e5-4d78-9689-fa2e0a545b2b"},"vehicle_type_id":"4","last_reported":1702044417,"current_range_meters":12000,"station_id":"","pricing_plan_id":"free"},{"bike_id":"0bd6bb2a-bc0e-4ceb-8988-c75eecaddaa5","system_id":"levelo_inurba_marseille","lat":43.29187,"lon":5.35797,"is_reserved":false,"is_disabled":false,"rental_uris":{"android":"levelo://app?vid=0bd6bb2a-bc0e-4ceb-8988-c75eecaddaa5","ios":"levelo://app?vid=0bd6bb2a-bc0e-4ceb-8988-c75eecaddaa5"},"vehicle_type_id":"4","last_reported":1702044417,"current_range_meters":20400,"station_id":"ce4bhb12rcd13ifvqel0","pricing_plan_id":"free"},{"bike_id":"22ae932c-7ca3-4dc6-806d-aa18c7800a3f","system_id":"levelo_inurba_marseille","lat":43.31329,"lon":5.397007,"is_reserved":false,"is_disabled":false,"rental_uris":{"android":"levelo://app?vid=22ae932c-7ca3-4dc6-806d-aa18c7800a3f","ios":"levelo://app?vid=22ae932c-7ca3-4dc6-806d-aa18c7800a3f"},"vehicle_type_id":"4","last_reported":1702044417,"current_range_meters":12800,"station_id":"ce4bgvp2rcd13ifvqcu0","pricing_plan_id":"free"},{"bike_id":"7aa18d9e-4308-4014-b93e-53a223741135","system_id":"levelo_inurba_marseille","lat":43.29529,"lon":5.385581,"is_reserved":false,"is_disabled":false,"rental_uris":{"android":"levelo://app?vid=7aa18d9e-4308-4014-b93e-53a223741135","ios":"levelo://app?vid=7aa18d9e-4308-4014-b93e-53a223741135"},"vehicle_type_id":"4","last_reported":1702044417,"current_range_meters":22800,"station_id":"ce4bgih2rcd13ifvqba0","pricing_plan_id":"free"},{"bike_id":"38906fb1-05c2-4df2-a346-aa69a93eecd4","system_id":"levelo_inurba_marseille","lat":43.290631,"lon":5.359244,"is_reserved":false,"is_disabled":false,"rental_uris":{"android":"levelo://app?vid=38906fb1-05c2-4df2-a346-aa69a93eecd4","ios":"levelo://app?vid=38906fb1-05c2-4df2-a346-aa69a93eecd4"},"vehicle_type_id":"4","last_reported":1702044417,"current_range_meters":4400,"station_id":"ce4bha92rcd13ifvqeg0","pricing_plan_id":"free"},{"bike_id":"a02a1b20-1fb1-4951-988a-77389649024d","system_id":"levelo_inurba_marseille","lat":43.289259,"lon":5.366364,"is_reserved":false,"is_disabled":false,"rental_uris":{"android":"levelo://app?vid=a02a1b20-1fb1-4951-988a-77389649024d","ios":"levelo://app?vid=a02a1b20-1fb1-4951-988a-77389649024d"},"vehicle_type_id":"4","last_reported":1702044417,"current_range_meters":15600,"station_id":"","pricing_plan_id":"free"},{"bike_id":"b661e4cd-d649-4e5d-8663-05dcdae6fc47","system_id":"levelo_inurba_marseille","lat":43.292642,"lon":5.384254,"is_reserved":false,"is_disabled":false,"rental_uris":{"android":"levelo://app?vid=b661e4cd-d649-4e5d-8663-05dcdae6fc47","ios":"levelo://app?vid=b661e4cd-d649-4e5d-8663-05dcdae6fc47"},"vehicle_type_id":"4","last_reported":1702044417,"current_range_meters":24000,"station_id":"ce4bh692rcd13ifvqea0","pricing_plan_id":"free"},{"bike_id":"2cc10ab4-3996-4a87-9958-d847d639c8d8","system_id":"levelo_inurba_marseille","lat":43.292644,"lon":5.384257,"is_reserved":false,"is_disabled":false,"rental_uris":{"android":"levelo://app?vid=2cc10ab4-3996-4a87-9958-d847d639c8d8","ios":"levelo://app?vid=2cc10ab4-3996-4a87-9958-d847d639c8d8"},"vehicle_type_id":"4","last_reported":1702044417,"current_range_meters":10800,"station_id":"ce4bh692rcd13ifvqea0","pricing_plan_id":"free"},{"bike_id":"854d87da-1f85-451c-b1d0-0d0e8cfcde39","system_id":"levelo_inurba_marseille","lat":43.33042,"lon":5.3892,"is_reserved":false,"is_disabled":false,"rental_uris":{"android":"levelo://app?vid=854d87da-1f85-451c-b1d0-0d0e8cfcde39","ios":"levelo://app?vid=854d87da-1f85-451c-b1d0-0d0e8cfcde39"},"vehicle_type_id":"4","last_reported":1702044417,"current_range_meters":21600,"station_id":"ce4bhr92rcd13ifvqhrg","pricing_plan_id":"free"},{"bike_id":"db8aa063-5f5e-4dfb-80c2-e6e32766cf4f","system_id":"levelo_inurba_marseille","lat":43.290995,"lon":5.381361,"is_reserved":false,"is_disabled":false,"rental_uris":{"android":"levelo://app?vid=db8aa063-5f5e-4dfb-80c2-e6e32766cf4f","ios":"levelo://app?vid=db8aa063-5f5e-4dfb-80c2-e6e32766cf4f"},"vehicle_type_id":"4","last_reported":1702044417,"current_range_meters":25600,"station_id":"ce4bh512rcd13ifvqe2g","pricing_plan_id":"free"},{"bike_id":"c995857c-ad29-40d0-9838-5d42d9d0d6b6","system_id":"levelo_inurba_marseille","lat":43.29774,"lon":5.39329,"is_reserved":false,"is_disabled":false,"rental_uris":{"android":"levelo://app?vid=c995857c-ad29-40d0-9838-5d42d9d0d6b6","ios":"levelo://app?vid=c995857c-ad29-40d0-9838-5d42d9d0d6b6"},"vehicle_type_id":"4","last_reported":1702044417,"current_range_meters":0,"station_id":"chh1huq6cuj3fo74tm60","pricing_plan_id":"free"},{"bike_id":"02e4501e-5e19-45c2-aa71-19f4f017ff9f","system_id":"levelo_inurba_marseille","lat":43.28856,"lon":5.358371,"is_reserved":false,"is_disabled":false,"rental_uris":{"android":"levelo://app?vid=02e4501e-5e19-45c2-aa71-19f4f017ff9f","ios":"levelo://app?vid=02e4501e-5e19-45c2-aa71-19f4f017ff9f"},"vehicle_type_id":"4","last_reported":1702044417,"current_range_meters":14800,"station_id":"ce4bhb12rcd13ifvqem0","pricing_plan_id":"free"},{"bike_id":"5cd2c350-feb1-4b91-b5f8-e4d27a513a05","system_id":"levelo_inurba_marseille","lat":43.28849,"lon":5.35862,"is_reserved":false,"is_disabled":false,"rental_uris":{"android":"levelo://app?vid=5cd2c350-feb1-4b91-b5f8-e4d27a513a05","ios":"levelo://app?vid=5cd2c350-feb1-4b91-b5f8-e4d27a513a05"},"vehicle_type_id":"4","last_reported":1702044417,"current_range_meters":24400,"station_id":"ce4bhb12rcd13ifvqem0","pricing_plan_id":"free"},{"bike_id":"31bdc986-84ce-46e9-b5bb-02e59fc082f2","system_id":"levelo_inurba_marseille","lat":43.312704,"lon":5.401709,"is_reserved":false,"is_disabled":false,"rental_uris":{"android":"levelo://app?vid=31bdc986-84ce-46e9-b5bb-02e59fc082f2","ios":"levelo://app?vid=31bdc986-84ce-46e9-b5bb-02e59fc082f2"},"vehicle_type_id":"4","last_reported":1702044417,"current_range_meters":23600,"station_id":"","pricing_plan_id":"free"},{"bike_id":"9771dfd8-017b-477e-9f38-39c8dec9c905","system_id":"levelo_inurba_marseille","lat":43.3377,"lon":5.37437,"is_reserved":false,"is_disabled":false,"rental_uris":{"android":"levelo://app?vid=9771dfd8-017b-477e-9f38-39c8dec9c905","ios":"levelo://app?vid=9771dfd8-017b-477e-9f38-39c8dec9c905"},"vehicle_type_id":"4","last_reported":1702044417,"current_range_meters":31200,"station_id":"","pricing_plan_id":"free"},{"bike_id":"860ba5d2-961e-451b-904c-b6da12973be5","system_id":"levelo_inurba_marseille","lat":43.28727,"lon":5.36078,"is_reserved":false,"is_disabled":false,"rental_uris":{"android":"levelo://app?vid=860ba5d2-961e-451b-904c-b6da12973be5","ios":"levelo://app?vid=860ba5d2-961e-451b-904c-b6da12973be5"},"vehicle_type_id":"4","last_reported":1702044417,"current_range_meters":29200,"station_id":"cki0cbj6b192h4jlfktg","pricing_plan_id":"free"},{"bike_id":"1802029b-fbaa-49a1-a967-2bd1e16cb7d9","system_id":"levelo_inurba_marseille","lat":43.286961,"lon":5.373785,"is_reserved":false,"is_disabled":false,"rental_uris":{"android":"levelo://app?vid=1802029b-fbaa-49a1-a967-2bd1e16cb7d9","ios":"levelo://app?vid=1802029b-fbaa-49a1-a967-2bd1e16cb7d9"},"vehicle_type_id":"4","last_reported":1702044417,"current_range_meters":8400,"station_id":"ce4bh3p2rcd13ifvqdq0","pricing_plan_id":"free"},{"bike_id":"11204b9a-b76d-46d5-b245-42f26064cc55","system_id":"levelo_inurba_marseille","lat":43.298681,"lon":5.397225,"is_reserved":false,"is_disabled":false,"rental_uris":{"android":"levelo://app?vid=11204b9a-b76d-46d5-b245-42f26064cc55","ios":"levelo://app?vid=11204b9a-b76d-46d5-b245-42f26064cc55"},"vehicle_type_id":"4","last_reported":1702044417,"current_range_meters":25600,"station_id":"ce4bh0h2rcd13ifvqd50","pricing_plan_id":"free"},{"bike_id":"5f3bf6c9-3a86-48ca-a42b-36028f265419","system_id":"levelo_inurba_marseille","lat":43.289307,"lon":5.38406,"is_reserved":false,"is_disabled":false,"rental_uris":{"android":"levelo://app?vid=5f3bf6c9-3a86-48ca-a42b-36028f265419","ios":"levelo://app?vid=5f3bf6c9-3a86-48ca-a42b-36028f265419"},"vehicle_type_id":"4","last_reported":1702044417,"current_range_meters":27600,"station_id":"ce4bh612rcd13ifvqe6g","pricing_plan_id":"free"},{"bike_id":"9085d18b-e9b2-4c4e-b44d-714c24fd9e05","system_id":"levelo_inurba_marseille","lat":43.287184,"lon":5.37937,"is_reserved":false,"is_disabled":false,"rental_uris":{"android":"levelo://app?vid=9085d18b-e9b2-4c4e-b44d-714c24fd9e05","ios":"levelo://app?vid=9085d18b-e9b2-4c4e-b44d-714c24fd9e05"},"vehicle_type_id":"4","last_reported":1702044417,"current_range_meters":19200,"station_id":"ce4bh9p2rcd13ifvqec0","pricing_plan_id":"free"},{"bike_id":"85081bf8-870d-4539-92ff-e94f394f41b9","system_id":"levelo_inurba_marseille","lat":43.316523,"lon":5.404367,"is_reserved":false,"is_disabled":false,"rental_uris":{"android":"levelo://app?vid=85081bf8-870d-4539-92ff-e94f394f41b9","ios":"levelo://app?vid=85081bf8-870d-4539-92ff-e94f394f41b9"},"vehicle_type_id":"4","last_reported":1702044417,"current_range_meters":26400,"station_id":"ce4bh012rcd13ifvqd00","pricing_plan_id":"free"},{"bike_id":"30425315-db13-493f-acf5-873ec669ae7e","system_id":"levelo_inurba_marseille","lat":43.28462,"lon":5.35887,"is_reserved":false,"is_disabled":false,"rental_uris":{"android":"levelo://app?vid=30425315-db13-493f-acf5-873ec669ae7e","ios":"levelo://app?vid=30425315-db13-493f-acf5-873ec669ae7e"},"vehicle_type_id":"4","last_reported":1702044417,"current_range_meters":22800,"station_id":"ce4bhah2rcd13ifvqei0","pricing_plan_id":"free"},{"bike_id":"ab381afd-851a-4c31-8039-aa2030d04c1d","system_id":"levelo_inurba_marseille","lat":43.294314,"lon":5.397498,"is_reserved":false,"is_disabled":false,"rental_uris":{"android":"levelo://app?vid=ab381afd-851a-4c31-8039-aa2030d04c1d","ios":"levelo://app?vid=ab381afd-851a-4c31-8039-aa2030d04c1d"},"vehicle_type_id":"4","last_reported":1702044417,"current_range_meters":12000,"station_id":"ce4bh3h2rcd13ifvqdo0","pricing_plan_id":"free"},{"bike_id":"ecc44a28-2ecc-4b1f-98a9-a014dde0c0e0","system_id":"levelo_inurba_marseille","lat":43.286217,"lon":5.35103,"is_reserved":false,"is_disabled":false,"rental_uris":{"android":"levelo://app?vid=ecc44a28-2ecc-4b1f-98a9-a014dde0c0e0","ios":"levelo://app?vid=ecc44a28-2ecc-4b1f-98a9-a014dde0c0e0"},"vehicle_type_id":"4","last_reported":1702044417,"current_range_meters":14400,"station_id":"ce4bhch2rcd13ifvqeug","pricing_plan_id":"free"},{"bike_id":"367a68ac-8c31-4981-8492-59a0c5ea95f9","system_id":"levelo_inurba_marseille","lat":43.285848,"lon":5.350787,"is_reserved":false,"is_disabled":false,"rental_uris":{"android":"levelo://app?vid=367a68ac-8c31-4981-8492-59a0c5ea95f9","ios":"levelo://app?vid=367a68ac-8c31-4981-8492-59a0c5ea95f9"},"vehicle_type_id":"4","last_reported":1702044417,"current_range_meters":4000,"station_id":"ce4bhch2rcd13ifvqeug","pricing_plan_id":"free"},{"bike_id":"5e42db1a-e100-4e4c-a4bd-246a1e32dff8","system_id":"levelo_inurba_marseille","lat":43.295713,"lon":5.399639,"is_reserved":false,"is_disabled":false,"rental_uris":{"android":"levelo://app?vid=5e42db1a-e100-4e4c-a4bd-246a1e32dff8","ios":"levelo://app?vid=5e42db1a-e100-4e4c-a4bd-246a1e32dff8"},"vehicle_type_id":"4","last_reported":1702044417,"current_range_meters":30400,"station_id":"ce4bh312rcd13ifvqdj0","pricing_plan_id":"free"},{"bike_id":"10fc081b-0f8a-4c77-bae3-90d09bccc687","system_id":"levelo_inurba_marseille","lat":43.28431,"lon":5.37845,"is_reserved":false,"is_disabled":false,"rental_uris":{"android":"levelo://app?vid=10fc081b-0f8a-4c77-bae3-90d09bccc687","ios":"levelo://app?vid=10fc081b-0f8a-4c77-bae3-90d09bccc687"},"vehicle_type_id":"4","last_reported":1702044417,"current_range_meters":27600,"station_id":"","pricing_plan_id":"free"},{"bike_id":"391c6299-bb20-4ac9-a22f-2143c8795b24","system_id":"levelo_inurba_marseille","lat":43.337168,"lon":5.391825,"is_reserved":false,"is_disabled":false,"rental_uris":{"android":"levelo://app?vid=391c6299-bb20-4ac9-a22f-2143c8795b24","ios":"levelo://app?vid=391c6299-bb20-4ac9-a22f-2143c8795b24"},"vehicle_type_id":"4","last_reported":1702044417,"current_range_meters":27600,"station_id":"ce4bhr92rcd13ifvqhsg","pricing_plan_id":"free"},{"bike_id":"b97fa97d-7355-41a5-96ec-828ba2add28f","system_id":"levelo_inurba_marseille","lat":43.284793,"lon":5.384119,"is_reserved":false,"is_disabled":false,"rental_uris":{"android":"levelo://app?vid=b97fa97d-7355-41a5-96ec-828ba2add28f","ios":"levelo://app?vid=b97fa97d-7355-41a5-96ec-828ba2add28f"},"vehicle_type_id":"4","last_reported":1702044417,"current_range_meters":14800,"station_id":"ce4bh512rcd13ifvqe3g","pricing_plan_id":"free"},{"bike_id":"010c59b4-a0a9-4905-924f-c06edaffd4ac","system_id":"levelo_inurba_marseille","lat":43.288501,"lon":5.393087,"is_reserved":false,"is_disabled":false,"rental_uris":{"android":"levelo://app?vid=010c59b4-a0a9-4905-924f-c06edaffd4ac","ios":"levelo://app?vid=010c59b4-a0a9-4905-924f-c06edaffd4ac"},"vehicle_type_id":"4","last_reported":1702044417,"current_range_meters":8800,"station_id":"ce4bh2p2rcd13ifvqdi0","pricing_plan_id":"free"},{"bike_id":"b9587647-1ce4-4b86-a392-867d01986546","system_id":"levelo_inurba_marseille","lat":43.284219,"lon":5.3497,"is_reserved":false,"is_disabled":false,"rental_uris":{"android":"levelo://app?vid=b9587647-1ce4-4b86-a392-867d01986546","ios":"levelo://app?vid=b9587647-1ce4-4b86-a392-867d01986546"},"vehicle_type_id":"4","last_reported":1702044417,"current_range_meters":26800,"station_id":"ce4bhbh2rcd13ifvqepg","pricing_plan_id":"free"},{"bike_id":"37af3cbb-6e49-4814-b0af-7e855ca323e4","system_id":"levelo_inurba_marseille","lat":43.2924,"lon":5.39926,"is_reserved":false,"is_disabled":false,"rental_uris":{"android":"levelo://app?vid=37af3cbb-6e49-4814-b0af-7e855ca323e4","ios":"levelo://app?vid=37af3cbb-6e49-4814-b0af-7e855ca323e4"},"vehicle_type_id":"4","last_reported":1702044417,"current_range_meters":12400,"station_id":"","pricing_plan_id":"free"},{"bike_id":"236aa4a1-6bb1-4b5b-8465-1dadb6800ecd","system_id":"levelo_inurba_marseille","lat":43.292724,"lon":5.401131,"is_reserved":false,"is_disabled":false,"rental_uris":{"android":"levelo://app?vid=236aa4a1-6bb1-4b5b-8465-1dadb6800ecd","ios":"levelo://app?vid=236aa4a1-6bb1-4b5b-8465-1dadb6800ecd"},"vehicle_type_id":"4","last_reported":1702044417,"current_range_meters":24400,"station_id":"ce4bh312rcd13ifvqdk0","pricing_plan_id":"free"},{"bike_id":"be103277-cbac-4b34-89fd-69dd6bfe132c","system_id":"levelo_inurba_marseille","lat":43.282754,"lon":5.350519,"is_reserved":false,"is_disabled":false,"rental_uris":{"android":"levelo://app?vid=be103277-cbac-4b34-89fd-69dd6bfe132c","ios":"levelo://app?vid=be103277-cbac-4b34-89fd-69dd6bfe132c"},"vehicle_type_id":"4","last_reported":1702044417,"current_range_meters":30400,"station_id":"ce4bhbp2rcd13ifvqerg","pricing_plan_id":"free"},{"bike_id":"c820c479-b46f-4eab-84cf-9a0d407fa3f9","system_id":"levelo_inurba_marseille","lat":43.282754,"lon":5.350519,"is_reserved":false,"is_disabled":false,"rental_uris":{"android":"levelo://app?vid=c820c479-b46f-4eab-84cf-9a0d407fa3f9","ios":"levelo://app?vid=c820c479-b46f-4eab-84cf-9a0d407fa3f9"},"vehicle_type_id":"4","last_reported":1702044417,"current_range_meters":12400,"station_id":"ce4bhbp2rcd13ifvqerg","pricing_plan_id":"free"},{"bike_id":"2bb4f46a-e138-4137-abee-03328c50324e","system_id":"levelo_inurba_marseille","lat":43.283502,"lon":5.386471,"is_reserved":false,"is_disabled":false,"rental_uris":{"android":"levelo://app?vid=2bb4f46a-e138-4137-abee-03328c50324e","ios":"levelo://app?vid=2bb4f46a-e138-4137-abee-03328c50324e"},"vehicle_type_id":"4","last_reported":1702044417,"current_range_meters":21600,"station_id":"ce4bh492rcd13ifvqdvg","pricing_plan_id":"free"},{"bike_id":"f202e23c-7c59-419e-9b6c-9ae6035bd01c","system_id":"levelo_inurba_marseille","lat":43.28039,"lon":5.369297,"is_reserved":false,"is_disabled":false,"rental_uris":{"android":"levelo://app?vid=f202e23c-7c59-419e-9b6c-9ae6035bd01c","ios":"levelo://app?vid=f202e23c-7c59-419e-9b6c-9ae6035bd01c"},"vehicle_type_id":"4","last_reported":1702044417,"current_range_meters":26800,"station_id":"ce4bha12rcd13ifvqef0","pricing_plan_id":"free"},{"bike_id":"4cb26acb-4820-4702-b686-e3ade9741235","system_id":"levelo_inurba_marseille","lat":43.290412,"lon":5.399633,"is_reserved":false,"is_disabled":false,"rental_uris":{"android":"levelo://app?vid=4cb26acb-4820-4702-b686-e3ade9741235","ios":"levelo://app?vid=4cb26acb-4820-4702-b686-e3ade9741235"},"vehicle_type_id":"4","last_reported":1702044417,"current_range_meters":24400,"station_id":"ce4bh392rcd13ifvqdm0","pricing_plan_id":"free"},{"bike_id":"18042a15-56ee-40e1-80a8-bf6eafedf451","system_id":"levelo_inurba_marseille","lat":43.281044,"lon":5.378308,"is_reserved":false,"is_disabled":false,"rental_uris":{"android":"levelo://app?vid=18042a15-56ee-40e1-80a8-bf6eafedf451","ios":"levelo://app?vid=18042a15-56ee-40e1-80a8-bf6eafedf451"},"vehicle_type_id":"4","last_reported":1702044417,"current_range_meters":1200,"station_id":"ce4bha12rcd13ifvqee0","pricing_plan_id":"free"},{"bike_id":"ac1a2b31-d37d-4d95-b2ab-5aa735d06d46","system_id":"levelo_inurba_marseille","lat":43.281044,"lon":5.378308,"is_reserved":false,"is_disabled":false,"rental_uris":{"android":"levelo://app?vid=ac1a2b31-d37d-4d95-b2ab-5aa735d06d46","ios":"levelo://app?vid=ac1a2b31-d37d-4d95-b2ab-5aa735d06d46"},"vehicle_type_id":"4","last_reported":1702044417,"current_range_meters":23200,"station_id":"ce4bha12rcd13ifvqee0","pricing_plan_id":"free"},{"bike_id":"e75c18b2-e39b-4edd-b14b-697ef969f6b9","system_id":"levelo_inurba_marseille","lat":43.285742,"lon":5.395004,"is_reserved":false,"is_disabled":false,"rental_uris":{"android":"levelo://app?vid=e75c18b2-e39b-4edd-b14b-697ef969f6b9","ios":"levelo://app?vid=e75c18b2-e39b-4edd-b14b-697ef969f6b9"},"vehicle_type_id":"4","last_reported":1702044417,"current_range_meters":28400,"station_id":"ce4bh292rcd13ifvqdg0","pricing_plan_id":"free"},{"bike_id":"5a7072bd-27dd-437a-aaaa-183e048090e1","system_id":"levelo_inurba_marseille","lat":43.28573,"lon":5.394992,"is_reserved":false,"is_disabled":false,"rental_uris":{"android":"levelo://app?vid=5a7072bd-27dd-437a-aaaa-183e048090e1","ios":"levelo://app?vid=5a7072bd-27dd-437a-aaaa-183e048090e1"},"vehicle_type_id":"4","last_reported":1702044417,"current_range_meters":28800,"station_id":"ce4bh292rcd13ifvqdg0","pricing_plan_id":"free"},{"bike_id":"6860c211-55c7-4323-be26-be9ee6bd4a09","system_id":"levelo_inurba_marseille","lat":43.285742,"lon":5.395004,"is_reserved":false,"is_disabled":false,"rental_uris":{"android":"levelo://app?vid=6860c211-55c7-4323-be26-be9ee6bd4a09","ios":"levelo://app?vid=6860c211-55c7-4323-be26-be9ee6bd4a09"},"vehicle_type_id":"4","last_reported":1702044417,"current_range_meters":18000,"station_id":"ce4bh292rcd13ifvqdg0","pricing_plan_id":"free"},{"bike_id":"46faea07-14b6-4776-a454-ec051dbfb7d8","system_id":"levelo_inurba_marseille","lat":43.326605,"lon":5.409903,"is_reserved":false,"is_disabled":false,"rental_uris":{"android":"levelo://app?vid=46faea07-14b6-4776-a454-ec051dbfb7d8","ios":"levelo://app?vid=46faea07-14b6-4776-a454-ec051dbfb7d8"},"vehicle_type_id":"4","last_reported":1702044417,"current_range_meters":24000,"station_id":"ce4bhpp2rcd13ifvqhgg","pricing_plan_id":"free"},{"bike_id":"e55f2cc2-0183-44d7-8de2-e0d87c32e1ca","system_id":"levelo_inurba_marseille","lat":43.326605,"lon":5.409903,"is_reserved":false,"is_disabled":false,"rental_uris":{"android":"levelo://app?vid=e55f2cc2-0183-44d7-8de2-e0d87c32e1ca","ios":"levelo://app?vid=e55f2cc2-0183-44d7-8de2-e0d87c32e1ca"},"vehicle_type_id":"4","last_reported":1702044417,"current_range_meters":18400,"station_id":"ce4bhpp2rcd13ifvqhgg","pricing_plan_id":"free"},{"bike_id":"c04f7cd5-447c-4ad6-b292-2135da8735d6","system_id":"levelo_inurba_marseille","lat":43.279087,"lon":5.380114,"is_reserved":false,"is_disabled":false,"rental_uris":{"android":"levelo://app?vid=c04f7cd5-447c-4ad6-b292-2135da8735d6","ios":"levelo://app?vid=c04f7cd5-447c-4ad6-b292-2135da8735d6"},"vehicle_type_id":"4","last_reported":1702044417,"current_range_meters":4800,"station_id":"ce4bhf92rcd13ifvqf50","pricing_plan_id":"free"},{"bike_id":"bf9c0286-54ca-458d-a58a-9d0d9c0353fb","system_id":"levelo_inurba_marseille","lat":43.279087,"lon":5.380114,"is_reserved":false,"is_disabled":false,"rental_uris":{"android":"levelo://app?vid=bf9c0286-54ca-458d-a58a-9d0d9c0353fb","ios":"levelo://app?vid=bf9c0286-54ca-458d-a58a-9d0d9c0353fb"},"vehicle_type_id":"4","last_reported":1702044417,"current_range_meters":31600,"station_id":"ce4bhf92rcd13ifvqf50","pricing_plan_id":"free"},{"bike_id":"81894b9c-26e3-4b0a-8f9c-ff601ac303d8","system_id":"levelo_inurba_marseille","lat":43.320045,"lon":5.415046,"is_reserved":false,"is_disabled":false,"rental_uris":{"android":"levelo://app?vid=81894b9c-26e3-4b0a-8f9c-ff601ac303d8","ios":"levelo://app?vid=81894b9c-26e3-4b0a-8f9c-ff601ac303d8"},"vehicle_type_id":"4","last_reported":1702044417,"current_range_meters":28400,"station_id":"ce4bhq92rcd13ifvqhkg","pricing_plan_id":"free"},{"bike_id":"7377c5b4-ca1b-4421-9e18-b1a8db665336","system_id":"levelo_inurba_marseille","lat":43.292571,"lon":5.409107,"is_reserved":false,"is_disabled":false,"rental_uris":{"android":"levelo://app?vid=7377c5b4-ca1b-4421-9e18-b1a8db665336","ios":"levelo://app?vid=7377c5b4-ca1b-4421-9e18-b1a8db665336"},"vehicle_type_id":"4","last_reported":1702044417,"current_range_meters":22000,"station_id":"ce4bh192rcd13ifvqdc0","pricing_plan_id":"free"},{"bike_id":"1607e5e1-1307-4ff5-bfca-6d7a0b22a869","system_id":"levelo_inurba_marseille","lat":43.292569,"lon":5.409107,"is_reserved":false,"is_disabled":false,"rental_uris":{"android":"levelo://app?vid=1607e5e1-1307-4ff5-bfca-6d7a0b22a869","ios":"levelo://app?vid=1607e5e1-1307-4ff5-bfca-6d7a0b22a869"},"vehicle_type_id":"4","last_reported":1702044417,"current_range_meters":22400,"station_id":"ce4bh192rcd13ifvqdc0","pricing_plan_id":"free"},{"bike_id":"44f9b173-7f46-494f-8bbd-14c5ad9a7a00","system_id":"levelo_inurba_marseille","lat":43.276206,"lon":5.36106,"is_reserved":false,"is_disabled":false,"rental_uris":{"android":"levelo://app?vid=44f9b173-7f46-494f-8bbd-14c5ad9a7a00","ios":"levelo://app?vid=44f9b173-7f46-494f-8bbd-14c5ad9a7a00"},"vehicle_type_id":"4","last_reported":1702044417,"current_range_meters":30000,"station_id":"ce4bgj92rcd13ifvqbe0","pricing_plan_id":"free"},{"bike_id":"21353717-0ebc-4941-8111-34c7a0b5fb53","system_id":"levelo_inurba_marseille","lat":43.280776,"lon":5.396502,"is_reserved":false,"is_disabled":false,"rental_uris":{"android":"levelo://app?vid=21353717-0ebc-4941-8111-34c7a0b5fb53","ios":"levelo://app?vid=21353717-0ebc-4941-8111-34c7a0b5fb53"},"vehicle_type_id":"4","last_reported":1702044417,"current_range_meters":19200,"station_id":"ce4bho12rcd13ifvqh2g","pricing_plan_id":"free"},{"bike_id":"49a859aa-7838-419e-85e9-4030e5262bb6","system_id":"levelo_inurba_marseille","lat":43.280784,"lon":5.396622,"is_reserved":false,"is_disabled":false,"rental_uris":{"android":"levelo://app?vid=49a859aa-7838-419e-85e9-4030e5262bb6","ios":"levelo://app?vid=49a859aa-7838-419e-85e9-4030e5262bb6"},"vehicle_type_id":"4","last_reported":1702044417,"current_range_meters":20800,"station_id":"ce4bho12rcd13ifvqh2g","pricing_plan_id":"free"},{"bike_id":"70230563-999a-4335-a794-cb21eb3ac052","system_id":"levelo_inurba_marseille","lat":43.30362,"lon":5.41886,"is_reserved":false,"is_disabled":false,"rental_uris":{"android":"levelo://app?vid=70230563-999a-4335-a794-cb21eb3ac052","ios":"levelo://app?vid=70230563-999a-4335-a794-cb21eb3ac052"},"vehicle_type_id":"4","last_reported":1702044417,"current_range_meters":23600,"station_id":"ce4bhop2rcd13ifvqh7g","pricing_plan_id":"free"},{"bike_id":"2fa2216c-3d2d-4d20-8189-4c064aff2ade","system_id":"levelo_inurba_marseille","lat":43.336134,"lon":5.410341,"is_reserved":false,"is_disabled":false,"rental_uris":{"android":"levelo://app?vid=2fa2216c-3d2d-4d20-8189-4c064aff2ade","ios":"levelo://app?vid=2fa2216c-3d2d-4d20-8189-4c064aff2ade"},"vehicle_type_id":"4","last_reported":1702044417,"current_range_meters":18000,"station_id":"ce4bhqh2rcd13ifvqhmg","pricing_plan_id":"free"},{"bike_id":"cdf22316-39c2-4602-9279-8736b833156f","system_id":"levelo_inurba_marseille","lat":43.292569,"lon":5.409107,"is_reserved":false,"is_disabled":false,"rental_uris":{"android":"levelo://app?vid=cdf22316-39c2-4602-9279-8736b833156f","ios":"levelo://app?vid=cdf22316-39c2-4602-9279-8736b833156f"},"vehicle_type_id":"4","last_reported":1702044417,"current_range_meters":6400,"station_id":"ce4bh192rcd13ifvqdc0","pricing_plan_id":"free"},{"bike_id":"5cc7b054-7f74-4799-ba27-acd88dcc15ab","system_id":"levelo_inurba_marseille","lat":43.27639,"lon":5.39194,"is_reserved":false,"is_disabled":false,"rental_uris":{"android":"levelo://app?vid=5cc7b054-7f74-4799-ba27-acd88dcc15ab","ios":"levelo://app?vid=5cc7b054-7f74-4799-ba27-acd88dcc15ab"},"vehicle_type_id":"4","last_reported":1702044417,"current_range_meters":19200,"station_id":"","pricing_plan_id":"free"},{"bike_id":"986e2640-07f1-4aaf-ae9d-a0bb0a20f26c","system_id":"levelo_inurba_marseille","lat":43.27997,"lon":5.40019,"is_reserved":false,"is_disabled":false,"rental_uris":{"android":"levelo://app?vid=986e2640-07f1-4aaf-ae9d-a0bb0a20f26c","ios":"levelo://app?vid=986e2640-07f1-4aaf-ae9d-a0bb0a20f26c"},"vehicle_type_id":"4","last_reported":1702044417,"current_range_meters":23600,"station_id":"ce4bho92rcd13ifvqh4g","pricing_plan_id":"free"},{"bike_id":"58071915-0719-468a-9399-09a85dafc624","system_id":"levelo_inurba_marseille","lat":43.279975,"lon":5.40009,"is_reserved":false,"is_disabled":false,"rental_uris":{"android":"levelo://app?vid=58071915-0719-468a-9399-09a85dafc624","ios":"levelo://app?vid=58071915-0719-468a-9399-09a85dafc624"},"vehicle_type_id":"4","last_reported":1702044417,"current_range_meters":20000,"station_id":"ce4bho92rcd13ifvqh4g","pricing_plan_id":"free"},{"bike_id":"200eafbf-d9f3-4a6e-935c-b56619044876","system_id":"levelo_inurba_marseille","lat":43.287601,"lon":5.412141,"is_reserved":false,"is_disabled":false,"rental_uris":{"android":"levelo://app?vid=200eafbf-d9f3-4a6e-935c-b56619044876","ios":"levelo://app?vid=200eafbf-d9f3-4a6e-935c-b56619044876"},"vehicle_type_id":"4","last_reported":1702044417,"current_range_meters":23600,"station_id":"","pricing_plan_id":"free"},{"bike_id":"b6d1eb06-6e31-4734-932c-70c73a0e151c","system_id":"levelo_inurba_marseille","lat":43.340804,"lon":5.410219,"is_reserved":false,"is_disabled":false,"rental_uris":{"android":"levelo://app?vid=b6d1eb06-6e31-4734-932c-70c73a0e151c","ios":"levelo://app?vid=b6d1eb06-6e31-4734-932c-70c73a0e151c"},"vehicle_type_id":"4","last_reported":1702044417,"current_range_meters":16400,"station_id":"ce4bhqh2rcd13ifvqhlg","pricing_plan_id":"free"},{"bike_id":"4cb68d94-1263-43e3-905a-c1edcb4fbfcb","system_id":"levelo_inurba_marseille","lat":43.340804,"lon":5.410219,"is_reserved":false,"is_disabled":false,"rental_uris":{"android":"levelo://app?vid=4cb68d94-1263-43e3-905a-c1edcb4fbfcb","ios":"levelo://app?vid=4cb68d94-1263-43e3-905a-c1edcb4fbfcb"},"vehicle_type_id":"4","last_reported":1702044417,"current_range_meters":30400,"station_id":"ce4bhqh2rcd13ifvqhlg","pricing_plan_id":"free"},{"bike_id":"63133364-316e-458e-b234-bbd4926c63fc","system_id":"levelo_inurba_marseille","lat":43.27583,"lon":5.39474,"is_reserved":false,"is_disabled":false,"rental_uris":{"android":"levelo://app?vid=63133364-316e-458e-b234-bbd4926c63fc","ios":"levelo://app?vid=63133364-316e-458e-b234-bbd4926c63fc"},"vehicle_type_id":"4","last_reported":1702044417,"current_range_meters":12400,"station_id":"","pricing_plan_id":"free"},{"bike_id":"4ee84928-30de-467c-8215-de7b5558b7ed","system_id":"levelo_inurba_marseille","lat":43.295511,"lon":5.422926,"is_reserved":false,"is_disabled":false,"rental_uris":{"android":"levelo://app?vid=4ee84928-30de-467c-8215-de7b5558b7ed","ios":"levelo://app?vid=4ee84928-30de-467c-8215-de7b5558b7ed"},"vehicle_type_id":"4","last_reported":1702044417,"current_range_meters":31200,"station_id":"ce4bhph2rcd13ifvqhdg","pricing_plan_id":"free"},{"bike_id":"3b0af698-42ee-45b6-b3e9-44c5695ba2ef","system_id":"levelo_inurba_marseille","lat":43.278128,"lon":5.407195,"is_reserved":false,"is_disabled":false,"rental_uris":{"android":"levelo://app?vid=3b0af698-42ee-45b6-b3e9-44c5695ba2ef","ios":"levelo://app?vid=3b0af698-42ee-45b6-b3e9-44c5695ba2ef"},"vehicle_type_id":"4","last_reported":1702044417,"current_range_meters":27200,"station_id":"ce4bhnh2rcd13ifvqgtg","pricing_plan_id":"free"},{"bike_id":"c9a354e1-cd47-4a73-9444-d6227e3bfab5","system_id":"levelo_inurba_marseille","lat":43.295511,"lon":5.422926,"is_reserved":false,"is_disabled":false,"rental_uris":{"android":"levelo://app?vid=c9a354e1-cd47-4a73-9444-d6227e3bfab5","ios":"levelo://app?vid=c9a354e1-cd47-4a73-9444-d6227e3bfab5"},"vehicle_type_id":"4","last_reported":1702044417,"current_range_meters":28800,"station_id":"ce4bhph2rcd13ifvqhdg","pricing_plan_id":"free"},{"bike_id":"8f021145-48f8-459b-aef0-f8921e18b0a0","system_id":"levelo_inurba_marseille","lat":43.27214,"lon":5.3925,"is_reserved":false,"is_disabled":false,"rental_uris":{"android":"levelo://app?vid=8f021145-48f8-459b-aef0-f8921e18b0a0","ios":"levelo://app?vid=8f021145-48f8-459b-aef0-f8921e18b0a0"},"vehicle_type_id":"4","last_reported":1702044417,"current_range_meters":5200,"station_id":"","pricing_plan_id":"free"},{"bike_id":"c4323be2-25f3-4143-87b0-1b0d70fb1bee","system_id":"levelo_inurba_marseille","lat":43.269467,"lon":5.386439,"is_reserved":false,"is_disabled":false,"rental_uris":{"android":"levelo://app?vid=c4323be2-25f3-4143-87b0-1b0d70fb1bee","ios":"levelo://app?vid=c4323be2-25f3-4143-87b0-1b0d70fb1bee"},"vehicle_type_id":"4","last_reported":1702044417,"current_range_meters":16400,"station_id":"ce4bhh92rcd13ifvqfh0","pricing_plan_id":"free"},{"bike_id":"2768c3da-21d5-420d-b9a3-79891f6be2c1","system_id":"levelo_inurba_marseille","lat":43.269467,"lon":5.386439,"is_reserved":false,"is_disabled":false,"rental_uris":{"android":"levelo://app?vid=2768c3da-21d5-420d-b9a3-79891f6be2c1","ios":"levelo://app?vid=2768c3da-21d5-420d-b9a3-79891f6be2c1"},"vehicle_type_id":"4","last_reported":1702044417,"current_range_meters":20800,"station_id":"ce4bhh92rcd13ifvqfh0","pricing_plan_id":"free"},{"bike_id":"93911d08-3da6-4bba-b39e-c7ffc0d2e972","system_id":"levelo_inurba_marseille","lat":43.26942,"lon":5.38634,"is_reserved":false,"is_disabled":false,"rental_uris":{"android":"levelo://app?vid=93911d08-3da6-4bba-b39e-c7ffc0d2e972","ios":"levelo://app?vid=93911d08-3da6-4bba-b39e-c7ffc0d2e972"},"vehicle_type_id":"4","last_reported":1702044417,"current_range_meters":31200,"station_id":"ce4bhh92rcd13ifvqfh0","pricing_plan_id":"free"},{"bike_id":"9b395720-df5f-409b-98f5-12e9cb843ca2","system_id":"levelo_inurba_marseille","lat":43.269319,"lon":5.389397,"is_reserved":false,"is_disabled":false,"rental_uris":{"android":"levelo://app?vid=9b395720-df5f-409b-98f5-12e9cb843ca2","ios":"levelo://app?vid=9b395720-df5f-409b-98f5-12e9cb843ca2"},"vehicle_type_id":"4","last_reported":1702044417,"current_range_meters":16000,"station_id":"ce4bhhh2rcd13ifvqfl0","pricing_plan_id":"free"},{"bike_id":"577e0a5e-140b-4891-9e8a-bc3e743f2e42","system_id":"levelo_inurba_marseille","lat":43.26681,"lon":5.382694,"is_reserved":false,"is_disabled":false,"rental_uris":{"android":"levelo://app?vid=577e0a5e-140b-4891-9e8a-bc3e743f2e42","ios":"levelo://app?vid=577e0a5e-140b-4891-9e8a-bc3e743f2e42"},"vehicle_type_id":"4","last_reported":1702044417,"current_range_meters":17600,"station_id":"ce4bhg92rcd13ifvqf90","pricing_plan_id":"free"},{"bike_id":"c94bb5ae-64a7-4af6-88b7-93902a830c82","system_id":"levelo_inurba_marseille","lat":43.267966,"lon":5.393976,"is_reserved":false,"is_disabled":false,"rental_uris":{"android":"levelo://app?vid=c94bb5ae-64a7-4af6-88b7-93902a830c82","ios":"levelo://app?vid=c94bb5ae-64a7-4af6-88b7-93902a830c82"},"vehicle_type_id":"4","last_reported":1702044417,"current_range_meters":10400,"station_id":"ce4bhh12rcd13ifvqfg0","pricing_plan_id":"free"},{"bike_id":"1a87741c-d5af-42bd-848e-31819c047748","system_id":"levelo_inurba_marseille","lat":43.267966,"lon":5.393976,"is_reserved":false,"is_disabled":false,"rental_uris":{"android":"levelo://app?vid=1a87741c-d5af-42bd-848e-31819c047748","ios":"levelo://app?vid=1a87741c-d5af-42bd-848e-31819c047748"},"vehicle_type_id":"4","last_reported":1702044417,"current_range_meters":23600,"station_id":"ce4bhh12rcd13ifvqfg0","pricing_plan_id":"free"},{"bike_id":"5c62f0fe-2a68-4f0e-8c5e-1c3be35b64ff","system_id":"levelo_inurba_marseille","lat":43.291678,"lon":5.427952,"is_reserved":false,"is_disabled":false,"rental_uris":{"android":"levelo://app?vid=5c62f0fe-2a68-4f0e-8c5e-1c3be35b64ff","ios":"levelo://app?vid=5c62f0fe-2a68-4f0e-8c5e-1c3be35b64ff"},"vehicle_type_id":"4","last_reported":1702044417,"current_range_meters":10800,"station_id":"","pricing_plan_id":"free"},{"bike_id":"433cbd13-9bc3-4fad-82b0-c5f054d34748","system_id":"levelo_inurba_marseille","lat":43.26565,"lon":5.39009,"is_reserved":false,"is_disabled":false,"rental_uris":{"android":"levelo://app?vid=433cbd13-9bc3-4fad-82b0-c5f054d34748","ios":"levelo://app?vid=433cbd13-9bc3-4fad-82b0-c5f054d34748"},"vehicle_type_id":"4","last_reported":1702044417,"current_range_meters":18000,"station_id":"ce4bhe12rcd13ifvqf30","pricing_plan_id":"free"},{"bike_id":"8fe9f721-9c44-4c4b-9aa8-9d977d696dc6","system_id":"levelo_inurba_marseille","lat":43.26544,"lon":5.39011,"is_reserved":false,"is_disabled":false,"rental_uris":{"android":"levelo://app?vid=8fe9f721-9c44-4c4b-9aa8-9d977d696dc6","ios":"levelo://app?vid=8fe9f721-9c44-4c4b-9aa8-9d977d696dc6"},"vehicle_type_id":"4","last_reported":1702044417,"current_range_meters":0,"station_id":"ce4bhe12rcd13ifvqf30","pricing_plan_id":"free"},{"bike_id":"636c154d-6825-4987-aef5-5e614a571923","system_id":"levelo_inurba_marseille","lat":43.26949,"lon":5.40262,"is_reserved":false,"is_disabled":false,"rental_uris":{"android":"levelo://app?vid=636c154d-6825-4987-aef5-5e614a571923","ios":"levelo://app?vid=636c154d-6825-4987-aef5-5e614a571923"},"vehicle_type_id":"4","last_reported":1702044417,"current_range_meters":12400,"station_id":"cjm6bp8fraef2m0cb0m0","pricing_plan_id":"free"},{"bike_id":"fea4a57c-ce3d-405b-b065-53486e42ebf0","system_id":"levelo_inurba_marseille","lat":43.2694,"lon":5.40258,"is_reserved":false,"is_disabled":false,"rental_uris":{"android":"levelo://app?vid=fea4a57c-ce3d-405b-b065-53486e42ebf0","ios":"levelo://app?vid=fea4a57c-ce3d-405b-b065-53486e42ebf0"},"vehicle_type_id":"4","last_reported":1702044417,"current_range_meters":1600,"station_id":"cjm6bp8fraef2m0cb0m0","pricing_plan_id":"free"},{"bike_id":"b7bc48b4-f47c-431a-914a-6f3c55470804","system_id":"levelo_inurba_marseille","lat":43.269397,"lon":5.402595,"is_reserved":false,"is_disabled":false,"rental_uris":{"android":"levelo://app?vid=b7bc48b4-f47c-431a-914a-6f3c55470804","ios":"levelo://app?vid=b7bc48b4-f47c-431a-914a-6f3c55470804"},"vehicle_type_id":"4","last_reported":1702044417,"current_range_meters":4800,"station_id":"","pricing_plan_id":"free"},{"bike_id":"e5644a5f-5504-4a46-b10e-232a5302c1cf","system_id":"levelo_inurba_marseille","lat":43.261782,"lon":5.374515,"is_reserved":false,"is_disabled":false,"rental_uris":{"android":"levelo://app?vid=e5644a5f-5504-4a46-b10e-232a5302c1cf","ios":"levelo://app?vid=e5644a5f-5504-4a46-b10e-232a5302c1cf"},"vehicle_type_id":"4","last_reported":1702044417,"current_range_meters":28800,"station_id":"ce4bhgp2rcd13ifvqfc0","pricing_plan_id":"free"},{"bike_id":"757258ee-d378-4596-9be6-8ba45a3b925d","system_id":"levelo_inurba_marseille","lat":43.262012,"lon":5.379307,"is_reserved":false,"is_disabled":false,"rental_uris":{"android":"levelo://app?vid=757258ee-d378-4596-9be6-8ba45a3b925d","ios":"levelo://app?vid=757258ee-d378-4596-9be6-8ba45a3b925d"},"vehicle_type_id":"4","last_reported":1702044417,"current_range_meters":17600,"station_id":"ce4bhjp2rcd13ifvqg90","pricing_plan_id":"free"},{"bike_id":"1c24e0cd-92ad-428d-a813-b54825f69ac1","system_id":"levelo_inurba_marseille","lat":43.26202,"lon":5.379299,"is_reserved":false,"is_disabled":false,"rental_uris":{"android":"levelo://app?vid=1c24e0cd-92ad-428d-a813-b54825f69ac1","ios":"levelo://app?vid=1c24e0cd-92ad-428d-a813-b54825f69ac1"},"vehicle_type_id":"4","last_reported":1702044417,"current_range_meters":27600,"station_id":"ce4bhjp2rcd13ifvqg90","pricing_plan_id":"free"},{"bike_id":"efa24303-85ca-4cb7-8ca4-9a01f478b899","system_id":"levelo_inurba_marseille","lat":43.267959,"lon":5.402687,"is_reserved":false,"is_disabled":false,"rental_uris":{"android":"levelo://app?vid=efa24303-85ca-4cb7-8ca4-9a01f478b899","ios":"levelo://app?vid=efa24303-85ca-4cb7-8ca4-9a01f478b899"},"vehicle_type_id":"4","last_reported":1702044417,"current_range_meters":28800,"station_id":"ce501612rcd8frsf0b60","pricing_plan_id":"free"},{"bike_id":"ce882525-25f0-4497-8745-e9042bf5e9ad","system_id":"levelo_inurba_marseille","lat":43.267959,"lon":5.402687,"is_reserved":false,"is_disabled":false,"rental_uris":{"android":"levelo://app?vid=ce882525-25f0-4497-8745-e9042bf5e9ad","ios":"levelo://app?vid=ce882525-25f0-4497-8745-e9042bf5e9ad"},"vehicle_type_id":"4","last_reported":1702044417,"current_range_meters":20400,"station_id":"ce501612rcd8frsf0b60","pricing_plan_id":"free"},{"bike_id":"99528b08-79c4-40c1-955c-c12db93786c8","system_id":"levelo_inurba_marseille","lat":43.267959,"lon":5.402685,"is_reserved":false,"is_disabled":false,"rental_uris":{"android":"levelo://app?vid=99528b08-79c4-40c1-955c-c12db93786c8","ios":"levelo://app?vid=99528b08-79c4-40c1-955c-c12db93786c8"},"vehicle_type_id":"4","last_reported":1702044417,"current_range_meters":29200,"station_id":"ce501612rcd8frsf0b60","pricing_plan_id":"free"},{"bike_id":"6b17b896-99f2-456b-929e-df3811eeb274","system_id":"levelo_inurba_marseille","lat":43.298768,"lon":5.43643,"is_reserved":false,"is_disabled":false,"rental_uris":{"android":"levelo://app?vid=6b17b896-99f2-456b-929e-df3811eeb274","ios":"levelo://app?vid=6b17b896-99f2-456b-929e-df3811eeb274"},"vehicle_type_id":"4","last_reported":1702044417,"current_range_meters":26800,"station_id":"ce4bhpp2rcd13ifvqhfg","pricing_plan_id":"free"},{"bike_id":"ca4db8a8-5b98-4b78-bc3d-514f38028a3d","system_id":"levelo_inurba_marseille","lat":43.298768,"lon":5.43643,"is_reserved":false,"is_disabled":false,"rental_uris":{"android":"levelo://app?vid=ca4db8a8-5b98-4b78-bc3d-514f38028a3d","ios":"levelo://app?vid=ca4db8a8-5b98-4b78-bc3d-514f38028a3d"},"vehicle_type_id":"4","last_reported":1702044417,"current_range_meters":30400,"station_id":"ce4bhpp2rcd13ifvqhfg","pricing_plan_id":"free"},{"bike_id":"4f68f183-a711-4386-a731-e8ea8e2f115e","system_id":"levelo_inurba_marseille","lat":43.298768,"lon":5.43643,"is_reserved":false,"is_disabled":false,"rental_uris":{"android":"levelo://app?vid=4f68f183-a711-4386-a731-e8ea8e2f115e","ios":"levelo://app?vid=4f68f183-a711-4386-a731-e8ea8e2f115e"},"vehicle_type_id":"4","last_reported":1702044417,"current_range_meters":25200,"station_id":"ce4bhpp2rcd13ifvqhfg","pricing_plan_id":"free"},{"bike_id":"83e2018e-7127-4415-8bbf-2e347a9c6750","system_id":"levelo_inurba_marseille","lat":43.298905,"lon":5.436714,"is_reserved":false,"is_disabled":false,"rental_uris":{"android":"levelo://app?vid=83e2018e-7127-4415-8bbf-2e347a9c6750","ios":"levelo://app?vid=83e2018e-7127-4415-8bbf-2e347a9c6750"},"vehicle_type_id":"4","last_reported":1702044417,"current_range_meters":3600,"station_id":"ce4bhpp2rcd13ifvqhfg","pricing_plan_id":"free"},{"bike_id":"c90d4f1f-c031-4bfa-9513-341cda3df957","system_id":"levelo_inurba_marseille","lat":43.2607,"lon":5.393983,"is_reserved":false,"is_disabled":false,"rental_uris":{"android":"levelo://app?vid=c90d4f1f-c031-4bfa-9513-341cda3df957","ios":"levelo://app?vid=c90d4f1f-c031-4bfa-9513-341cda3df957"},"vehicle_type_id":"4","last_reported":1702044417,"current_range_meters":31200,"station_id":"ce4bhh92rcd13ifvqfj0","pricing_plan_id":"free"},{"bike_id":"38c704ee-4a77-4a0e-a356-874c3d7f12ac","system_id":"levelo_inurba_marseille","lat":43.258224,"lon":5.394369,"is_reserved":false,"is_disabled":false,"rental_uris":{"android":"levelo://app?vid=38c704ee-4a77-4a0e-a356-874c3d7f12ac","ios":"levelo://app?vid=38c704ee-4a77-4a0e-a356-874c3d7f12ac"},"vehicle_type_id":"4","last_reported":1702044417,"current_range_meters":17600,"station_id":"ce4bhip2rcd13ifvqft0","pricing_plan_id":"free"},{"bike_id":"15ba3189-93b7-4432-ad39-1cf62a2856d8","system_id":"levelo_inurba_marseille","lat":43.270721,"lon":5.422764,"is_reserved":false,"is_disabled":false,"rental_uris":{"android":"levelo://app?vid=15ba3189-93b7-4432-ad39-1cf62a2856d8","ios":"levelo://app?vid=15ba3189-93b7-4432-ad39-1cf62a2856d8"},"vehicle_type_id":"4","last_reported":1702044417,"current_range_meters":29200,"station_id":"ce4bhk92rcd13ifvqgb0","pricing_plan_id":"free"},{"bike_id":"5d489c55-e9bc-4bba-8121-3bacb84a0fef","system_id":"levelo_inurba_marseille","lat":43.258658,"lon":5.398935,"is_reserved":false,"is_disabled":false,"rental_uris":{"android":"levelo://app?vid=5d489c55-e9bc-4bba-8121-3bacb84a0fef","ios":"levelo://app?vid=5d489c55-e9bc-4bba-8121-3bacb84a0fef"},"vehicle_type_id":"4","last_reported":1702044417,"current_range_meters":5600,"station_id":"ce4bhl92rcd13ifvqghg","pricing_plan_id":"free"},{"bike_id":"27aa3d96-c748-4b9e-a013-c515bd70360e","system_id":"levelo_inurba_marseille","lat":43.258658,"lon":5.398935,"is_reserved":false,"is_disabled":false,"rental_uris":{"android":"levelo://app?vid=27aa3d96-c748-4b9e-a013-c515bd70360e","ios":"levelo://app?vid=27aa3d96-c748-4b9e-a013-c515bd70360e"},"vehicle_type_id":"4","last_reported":1702044417,"current_range_meters":30000,"station_id":"ce4bhl92rcd13ifvqghg","pricing_plan_id":"free"},{"bike_id":"a8ad00dd-d8ad-4dfc-b12d-42daaaacf033","system_id":"levelo_inurba_marseille","lat":43.258658,"lon":5.398935,"is_reserved":false,"is_disabled":false,"rental_uris":{"android":"levelo://app?vid=a8ad00dd-d8ad-4dfc-b12d-42daaaacf033","ios":"levelo://app?vid=a8ad00dd-d8ad-4dfc-b12d-42daaaacf033"},"vehicle_type_id":"4","last_reported":1702044417,"current_range_meters":30000,"station_id":"ce4bhl92rcd13ifvqghg","pricing_plan_id":"free"},{"bike_id":"c39e6ef6-b28d-449e-9625-5e66e27f1c63","system_id":"levelo_inurba_marseille","lat":43.258658,"lon":5.398935,"is_reserved":false,"is_disabled":false,"rental_uris":{"android":"levelo://app?vid=c39e6ef6-b28d-449e-9625-5e66e27f1c63","ios":"levelo://app?vid=c39e6ef6-b28d-449e-9625-5e66e27f1c63"},"vehicle_type_id":"4","last_reported":1702044417,"current_range_meters":23600,"station_id":"ce4bhl92rcd13ifvqghg","pricing_plan_id":"free"},{"bike_id":"845258cc-0cd6-4e01-b4af-83ded8d16baf","system_id":"levelo_inurba_marseille","lat":43.257237,"lon":5.411092,"is_reserved":false,"is_disabled":false,"rental_uris":{"android":"levelo://app?vid=845258cc-0cd6-4e01-b4af-83ded8d16baf","ios":"levelo://app?vid=845258cc-0cd6-4e01-b4af-83ded8d16baf"},"vehicle_type_id":"4","last_reported":1702044417,"current_range_meters":14800,"station_id":"","pricing_plan_id":"free"},{"bike_id":"4a78d33b-2917-4bc6-b5fc-955fa4ec909b","system_id":"levelo_inurba_marseille","lat":43.250009,"lon":5.389195,"is_reserved":false,"is_disabled":false,"rental_uris":{"android":"levelo://app?vid=4a78d33b-2917-4bc6-b5fc-955fa4ec909b","ios":"levelo://app?vid=4a78d33b-2917-4bc6-b5fc-955fa4ec909b"},"vehicle_type_id":"4","last_reported":1702044417,"current_range_meters":24800,"station_id":"ce4bhgp2rcd13ifvqfd0","pricing_plan_id":"free"},{"bike_id":"eb2bdca4-c898-4cb6-a6a2-2c4fe876e1d1","system_id":"levelo_inurba_marseille","lat":43.24995,"lon":5.3893,"is_reserved":false,"is_disabled":false,"rental_uris":{"android":"levelo://app?vid=eb2bdca4-c898-4cb6-a6a2-2c4fe876e1d1","ios":"levelo://app?vid=eb2bdca4-c898-4cb6-a6a2-2c4fe876e1d1"},"vehicle_type_id":"4","last_reported":1702044417,"current_range_meters":0,"station_id":"ce4bhgp2rcd13ifvqfd0","pricing_plan_id":"free"},{"bike_id":"63cf0c6b-d0f4-48e6-bfdb-c78405a84b1d","system_id":"levelo_inurba_marseille","lat":43.2479,"lon":5.374457,"is_reserved":false,"is_disabled":false,"rental_uris":{"android":"levelo://app?vid=63cf0c6b-d0f4-48e6-bfdb-c78405a84b1d","ios":"levelo://app?vid=63cf0c6b-d0f4-48e6-bfdb-c78405a84b1d"},"vehicle_type_id":"4","last_reported":1702044417,"current_range_meters":24400,"station_id":"ce4bhgh2rcd13ifvqfb0","pricing_plan_id":"free"},{"bike_id":"9d43be59-9434-4511-a703-766f960a468b","system_id":"levelo_inurba_marseille","lat":43.24693,"lon":5.382096,"is_reserved":false,"is_disabled":false,"rental_uris":{"android":"levelo://app?vid=9d43be59-9434-4511-a703-766f960a468b","ios":"levelo://app?vid=9d43be59-9434-4511-a703-766f960a468b"},"vehicle_type_id":"4","last_reported":1702044417,"current_range_meters":25600,"station_id":"ce4bhih2rcd13ifvqfr0","pricing_plan_id":"free"},{"bike_id":"1ed5c515-5d4a-4a57-a094-dff827187609","system_id":"levelo_inurba_marseille","lat":43.24693,"lon":5.382096,"is_reserved":false,"is_disabled":false,"rental_uris":{"android":"levelo://app?vid=1ed5c515-5d4a-4a57-a094-dff827187609","ios":"levelo://app?vid=1ed5c515-5d4a-4a57-a094-dff827187609"},"vehicle_type_id":"4","last_reported":1702044417,"current_range_meters":28400,"station_id":"ce4bhih2rcd13ifvqfr0","pricing_plan_id":"free"},{"bike_id":"e9bebf9d-c86f-42b0-8344-e9341fa211d2","system_id":"levelo_inurba_marseille","lat":43.24693,"lon":5.382096,"is_reserved":false,"is_disabled":false,"rental_uris":{"android":"levelo://app?vid=e9bebf9d-c86f-42b0-8344-e9341fa211d2","ios":"levelo://app?vid=e9bebf9d-c86f-42b0-8344-e9341fa211d2"},"vehicle_type_id":"4","last_reported":1702044417,"current_range_meters":8800,"station_id":"ce4bhih2rcd13ifvqfr0","pricing_plan_id":"free"},{"bike_id":"4bcc0cdf-85cb-403e-b655-47cd59c9763d","system_id":"levelo_inurba_marseille","lat":43.24657,"lon":5.38151,"is_reserved":false,"is_disabled":false,"rental_uris":{"android":"levelo://app?vid=4bcc0cdf-85cb-403e-b655-47cd59c9763d","ios":"levelo://app?vid=4bcc0cdf-85cb-403e-b655-47cd59c9763d"},"vehicle_type_id":"4","last_reported":1702044417,"current_range_meters":21200,"station_id":"ce4bhih2rcd13ifvqfr0","pricing_plan_id":"free"},{"bike_id":"ba89a973-8f1e-4e06-8cea-fb72626feb37","system_id":"levelo_inurba_marseille","lat":43.24693,"lon":5.382096,"is_reserved":false,"is_disabled":false,"rental_uris":{"android":"levelo://app?vid=ba89a973-8f1e-4e06-8cea-fb72626feb37","ios":"levelo://app?vid=ba89a973-8f1e-4e06-8cea-fb72626feb37"},"vehicle_type_id":"4","last_reported":1702044417,"current_range_meters":31600,"station_id":"ce4bhih2rcd13ifvqfr0","pricing_plan_id":"free"},{"bike_id":"55d4cda2-7880-44c8-8815-1b2f87dd305f","system_id":"levelo_inurba_marseille","lat":43.25107,"lon":5.4032,"is_reserved":false,"is_disabled":false,"rental_uris":{"android":"levelo://app?vid=55d4cda2-7880-44c8-8815-1b2f87dd305f","ios":"levelo://app?vid=55d4cda2-7880-44c8-8815-1b2f87dd305f"},"vehicle_type_id":"4","last_reported":1702044417,"current_range_meters":21200,"station_id":"ce4bhlh2rcd13ifvqgig","pricing_plan_id":"free"},{"bike_id":"4ce1927e-4343-40ce-8c15-cfc116032b74","system_id":"levelo_inurba_marseille","lat":43.25108,"lon":5.40324,"is_reserved":false,"is_disabled":false,"rental_uris":{"android":"levelo://app?vid=4ce1927e-4343-40ce-8c15-cfc116032b74","ios":"levelo://app?vid=4ce1927e-4343-40ce-8c15-cfc116032b74"},"vehicle_type_id":"4","last_reported":1702044417,"current_range_meters":31200,"station_id":"ce4bhlh2rcd13ifvqgig","pricing_plan_id":"free"},{"bike_id":"d76fde81-9997-403b-991d-3202e28e4586","system_id":"levelo_inurba_marseille","lat":43.25102,"lon":5.403214,"is_reserved":false,"is_disabled":false,"rental_uris":{"android":"levelo://app?vid=d76fde81-9997-403b-991d-3202e28e4586","ios":"levelo://app?vid=d76fde81-9997-403b-991d-3202e28e4586"},"vehicle_type_id":"4","last_reported":1702044417,"current_range_meters":21600,"station_id":"ce4bhlh2rcd13ifvqgig","pricing_plan_id":"free"},{"bike_id":"2288e39f-96ff-448b-acd4-e5b2ce463492","system_id":"levelo_inurba_marseille","lat":43.246461,"lon":5.389014,"is_reserved":false,"is_disabled":false,"rental_uris":{"android":"levelo://app?vid=2288e39f-96ff-448b-acd4-e5b2ce463492","ios":"levelo://app?vid=2288e39f-96ff-448b-acd4-e5b2ce463492"},"vehicle_type_id":"4","last_reported":1702044417,"current_range_meters":24000,"station_id":"ce4bhg12rcd13ifvqf60","pricing_plan_id":"free"},{"bike_id":"b3705516-da65-4902-b345-4cc53e261fdf","system_id":"levelo_inurba_marseille","lat":43.2408,"lon":5.37759,"is_reserved":false,"is_disabled":false,"rental_uris":{"android":"levelo://app?vid=b3705516-da65-4902-b345-4cc53e261fdf","ios":"levelo://app?vid=b3705516-da65-4902-b345-4cc53e261fdf"},"vehicle_type_id":"4","last_reported":1702044417,"current_range_meters":22000,"station_id":"","pricing_plan_id":"free"},{"bike_id":"93954539-37ab-42cb-8148-c6cd6174d0ce","system_id":"levelo_inurba_marseille","lat":43.239588,"lon":5.366238,"is_reserved":false,"is_disabled":false,"rental_uris":{"android":"levelo://app?vid=93954539-37ab-42cb-8148-c6cd6174d0ce","ios":"levelo://app?vid=93954539-37ab-42cb-8148-c6cd6174d0ce"},"vehicle_type_id":"4","last_reported":1702044417,"current_range_meters":22000,"station_id":"ce4bhi12rcd13ifvqfp0","pricing_plan_id":"free"},{"bike_id":"6084096c-589b-4ba6-bd9d-6d547fd35b59","system_id":"levelo_inurba_marseille","lat":43.239588,"lon":5.366238,"is_reserved":false,"is_disabled":false,"rental_uris":{"android":"levelo://app?vid=6084096c-589b-4ba6-bd9d-6d547fd35b59","ios":"levelo://app?vid=6084096c-589b-4ba6-bd9d-6d547fd35b59"},"vehicle_type_id":"4","last_reported":1702044417,"current_range_meters":26800,"station_id":"ce4bhi12rcd13ifvqfp0","pricing_plan_id":"free"},{"bike_id":"08dd3164-4870-4e68-b1f3-c2cd63833d63","system_id":"levelo_inurba_marseille","lat":43.239588,"lon":5.366238,"is_reserved":false,"is_disabled":false,"rental_uris":{"android":"levelo://app?vid=08dd3164-4870-4e68-b1f3-c2cd63833d63","ios":"levelo://app?vid=08dd3164-4870-4e68-b1f3-c2cd63833d63"},"vehicle_type_id":"4","last_reported":1702044417,"current_range_meters":18000,"station_id":"ce4bhi12rcd13ifvqfp0","pricing_plan_id":"free"},{"bike_id":"19de1d90-0ef7-4697-bd3a-3e98bd2bf2e7","system_id":"levelo_inurba_marseille","lat":43.239588,"lon":5.366238,"is_reserved":false,"is_disabled":false,"rental_uris":{"android":"levelo://app?vid=19de1d90-0ef7-4697-bd3a-3e98bd2bf2e7","ios":"levelo://app?vid=19de1d90-0ef7-4697-bd3a-3e98bd2bf2e7"},"vehicle_type_id":"4","last_reported":1702044417,"current_range_meters":31200,"station_id":"ce4bhi12rcd13ifvqfp0","pricing_plan_id":"free"},{"bike_id":"be845917-f52e-4a9f-83ff-909546a09332","system_id":"levelo_inurba_marseille","lat":43.231794,"lon":5.400052,"is_reserved":false,"is_disabled":false,"rental_uris":{"android":"levelo://app?vid=be845917-f52e-4a9f-83ff-909546a09332","ios":"levelo://app?vid=be845917-f52e-4a9f-83ff-909546a09332"},"vehicle_type_id":"4","last_reported":1702044417,"current_range_meters":31600,"station_id":"ce4bhn12rcd13ifvqgqg","pricing_plan_id":"free"},{"bike_id":"6c4620c0-0d4d-493f-9950-4fd3c4457696","system_id":"levelo_inurba_marseille","lat":43.231794,"lon":5.400052,"is_reserved":false,"is_disabled":false,"rental_uris":{"android":"levelo://app?vid=6c4620c0-0d4d-493f-9950-4fd3c4457696","ios":"levelo://app?vid=6c4620c0-0d4d-493f-9950-4fd3c4457696"},"vehicle_type_id":"4","last_reported":1702044417,"current_range_meters":31600,"station_id":"ce4bhn12rcd13ifvqgqg","pricing_plan_id":"free"},{"bike_id":"52185dc8-f8c9-4df9-8092-bb2437fd062c","system_id":"levelo_inurba_marseille","lat":43.231562,"lon":5.436933,"is_reserved":false,"is_disabled":false,"rental_uris":{"android":"levelo://app?vid=52185dc8-f8c9-4df9-8092-bb2437fd062c","ios":"levelo://app?vid=52185dc8-f8c9-4df9-8092-bb2437fd062c"},"vehicle_type_id":"4","last_reported":1702044417,"current_range_meters":31600,"station_id":"ce4bhmp2rcd13ifvqgog","pricing_plan_id":"free"},{"bike_id":"6c7b53be-f79a-4a86-8846-e0f5c3bf65aa","system_id":"levelo_inurba_marseille","lat":43.231562,"lon":5.436933,"is_reserved":false,"is_disabled":false,"rental_uris":{"android":"levelo://app?vid=6c7b53be-f79a-4a86-8846-e0f5c3bf65aa","ios":"levelo://app?vid=6c7b53be-f79a-4a86-8846-e0f5c3bf65aa"},"vehicle_type_id":"4","last_reported":1702044417,"current_range_meters":21600,"station_id":"ce4bhmp2rcd13ifvqgog","pricing_plan_id":"free"},{"bike_id":"1452ec47-af56-406b-b3ce-667e99ad18fc","system_id":"levelo_inurba_marseille","lat":43.231562,"lon":5.436933,"is_reserved":false,"is_disabled":false,"rental_uris":{"android":"levelo://app?vid=1452ec47-af56-406b-b3ce-667e99ad18fc","ios":"levelo://app?vid=1452ec47-af56-406b-b3ce-667e99ad18fc"},"vehicle_type_id":"4","last_reported":1702044417,"current_range_meters":29200,"station_id":"ce4bhmp2rcd13ifvqgog","pricing_plan_id":"free"},{"bike_id":"ff8b630f-28ea-4dbc-bd83-69f80e79cc61","system_id":"levelo_inurba_marseille","lat":43.2315,"lon":5.43712,"is_reserved":false,"is_disabled":false,"rental_uris":{"android":"levelo://app?vid=ff8b630f-28ea-4dbc-bd83-69f80e79cc61","ios":"levelo://app?vid=ff8b630f-28ea-4dbc-bd83-69f80e79cc61"},"vehicle_type_id":"4","last_reported":1702044417,"current_range_meters":18400,"station_id":"ce4bhmp2rcd13ifvqgog","pricing_plan_id":"free"},{"bike_id":"6c3e3c9e-4b18-4000-ba39-0358b7d7d901","system_id":"levelo_inurba_marseille","lat":43.231562,"lon":5.436933,"is_reserved":false,"is_disabled":false,"rental_uris":{"android":"levelo://app?vid=6c3e3c9e-4b18-4000-ba39-0358b7d7d901","ios":"levelo://app?vid=6c3e3c9e-4b18-4000-ba39-0358b7d7d901"},"vehicle_type_id":"4","last_reported":1702044417,"current_range_meters":29600,"station_id":"ce4bhmp2rcd13ifvqgog","pricing_plan_id":"free"},{"bike_id":"b541fc35-af29-477f-a39a-2a5090fd4d28","system_id":"levelo_inurba_marseille","lat":43.231562,"lon":5.436933,"is_reserved":false,"is_disabled":false,"rental_uris":{"android":"levelo://app?vid=b541fc35-af29-477f-a39a-2a5090fd4d28","ios":"levelo://app?vid=b541fc35-af29-477f-a39a-2a5090fd4d28"},"vehicle_type_id":"4","last_reported":1702044417,"current_range_meters":31200,"station_id":"ce4bhmp2rcd13ifvqgog","pricing_plan_id":"free"},{"bike_id":"f56c954e-02f9-49e9-b80d-c1e3823f54f8","system_id":"levelo_inurba_marseille","lat":43.23147,"lon":5.43723,"is_reserved":false,"is_disabled":false,"rental_uris":{"android":"levelo://app?vid=f56c954e-02f9-49e9-b80d-c1e3823f54f8","ios":"levelo://app?vid=f56c954e-02f9-49e9-b80d-c1e3823f54f8"},"vehicle_type_id":"4","last_reported":1702044417,"current_range_meters":21200,"station_id":"ce4bhmp2rcd13ifvqgog","pricing_plan_id":"free"}]}}