{"last_updated":1751652880,"ttl":60,"version":"2.2","data":{"bikes":[{"bike_id":"3da29fb8-fc97-44c6-b9ac-31dd456b2fd4","system_id":"levelo_inurba_marseille","lat":43.33771,"lon":5.37424,"is_reserved":false,"is_disabled":true,"rental_uris":{"android":"levelo://app?vid=3da29fb8-fc97-44c6-b9ac-31dd456b2fd4","ios":"levelo://app?vid=3da29fb8-fc97-44c6-b9ac-31dd456b2fd4"},"vehicle_type_id":"4","last_reported":1751652880,"current_range_meters":0,"station_id":"","pricing_plan_id":"cebpf4jnsgd1na2vs0mg"},{"bike_id":"01861ad8-a8d7-4be6-816e-651927c87584","system_id":"levelo_inurba_marseille","lat":43.33751,"lon":5.37456,"is_reserved":false,"is_disabled":true,"rental_uris":{"android":"levelo://app?vid=01861ad8-a8d7-4be6-816e-651927c87584","ios":"levelo://app?vid=01861ad8-a8d7-4be6-816e-651927c87584"},"vehicle_type_id":"4","last_reported":1751652880,"current_range_meters":0,"station_id":"","pricing_plan_id":"cebpf4jnsgd1na2vs0mg"},{"bike_id":"bf258842-98b1-4a26-8d22-bfd632384292","system_id":"levelo_inurba_marseille","lat":43.27056,"lon":5.40264,"is_reserved":false,"is_disabled":true,"rental_uris":{"android":"levelo://app?vid=bf258842-98b1-4a26-8d22-bfd632384292","ios":"levelo://app?vid=bf258842-98b1-4a26-8d22-bfd632384292"},"vehicle_type_id":"4","last_reported":1751652880,"current_range_meters":0,"station_id":"","pricing_plan_id":"cebpf4jnsgd1na2vs0mg"},{"bike_id":"fb7eaa34-3090-467a-bc3a-a4c2c7cd510d","system_id":"levelo_inurba_marseille","lat":43.217546,"lon":5.346094,"is_reserved":false,"is_disabled":true,"rental_uris":{"android":"levelo://app?vid=fb7eaa34-3090-467a-bc3a-a4c2c7cd510d","ios":"levelo://app?vid=fb7eaa34-3090-467a-bc3a-a4c2c7cd510d"},"vehicle_type_id":"4","last_reported":1751652880,"current_range_meters":0,"station_id":"","pricing_plan_id":"cebpf4jnsgd1na2vs0mg"},{"bike_id":"eb2a50ca-506b-4e80-b379-08adc8ae9a82","system_id":"levelo_inurba_marseille","lat":43.25396,"lon":5.37511,"is_reserved":false,"is_disabled":true,"rental_uris":{"android":"levelo://app?vid=eb2a50ca-506b-4e80-b379-08adc8ae9a82","ios":"levelo://app?vid=eb2a50ca-506b-4e80-b379-08adc8ae9a82"},"vehicle_type_id":"4","last_reported":1751652880,"current_range_meters":0,"station_id":"","pricing_plan_id":"cebpf4jnsgd1na2vs0mg"},{"bike_id":"5f2e1ccb-e063-436a-9a6a-8b37c41168f6","system_id":"levelo_inurba_marseille","lat":43.26221,"lon":5.37425,"is_reserved":false,"is_disabled":true,"rental_uris":{"android":"levelo://app?vid=5f2e1ccb-e063-436a-9a6a-8b37c41168f6","ios":"levelo://app?vid=5f2e1ccb-e063-436a-9a6a-8b37c41168f6"},"vehicle_type_id":"4","last_reported":1751652880,"current_range_meters":0,"station_id":"","pricing_plan_id":"cebpf4jnsgd1na2vs0mg"},{"bike_id":"0a130272-de52-4b1a-a543-13965502da57","system_id":"levelo_inurba_marseille","lat":43.30147,"lon":5.3809,"is_reserved":false,"is_disabled":true,"rental_uris":{"android":"levelo://app?vid=0a130272-de52-4b1a-a543-13965502da57","ios":"levelo://app?vid=0a130272-de52-4b1a-a543-13965502da57"},"vehicle_type_id":"4","last_reported":1751652880,"current_range_meters":0,"station_id":"ce4bgjp2rcd13ifvqbh0","pricing_plan_id":"cebpf4jnsgd1na2vs0mg"},{"bike_id":"d594088d-7cb9-4f95-8646-b495a2c02aa9","system_id":"levelo_inurba_marseille","lat":43.317013,"lon":5.404453,"is_reserved":false,"is_disabled":true,"rental_uris":{"android":"levelo://app?vid=d594088d-7cb9-4f95-8646-b495a2c02aa9","ios":"levelo://app?vid=d594088d-7cb9-4f95-8646-b495a2c02aa9"},"vehicle_type_id":"4","last_reported":1751652880,"current_range_meters":0,"station_id":"ce4bh012rcd13ifvqd00","pricing_plan_id":"cebpf4jnsgd1na2vs0mg"},{"bike_id":"e0273622-eef9-4296-ae2b-bb8c1e44d0cd","system_id":"levelo_inurba_marseille","lat":43.30642,"lon":5.40101,"is_reserved":false,"is_disabled":true,"rental_uris":{"android":"levelo://app?vid=e0273622-eef9-4296-ae2b-bb8c1e44d0cd","ios":"levelo://app?vid=e0273622-eef9-4296-ae2b-bb8c1e44d0cd"},"vehicle_type_id":"4","last_reported":1751652880,"current_range_meters":0,"station_id":"ce4bh112rcd13ifvqda0","pricing_plan_id":"cebpf4jnsgd1na2vs0mg"},{"bike_id":"d13671a6-7a34-4dbd-96bd-90ffa364b5b6","system_id":"levelo_inurba_marseille","lat":43.2926,"lon":5.40893,"is_reserved":false,"is_disabled":true,"rental_uris":{"android":"levelo://app?vid=d13671a6-7a34-4dbd-96bd-90ffa364b5b6","ios":"levelo://app?vid=d13671a6-7a34-4dbd-96bd-90ffa364b5b6"},"vehicle_type_id":"4","last_reported":1751652880,"current_range_meters":0,"station_id":"ce4bh192rcd13ifvqdc0","pricing_plan_id":"cebpf4jnsgd1na2vs0mg"},{"bike_id":"002def4f-e75a-454e-8dec-a7cf2a8e171b","system_id":"levelo_inurba_marseille","lat":43.29523,"lon":5.39397,"is_reserved":false,"is_disabled":true,"rental_uris":{"android":"levelo://app?vid=002def4f-e75a-454e-8dec-a7cf2a8e171b","ios":"levelo://app?vid=002def4f-e75a-454e-8dec-a7cf2a8e171b"},"vehicle_type_id":"4","last_reported":1751652880,"current_range_meters":0,"station_id":"ce4bh292rcd13ifvqdf0","pricing_plan_id":"cebpf4jnsgd1na2vs0mg"},{"bike_id":"d70bdeb8-cf69-4eb1-9778-0dd145296cdc","system_id":"levelo_inurba_marseille","lat":43.2922,"lon":5.36058,"is_reserved":false,"is_disabled":true,"rental_uris":{"android":"levelo://app?vid=d70bdeb8-cf69-4eb1-9778-0dd145296cdc","ios":"levelo://app?vid=d70bdeb8-cf69-4eb1-9778-0dd145296cdc"},"vehicle_type_id":"4","last_reported":1751652880,"current_range_meters":0,"station_id":"ce4bhbh2rcd13ifvqeqg","pricing_plan_id":"cebpf4jnsgd1na2vs0mg"},{"bike_id":"964bf2d3-d3f6-4c2d-b894-38e509e6638f","system_id":"levelo_inurba_marseille","lat":43.29229,"lon":5.36068,"is_reserved":false,"is_disabled":true,"rental_uris":{"android":"levelo://app?vid=964bf2d3-d3f6-4c2d-b894-38e509e6638f","ios":"levelo://app?vid=964bf2d3-d3f6-4c2d-b894-38e509e6638f"},"vehicle_type_id":"4","last_reported":1751652880,"current_range_meters":0,"station_id":"ce4bhbh2rcd13ifvqeqg","pricing_plan_id":"cebpf4jnsgd1na2vs0mg"},{"bike_id":"dc7c35e4-159b-4b18-8f0b-1ad9082d30e0","system_id":"levelo_inurba_marseille","lat":43.29215,"lon":5.36071,"is_reserved":false,"is_disabled":true,"rental_uris":{"android":"levelo://app?vid=dc7c35e4-159b-4b18-8f0b-1ad9082d30e0","ios":"levelo://app?vid=dc7c35e4-159b-4b18-8f0b-1ad9082d30e0"},"vehicle_type_id":"4","last_reported":1751652880,"current_range_meters":0,"station_id":"ce4bhbh2rcd13ifvqeqg","pricing_plan_id":"cebpf4jnsgd1na2vs0mg"},{"bike_id":"327c2e56-f1e1-4f8b-9926-8b5d2b40973f","system_id":"levelo_inurba_marseille","lat":43.28274,"lon":5.35083,"is_reserved":false,"is_disabled":true,"rental_uris":{"android":"levelo://app?vid=327c2e56-f1e1-4f8b-9926-8b5d2b40973f","ios":"levelo://app?vid=327c2e56-f1e1-4f8b-9926-8b5d2b40973f"},"vehicle_type_id":"4","last_reported":1751652880,"current_range_meters":0,"station_id":"ce4bhbp2rcd13ifvqerg","pricing_plan_id":"cebpf4jnsgd1na2vs0mg"},{"bike_id":"a73c52fa-8a0a-498e-af0b-863f71ee5d76","system_id":"levelo_inurba_marseille","lat":43.28619,"lon":5.35104,"is_reserved":false,"is_disabled":true,"rental_uris":{"android":"levelo://app?vid=a73c52fa-8a0a-498e-af0b-863f71ee5d76","ios":"levelo://app?vid=a73c52fa-8a0a-498e-af0b-863f71ee5d76"},"vehicle_type_id":"4","last_reported":1751652880,"current_range_meters":0,"station_id":"ce4bhch2rcd13ifvqeug","pricing_plan_id":"cebpf4jnsgd1na2vs0mg"},{"bike_id":"dd7d6577-32fd-4761-828a-9a6a458e64b8","system_id":"levelo_inurba_marseille","lat":43.24807,"lon":5.37455,"is_reserved":false,"is_disabled":true,"rental_uris":{"android":"levelo://app?vid=dd7d6577-32fd-4761-828a-9a6a458e64b8","ios":"levelo://app?vid=dd7d6577-32fd-4761-828a-9a6a458e64b8"},"vehicle_type_id":"4","last_reported":1751652880,"current_range_meters":0,"station_id":"ce4bhgh2rcd13ifvqfb0","pricing_plan_id":"cebpf4jnsgd1na2vs0mg"},{"bike_id":"d09b7602-8875-430d-83bb-0cfd04bd97eb","system_id":"levelo_inurba_marseille","lat":43.2707,"lon":5.40251,"is_reserved":false,"is_disabled":true,"rental_uris":{"android":"levelo://app?vid=d09b7602-8875-430d-83bb-0cfd04bd97eb","ios":"levelo://app?vid=d09b7602-8875-430d-83bb-0cfd04bd97eb"},"vehicle_type_id":"4","last_reported":1751652880,"current_range_meters":0,"station_id":"ce4bhk92rcd13ifvqgc0","pricing_plan_id":"cebpf4jnsgd1na2vs0mg"},{"bike_id":"8abce779-c982-453a-8c02-97ddac7be7a1","system_id":"levelo_inurba_marseille","lat":43.25125,"lon":5.40362,"is_reserved":false,"is_disabled":true,"rental_uris":{"android":"levelo://app?vid=8abce779-c982-453a-8c02-97ddac7be7a1","ios":"levelo://app?vid=8abce779-c982-453a-8c02-97ddac7be7a1"},"vehicle_type_id":"4","last_reported":1751652880,"current_range_meters":0,"station_id":"ce4bhlh2rcd13ifvqgig","pricing_plan_id":"cebpf4jnsgd1na2vs0mg"},{"bike_id":"2db7de25-6c57-447b-bff5-ea01c3753780","system_id":"levelo_inurba_marseille","lat":43.21775,"lon":5.34582,"is_reserved":false,"is_disabled":true,"rental_uris":{"android":"levelo://app?vid=2db7de25-6c57-447b-bff5-ea01c3753780","ios":"levelo://app?vid=2db7de25-6c57-447b-bff5-ea01c3753780"},"vehicle_type_id":"4","last_reported":1751652880,"current_range_meters":0,"station_id":"st_cvj6r9ubvosntc0bgbag","pricing_plan_id":"cebpf4jnsgd1na2vs0mg"},{"bike_id":"5e8830ec-34e5-4f0f-b607-434b2954d153","system_id":"levelo_inurba_marseille","lat":43.21195,"lon":5.35076,"is_reserved":false,"is_disabled":true,"rental_uris":{"android":"levelo://app?vid=5e8830ec-34e5-4f0f-b607-434b2954d153","ios":"levelo://app?vid=5e8830ec-34e5-4f0f-b607-434b2954d153"},"vehicle_type_id":"4","last_reported":1751652880,"current_range_meters":0,"station_id":"st_cvj6sg6p6f1abm77japg","pricing_plan_id":"cebpf4jnsgd1na2vs0mg"},{"bike_id":"cd2a3af2-854b-4519-92e5-1eaf70ba8a37","system_id":"levelo_inurba_marseille","lat":43.2121,"lon":5.350732,"is_reserved":false,"is_disabled":true,"rental_uris":{"android":"levelo://app?vid=cd2a3af2-854b-4519-92e5-1eaf70ba8a37","ios":"levelo://app?vid=cd2a3af2-854b-4519-92e5-1eaf70ba8a37"},"vehicle_type_id":"4","last_reported":1751652880,"current_range_meters":0,"station_id":"st_cvj6sg6p6f1abm77japg","pricing_plan_id":"cebpf4jnsgd1na2vs0mg"},{"bike_id":"0cc67135-1c5b-45a0-8e00-aad65a0db49c","system_id":"levelo_inurba_marseille","lat":43.28619,"lon":5.35104,"is_reserved":false,"is_disabled":true,"rental_uris":{"android":"levelo://app?vid=0cc67135-1c5b-45a0-8e00-aad65a0db49c","ios":"levelo://app?vid=0cc67135-1c5b-45a0-8e00-aad65a0db49c"},"vehicle_type_id":"4","last_reported":1751652880,"current_range_meters":400,"station_id":"ce4bhch2rcd13ifvqeug","pricing_plan_id":"cebpf4jnsgd1na2vs0mg"},{"bike_id":"daaab172-2d37-4e4c-8150-4d52a29f9479","system_id":"levelo_inurba_marseille","lat":43.27425,"lon":5.39418,"is_reserved":false,"is_disabled":true,"rental_uris":{"android":"levelo://app?vid=daaab172-2d37-4e4c-8150-4d52a29f9479","ios":"levelo://app?vid=daaab172-2d37-4e4c-8150-4d52a29f9479"},"vehicle_type_id":"4","last_reported":1751652880,"current_range_meters":400,"station_id":"ce4bhdp2rcd13ifvqf20","pricing_plan_id":"cebpf4jnsgd1na2vs0mg"},{"bike_id":"22e3bc47-250c-407b-9cb1-05004c2aac40","system_id":"levelo_inurba_marseille","lat":43.292674,"lon":5.383391,"is_reserved":false,"is_disabled":true,"rental_uris":{"android":"levelo://app?vid=22e3bc47-250c-407b-9cb1-05004c2aac40","ios":"levelo://app?vid=22e3bc47-250c-407b-9cb1-05004c2aac40"},"vehicle_type_id":"4","last_reported":1751652880,"current_range_meters":800,"station_id":"","pricing_plan_id":"cebpf4jnsgd1na2vs0mg"},{"bike_id":"cee0b5b6-9b90-457a-85f4-540287a23b84","system_id":"levelo_inurba_marseille","lat":43.21191,"lon":5.35071,"is_reserved":false,"is_disabled":true,"rental_uris":{"android":"levelo://app?vid=cee0b5b6-9b90-457a-85f4-540287a23b84","ios":"levelo://app?vid=cee0b5b6-9b90-457a-85f4-540287a23b84"},"vehicle_type_id":"4","last_reported":1751652880,"current_range_meters":800,"station_id":"st_cvj6sg6p6f1abm77japg","pricing_plan_id":"cebpf4jnsgd1na2vs0mg"},{"bike_id":"ec334bbf-9726-468f-8a29-1829e91526fa","system_id":"levelo_inurba_marseille","lat":43.27965,"lon":5.38751,"is_reserved":false,"is_disabled":true,"rental_uris":{"android":"levelo://app?vid=ec334bbf-9726-468f-8a29-1829e91526fa","ios":"levelo://app?vid=ec334bbf-9726-468f-8a29-1829e91526fa"},"vehicle_type_id":"4","last_reported":1751652880,"current_range_meters":1200,"station_id":"ce4bhg12rcd13ifvqf80","pricing_plan_id":"cebpf4jnsgd1na2vs0mg"},{"bike_id":"32558b86-e415-4b80-9a57-6aff363919af","system_id":"levelo_inurba_marseille","lat":43.257304,"lon":5.411086,"is_reserved":false,"is_disabled":true,"rental_uris":{"android":"levelo://app?vid=32558b86-e415-4b80-9a57-6aff363919af","ios":"levelo://app?vid=32558b86-e415-4b80-9a57-6aff363919af"},"vehicle_type_id":"4","last_reported":1751652880,"current_range_meters":1200,"station_id":"ce4bhkp2rcd13ifvqgd0","pricing_plan_id":"cebpf4jnsgd1na2vs0mg"},{"bike_id":"32c37e2e-d318-44aa-b60c-85606d059219","system_id":"levelo_inurba_marseille","lat":43.27492,"lon":5.4245,"is_reserved":false,"is_disabled":true,"rental_uris":{"android":"levelo://app?vid=32c37e2e-d318-44aa-b60c-85606d059219","ios":"levelo://app?vid=32c37e2e-d318-44aa-b60c-85606d059219"},"vehicle_type_id":"4","last_reported":1751652880,"current_range_meters":1200,"station_id":"ce4bhn92rcd13ifvqgrg","pricing_plan_id":"cebpf4jnsgd1na2vs0mg"},{"bike_id":"34c6e3d0-b005-424f-a0a7-52f9f8bd654f","system_id":"levelo_inurba_marseille","lat":43.23622,"lon":5.36207,"is_reserved":false,"is_disabled":true,"rental_uris":{"android":"levelo://app?vid=34c6e3d0-b005-424f-a0a7-52f9f8bd654f","ios":"levelo://app?vid=34c6e3d0-b005-424f-a0a7-52f9f8bd654f"},"vehicle_type_id":"4","last_reported":1751652880,"current_range_meters":1600,"station_id":"","pricing_plan_id":"cebpf4jnsgd1na2vs0mg"},{"bike_id":"324163b1-2378-4f73-b3b5-426550d2b6ab","system_id":"levelo_inurba_marseille","lat":43.286652,"lon":5.386613,"is_reserved":false,"is_disabled":true,"rental_uris":{"android":"levelo://app?vid=324163b1-2378-4f73-b3b5-426550d2b6ab","ios":"levelo://app?vid=324163b1-2378-4f73-b3b5-426550d2b6ab"},"vehicle_type_id":"4","last_reported":1751652880,"current_range_meters":1600,"station_id":"ce4bh492rcd13ifvqdug","pricing_plan_id":"cebpf4jnsgd1na2vs0mg"},{"bike_id":"895dc75c-4140-43bb-be26-c6e6a73ff1f8","system_id":"levelo_inurba_marseille","lat":43.28615,"lon":5.35107,"is_reserved":false,"is_disabled":true,"rental_uris":{"android":"levelo://app?vid=895dc75c-4140-43bb-be26-c6e6a73ff1f8","ios":"levelo://app?vid=895dc75c-4140-43bb-be26-c6e6a73ff1f8"},"vehicle_type_id":"4","last_reported":1751652880,"current_range_meters":1600,"station_id":"ce4bhch2rcd13ifvqeug","pricing_plan_id":"cebpf4jnsgd1na2vs0mg"},{"bike_id":"5b14f353-4bec-44e4-908d-1ecbd4fd5e2a","system_id":"levelo_inurba_marseille","lat":43.248113,"lon":5.374588,"is_reserved":false,"is_disabled":true,"rental_uris":{"android":"levelo://app?vid=5b14f353-4bec-44e4-908d-1ecbd4fd5e2a","ios":"levelo://app?vid=5b14f353-4bec-44e4-908d-1ecbd4fd5e2a"},"vehicle_type_id":"4","last_reported":1751652880,"current_range_meters":1600,"station_id":"ce4bhgh2rcd13ifvqfb0","pricing_plan_id":"cebpf4jnsgd1na2vs0mg"},{"bike_id":"e3c4550c-9e01-4c43-a104-805963e116cf","system_id":"levelo_inurba_marseille","lat":43.295319,"lon":5.385388,"is_reserved":false,"is_disabled":true,"rental_uris":{"android":"levelo://app?vid=e3c4550c-9e01-4c43-a104-805963e116cf","ios":"levelo://app?vid=e3c4550c-9e01-4c43-a104-805963e116cf"},"vehicle_type_id":"4","last_reported":1751652880,"current_range_meters":2000,"station_id":"ce4bgih2rcd13ifvqba0","pricing_plan_id":"cebpf4jnsgd1na2vs0mg"},{"bike_id":"670151f5-a594-4f64-ba9d-f122921d0a2e","system_id":"levelo_inurba_marseille","lat":43.3146,"lon":5.37292,"is_reserved":false,"is_disabled":true,"rental_uris":{"android":"levelo://app?vid=670151f5-a594-4f64-ba9d-f122921d0a2e","ios":"levelo://app?vid=670151f5-a594-4f64-ba9d-f122921d0a2e"},"vehicle_type_id":"4","last_reported":1751652880,"current_range_meters":2000,"station_id":"ce4bgt12rcd13ifvqcd0","pricing_plan_id":"cebpf4jnsgd1na2vs0mg"},{"bike_id":"a71b67c6-5476-4b87-9fd8-4886451c4474","system_id":"levelo_inurba_marseille","lat":43.29052,"lon":5.39959,"is_reserved":false,"is_disabled":true,"rental_uris":{"android":"levelo://app?vid=a71b67c6-5476-4b87-9fd8-4886451c4474","ios":"levelo://app?vid=a71b67c6-5476-4b87-9fd8-4886451c4474"},"vehicle_type_id":"4","last_reported":1751652880,"current_range_meters":2000,"station_id":"ce4bh392rcd13ifvqdm0","pricing_plan_id":"cebpf4jnsgd1na2vs0mg"},{"bike_id":"2a99d84b-0268-4f9b-9f95-3ce13ea208bb","system_id":"levelo_inurba_marseille","lat":43.28973,"lon":5.37829,"is_reserved":false,"is_disabled":true,"rental_uris":{"android":"levelo://app?vid=2a99d84b-0268-4f9b-9f95-3ce13ea208bb","ios":"levelo://app?vid=2a99d84b-0268-4f9b-9f95-3ce13ea208bb"},"vehicle_type_id":"4","last_reported":1751652880,"current_range_meters":2000,"station_id":"ce4bh9p2rcd13ifvqed0","pricing_plan_id":"cebpf4jnsgd1na2vs0mg"},{"bike_id":"3cbfb4fd-9b4e-41b1-aa01-d9acc6946485","system_id":"levelo_inurba_marseille","lat":43.28613,"lon":5.35109,"is_reserved":false,"is_disabled":true,"rental_uris":{"android":"levelo://app?vid=3cbfb4fd-9b4e-41b1-aa01-d9acc6946485","ios":"levelo://app?vid=3cbfb4fd-9b4e-41b1-aa01-d9acc6946485"},"vehicle_type_id":"4","last_reported":1751652880,"current_range_meters":2000,"station_id":"ce4bhch2rcd13ifvqeug","pricing_plan_id":"cebpf4jnsgd1na2vs0mg"},{"bike_id":"e7a69ddc-556f-41b5-a376-b811659314d5","system_id":"levelo_inurba_marseille","lat":43.26214,"lon":5.37439,"is_reserved":false,"is_disabled":true,"rental_uris":{"android":"levelo://app?vid=e7a69ddc-556f-41b5-a376-b811659314d5","ios":"levelo://app?vid=e7a69ddc-556f-41b5-a376-b811659314d5"},"vehicle_type_id":"4","last_reported":1751652880,"current_range_meters":2000,"station_id":"ce4bhgp2rcd13ifvqfc0","pricing_plan_id":"cebpf4jnsgd1na2vs0mg"},{"bike_id":"941582a9-b883-4f50-9e12-468461db247e","system_id":"levelo_inurba_marseille","lat":43.28368,"lon":5.3862,"is_reserved":false,"is_disabled":true,"rental_uris":{"android":"levelo://app?vid=941582a9-b883-4f50-9e12-468461db247e","ios":"levelo://app?vid=941582a9-b883-4f50-9e12-468461db247e"},"vehicle_type_id":"4","last_reported":1751652880,"current_range_meters":2800,"station_id":"ce4bh492rcd13ifvqdvg","pricing_plan_id":"cebpf4jnsgd1na2vs0mg"},{"bike_id":"370a89ad-1c6c-4628-98db-ce501169d9f6","system_id":"levelo_inurba_marseille","lat":43.28617,"lon":5.35107,"is_reserved":false,"is_disabled":false,"rental_uris":{"android":"levelo://app?vid=370a89ad-1c6c-4628-98db-ce501169d9f6","ios":"levelo://app?vid=370a89ad-1c6c-4628-98db-ce501169d9f6"},"vehicle_type_id":"4","last_reported":1751652880,"current_range_meters":2800,"station_id":"ce4bhch2rcd13ifvqeug","pricing_plan_id":"cebpf4jnsgd1na2vs0mg"},{"bike_id":"648deb13-c427-4996-8573-3e7afd99cb2e","system_id":"levelo_inurba_marseille","lat":43.26947,"lon":5.40268,"is_reserved":false,"is_disabled":false,"rental_uris":{"android":"levelo://app?vid=648deb13-c427-4996-8573-3e7afd99cb2e","ios":"levelo://app?vid=648deb13-c427-4996-8573-3e7afd99cb2e"},"vehicle_type_id":"4","last_reported":1751652880,"current_range_meters":2800,"station_id":"cjm6bp8fraef2m0cb0m0","pricing_plan_id":"cebpf4jnsgd1na2vs0mg"},{"bike_id":"4fc78fde-aa13-4271-a4a5-1fb1fa2593c2","system_id":"levelo_inurba_marseille","lat":43.26566,"lon":5.39006,"is_reserved":false,"is_disabled":false,"rental_uris":{"android":"levelo://app?vid=4fc78fde-aa13-4271-a4a5-1fb1fa2593c2","ios":"levelo://app?vid=4fc78fde-aa13-4271-a4a5-1fb1fa2593c2"},"vehicle_type_id":"4","last_reported":1751652880,"current_range_meters":3200,"station_id":"ce4bhe12rcd13ifvqf30","pricing_plan_id":"cebpf4jnsgd1na2vs0mg"},{"bike_id":"d0038f7c-1b28-434b-89ff-4ed25d3ae303","system_id":"levelo_inurba_marseille","lat":43.278409,"lon":5.392101,"is_reserved":false,"is_disabled":false,"rental_uris":{"android":"levelo://app?vid=d0038f7c-1b28-434b-89ff-4ed25d3ae303","ios":"levelo://app?vid=d0038f7c-1b28-434b-89ff-4ed25d3ae303"},"vehicle_type_id":"4","last_reported":1751652880,"current_range_meters":3200,"station_id":"ce4bhjp2rcd13ifvqga0","pricing_plan_id":"cebpf4jnsgd1na2vs0mg"},{"bike_id":"36c04e0b-cb36-48d9-9788-7dc9fd755337","system_id":"levelo_inurba_marseille","lat":43.2762,"lon":5.36104,"is_reserved":false,"is_disabled":false,"rental_uris":{"android":"levelo://app?vid=36c04e0b-cb36-48d9-9788-7dc9fd755337","ios":"levelo://app?vid=36c04e0b-cb36-48d9-9788-7dc9fd755337"},"vehicle_type_id":"4","last_reported":1751652880,"current_range_meters":3600,"station_id":"","pricing_plan_id":"cebpf4jnsgd1na2vs0mg"},{"bike_id":"11e7b8be-6254-46c8-a705-c6941c346d56","system_id":"levelo_inurba_marseille","lat":43.30142,"lon":5.37705,"is_reserved":false,"is_disabled":false,"rental_uris":{"android":"levelo://app?vid=11e7b8be-6254-46c8-a705-c6941c346d56","ios":"levelo://app?vid=11e7b8be-6254-46c8-a705-c6941c346d56"},"vehicle_type_id":"4","last_reported":1751652880,"current_range_meters":3600,"station_id":"","pricing_plan_id":"cebpf4jnsgd1na2vs0mg"},{"bike_id":"901ac57e-f2b4-4bc2-8619-e9e2e516331d","system_id":"levelo_inurba_marseille","lat":43.26677,"lon":5.38269,"is_reserved":false,"is_disabled":false,"rental_uris":{"android":"levelo://app?vid=901ac57e-f2b4-4bc2-8619-e9e2e516331d","ios":"levelo://app?vid=901ac57e-f2b4-4bc2-8619-e9e2e516331d"},"vehicle_type_id":"4","last_reported":1751652880,"current_range_meters":3600,"station_id":"ce4bhg92rcd13ifvqf90","pricing_plan_id":"cebpf4jnsgd1na2vs0mg"},{"bike_id":"da94e939-8730-4d41-af83-d7ee9b5bb449","system_id":"levelo_inurba_marseille","lat":43.29539,"lon":5.38548,"is_reserved":false,"is_disabled":false,"rental_uris":{"android":"levelo://app?vid=da94e939-8730-4d41-af83-d7ee9b5bb449","ios":"levelo://app?vid=da94e939-8730-4d41-af83-d7ee9b5bb449"},"vehicle_type_id":"4","last_reported":1751652880,"current_range_meters":4000,"station_id":"","pricing_plan_id":"cebpf4jnsgd1na2vs0mg"},{"bike_id":"c9c25c45-3674-48a2-87cc-a8399a9ca60e","system_id":"levelo_inurba_marseille","lat":43.30541,"lon":5.36697,"is_reserved":false,"is_disabled":false,"rental_uris":{"android":"levelo://app?vid=c9c25c45-3674-48a2-87cc-a8399a9ca60e","ios":"levelo://app?vid=c9c25c45-3674-48a2-87cc-a8399a9ca60e"},"vehicle_type_id":"4","last_reported":1751652880,"current_range_meters":4000,"station_id":"ce4bgrp2rcd13ifvqc9g","pricing_plan_id":"cebpf4jnsgd1na2vs0mg"},{"bike_id":"c8063873-82e2-4929-a84e-8645a44ba0ec","system_id":"levelo_inurba_marseille","lat":43.30947,"lon":5.39023,"is_reserved":false,"is_disabled":false,"rental_uris":{"android":"levelo://app?vid=c8063873-82e2-4929-a84e-8645a44ba0ec","ios":"levelo://app?vid=c8063873-82e2-4929-a84e-8645a44ba0ec"},"vehicle_type_id":"4","last_reported":1751652880,"current_range_meters":4000,"station_id":"ce4bgup2rcd13ifvqco0","pricing_plan_id":"cebpf4jnsgd1na2vs0mg"},{"bike_id":"97c1a803-d9e3-41ee-a34e-edefaa202801","system_id":"levelo_inurba_marseille","lat":43.26803,"lon":5.40265,"is_reserved":false,"is_disabled":false,"rental_uris":{"android":"levelo://app?vid=97c1a803-d9e3-41ee-a34e-edefaa202801","ios":"levelo://app?vid=97c1a803-d9e3-41ee-a34e-edefaa202801"},"vehicle_type_id":"4","last_reported":1751652880,"current_range_meters":4400,"station_id":"ce501612rcd8frsf0b60","pricing_plan_id":"cebpf4jnsgd1na2vs0mg"},{"bike_id":"b615829b-cebf-4a62-9e51-7b84b2830049","system_id":"levelo_inurba_marseille","lat":43.297058,"lon":5.366044,"is_reserved":false,"is_disabled":false,"rental_uris":{"android":"levelo://app?vid=b615829b-cebf-4a62-9e51-7b84b2830049","ios":"levelo://app?vid=b615829b-cebf-4a62-9e51-7b84b2830049"},"vehicle_type_id":"4","last_reported":1751652880,"current_range_meters":4800,"station_id":"ce4bgn12rcd13ifvqbt0","pricing_plan_id":"cebpf4jnsgd1na2vs0mg"},{"bike_id":"f17e97cd-ee52-4392-92e2-f160c45c6142","system_id":"levelo_inurba_marseille","lat":43.31266,"lon":5.40161,"is_reserved":false,"is_disabled":false,"rental_uris":{"android":"levelo://app?vid=f17e97cd-ee52-4392-92e2-f160c45c6142","ios":"levelo://app?vid=f17e97cd-ee52-4392-92e2-f160c45c6142"},"vehicle_type_id":"4","last_reported":1751652880,"current_range_meters":4800,"station_id":"ce4bh092rcd13ifvqd30","pricing_plan_id":"cebpf4jnsgd1na2vs0mg"},{"bike_id":"8afa7640-ebe8-4025-983a-c83f3912a2dd","system_id":"levelo_inurba_marseille","lat":43.211906,"lon":5.350732,"is_reserved":false,"is_disabled":false,"rental_uris":{"android":"levelo://app?vid=8afa7640-ebe8-4025-983a-c83f3912a2dd","ios":"levelo://app?vid=8afa7640-ebe8-4025-983a-c83f3912a2dd"},"vehicle_type_id":"4","last_reported":1751652880,"current_range_meters":4800,"station_id":"st_cvj6sg6p6f1abm77japg","pricing_plan_id":"cebpf4jnsgd1na2vs0mg"},{"bike_id":"e26ba497-efc7-4420-b8c5-9fa5e27f2ce4","system_id":"levelo_inurba_marseille","lat":43.313597,"lon":5.370659,"is_reserved":false,"is_disabled":false,"rental_uris":{"android":"levelo://app?vid=e26ba497-efc7-4420-b8c5-9fa5e27f2ce4","ios":"levelo://app?vid=e26ba497-efc7-4420-b8c5-9fa5e27f2ce4"},"vehicle_type_id":"4","last_reported":1751652880,"current_range_meters":5600,"station_id":"","pricing_plan_id":"cebpf4jnsgd1na2vs0mg"},{"bike_id":"8fc05064-3125-4721-bc58-5ffa8c7f35c0","system_id":"levelo_inurba_marseille","lat":43.28609,"lon":5.3706,"is_reserved":false,"is_disabled":false,"rental_uris":{"android":"levelo://app?vid=8fc05064-3125-4721-bc58-5ffa8c7f35c0","ios":"levelo://app?vid=8fc05064-3125-4721-bc58-5ffa8c7f35c0"},"vehicle_type_id":"4","last_reported":1751652880,"current_range_meters":5600,"station_id":"ce4bht12rcd13ifvqi60","pricing_plan_id":"cebpf4jnsgd1na2vs0mg"},{"bike_id":"430293cf-5032-4974-bb40-66a721d88cf2","system_id":"levelo_inurba_marseille","lat":43.29813,"lon":5.38119,"is_reserved":false,"is_disabled":false,"rental_uris":{"android":"levelo://app?vid=430293cf-5032-4974-bb40-66a721d88cf2","ios":"levelo://app?vid=430293cf-5032-4974-bb40-66a721d88cf2"},"vehicle_type_id":"4","last_reported":1751652880,"current_range_meters":6000,"station_id":"","pricing_plan_id":"cebpf4jnsgd1na2vs0mg"},{"bike_id":"173d51be-2db1-4f20-bd84-39222c76faed","system_id":"levelo_inurba_marseille","lat":43.292542,"lon":5.384424,"is_reserved":false,"is_disabled":false,"rental_uris":{"android":"levelo://app?vid=173d51be-2db1-4f20-bd84-39222c76faed","ios":"levelo://app?vid=173d51be-2db1-4f20-bd84-39222c76faed"},"vehicle_type_id":"4","last_reported":1751652880,"current_range_meters":6000,"station_id":"ce4bh692rcd13ifvqea0","pricing_plan_id":"cebpf4jnsgd1na2vs0mg"},{"bike_id":"c3ae91a3-84a1-49e1-b302-b2dd0c68bce6","system_id":"levelo_inurba_marseille","lat":43.28335,"lon":5.43219,"is_reserved":false,"is_disabled":false,"rental_uris":{"android":"levelo://app?vid=c3ae91a3-84a1-49e1-b302-b2dd0c68bce6","ios":"levelo://app?vid=c3ae91a3-84a1-49e1-b302-b2dd0c68bce6"},"vehicle_type_id":"4","last_reported":1751652880,"current_range_meters":6400,"station_id":"","pricing_plan_id":"cebpf4jnsgd1na2vs0mg"},{"bike_id":"cbbd5625-7115-4567-8d18-443a1905cae4","system_id":"levelo_inurba_marseille","lat":43.29293,"lon":5.37444,"is_reserved":false,"is_disabled":false,"rental_uris":{"android":"levelo://app?vid=cbbd5625-7115-4567-8d18-443a1905cae4","ios":"levelo://app?vid=cbbd5625-7115-4567-8d18-443a1905cae4"},"vehicle_type_id":"4","last_reported":1751652880,"current_range_meters":6400,"station_id":"ce4bgi12rcd13ifvqb70","pricing_plan_id":"cebpf4jnsgd1na2vs0mg"},{"bike_id":"ab67a452-fece-4e8b-a3f4-f738ffe3de33","system_id":"levelo_inurba_marseille","lat":43.27496,"lon":5.42445,"is_reserved":false,"is_disabled":false,"rental_uris":{"android":"levelo://app?vid=ab67a452-fece-4e8b-a3f4-f738ffe3de33","ios":"levelo://app?vid=ab67a452-fece-4e8b-a3f4-f738ffe3de33"},"vehicle_type_id":"4","last_reported":1751652880,"current_range_meters":6400,"station_id":"ce4bhn92rcd13ifvqgrg","pricing_plan_id":"cebpf4jnsgd1na2vs0mg"},{"bike_id":"1f81d10d-d2ff-4523-aefb-7f897158527a","system_id":"levelo_inurba_marseille","lat":43.29557,"lon":5.42291,"is_reserved":false,"is_disabled":false,"rental_uris":{"android":"levelo://app?vid=1f81d10d-d2ff-4523-aefb-7f897158527a","ios":"levelo://app?vid=1f81d10d-d2ff-4523-aefb-7f897158527a"},"vehicle_type_id":"4","last_reported":1751652880,"current_range_meters":6400,"station_id":"ce4bhph2rcd13ifvqhdg","pricing_plan_id":"cebpf4jnsgd1na2vs0mg"},{"bike_id":"f6850c7e-defc-4978-a42c-12d5cf031dcb","system_id":"levelo_inurba_marseille","lat":43.31755,"lon":5.39012,"is_reserved":false,"is_disabled":false,"rental_uris":{"android":"levelo://app?vid=f6850c7e-defc-4978-a42c-12d5cf031dcb","ios":"levelo://app?vid=f6850c7e-defc-4978-a42c-12d5cf031dcb"},"vehicle_type_id":"4","last_reported":1751652880,"current_range_meters":6400,"station_id":"ce4bhqp2rcd13ifvqhng","pricing_plan_id":"cebpf4jnsgd1na2vs0mg"},{"bike_id":"09454f46-e55e-4559-820c-cbc05b531847","system_id":"levelo_inurba_marseille","lat":43.32298,"lon":5.38984,"is_reserved":false,"is_disabled":false,"rental_uris":{"android":"levelo://app?vid=09454f46-e55e-4559-820c-cbc05b531847","ios":"levelo://app?vid=09454f46-e55e-4559-820c-cbc05b531847"},"vehicle_type_id":"4","last_reported":1751652880,"current_range_meters":6800,"station_id":"","pricing_plan_id":"cebpf4jnsgd1na2vs0mg"},{"bike_id":"1e9a59bf-87a8-4f5d-86ab-76482c655f76","system_id":"levelo_inurba_marseille","lat":43.262077,"lon":5.374407,"is_reserved":false,"is_disabled":false,"rental_uris":{"android":"levelo://app?vid=1e9a59bf-87a8-4f5d-86ab-76482c655f76","ios":"levelo://app?vid=1e9a59bf-87a8-4f5d-86ab-76482c655f76"},"vehicle_type_id":"4","last_reported":1751652880,"current_range_meters":6800,"station_id":"ce4bhgp2rcd13ifvqfc0","pricing_plan_id":"cebpf4jnsgd1na2vs0mg"},{"bike_id":"3e51873d-652e-4aa0-af42-5f89774c2153","system_id":"levelo_inurba_marseille","lat":43.30946,"lon":5.39032,"is_reserved":false,"is_disabled":false,"rental_uris":{"android":"levelo://app?vid=3e51873d-652e-4aa0-af42-5f89774c2153","ios":"levelo://app?vid=3e51873d-652e-4aa0-af42-5f89774c2153"},"vehicle_type_id":"4","last_reported":1751652880,"current_range_meters":7200,"station_id":"ce4bgup2rcd13ifvqco0","pricing_plan_id":"cebpf4jnsgd1na2vs0mg"},{"bike_id":"6879256b-a9d1-487b-960a-2a86b4644893","system_id":"levelo_inurba_marseille","lat":43.31077,"lon":5.38358,"is_reserved":false,"is_disabled":false,"rental_uris":{"android":"levelo://app?vid=6879256b-a9d1-487b-960a-2a86b4644893","ios":"levelo://app?vid=6879256b-a9d1-487b-960a-2a86b4644893"},"vehicle_type_id":"4","last_reported":1751652880,"current_range_meters":7200,"station_id":"ce4bgv92rcd13ifvqcr0","pricing_plan_id":"cebpf4jnsgd1na2vs0mg"},{"bike_id":"f6af9ece-542e-4c02-9acb-4e73def759b0","system_id":"levelo_inurba_marseille","lat":43.27373,"lon":5.36256,"is_reserved":false,"is_disabled":false,"rental_uris":{"android":"levelo://app?vid=f6af9ece-542e-4c02-9acb-4e73def759b0","ios":"levelo://app?vid=f6af9ece-542e-4c02-9acb-4e73def759b0"},"vehicle_type_id":"4","last_reported":1751652880,"current_range_meters":7200,"station_id":"ce4bhbh2rcd13ifvqeo0","pricing_plan_id":"cebpf4jnsgd1na2vs0mg"},{"bike_id":"e7b24a5c-f77d-41d0-9414-75ce50714dcc","system_id":"levelo_inurba_marseille","lat":43.30288,"lon":5.39221,"is_reserved":false,"is_disabled":false,"rental_uris":{"android":"levelo://app?vid=e7b24a5c-f77d-41d0-9414-75ce50714dcc","ios":"levelo://app?vid=e7b24a5c-f77d-41d0-9414-75ce50714dcc"},"vehicle_type_id":"4","last_reported":1751652880,"current_range_meters":8000,"station_id":"ce4bgkh2rcd13ifvqbk0","pricing_plan_id":"cebpf4jnsgd1na2vs0mg"},{"bike_id":"2e83487c-bf28-4195-b2e2-a8aefb81a31e","system_id":"levelo_inurba_marseille","lat":43.307816,"lon":5.376523,"is_reserved":false,"is_disabled":false,"rental_uris":{"android":"levelo://app?vid=2e83487c-bf28-4195-b2e2-a8aefb81a31e","ios":"levelo://app?vid=2e83487c-bf28-4195-b2e2-a8aefb81a31e"},"vehicle_type_id":"4","last_reported":1751652880,"current_range_meters":8000,"station_id":"ce4bgv92rcd13ifvqcq0","pricing_plan_id":"cebpf4jnsgd1na2vs0mg"},{"bike_id":"6c4978e8-0fc5-4634-91e4-a277443beb80","system_id":"levelo_inurba_marseille","lat":43.30803,"lon":5.43524,"is_reserved":false,"is_disabled":false,"rental_uris":{"android":"levelo://app?vid=6c4978e8-0fc5-4634-91e4-a277443beb80","ios":"levelo://app?vid=6c4978e8-0fc5-4634-91e4-a277443beb80"},"vehicle_type_id":"4","last_reported":1751652880,"current_range_meters":8000,"station_id":"ce4bhph2rcd13ifvqheg","pricing_plan_id":"cebpf4jnsgd1na2vs0mg"},{"bike_id":"9bfc7d3d-4e60-4f8a-9c32-ef3d0e77ec5b","system_id":"levelo_inurba_marseille","lat":43.21199,"lon":5.35065,"is_reserved":false,"is_disabled":false,"rental_uris":{"android":"levelo://app?vid=9bfc7d3d-4e60-4f8a-9c32-ef3d0e77ec5b","ios":"levelo://app?vid=9bfc7d3d-4e60-4f8a-9c32-ef3d0e77ec5b"},"vehicle_type_id":"4","last_reported":1751652880,"current_range_meters":8000,"station_id":"st_cvj6sg6p6f1abm77japg","pricing_plan_id":"cebpf4jnsgd1na2vs0mg"},{"bike_id":"be4e2ba2-f83c-4be6-923a-932d435bb5ce","system_id":"levelo_inurba_marseille","lat":43.28226,"lon":5.40441,"is_reserved":false,"is_disabled":false,"rental_uris":{"android":"levelo://app?vid=be4e2ba2-f83c-4be6-923a-932d435bb5ce","ios":"levelo://app?vid=be4e2ba2-f83c-4be6-923a-932d435bb5ce"},"vehicle_type_id":"4","last_reported":1751652880,"current_range_meters":8400,"station_id":"","pricing_plan_id":"cebpf4jnsgd1na2vs0mg"},{"bike_id":"7d2a8ef7-d596-4a0e-90be-1376f4ac4bb0","system_id":"levelo_inurba_marseille","lat":43.27625,"lon":5.36101,"is_reserved":false,"is_disabled":false,"rental_uris":{"android":"levelo://app?vid=7d2a8ef7-d596-4a0e-90be-1376f4ac4bb0","ios":"levelo://app?vid=7d2a8ef7-d596-4a0e-90be-1376f4ac4bb0"},"vehicle_type_id":"4","last_reported":1751652880,"current_range_meters":8400,"station_id":"ce4bgj92rcd13ifvqbe0","pricing_plan_id":"cebpf4jnsgd1na2vs0mg"},{"bike_id":"ad14ee93-ed6e-4505-864d-1424458b35f3","system_id":"levelo_inurba_marseille","lat":43.30322,"lon":5.3688,"is_reserved":false,"is_disabled":false,"rental_uris":{"android":"levelo://app?vid=ad14ee93-ed6e-4505-864d-1424458b35f3","ios":"levelo://app?vid=ad14ee93-ed6e-4505-864d-1424458b35f3"},"vehicle_type_id":"4","last_reported":1751652880,"current_range_meters":8400,"station_id":"ce4bgqh2rcd13ifvqc5g","pricing_plan_id":"cebpf4jnsgd1na2vs0mg"},{"bike_id":"200c2635-9b0f-422f-a258-b49a13f99ebf","system_id":"levelo_inurba_marseille","lat":43.28422,"lon":5.34995,"is_reserved":false,"is_disabled":false,"rental_uris":{"android":"levelo://app?vid=200c2635-9b0f-422f-a258-b49a13f99ebf","ios":"levelo://app?vid=200c2635-9b0f-422f-a258-b49a13f99ebf"},"vehicle_type_id":"4","last_reported":1751652880,"current_range_meters":8400,"station_id":"ce4bhbh2rcd13ifvqepg","pricing_plan_id":"cebpf4jnsgd1na2vs0mg"},{"bike_id":"5fea9e02-6e0a-4a1f-a970-2257e07332bd","system_id":"levelo_inurba_marseille","lat":43.24804,"lon":5.37452,"is_reserved":false,"is_disabled":false,"rental_uris":{"android":"levelo://app?vid=5fea9e02-6e0a-4a1f-a970-2257e07332bd","ios":"levelo://app?vid=5fea9e02-6e0a-4a1f-a970-2257e07332bd"},"vehicle_type_id":"4","last_reported":1751652880,"current_range_meters":8400,"station_id":"ce4bhgh2rcd13ifvqfb0","pricing_plan_id":"cebpf4jnsgd1na2vs0mg"},{"bike_id":"2ac84a3b-f378-4742-8c75-a995f1f175b1","system_id":"levelo_inurba_marseille","lat":43.27508,"lon":5.42453,"is_reserved":false,"is_disabled":false,"rental_uris":{"android":"levelo://app?vid=2ac84a3b-f378-4742-8c75-a995f1f175b1","ios":"levelo://app?vid=2ac84a3b-f378-4742-8c75-a995f1f175b1"},"vehicle_type_id":"4","last_reported":1751652880,"current_range_meters":8400,"station_id":"ce4bhn92rcd13ifvqgrg","pricing_plan_id":"cebpf4jnsgd1na2vs0mg"},{"bike_id":"d799b321-3a7d-4201-b46e-ffe2ad124f19","system_id":"levelo_inurba_marseille","lat":43.32937,"lon":5.38372,"is_reserved":false,"is_disabled":false,"rental_uris":{"android":"levelo://app?vid=d799b321-3a7d-4201-b46e-ffe2ad124f19","ios":"levelo://app?vid=d799b321-3a7d-4201-b46e-ffe2ad124f19"},"vehicle_type_id":"4","last_reported":1751652880,"current_range_meters":8800,"station_id":"","pricing_plan_id":"cebpf4jnsgd1na2vs0mg"},{"bike_id":"4bac3f2b-eb39-405f-9e58-7764b5148051","system_id":"levelo_inurba_marseille","lat":43.321674,"lon":5.417719,"is_reserved":false,"is_disabled":false,"rental_uris":{"android":"levelo://app?vid=4bac3f2b-eb39-405f-9e58-7764b5148051","ios":"levelo://app?vid=4bac3f2b-eb39-405f-9e58-7764b5148051"},"vehicle_type_id":"4","last_reported":1751652880,"current_range_meters":9200,"station_id":"","pricing_plan_id":"cebpf4jnsgd1na2vs0mg"},{"bike_id":"3b9730f3-d0b5-472c-b336-da9f1a4514fd","system_id":"levelo_inurba_marseille","lat":43.29076,"lon":5.35586,"is_reserved":false,"is_disabled":false,"rental_uris":{"android":"levelo://app?vid=3b9730f3-d0b5-472c-b336-da9f1a4514fd","ios":"levelo://app?vid=3b9730f3-d0b5-472c-b336-da9f1a4514fd"},"vehicle_type_id":"4","last_reported":1751652880,"current_range_meters":9200,"station_id":"","pricing_plan_id":"cebpf4jnsgd1na2vs0mg"},{"bike_id":"2d5d2345-b1a2-41a3-b7ed-25a2b843f177","system_id":"levelo_inurba_marseille","lat":43.304253,"lon":5.388872,"is_reserved":false,"is_disabled":false,"rental_uris":{"android":"levelo://app?vid=2d5d2345-b1a2-41a3-b7ed-25a2b843f177","ios":"levelo://app?vid=2d5d2345-b1a2-41a3-b7ed-25a2b843f177"},"vehicle_type_id":"4","last_reported":1751652880,"current_range_meters":9200,"station_id":"","pricing_plan_id":"cebpf4jnsgd1na2vs0mg"},{"bike_id":"61508200-2fc3-4b40-942e-1f3238a9b006","system_id":"levelo_inurba_marseille","lat":43.273733,"lon":5.362548,"is_reserved":false,"is_disabled":false,"rental_uris":{"android":"levelo://app?vid=61508200-2fc3-4b40-942e-1f3238a9b006","ios":"levelo://app?vid=61508200-2fc3-4b40-942e-1f3238a9b006"},"vehicle_type_id":"4","last_reported":1751652880,"current_range_meters":9200,"station_id":"ce4bhbh2rcd13ifvqeo0","pricing_plan_id":"cebpf4jnsgd1na2vs0mg"},{"bike_id":"c6a7a20d-73cc-480a-ae14-522ac461af29","system_id":"levelo_inurba_marseille","lat":43.26211,"lon":5.37439,"is_reserved":false,"is_disabled":false,"rental_uris":{"android":"levelo://app?vid=c6a7a20d-73cc-480a-ae14-522ac461af29","ios":"levelo://app?vid=c6a7a20d-73cc-480a-ae14-522ac461af29"},"vehicle_type_id":"4","last_reported":1751652880,"current_range_meters":9200,"station_id":"ce4bhgp2rcd13ifvqfc0","pricing_plan_id":"cebpf4jnsgd1na2vs0mg"},{"bike_id":"8ef1852f-8877-4b0e-9296-b04d22726fa2","system_id":"levelo_inurba_marseille","lat":43.30372,"lon":5.42484,"is_reserved":false,"is_disabled":false,"rental_uris":{"android":"levelo://app?vid=8ef1852f-8877-4b0e-9296-b04d22726fa2","ios":"levelo://app?vid=8ef1852f-8877-4b0e-9296-b04d22726fa2"},"vehicle_type_id":"4","last_reported":1751652880,"current_range_meters":9200,"station_id":"ce4bhoh2rcd13ifvqh6g","pricing_plan_id":"cebpf4jnsgd1na2vs0mg"},{"bike_id":"c76381fd-b6b9-4d02-a8a4-fd4e6891e706","system_id":"levelo_inurba_marseille","lat":43.30254,"lon":5.390457,"is_reserved":false,"is_disabled":false,"rental_uris":{"android":"levelo://app?vid=c76381fd-b6b9-4d02-a8a4-fd4e6891e706","ios":"levelo://app?vid=c76381fd-b6b9-4d02-a8a4-fd4e6891e706"},"vehicle_type_id":"4","last_reported":1751652880,"current_range_meters":9600,"station_id":"","pricing_plan_id":"cebpf4jnsgd1na2vs0mg"},{"bike_id":"fca6e408-376b-4388-8c0c-4722d000f52e","system_id":"levelo_inurba_marseille","lat":43.31489,"lon":5.37308,"is_reserved":false,"is_disabled":false,"rental_uris":{"android":"levelo://app?vid=fca6e408-376b-4388-8c0c-4722d000f52e","ios":"levelo://app?vid=fca6e408-376b-4388-8c0c-4722d000f52e"},"vehicle_type_id":"4","last_reported":1751652880,"current_range_meters":9600,"station_id":"ce4bgt12rcd13ifvqcd0","pricing_plan_id":"cebpf4jnsgd1na2vs0mg"},{"bike_id":"dfd4d69b-2c8e-4737-ac07-a0a2a8a984f8","system_id":"levelo_inurba_marseille","lat":43.28041,"lon":5.36936,"is_reserved":false,"is_disabled":false,"rental_uris":{"android":"levelo://app?vid=dfd4d69b-2c8e-4737-ac07-a0a2a8a984f8","ios":"levelo://app?vid=dfd4d69b-2c8e-4737-ac07-a0a2a8a984f8"},"vehicle_type_id":"4","last_reported":1751652880,"current_range_meters":9600,"station_id":"ce4bha12rcd13ifvqef0","pricing_plan_id":"cebpf4jnsgd1na2vs0mg"},{"bike_id":"93a890e5-359e-4d20-ae09-b68a97a97010","system_id":"levelo_inurba_marseille","lat":43.24389,"lon":5.37055,"is_reserved":false,"is_disabled":false,"rental_uris":{"android":"levelo://app?vid=93a890e5-359e-4d20-ae09-b68a97a97010","ios":"levelo://app?vid=93a890e5-359e-4d20-ae09-b68a97a97010"},"vehicle_type_id":"4","last_reported":1751652880,"current_range_meters":9600,"station_id":"ce4bhhh2rcd13ifvqfk0","pricing_plan_id":"cebpf4jnsgd1na2vs0mg"},{"bike_id":"ba154a12-11bd-42a5-958a-5992f5d043d1","system_id":"levelo_inurba_marseille","lat":43.304993,"lon":5.370962,"is_reserved":false,"is_disabled":false,"rental_uris":{"android":"levelo://app?vid=ba154a12-11bd-42a5-958a-5992f5d043d1","ios":"levelo://app?vid=ba154a12-11bd-42a5-958a-5992f5d043d1"},"vehicle_type_id":"4","last_reported":1751652880,"current_range_meters":10000,"station_id":"","pricing_plan_id":"cebpf4jnsgd1na2vs0mg"},{"bike_id":"62ebe470-0010-455f-bee3-21074d5b2029","system_id":"levelo_inurba_marseille","lat":43.28424,"lon":5.34985,"is_reserved":false,"is_disabled":false,"rental_uris":{"android":"levelo://app?vid=62ebe470-0010-455f-bee3-21074d5b2029","ios":"levelo://app?vid=62ebe470-0010-455f-bee3-21074d5b2029"},"vehicle_type_id":"4","last_reported":1751652880,"current_range_meters":10000,"station_id":"","pricing_plan_id":"cebpf4jnsgd1na2vs0mg"},{"bike_id":"45ed12b0-8165-4a19-845d-c71240f02db5","system_id":"levelo_inurba_marseille","lat":43.2843,"lon":5.3498,"is_reserved":false,"is_disabled":false,"rental_uris":{"android":"levelo://app?vid=45ed12b0-8165-4a19-845d-c71240f02db5","ios":"levelo://app?vid=45ed12b0-8165-4a19-845d-c71240f02db5"},"vehicle_type_id":"4","last_reported":1751652880,"current_range_meters":10000,"station_id":"ce4bhbh2rcd13ifvqepg","pricing_plan_id":"cebpf4jnsgd1na2vs0mg"},{"bike_id":"9d0a03e8-94cb-4c15-9d0d-dc402490c1e3","system_id":"levelo_inurba_marseille","lat":43.28618,"lon":5.35107,"is_reserved":false,"is_disabled":false,"rental_uris":{"android":"levelo://app?vid=9d0a03e8-94cb-4c15-9d0d-dc402490c1e3","ios":"levelo://app?vid=9d0a03e8-94cb-4c15-9d0d-dc402490c1e3"},"vehicle_type_id":"4","last_reported":1751652880,"current_range_meters":10000,"station_id":"ce4bhch2rcd13ifvqeug","pricing_plan_id":"cebpf4jnsgd1na2vs0mg"},{"bike_id":"18e03d2b-69ba-4af2-bdb8-60416e0aab62","system_id":"levelo_inurba_marseille","lat":43.29899,"lon":5.43674,"is_reserved":false,"is_disabled":false,"rental_uris":{"android":"levelo://app?vid=18e03d2b-69ba-4af2-bdb8-60416e0aab62","ios":"levelo://app?vid=18e03d2b-69ba-4af2-bdb8-60416e0aab62"},"vehicle_type_id":"4","last_reported":1751652880,"current_range_meters":10000,"station_id":"ce4bhpp2rcd13ifvqhfg","pricing_plan_id":"cebpf4jnsgd1na2vs0mg"},{"bike_id":"9f1f6042-7e07-4b00-9dc1-8f0343d9174e","system_id":"levelo_inurba_marseille","lat":43.2119,"lon":5.350645,"is_reserved":false,"is_disabled":false,"rental_uris":{"android":"levelo://app?vid=9f1f6042-7e07-4b00-9dc1-8f0343d9174e","ios":"levelo://app?vid=9f1f6042-7e07-4b00-9dc1-8f0343d9174e"},"vehicle_type_id":"4","last_reported":1751652880,"current_range_meters":10000,"station_id":"st_cvj6sg6p6f1abm77japg","pricing_plan_id":"cebpf4jnsgd1na2vs0mg"},{"bike_id":"98349eb9-50f4-4507-88ec-89ca18ad700b","system_id":"levelo_inurba_marseille","lat":43.2847,"lon":5.34975,"is_reserved":false,"is_disabled":false,"rental_uris":{"android":"levelo://app?vid=98349eb9-50f4-4507-88ec-89ca18ad700b","ios":"levelo://app?vid=98349eb9-50f4-4507-88ec-89ca18ad700b"},"vehicle_type_id":"4","last_reported":1751652880,"current_range_meters":10800,"station_id":"","pricing_plan_id":"cebpf4jnsgd1na2vs0mg"},{"bike_id":"0c4b7fdb-b39e-49b3-a2b0-ae3d0f43e89d","system_id":"levelo_inurba_marseille","lat":43.32918,"lon":5.40564,"is_reserved":false,"is_disabled":false,"rental_uris":{"android":"levelo://app?vid=0c4b7fdb-b39e-49b3-a2b0-ae3d0f43e89d","ios":"levelo://app?vid=0c4b7fdb-b39e-49b3-a2b0-ae3d0f43e89d"},"vehicle_type_id":"4","last_reported":1751652880,"current_range_meters":10800,"station_id":"","pricing_plan_id":"cebpf4jnsgd1na2vs0mg"},{"bike_id":"e7ada223-4618-4a47-8988-c55dad6e10b7","system_id":"levelo_inurba_marseille","lat":43.23966,"lon":5.36623,"is_reserved":false,"is_disabled":false,"rental_uris":{"android":"levelo://app?vid=e7ada223-4618-4a47-8988-c55dad6e10b7","ios":"levelo://app?vid=e7ada223-4618-4a47-8988-c55dad6e10b7"},"vehicle_type_id":"4","last_reported":1751652880,"current_range_meters":10800,"station_id":"ce4bhi12rcd13ifvqfp0","pricing_plan_id":"cebpf4jnsgd1na2vs0mg"},{"bike_id":"175513bb-dce2-48e2-83c8-1e9f1cb23cd0","system_id":"levelo_inurba_marseille","lat":43.286255,"lon":5.412651,"is_reserved":false,"is_disabled":false,"rental_uris":{"android":"levelo://app?vid=175513bb-dce2-48e2-83c8-1e9f1cb23cd0","ios":"levelo://app?vid=175513bb-dce2-48e2-83c8-1e9f1cb23cd0"},"vehicle_type_id":"4","last_reported":1751652880,"current_range_meters":11200,"station_id":"","pricing_plan_id":"cebpf4jnsgd1na2vs0mg"},{"bike_id":"81c01867-a78c-44d4-a6fe-9960f72348b0","system_id":"levelo_inurba_marseille","lat":43.29034,"lon":5.359,"is_reserved":false,"is_disabled":false,"rental_uris":{"android":"levelo://app?vid=81c01867-a78c-44d4-a6fe-9960f72348b0","ios":"levelo://app?vid=81c01867-a78c-44d4-a6fe-9960f72348b0"},"vehicle_type_id":"4","last_reported":1751652880,"current_range_meters":11200,"station_id":"ce4bha92rcd13ifvqeg0","pricing_plan_id":"cebpf4jnsgd1na2vs0mg"},{"bike_id":"be171bb5-e5d2-4fe2-ba60-e070a8a69717","system_id":"levelo_inurba_marseille","lat":43.28423,"lon":5.3498,"is_reserved":false,"is_disabled":false,"rental_uris":{"android":"levelo://app?vid=be171bb5-e5d2-4fe2-ba60-e070a8a69717","ios":"levelo://app?vid=be171bb5-e5d2-4fe2-ba60-e070a8a69717"},"vehicle_type_id":"4","last_reported":1751652880,"current_range_meters":11200,"station_id":"ce4bhbh2rcd13ifvqepg","pricing_plan_id":"cebpf4jnsgd1na2vs0mg"},{"bike_id":"ee23c8c9-4b9d-4553-88ca-823f2562232b","system_id":"levelo_inurba_marseille","lat":43.28635,"lon":5.350916,"is_reserved":false,"is_disabled":false,"rental_uris":{"android":"levelo://app?vid=ee23c8c9-4b9d-4553-88ca-823f2562232b","ios":"levelo://app?vid=ee23c8c9-4b9d-4553-88ca-823f2562232b"},"vehicle_type_id":"4","last_reported":1751652880,"current_range_meters":11200,"station_id":"ce4bhch2rcd13ifvqeug","pricing_plan_id":"cebpf4jnsgd1na2vs0mg"},{"bike_id":"f3ae99f2-c5cc-4a29-b634-0cf6f2dbfb3b","system_id":"levelo_inurba_marseille","lat":43.31762,"lon":5.390098,"is_reserved":false,"is_disabled":false,"rental_uris":{"android":"levelo://app?vid=f3ae99f2-c5cc-4a29-b634-0cf6f2dbfb3b","ios":"levelo://app?vid=f3ae99f2-c5cc-4a29-b634-0cf6f2dbfb3b"},"vehicle_type_id":"4","last_reported":1751652880,"current_range_meters":11200,"station_id":"ce4bhqp2rcd13ifvqhng","pricing_plan_id":"cebpf4jnsgd1na2vs0mg"},{"bike_id":"81b8590c-a323-495c-a029-16426126fdcf","system_id":"levelo_inurba_marseille","lat":43.29533,"lon":5.3853,"is_reserved":false,"is_disabled":false,"rental_uris":{"android":"levelo://app?vid=81b8590c-a323-495c-a029-16426126fdcf","ios":"levelo://app?vid=81b8590c-a323-495c-a029-16426126fdcf"},"vehicle_type_id":"4","last_reported":1751652880,"current_range_meters":11600,"station_id":"ce4bgih2rcd13ifvqba0","pricing_plan_id":"cebpf4jnsgd1na2vs0mg"},{"bike_id":"9f364b3f-24a1-4100-8549-0aaf85ad192b","system_id":"levelo_inurba_marseille","lat":43.29768,"lon":5.37095,"is_reserved":false,"is_disabled":false,"rental_uris":{"android":"levelo://app?vid=9f364b3f-24a1-4100-8549-0aaf85ad192b","ios":"levelo://app?vid=9f364b3f-24a1-4100-8549-0aaf85ad192b"},"vehicle_type_id":"4","last_reported":1751652880,"current_range_meters":11600,"station_id":"ce4bgop2rcd13ifvqc1g","pricing_plan_id":"cebpf4jnsgd1na2vs0mg"},{"bike_id":"a75b9711-46eb-4b12-b9a7-057c1852c2a9","system_id":"levelo_inurba_marseille","lat":43.29842,"lon":5.36262,"is_reserved":false,"is_disabled":false,"rental_uris":{"android":"levelo://app?vid=a75b9711-46eb-4b12-b9a7-057c1852c2a9","ios":"levelo://app?vid=a75b9711-46eb-4b12-b9a7-057c1852c2a9"},"vehicle_type_id":"4","last_reported":1751652880,"current_range_meters":11600,"station_id":"ce4bgpp2rcd13ifvqc3g","pricing_plan_id":"cebpf4jnsgd1na2vs0mg"},{"bike_id":"243ed435-6dd8-4418-8108-4a803582120e","system_id":"levelo_inurba_marseille","lat":43.28431,"lon":5.34972,"is_reserved":false,"is_disabled":false,"rental_uris":{"android":"levelo://app?vid=243ed435-6dd8-4418-8108-4a803582120e","ios":"levelo://app?vid=243ed435-6dd8-4418-8108-4a803582120e"},"vehicle_type_id":"4","last_reported":1751652880,"current_range_meters":11600,"station_id":"ce4bhbh2rcd13ifvqepg","pricing_plan_id":"cebpf4jnsgd1na2vs0mg"},{"bike_id":"5e197122-e8ec-4f01-b370-6bbfc10c6950","system_id":"levelo_inurba_marseille","lat":43.21206,"lon":5.35056,"is_reserved":false,"is_disabled":false,"rental_uris":{"android":"levelo://app?vid=5e197122-e8ec-4f01-b370-6bbfc10c6950","ios":"levelo://app?vid=5e197122-e8ec-4f01-b370-6bbfc10c6950"},"vehicle_type_id":"4","last_reported":1751652880,"current_range_meters":11600,"station_id":"st_cvj6sg6p6f1abm77japg","pricing_plan_id":"cebpf4jnsgd1na2vs0mg"},{"bike_id":"43b8b648-960e-46ea-bfad-839bb09cb576","system_id":"levelo_inurba_marseille","lat":43.26214,"lon":5.37041,"is_reserved":false,"is_disabled":false,"rental_uris":{"android":"levelo://app?vid=43b8b648-960e-46ea-bfad-839bb09cb576","ios":"levelo://app?vid=43b8b648-960e-46ea-bfad-839bb09cb576"},"vehicle_type_id":"4","last_reported":1751652880,"current_range_meters":12000,"station_id":"","pricing_plan_id":"cebpf4jnsgd1na2vs0mg"},{"bike_id":"0a50ab1b-7be5-4491-8b4d-5c09617712dc","system_id":"levelo_inurba_marseille","lat":43.27384,"lon":5.3628,"is_reserved":false,"is_disabled":false,"rental_uris":{"android":"levelo://app?vid=0a50ab1b-7be5-4491-8b4d-5c09617712dc","ios":"levelo://app?vid=0a50ab1b-7be5-4491-8b4d-5c09617712dc"},"vehicle_type_id":"4","last_reported":1751652880,"current_range_meters":12000,"station_id":"ce4bhbh2rcd13ifvqeo0","pricing_plan_id":"cebpf4jnsgd1na2vs0mg"},{"bike_id":"454509b7-7a13-4a0b-80cc-06b17298c5d0","system_id":"levelo_inurba_marseille","lat":43.270435,"lon":5.402625,"is_reserved":false,"is_disabled":false,"rental_uris":{"android":"levelo://app?vid=454509b7-7a13-4a0b-80cc-06b17298c5d0","ios":"levelo://app?vid=454509b7-7a13-4a0b-80cc-06b17298c5d0"},"vehicle_type_id":"4","last_reported":1751652880,"current_range_meters":12000,"station_id":"ce4bhk92rcd13ifvqgc0","pricing_plan_id":"cebpf4jnsgd1na2vs0mg"},{"bike_id":"d7d5b776-bcc7-423d-8a89-6abd09a6c07c","system_id":"levelo_inurba_marseille","lat":43.24185,"lon":5.36372,"is_reserved":false,"is_disabled":false,"rental_uris":{"android":"levelo://app?vid=d7d5b776-bcc7-423d-8a89-6abd09a6c07c","ios":"levelo://app?vid=d7d5b776-bcc7-423d-8a89-6abd09a6c07c"},"vehicle_type_id":"4","last_reported":1751652880,"current_range_meters":12000,"station_id":"cpo36qri1sfpv3e86is0","pricing_plan_id":"cebpf4jnsgd1na2vs0mg"},{"bike_id":"055cc3a1-1394-4fc9-bacf-5b4cd3969105","system_id":"levelo_inurba_marseille","lat":43.30308,"lon":5.39206,"is_reserved":false,"is_disabled":false,"rental_uris":{"android":"levelo://app?vid=055cc3a1-1394-4fc9-bacf-5b4cd3969105","ios":"levelo://app?vid=055cc3a1-1394-4fc9-bacf-5b4cd3969105"},"vehicle_type_id":"4","last_reported":1751652880,"current_range_meters":12400,"station_id":"ce4bgkh2rcd13ifvqbk0","pricing_plan_id":"cebpf4jnsgd1na2vs0mg"},{"bike_id":"56540b95-2124-44e0-be69-7bf6656ca345","system_id":"levelo_inurba_marseille","lat":43.29722,"lon":5.36595,"is_reserved":false,"is_disabled":false,"rental_uris":{"android":"levelo://app?vid=56540b95-2124-44e0-be69-7bf6656ca345","ios":"levelo://app?vid=56540b95-2124-44e0-be69-7bf6656ca345"},"vehicle_type_id":"4","last_reported":1751652880,"current_range_meters":12400,"station_id":"ce4bgn12rcd13ifvqbt0","pricing_plan_id":"cebpf4jnsgd1na2vs0mg"},{"bike_id":"c74b79bd-0356-4805-8fc7-e42d3c51fa84","system_id":"levelo_inurba_marseille","lat":43.29306,"lon":5.374575,"is_reserved":false,"is_disabled":false,"rental_uris":{"android":"levelo://app?vid=c74b79bd-0356-4805-8fc7-e42d3c51fa84","ios":"levelo://app?vid=c74b79bd-0356-4805-8fc7-e42d3c51fa84"},"vehicle_type_id":"4","last_reported":1751652880,"current_range_meters":12400,"station_id":"ce4bh512rcd13ifvqe2g","pricing_plan_id":"cebpf4jnsgd1na2vs0mg"},{"bike_id":"114b6d2d-ddad-4a9e-a225-0a8892da99b6","system_id":"levelo_inurba_marseille","lat":43.23997,"lon":5.36586,"is_reserved":false,"is_disabled":false,"rental_uris":{"android":"levelo://app?vid=114b6d2d-ddad-4a9e-a225-0a8892da99b6","ios":"levelo://app?vid=114b6d2d-ddad-4a9e-a225-0a8892da99b6"},"vehicle_type_id":"4","last_reported":1751652880,"current_range_meters":12400,"station_id":"ce4bhi12rcd13ifvqfp0","pricing_plan_id":"cebpf4jnsgd1na2vs0mg"},{"bike_id":"fdbca52a-0d1e-48bb-bae1-18dce5ce8efc","system_id":"levelo_inurba_marseille","lat":43.28443,"lon":5.34986,"is_reserved":false,"is_disabled":false,"rental_uris":{"android":"levelo://app?vid=fdbca52a-0d1e-48bb-bae1-18dce5ce8efc","ios":"levelo://app?vid=fdbca52a-0d1e-48bb-bae1-18dce5ce8efc"},"vehicle_type_id":"4","last_reported":1751652880,"current_range_meters":12800,"station_id":"ce4bhbh2rcd13ifvqepg","pricing_plan_id":"cebpf4jnsgd1na2vs0mg"},{"bike_id":"22888734-05db-4b2c-9ebf-e2f83575acc2","system_id":"levelo_inurba_marseille","lat":43.28422,"lon":5.34984,"is_reserved":false,"is_disabled":false,"rental_uris":{"android":"levelo://app?vid=22888734-05db-4b2c-9ebf-e2f83575acc2","ios":"levelo://app?vid=22888734-05db-4b2c-9ebf-e2f83575acc2"},"vehicle_type_id":"4","last_reported":1751652880,"current_range_meters":12800,"station_id":"ce4bhbh2rcd13ifvqepg","pricing_plan_id":"cebpf4jnsgd1na2vs0mg"},{"bike_id":"bf3d6f1f-bd58-495e-9496-07ed886eb058","system_id":"levelo_inurba_marseille","lat":43.28426,"lon":5.3497,"is_reserved":false,"is_disabled":false,"rental_uris":{"android":"levelo://app?vid=bf3d6f1f-bd58-495e-9496-07ed886eb058","ios":"levelo://app?vid=bf3d6f1f-bd58-495e-9496-07ed886eb058"},"vehicle_type_id":"4","last_reported":1751652880,"current_range_meters":12800,"station_id":"ce4bhbh2rcd13ifvqepg","pricing_plan_id":"cebpf4jnsgd1na2vs0mg"},{"bike_id":"97451418-fa7e-44c5-960d-97a58e8b41b0","system_id":"levelo_inurba_marseille","lat":43.260275,"lon":5.375507,"is_reserved":false,"is_disabled":false,"rental_uris":{"android":"levelo://app?vid=97451418-fa7e-44c5-960d-97a58e8b41b0","ios":"levelo://app?vid=97451418-fa7e-44c5-960d-97a58e8b41b0"},"vehicle_type_id":"4","last_reported":1751652880,"current_range_meters":12800,"station_id":"ce4bhgh2rcd13ifvqfb0","pricing_plan_id":"cebpf4jnsgd1na2vs0mg"},{"bike_id":"1c8ab180-05fd-405f-9922-b2b2c2d5142f","system_id":"levelo_inurba_marseille","lat":43.33798,"lon":5.38134,"is_reserved":false,"is_disabled":false,"rental_uris":{"android":"levelo://app?vid=1c8ab180-05fd-405f-9922-b2b2c2d5142f","ios":"levelo://app?vid=1c8ab180-05fd-405f-9922-b2b2c2d5142f"},"vehicle_type_id":"4","last_reported":1751652880,"current_range_meters":13600,"station_id":"","pricing_plan_id":"cebpf4jnsgd1na2vs0mg"},{"bike_id":"fe1d704a-59ca-40d3-ac06-f42d64518dd6","system_id":"levelo_inurba_marseille","lat":43.3042,"lon":5.38879,"is_reserved":false,"is_disabled":false,"rental_uris":{"android":"levelo://app?vid=fe1d704a-59ca-40d3-ac06-f42d64518dd6","ios":"levelo://app?vid=fe1d704a-59ca-40d3-ac06-f42d64518dd6"},"vehicle_type_id":"4","last_reported":1751652880,"current_range_meters":13600,"station_id":"ce4bgk12rcd13ifvqbi0","pricing_plan_id":"cebpf4jnsgd1na2vs0mg"},{"bike_id":"013560d6-9cca-4e14-b07b-4060d8051d10","system_id":"levelo_inurba_marseille","lat":43.2738,"lon":5.3625,"is_reserved":false,"is_disabled":false,"rental_uris":{"android":"levelo://app?vid=013560d6-9cca-4e14-b07b-4060d8051d10","ios":"levelo://app?vid=013560d6-9cca-4e14-b07b-4060d8051d10"},"vehicle_type_id":"4","last_reported":1751652880,"current_range_meters":13600,"station_id":"ce4bhbh2rcd13ifvqeo0","pricing_plan_id":"cebpf4jnsgd1na2vs0mg"},{"bike_id":"8f044fb9-1c17-401a-bcc8-e9071c3129a0","system_id":"levelo_inurba_marseille","lat":43.31087,"lon":5.42426,"is_reserved":false,"is_disabled":false,"rental_uris":{"android":"levelo://app?vid=8f044fb9-1c17-401a-bcc8-e9071c3129a0","ios":"levelo://app?vid=8f044fb9-1c17-401a-bcc8-e9071c3129a0"},"vehicle_type_id":"4","last_reported":1751652880,"current_range_meters":13600,"station_id":"ce4bhp92rcd13ifvqhag","pricing_plan_id":"cebpf4jnsgd1na2vs0mg"},{"bike_id":"bf16840f-2e0f-47eb-8d30-3dc4199df254","system_id":"levelo_inurba_marseille","lat":43.31752,"lon":5.38997,"is_reserved":false,"is_disabled":false,"rental_uris":{"android":"levelo://app?vid=bf16840f-2e0f-47eb-8d30-3dc4199df254","ios":"levelo://app?vid=bf16840f-2e0f-47eb-8d30-3dc4199df254"},"vehicle_type_id":"4","last_reported":1751652880,"current_range_meters":13600,"station_id":"ce4bhqp2rcd13ifvqhng","pricing_plan_id":"cebpf4jnsgd1na2vs0mg"},{"bike_id":"b26fae72-751e-4090-a9c4-76ff5de1ad66","system_id":"levelo_inurba_marseille","lat":43.3326,"lon":5.38038,"is_reserved":false,"is_disabled":false,"rental_uris":{"android":"levelo://app?vid=b26fae72-751e-4090-a9c4-76ff5de1ad66","ios":"levelo://app?vid=b26fae72-751e-4090-a9c4-76ff5de1ad66"},"vehicle_type_id":"4","last_reported":1751652880,"current_range_meters":14000,"station_id":"","pricing_plan_id":"cebpf4jnsgd1na2vs0mg"},{"bike_id":"9b12daa6-2844-4075-83db-6f84c0be54c8","system_id":"levelo_inurba_marseille","lat":43.31711,"lon":5.37738,"is_reserved":false,"is_disabled":false,"rental_uris":{"android":"levelo://app?vid=9b12daa6-2844-4075-83db-6f84c0be54c8","ios":"levelo://app?vid=9b12daa6-2844-4075-83db-6f84c0be54c8"},"vehicle_type_id":"4","last_reported":1751652880,"current_range_meters":14000,"station_id":"ce4bgth2rcd13ifvqch0","pricing_plan_id":"cebpf4jnsgd1na2vs0mg"},{"bike_id":"0ced684f-4467-4ff6-8bbe-ec4c3c687f44","system_id":"levelo_inurba_marseille","lat":43.28423,"lon":5.34971,"is_reserved":false,"is_disabled":false,"rental_uris":{"android":"levelo://app?vid=0ced684f-4467-4ff6-8bbe-ec4c3c687f44","ios":"levelo://app?vid=0ced684f-4467-4ff6-8bbe-ec4c3c687f44"},"vehicle_type_id":"4","last_reported":1751652880,"current_range_meters":14000,"station_id":"ce4bhbh2rcd13ifvqepg","pricing_plan_id":"cebpf4jnsgd1na2vs0mg"},{"bike_id":"79486ede-106b-4ebb-b51d-ec8ca1622a25","system_id":"levelo_inurba_marseille","lat":43.286007,"lon":5.35099,"is_reserved":false,"is_disabled":false,"rental_uris":{"android":"levelo://app?vid=79486ede-106b-4ebb-b51d-ec8ca1622a25","ios":"levelo://app?vid=79486ede-106b-4ebb-b51d-ec8ca1622a25"},"vehicle_type_id":"4","last_reported":1751652880,"current_range_meters":14000,"station_id":"ce4bhch2rcd13ifvqeug","pricing_plan_id":"cebpf4jnsgd1na2vs0mg"},{"bike_id":"e8b199ed-744c-47f9-ad68-7c59de5be47d","system_id":"levelo_inurba_marseille","lat":43.28618,"lon":5.35107,"is_reserved":false,"is_disabled":false,"rental_uris":{"android":"levelo://app?vid=e8b199ed-744c-47f9-ad68-7c59de5be47d","ios":"levelo://app?vid=e8b199ed-744c-47f9-ad68-7c59de5be47d"},"vehicle_type_id":"4","last_reported":1751652880,"current_range_meters":14000,"station_id":"ce4bhch2rcd13ifvqeug","pricing_plan_id":"cebpf4jnsgd1na2vs0mg"},{"bike_id":"e5e4f351-d296-489c-a3a0-f0b678a75ec4","system_id":"levelo_inurba_marseille","lat":43.2871,"lon":5.39989,"is_reserved":false,"is_disabled":false,"rental_uris":{"android":"levelo://app?vid=e5e4f351-d296-489c-a3a0-f0b678a75ec4","ios":"levelo://app?vid=e5e4f351-d296-489c-a3a0-f0b678a75ec4"},"vehicle_type_id":"4","last_reported":1751652880,"current_range_meters":14000,"station_id":"ce4bho92rcd13ifvqh3g","pricing_plan_id":"cebpf4jnsgd1na2vs0mg"},{"bike_id":"4fba6857-67de-4aa5-83a0-b9971702dd01","system_id":"levelo_inurba_marseille","lat":43.2119,"lon":5.35071,"is_reserved":false,"is_disabled":false,"rental_uris":{"android":"levelo://app?vid=4fba6857-67de-4aa5-83a0-b9971702dd01","ios":"levelo://app?vid=4fba6857-67de-4aa5-83a0-b9971702dd01"},"vehicle_type_id":"4","last_reported":1751652880,"current_range_meters":14000,"station_id":"st_cvj6sg6p6f1abm77japg","pricing_plan_id":"cebpf4jnsgd1na2vs0mg"},{"bike_id":"ab21373d-53df-4097-9cc7-f168ca60d2c5","system_id":"levelo_inurba_marseille","lat":43.305969,"lon":5.393662,"is_reserved":false,"is_disabled":false,"rental_uris":{"android":"levelo://app?vid=ab21373d-53df-4097-9cc7-f168ca60d2c5","ios":"levelo://app?vid=ab21373d-53df-4097-9cc7-f168ca60d2c5"},"vehicle_type_id":"4","last_reported":1751652880,"current_range_meters":14800,"station_id":"ce4bh0p2rcd13ifvqd80","pricing_plan_id":"cebpf4jnsgd1na2vs0mg"},{"bike_id":"282f46f6-58bd-4bef-8b1a-429186abaf07","system_id":"levelo_inurba_marseille","lat":43.28617,"lon":5.35101,"is_reserved":false,"is_disabled":false,"rental_uris":{"android":"levelo://app?vid=282f46f6-58bd-4bef-8b1a-429186abaf07","ios":"levelo://app?vid=282f46f6-58bd-4bef-8b1a-429186abaf07"},"vehicle_type_id":"4","last_reported":1751652880,"current_range_meters":14800,"station_id":"ce4bhch2rcd13ifvqeug","pricing_plan_id":"cebpf4jnsgd1na2vs0mg"},{"bike_id":"b536f536-ec32-4a7c-ac9d-d67e093d3379","system_id":"levelo_inurba_marseille","lat":43.28624,"lon":5.35118,"is_reserved":false,"is_disabled":false,"rental_uris":{"android":"levelo://app?vid=b536f536-ec32-4a7c-ac9d-d67e093d3379","ios":"levelo://app?vid=b536f536-ec32-4a7c-ac9d-d67e093d3379"},"vehicle_type_id":"4","last_reported":1751652880,"current_range_meters":14800,"station_id":"ce4bhch2rcd13ifvqeug","pricing_plan_id":"cebpf4jnsgd1na2vs0mg"},{"bike_id":"f62ca18a-bcd1-4bc9-bd56-fe0d779eff1d","system_id":"levelo_inurba_marseille","lat":43.26209,"lon":5.37439,"is_reserved":false,"is_disabled":false,"rental_uris":{"android":"levelo://app?vid=f62ca18a-bcd1-4bc9-bd56-fe0d779eff1d","ios":"levelo://app?vid=f62ca18a-bcd1-4bc9-bd56-fe0d779eff1d"},"vehicle_type_id":"4","last_reported":1751652880,"current_range_meters":14800,"station_id":"ce4bhgp2rcd13ifvqfc0","pricing_plan_id":"cebpf4jnsgd1na2vs0mg"},{"bike_id":"cc72da9f-a7df-4668-b0f5-e2a157b0f7c1","system_id":"levelo_inurba_marseille","lat":43.23199,"lon":5.35549,"is_reserved":false,"is_disabled":false,"rental_uris":{"android":"levelo://app?vid=cc72da9f-a7df-4668-b0f5-e2a157b0f7c1","ios":"levelo://app?vid=cc72da9f-a7df-4668-b0f5-e2a157b0f7c1"},"vehicle_type_id":"4","last_reported":1751652880,"current_range_meters":14800,"station_id":"ce4bhu92rcd13ifvqi70","pricing_plan_id":"cebpf4jnsgd1na2vs0mg"},{"bike_id":"3f22c2fa-3fb4-433f-bc98-0f83d287a49c","system_id":"levelo_inurba_marseille","lat":43.3095,"lon":5.39027,"is_reserved":false,"is_disabled":false,"rental_uris":{"android":"levelo://app?vid=3f22c2fa-3fb4-433f-bc98-0f83d287a49c","ios":"levelo://app?vid=3f22c2fa-3fb4-433f-bc98-0f83d287a49c"},"vehicle_type_id":"4","last_reported":1751652880,"current_range_meters":15200,"station_id":"ce4bgup2rcd13ifvqco0","pricing_plan_id":"cebpf4jnsgd1na2vs0mg"},{"bike_id":"db52230f-6fcb-482d-a3e9-1307a6442b59","system_id":"levelo_inurba_marseille","lat":43.27365,"lon":5.36237,"is_reserved":false,"is_disabled":false,"rental_uris":{"android":"levelo://app?vid=db52230f-6fcb-482d-a3e9-1307a6442b59","ios":"levelo://app?vid=db52230f-6fcb-482d-a3e9-1307a6442b59"},"vehicle_type_id":"4","last_reported":1751652880,"current_range_meters":15200,"station_id":"ce4bhbh2rcd13ifvqeo0","pricing_plan_id":"cebpf4jnsgd1na2vs0mg"},{"bike_id":"38ecca3f-18eb-4a45-b9d5-c26afbfc2aa1","system_id":"levelo_inurba_marseille","lat":43.27375,"lon":5.36253,"is_reserved":false,"is_disabled":false,"rental_uris":{"android":"levelo://app?vid=38ecca3f-18eb-4a45-b9d5-c26afbfc2aa1","ios":"levelo://app?vid=38ecca3f-18eb-4a45-b9d5-c26afbfc2aa1"},"vehicle_type_id":"4","last_reported":1751652880,"current_range_meters":15200,"station_id":"ce4bhbh2rcd13ifvqeo0","pricing_plan_id":"cebpf4jnsgd1na2vs0mg"},{"bike_id":"9fefc881-cb44-4f8a-be0a-2f1b51b3fa55","system_id":"levelo_inurba_marseille","lat":43.28416,"lon":5.34989,"is_reserved":false,"is_disabled":false,"rental_uris":{"android":"levelo://app?vid=9fefc881-cb44-4f8a-be0a-2f1b51b3fa55","ios":"levelo://app?vid=9fefc881-cb44-4f8a-be0a-2f1b51b3fa55"},"vehicle_type_id":"4","last_reported":1751652880,"current_range_meters":15200,"station_id":"ce4bhbh2rcd13ifvqepg","pricing_plan_id":"cebpf4jnsgd1na2vs0mg"},{"bike_id":"fd9e11cf-6806-41ff-bce2-0dd66386883d","system_id":"levelo_inurba_marseille","lat":43.28431,"lon":5.34979,"is_reserved":false,"is_disabled":false,"rental_uris":{"android":"levelo://app?vid=fd9e11cf-6806-41ff-bce2-0dd66386883d","ios":"levelo://app?vid=fd9e11cf-6806-41ff-bce2-0dd66386883d"},"vehicle_type_id":"4","last_reported":1751652880,"current_range_meters":15200,"station_id":"ce4bhbh2rcd13ifvqepg","pricing_plan_id":"cebpf4jnsgd1na2vs0mg"},{"bike_id":"cc691ccb-edf3-4792-a217-f69116462577","system_id":"levelo_inurba_marseille","lat":43.26039,"lon":5.37545,"is_reserved":false,"is_disabled":false,"rental_uris":{"android":"levelo://app?vid=cc691ccb-edf3-4792-a217-f69116462577","ios":"levelo://app?vid=cc691ccb-edf3-4792-a217-f69116462577"},"vehicle_type_id":"4","last_reported":1751652880,"current_range_meters":15200,"station_id":"ce4bhgh2rcd13ifvqfa0","pricing_plan_id":"cebpf4jnsgd1na2vs0mg"},{"bike_id":"4b8da722-ee9e-48a4-a5e5-3a8a10364708","system_id":"levelo_inurba_marseille","lat":43.312322,"lon":5.378174,"is_reserved":false,"is_disabled":false,"rental_uris":{"android":"levelo://app?vid=4b8da722-ee9e-48a4-a5e5-3a8a10364708","ios":"levelo://app?vid=4b8da722-ee9e-48a4-a5e5-3a8a10364708"},"vehicle_type_id":"4","last_reported":1751652880,"current_range_meters":16000,"station_id":"","pricing_plan_id":"cebpf4jnsgd1na2vs0mg"},{"bike_id":"3ccba8d6-82da-4180-b5cd-b6e64d0a00c9","system_id":"levelo_inurba_marseille","lat":43.28427,"lon":5.34982,"is_reserved":false,"is_disabled":false,"rental_uris":{"android":"levelo://app?vid=3ccba8d6-82da-4180-b5cd-b6e64d0a00c9","ios":"levelo://app?vid=3ccba8d6-82da-4180-b5cd-b6e64d0a00c9"},"vehicle_type_id":"4","last_reported":1751652880,"current_range_meters":16000,"station_id":"ce4bhbh2rcd13ifvqepg","pricing_plan_id":"cebpf4jnsgd1na2vs0mg"},{"bike_id":"c8c6862d-b574-4e5d-b151-9c659790f63b","system_id":"levelo_inurba_marseille","lat":43.22509,"lon":5.34785,"is_reserved":false,"is_disabled":false,"rental_uris":{"android":"levelo://app?vid=c8c6862d-b574-4e5d-b151-9c659790f63b","ios":"levelo://app?vid=c8c6862d-b574-4e5d-b151-9c659790f63b"},"vehicle_type_id":"4","last_reported":1751652880,"current_range_meters":16000,"station_id":"st_cvj5dfep6f1abm77gieg","pricing_plan_id":"cebpf4jnsgd1na2vs0mg"},{"bike_id":"4db45513-e520-4598-82fa-5809d80d4f3d","system_id":"levelo_inurba_marseille","lat":43.28099,"lon":5.35482,"is_reserved":false,"is_disabled":false,"rental_uris":{"android":"levelo://app?vid=4db45513-e520-4598-82fa-5809d80d4f3d","ios":"levelo://app?vid=4db45513-e520-4598-82fa-5809d80d4f3d"},"vehicle_type_id":"4","last_reported":1751652880,"current_range_meters":16400,"station_id":"","pricing_plan_id":"cebpf4jnsgd1na2vs0mg"},{"bike_id":"da3ee6d0-70f4-43f2-b127-534c5db4299c","system_id":"levelo_inurba_marseille","lat":43.28406,"lon":5.37516,"is_reserved":false,"is_disabled":false,"rental_uris":{"android":"levelo://app?vid=da3ee6d0-70f4-43f2-b127-534c5db4299c","ios":"levelo://app?vid=da3ee6d0-70f4-43f2-b127-534c5db4299c"},"vehicle_type_id":"4","last_reported":1751652880,"current_range_meters":16400,"station_id":"ce4bh412rcd13ifvqds0","pricing_plan_id":"cebpf4jnsgd1na2vs0mg"},{"bike_id":"37eb3356-e3b4-49c6-be55-c91872eba49e","system_id":"levelo_inurba_marseille","lat":43.283996,"lon":5.349813,"is_reserved":false,"is_disabled":false,"rental_uris":{"android":"levelo://app?vid=37eb3356-e3b4-49c6-be55-c91872eba49e","ios":"levelo://app?vid=37eb3356-e3b4-49c6-be55-c91872eba49e"},"vehicle_type_id":"4","last_reported":1751652880,"current_range_meters":16400,"station_id":"ce4bhbh2rcd13ifvqepg","pricing_plan_id":"cebpf4jnsgd1na2vs0mg"},{"bike_id":"9d194be5-0bdc-4b19-beb0-09846d34d147","system_id":"levelo_inurba_marseille","lat":43.28422,"lon":5.34998,"is_reserved":false,"is_disabled":false,"rental_uris":{"android":"levelo://app?vid=9d194be5-0bdc-4b19-beb0-09846d34d147","ios":"levelo://app?vid=9d194be5-0bdc-4b19-beb0-09846d34d147"},"vehicle_type_id":"4","last_reported":1751652880,"current_range_meters":16400,"station_id":"ce4bhbh2rcd13ifvqepg","pricing_plan_id":"cebpf4jnsgd1na2vs0mg"},{"bike_id":"19b47b31-fbac-48d7-98cc-4cd13d43645d","system_id":"levelo_inurba_marseille","lat":43.26211,"lon":5.37439,"is_reserved":false,"is_disabled":false,"rental_uris":{"android":"levelo://app?vid=19b47b31-fbac-48d7-98cc-4cd13d43645d","ios":"levelo://app?vid=19b47b31-fbac-48d7-98cc-4cd13d43645d"},"vehicle_type_id":"4","last_reported":1751652880,"current_range_meters":16400,"station_id":"ce4bhgp2rcd13ifvqfc0","pricing_plan_id":"cebpf4jnsgd1na2vs0mg"},{"bike_id":"f1753d26-8935-4f4b-9e83-1a8f6f412606","system_id":"levelo_inurba_marseille","lat":43.24667,"lon":5.38148,"is_reserved":false,"is_disabled":false,"rental_uris":{"android":"levelo://app?vid=f1753d26-8935-4f4b-9e83-1a8f6f412606","ios":"levelo://app?vid=f1753d26-8935-4f4b-9e83-1a8f6f412606"},"vehicle_type_id":"4","last_reported":1751652880,"current_range_meters":16400,"station_id":"ce4bhih2rcd13ifvqfr0","pricing_plan_id":"cebpf4jnsgd1na2vs0mg"},{"bike_id":"1e6a7dc6-636f-4e6d-b27f-ff1fb66d2dd7","system_id":"levelo_inurba_marseille","lat":43.3237,"lon":5.38879,"is_reserved":false,"is_disabled":false,"rental_uris":{"android":"levelo://app?vid=1e6a7dc6-636f-4e6d-b27f-ff1fb66d2dd7","ios":"levelo://app?vid=1e6a7dc6-636f-4e6d-b27f-ff1fb66d2dd7"},"vehicle_type_id":"4","last_reported":1751652880,"current_range_meters":16400,"station_id":"ce4bhqp2rcd13ifvqhog","pricing_plan_id":"cebpf4jnsgd1na2vs0mg"},{"bike_id":"3847022a-5187-4521-af78-80f88fe96595","system_id":"levelo_inurba_marseille","lat":43.21192,"lon":5.35064,"is_reserved":false,"is_disabled":false,"rental_uris":{"android":"levelo://app?vid=3847022a-5187-4521-af78-80f88fe96595","ios":"levelo://app?vid=3847022a-5187-4521-af78-80f88fe96595"},"vehicle_type_id":"4","last_reported":1751652880,"current_range_meters":16400,"station_id":"st_cvj6sg6p6f1abm77japg","pricing_plan_id":"cebpf4jnsgd1na2vs0mg"},{"bike_id":"a70e5335-fb5d-4e50-af2f-e7fb4ef6c838","system_id":"levelo_inurba_marseille","lat":43.28405,"lon":5.34977,"is_reserved":false,"is_disabled":false,"rental_uris":{"android":"levelo://app?vid=a70e5335-fb5d-4e50-af2f-e7fb4ef6c838","ios":"levelo://app?vid=a70e5335-fb5d-4e50-af2f-e7fb4ef6c838"},"vehicle_type_id":"4","last_reported":1751652880,"current_range_meters":16800,"station_id":"ce4bhbh2rcd13ifvqepg","pricing_plan_id":"cebpf4jnsgd1na2vs0mg"},{"bike_id":"c5401d1a-3211-425d-8900-7e256f6118b6","system_id":"levelo_inurba_marseille","lat":43.28622,"lon":5.35103,"is_reserved":false,"is_disabled":false,"rental_uris":{"android":"levelo://app?vid=c5401d1a-3211-425d-8900-7e256f6118b6","ios":"levelo://app?vid=c5401d1a-3211-425d-8900-7e256f6118b6"},"vehicle_type_id":"4","last_reported":1751652880,"current_range_meters":16800,"station_id":"ce4bhch2rcd13ifvqeug","pricing_plan_id":"cebpf4jnsgd1na2vs0mg"},{"bike_id":"eceb5fb2-cdc8-4aee-8087-441329723f4b","system_id":"levelo_inurba_marseille","lat":43.317616,"lon":5.390054,"is_reserved":false,"is_disabled":false,"rental_uris":{"android":"levelo://app?vid=eceb5fb2-cdc8-4aee-8087-441329723f4b","ios":"levelo://app?vid=eceb5fb2-cdc8-4aee-8087-441329723f4b"},"vehicle_type_id":"4","last_reported":1751652880,"current_range_meters":16800,"station_id":"ce4bhqp2rcd13ifvqhng","pricing_plan_id":"cebpf4jnsgd1na2vs0mg"},{"bike_id":"ef26d274-58a7-40bc-9cf0-6287718684d4","system_id":"levelo_inurba_marseille","lat":43.30733,"lon":5.4245,"is_reserved":false,"is_disabled":false,"rental_uris":{"android":"levelo://app?vid=ef26d274-58a7-40bc-9cf0-6287718684d4","ios":"levelo://app?vid=ef26d274-58a7-40bc-9cf0-6287718684d4"},"vehicle_type_id":"4","last_reported":1751652880,"current_range_meters":16800,"station_id":"st_cvj6ca6bvosntc0bfgr0","pricing_plan_id":"cebpf4jnsgd1na2vs0mg"},{"bike_id":"19e6cb9d-e8e9-4483-a7c0-26fd504096df","system_id":"levelo_inurba_marseille","lat":43.30297,"lon":5.39214,"is_reserved":false,"is_disabled":false,"rental_uris":{"android":"levelo://app?vid=19e6cb9d-e8e9-4483-a7c0-26fd504096df","ios":"levelo://app?vid=19e6cb9d-e8e9-4483-a7c0-26fd504096df"},"vehicle_type_id":"4","last_reported":1751652880,"current_range_meters":17200,"station_id":"ce4bgkh2rcd13ifvqbk0","pricing_plan_id":"cebpf4jnsgd1na2vs0mg"},{"bike_id":"552bcf28-72f1-4f10-b8f6-f0512fe0cc4b","system_id":"levelo_inurba_marseille","lat":43.27372,"lon":5.3626,"is_reserved":false,"is_disabled":false,"rental_uris":{"android":"levelo://app?vid=552bcf28-72f1-4f10-b8f6-f0512fe0cc4b","ios":"levelo://app?vid=552bcf28-72f1-4f10-b8f6-f0512fe0cc4b"},"vehicle_type_id":"4","last_reported":1751652880,"current_range_meters":17200,"station_id":"ce4bhbh2rcd13ifvqeo0","pricing_plan_id":"cebpf4jnsgd1na2vs0mg"},{"bike_id":"c5d6dc3a-23ef-46b6-9eee-f194aa0995c7","system_id":"levelo_inurba_marseille","lat":43.26205,"lon":5.37437,"is_reserved":false,"is_disabled":false,"rental_uris":{"android":"levelo://app?vid=c5d6dc3a-23ef-46b6-9eee-f194aa0995c7","ios":"levelo://app?vid=c5d6dc3a-23ef-46b6-9eee-f194aa0995c7"},"vehicle_type_id":"4","last_reported":1751652880,"current_range_meters":17200,"station_id":"ce4bhgp2rcd13ifvqfc0","pricing_plan_id":"cebpf4jnsgd1na2vs0mg"},{"bike_id":"29b19e99-4845-4ee3-b1ee-35721cd36dc7","system_id":"levelo_inurba_marseille","lat":43.23196,"lon":5.35547,"is_reserved":false,"is_disabled":false,"rental_uris":{"android":"levelo://app?vid=29b19e99-4845-4ee3-b1ee-35721cd36dc7","ios":"levelo://app?vid=29b19e99-4845-4ee3-b1ee-35721cd36dc7"},"vehicle_type_id":"4","last_reported":1751652880,"current_range_meters":17200,"station_id":"ce4bhu92rcd13ifvqi70","pricing_plan_id":"cebpf4jnsgd1na2vs0mg"},{"bike_id":"5f470112-8139-4343-b082-08a74e0b7074","system_id":"levelo_inurba_marseille","lat":43.21207,"lon":5.35055,"is_reserved":false,"is_disabled":false,"rental_uris":{"android":"levelo://app?vid=5f470112-8139-4343-b082-08a74e0b7074","ios":"levelo://app?vid=5f470112-8139-4343-b082-08a74e0b7074"},"vehicle_type_id":"4","last_reported":1751652880,"current_range_meters":17200,"station_id":"st_cvj6sg6p6f1abm77japg","pricing_plan_id":"cebpf4jnsgd1na2vs0mg"},{"bike_id":"9a79c6aa-a253-42f2-8745-06947372e038","system_id":"levelo_inurba_marseille","lat":43.21192,"lon":5.35068,"is_reserved":false,"is_disabled":false,"rental_uris":{"android":"levelo://app?vid=9a79c6aa-a253-42f2-8745-06947372e038","ios":"levelo://app?vid=9a79c6aa-a253-42f2-8745-06947372e038"},"vehicle_type_id":"4","last_reported":1751652880,"current_range_meters":17200,"station_id":"st_cvj6sg6p6f1abm77japg","pricing_plan_id":"cebpf4jnsgd1na2vs0mg"},{"bike_id":"b1d40197-e49c-4962-8cd8-0babe05d31a6","system_id":"levelo_inurba_marseille","lat":43.21266,"lon":5.352667,"is_reserved":false,"is_disabled":false,"rental_uris":{"android":"levelo://app?vid=b1d40197-e49c-4962-8cd8-0babe05d31a6","ios":"levelo://app?vid=b1d40197-e49c-4962-8cd8-0babe05d31a6"},"vehicle_type_id":"4","last_reported":1751652880,"current_range_meters":17600,"station_id":"","pricing_plan_id":"cebpf4jnsgd1na2vs0mg"},{"bike_id":"25d65b54-2483-49ad-9e8c-b4102ded682f","system_id":"levelo_inurba_marseille","lat":43.21224,"lon":5.35037,"is_reserved":false,"is_disabled":false,"rental_uris":{"android":"levelo://app?vid=25d65b54-2483-49ad-9e8c-b4102ded682f","ios":"levelo://app?vid=25d65b54-2483-49ad-9e8c-b4102ded682f"},"vehicle_type_id":"4","last_reported":1751652880,"current_range_meters":17600,"station_id":"","pricing_plan_id":"cebpf4jnsgd1na2vs0mg"},{"bike_id":"53602b69-ee4a-4630-a2e0-32cf0a3f4e2c","system_id":"levelo_inurba_marseille","lat":43.29795,"lon":5.38108,"is_reserved":false,"is_disabled":false,"rental_uris":{"android":"levelo://app?vid=53602b69-ee4a-4630-a2e0-32cf0a3f4e2c","ios":"levelo://app?vid=53602b69-ee4a-4630-a2e0-32cf0a3f4e2c"},"vehicle_type_id":"4","last_reported":1751652880,"current_range_meters":17600,"station_id":"ce4bgip2rcd13ifvqbb0","pricing_plan_id":"cebpf4jnsgd1na2vs0mg"},{"bike_id":"2854dd40-d13f-4e65-9bd2-af61215ac4fc","system_id":"levelo_inurba_marseille","lat":43.30602,"lon":5.39352,"is_reserved":false,"is_disabled":false,"rental_uris":{"android":"levelo://app?vid=2854dd40-d13f-4e65-9bd2-af61215ac4fc","ios":"levelo://app?vid=2854dd40-d13f-4e65-9bd2-af61215ac4fc"},"vehicle_type_id":"4","last_reported":1751652880,"current_range_meters":17600,"station_id":"ce4bh0p2rcd13ifvqd80","pricing_plan_id":"cebpf4jnsgd1na2vs0mg"},{"bike_id":"c079e397-3750-4856-ad55-44bf6cfaf2df","system_id":"levelo_inurba_marseille","lat":43.28407,"lon":5.34988,"is_reserved":false,"is_disabled":false,"rental_uris":{"android":"levelo://app?vid=c079e397-3750-4856-ad55-44bf6cfaf2df","ios":"levelo://app?vid=c079e397-3750-4856-ad55-44bf6cfaf2df"},"vehicle_type_id":"4","last_reported":1751652880,"current_range_meters":17600,"station_id":"ce4bhbh2rcd13ifvqepg","pricing_plan_id":"cebpf4jnsgd1na2vs0mg"},{"bike_id":"7ee7ea3c-352e-4d6b-8b7a-5770a56f0e07","system_id":"levelo_inurba_marseille","lat":43.28414,"lon":5.34982,"is_reserved":false,"is_disabled":false,"rental_uris":{"android":"levelo://app?vid=7ee7ea3c-352e-4d6b-8b7a-5770a56f0e07","ios":"levelo://app?vid=7ee7ea3c-352e-4d6b-8b7a-5770a56f0e07"},"vehicle_type_id":"4","last_reported":1751652880,"current_range_meters":17600,"station_id":"ce4bhbh2rcd13ifvqepg","pricing_plan_id":"cebpf4jnsgd1na2vs0mg"},{"bike_id":"113458e2-c8a8-4c77-978b-c78d100084f9","system_id":"levelo_inurba_marseille","lat":43.28264,"lon":5.35076,"is_reserved":false,"is_disabled":false,"rental_uris":{"android":"levelo://app?vid=113458e2-c8a8-4c77-978b-c78d100084f9","ios":"levelo://app?vid=113458e2-c8a8-4c77-978b-c78d100084f9"},"vehicle_type_id":"4","last_reported":1751652880,"current_range_meters":17600,"station_id":"ce4bhbp2rcd13ifvqerg","pricing_plan_id":"cebpf4jnsgd1na2vs0mg"},{"bike_id":"b67e3de7-3a98-48a8-ada1-6072073e6e54","system_id":"levelo_inurba_marseille","lat":43.24556,"lon":5.37356,"is_reserved":false,"is_disabled":false,"rental_uris":{"android":"levelo://app?vid=b67e3de7-3a98-48a8-ada1-6072073e6e54","ios":"levelo://app?vid=b67e3de7-3a98-48a8-ada1-6072073e6e54"},"vehicle_type_id":"4","last_reported":1751652880,"current_range_meters":18000,"station_id":"","pricing_plan_id":"cebpf4jnsgd1na2vs0mg"},{"bike_id":"29ade5b3-0c24-42d4-87d5-b56ee0267083","system_id":"levelo_inurba_marseille","lat":43.305847,"lon":5.393543,"is_reserved":false,"is_disabled":false,"rental_uris":{"android":"levelo://app?vid=29ade5b3-0c24-42d4-87d5-b56ee0267083","ios":"levelo://app?vid=29ade5b3-0c24-42d4-87d5-b56ee0267083"},"vehicle_type_id":"4","last_reported":1751652880,"current_range_meters":18000,"station_id":"","pricing_plan_id":"cebpf4jnsgd1na2vs0mg"},{"bike_id":"fa2f4960-6df7-49b2-8de1-59c7c5ad1687","system_id":"levelo_inurba_marseille","lat":43.31325,"lon":5.39698,"is_reserved":false,"is_disabled":false,"rental_uris":{"android":"levelo://app?vid=fa2f4960-6df7-49b2-8de1-59c7c5ad1687","ios":"levelo://app?vid=fa2f4960-6df7-49b2-8de1-59c7c5ad1687"},"vehicle_type_id":"4","last_reported":1751652880,"current_range_meters":18000,"station_id":"ce4bgvp2rcd13ifvqcu0","pricing_plan_id":"cebpf4jnsgd1na2vs0mg"},{"bike_id":"3c1f56c8-4e3b-48bc-a009-7f70fcdbcdd5","system_id":"levelo_inurba_marseille","lat":43.305978,"lon":5.393485,"is_reserved":false,"is_disabled":false,"rental_uris":{"android":"levelo://app?vid=3c1f56c8-4e3b-48bc-a009-7f70fcdbcdd5","ios":"levelo://app?vid=3c1f56c8-4e3b-48bc-a009-7f70fcdbcdd5"},"vehicle_type_id":"4","last_reported":1751652880,"current_range_meters":18000,"station_id":"ce4bh0p2rcd13ifvqd80","pricing_plan_id":"cebpf4jnsgd1na2vs0mg"},{"bike_id":"72057466-0cc1-4706-aa68-09634f10d93f","system_id":"levelo_inurba_marseille","lat":43.28925,"lon":5.36652,"is_reserved":false,"is_disabled":false,"rental_uris":{"android":"levelo://app?vid=72057466-0cc1-4706-aa68-09634f10d93f","ios":"levelo://app?vid=72057466-0cc1-4706-aa68-09634f10d93f"},"vehicle_type_id":"4","last_reported":1751652880,"current_range_meters":18000,"station_id":"ce4bhap2rcd13ifvqek0","pricing_plan_id":"cebpf4jnsgd1na2vs0mg"},{"bike_id":"c06af67a-a1a4-4b63-9aa1-e2d020dcb3d5","system_id":"levelo_inurba_marseille","lat":43.28405,"lon":5.3499,"is_reserved":false,"is_disabled":false,"rental_uris":{"android":"levelo://app?vid=c06af67a-a1a4-4b63-9aa1-e2d020dcb3d5","ios":"levelo://app?vid=c06af67a-a1a4-4b63-9aa1-e2d020dcb3d5"},"vehicle_type_id":"4","last_reported":1751652880,"current_range_meters":18000,"station_id":"ce4bhbh2rcd13ifvqepg","pricing_plan_id":"cebpf4jnsgd1na2vs0mg"},{"bike_id":"ffbee037-c28c-4bd4-acfd-fad70d66e16c","system_id":"levelo_inurba_marseille","lat":43.28267,"lon":5.35062,"is_reserved":false,"is_disabled":false,"rental_uris":{"android":"levelo://app?vid=ffbee037-c28c-4bd4-acfd-fad70d66e16c","ios":"levelo://app?vid=ffbee037-c28c-4bd4-acfd-fad70d66e16c"},"vehicle_type_id":"4","last_reported":1751652880,"current_range_meters":18000,"station_id":"ce4bhbp2rcd13ifvqerg","pricing_plan_id":"cebpf4jnsgd1na2vs0mg"},{"bike_id":"0aa91f77-b343-47a1-af02-f2f9382aa5a4","system_id":"levelo_inurba_marseille","lat":43.28627,"lon":5.35108,"is_reserved":false,"is_disabled":false,"rental_uris":{"android":"levelo://app?vid=0aa91f77-b343-47a1-af02-f2f9382aa5a4","ios":"levelo://app?vid=0aa91f77-b343-47a1-af02-f2f9382aa5a4"},"vehicle_type_id":"4","last_reported":1751652880,"current_range_meters":18000,"station_id":"ce4bhch2rcd13ifvqeug","pricing_plan_id":"cebpf4jnsgd1na2vs0mg"},{"bike_id":"0097673e-3fc2-448e-b21f-75b24ac596f5","system_id":"levelo_inurba_marseille","lat":43.27181,"lon":5.40991,"is_reserved":false,"is_disabled":false,"rental_uris":{"android":"levelo://app?vid=0097673e-3fc2-448e-b21f-75b24ac596f5","ios":"levelo://app?vid=0097673e-3fc2-448e-b21f-75b24ac596f5"},"vehicle_type_id":"4","last_reported":1751652880,"current_range_meters":18000,"station_id":"ce4bhl12rcd13ifvqgf0","pricing_plan_id":"cebpf4jnsgd1na2vs0mg"},{"bike_id":"85e59ae2-b351-4789-8c40-11e04c4e6808","system_id":"levelo_inurba_marseille","lat":43.232,"lon":5.35546,"is_reserved":false,"is_disabled":false,"rental_uris":{"android":"levelo://app?vid=85e59ae2-b351-4789-8c40-11e04c4e6808","ios":"levelo://app?vid=85e59ae2-b351-4789-8c40-11e04c4e6808"},"vehicle_type_id":"4","last_reported":1751652880,"current_range_meters":18000,"station_id":"ce4bhu92rcd13ifvqi70","pricing_plan_id":"cebpf4jnsgd1na2vs0mg"},{"bike_id":"8501c7f1-4540-433a-9226-9677bd87b71a","system_id":"levelo_inurba_marseille","lat":43.21203,"lon":5.35054,"is_reserved":false,"is_disabled":false,"rental_uris":{"android":"levelo://app?vid=8501c7f1-4540-433a-9226-9677bd87b71a","ios":"levelo://app?vid=8501c7f1-4540-433a-9226-9677bd87b71a"},"vehicle_type_id":"4","last_reported":1751652880,"current_range_meters":18000,"station_id":"st_cvj6sg6p6f1abm77japg","pricing_plan_id":"cebpf4jnsgd1na2vs0mg"},{"bike_id":"eee40584-a53a-46c2-94a4-491b77e8d9d1","system_id":"levelo_inurba_marseille","lat":43.217492,"lon":5.34599,"is_reserved":false,"is_disabled":false,"rental_uris":{"android":"levelo://app?vid=eee40584-a53a-46c2-94a4-491b77e8d9d1","ios":"levelo://app?vid=eee40584-a53a-46c2-94a4-491b77e8d9d1"},"vehicle_type_id":"4","last_reported":1751652880,"current_range_meters":18800,"station_id":"","pricing_plan_id":"cebpf4jnsgd1na2vs0mg"},{"bike_id":"adf1d38d-1f03-40cf-9b57-0a8f15f62b2d","system_id":"levelo_inurba_marseille","lat":43.329665,"lon":5.364052,"is_reserved":false,"is_disabled":false,"rental_uris":{"android":"levelo://app?vid=adf1d38d-1f03-40cf-9b57-0a8f15f62b2d","ios":"levelo://app?vid=adf1d38d-1f03-40cf-9b57-0a8f15f62b2d"},"vehicle_type_id":"4","last_reported":1751652880,"current_range_meters":18800,"station_id":"","pricing_plan_id":"cebpf4jnsgd1na2vs0mg"},{"bike_id":"a584e8ba-cc7d-49c8-818b-96b2cf09a742","system_id":"levelo_inurba_marseille","lat":43.27632,"lon":5.36095,"is_reserved":false,"is_disabled":false,"rental_uris":{"android":"levelo://app?vid=a584e8ba-cc7d-49c8-818b-96b2cf09a742","ios":"levelo://app?vid=a584e8ba-cc7d-49c8-818b-96b2cf09a742"},"vehicle_type_id":"4","last_reported":1751652880,"current_range_meters":18800,"station_id":"ce4bgj92rcd13ifvqbe0","pricing_plan_id":"cebpf4jnsgd1na2vs0mg"},{"bike_id":"aca05101-36a3-469a-8f75-e3270e85fd82","system_id":"levelo_inurba_marseille","lat":43.28422,"lon":5.34996,"is_reserved":false,"is_disabled":false,"rental_uris":{"android":"levelo://app?vid=aca05101-36a3-469a-8f75-e3270e85fd82","ios":"levelo://app?vid=aca05101-36a3-469a-8f75-e3270e85fd82"},"vehicle_type_id":"4","last_reported":1751652880,"current_range_meters":18800,"station_id":"ce4bhbh2rcd13ifvqepg","pricing_plan_id":"cebpf4jnsgd1na2vs0mg"},{"bike_id":"5fe1aaa6-f450-42c4-b228-1720aa141745","system_id":"levelo_inurba_marseille","lat":43.2989,"lon":5.4367,"is_reserved":false,"is_disabled":false,"rental_uris":{"android":"levelo://app?vid=5fe1aaa6-f450-42c4-b228-1720aa141745","ios":"levelo://app?vid=5fe1aaa6-f450-42c4-b228-1720aa141745"},"vehicle_type_id":"4","last_reported":1751652880,"current_range_meters":18800,"station_id":"ce4bhpp2rcd13ifvqhfg","pricing_plan_id":"cebpf4jnsgd1na2vs0mg"},{"bike_id":"94b8253a-c816-47be-9f9e-876cf02f4a4f","system_id":"levelo_inurba_marseille","lat":43.211884,"lon":5.350666,"is_reserved":false,"is_disabled":false,"rental_uris":{"android":"levelo://app?vid=94b8253a-c816-47be-9f9e-876cf02f4a4f","ios":"levelo://app?vid=94b8253a-c816-47be-9f9e-876cf02f4a4f"},"vehicle_type_id":"4","last_reported":1751652880,"current_range_meters":18800,"station_id":"st_cvj6sg6p6f1abm77japg","pricing_plan_id":"cebpf4jnsgd1na2vs0mg"},{"bike_id":"134a6fd1-cb8b-4ade-a0c2-0b22bf7dca76","system_id":"levelo_inurba_marseille","lat":43.211893,"lon":5.35074,"is_reserved":false,"is_disabled":false,"rental_uris":{"android":"levelo://app?vid=134a6fd1-cb8b-4ade-a0c2-0b22bf7dca76","ios":"levelo://app?vid=134a6fd1-cb8b-4ade-a0c2-0b22bf7dca76"},"vehicle_type_id":"4","last_reported":1751652880,"current_range_meters":18800,"station_id":"st_cvj6sg6p6f1abm77japg","pricing_plan_id":"cebpf4jnsgd1na2vs0mg"},{"bike_id":"fe8ee84c-fdfc-40aa-a1c2-6e36409c0740","system_id":"levelo_inurba_marseille","lat":43.26814,"lon":5.39075,"is_reserved":false,"is_disabled":false,"rental_uris":{"android":"levelo://app?vid=fe8ee84c-fdfc-40aa-a1c2-6e36409c0740","ios":"levelo://app?vid=fe8ee84c-fdfc-40aa-a1c2-6e36409c0740"},"vehicle_type_id":"4","last_reported":1751652880,"current_range_meters":19200,"station_id":"","pricing_plan_id":"cebpf4jnsgd1na2vs0mg"},{"bike_id":"3fc62123-78f7-4bfd-9645-67a7412e0768","system_id":"levelo_inurba_marseille","lat":43.2573,"lon":5.41107,"is_reserved":false,"is_disabled":false,"rental_uris":{"android":"levelo://app?vid=3fc62123-78f7-4bfd-9645-67a7412e0768","ios":"levelo://app?vid=3fc62123-78f7-4bfd-9645-67a7412e0768"},"vehicle_type_id":"4","last_reported":1751652880,"current_range_meters":19200,"station_id":"","pricing_plan_id":"cebpf4jnsgd1na2vs0mg"},{"bike_id":"069eba57-716f-4cd0-80a3-20023f9685c3","system_id":"levelo_inurba_marseille","lat":43.33771,"lon":5.37427,"is_reserved":false,"is_disabled":false,"rental_uris":{"android":"levelo://app?vid=069eba57-716f-4cd0-80a3-20023f9685c3","ios":"levelo://app?vid=069eba57-716f-4cd0-80a3-20023f9685c3"},"vehicle_type_id":"4","last_reported":1751652880,"current_range_meters":19200,"station_id":"","pricing_plan_id":"cebpf4jnsgd1na2vs0mg"},{"bike_id":"867aed11-4cd3-4dba-8dd2-be1f9fd64cec","system_id":"levelo_inurba_marseille","lat":43.28405,"lon":5.34991,"is_reserved":false,"is_disabled":false,"rental_uris":{"android":"levelo://app?vid=867aed11-4cd3-4dba-8dd2-be1f9fd64cec","ios":"levelo://app?vid=867aed11-4cd3-4dba-8dd2-be1f9fd64cec"},"vehicle_type_id":"4","last_reported":1751652880,"current_range_meters":19200,"station_id":"ce4bhbh2rcd13ifvqepg","pricing_plan_id":"cebpf4jnsgd1na2vs0mg"},{"bike_id":"76a2bef7-398e-4f1f-8e0a-99cd2bb38c2d","system_id":"levelo_inurba_marseille","lat":43.28628,"lon":5.35099,"is_reserved":false,"is_disabled":false,"rental_uris":{"android":"levelo://app?vid=76a2bef7-398e-4f1f-8e0a-99cd2bb38c2d","ios":"levelo://app?vid=76a2bef7-398e-4f1f-8e0a-99cd2bb38c2d"},"vehicle_type_id":"4","last_reported":1751652880,"current_range_meters":19200,"station_id":"ce4bhch2rcd13ifvqeug","pricing_plan_id":"cebpf4jnsgd1na2vs0mg"},{"bike_id":"54756faf-cb40-4ef1-aa74-0a23070f1a67","system_id":"levelo_inurba_marseille","lat":43.26214,"lon":5.3744,"is_reserved":false,"is_disabled":false,"rental_uris":{"android":"levelo://app?vid=54756faf-cb40-4ef1-aa74-0a23070f1a67","ios":"levelo://app?vid=54756faf-cb40-4ef1-aa74-0a23070f1a67"},"vehicle_type_id":"4","last_reported":1751652880,"current_range_meters":19200,"station_id":"ce4bhgp2rcd13ifvqfc0","pricing_plan_id":"cebpf4jnsgd1na2vs0mg"},{"bike_id":"5fe94004-3a53-40ab-be2e-4f3ac524a0e8","system_id":"levelo_inurba_marseille","lat":43.23073,"lon":5.35491,"is_reserved":false,"is_disabled":false,"rental_uris":{"android":"levelo://app?vid=5fe94004-3a53-40ab-be2e-4f3ac524a0e8","ios":"levelo://app?vid=5fe94004-3a53-40ab-be2e-4f3ac524a0e8"},"vehicle_type_id":"4","last_reported":1751652880,"current_range_meters":19200,"station_id":"cpo3342slgdg3j2ifvpg","pricing_plan_id":"cebpf4jnsgd1na2vs0mg"},{"bike_id":"de82732e-0a39-4d40-b3cf-607f82f986f4","system_id":"levelo_inurba_marseille","lat":43.268755,"lon":5.368595,"is_reserved":false,"is_disabled":false,"rental_uris":{"android":"levelo://app?vid=de82732e-0a39-4d40-b3cf-607f82f986f4","ios":"levelo://app?vid=de82732e-0a39-4d40-b3cf-607f82f986f4"},"vehicle_type_id":"4","last_reported":1751652880,"current_range_meters":19600,"station_id":"","pricing_plan_id":"cebpf4jnsgd1na2vs0mg"},{"bike_id":"0efe8d8a-8173-4a43-b033-df8b27e3d12f","system_id":"levelo_inurba_marseille","lat":43.30432,"lon":5.38893,"is_reserved":false,"is_disabled":false,"rental_uris":{"android":"levelo://app?vid=0efe8d8a-8173-4a43-b033-df8b27e3d12f","ios":"levelo://app?vid=0efe8d8a-8173-4a43-b033-df8b27e3d12f"},"vehicle_type_id":"4","last_reported":1751652880,"current_range_meters":19600,"station_id":"ce4bgk12rcd13ifvqbi0","pricing_plan_id":"cebpf4jnsgd1na2vs0mg"},{"bike_id":"f8be8802-8b06-487a-8a50-da6b6ba5bd1d","system_id":"levelo_inurba_marseille","lat":43.27374,"lon":5.36259,"is_reserved":false,"is_disabled":false,"rental_uris":{"android":"levelo://app?vid=f8be8802-8b06-487a-8a50-da6b6ba5bd1d","ios":"levelo://app?vid=f8be8802-8b06-487a-8a50-da6b6ba5bd1d"},"vehicle_type_id":"4","last_reported":1751652880,"current_range_meters":19600,"station_id":"ce4bhbh2rcd13ifvqeo0","pricing_plan_id":"cebpf4jnsgd1na2vs0mg"},{"bike_id":"b5525f03-7fef-47c8-9e3d-ceae997cea16","system_id":"levelo_inurba_marseille","lat":43.27379,"lon":5.36248,"is_reserved":false,"is_disabled":false,"rental_uris":{"android":"levelo://app?vid=b5525f03-7fef-47c8-9e3d-ceae997cea16","ios":"levelo://app?vid=b5525f03-7fef-47c8-9e3d-ceae997cea16"},"vehicle_type_id":"4","last_reported":1751652880,"current_range_meters":19600,"station_id":"ce4bhbh2rcd13ifvqeo0","pricing_plan_id":"cebpf4jnsgd1na2vs0mg"},{"bike_id":"3ad44345-9616-42e5-8a13-a2e22cbbf363","system_id":"levelo_inurba_marseille","lat":43.28398,"lon":5.34973,"is_reserved":false,"is_disabled":false,"rental_uris":{"android":"levelo://app?vid=3ad44345-9616-42e5-8a13-a2e22cbbf363","ios":"levelo://app?vid=3ad44345-9616-42e5-8a13-a2e22cbbf363"},"vehicle_type_id":"4","last_reported":1751652880,"current_range_meters":19600,"station_id":"ce4bhbh2rcd13ifvqepg","pricing_plan_id":"cebpf4jnsgd1na2vs0mg"},{"bike_id":"552f8070-e04d-467b-952c-bd5d8fb5e432","system_id":"levelo_inurba_marseille","lat":43.28643,"lon":5.35096,"is_reserved":false,"is_disabled":false,"rental_uris":{"android":"levelo://app?vid=552f8070-e04d-467b-952c-bd5d8fb5e432","ios":"levelo://app?vid=552f8070-e04d-467b-952c-bd5d8fb5e432"},"vehicle_type_id":"4","last_reported":1751652880,"current_range_meters":19600,"station_id":"ce4bhch2rcd13ifvqeug","pricing_plan_id":"cebpf4jnsgd1na2vs0mg"},{"bike_id":"d79582d6-f852-42e4-b0e4-8e8e52185a45","system_id":"levelo_inurba_marseille","lat":43.2864,"lon":5.35097,"is_reserved":false,"is_disabled":false,"rental_uris":{"android":"levelo://app?vid=d79582d6-f852-42e4-b0e4-8e8e52185a45","ios":"levelo://app?vid=d79582d6-f852-42e4-b0e4-8e8e52185a45"},"vehicle_type_id":"4","last_reported":1751652880,"current_range_meters":19600,"station_id":"ce4bhch2rcd13ifvqeug","pricing_plan_id":"cebpf4jnsgd1na2vs0mg"},{"bike_id":"74d2d093-a21f-4ac5-8745-4723117efe92","system_id":"levelo_inurba_marseille","lat":43.26201,"lon":5.3793,"is_reserved":false,"is_disabled":false,"rental_uris":{"android":"levelo://app?vid=74d2d093-a21f-4ac5-8745-4723117efe92","ios":"levelo://app?vid=74d2d093-a21f-4ac5-8745-4723117efe92"},"vehicle_type_id":"4","last_reported":1751652880,"current_range_meters":19600,"station_id":"ce4bhjp2rcd13ifvqg90","pricing_plan_id":"cebpf4jnsgd1na2vs0mg"},{"bike_id":"d5ef770d-9759-47e3-b3a5-7d2785ef76db","system_id":"levelo_inurba_marseille","lat":43.33061,"lon":5.39011,"is_reserved":false,"is_disabled":false,"rental_uris":{"android":"levelo://app?vid=d5ef770d-9759-47e3-b3a5-7d2785ef76db","ios":"levelo://app?vid=d5ef770d-9759-47e3-b3a5-7d2785ef76db"},"vehicle_type_id":"4","last_reported":1751652880,"current_range_meters":19600,"station_id":"ce4bhr92rcd13ifvqhrg","pricing_plan_id":"cebpf4jnsgd1na2vs0mg"},{"bike_id":"bf24b26e-7f51-4120-9a48-54c87edaa2f7","system_id":"levelo_inurba_marseille","lat":43.21199,"lon":5.35066,"is_reserved":false,"is_disabled":false,"rental_uris":{"android":"levelo://app?vid=bf24b26e-7f51-4120-9a48-54c87edaa2f7","ios":"levelo://app?vid=bf24b26e-7f51-4120-9a48-54c87edaa2f7"},"vehicle_type_id":"4","last_reported":1751652880,"current_range_meters":19600,"station_id":"st_cvj6sg6p6f1abm77japg","pricing_plan_id":"cebpf4jnsgd1na2vs0mg"},{"bike_id":"5b5ca915-19f5-4c5c-ba88-71fe4a9869eb","system_id":"levelo_inurba_marseille","lat":43.31653,"lon":5.37724,"is_reserved":false,"is_disabled":false,"rental_uris":{"android":"levelo://app?vid=5b5ca915-19f5-4c5c-ba88-71fe4a9869eb","ios":"levelo://app?vid=5b5ca915-19f5-4c5c-ba88-71fe4a9869eb"},"vehicle_type_id":"4","last_reported":1751652880,"current_range_meters":20000,"station_id":"","pricing_plan_id":"cebpf4jnsgd1na2vs0mg"},{"bike_id":"cc4d81cf-6ff4-4e90-a3a8-3d71ba787231","system_id":"levelo_inurba_marseille","lat":43.30153,"lon":5.38098,"is_reserved":false,"is_disabled":false,"rental_uris":{"android":"levelo://app?vid=cc4d81cf-6ff4-4e90-a3a8-3d71ba787231","ios":"levelo://app?vid=cc4d81cf-6ff4-4e90-a3a8-3d71ba787231"},"vehicle_type_id":"4","last_reported":1751652880,"current_range_meters":20000,"station_id":"ce4bgjp2rcd13ifvqbh0","pricing_plan_id":"cebpf4jnsgd1na2vs0mg"},{"bike_id":"4de2bc3d-1abc-4b28-81b8-637d85389c47","system_id":"levelo_inurba_marseille","lat":43.29261,"lon":5.38427,"is_reserved":false,"is_disabled":false,"rental_uris":{"android":"levelo://app?vid=4de2bc3d-1abc-4b28-81b8-637d85389c47","ios":"levelo://app?vid=4de2bc3d-1abc-4b28-81b8-637d85389c47"},"vehicle_type_id":"4","last_reported":1751652880,"current_range_meters":20000,"station_id":"ce4bh692rcd13ifvqea0","pricing_plan_id":"cebpf4jnsgd1na2vs0mg"},{"bike_id":"7bba8a3e-5b56-4797-a43e-860cbf4b2360","system_id":"levelo_inurba_marseille","lat":43.273728,"lon":5.362545,"is_reserved":false,"is_disabled":false,"rental_uris":{"android":"levelo://app?vid=7bba8a3e-5b56-4797-a43e-860cbf4b2360","ios":"levelo://app?vid=7bba8a3e-5b56-4797-a43e-860cbf4b2360"},"vehicle_type_id":"4","last_reported":1751652880,"current_range_meters":20000,"station_id":"ce4bhbh2rcd13ifvqeo0","pricing_plan_id":"cebpf4jnsgd1na2vs0mg"},{"bike_id":"f541560e-fc1c-473f-853b-18d90076463c","system_id":"levelo_inurba_marseille","lat":43.2843,"lon":5.34981,"is_reserved":false,"is_disabled":false,"rental_uris":{"android":"levelo://app?vid=f541560e-fc1c-473f-853b-18d90076463c","ios":"levelo://app?vid=f541560e-fc1c-473f-853b-18d90076463c"},"vehicle_type_id":"4","last_reported":1751652880,"current_range_meters":20000,"station_id":"ce4bhbh2rcd13ifvqepg","pricing_plan_id":"cebpf4jnsgd1na2vs0mg"},{"bike_id":"a599d48f-b21a-462e-ba87-44282577c500","system_id":"levelo_inurba_marseille","lat":43.2843,"lon":5.34984,"is_reserved":false,"is_disabled":false,"rental_uris":{"android":"levelo://app?vid=a599d48f-b21a-462e-ba87-44282577c500","ios":"levelo://app?vid=a599d48f-b21a-462e-ba87-44282577c500"},"vehicle_type_id":"4","last_reported":1751652880,"current_range_meters":20000,"station_id":"ce4bhbh2rcd13ifvqepg","pricing_plan_id":"cebpf4jnsgd1na2vs0mg"},{"bike_id":"cc5fe556-4b35-4110-95b6-1ea386a91f11","system_id":"levelo_inurba_marseille","lat":43.31706,"lon":5.43698,"is_reserved":false,"is_disabled":false,"rental_uris":{"android":"levelo://app?vid=cc5fe556-4b35-4110-95b6-1ea386a91f11","ios":"levelo://app?vid=cc5fe556-4b35-4110-95b6-1ea386a91f11"},"vehicle_type_id":"4","last_reported":1751652880,"current_range_meters":20000,"station_id":"ce4bhp92rcd13ifvqhcg","pricing_plan_id":"cebpf4jnsgd1na2vs0mg"},{"bike_id":"1e56371b-d377-4182-8646-1fa64a1d6aa6","system_id":"levelo_inurba_marseille","lat":43.298963,"lon":5.436737,"is_reserved":false,"is_disabled":false,"rental_uris":{"android":"levelo://app?vid=1e56371b-d377-4182-8646-1fa64a1d6aa6","ios":"levelo://app?vid=1e56371b-d377-4182-8646-1fa64a1d6aa6"},"vehicle_type_id":"4","last_reported":1751652880,"current_range_meters":20000,"station_id":"ce4bhpp2rcd13ifvqhfg","pricing_plan_id":"cebpf4jnsgd1na2vs0mg"},{"bike_id":"da096daf-e59b-44ba-99a7-def3efa4a658","system_id":"levelo_inurba_marseille","lat":43.31527,"lon":5.38032,"is_reserved":false,"is_disabled":false,"rental_uris":{"android":"levelo://app?vid=da096daf-e59b-44ba-99a7-def3efa4a658","ios":"levelo://app?vid=da096daf-e59b-44ba-99a7-def3efa4a658"},"vehicle_type_id":"4","last_reported":1751652880,"current_range_meters":20000,"station_id":"ce4bhsp2rcd13ifvqi50","pricing_plan_id":"cebpf4jnsgd1na2vs0mg"},{"bike_id":"bfe23a29-db00-427e-8fe5-9a9b53050996","system_id":"levelo_inurba_marseille","lat":43.29563,"lon":5.37505,"is_reserved":false,"is_disabled":false,"rental_uris":{"android":"levelo://app?vid=bfe23a29-db00-427e-8fe5-9a9b53050996","ios":"levelo://app?vid=bfe23a29-db00-427e-8fe5-9a9b53050996"},"vehicle_type_id":"4","last_reported":1751652880,"current_range_meters":20400,"station_id":"","pricing_plan_id":"cebpf4jnsgd1na2vs0mg"},{"bike_id":"19f46e41-1f2e-4245-b279-a90c3cfbb3e0","system_id":"levelo_inurba_marseille","lat":43.29535,"lon":5.38557,"is_reserved":false,"is_disabled":false,"rental_uris":{"android":"levelo://app?vid=19f46e41-1f2e-4245-b279-a90c3cfbb3e0","ios":"levelo://app?vid=19f46e41-1f2e-4245-b279-a90c3cfbb3e0"},"vehicle_type_id":"4","last_reported":1751652880,"current_range_meters":20400,"station_id":"ce4bgih2rcd13ifvqba0","pricing_plan_id":"cebpf4jnsgd1na2vs0mg"},{"bike_id":"04f50802-3f9c-4476-96af-122e1c9f73b5","system_id":"levelo_inurba_marseille","lat":43.28421,"lon":5.3497,"is_reserved":false,"is_disabled":false,"rental_uris":{"android":"levelo://app?vid=04f50802-3f9c-4476-96af-122e1c9f73b5","ios":"levelo://app?vid=04f50802-3f9c-4476-96af-122e1c9f73b5"},"vehicle_type_id":"4","last_reported":1751652880,"current_range_meters":20400,"station_id":"ce4bhbh2rcd13ifvqepg","pricing_plan_id":"cebpf4jnsgd1na2vs0mg"},{"bike_id":"5e892ba8-ca6b-49a5-bade-0e0704019d8d","system_id":"levelo_inurba_marseille","lat":43.28271,"lon":5.35043,"is_reserved":false,"is_disabled":false,"rental_uris":{"android":"levelo://app?vid=5e892ba8-ca6b-49a5-bade-0e0704019d8d","ios":"levelo://app?vid=5e892ba8-ca6b-49a5-bade-0e0704019d8d"},"vehicle_type_id":"4","last_reported":1751652880,"current_range_meters":20400,"station_id":"ce4bhbp2rcd13ifvqerg","pricing_plan_id":"cebpf4jnsgd1na2vs0mg"},{"bike_id":"8b907279-eb75-46c7-880d-3be9c8e60a4c","system_id":"levelo_inurba_marseille","lat":43.22934,"lon":5.35376,"is_reserved":false,"is_disabled":false,"rental_uris":{"android":"levelo://app?vid=8b907279-eb75-46c7-880d-3be9c8e60a4c","ios":"levelo://app?vid=8b907279-eb75-46c7-880d-3be9c8e60a4c"},"vehicle_type_id":"4","last_reported":1751652880,"current_range_meters":20400,"station_id":"cpo3532slgdg3j2ikp40","pricing_plan_id":"cebpf4jnsgd1na2vs0mg"},{"bike_id":"e449aa29-cae1-4432-9aec-dedc13360b20","system_id":"levelo_inurba_marseille","lat":43.21195,"lon":5.35074,"is_reserved":false,"is_disabled":false,"rental_uris":{"android":"levelo://app?vid=e449aa29-cae1-4432-9aec-dedc13360b20","ios":"levelo://app?vid=e449aa29-cae1-4432-9aec-dedc13360b20"},