{"last_updated":1702577344,"ttl":30,"version":"2.2","data":{"bikes":[{"bike_id":"2ad2c22c-daea-414d-bc41-fe086a9f672c","system_id":"levelo_inurba_marseille","lat":43.314811,"lon":5.373103,"is_reserved":false,"is_disabled":false,"rental_uris":{"android":"levelo://app?vid=2ad2c22c-daea-414d-bc41-fe086a9f672c","ios":"levelo://app?vid=2ad2c22c-daea-414d-bc41-fe086a9f672c"},"vehicle_type_id":"4","last_reported":1702577344,"current_range_meters":7200,"station_id":"ce4bgt12rcd13ifvqcd0","pricing_plan_id":"free"},{"bike_id":"a302ebd0-c053-4d1d-a0d1-92d432541414","system_id":"levelo_inurba_marseille","lat":43.314811,"lon":5.373103,"is_reserved":false,"is_disabled":false,"rental_uris":{"android":"levelo://app?vid=a302ebd0-c053-4d1d-a0d1-92d432541414","ios":"levelo://app?vid=a302ebd0-c053-4d1d-a0d1-92d432541414"},"vehicle_type_id":"4","last_reported":1702577344,"current_range_meters":5200,"station_id":"ce4bgt12rcd13ifvqcd0","pricing_plan_id":"free"},{"bike_id":"53d8c61f-4215-4d90-90ec-7e3068075b0f","system_id":"levelo_inurba_marseille","lat":43.309039,"lon":5.371797,"is_reserved":false,"is_disabled":false,"rental_uris":{"android":"levelo://app?vid=53d8c61f-4215-4d90-90ec-7e3068075b0f","ios":"levelo://app?vid=53d8c61f-4215-4d90-90ec-7e3068075b0f"},"vehicle_type_id":"4","last_reported":1702577344,"current_range_meters":28000,"station_id":"ce4bguh2rcd13ifvqckg","pricing_plan_id":"free"},{"bike_id":"6598fe0a-0e14-432a-8111-f8b14e8fe7d0","system_id":"levelo_inurba_marseille","lat":43.3155,"lon":5.37324,"is_reserved":false,"is_disabled":false,"rental_uris":{"android":"levelo://app?vid=6598fe0a-0e14-432a-8111-f8b14e8fe7d0","ios":"levelo://app?vid=6598fe0a-0e14-432a-8111-f8b14e8fe7d0"},"vehicle_type_id":"4","last_reported":1702577344,"current_range_meters":24000,"station_id":"","pricing_plan_id":"free"},{"bike_id":"3f8b821f-e430-4a35-bf14-f8b6e777ea11","system_id":"levelo_inurba_marseille","lat":43.313939,"lon":5.375306,"is_reserved":false,"is_disabled":false,"rental_uris":{"android":"levelo://app?vid=3f8b821f-e430-4a35-bf14-f8b6e777ea11","ios":"levelo://app?vid=3f8b821f-e430-4a35-bf14-f8b6e777ea11"},"vehicle_type_id":"4","last_reported":1702577344,"current_range_meters":3200,"station_id":"","pricing_plan_id":"free"},{"bike_id":"e40eaf73-2224-4b5e-8ad9-2037da8bf370","system_id":"levelo_inurba_marseille","lat":43.305712,"lon":5.365641,"is_reserved":false,"is_disabled":false,"rental_uris":{"android":"levelo://app?vid=e40eaf73-2224-4b5e-8ad9-2037da8bf370","ios":"levelo://app?vid=e40eaf73-2224-4b5e-8ad9-2037da8bf370"},"vehicle_type_id":"4","last_reported":1702577344,"current_range_meters":6400,"station_id":"ce4bgs12rcd13ifvqcag","pricing_plan_id":"free"},{"bike_id":"474e2c93-f146-4e92-978a-f5744bf785e4","system_id":"levelo_inurba_marseille","lat":43.305712,"lon":5.365641,"is_reserved":false,"is_disabled":false,"rental_uris":{"android":"levelo://app?vid=474e2c93-f146-4e92-978a-f5744bf785e4","ios":"levelo://app?vid=474e2c93-f146-4e92-978a-f5744bf785e4"},"vehicle_type_id":"4","last_reported":1702577344,"current_range_meters":25600,"station_id":"ce4bgs12rcd13ifvqcag","pricing_plan_id":"free"},{"bike_id":"6a8a5102-cce5-4a6a-b78a-a0678a507200","system_id":"levelo_inurba_marseille","lat":43.305368,"lon":5.367343,"is_reserved":false,"is_disabled":false,"rental_uris":{"android":"levelo://app?vid=6a8a5102-cce5-4a6a-b78a-a0678a507200","ios":"levelo://app?vid=6a8a5102-cce5-4a6a-b78a-a0678a507200"},"vehicle_type_id":"4","last_reported":1702577344,"current_range_meters":28400,"station_id":"ce4bgrp2rcd13ifvqc9g","pricing_plan_id":"free"},{"bike_id":"5462f972-a677-442d-bc07-b3ab3d58eb11","system_id":"levelo_inurba_marseille","lat":43.305368,"lon":5.367343,"is_reserved":false,"is_disabled":false,"rental_uris":{"android":"levelo://app?vid=5462f972-a677-442d-bc07-b3ab3d58eb11","ios":"levelo://app?vid=5462f972-a677-442d-bc07-b3ab3d58eb11"},"vehicle_type_id":"4","last_reported":1702577344,"current_range_meters":7200,"station_id":"ce4bgrp2rcd13ifvqc9g","pricing_plan_id":"free"},{"bike_id":"955e4ab2-16e5-44e8-a986-a2f50ff96c06","system_id":"levelo_inurba_marseille","lat":43.305382,"lon":5.365389,"is_reserved":false,"is_disabled":false,"rental_uris":{"android":"levelo://app?vid=955e4ab2-16e5-44e8-a986-a2f50ff96c06","ios":"levelo://app?vid=955e4ab2-16e5-44e8-a986-a2f50ff96c06"},"vehicle_type_id":"4","last_reported":1702577344,"current_range_meters":22400,"station_id":"","pricing_plan_id":"free"},{"bike_id":"fe4ac47b-a6e9-4139-9b42-9590c9f8b643","system_id":"levelo_inurba_marseille","lat":43.305989,"lon":5.37225,"is_reserved":false,"is_disabled":false,"rental_uris":{"android":"levelo://app?vid=fe4ac47b-a6e9-4139-9b42-9590c9f8b643","ios":"levelo://app?vid=fe4ac47b-a6e9-4139-9b42-9590c9f8b643"},"vehicle_type_id":"4","last_reported":1702577344,"current_range_meters":3600,"station_id":"ce4bgqh2rcd13ifvqc4g","pricing_plan_id":"free"},{"bike_id":"a8397355-5064-42cb-9a05-cdb8cb4d5c7c","system_id":"levelo_inurba_marseille","lat":43.305989,"lon":5.37225,"is_reserved":false,"is_disabled":false,"rental_uris":{"android":"levelo://app?vid=a8397355-5064-42cb-9a05-cdb8cb4d5c7c","ios":"levelo://app?vid=a8397355-5064-42cb-9a05-cdb8cb4d5c7c"},"vehicle_type_id":"4","last_reported":1702577344,"current_range_meters":6800,"station_id":"ce4bgqh2rcd13ifvqc4g","pricing_plan_id":"free"},{"bike_id":"3674c9ee-590d-4f99-9e39-1adfb0cc4b08","system_id":"levelo_inurba_marseille","lat":43.305989,"lon":5.37225,"is_reserved":false,"is_disabled":false,"rental_uris":{"android":"levelo://app?vid=3674c9ee-590d-4f99-9e39-1adfb0cc4b08","ios":"levelo://app?vid=3674c9ee-590d-4f99-9e39-1adfb0cc4b08"},"vehicle_type_id":"4","last_reported":1702577344,"current_range_meters":6800,"station_id":"ce4bgqh2rcd13ifvqc4g","pricing_plan_id":"free"},{"bike_id":"79f9f84e-a6c8-4695-bd25-df16ec670902","system_id":"levelo_inurba_marseille","lat":43.311125,"lon":5.377624,"is_reserved":false,"is_disabled":false,"rental_uris":{"android":"levelo://app?vid=79f9f84e-a6c8-4695-bd25-df16ec670902","ios":"levelo://app?vid=79f9f84e-a6c8-4695-bd25-df16ec670902"},"vehicle_type_id":"4","last_reported":1702577344,"current_range_meters":31200,"station_id":"ce4bgt92rcd13ifvqcg0","pricing_plan_id":"free"},{"bike_id":"5bbaa39f-00c9-482b-9085-410759dff561","system_id":"levelo_inurba_marseille","lat":43.311125,"lon":5.377624,"is_reserved":false,"is_disabled":false,"rental_uris":{"android":"levelo://app?vid=5bbaa39f-00c9-482b-9085-410759dff561","ios":"levelo://app?vid=5bbaa39f-00c9-482b-9085-410759dff561"},"vehicle_type_id":"4","last_reported":1702577344,"current_range_meters":21600,"station_id":"ce4bgt92rcd13ifvqcg0","pricing_plan_id":"free"},{"bike_id":"f9e93817-7c53-4fe3-96f8-5d4d4e460ebe","system_id":"levelo_inurba_marseille","lat":43.317075,"lon":5.377367,"is_reserved":false,"is_disabled":false,"rental_uris":{"android":"levelo://app?vid=f9e93817-7c53-4fe3-96f8-5d4d4e460ebe","ios":"levelo://app?vid=f9e93817-7c53-4fe3-96f8-5d4d4e460ebe"},"vehicle_type_id":"4","last_reported":1702577344,"current_range_meters":26400,"station_id":"ce4bgth2rcd13ifvqch0","pricing_plan_id":"free"},{"bike_id":"27518e65-ccbd-4b8e-a8b7-d148ae19fa4e","system_id":"levelo_inurba_marseille","lat":43.317075,"lon":5.377367,"is_reserved":false,"is_disabled":false,"rental_uris":{"android":"levelo://app?vid=27518e65-ccbd-4b8e-a8b7-d148ae19fa4e","ios":"levelo://app?vid=27518e65-ccbd-4b8e-a8b7-d148ae19fa4e"},"vehicle_type_id":"4","last_reported":1702577344,"current_range_meters":29200,"station_id":"ce4bgth2rcd13ifvqch0","pricing_plan_id":"free"},{"bike_id":"f95fa196-273e-4efe-bc14-09a462c0af50","system_id":"levelo_inurba_marseille","lat":43.303046,"lon":5.368981,"is_reserved":false,"is_disabled":false,"rental_uris":{"android":"levelo://app?vid=f95fa196-273e-4efe-bc14-09a462c0af50","ios":"levelo://app?vid=f95fa196-273e-4efe-bc14-09a462c0af50"},"vehicle_type_id":"4","last_reported":1702577344,"current_range_meters":11200,"station_id":"ce4bgqh2rcd13ifvqc5g","pricing_plan_id":"free"},{"bike_id":"37a4f1e9-c046-41c9-87b1-eba77fefcacd","system_id":"levelo_inurba_marseille","lat":43.301939,"lon":5.366286,"is_reserved":false,"is_disabled":false,"rental_uris":{"android":"levelo://app?vid=37a4f1e9-c046-41c9-87b1-eba77fefcacd","ios":"levelo://app?vid=37a4f1e9-c046-41c9-87b1-eba77fefcacd"},"vehicle_type_id":"4","last_reported":1702577344,"current_range_meters":26400,"station_id":"ce4bgrh2rcd13ifvqc8g","pricing_plan_id":"free"},{"bike_id":"5156801b-4d20-4b8c-9124-9429c1a4d254","system_id":"levelo_inurba_marseille","lat":43.30143,"lon":5.37413,"is_reserved":false,"is_disabled":false,"rental_uris":{"android":"levelo://app?vid=5156801b-4d20-4b8c-9124-9429c1a4d254","ios":"levelo://app?vid=5156801b-4d20-4b8c-9124-9429c1a4d254"},"vehicle_type_id":"4","last_reported":1702577344,"current_range_meters":8000,"station_id":"ce4bgs92rcd13ifvqcc0","pricing_plan_id":"free"},{"bike_id":"dfb8b2c4-afb3-44e0-bb8f-5e69b88821cf","system_id":"levelo_inurba_marseille","lat":43.319935,"lon":5.381699,"is_reserved":false,"is_disabled":false,"rental_uris":{"android":"levelo://app?vid=dfb8b2c4-afb3-44e0-bb8f-5e69b88821cf","ios":"levelo://app?vid=dfb8b2c4-afb3-44e0-bb8f-5e69b88821cf"},"vehicle_type_id":"4","last_reported":1702577344,"current_range_meters":16400,"station_id":"ce4bhr12rcd13ifvqhpg","pricing_plan_id":"free"},{"bike_id":"00da443c-ec3e-40d5-a804-ce6eea083fdc","system_id":"levelo_inurba_marseille","lat":43.313571,"lon":5.384829,"is_reserved":false,"is_disabled":false,"rental_uris":{"android":"levelo://app?vid=00da443c-ec3e-40d5-a804-ce6eea083fdc","ios":"levelo://app?vid=00da443c-ec3e-40d5-a804-ce6eea083fdc"},"vehicle_type_id":"4","last_reported":1702577344,"current_range_meters":11200,"station_id":"ce4bgt92rcd13ifvqcf0","pricing_plan_id":"free"},{"bike_id":"7230ab3a-d42b-49dd-820f-4d9b904d3e53","system_id":"levelo_inurba_marseille","lat":43.313571,"lon":5.384829,"is_reserved":false,"is_disabled":false,"rental_uris":{"android":"levelo://app?vid=7230ab3a-d42b-49dd-820f-4d9b904d3e53","ios":"levelo://app?vid=7230ab3a-d42b-49dd-820f-4d9b904d3e53"},"vehicle_type_id":"4","last_reported":1702577344,"current_range_meters":18400,"station_id":"ce4bgt92rcd13ifvqcf0","pricing_plan_id":"free"},{"bike_id":"f7d6ae43-f19f-42be-a943-c22550fae453","system_id":"levelo_inurba_marseille","lat":43.313571,"lon":5.384829,"is_reserved":false,"is_disabled":false,"rental_uris":{"android":"levelo://app?vid=f7d6ae43-f19f-42be-a943-c22550fae453","ios":"levelo://app?vid=f7d6ae43-f19f-42be-a943-c22550fae453"},"vehicle_type_id":"4","last_reported":1702577344,"current_range_meters":11200,"station_id":"ce4bgt92rcd13ifvqcf0","pricing_plan_id":"free"},{"bike_id":"5e1e7116-d509-4bb6-b397-6c9e606b2d5d","system_id":"levelo_inurba_marseille","lat":43.31365,"lon":5.38497,"is_reserved":false,"is_disabled":false,"rental_uris":{"android":"levelo://app?vid=5e1e7116-d509-4bb6-b397-6c9e606b2d5d","ios":"levelo://app?vid=5e1e7116-d509-4bb6-b397-6c9e606b2d5d"},"vehicle_type_id":"4","last_reported":1702577344,"current_range_meters":20000,"station_id":"ce4bgt92rcd13ifvqcf0","pricing_plan_id":"free"},{"bike_id":"cd73d4ca-9b03-452b-a30a-ee58b056dbaa","system_id":"levelo_inurba_marseille","lat":43.299724,"lon":5.371829,"is_reserved":false,"is_disabled":false,"rental_uris":{"android":"levelo://app?vid=cd73d4ca-9b03-452b-a30a-ee58b056dbaa","ios":"levelo://app?vid=cd73d4ca-9b03-452b-a30a-ee58b056dbaa"},"vehicle_type_id":"4","last_reported":1702577344,"current_range_meters":1200,"station_id":"ce4bgr92rcd13ifvqc7g","pricing_plan_id":"free"},{"bike_id":"3b69c880-75b4-40d7-9b62-a9e287473f70","system_id":"levelo_inurba_marseille","lat":43.298433,"lon":5.362774,"is_reserved":false,"is_disabled":false,"rental_uris":{"android":"levelo://app?vid=3b69c880-75b4-40d7-9b62-a9e287473f70","ios":"levelo://app?vid=3b69c880-75b4-40d7-9b62-a9e287473f70"},"vehicle_type_id":"4","last_reported":1702577344,"current_range_meters":28000,"station_id":"ce4bgpp2rcd13ifvqc3g","pricing_plan_id":"free"},{"bike_id":"0eea8a30-88a6-46e7-9a8c-2c6a74a10c02","system_id":"levelo_inurba_marseille","lat":43.322872,"lon":5.382756,"is_reserved":false,"is_disabled":false,"rental_uris":{"android":"levelo://app?vid=0eea8a30-88a6-46e7-9a8c-2c6a74a10c02","ios":"levelo://app?vid=0eea8a30-88a6-46e7-9a8c-2c6a74a10c02"},"vehicle_type_id":"4","last_reported":1702577344,"current_range_meters":3200,"station_id":"ce4bhr12rcd13ifvqhqg","pricing_plan_id":"free"},{"bike_id":"975b6a93-9a93-4fbc-8190-13b430d64414","system_id":"levelo_inurba_marseille","lat":43.322872,"lon":5.382756,"is_reserved":false,"is_disabled":false,"rental_uris":{"android":"levelo://app?vid=975b6a93-9a93-4fbc-8190-13b430d64414","ios":"levelo://app?vid=975b6a93-9a93-4fbc-8190-13b430d64414"},"vehicle_type_id":"4","last_reported":1702577344,"current_range_meters":24400,"station_id":"ce4bhr12rcd13ifvqhqg","pricing_plan_id":"free"},{"bike_id":"98b5fa64-e3ed-4ec7-af7c-c042242233af","system_id":"levelo_inurba_marseille","lat":43.29587,"lon":5.36766,"is_reserved":false,"is_disabled":false,"rental_uris":{"android":"levelo://app?vid=98b5fa64-e3ed-4ec7-af7c-c042242233af","ios":"levelo://app?vid=98b5fa64-e3ed-4ec7-af7c-c042242233af"},"vehicle_type_id":"4","last_reported":1702577344,"current_range_meters":14000,"station_id":"ce4bgph2rcd13ifvqc2g","pricing_plan_id":"free"},{"bike_id":"df59f699-b382-4d64-90c7-d5bc9d50fcbe","system_id":"levelo_inurba_marseille","lat":43.296935,"lon":5.376544,"is_reserved":false,"is_disabled":false,"rental_uris":{"android":"levelo://app?vid=df59f699-b382-4d64-90c7-d5bc9d50fcbe","ios":"levelo://app?vid=df59f699-b382-4d64-90c7-d5bc9d50fcbe"},"vehicle_type_id":"4","last_reported":1702577344,"current_range_meters":18000,"station_id":"ce4bgkh2rcd13ifvqbl0","pricing_plan_id":"free"},{"bike_id":"5eb17882-f0b6-4423-8adc-a91d2c94b2ea","system_id":"levelo_inurba_marseille","lat":43.296921,"lon":5.376579,"is_reserved":false,"is_disabled":false,"rental_uris":{"android":"levelo://app?vid=5eb17882-f0b6-4423-8adc-a91d2c94b2ea","ios":"levelo://app?vid=5eb17882-f0b6-4423-8adc-a91d2c94b2ea"},"vehicle_type_id":"4","last_reported":1702577344,"current_range_meters":0,"station_id":"ce4bgkh2rcd13ifvqbl0","pricing_plan_id":"free"},{"bike_id":"b6fc3acf-b4b3-468d-b780-203617aa2288","system_id":"levelo_inurba_marseille","lat":43.309589,"lon":5.390258,"is_reserved":false,"is_disabled":false,"rental_uris":{"android":"levelo://app?vid=b6fc3acf-b4b3-468d-b780-203617aa2288","ios":"levelo://app?vid=b6fc3acf-b4b3-468d-b780-203617aa2288"},"vehicle_type_id":"4","last_reported":1702577344,"current_range_meters":16400,"station_id":"ce4bgup2rcd13ifvqco0","pricing_plan_id":"free"},{"bike_id":"a29d5288-a593-4e9f-b702-78a905bf1da1","system_id":"levelo_inurba_marseille","lat":43.309589,"lon":5.390258,"is_reserved":false,"is_disabled":false,"rental_uris":{"android":"levelo://app?vid=a29d5288-a593-4e9f-b702-78a905bf1da1","ios":"levelo://app?vid=a29d5288-a593-4e9f-b702-78a905bf1da1"},"vehicle_type_id":"4","last_reported":1702577344,"current_range_meters":21600,"station_id":"ce4bgup2rcd13ifvqco0","pricing_plan_id":"free"},{"bike_id":"bbd5c991-be28-478f-a377-9f0d4f1143df","system_id":"levelo_inurba_marseille","lat":43.317557,"lon":5.390173,"is_reserved":false,"is_disabled":false,"rental_uris":{"android":"levelo://app?vid=bbd5c991-be28-478f-a377-9f0d4f1143df","ios":"levelo://app?vid=bbd5c991-be28-478f-a377-9f0d4f1143df"},"vehicle_type_id":"4","last_reported":1702577344,"current_range_meters":8000,"station_id":"ce4bhqp2rcd13ifvqhng","pricing_plan_id":"free"},{"bike_id":"cbf150fc-e0c0-45a1-afec-401951d5a226","system_id":"levelo_inurba_marseille","lat":43.29807,"lon":5.38096,"is_reserved":false,"is_disabled":false,"rental_uris":{"android":"levelo://app?vid=cbf150fc-e0c0-45a1-afec-401951d5a226","ios":"levelo://app?vid=cbf150fc-e0c0-45a1-afec-401951d5a226"},"vehicle_type_id":"4","last_reported":1702577344,"current_range_meters":0,"station_id":"ce4bgip2rcd13ifvqbb0","pricing_plan_id":"free"},{"bike_id":"02f864c8-1f52-4103-b18d-c6c556ee2733","system_id":"levelo_inurba_marseille","lat":43.29801,"lon":5.381,"is_reserved":false,"is_disabled":false,"rental_uris":{"android":"levelo://app?vid=02f864c8-1f52-4103-b18d-c6c556ee2733","ios":"levelo://app?vid=02f864c8-1f52-4103-b18d-c6c556ee2733"},"vehicle_type_id":"4","last_reported":1702577344,"current_range_meters":14000,"station_id":"ce4bgip2rcd13ifvqbb0","pricing_plan_id":"free"},{"bike_id":"dffcebee-88e1-469b-a744-134a8e61198a","system_id":"levelo_inurba_marseille","lat":43.299707,"lon":5.384859,"is_reserved":false,"is_disabled":false,"rental_uris":{"android":"levelo://app?vid=dffcebee-88e1-469b-a744-134a8e61198a","ios":"levelo://app?vid=dffcebee-88e1-469b-a744-134a8e61198a"},"vehicle_type_id":"4","last_reported":1702577344,"current_range_meters":1600,"station_id":"ce4bgj92rcd13ifvqbd0","pricing_plan_id":"free"},{"bike_id":"762a0cd1-dae6-45d4-86ea-458a1ae6966c","system_id":"levelo_inurba_marseille","lat":43.299724,"lon":5.384848,"is_reserved":false,"is_disabled":false,"rental_uris":{"android":"levelo://app?vid=762a0cd1-dae6-45d4-86ea-458a1ae6966c","ios":"levelo://app?vid=762a0cd1-dae6-45d4-86ea-458a1ae6966c"},"vehicle_type_id":"4","last_reported":1702577344,"current_range_meters":0,"station_id":"ce4bgj92rcd13ifvqbd0","pricing_plan_id":"free"},{"bike_id":"399fd523-8e9e-43c5-8774-f704d7ba179a","system_id":"levelo_inurba_marseille","lat":43.293259,"lon":5.371586,"is_reserved":false,"is_disabled":false,"rental_uris":{"android":"levelo://app?vid=399fd523-8e9e-43c5-8774-f704d7ba179a","ios":"levelo://app?vid=399fd523-8e9e-43c5-8774-f704d7ba179a"},"vehicle_type_id":"4","last_reported":1702577344,"current_range_meters":24400,"station_id":"ce4bgh92rcd13ifvqb40","pricing_plan_id":"free"},{"bike_id":"7240c1ce-873e-47f7-bea0-93896c613362","system_id":"levelo_inurba_marseille","lat":43.293259,"lon":5.371586,"is_reserved":false,"is_disabled":false,"rental_uris":{"android":"levelo://app?vid=7240c1ce-873e-47f7-bea0-93896c613362","ios":"levelo://app?vid=7240c1ce-873e-47f7-bea0-93896c613362"},"vehicle_type_id":"4","last_reported":1702577344,"current_range_meters":30000,"station_id":"ce4bgh92rcd13ifvqb40","pricing_plan_id":"free"},{"bike_id":"f89435f6-f9df-4625-900b-68781318a993","system_id":"levelo_inurba_marseille","lat":43.293009,"lon":5.374584,"is_reserved":false,"is_disabled":false,"rental_uris":{"android":"levelo://app?vid=f89435f6-f9df-4625-900b-68781318a993","ios":"levelo://app?vid=f89435f6-f9df-4625-900b-68781318a993"},"vehicle_type_id":"4","last_reported":1702577344,"current_range_meters":19600,"station_id":"ce4bgi12rcd13ifvqb70","pricing_plan_id":"free"},{"bike_id":"9b9c2ea4-6c83-4d42-999a-34d5ad32ae94","system_id":"levelo_inurba_marseille","lat":43.2936,"lon":5.37835,"is_reserved":false,"is_disabled":false,"rental_uris":{"android":"levelo://app?vid=9b9c2ea4-6c83-4d42-999a-34d5ad32ae94","ios":"levelo://app?vid=9b9c2ea4-6c83-4d42-999a-34d5ad32ae94"},"vehicle_type_id":"4","last_reported":1702577344,"current_range_meters":29600,"station_id":"ce4bgjh2rcd13ifvqbf0","pricing_plan_id":"free"},{"bike_id":"01cbf16e-ebdf-4621-8a12-efc0d46e968e","system_id":"levelo_inurba_marseille","lat":43.292311,"lon":5.360731,"is_reserved":false,"is_disabled":false,"rental_uris":{"android":"levelo://app?vid=01cbf16e-ebdf-4621-8a12-efc0d46e968e","ios":"levelo://app?vid=01cbf16e-ebdf-4621-8a12-efc0d46e968e"},"vehicle_type_id":"4","last_reported":1702577344,"current_range_meters":14400,"station_id":"ce4bhbh2rcd13ifvqeqg","pricing_plan_id":"free"},{"bike_id":"01bf88b4-e93c-4894-8616-5be408012778","system_id":"levelo_inurba_marseille","lat":43.292311,"lon":5.360731,"is_reserved":false,"is_disabled":false,"rental_uris":{"android":"levelo://app?vid=01bf88b4-e93c-4894-8616-5be408012778","ios":"levelo://app?vid=01bf88b4-e93c-4894-8616-5be408012778"},"vehicle_type_id":"4","last_reported":1702577344,"current_range_meters":17600,"station_id":"ce4bhbh2rcd13ifvqeqg","pricing_plan_id":"free"},{"bike_id":"872714e1-5a69-4597-a5d5-a89884aa80f5","system_id":"levelo_inurba_marseille","lat":43.300852,"lon":5.390859,"is_reserved":false,"is_disabled":false,"rental_uris":{"android":"levelo://app?vid=872714e1-5a69-4597-a5d5-a89884aa80f5","ios":"levelo://app?vid=872714e1-5a69-4597-a5d5-a89884aa80f5"},"vehicle_type_id":"4","last_reported":1702577344,"current_range_meters":8800,"station_id":"ce4bh192rcd13ifvqdb0","pricing_plan_id":"free"},{"bike_id":"f49022ab-d6f4-4465-bbac-1057addbfb7c","system_id":"levelo_inurba_marseille","lat":43.29872,"lon":5.38911,"is_reserved":false,"is_disabled":false,"rental_uris":{"android":"levelo://app?vid=f49022ab-d6f4-4465-bbac-1057addbfb7c","ios":"levelo://app?vid=f49022ab-d6f4-4465-bbac-1057addbfb7c"},"vehicle_type_id":"4","last_reported":1702577344,"current_range_meters":0,"station_id":"","pricing_plan_id":"free"},{"bike_id":"e8f9523c-f8eb-4ca4-85c8-b79c9e3f8e3e","system_id":"levelo_inurba_marseille","lat":43.291994,"lon":5.357886,"is_reserved":false,"is_disabled":false,"rental_uris":{"android":"levelo://app?vid=e8f9523c-f8eb-4ca4-85c8-b79c9e3f8e3e","ios":"levelo://app?vid=e8f9523c-f8eb-4ca4-85c8-b79c9e3f8e3e"},"vehicle_type_id":"4","last_reported":1702577344,"current_range_meters":6400,"station_id":"ce4bhb12rcd13ifvqel0","pricing_plan_id":"free"},{"bike_id":"403cb83d-0f9a-4cf0-be4f-614ede038be6","system_id":"levelo_inurba_marseille","lat":43.313291,"lon":5.396838,"is_reserved":false,"is_disabled":false,"rental_uris":{"android":"levelo://app?vid=403cb83d-0f9a-4cf0-be4f-614ede038be6","ios":"levelo://app?vid=403cb83d-0f9a-4cf0-be4f-614ede038be6"},"vehicle_type_id":"4","last_reported":1702577344,"current_range_meters":21600,"station_id":"ce4bgvp2rcd13ifvqcu0","pricing_plan_id":"free"},{"bike_id":"e720545d-41b7-4b97-9682-55f1553266de","system_id":"levelo_inurba_marseille","lat":43.291994,"lon":5.357886,"is_reserved":false,"is_disabled":false,"rental_uris":{"android":"levelo://app?vid=e720545d-41b7-4b97-9682-55f1553266de","ios":"levelo://app?vid=e720545d-41b7-4b97-9682-55f1553266de"},"vehicle_type_id":"4","last_reported":1702577344,"current_range_meters":13200,"station_id":"ce4bhb12rcd13ifvqel0","pricing_plan_id":"free"},{"bike_id":"ec1120f5-2886-4f63-bdba-0ae19647a12b","system_id":"levelo_inurba_marseille","lat":43.29034,"lon":5.37562,"is_reserved":false,"is_disabled":false,"rental_uris":{"android":"levelo://app?vid=ec1120f5-2886-4f63-bdba-0ae19647a12b","ios":"levelo://app?vid=ec1120f5-2886-4f63-bdba-0ae19647a12b"},"vehicle_type_id":"4","last_reported":1702577344,"current_range_meters":0,"station_id":"ce4bh692rcd13ifvqe90","pricing_plan_id":"free"},{"bike_id":"52c2535c-bd60-4e01-aa64-39f2b83c35cb","system_id":"levelo_inurba_marseille","lat":43.289473,"lon":5.363902,"is_reserved":false,"is_disabled":false,"rental_uris":{"android":"levelo://app?vid=52c2535c-bd60-4e01-aa64-39f2b83c35cb","ios":"levelo://app?vid=52c2535c-bd60-4e01-aa64-39f2b83c35cb"},"vehicle_type_id":"4","last_reported":1702577344,"current_range_meters":0,"station_id":"ce4bhc92rcd13ifvqetg","pricing_plan_id":"free"},{"bike_id":"92fba3ad-d3cd-4bb8-9294-b1cf20899b5d","system_id":"levelo_inurba_marseille","lat":43.28946,"lon":5.364025,"is_reserved":false,"is_disabled":false,"rental_uris":{"android":"levelo://app?vid=92fba3ad-d3cd-4bb8-9294-b1cf20899b5d","ios":"levelo://app?vid=92fba3ad-d3cd-4bb8-9294-b1cf20899b5d"},"vehicle_type_id":"4","last_reported":1702577344,"current_range_meters":18400,"station_id":"ce4bhc92rcd13ifvqetg","pricing_plan_id":"free"},{"bike_id":"434ffabd-6c51-446b-a716-a2b8a8ed7293","system_id":"levelo_inurba_marseille","lat":43.30443,"lon":5.39738,"is_reserved":false,"is_disabled":false,"rental_uris":{"android":"levelo://app?vid=434ffabd-6c51-446b-a716-a2b8a8ed7293","ios":"levelo://app?vid=434ffabd-6c51-446b-a716-a2b8a8ed7293"},"vehicle_type_id":"4","last_reported":1702577344,"current_range_meters":29200,"station_id":"ce4bh0p2rcd13ifvqd70","pricing_plan_id":"free"},{"bike_id":"e36fc3c3-3f2f-4976-afc1-efdf79dee1e9","system_id":"levelo_inurba_marseille","lat":43.33042,"lon":5.38923,"is_reserved":false,"is_disabled":false,"rental_uris":{"android":"levelo://app?vid=e36fc3c3-3f2f-4976-afc1-efdf79dee1e9","ios":"levelo://app?vid=e36fc3c3-3f2f-4976-afc1-efdf79dee1e9"},"vehicle_type_id":"4","last_reported":1702577344,"current_range_meters":9600,"station_id":"ce4bhr92rcd13ifvqhrg","pricing_plan_id":"free"},{"bike_id":"9430066a-b3f6-4803-82ef-db8ee806a880","system_id":"levelo_inurba_marseille","lat":43.33043,"lon":5.38925,"is_reserved":false,"is_disabled":false,"rental_uris":{"android":"levelo://app?vid=9430066a-b3f6-4803-82ef-db8ee806a880","ios":"levelo://app?vid=9430066a-b3f6-4803-82ef-db8ee806a880"},"vehicle_type_id":"4","last_reported":1702577344,"current_range_meters":4400,"station_id":"ce4bhr92rcd13ifvqhrg","pricing_plan_id":"free"},{"bike_id":"fb51385e-da3c-46be-ba43-2e59e3923f0f","system_id":"levelo_inurba_marseille","lat":43.290104,"lon":5.356111,"is_reserved":false,"is_disabled":false,"rental_uris":{"android":"levelo://app?vid=fb51385e-da3c-46be-ba43-2e59e3923f0f","ios":"levelo://app?vid=fb51385e-da3c-46be-ba43-2e59e3923f0f"},"vehicle_type_id":"4","last_reported":1702577344,"current_range_meters":21600,"station_id":"ce4bhb92rcd13ifvqen0","pricing_plan_id":"free"},{"bike_id":"4faedb70-f908-4112-a1b0-800a0ccf26d6","system_id":"levelo_inurba_marseille","lat":43.2901,"lon":5.381269,"is_reserved":false,"is_disabled":false,"rental_uris":{"android":"levelo://app?vid=4faedb70-f908-4112-a1b0-800a0ccf26d6","ios":"levelo://app?vid=4faedb70-f908-4112-a1b0-800a0ccf26d6"},"vehicle_type_id":"4","last_reported":1702577344,"current_range_meters":4000,"station_id":"ce4bh4p2rcd13ifvqe1g","pricing_plan_id":"free"},{"bike_id":"cc5d89ed-80a7-4259-b2b4-0bf8e5035127","system_id":"levelo_inurba_marseille","lat":43.31276,"lon":5.40174,"is_reserved":false,"is_disabled":false,"rental_uris":{"android":"levelo://app?vid=cc5d89ed-80a7-4259-b2b4-0bf8e5035127","ios":"levelo://app?vid=cc5d89ed-80a7-4259-b2b4-0bf8e5035127"},"vehicle_type_id":"4","last_reported":1702577344,"current_range_meters":24000,"station_id":"ce4bh092rcd13ifvqd30","pricing_plan_id":"free"},{"bike_id":"930bba3a-4350-44cf-bb9b-310a6cbdb5ef","system_id":"levelo_inurba_marseille","lat":43.337497,"lon":5.374653,"is_reserved":false,"is_disabled":false,"rental_uris":{"android":"levelo://app?vid=930bba3a-4350-44cf-bb9b-310a6cbdb5ef","ios":"levelo://app?vid=930bba3a-4350-44cf-bb9b-310a6cbdb5ef"},"vehicle_type_id":"4","last_reported":1702577344,"current_range_meters":25600,"station_id":"","pricing_plan_id":"free"},{"bike_id":"1b03b591-35fc-4af7-9061-167ae999bcea","system_id":"levelo_inurba_marseille","lat":43.30642,"lon":5.401031,"is_reserved":false,"is_disabled":false,"rental_uris":{"android":"levelo://app?vid=1b03b591-35fc-4af7-9061-167ae999bcea","ios":"levelo://app?vid=1b03b591-35fc-4af7-9061-167ae999bcea"},"vehicle_type_id":"4","last_reported":1702577344,"current_range_meters":22000,"station_id":"ce4bh112rcd13ifvqda0","pricing_plan_id":"free"},{"bike_id":"336518be-05dc-492e-b309-6334ca30bde5","system_id":"levelo_inurba_marseille","lat":43.306412,"lon":5.401035,"is_reserved":false,"is_disabled":false,"rental_uris":{"android":"levelo://app?vid=336518be-05dc-492e-b309-6334ca30bde5","ios":"levelo://app?vid=336518be-05dc-492e-b309-6334ca30bde5"},"vehicle_type_id":"4","last_reported":1702577344,"current_range_meters":22000,"station_id":"ce4bh112rcd13ifvqda0","pricing_plan_id":"free"},{"bike_id":"64323a28-9f92-4302-80a6-e3d30bcf76a0","system_id":"levelo_inurba_marseille","lat":43.33776,"lon":5.37445,"is_reserved":false,"is_disabled":false,"rental_uris":{"android":"levelo://app?vid=64323a28-9f92-4302-80a6-e3d30bcf76a0","ios":"levelo://app?vid=64323a28-9f92-4302-80a6-e3d30bcf76a0"},"vehicle_type_id":"4","last_reported":1702577344,"current_range_meters":30000,"station_id":"","pricing_plan_id":"free"},{"bike_id":"f945bdca-6221-46bc-8479-5d96f0ec70f8","system_id":"levelo_inurba_marseille","lat":43.301117,"lon":5.398795,"is_reserved":false,"is_disabled":false,"rental_uris":{"android":"levelo://app?vid=f945bdca-6221-46bc-8479-5d96f0ec70f8","ios":"levelo://app?vid=f945bdca-6221-46bc-8479-5d96f0ec70f8"},"vehicle_type_id":"4","last_reported":1702577344,"current_range_meters":14800,"station_id":"ce4bh0h2rcd13ifvqd40","pricing_plan_id":"free"},{"bike_id":"8527745a-4954-4685-b657-30c4abf12ebc","system_id":"levelo_inurba_marseille","lat":43.286961,"lon":5.373785,"is_reserved":false,"is_disabled":false,"rental_uris":{"android":"levelo://app?vid=8527745a-4954-4685-b657-30c4abf12ebc","ios":"levelo://app?vid=8527745a-4954-4685-b657-30c4abf12ebc"},"vehicle_type_id":"4","last_reported":1702577344,"current_range_meters":24800,"station_id":"ce4bh3p2rcd13ifvqdq0","pricing_plan_id":"free"},{"bike_id":"8d207e43-e954-40b3-89a2-2a0904149b1e","system_id":"levelo_inurba_marseille","lat":43.286593,"lon":5.363346,"is_reserved":false,"is_disabled":false,"rental_uris":{"android":"levelo://app?vid=8d207e43-e954-40b3-89a2-2a0904149b1e","ios":"levelo://app?vid=8d207e43-e954-40b3-89a2-2a0904149b1e"},"vehicle_type_id":"4","last_reported":1702577344,"current_range_meters":14800,"station_id":"ce4bhah2rcd13ifvqej0","pricing_plan_id":"free"},{"bike_id":"d669e3ad-72bf-413e-bc4e-479615e21f82","system_id":"levelo_inurba_marseille","lat":43.298681,"lon":5.397225,"is_reserved":false,"is_disabled":false,"rental_uris":{"android":"levelo://app?vid=d669e3ad-72bf-413e-bc4e-479615e21f82","ios":"levelo://app?vid=d669e3ad-72bf-413e-bc4e-479615e21f82"},"vehicle_type_id":"4","last_reported":1702577344,"current_range_meters":12000,"station_id":"ce4bh0h2rcd13ifvqd50","pricing_plan_id":"free"},{"bike_id":"bb0be0e6-da42-4b81-b378-6d0f015a3c2b","system_id":"levelo_inurba_marseille","lat":43.295194,"lon":5.39397,"is_reserved":false,"is_disabled":false,"rental_uris":{"android":"levelo://app?vid=bb0be0e6-da42-4b81-b378-6d0f015a3c2b","ios":"levelo://app?vid=bb0be0e6-da42-4b81-b378-6d0f015a3c2b"},"vehicle_type_id":"4","last_reported":1702577344,"current_range_meters":4000,"station_id":"ce4bh292rcd13ifvqdf0","pricing_plan_id":"free"},{"bike_id":"2d70ee8f-c92b-4e58-9982-3c30ffcb8e36","system_id":"levelo_inurba_marseille","lat":43.302759,"lon":5.400793,"is_reserved":false,"is_disabled":false,"rental_uris":{"android":"levelo://app?vid=2d70ee8f-c92b-4e58-9982-3c30ffcb8e36","ios":"levelo://app?vid=2d70ee8f-c92b-4e58-9982-3c30ffcb8e36"},"vehicle_type_id":"4","last_reported":1702577344,"current_range_meters":4000,"station_id":"ce4bgvh2rcd13ifvqcs0","pricing_plan_id":"free"},{"bike_id":"dab23b48-f66c-4d5b-9fb9-b97fe9551519","system_id":"levelo_inurba_marseille","lat":43.302759,"lon":5.400793,"is_reserved":false,"is_disabled":false,"rental_uris":{"android":"levelo://app?vid=dab23b48-f66c-4d5b-9fb9-b97fe9551519","ios":"levelo://app?vid=dab23b48-f66c-4d5b-9fb9-b97fe9551519"},"vehicle_type_id":"4","last_reported":1702577344,"current_range_meters":2800,"station_id":"ce4bgvh2rcd13ifvqcs0","pricing_plan_id":"free"},{"bike_id":"b33b88e9-bfd8-4c6b-badc-4fb62fe90440","system_id":"levelo_inurba_marseille","lat":43.29202,"lon":5.39337,"is_reserved":false,"is_disabled":false,"rental_uris":{"android":"levelo://app?vid=b33b88e9-bfd8-4c6b-badc-4fb62fe90440","ios":"levelo://app?vid=b33b88e9-bfd8-4c6b-badc-4fb62fe90440"},"vehicle_type_id":"4","last_reported":1702577344,"current_range_meters":0,"station_id":"ce4bh192rcd13ifvqdd0","pricing_plan_id":"free"},{"bike_id":"d87b03ab-5162-44e8-8587-da9792752d66","system_id":"levelo_inurba_marseille","lat":43.284538,"lon":5.358657,"is_reserved":false,"is_disabled":false,"rental_uris":{"android":"levelo://app?vid=d87b03ab-5162-44e8-8587-da9792752d66","ios":"levelo://app?vid=d87b03ab-5162-44e8-8587-da9792752d66"},"vehicle_type_id":"4","last_reported":1702577344,"current_range_meters":22400,"station_id":"ce4bhah2rcd13ifvqei0","pricing_plan_id":"free"},{"bike_id":"bbead17a-7aec-435d-b28e-b592d41ac1a4","system_id":"levelo_inurba_marseille","lat":43.28457,"lon":5.35893,"is_reserved":false,"is_disabled":false,"rental_uris":{"android":"levelo://app?vid=bbead17a-7aec-435d-b28e-b592d41ac1a4","ios":"levelo://app?vid=bbead17a-7aec-435d-b28e-b592d41ac1a4"},"vehicle_type_id":"4","last_reported":1702577344,"current_range_meters":400,"station_id":"ce4bhah2rcd13ifvqei0","pricing_plan_id":"free"},{"bike_id":"c48ba9ff-2e0f-4b85-a8a0-22b670d2f615","system_id":"levelo_inurba_marseille","lat":43.284538,"lon":5.358657,"is_reserved":false,"is_disabled":false,"rental_uris":{"android":"levelo://app?vid=c48ba9ff-2e0f-4b85-a8a0-22b670d2f615","ios":"levelo://app?vid=c48ba9ff-2e0f-4b85-a8a0-22b670d2f615"},"vehicle_type_id":"4","last_reported":1702577344,"current_range_meters":13600,"station_id":"ce4bhah2rcd13ifvqei0","pricing_plan_id":"free"},{"bike_id":"1d1e096d-5105-4883-bffe-d40ca7030c3c","system_id":"levelo_inurba_marseille","lat":43.28619,"lon":5.35108,"is_reserved":false,"is_disabled":false,"rental_uris":{"android":"levelo://app?vid=1d1e096d-5105-4883-bffe-d40ca7030c3c","ios":"levelo://app?vid=1d1e096d-5105-4883-bffe-d40ca7030c3c"},"vehicle_type_id":"4","last_reported":1702577344,"current_range_meters":23600,"station_id":"ce4bhch2rcd13ifvqeug","pricing_plan_id":"free"},{"bike_id":"59440ca7-a769-4e4e-83e7-d0fea04caa42","system_id":"levelo_inurba_marseille","lat":43.286153,"lon":5.35114,"is_reserved":false,"is_disabled":false,"rental_uris":{"android":"levelo://app?vid=59440ca7-a769-4e4e-83e7-d0fea04caa42","ios":"levelo://app?vid=59440ca7-a769-4e4e-83e7-d0fea04caa42"},"vehicle_type_id":"4","last_reported":1702577344,"current_range_meters":24800,"station_id":"","pricing_plan_id":"free"},{"bike_id":"8526002f-9393-46f4-9896-a138aca8e6b8","system_id":"levelo_inurba_marseille","lat":43.295713,"lon":5.399639,"is_reserved":false,"is_disabled":false,"rental_uris":{"android":"levelo://app?vid=8526002f-9393-46f4-9896-a138aca8e6b8","ios":"levelo://app?vid=8526002f-9393-46f4-9896-a138aca8e6b8"},"vehicle_type_id":"4","last_reported":1702577344,"current_range_meters":2000,"station_id":"ce4bh312rcd13ifvqdj0","pricing_plan_id":"free"},{"bike_id":"16e91ff0-d8df-4733-abf7-90046ec97e37","system_id":"levelo_inurba_marseille","lat":43.286595,"lon":5.386795,"is_reserved":false,"is_disabled":false,"rental_uris":{"android":"levelo://app?vid=16e91ff0-d8df-4733-abf7-90046ec97e37","ios":"levelo://app?vid=16e91ff0-d8df-4733-abf7-90046ec97e37"},"vehicle_type_id":"4","last_reported":1702577344,"current_range_meters":17200,"station_id":"ce4bh492rcd13ifvqdug","pricing_plan_id":"free"},{"bike_id":"726b67ab-cbe5-40a9-b9b2-6f5278f0478b","system_id":"levelo_inurba_marseille","lat":43.323464,"lon":5.406297,"is_reserved":false,"is_disabled":false,"rental_uris":{"android":"levelo://app?vid=726b67ab-cbe5-40a9-b9b2-6f5278f0478b","ios":"levelo://app?vid=726b67ab-cbe5-40a9-b9b2-6f5278f0478b"},"vehicle_type_id":"4","last_reported":1702577344,"current_range_meters":26800,"station_id":"ce4bhq92rcd13ifvqhjg","pricing_plan_id":"free"},{"bike_id":"7e07c070-5ce8-4a30-b393-97e5a93dc1db","system_id":"levelo_inurba_marseille","lat":43.29795,"lon":5.404086,"is_reserved":false,"is_disabled":false,"rental_uris":{"android":"levelo://app?vid=7e07c070-5ce8-4a30-b393-97e5a93dc1db","ios":"levelo://app?vid=7e07c070-5ce8-4a30-b393-97e5a93dc1db"},"vehicle_type_id":"4","last_reported":1702577344,"current_range_meters":4800,"station_id":"ce4bh112rcd13ifvqd90","pricing_plan_id":"free"},{"bike_id":"eebdcfa8-24f6-4442-96f7-c458cd3fecb2","system_id":"levelo_inurba_marseille","lat":43.282754,"lon":5.350519,"is_reserved":false,"is_disabled":false,"rental_uris":{"android":"levelo://app?vid=eebdcfa8-24f6-4442-96f7-c458cd3fecb2","ios":"levelo://app?vid=eebdcfa8-24f6-4442-96f7-c458cd3fecb2"},"vehicle_type_id":"4","last_reported":1702577344,"current_range_meters":12000,"station_id":"ce4bhbp2rcd13ifvqerg","pricing_plan_id":"free"},{"bike_id":"ce195bd3-efe7-4ef7-8b7c-8649002637fb","system_id":"levelo_inurba_marseille","lat":43.282754,"lon":5.350519,"is_reserved":false,"is_disabled":false,"rental_uris":{"android":"levelo://app?vid=ce195bd3-efe7-4ef7-8b7c-8649002637fb","ios":"levelo://app?vid=ce195bd3-efe7-4ef7-8b7c-8649002637fb"},"vehicle_type_id":"4","last_reported":1702577344,"current_range_meters":12000,"station_id":"ce4bhbp2rcd13ifvqerg","pricing_plan_id":"free"},{"bike_id":"3c85df87-7510-4772-83dc-5b28f3520327","system_id":"levelo_inurba_marseille","lat":43.282687,"lon":5.350607,"is_reserved":false,"is_disabled":false,"rental_uris":{"android":"levelo://app?vid=3c85df87-7510-4772-83dc-5b28f3520327","ios":"levelo://app?vid=3c85df87-7510-4772-83dc-5b28f3520327"},"vehicle_type_id":"4","last_reported":1702577344,"current_range_meters":21600,"station_id":"ce4bhbp2rcd13ifvqerg","pricing_plan_id":"free"},{"bike_id":"d52ba69b-7325-49c2-b343-dd0cc2e58052","system_id":"levelo_inurba_marseille","lat":43.280382,"lon":5.369291,"is_reserved":false,"is_disabled":false,"rental_uris":{"android":"levelo://app?vid=d52ba69b-7325-49c2-b343-dd0cc2e58052","ios":"levelo://app?vid=d52ba69b-7325-49c2-b343-dd0cc2e58052"},"vehicle_type_id":"4","last_reported":1702577344,"current_range_meters":0,"station_id":"ce4bha12rcd13ifvqef0","pricing_plan_id":"free"},{"bike_id":"87910cb7-7e76-493f-aafa-625010a9fb0f","system_id":"levelo_inurba_marseille","lat":43.280382,"lon":5.369291,"is_reserved":false,"is_disabled":false,"rental_uris":{"android":"levelo://app?vid=87910cb7-7e76-493f-aafa-625010a9fb0f","ios":"levelo://app?vid=87910cb7-7e76-493f-aafa-625010a9fb0f"},"vehicle_type_id":"4","last_reported":1702577344,"current_range_meters":10000,"station_id":"ce4bha12rcd13ifvqef0","pricing_plan_id":"free"},{"bike_id":"b034f941-fa04-4b82-9df3-36040f1ebade","system_id":"levelo_inurba_marseille","lat":43.284462,"lon":5.392121,"is_reserved":false,"is_disabled":false,"rental_uris":{"android":"levelo://app?vid=b034f941-fa04-4b82-9df3-36040f1ebade","ios":"levelo://app?vid=b034f941-fa04-4b82-9df3-36040f1ebade"},"vehicle_type_id":"4","last_reported":1702577344,"current_range_meters":9600,"station_id":"ce4bhoh2rcd13ifvqh5g","pricing_plan_id":"free"},{"bike_id":"49b6c2e6-191d-4214-9870-b9b9c2899777","system_id":"levelo_inurba_marseille","lat":43.304188,"lon":5.412904,"is_reserved":false,"is_disabled":false,"rental_uris":{"android":"levelo://app?vid=49b6c2e6-191d-4214-9870-b9b9c2899777","ios":"levelo://app?vid=49b6c2e6-191d-4214-9870-b9b9c2899777"},"vehicle_type_id":"4","last_reported":1702577344,"current_range_meters":4000,"station_id":"ce4bhop2rcd13ifvqh8g","pricing_plan_id":"free"},{"bike_id":"a6750e93-4d83-46ef-8dc0-4c546875d106","system_id":"levelo_inurba_marseille","lat":43.304188,"lon":5.412904,"is_reserved":false,"is_disabled":false,"rental_uris":{"android":"levelo://app?vid=a6750e93-4d83-46ef-8dc0-4c546875d106","ios":"levelo://app?vid=a6750e93-4d83-46ef-8dc0-4c546875d106"},"vehicle_type_id":"4","last_reported":1702577344,"current_range_meters":30800,"station_id":"ce4bhop2rcd13ifvqh8g","pricing_plan_id":"free"},{"bike_id":"31240c21-0ca3-42f7-9c43-127d722b9d0a","system_id":"levelo_inurba_marseille","lat":43.304188,"lon":5.412904,"is_reserved":false,"is_disabled":false,"rental_uris":{"android":"levelo://app?vid=31240c21-0ca3-42f7-9c43-127d722b9d0a","ios":"levelo://app?vid=31240c21-0ca3-42f7-9c43-127d722b9d0a"},"vehicle_type_id":"4","last_reported":1702577344,"current_range_meters":2000,"station_id":"ce4bhop2rcd13ifvqh8g","pricing_plan_id":"free"},{"bike_id":"f6a36720-0064-4021-bf8f-66f00ab5612e","system_id":"levelo_inurba_marseille","lat":43.304188,"lon":5.412904,"is_reserved":false,"is_disabled":false,"rental_uris":{"android":"levelo://app?vid=f6a36720-0064-4021-bf8f-66f00ab5612e","ios":"levelo://app?vid=f6a36720-0064-4021-bf8f-66f00ab5612e"},"vehicle_type_id":"4","last_reported":1702577344,"current_range_meters":28000,"station_id":"ce4bhop2rcd13ifvqh8g","pricing_plan_id":"free"},{"bike_id":"2af23a4c-d150-4d9c-bcb9-5a01479c885a","system_id":"levelo_inurba_marseille","lat":43.28708,"lon":5.39991,"is_reserved":false,"is_disabled":false,"rental_uris":{"android":"levelo://app?vid=2af23a4c-d150-4d9c-bcb9-5a01479c885a","ios":"levelo://app?vid=2af23a4c-d150-4d9c-bcb9-5a01479c885a"},"vehicle_type_id":"4","last_reported":1702577344,"current_range_meters":0,"station_id":"ce4bho92rcd13ifvqh3g","pricing_plan_id":"free"},{"bike_id":"6d8a067e-9e7b-4a25-90fa-727e18675c7f","system_id":"levelo_inurba_marseille","lat":43.320045,"lon":5.415046,"is_reserved":false,"is_disabled":false,"rental_uris":{"android":"levelo://app?vid=6d8a067e-9e7b-4a25-90fa-727e18675c7f","ios":"levelo://app?vid=6d8a067e-9e7b-4a25-90fa-727e18675c7f"},"vehicle_type_id":"4","last_reported":1702577344,"current_range_meters":14000,"station_id":"ce4bhq92rcd13ifvqhkg","pricing_plan_id":"free"},{"bike_id":"44ef89cc-90dc-45ef-a064-e840a48f0250","system_id":"levelo_inurba_marseille","lat":43.320045,"lon":5.415048,"is_reserved":false,"is_disabled":false,"rental_uris":{"android":"levelo://app?vid=44ef89cc-90dc-45ef-a064-e840a48f0250","ios":"levelo://app?vid=44ef89cc-90dc-45ef-a064-e840a48f0250"},"vehicle_type_id":"4","last_reported":1702577344,"current_range_meters":12000,"station_id":"ce4bhq92rcd13ifvqhkg","pricing_plan_id":"free"},{"bike_id":"0f7857a5-89da-445a-a3d8-47b3ba81a7e6","system_id":"levelo_inurba_marseille","lat":43.32047,"lon":5.41577,"is_reserved":false,"is_disabled":false,"rental_uris":{"android":"levelo://app?vid=0f7857a5-89da-445a-a3d8-47b3ba81a7e6","ios":"levelo://app?vid=0f7857a5-89da-445a-a3d8-47b3ba81a7e6"},"vehicle_type_id":"4","last_reported":1702577344,"current_range_meters":23600,"station_id":"ce4bhq92rcd13ifvqhkg","pricing_plan_id":"free"},{"bike_id":"1c4737d1-a1b5-46d9-9d90-834058aecf21","system_id":"levelo_inurba_marseille","lat":43.292569,"lon":5.409107,"is_reserved":false,"is_disabled":false,"rental_uris":{"android":"levelo://app?vid=1c4737d1-a1b5-46d9-9d90-834058aecf21","ios":"levelo://app?vid=1c4737d1-a1b5-46d9-9d90-834058aecf21"},"vehicle_type_id":"4","last_reported":1702577344,"current_range_meters":12000,"station_id":"ce4bh192rcd13ifvqdc0","pricing_plan_id":"free"},{"bike_id":"d9271bdb-56a1-44f1-a766-777fbbe6b769","system_id":"levelo_inurba_marseille","lat":43.280784,"lon":5.396622,"is_reserved":false,"is_disabled":false,"rental_uris":{"android":"levelo://app?vid=d9271bdb-56a1-44f1-a766-777fbbe6b769","ios":"levelo://app?vid=d9271bdb-56a1-44f1-a766-777fbbe6b769"},"vehicle_type_id":"4","last_reported":1702577344,"current_range_meters":25200,"station_id":"ce4bho12rcd13ifvqh2g","pricing_plan_id":"free"},{"bike_id":"38f7ad61-5224-4eb5-a3bd-7fdefd112261","system_id":"levelo_inurba_marseille","lat":43.303837,"lon":5.418724,"is_reserved":false,"is_disabled":false,"rental_uris":{"android":"levelo://app?vid=38f7ad61-5224-4eb5-a3bd-7fdefd112261","ios":"levelo://app?vid=38f7ad61-5224-4eb5-a3bd-7fdefd112261"},"vehicle_type_id":"4","last_reported":1702577344,"current_range_meters":13600,"station_id":"ce4bhop2rcd13ifvqh7g","pricing_plan_id":"free"},{"bike_id":"c4cfb68b-0ac0-4a8c-b786-f9b41850db55","system_id":"levelo_inurba_marseille","lat":43.27376,"lon":5.36256,"is_reserved":false,"is_disabled":false,"rental_uris":{"android":"levelo://app?vid=c4cfb68b-0ac0-4a8c-b786-f9b41850db55","ios":"levelo://app?vid=c4cfb68b-0ac0-4a8c-b786-f9b41850db55"},"vehicle_type_id":"4","last_reported":1702577344,"current_range_meters":31200,"station_id":"ce4bhbh2rcd13ifvqeo0","pricing_plan_id":"free"},{"bike_id":"3e1ac225-8bd6-49ce-ba06-065fac3069e5","system_id":"levelo_inurba_marseille","lat":43.279952,"lon":5.400085,"is_reserved":false,"is_disabled":false,"rental_uris":{"android":"levelo://app?vid=3e1ac225-8bd6-49ce-ba06-065fac3069e5","ios":"levelo://app?vid=3e1ac225-8bd6-49ce-ba06-065fac3069e5"},"vehicle_type_id":"4","last_reported":1702577344,"current_range_meters":14800,"station_id":"ce4bho92rcd13ifvqh4g","pricing_plan_id":"free"},{"bike_id":"3ca2c2d2-99b0-4aa6-a05d-e30f02e6a7fb","system_id":"levelo_inurba_marseille","lat":43.276092,"lon":5.395289,"is_reserved":false,"is_disabled":false,"rental_uris":{"android":"levelo://app?vid=3ca2c2d2-99b0-4aa6-a05d-e30f02e6a7fb","ios":"levelo://app?vid=3ca2c2d2-99b0-4aa6-a05d-e30f02e6a7fb"},"vehicle_type_id":"4","last_reported":1702577344,"current_range_meters":29600,"station_id":"","pricing_plan_id":"free"},{"bike_id":"a59c4da2-febd-4448-b0c6-9d96a4a58b62","system_id":"levelo_inurba_marseille","lat":43.303837,"lon":5.418724,"is_reserved":false,"is_disabled":false,"rental_uris":{"android":"levelo://app?vid=a59c4da2-febd-4448-b0c6-9d96a4a58b62","ios":"levelo://app?vid=a59c4da2-febd-4448-b0c6-9d96a4a58b62"},"vehicle_type_id":"4","last_reported":1702577344,"current_range_meters":30000,"station_id":"ce4bhop2rcd13ifvqh7g","pricing_plan_id":"free"},{"bike_id":"c33088a2-080b-43f1-af75-fa54e755a424","system_id":"levelo_inurba_marseille","lat":43.273125,"lon":5.390731,"is_reserved":false,"is_disabled":false,"rental_uris":{"android":"levelo://app?vid=c33088a2-080b-43f1-af75-fa54e755a424","ios":"levelo://app?vid=c33088a2-080b-43f1-af75-fa54e755a424"},"vehicle_type_id":"4","last_reported":1702577344,"current_range_meters":9600,"station_id":"ce4bhgp2rcd13ifvqfe0","pricing_plan_id":"free"},{"bike_id":"9a79bb7c-e597-4618-94c5-8714b710e554","system_id":"levelo_inurba_marseille","lat":43.273129,"lon":5.390725,"is_reserved":false,"is_disabled":false,"rental_uris":{"android":"levelo://app?vid=9a79bb7c-e597-4618-94c5-8714b710e554","ios":"levelo://app?vid=9a79bb7c-e597-4618-94c5-8714b710e554"},"vehicle_type_id":"4","last_reported":1702577344,"current_range_meters":6400,"station_id":"ce4bhgp2rcd13ifvqfe0","pricing_plan_id":"free"},{"bike_id":"e081f9ef-9d3d-4325-9b03-b8e9468534be","system_id":"levelo_inurba_marseille","lat":43.295511,"lon":5.422926,"is_reserved":false,"is_disabled":false,"rental_uris":{"android":"levelo://app?vid=e081f9ef-9d3d-4325-9b03-b8e9468534be","ios":"levelo://app?vid=e081f9ef-9d3d-4325-9b03-b8e9468534be"},"vehicle_type_id":"4","last_reported":1702577344,"current_range_meters":29200,"station_id":"ce4bhph2rcd13ifvqhdg","pricing_plan_id":"free"},{"bike_id":"9128feaf-36b8-4e63-849f-ccc68f896dc0","system_id":"levelo_inurba_marseille","lat":43.295523,"lon":5.422926,"is_reserved":false,"is_disabled":false,"rental_uris":{"android":"levelo://app?vid=9128feaf-36b8-4e63-849f-ccc68f896dc0","ios":"levelo://app?vid=9128feaf-36b8-4e63-849f-ccc68f896dc0"},"vehicle_type_id":"4","last_reported":1702577344,"current_range_meters":12000,"station_id":"ce4bhph2rcd13ifvqhdg","pricing_plan_id":"free"},{"bike_id":"95c021fc-de4e-4e61-b14f-9b8057d6a82d","system_id":"levelo_inurba_marseille","lat":43.2721,"lon":5.39183,"is_reserved":false,"is_disabled":false,"rental_uris":{"android":"levelo://app?vid=95c021fc-de4e-4e61-b14f-9b8057d6a82d","ios":"levelo://app?vid=95c021fc-de4e-4e61-b14f-9b8057d6a82d"},"vehicle_type_id":"4","last_reported":1702577344,"current_range_meters":0,"station_id":"ce4bhhp2rcd13ifvqfm0","pricing_plan_id":"free"},{"bike_id":"4f932217-c4a5-4f91-ab13-2eefd4b4cc31","system_id":"levelo_inurba_marseille","lat":43.272116,"lon":5.391747,"is_reserved":false,"is_disabled":false,"rental_uris":{"android":"levelo://app?vid=4f932217-c4a5-4f91-ab13-2eefd4b4cc31","ios":"levelo://app?vid=4f932217-c4a5-4f91-ab13-2eefd4b4cc31"},"vehicle_type_id":"4","last_reported":1702577344,"current_range_meters":11200,"station_id":"ce4bhhp2rcd13ifvqfm0","pricing_plan_id":"free"},{"bike_id":"04b3d846-1da3-4e37-aa5f-d8bcc257dd52","system_id":"levelo_inurba_marseille","lat":43.27015,"lon":5.39291,"is_reserved":false,"is_disabled":false,"rental_uris":{"android":"levelo://app?vid=04b3d846-1da3-4e37-aa5f-d8bcc257dd52","ios":"levelo://app?vid=04b3d846-1da3-4e37-aa5f-d8bcc257dd52"},"vehicle_type_id":"4","last_reported":1702577344,"current_range_meters":0,"station_id":"","pricing_plan_id":"free"},{"bike_id":"771ab449-16a3-4539-9cb8-f653285a874d","system_id":"levelo_inurba_marseille","lat":43.265714,"lon":5.372891,"is_reserved":false,"is_disabled":false,"rental_uris":{"android":"levelo://app?vid=771ab449-16a3-4539-9cb8-f653285a874d","ios":"levelo://app?vid=771ab449-16a3-4539-9cb8-f653285a874d"},"vehicle_type_id":"4","last_reported":1702577344,"current_range_meters":16400,"station_id":"ce4bhg12rcd13ifvqf70","pricing_plan_id":"free"},{"bike_id":"95a32182-f8d2-4441-a4d1-4319bdd5db3e","system_id":"levelo_inurba_marseille","lat":43.27996,"lon":5.416624,"is_reserved":false,"is_disabled":false,"rental_uris":{"android":"levelo://app?vid=95a32182-f8d2-4441-a4d1-4319bdd5db3e","ios":"levelo://app?vid=95a32182-f8d2-4441-a4d1-4319bdd5db3e"},"vehicle_type_id":"4","last_reported":1702577344,"current_range_meters":22000,"station_id":"ce4bho12rcd13ifvqh1g","pricing_plan_id":"free"},{"bike_id":"daee26f8-b8b6-4554-ae94-dba448cd2ad9","system_id":"levelo_inurba_marseille","lat":43.265569,"lon":5.390047,"is_reserved":false,"is_disabled":false,"rental_uris":{"android":"levelo://app?vid=daee26f8-b8b6-4554-ae94-dba448cd2ad9","ios":"levelo://app?vid=daee26f8-b8b6-4554-ae94-dba448cd2ad9"},"vehicle_type_id":"4","last_reported":1702577344,"current_range_meters":1200,"station_id":"ce4bhe12rcd13ifvqf30","pricing_plan_id":"free"},{"bike_id":"32a8b64b-3722-4b89-a8f5-321d4d8d6d79","system_id":"levelo_inurba_marseille","lat":43.26575,"lon":5.39,"is_reserved":false,"is_disabled":false,"rental_uris":{"android":"levelo://app?vid=32a8b64b-3722-4b89-a8f5-321d4d8d6d79","ios":"levelo://app?vid=32a8b64b-3722-4b89-a8f5-321d4d8d6d79"},"vehicle_type_id":"4","last_reported":1702577344,"current_range_meters":11600,"station_id":"ce4bhe12rcd13ifvqf30","pricing_plan_id":"free"},{"bike_id":"965fd965-8e98-4450-bea5-a2dcd82c42bb","system_id":"levelo_inurba_marseille","lat":43.265569,"lon":5.390047,"is_reserved":false,"is_disabled":false,"rental_uris":{"android":"levelo://app?vid=965fd965-8e98-4450-bea5-a2dcd82c42bb","ios":"levelo://app?vid=965fd965-8e98-4450-bea5-a2dcd82c42bb"},"vehicle_type_id":"4","last_reported":1702577344,"current_range_meters":4800,"station_id":"ce4bhe12rcd13ifvqf30","pricing_plan_id":"free"},{"bike_id":"e6b6b285-2f98-49b9-a28a-25cb70c91c27","system_id":"levelo_inurba_marseille","lat":43.265569,"lon":5.390047,"is_reserved":false,"is_disabled":false,"rental_uris":{"android":"levelo://app?vid=e6b6b285-2f98-49b9-a28a-25cb70c91c27","ios":"levelo://app?vid=e6b6b285-2f98-49b9-a28a-25cb70c91c27"},"vehicle_type_id":"4","last_reported":1702577344,"current_range_meters":0,"station_id":"ce4bhe12rcd13ifvqf30","pricing_plan_id":"free"},{"bike_id":"6608fb5f-c34b-40e1-8d57-c8fe1c96c99e","system_id":"levelo_inurba_marseille","lat":43.265571,"lon":5.390032,"is_reserved":false,"is_disabled":false,"rental_uris":{"android":"levelo://app?vid=6608fb5f-c34b-40e1-8d57-c8fe1c96c99e","ios":"levelo://app?vid=6608fb5f-c34b-40e1-8d57-c8fe1c96c99e"},"vehicle_type_id":"4","last_reported":1702577344,"current_range_meters":0,"station_id":"ce4bhe12rcd13ifvqf30","pricing_plan_id":"free"},{"bike_id":"b97ad148-73a7-4303-9eb3-db8c95d41f0c","system_id":"levelo_inurba_marseille","lat":43.26949,"lon":5.40262,"is_reserved":false,"is_disabled":false,"rental_uris":{"android":"levelo://app?vid=b97ad148-73a7-4303-9eb3-db8c95d41f0c","ios":"levelo://app?vid=b97ad148-73a7-4303-9eb3-db8c95d41f0c"},"vehicle_type_id":"4","last_reported":1702577344,"current_range_meters":22000,"station_id":"cjm6bp8fraef2m0cb0m0","pricing_plan_id":"free"},{"bike_id":"7f70f534-e623-4e61-8c4b-bf6ac9c25dcd","system_id":"levelo_inurba_marseille","lat":43.26949,"lon":5.40262,"is_reserved":false,"is_disabled":false,"rental_uris":{"android":"levelo://app?vid=7f70f534-e623-4e61-8c4b-bf6ac9c25dcd","ios":"levelo://app?vid=7f70f534-e623-4e61-8c4b-bf6ac9c25dcd"},"vehicle_type_id":"4","last_reported":1702577344,"current_range_meters":1200,"station_id":"cjm6bp8fraef2m0cb0m0","pricing_plan_id":"free"},{"bike_id":"960d859c-ac70-41df-b2c9-7ce1080aa8bd","system_id":"levelo_inurba_marseille","lat":43.26949,"lon":5.40262,"is_reserved":false,"is_disabled":false,"rental_uris":{"android":"levelo://app?vid=960d859c-ac70-41df-b2c9-7ce1080aa8bd","ios":"levelo://app?vid=960d859c-ac70-41df-b2c9-7ce1080aa8bd"},"vehicle_type_id":"4","last_reported":1702577344,"current_range_meters":17200,"station_id":"cjm6bp8fraef2m0cb0m0","pricing_plan_id":"free"},{"bike_id":"7f84783e-5acd-446e-9626-60df6c193f32","system_id":"levelo_inurba_marseille","lat":43.26184,"lon":5.37451,"is_reserved":false,"is_disabled":false,"rental_uris":{"android":"levelo://app?vid=7f84783e-5acd-446e-9626-60df6c193f32","ios":"levelo://app?vid=7f84783e-5acd-446e-9626-60df6c193f32"},"vehicle_type_id":"4","last_reported":1702577344,"current_range_meters":13200,"station_id":"ce4bhgp2rcd13ifvqfc0","pricing_plan_id":"free"},{"bike_id":"503fb083-fb82-4ad3-b4e1-6cc786325b8b","system_id":"levelo_inurba_marseille","lat":43.317104,"lon":5.436818,"is_reserved":false,"is_disabled":false,"rental_uris":{"android":"levelo://app?vid=503fb083-fb82-4ad3-b4e1-6cc786325b8b","ios":"levelo://app?vid=503fb083-fb82-4ad3-b4e1-6cc786325b8b"},"vehicle_type_id":"4","last_reported":1702577344,"current_range_meters":26800,"station_id":"ce4bhp92rcd13ifvqhcg","pricing_plan_id":"free"},{"bike_id":"f57e685b-70a1-4edc-91a2-9815299e6486","system_id":"levelo_inurba_marseille","lat":43.317104,"lon":5.436818,"is_reserved":false,"is_disabled":false,"rental_uris":{"android":"levelo://app?vid=f57e685b-70a1-4edc-91a2-9815299e6486","ios":"levelo://app?vid=f57e685b-70a1-4edc-91a2-9815299e6486"},"vehicle_type_id":"4","last_reported":1702577344,"current_range_meters":28800,"station_id":"ce4bhp92rcd13ifvqhcg","pricing_plan_id":"free"},{"bike_id":"c2923c8a-f72b-4f39-9ebd-6f23e8589080","system_id":"levelo_inurba_marseille","lat":43.262012,"lon":5.379307,"is_reserved":false,"is_disabled":false,"rental_uris":{"android":"levelo://app?vid=c2923c8a-f72b-4f39-9ebd-6f23e8589080","ios":"levelo://app?vid=c2923c8a-f72b-4f39-9ebd-6f23e8589080"},"vehicle_type_id":"4","last_reported":1702577344,"current_range_meters":16800,"station_id":"ce4bhjp2rcd13ifvqg90","pricing_plan_id":"free"},{"bike_id":"fd85b62e-be7a-4eae-aaea-f814a6b1f5e9","system_id":"levelo_inurba_marseille","lat":43.26202,"lon":5.379299,"is_reserved":false,"is_disabled":false,"rental_uris":{"android":"levelo://app?vid=fd85b62e-be7a-4eae-aaea-f814a6b1f5e9","ios":"levelo://app?vid=fd85b62e-be7a-4eae-aaea-f814a6b1f5e9"},"vehicle_type_id":"4","last_reported":1702577344,"current_range_meters":30000,"station_id":"ce4bhjp2rcd13ifvqg90","pricing_plan_id":"free"},{"bike_id":"13f7afe0-4d90-4591-9ac6-18730f52d7f9","system_id":"levelo_inurba_marseille","lat":43.271368,"lon":5.40928,"is_reserved":false,"is_disabled":false,"rental_uris":{"android":"levelo://app?vid=13f7afe0-4d90-4591-9ac6-18730f52d7f9","ios":"levelo://app?vid=13f7afe0-4d90-4591-9ac6-18730f52d7f9"},"vehicle_type_id":"4","last_reported":1702577344,"current_range_meters":26800,"station_id":"ce4bhl12rcd13ifvqgf0","pricing_plan_id":"free"},{"bike_id":"2d4df44c-723e-4b54-a8fd-79a73e16deb6","system_id":"levelo_inurba_marseille","lat":43.271368,"lon":5.40928,"is_reserved":false,"is_disabled":false,"rental_uris":{"android":"levelo://app?vid=2d4df44c-723e-4b54-a8fd-79a73e16deb6","ios":"levelo://app?vid=2d4df44c-723e-4b54-a8fd-79a73e16deb6"},"vehicle_type_id":"4","last_reported":1702577344,"current_range_meters":25200,"station_id":"ce4bhl12rcd13ifvqgf0","pricing_plan_id":"free"},{"bike_id":"0905945f-74c2-4bce-b51c-70befd2c9e4a","system_id":"levelo_inurba_marseille","lat":43.298768,"lon":5.43643,"is_reserved":false,"is_disabled":false,"rental_uris":{"android":"levelo://app?vid=0905945f-74c2-4bce-b51c-70befd2c9e4a","ios":"levelo://app?vid=0905945f-74c2-4bce-b51c-70befd2c9e4a"},"vehicle_type_id":"4","last_reported":1702577344,"current_range_meters":18400,"station_id":"ce4bhpp2rcd13ifvqhfg","pricing_plan_id":"free"},{"bike_id":"e08cb7a0-f6bd-4a79-b1de-9d6a715917f8","system_id":"levelo_inurba_marseille","lat":43.29894,"lon":5.43672,"is_reserved":false,"is_disabled":false,"rental_uris":{"android":"levelo://app?vid=e08cb7a0-f6bd-4a79-b1de-9d6a715917f8","ios":"levelo://app?vid=e08cb7a0-f6bd-4a79-b1de-9d6a715917f8"},"vehicle_type_id":"4","last_reported":1702577344,"current_range_meters":15600,"station_id":"ce4bhpp2rcd13ifvqhfg","pricing_plan_id":"free"},{"bike_id":"bc029538-d190-4438-a7fa-a5ba24eea074","system_id":"levelo_inurba_marseille","lat":43.299,"lon":5.43675,"is_reserved":false,"is_disabled":false,"rental_uris":{"android":"levelo://app?vid=bc029538-d190-4438-a7fa-a5ba24eea074","ios":"levelo://app?vid=bc029538-d190-4438-a7fa-a5ba24eea074"},"vehicle_type_id":"4","last_reported":1702577344,"current_range_meters":26800,"station_id":"ce4bhpp2rcd13ifvqhfg","pricing_plan_id":"free"},{"bike_id":"ff29e1bd-9f57-43ae-bfdb-2061fd5e3f43","system_id":"levelo_inurba_marseille","lat":43.281548,"lon":5.42643,"is_reserved":false,"is_disabled":false,"rental_uris":{"android":"levelo://app?vid=ff29e1bd-9f57-43ae-bfdb-2061fd5e3f43","ios":"levelo://app?vid=ff29e1bd-9f57-43ae-bfdb-2061fd5e3f43"},"vehicle_type_id":"4","last_reported":1702577344,"current_range_meters":1200,"station_id":"ce4bhnh2rcd13ifvqgug","pricing_plan_id":"free"},{"bike_id":"0a0ed8c3-e8f3-4bb3-ac6f-18ed8eb40c0a","system_id":"levelo_inurba_marseille","lat":43.281548,"lon":5.42643,"is_reserved":false,"is_disabled":false,"rental_uris":{"android":"levelo://app?vid=0a0ed8c3-e8f3-4bb3-ac6f-18ed8eb40c0a","ios":"levelo://app?vid=0a0ed8c3-e8f3-4bb3-ac6f-18ed8eb40c0a"},"vehicle_type_id":"4","last_reported":1702577344,"current_range_meters":17600,"station_id":"ce4bhnh2rcd13ifvqgug","pricing_plan_id":"free"},{"bike_id":"e1a4e7f2-d6c9-431f-9be0-2c76848eb849","system_id":"levelo_inurba_marseille","lat":43.281548,"lon":5.42643,"is_reserved":false,"is_disabled":false,"rental_uris":{"android":"levelo://app?vid=e1a4e7f2-d6c9-431f-9be0-2c76848eb849","ios":"levelo://app?vid=e1a4e7f2-d6c9-431f-9be0-2c76848eb849"},"vehicle_type_id":"4","last_reported":1702577344,"current_range_meters":17600,"station_id":"ce4bhnh2rcd13ifvqgug","pricing_plan_id":"free"},{"bike_id":"e3ce720a-1aab-4d8b-a6d8-478fbdca5590","system_id":"levelo_inurba_marseille","lat":43.2607,"lon":5.393983,"is_reserved":false,"is_disabled":false,"rental_uris":{"android":"levelo://app?vid=e3ce720a-1aab-4d8b-a6d8-478fbdca5590","ios":"levelo://app?vid=e3ce720a-1aab-4d8b-a6d8-478fbdca5590"},"vehicle_type_id":"4","last_reported":1702577344,"current_range_meters":25600,"station_id":"ce4bhh92rcd13ifvqfj0","pricing_plan_id":"free"},{"bike_id":"b55411d3-fad9-42ad-84c3-fda1f6d6a2cf","system_id":"levelo_inurba_marseille","lat":43.258224,"lon":5.394369,"is_reserved":false,"is_disabled":false,"rental_uris":{"android":"levelo://app?vid=b55411d3-fad9-42ad-84c3-fda1f6d6a2cf","ios":"levelo://app?vid=b55411d3-fad9-42ad-84c3-fda1f6d6a2cf"},"vehicle_type_id":"4","last_reported":1702577344,"current_range_meters":9200,"station_id":"ce4bhip2rcd13ifvqft0","pricing_plan_id":"free"},{"bike_id":"8834b350-77fd-4efb-a3f5-5787c412c375","system_id":"levelo_inurba_marseille","lat":43.2557,"lon":5.38237,"is_reserved":false,"is_disabled":false,"rental_uris":{"android":"levelo://app?vid=8834b350-77fd-4efb-a3f5-5787c412c375","ios":"levelo://app?vid=8834b350-77fd-4efb-a3f5-5787c412c375"},"vehicle_type_id":"4","last_reported":1702577344,"current_range_meters":10000,"station_id":"ce4bhih2rcd13ifvqfs0","pricing_plan_id":"free"},{"bike_id":"eb51775d-e0fb-4c47-896b-b998110b41b9","system_id":"levelo_inurba_marseille","lat":43.270721,"lon":5.422764,"is_reserved":false,"is_disabled":false,"rental_uris":{"android":"levelo://app?vid=eb51775d-e0fb-4c47-896b-b998110b41b9","ios":"levelo://app?vid=eb51775d-e0fb-4c47-896b-b998110b41b9"},"vehicle_type_id":"4","last_reported":1702577344,"current_range_meters":26400,"station_id":"ce4bhk92rcd13ifvqgb0","pricing_plan_id":"free"},{"bike_id":"1fb33373-5f81-4a03-b783-0ce7c19b2e3a","system_id":"levelo_inurba_marseille","lat":43.258658,"lon":5.398935,"is_reserved":false,"is_disabled":false,"rental_uris":{"android":"levelo://app?vid=1fb33373-5f81-4a03-b783-0ce7c19b2e3a","ios":"levelo://app?vid=1fb33373-5f81-4a03-b783-0ce7c19b2e3a"},"vehicle_type_id":"4","last_reported":1702577344,"current_range_meters":25600,"station_id":"ce4bhl92rcd13ifvqghg","pricing_plan_id":"free"},{"bike_id":"e9fe6247-39e2-47a4-9e35-0db78376a9cb","system_id":"levelo_inurba_marseille","lat":43.25929,"lon":5.40913,"is_reserved":false,"is_disabled":false,"rental_uris":{"android":"levelo://app?vid=e9fe6247-39e2-47a4-9e35-0db78376a9cb","ios":"levelo://app?vid=e9fe6247-39e2-47a4-9e35-0db78376a9cb"},"vehicle_type_id":"4","last_reported":1702577344,"current_range_meters":16400,"station_id":"ce4bhm92rcd13ifvqglg","pricing_plan_id":"free"},{"bike_id":"87ffd965-dc16-48a8-ada2-571a9f81385b","system_id":"levelo_inurba_marseille","lat":43.257079,"lon":5.411051,"is_reserved":false,"is_disabled":false,"rental_uris":{"android":"levelo://app?vid=87ffd965-dc16-48a8-ada2-571a9f81385b","ios":"levelo://app?vid=87ffd965-dc16-48a8-ada2-571a9f81385b"},"vehicle_type_id":"4","last_reported":1702577344,"current_range_meters":20400,"station_id":"ce4bhkp2rcd13ifvqgd0","pricing_plan_id":"free"},{"bike_id":"62e14e39-c79e-46ea-9296-a127260f0307","system_id":"levelo_inurba_marseille","lat":43.250009,"lon":5.389195,"is_reserved":false,"is_disabled":false,"rental_uris":{"android":"levelo://app?vid=62e14e39-c79e-46ea-9296-a127260f0307","ios":"levelo://app?vid=62e14e39-c79e-46ea-9296-a127260f0307"},"vehicle_type_id":"4","last_reported":1702577344,"current_range_meters":24800,"station_id":"ce4bhgp2rcd13ifvqfd0","pricing_plan_id":"free"},{"bike_id":"913945bd-b901-4fe7-9be9-455b1fac13cf","system_id":"levelo_inurba_marseille","lat":43.248068,"lon":5.374538,"is_reserved":false,"is_disabled":false,"rental_uris":{"android":"levelo://app?vid=913945bd-b901-4fe7-9be9-455b1fac13cf","ios":"levelo://app?vid=913945bd-b901-4fe7-9be9-455b1fac13cf"},"vehicle_type_id":"4","last_reported":1702577344,"current_range_meters":4400,"station_id":"ce4bhgh2rcd13ifvqfb0","pricing_plan_id":"free"},{"bike_id":"41141c1c-d172-4264-ae0f-545f42a7f1d0","system_id":"levelo_inurba_marseille","lat":43.250966,"lon":5.395186,"is_reserved":false,"is_disabled":false,"rental_uris":{"android":"levelo://app?vid=41141c1c-d172-4264-ae0f-545f42a7f1d0","ios":"levelo://app?vid=41141c1c-d172-4264-ae0f-545f42a7f1d0"},"vehicle_type_id":"4","last_reported":1702577344,"current_range_meters":31200,"station_id":"ce4bhm12rcd13ifvqgkg","pricing_plan_id":"free"},{"bike_id":"53859793-e802-4ff0-9c1e-9dfd1fdc2034","system_id":"levelo_inurba_marseille","lat":43.25102,"lon":5.403214,"is_reserved":false,"is_disabled":false,"rental_uris":{"android":"levelo://app?vid=53859793-e802-4ff0-9c1e-9dfd1fdc2034","ios":"levelo://app?vid=53859793-e802-4ff0-9c1e-9dfd1fdc2034"},"vehicle_type_id":"4","last_reported":1702577344,"current_range_meters":18400,"station_id":"ce4bhlh2rcd13ifvqgig","pricing_plan_id":"free"},{"bike_id":"943e52e8-36d7-4fec-9ddf-e07fe42c8d89","system_id":"levelo_inurba_marseille","lat":43.246461,"lon":5.389014,"is_reserved":false,"is_disabled":false,"rental_uris":{"android":"levelo://app?vid=943e52e8-36d7-4fec-9ddf-e07fe42c8d89","ios":"levelo://app?vid=943e52e8-36d7-4fec-9ddf-e07fe42c8d89"},"vehicle_type_id":"4","last_reported":1702577344,"current_range_meters":26400,"station_id":"ce4bhg12rcd13ifvqf60","pricing_plan_id":"free"},{"bike_id":"39bf9e7f-bd9e-46b0-84fb-a4482e6eaab3","system_id":"levelo_inurba_marseille","lat":43.239588,"lon":5.366238,"is_reserved":false,"is_disabled":false,"rental_uris":{"android":"levelo://app?vid=39bf9e7f-bd9e-46b0-84fb-a4482e6eaab3","ios":"levelo://app?vid=39bf9e7f-bd9e-46b0-84fb-a4482e6eaab3"},"vehicle_type_id":"4","last_reported":1702577344,"current_range_meters":24000,"station_id":"ce4bhi12rcd13ifvqfp0","pricing_plan_id":"free"},{"bike_id":"b7637a5b-0329-45a7-bcd6-35358b19e8bd","system_id":"levelo_inurba_marseille","lat":43.239588,"lon":5.366238,"is_reserved":false,"is_disabled":false,"rental_uris":{"android":"levelo://app?vid=b7637a5b-0329-45a7-bcd6-35358b19e8bd","ios":"levelo://app?vid=b7637a5b-0329-45a7-bcd6-35358b19e8bd"},"vehicle_type_id":"4","last_reported":1702577344,"current_range_meters":15200,"station_id":"ce4bhi12rcd13ifvqfp0","pricing_plan_id":"free"},{"bike_id":"3a814a24-07d8-4e6f-9e30-e43634a525e4","system_id":"levelo_inurba_marseille","lat":43.23965,"lon":5.36639,"is_reserved":false,"is_disabled":false,"rental_uris":{"android":"levelo://app?vid=3a814a24-07d8-4e6f-9e30-e43634a525e4","ios":"levelo://app?vid=3a814a24-07d8-4e6f-9e30-e43634a525e4"},"vehicle_type_id":"4","last_reported":1702577344,"current_range_meters":6400,"station_id":"ce4bhi12rcd13ifvqfp0","pricing_plan_id":"free"},{"bike_id":"417c4bb2-53a9-4a4c-a128-5a6478c52446","system_id":"levelo_inurba_marseille","lat":43.23965,"lon":5.3663,"is_reserved":false,"is_disabled":false,"rental_uris":{"android":"levelo://app?vid=417c4bb2-53a9-4a4c-a128-5a6478c52446","ios":"levelo://app?vid=417c4bb2-53a9-4a4c-a128-5a6478c52446"},"vehicle_type_id":"4","last_reported":1702577344,"current_range_meters":23600,"station_id":"ce4bhi12rcd13ifvqfp0","pricing_plan_id":"free"},{"bike_id":"09e850ea-4841-45dc-8933-cb5bc12f1ec2","system_id":"levelo_inurba_marseille","lat":43.23965,"lon":5.366283,"is_reserved":false,"is_disabled":false,"rental_uris":{"android":"levelo://app?vid=09e850ea-4841-45dc-8933-cb5bc12f1ec2","ios":"levelo://app?vid=09e850ea-4841-45dc-8933-cb5bc12f1ec2"},"vehicle_type_id":"4","last_reported":1702577344,"current_range_meters":11600,"station_id":"ce4bhi12rcd13ifvqfp0","pricing_plan_id":"free"},{"bike_id":"1497ed62-688b-4d39-afdc-e76c42d6a7ae","system_id":"levelo_inurba_marseille","lat":43.23961,"lon":5.36624,"is_reserved":false,"is_disabled":false,"rental_uris":{"android":"levelo://app?vid=1497ed62-688b-4d39-afdc-e76c42d6a7ae","ios":"levelo://app?vid=1497ed62-688b-4d39-afdc-e76c42d6a7ae"},"vehicle_type_id":"4","last_reported":1702577344,"current_range_meters":24400,"station_id":"ce4bhi12rcd13ifvqfp0","pricing_plan_id":"free"},{"bike_id":"e121f6a5-34af-47af-a094-6832aa177f27","system_id":"levelo_inurba_marseille","lat":43.241782,"lon":5.397261,"is_reserved":false,"is_disabled":false,"rental_uris":{"android":"levelo://app?vid=e121f6a5-34af-47af-a094-6832aa177f27","ios":"levelo://app?vid=e121f6a5-34af-47af-a094-6832aa177f27"},"vehicle_type_id":"4","last_reported":1702577344,"current_range_meters":20000,"station_id":"ce4bhn12rcd13ifvqgpg","pricing_plan_id":"free"},{"bike_id":"c77e0dfa-2439-4c1f-881b-aeb674be6171","system_id":"levelo_inurba_marseille","lat":43.231919,"lon":5.355532,"is_reserved":false,"is_disabled":false,"rental_uris":{"android":"levelo://app?vid=c77e0dfa-2439-4c1f-881b-aeb674be6171","ios":"levelo://app?vid=c77e0dfa-2439-4c1f-881b-aeb674be6171"},"vehicle_type_id":"4","last_reported":1702577344,"current_range_meters":5200,"station_id":"ce4bhu92rcd13ifvqi70","pricing_plan_id":"free"},{"bike_id":"1c152701-4b2a-4bae-9910-af52ecb96d7d","system_id":"levelo_inurba_marseille","lat":43.23195,"lon":5.35555,"is_reserved":false,"is_disabled":false,"rental_uris":{"android":"levelo://app?vid=1c152701-4b2a-4bae-9910-af52ecb96d7d","ios":"levelo://app?vid=1c152701-4b2a-4bae-9910-af52ecb96d7d"},"vehicle_type_id":"4","last_reported":1702577344,"current_range_meters":18800,"station_id":"ce4bhu92rcd13ifvqi70","pricing_plan_id":"free"},{"bike_id":"5c56cc11-c1ca-430f-b898-95a1151d8a21","system_id":"levelo_inurba_marseille","lat":43.231919,"lon":5.355532,"is_reserved":false,"is_disabled":false,"rental_uris":{"android":"levelo://app?vid=5c56cc11-c1ca-430f-b898-95a1151d8a21","ios":"levelo://app?vid=5c56cc11-c1ca-430f-b898-95a1151d8a21"},"vehicle_type_id":"4","last_reported":1702577344,"current_range_meters":3600,"station_id":"ce4bhu92rcd13ifvqi70","pricing_plan_id":"free"},{"bike_id":"a77fff13-9f20-4e3b-b9d6-ff4e799f8066","system_id":"levelo_inurba_marseille","lat":43.231793,"lon":5.400044,"is_reserved":false,"is_disabled":false,"rental_uris":{"android":"levelo://app?vid=a77fff13-9f20-4e3b-b9d6-ff4e799f8066","ios":"levelo://app?vid=a77fff13-9f20-4e3b-b9d6-ff4e799f8066"},"vehicle_type_id":"4","last_reported":1702577344,"current_range_meters":31200,"station_id":"ce4bhn12rcd13ifvqgqg","pricing_plan_id":"free"},{"bike_id":"830d849e-9bc4-45c0-a5c3-bdc822c53da0","system_id":"levelo_inurba_marseille","lat":43.231794,"lon":5.400052,"is_reserved":false,"is_disabled":false,"rental_uris":{"android":"levelo://app?vid=830d849e-9bc4-45c0-a5c3-bdc822c53da0","ios":"levelo://app?vid=830d849e-9bc4-45c0-a5c3-bdc822c53da0"},"vehicle_type_id":"4","last_reported":1702577344,"current_range_meters":25600,"station_id":"ce4bhn12rcd13ifvqgqg","pricing_plan_id":"free"},{"bike_id":"dd7ed4dd-77c8-413e-9e14-33a4d651f1aa","system_id":"levelo_inurba_marseille","lat":43.231793,"lon":5.400044,"is_reserved":false,"is_disabled":false,"rental_uris":{"android":"levelo://app?vid=dd7ed4dd-77c8-413e-9e14-33a4d651f1aa","ios":"levelo://app?vid=dd7ed4dd-77c8-413e-9e14-33a4d651f1aa"},"vehicle_type_id":"4","last_reported":1702577344,"current_range_meters":30800,"station_id":"ce4bhn12rcd13ifvqgqg","pricing_plan_id":"free"},{"bike_id":"32517d1a-0587-47fa-be31-a7bdf69cd9d3","system_id":"levelo_inurba_marseille","lat":43.231793,"lon":5.400044,"is_reserved":false,"is_disabled":false,"rental_uris":{"android":"levelo://app?vid=32517d1a-0587-47fa-be31-a7bdf69cd9d3","ios":"levelo://app?vid=32517d1a-0587-47fa-be31-a7bdf69cd9d3"},"vehicle_type_id":"4","last_reported":1702577344,"current_range_meters":17200,"station_id":"ce4bhn12rcd13ifvqgqg","pricing_plan_id":"free"},{"bike_id":"4f8ef439-42bf-4c1a-95b1-d9092fd4ba19","system_id":"levelo_inurba_marseille","lat":43.231793,"lon":5.400044,"is_reserved":false,"is_disabled":false,"rental_uris":{"android":"levelo://app?vid=4f8ef439-42bf-4c1a-95b1-d9092fd4ba19","ios":"levelo://app?vid=4f8ef439-42bf-4c1a-95b1-d9092fd4ba19"},"vehicle_type_id":"4","last_reported":1702577344,"current_range_meters":14800,"station_id":"ce4bhn12rcd13ifvqgqg","pricing_plan_id":"free"},{"bike_id":"f346750a-928b-4acf-bbdc-b5446376e31e","system_id":"levelo_inurba_marseille","lat":43.231562,"lon":5.436933,"is_reserved":false,"is_disabled":false,"rental_uris":{"android":"levelo://app?vid=f346750a-928b-4acf-bbdc-b5446376e31e","ios":"levelo://app?vid=f346750a-928b-4acf-bbdc-b5446376e31e"},"vehicle_type_id":"4","last_reported":1702577344,"current_range_meters":16800,"station_id":"ce4bhmp2rcd13ifvqgog","pricing_plan_id":"free"}]}}