{"last_updated":1726679274,"ttl":30,"version":"2.2","data":{"bikes":[{"bike_id":"0288d614-6e4f-4934-ad15-cf509b72b6b9","system_id":"levelo_inurba_marseille","lat":43.27495,"lon":5.42443,"is_reserved":false,"is_disabled":false,"rental_uris":{"android":"levelo://app?vid=0288d614-6e4f-4934-ad15-cf509b72b6b9","ios":"levelo://app?vid=0288d614-6e4f-4934-ad15-cf509b72b6b9"},"vehicle_type_id":"4","last_reported":1726679274,"current_range_meters":39200,"station_id":"ce4bhn92rcd13ifvqgrg","pricing_plan_id":"cebpf4jnsgd1na2vs0mg"},{"bike_id":"0cfdef9f-2775-4b75-b72f-29f4c7b0d4a0","system_id":"levelo_inurba_marseille","lat":43.25585,"lon":5.38231,"is_reserved":false,"is_disabled":false,"rental_uris":{"android":"levelo://app?vid=0cfdef9f-2775-4b75-b72f-29f4c7b0d4a0","ios":"levelo://app?vid=0cfdef9f-2775-4b75-b72f-29f4c7b0d4a0"},"vehicle_type_id":"4","last_reported":1726679274,"current_range_meters":1600,"station_id":"ce4bhih2rcd13ifvqfs0","pricing_plan_id":"cebpf4jnsgd1na2vs0mg"},{"bike_id":"4e716995-f263-4f52-b2fb-2ed7cf45ae45","system_id":"levelo_inurba_marseille","lat":43.28279,"lon":5.35078,"is_reserved":false,"is_disabled":false,"rental_uris":{"android":"levelo://app?vid=4e716995-f263-4f52-b2fb-2ed7cf45ae45","ios":"levelo://app?vid=4e716995-f263-4f52-b2fb-2ed7cf45ae45"},"vehicle_type_id":"4","last_reported":1726679274,"current_range_meters":38800,"station_id":"ce4bhbp2rcd13ifvqerg","pricing_plan_id":"cebpf4jnsgd1na2vs0mg"},{"bike_id":"6cb80f7a-647c-431f-af80-0a5fa80b3e12","system_id":"levelo_inurba_marseille","lat":43.31328,"lon":5.39704,"is_reserved":false,"is_disabled":false,"rental_uris":{"android":"levelo://app?vid=6cb80f7a-647c-431f-af80-0a5fa80b3e12","ios":"levelo://app?vid=6cb80f7a-647c-431f-af80-0a5fa80b3e12"},"vehicle_type_id":"4","last_reported":1726679274,"current_range_meters":15200,"station_id":"ce4bgvp2rcd13ifvqcu0","pricing_plan_id":"cebpf4jnsgd1na2vs0mg"},{"bike_id":"10beda76-150f-4efb-bca2-740fe7f82a6e","system_id":"levelo_inurba_marseille","lat":43.24813,"lon":5.37459,"is_reserved":false,"is_disabled":false,"rental_uris":{"android":"levelo://app?vid=10beda76-150f-4efb-bca2-740fe7f82a6e","ios":"levelo://app?vid=10beda76-150f-4efb-bca2-740fe7f82a6e"},"vehicle_type_id":"4","last_reported":1726679274,"current_range_meters":12800,"station_id":"ce4bhgh2rcd13ifvqfb0","pricing_plan_id":"cebpf4jnsgd1na2vs0mg"},{"bike_id":"bc429879-8fad-4b8c-9e35-3b3be0e24853","system_id":"levelo_inurba_marseille","lat":43.27826,"lon":5.4069,"is_reserved":false,"is_disabled":false,"rental_uris":{"android":"levelo://app?vid=bc429879-8fad-4b8c-9e35-3b3be0e24853","ios":"levelo://app?vid=bc429879-8fad-4b8c-9e35-3b3be0e24853"},"vehicle_type_id":"4","last_reported":1726679274,"current_range_meters":18800,"station_id":"ce4bhnh2rcd13ifvqgtg","pricing_plan_id":"cebpf4jnsgd1na2vs0mg"},{"bike_id":"43176770-eaee-4996-86c7-d408161e4ce6","system_id":"levelo_inurba_marseille","lat":43.29896,"lon":5.43665,"is_reserved":false,"is_disabled":false,"rental_uris":{"android":"levelo://app?vid=43176770-eaee-4996-86c7-d408161e4ce6","ios":"levelo://app?vid=43176770-eaee-4996-86c7-d408161e4ce6"},"vehicle_type_id":"4","last_reported":1726679274,"current_range_meters":36400,"station_id":"ce4bhpp2rcd13ifvqhfg","pricing_plan_id":"cebpf4jnsgd1na2vs0mg"},{"bike_id":"12ca8798-d15b-49cc-a8e7-75f7c34ba400","system_id":"levelo_inurba_marseille","lat":43.33026,"lon":5.39044,"is_reserved":false,"is_disabled":false,"rental_uris":{"android":"levelo://app?vid=12ca8798-d15b-49cc-a8e7-75f7c34ba400","ios":"levelo://app?vid=12ca8798-d15b-49cc-a8e7-75f7c34ba400"},"vehicle_type_id":"4","last_reported":1726679274,"current_range_meters":33600,"station_id":"ce4bhr92rcd13ifvqhrg","pricing_plan_id":"cebpf4jnsgd1na2vs0mg"},{"bike_id":"e532fd53-ad12-4848-82ea-70ac934c1c37","system_id":"levelo_inurba_marseille","lat":43.337444,"lon":5.374475,"is_reserved":false,"is_disabled":false,"rental_uris":{"android":"levelo://app?vid=e532fd53-ad12-4848-82ea-70ac934c1c37","ios":"levelo://app?vid=e532fd53-ad12-4848-82ea-70ac934c1c37"},"vehicle_type_id":"4","last_reported":1726679274,"current_range_meters":19600,"station_id":"","pricing_plan_id":"cebpf4jnsgd1na2vs0mg"},{"bike_id":"c8e20382-87c6-4deb-af55-e3d4f338b3ae","system_id":"levelo_inurba_marseille","lat":43.29576,"lon":5.39984,"is_reserved":false,"is_disabled":false,"rental_uris":{"android":"levelo://app?vid=c8e20382-87c6-4deb-af55-e3d4f338b3ae","ios":"levelo://app?vid=c8e20382-87c6-4deb-af55-e3d4f338b3ae"},"vehicle_type_id":"4","last_reported":1726679274,"current_range_meters":30400,"station_id":"ce4bh312rcd13ifvqdj0","pricing_plan_id":"cebpf4jnsgd1na2vs0mg"},{"bike_id":"4e871cbb-8554-40d4-8be2-dd07b4559d20","system_id":"levelo_inurba_marseille","lat":43.28615,"lon":5.35102,"is_reserved":false,"is_disabled":false,"rental_uris":{"android":"levelo://app?vid=4e871cbb-8554-40d4-8be2-dd07b4559d20","ios":"levelo://app?vid=4e871cbb-8554-40d4-8be2-dd07b4559d20"},"vehicle_type_id":"4","last_reported":1726679274,"current_range_meters":8400,"station_id":"ce4bhch2rcd13ifvqeug","pricing_plan_id":"cebpf4jnsgd1na2vs0mg"},{"bike_id":"e9a2d1c9-a200-4702-a609-7ef33d141abf","system_id":"levelo_inurba_marseille","lat":43.28418,"lon":5.37513,"is_reserved":false,"is_disabled":false,"rental_uris":{"android":"levelo://app?vid=e9a2d1c9-a200-4702-a609-7ef33d141abf","ios":"levelo://app?vid=e9a2d1c9-a200-4702-a609-7ef33d141abf"},"vehicle_type_id":"4","last_reported":1726679274,"current_range_meters":37600,"station_id":"ce4bh412rcd13ifvqds0","pricing_plan_id":"cebpf4jnsgd1na2vs0mg"},{"bike_id":"39c3af03-53bd-4757-a5f2-ebdc844e6ac6","system_id":"levelo_inurba_marseille","lat":43.29524,"lon":5.39045,"is_reserved":false,"is_disabled":false,"rental_uris":{"android":"levelo://app?vid=39c3af03-53bd-4757-a5f2-ebdc844e6ac6","ios":"levelo://app?vid=39c3af03-53bd-4757-a5f2-ebdc844e6ac6"},"vehicle_type_id":"4","last_reported":1726679274,"current_range_meters":38400,"station_id":"ce4bh3p2rcd13ifvqdp0","pricing_plan_id":"cebpf4jnsgd1na2vs0mg"},{"bike_id":"0c678544-9aa1-4ba5-9e66-d483740f4b2f","system_id":"levelo_inurba_marseille","lat":43.25115,"lon":5.40317,"is_reserved":false,"is_disabled":false,"rental_uris":{"android":"levelo://app?vid=0c678544-9aa1-4ba5-9e66-d483740f4b2f","ios":"levelo://app?vid=0c678544-9aa1-4ba5-9e66-d483740f4b2f"},"vehicle_type_id":"4","last_reported":1726679274,"current_range_meters":38800,"station_id":"ce4bhlh2rcd13ifvqgig","pricing_plan_id":"cebpf4jnsgd1na2vs0mg"},{"bike_id":"1990f9ed-b0a9-4db5-8aa8-97b4d764c0af","system_id":"levelo_inurba_marseille","lat":43.26685,"lon":5.38273,"is_reserved":false,"is_disabled":false,"rental_uris":{"android":"levelo://app?vid=1990f9ed-b0a9-4db5-8aa8-97b4d764c0af","ios":"levelo://app?vid=1990f9ed-b0a9-4db5-8aa8-97b4d764c0af"},"vehicle_type_id":"4","last_reported":1726679274,"current_range_meters":38800,"station_id":"ce4bhg92rcd13ifvqf90","pricing_plan_id":"cebpf4jnsgd1na2vs0mg"},{"bike_id":"c351e4f9-3de5-4732-bc8f-8cff7151f81d","system_id":"levelo_inurba_marseille","lat":43.254944,"lon":5.376467,"is_reserved":false,"is_disabled":false,"rental_uris":{"android":"levelo://app?vid=c351e4f9-3de5-4732-bc8f-8cff7151f81d","ios":"levelo://app?vid=c351e4f9-3de5-4732-bc8f-8cff7151f81d"},"vehicle_type_id":"4","last_reported":1726679274,"current_range_meters":14400,"station_id":"ce4bhh12rcd13ifvqff0","pricing_plan_id":"cebpf4jnsgd1na2vs0mg"},{"bike_id":"c8b16021-ad4f-4c1b-80b1-7d1b9c811227","system_id":"levelo_inurba_marseille","lat":43.32361,"lon":5.3888,"is_reserved":false,"is_disabled":false,"rental_uris":{"android":"levelo://app?vid=c8b16021-ad4f-4c1b-80b1-7d1b9c811227","ios":"levelo://app?vid=c8b16021-ad4f-4c1b-80b1-7d1b9c811227"},"vehicle_type_id":"4","last_reported":1726679274,"current_range_meters":8800,"station_id":"ce4bhqp2rcd13ifvqhog","pricing_plan_id":"cebpf4jnsgd1na2vs0mg"},{"bike_id":"561d4ba4-2f28-41a1-b46d-f25b66314d3e","system_id":"levelo_inurba_marseille","lat":43.26953,"lon":5.38633,"is_reserved":false,"is_disabled":false,"rental_uris":{"android":"levelo://app?vid=561d4ba4-2f28-41a1-b46d-f25b66314d3e","ios":"levelo://app?vid=561d4ba4-2f28-41a1-b46d-f25b66314d3e"},"vehicle_type_id":"4","last_reported":1726679274,"current_range_meters":24000,"station_id":"ce4bhh92rcd13ifvqfh0","pricing_plan_id":"cebpf4jnsgd1na2vs0mg"},{"bike_id":"734aa74e-b926-4042-9aab-1e80809573f6","system_id":"levelo_inurba_marseille","lat":43.28155,"lon":5.40454,"is_reserved":false,"is_disabled":false,"rental_uris":{"android":"levelo://app?vid=734aa74e-b926-4042-9aab-1e80809573f6","ios":"levelo://app?vid=734aa74e-b926-4042-9aab-1e80809573f6"},"vehicle_type_id":"4","last_reported":1726679274,"current_range_meters":27200,"station_id":"","pricing_plan_id":"cebpf4jnsgd1na2vs0mg"},{"bike_id":"8a59d19b-d6dc-408f-9988-5247262fe47e","system_id":"levelo_inurba_marseille","lat":43.31492,"lon":5.37309,"is_reserved":false,"is_disabled":false,"rental_uris":{"android":"levelo://app?vid=8a59d19b-d6dc-408f-9988-5247262fe47e","ios":"levelo://app?vid=8a59d19b-d6dc-408f-9988-5247262fe47e"},"vehicle_type_id":"4","last_reported":1726679274,"current_range_meters":11200,"station_id":"ce4bgt12rcd13ifvqcd0","pricing_plan_id":"cebpf4jnsgd1na2vs0mg"},{"bike_id":"506a28f7-0798-49e4-b38f-f0bb95dda86f","system_id":"levelo_inurba_marseille","lat":43.32487,"lon":5.36572,"is_reserved":false,"is_disabled":false,"rental_uris":{"android":"levelo://app?vid=506a28f7-0798-49e4-b38f-f0bb95dda86f","ios":"levelo://app?vid=506a28f7-0798-49e4-b38f-f0bb95dda86f"},"vehicle_type_id":"4","last_reported":1726679274,"current_range_meters":34000,"station_id":"ce4bhs12rcd13ifvqhvg","pricing_plan_id":"cebpf4jnsgd1na2vs0mg"},{"bike_id":"af8acfe3-a61c-4557-b4aa-9e5540ec6475","system_id":"levelo_inurba_marseille","lat":43.29431,"lon":5.38626,"is_reserved":false,"is_disabled":false,"rental_uris":{"android":"levelo://app?vid=af8acfe3-a61c-4557-b4aa-9e5540ec6475","ios":"levelo://app?vid=af8acfe3-a61c-4557-b4aa-9e5540ec6475"},"vehicle_type_id":"4","last_reported":1726679274,"current_range_meters":10800,"station_id":"ce4bh2h2rcd13ifvqdh0","pricing_plan_id":"cebpf4jnsgd1na2vs0mg"},{"bike_id":"90d40abe-b095-4f0b-8811-2a51c6549295","system_id":"levelo_inurba_marseille","lat":43.26057,"lon":5.39397,"is_reserved":false,"is_disabled":false,"rental_uris":{"android":"levelo://app?vid=90d40abe-b095-4f0b-8811-2a51c6549295","ios":"levelo://app?vid=90d40abe-b095-4f0b-8811-2a51c6549295"},"vehicle_type_id":"4","last_reported":1726679274,"current_range_meters":37600,"station_id":"ce4bhh92rcd13ifvqfj0","pricing_plan_id":"cebpf4jnsgd1na2vs0mg"},{"bike_id":"ef213364-50e1-4d63-9262-f21b34b986a7","system_id":"levelo_inurba_marseille","lat":43.24649,"lon":5.388929,"is_reserved":false,"is_disabled":false,"rental_uris":{"android":"levelo://app?vid=ef213364-50e1-4d63-9262-f21b34b986a7","ios":"levelo://app?vid=ef213364-50e1-4d63-9262-f21b34b986a7"},"vehicle_type_id":"4","last_reported":1726679274,"current_range_meters":22400,"station_id":"ce4bhg12rcd13ifvqf60","pricing_plan_id":"cebpf4jnsgd1na2vs0mg"},{"bike_id":"3ceb4910-26dd-4e94-a3d0-4274cb5a83f0","system_id":"levelo_inurba_marseille","lat":43.30117,"lon":5.40289,"is_reserved":false,"is_disabled":false,"rental_uris":{"android":"levelo://app?vid=3ceb4910-26dd-4e94-a3d0-4274cb5a83f0","ios":"levelo://app?vid=3ceb4910-26dd-4e94-a3d0-4274cb5a83f0"},"vehicle_type_id":"4","last_reported":1726679274,"current_range_meters":6400,"station_id":"","pricing_plan_id":"cebpf4jnsgd1na2vs0mg"},{"bike_id":"54cb88f3-3c1e-4504-a0c1-819f2facd717","system_id":"levelo_inurba_marseille","lat":43.26956,"lon":5.38617,"is_reserved":false,"is_disabled":false,"rental_uris":{"android":"levelo://app?vid=54cb88f3-3c1e-4504-a0c1-819f2facd717","ios":"levelo://app?vid=54cb88f3-3c1e-4504-a0c1-819f2facd717"},"vehicle_type_id":"4","last_reported":1726679274,"current_range_meters":35600,"station_id":"ce4bhh92rcd13ifvqfh0","pricing_plan_id":"cebpf4jnsgd1na2vs0mg"},{"bike_id":"c237469d-fba8-4677-b61a-2ff309876e60","system_id":"levelo_inurba_marseille","lat":43.26492,"lon":5.39542,"is_reserved":false,"is_disabled":false,"rental_uris":{"android":"levelo://app?vid=c237469d-fba8-4677-b61a-2ff309876e60","ios":"levelo://app?vid=c237469d-fba8-4677-b61a-2ff309876e60"},"vehicle_type_id":"4","last_reported":1726679274,"current_range_meters":25200,"station_id":"ce4bhi12rcd13ifvqfq0","pricing_plan_id":"cebpf4jnsgd1na2vs0mg"},{"bike_id":"5c20a958-d490-41db-84a7-f9730ee7ce03","system_id":"levelo_inurba_marseille","lat":43.29572,"lon":5.39954,"is_reserved":false,"is_disabled":false,"rental_uris":{"android":"levelo://app?vid=5c20a958-d490-41db-84a7-f9730ee7ce03","ios":"levelo://app?vid=5c20a958-d490-41db-84a7-f9730ee7ce03"},"vehicle_type_id":"4","last_reported":1726679274,"current_range_meters":24000,"station_id":"ce4bh312rcd13ifvqdj0","pricing_plan_id":"cebpf4jnsgd1na2vs0mg"},{"bike_id":"dc9e96dd-b213-42d3-b6b5-3108bdf53cf2","system_id":"levelo_inurba_marseille","lat":43.28113,"lon":5.37844,"is_reserved":false,"is_disabled":false,"rental_uris":{"android":"levelo://app?vid=dc9e96dd-b213-42d3-b6b5-3108bdf53cf2","ios":"levelo://app?vid=dc9e96dd-b213-42d3-b6b5-3108bdf53cf2"},"vehicle_type_id":"4","last_reported":1726679274,"current_range_meters":25600,"station_id":"ce4bha12rcd13ifvqee0","pricing_plan_id":"cebpf4jnsgd1na2vs0mg"},{"bike_id":"ab8b1643-9e7f-47cc-b599-33f414e2c958","system_id":"levelo_inurba_marseille","lat":43.23181,"lon":5.4,"is_reserved":false,"is_disabled":false,"rental_uris":{"android":"levelo://app?vid=ab8b1643-9e7f-47cc-b599-33f414e2c958","ios":"levelo://app?vid=ab8b1643-9e7f-47cc-b599-33f414e2c958"},"vehicle_type_id":"4","last_reported":1726679274,"current_range_meters":38800,"station_id":"ce4bhn12rcd13ifvqgqg","pricing_plan_id":"cebpf4jnsgd1na2vs0mg"},{"bike_id":"3219537e-a96e-44ff-b65a-d55caf5ddd5e","system_id":"levelo_inurba_marseille","lat":43.31333,"lon":5.39697,"is_reserved":false,"is_disabled":false,"rental_uris":{"android":"levelo://app?vid=3219537e-a96e-44ff-b65a-d55caf5ddd5e","ios":"levelo://app?vid=3219537e-a96e-44ff-b65a-d55caf5ddd5e"},"vehicle_type_id":"4","last_reported":1726679274,"current_range_meters":30000,"station_id":"ce4bgvp2rcd13ifvqcu0","pricing_plan_id":"cebpf4jnsgd1na2vs0mg"},{"bike_id":"c2667222-5d26-4d9c-a938-761c480fe584","system_id":"levelo_inurba_marseille","lat":43.33024,"lon":5.39049,"is_reserved":false,"is_disabled":false,"rental_uris":{"android":"levelo://app?vid=c2667222-5d26-4d9c-a938-761c480fe584","ios":"levelo://app?vid=c2667222-5d26-4d9c-a938-761c480fe584"},"vehicle_type_id":"4","last_reported":1726679274,"current_range_meters":9600,"station_id":"ce4bhr92rcd13ifvqhrg","pricing_plan_id":"cebpf4jnsgd1na2vs0mg"},{"bike_id":"aed6cbe4-6d99-4ad7-8a0c-d2c4d91e8e39","system_id":"levelo_inurba_marseille","lat":43.29033,"lon":5.38642,"is_reserved":false,"is_disabled":false,"rental_uris":{"android":"levelo://app?vid=aed6cbe4-6d99-4ad7-8a0c-d2c4d91e8e39","ios":"levelo://app?vid=aed6cbe4-6d99-4ad7-8a0c-d2c4d91e8e39"},"vehicle_type_id":"4","last_reported":1726679274,"current_range_meters":33200,"station_id":"ce4bh4p2rcd13ifvqe0g","pricing_plan_id":"cebpf4jnsgd1na2vs0mg"},{"bike_id":"589e3a23-e0c2-46f4-b3ab-9ac43e28abdd","system_id":"levelo_inurba_marseille","lat":43.26951,"lon":5.38635,"is_reserved":false,"is_disabled":false,"rental_uris":{"android":"levelo://app?vid=589e3a23-e0c2-46f4-b3ab-9ac43e28abdd","ios":"levelo://app?vid=589e3a23-e0c2-46f4-b3ab-9ac43e28abdd"},"vehicle_type_id":"4","last_reported":1726679274,"current_range_meters":2000,"station_id":"ce4bhh92rcd13ifvqfh0","pricing_plan_id":"cebpf4jnsgd1na2vs0mg"},{"bike_id":"67862bba-f398-466f-ba35-b4de292b2526","system_id":"levelo_inurba_marseille","lat":43.2572,"lon":5.41011,"is_reserved":false,"is_disabled":false,"rental_uris":{"android":"levelo://app?vid=67862bba-f398-466f-ba35-b4de292b2526","ios":"levelo://app?vid=67862bba-f398-466f-ba35-b4de292b2526"},"vehicle_type_id":"4","last_reported":1726679274,"current_range_meters":37600,"station_id":"ce4bhkp2rcd13ifvqgd0","pricing_plan_id":"cebpf4jnsgd1na2vs0mg"},{"bike_id":"cc1dd5f0-1844-4f0b-8301-8a6f344e2631","system_id":"levelo_inurba_marseille","lat":43.29364,"lon":5.377232,"is_reserved":false,"is_disabled":false,"rental_uris":{"android":"levelo://app?vid=cc1dd5f0-1844-4f0b-8301-8a6f344e2631","ios":"levelo://app?vid=cc1dd5f0-1844-4f0b-8301-8a6f344e2631"},"vehicle_type_id":"4","last_reported":1726679274,"current_range_meters":24400,"station_id":"ce4bh292rcd13ifvqdg0","pricing_plan_id":"cebpf4jnsgd1na2vs0mg"},{"bike_id":"9d460578-e1f0-4190-a0bf-74fdadbe81b1","system_id":"levelo_inurba_marseille","lat":43.295868,"lon":5.375224,"is_reserved":false,"is_disabled":false,"rental_uris":{"android":"levelo://app?vid=9d460578-e1f0-4190-a0bf-74fdadbe81b1","ios":"levelo://app?vid=9d460578-e1f0-4190-a0bf-74fdadbe81b1"},"vehicle_type_id":"4","last_reported":1726679274,"current_range_meters":38800,"station_id":"ce4bgh92rcd13ifvqb50","pricing_plan_id":"cebpf4jnsgd1na2vs0mg"},{"bike_id":"b9cb4c6e-dcde-446e-b8b4-d7850a978090","system_id":"levelo_inurba_marseille","lat":43.28861,"lon":5.35857,"is_reserved":false,"is_disabled":false,"rental_uris":{"android":"levelo://app?vid=b9cb4c6e-dcde-446e-b8b4-d7850a978090","ios":"levelo://app?vid=b9cb4c6e-dcde-446e-b8b4-d7850a978090"},"vehicle_type_id":"4","last_reported":1726679274,"current_range_meters":6400,"station_id":"ce4bhb12rcd13ifvqem0","pricing_plan_id":"cebpf4jnsgd1na2vs0mg"},{"bike_id":"931c5a36-8b3a-4600-b14c-236a329f5b5c","system_id":"levelo_inurba_marseille","lat":43.24808,"lon":5.37454,"is_reserved":false,"is_disabled":false,"rental_uris":{"android":"levelo://app?vid=931c5a36-8b3a-4600-b14c-236a329f5b5c","ios":"levelo://app?vid=931c5a36-8b3a-4600-b14c-236a329f5b5c"},"vehicle_type_id":"4","last_reported":1726679274,"current_range_meters":6000,"station_id":"ce4bhgh2rcd13ifvqfb0","pricing_plan_id":"cebpf4jnsgd1na2vs0mg"},{"bike_id":"7a94793a-c43d-4243-a504-ed349e919ae9","system_id":"levelo_inurba_marseille","lat":43.28423,"lon":5.34972,"is_reserved":false,"is_disabled":false,"rental_uris":{"android":"levelo://app?vid=7a94793a-c43d-4243-a504-ed349e919ae9","ios":"levelo://app?vid=7a94793a-c43d-4243-a504-ed349e919ae9"},"vehicle_type_id":"4","last_reported":1726679274,"current_range_meters":17200,"station_id":"ce4bhbh2rcd13ifvqepg","pricing_plan_id":"cebpf4jnsgd1na2vs0mg"},{"bike_id":"f73cab25-e77c-47a3-8def-b8875f74ecae","system_id":"levelo_inurba_marseille","lat":43.27832,"lon":5.39203,"is_reserved":false,"is_disabled":false,"rental_uris":{"android":"levelo://app?vid=f73cab25-e77c-47a3-8def-b8875f74ecae","ios":"levelo://app?vid=f73cab25-e77c-47a3-8def-b8875f74ecae"},"vehicle_type_id":"4","last_reported":1726679274,"current_range_meters":9200,"station_id":"ce4bhjp2rcd13ifvqga0","pricing_plan_id":"cebpf4jnsgd1na2vs0mg"},{"bike_id":"0dd3cd64-9b1b-470d-90e1-cb799c6f2a9b","system_id":"levelo_inurba_marseille","lat":43.24071,"lon":5.37763,"is_reserved":false,"is_disabled":false,"rental_uris":{"android":"levelo://app?vid=0dd3cd64-9b1b-470d-90e1-cb799c6f2a9b","ios":"levelo://app?vid=0dd3cd64-9b1b-470d-90e1-cb799c6f2a9b"},"vehicle_type_id":"4","last_reported":1726679274,"current_range_meters":26800,"station_id":"ce4bhnp2rcd13ifvqgvg","pricing_plan_id":"cebpf4jnsgd1na2vs0mg"},{"bike_id":"c7f93bf2-2b30-4c5c-aa72-447b3f4a28ea","system_id":"levelo_inurba_marseille","lat":43.29897,"lon":5.43659,"is_reserved":false,"is_disabled":false,"rental_uris":{"android":"levelo://app?vid=c7f93bf2-2b30-4c5c-aa72-447b3f4a28ea","ios":"levelo://app?vid=c7f93bf2-2b30-4c5c-aa72-447b3f4a28ea"},"vehicle_type_id":"4","last_reported":1726679274,"current_range_meters":2800,"station_id":"ce4bhpp2rcd13ifvqhfg","pricing_plan_id":"cebpf4jnsgd1na2vs0mg"},{"bike_id":"fb69a10c-cc57-41dd-adbd-141a94056917","system_id":"levelo_inurba_marseille","lat":43.25826,"lon":5.39433,"is_reserved":false,"is_disabled":false,"rental_uris":{"android":"levelo://app?vid=fb69a10c-cc57-41dd-adbd-141a94056917","ios":"levelo://app?vid=fb69a10c-cc57-41dd-adbd-141a94056917"},"vehicle_type_id":"4","last_reported":1726679274,"current_range_meters":4800,"station_id":"ce4bhip2rcd13ifvqft0","pricing_plan_id":"cebpf4jnsgd1na2vs0mg"},{"bike_id":"f62c9cc3-57d8-428a-8e2b-d0c1f14897b1","system_id":"levelo_inurba_marseille","lat":43.298,"lon":5.4041,"is_reserved":false,"is_disabled":false,"rental_uris":{"android":"levelo://app?vid=f62c9cc3-57d8-428a-8e2b-d0c1f14897b1","ios":"levelo://app?vid=f62c9cc3-57d8-428a-8e2b-d0c1f14897b1"},"vehicle_type_id":"4","last_reported":1726679274,"current_range_meters":22400,"station_id":"ce4bh112rcd13ifvqd90","pricing_plan_id":"cebpf4jnsgd1na2vs0mg"},{"bike_id":"096f29f8-3b34-4fac-afbc-13bacdbf7f7f","system_id":"levelo_inurba_marseille","lat":43.2945,"lon":5.39753,"is_reserved":false,"is_disabled":false,"rental_uris":{"android":"levelo://app?vid=096f29f8-3b34-4fac-afbc-13bacdbf7f7f","ios":"levelo://app?vid=096f29f8-3b34-4fac-afbc-13bacdbf7f7f"},"vehicle_type_id":"4","last_reported":1726679274,"current_range_meters":26800,"station_id":"ce4bh3h2rcd13ifvqdo0","pricing_plan_id":"cebpf4jnsgd1na2vs0mg"},{"bike_id":"4184ae79-b202-41ad-bd62-ab7e9e3e5e22","system_id":"levelo_inurba_marseille","lat":43.25504,"lon":5.37649,"is_reserved":false,"is_disabled":false,"rental_uris":{"android":"levelo://app?vid=4184ae79-b202-41ad-bd62-ab7e9e3e5e22","ios":"levelo://app?vid=4184ae79-b202-41ad-bd62-ab7e9e3e5e22"},"vehicle_type_id":"4","last_reported":1726679274,"current_range_meters":10000,"station_id":"ce4bhh12rcd13ifvqff0","pricing_plan_id":"cebpf4jnsgd1na2vs0mg"},{"bike_id":"8f63ed9f-0d3a-4ab5-baf2-ef0c4ac64707","system_id":"levelo_inurba_marseille","lat":43.29548,"lon":5.42283,"is_reserved":false,"is_disabled":false,"rental_uris":{"android":"levelo://app?vid=8f63ed9f-0d3a-4ab5-baf2-ef0c4ac64707","ios":"levelo://app?vid=8f63ed9f-0d3a-4ab5-baf2-ef0c4ac64707"},"vehicle_type_id":"4","last_reported":1726679274,"current_range_meters":28000,"station_id":"ce4bhph2rcd13ifvqhdg","pricing_plan_id":"cebpf4jnsgd1na2vs0mg"},{"bike_id":"5a435d20-e741-4c99-8b4a-0be900c78fe1","system_id":"levelo_inurba_marseille","lat":43.27966,"lon":5.38719,"is_reserved":false,"is_disabled":false,"rental_uris":{"android":"levelo://app?vid=5a435d20-e741-4c99-8b4a-0be900c78fe1","ios":"levelo://app?vid=5a435d20-e741-4c99-8b4a-0be900c78fe1"},"vehicle_type_id":"4","last_reported":1726679274,"current_range_meters":36800,"station_id":"ce4bhg12rcd13ifvqf80","pricing_plan_id":"cebpf4jnsgd1na2vs0mg"},{"bike_id":"781a3a17-a084-4b3b-bb87-058c31843f74","system_id":"levelo_inurba_marseille","lat":43.31485,"lon":5.373075,"is_reserved":false,"is_disabled":false,"rental_uris":{"android":"levelo://app?vid=781a3a17-a084-4b3b-bb87-058c31843f74","ios":"levelo://app?vid=781a3a17-a084-4b3b-bb87-058c31843f74"},"vehicle_type_id":"4","last_reported":1726679274,"current_range_meters":14400,"station_id":"ce4bgt12rcd13ifvqcd0","pricing_plan_id":"cebpf4jnsgd1na2vs0mg"},{"bike_id":"820a45f7-689d-4f8a-8fdd-612ec6a946b7","system_id":"levelo_inurba_marseille","lat":43.28261,"lon":5.35068,"is_reserved":false,"is_disabled":false,"rental_uris":{"android":"levelo://app?vid=820a45f7-689d-4f8a-8fdd-612ec6a946b7","ios":"levelo://app?vid=820a45f7-689d-4f8a-8fdd-612ec6a946b7"},"vehicle_type_id":"4","last_reported":1726679274,"current_range_meters":8800,"station_id":"ce4bhbp2rcd13ifvqerg","pricing_plan_id":"cebpf4jnsgd1na2vs0mg"},{"bike_id":"a456174f-95a7-4903-b784-ae6d60f8303d","system_id":"levelo_inurba_marseille","lat":43.28577,"lon":5.39493,"is_reserved":false,"is_disabled":false,"rental_uris":{"android":"levelo://app?vid=a456174f-95a7-4903-b784-ae6d60f8303d","ios":"levelo://app?vid=a456174f-95a7-4903-b784-ae6d60f8303d"},"vehicle_type_id":"4","last_reported":1726679274,"current_range_meters":18800,"station_id":"cjm6bp8fraef2m0cb0m0","pricing_plan_id":"cebpf4jnsgd1na2vs0mg"},{"bike_id":"5d78b308-9505-4ed0-832a-dc6eb31a5971","system_id":"levelo_inurba_marseille","lat":43.25583,"lon":5.38243,"is_reserved":false,"is_disabled":false,"rental_uris":{"android":"levelo://app?vid=5d78b308-9505-4ed0-832a-dc6eb31a5971","ios":"levelo://app?vid=5d78b308-9505-4ed0-832a-dc6eb31a5971"},"vehicle_type_id":"4","last_reported":1726679274,"current_range_meters":25200,"station_id":"ce4bhih2rcd13ifvqfs0","pricing_plan_id":"cebpf4jnsgd1na2vs0mg"},{"bike_id":"7cc5316a-0d72-417b-adb3-a2c2a63c300c","system_id":"levelo_inurba_marseille","lat":43.28616,"lon":5.37072,"is_reserved":false,"is_disabled":false,"rental_uris":{"android":"levelo://app?vid=7cc5316a-0d72-417b-adb3-a2c2a63c300c","ios":"levelo://app?vid=7cc5316a-0d72-417b-adb3-a2c2a63c300c"},"vehicle_type_id":"4","last_reported":1726679274,"current_range_meters":27200,"station_id":"ce4bht12rcd13ifvqi60","pricing_plan_id":"cebpf4jnsgd1na2vs0mg"},{"bike_id":"89d2e671-f0b9-44b6-9f35-a805a345c1b2","system_id":"levelo_inurba_marseille","lat":43.29033,"lon":5.38652,"is_reserved":false,"is_disabled":false,"rental_uris":{"android":"levelo://app?vid=89d2e671-f0b9-44b6-9f35-a805a345c1b2","ios":"levelo://app?vid=89d2e671-f0b9-44b6-9f35-a805a345c1b2"},"vehicle_type_id":"4","last_reported":1726679274,"current_range_meters":14800,"station_id":"ce4bh4p2rcd13ifvqe0g","pricing_plan_id":"cebpf4jnsgd1na2vs0mg"},{"bike_id":"7a795971-b5fd-4366-868f-8bf46f015c47","system_id":"levelo_inurba_marseille","lat":43.29573,"lon":5.39982,"is_reserved":false,"is_disabled":false,"rental_uris":{"android":"levelo://app?vid=7a795971-b5fd-4366-868f-8bf46f015c47","ios":"levelo://app?vid=7a795971-b5fd-4366-868f-8bf46f015c47"},"vehicle_type_id":"4","last_reported":1726679274,"current_range_meters":29600,"station_id":"ce4bh312rcd13ifvqdj0","pricing_plan_id":"cebpf4jnsgd1na2vs0mg"},{"bike_id":"24619a50-6d5c-4674-ba96-86ab031c2209","system_id":"levelo_inurba_marseille","lat":43.29282,"lon":5.40121,"is_reserved":false,"is_disabled":false,"rental_uris":{"android":"levelo://app?vid=24619a50-6d5c-4674-ba96-86ab031c2209","ios":"levelo://app?vid=24619a50-6d5c-4674-ba96-86ab031c2209"},"vehicle_type_id":"4","last_reported":1726679274,"current_range_meters":16000,"station_id":"ce4bh312rcd13ifvqdk0","pricing_plan_id":"cebpf4jnsgd1na2vs0mg"},{"bike_id":"98bf5441-fc4c-417c-9a29-c8adbc09b12d","system_id":"levelo_inurba_marseille","lat":43.28462,"lon":5.35887,"is_reserved":false,"is_disabled":false,"rental_uris":{"android":"levelo://app?vid=98bf5441-fc4c-417c-9a29-c8adbc09b12d","ios":"levelo://app?vid=98bf5441-fc4c-417c-9a29-c8adbc09b12d"},"vehicle_type_id":"4","last_reported":1726679274,"current_range_meters":8800,"station_id":"ce4bhah2rcd13ifvqei0","pricing_plan_id":"cebpf4jnsgd1na2vs0mg"},{"bike_id":"938a1d8e-8f7a-4dbb-a7f7-9b765b9ff51b","system_id":"levelo_inurba_marseille","lat":43.27613,"lon":5.361,"is_reserved":false,"is_disabled":false,"rental_uris":{"android":"levelo://app?vid=938a1d8e-8f7a-4dbb-a7f7-9b765b9ff51b","ios":"levelo://app?vid=938a1d8e-8f7a-4dbb-a7f7-9b765b9ff51b"},"vehicle_type_id":"4","last_reported":1726679274,"current_range_meters":27200,"station_id":"ce4bgj92rcd13ifvqbe0","pricing_plan_id":"cebpf4jnsgd1na2vs0mg"},{"bike_id":"fa77e604-95b4-476d-a30f-499c3aaf710d","system_id":"levelo_inurba_marseille","lat":43.33724,"lon":5.39176,"is_reserved":false,"is_disabled":false,"rental_uris":{"android":"levelo://app?vid=fa77e604-95b4-476d-a30f-499c3aaf710d","ios":"levelo://app?vid=fa77e604-95b4-476d-a30f-499c3aaf710d"},"vehicle_type_id":"4","last_reported":1726679274,"current_range_meters":11200,"station_id":"ce4bhr92rcd13ifvqhsg","pricing_plan_id":"cebpf4jnsgd1na2vs0mg"},{"bike_id":"d35e1a72-b703-49bc-bba6-f5de9c5fd6a8","system_id":"levelo_inurba_marseille","lat":43.33024,"lon":5.39035,"is_reserved":false,"is_disabled":false,"rental_uris":{"android":"levelo://app?vid=d35e1a72-b703-49bc-bba6-f5de9c5fd6a8","ios":"levelo://app?vid=d35e1a72-b703-49bc-bba6-f5de9c5fd6a8"},"vehicle_type_id":"4","last_reported":1726679274,"current_range_meters":22800,"station_id":"ce4bhr92rcd13ifvqhrg","pricing_plan_id":"cebpf4jnsgd1na2vs0mg"},{"bike_id":"6bea07ff-b7cf-43d7-9614-efd55ed0f2d6","system_id":"levelo_inurba_marseille","lat":43.24654,"lon":5.38893,"is_reserved":false,"is_disabled":false,"rental_uris":{"android":"levelo://app?vid=6bea07ff-b7cf-43d7-9614-efd55ed0f2d6","ios":"levelo://app?vid=6bea07ff-b7cf-43d7-9614-efd55ed0f2d6"},"vehicle_type_id":"4","last_reported":1726679274,"current_range_meters":30000,"station_id":"ce4bhg12rcd13ifvqf60","pricing_plan_id":"cebpf4jnsgd1na2vs0mg"},{"bike_id":"5304ed70-fad3-470c-b0c3-63f08a2a0a36","system_id":"levelo_inurba_marseille","lat":43.31328,"lon":5.39684,"is_reserved":false,"is_disabled":false,"rental_uris":{"android":"levelo://app?vid=5304ed70-fad3-470c-b0c3-63f08a2a0a36","ios":"levelo://app?vid=5304ed70-fad3-470c-b0c3-63f08a2a0a36"},"vehicle_type_id":"4","last_reported":1726679274,"current_range_meters":18000,"station_id":"ce4bgvp2rcd13ifvqcu0","pricing_plan_id":"cebpf4jnsgd1na2vs0mg"},{"bike_id":"5763f812-9ee1-4f4a-a07f-34c006a71215","system_id":"levelo_inurba_marseille","lat":43.26196,"lon":5.37446,"is_reserved":false,"is_disabled":false,"rental_uris":{"android":"levelo://app?vid=5763f812-9ee1-4f4a-a07f-34c006a71215","ios":"levelo://app?vid=5763f812-9ee1-4f4a-a07f-34c006a71215"},"vehicle_type_id":"4","last_reported":1726679274,"current_range_meters":10800,"station_id":"ce4bhgp2rcd13ifvqfc0","pricing_plan_id":"cebpf4jnsgd1na2vs0mg"},{"bike_id":"cea73351-bf16-4a31-9d86-68bb9990d89a","system_id":"levelo_inurba_marseille","lat":43.32487,"lon":5.36569,"is_reserved":false,"is_disabled":false,"rental_uris":{"android":"levelo://app?vid=cea73351-bf16-4a31-9d86-68bb9990d89a","ios":"levelo://app?vid=cea73351-bf16-4a31-9d86-68bb9990d89a"},"vehicle_type_id":"4","last_reported":1726679274,"current_range_meters":4400,"station_id":"ce4bhs12rcd13ifvqhvg","pricing_plan_id":"cebpf4jnsgd1na2vs0mg"},{"bike_id":"9be94feb-a495-4651-8693-da9a946157ae","system_id":"levelo_inurba_marseille","lat":43.25005,"lon":5.3891,"is_reserved":false,"is_disabled":false,"rental_uris":{"android":"levelo://app?vid=9be94feb-a495-4651-8693-da9a946157ae","ios":"levelo://app?vid=9be94feb-a495-4651-8693-da9a946157ae"},"vehicle_type_id":"4","last_reported":1726679274,"current_range_meters":22000,"station_id":"ce4bhgp2rcd13ifvqfd0","pricing_plan_id":"cebpf4jnsgd1na2vs0mg"},{"bike_id":"1d7380bc-f6a9-4388-9188-755564b0eec4","system_id":"levelo_inurba_marseille","lat":43.24167,"lon":5.36388,"is_reserved":false,"is_disabled":false,"rental_uris":{"android":"levelo://app?vid=1d7380bc-f6a9-4388-9188-755564b0eec4","ios":"levelo://app?vid=1d7380bc-f6a9-4388-9188-755564b0eec4"},"vehicle_type_id":"4","last_reported":1726679274,"current_range_meters":25200,"station_id":"cpo36qri1sfpv3e86is0","pricing_plan_id":"cebpf4jnsgd1na2vs0mg"},{"bike_id":"c62f1230-0a2f-4249-a200-adcef78073a6","system_id":"levelo_inurba_marseille","lat":43.22932,"lon":5.35373,"is_reserved":false,"is_disabled":false,"rental_uris":{"android":"levelo://app?vid=c62f1230-0a2f-4249-a200-adcef78073a6","ios":"levelo://app?vid=c62f1230-0a2f-4249-a200-adcef78073a6"},"vehicle_type_id":"4","last_reported":1726679274,"current_range_meters":38800,"station_id":"cpo3532slgdg3j2ikp40","pricing_plan_id":"cebpf4jnsgd1na2vs0mg"},{"bike_id":"53773973-4df1-49a3-b879-f53c2d0c8602","system_id":"levelo_inurba_marseille","lat":43.3014,"lon":5.3878,"is_reserved":false,"is_disabled":false,"rental_uris":{"android":"levelo://app?vid=53773973-4df1-49a3-b879-f53c2d0c8602","ios":"levelo://app?vid=53773973-4df1-49a3-b879-f53c2d0c8602"},"vehicle_type_id":"4","last_reported":1726679274,"current_range_meters":18800,"station_id":"ce4bh2h2rcd13ifvqdh0","pricing_plan_id":"cebpf4jnsgd1na2vs0mg"},{"bike_id":"253bea6a-c916-49a6-92cc-c82d6476713d","system_id":"levelo_inurba_marseille","lat":43.30222,"lon":5.39464,"is_reserved":false,"is_disabled":false,"rental_uris":{"android":"levelo://app?vid=253bea6a-c916-49a6-92cc-c82d6476713d","ios":"levelo://app?vid=253bea6a-c916-49a6-92cc-c82d6476713d"},"vehicle_type_id":"4","last_reported":1726679274,"current_range_meters":22000,"station_id":"ce4bh0p2rcd13ifvqd70","pricing_plan_id":"cebpf4jnsgd1na2vs0mg"},{"bike_id":"f7705b38-2967-44ef-9b81-eeccc665a396","system_id":"levelo_inurba_marseille","lat":43.304258,"lon":5.412944,"is_reserved":false,"is_disabled":false,"rental_uris":{"android":"levelo://app?vid=f7705b38-2967-44ef-9b81-eeccc665a396","ios":"levelo://app?vid=f7705b38-2967-44ef-9b81-eeccc665a396"},"vehicle_type_id":"4","last_reported":1726679274,"current_range_meters":16800,"station_id":"ce4bhop2rcd13ifvqh8g","pricing_plan_id":"cebpf4jnsgd1na2vs0mg"},{"bike_id":"62f18582-9985-41b4-b26d-1a1a3ca971c0","system_id":"levelo_inurba_marseille","lat":43.302429,"lon":5.400733,"is_reserved":false,"is_disabled":false,"rental_uris":{"android":"levelo://app?vid=62f18582-9985-41b4-b26d-1a1a3ca971c0","ios":"levelo://app?vid=62f18582-9985-41b4-b26d-1a1a3ca971c0"},"vehicle_type_id":"4","last_reported":1726679274,"current_range_meters":26000,"station_id":"ce4bgvh2rcd13ifvqcs0","pricing_plan_id":"cebpf4jnsgd1na2vs0mg"},{"bike_id":"b645ac77-0d58-4fa9-8ad3-947af8bdb1d9","system_id":"levelo_inurba_marseille","lat":43.299,"lon":5.43667,"is_reserved":false,"is_disabled":false,"rental_uris":{"android":"levelo://app?vid=b645ac77-0d58-4fa9-8ad3-947af8bdb1d9","ios":"levelo://app?vid=b645ac77-0d58-4fa9-8ad3-947af8bdb1d9"},"vehicle_type_id":"4","last_reported":1726679274,"current_range_meters":18000,"station_id":"ce4bhpp2rcd13ifvqhfg","pricing_plan_id":"cebpf4jnsgd1na2vs0mg"},{"bike_id":"926f0d6e-e67c-47dd-983b-0885b342ac8f","system_id":"levelo_inurba_marseille","lat":43.28615,"lon":5.35108,"is_reserved":false,"is_disabled":false,"rental_uris":{"android":"levelo://app?vid=926f0d6e-e67c-47dd-983b-0885b342ac8f","ios":"levelo://app?vid=926f0d6e-e67c-47dd-983b-0885b342ac8f"},"vehicle_type_id":"4","last_reported":1726679274,"current_range_meters":38800,"station_id":"ce4bhch2rcd13ifvqeug","pricing_plan_id":"cebpf4jnsgd1na2vs0mg"},{"bike_id":"d788f6f8-3615-4e1a-8cf1-c61dcb015d0f","system_id":"levelo_inurba_marseille","lat":43.24071,"lon":5.3776,"is_reserved":false,"is_disabled":false,"rental_uris":{"android":"levelo://app?vid=d788f6f8-3615-4e1a-8cf1-c61dcb015d0f","ios":"levelo://app?vid=d788f6f8-3615-4e1a-8cf1-c61dcb015d0f"},"vehicle_type_id":"4","last_reported":1726679274,"current_range_meters":10000,"station_id":"ce4bhnp2rcd13ifvqgvg","pricing_plan_id":"cebpf4jnsgd1na2vs0mg"},{"bike_id":"55fed244-caf4-46e6-99fc-fcd916ddb5b7","system_id":"levelo_inurba_marseille","lat":43.232,"lon":5.35548,"is_reserved":false,"is_disabled":false,"rental_uris":{"android":"levelo://app?vid=55fed244-caf4-46e6-99fc-fcd916ddb5b7","ios":"levelo://app?vid=55fed244-caf4-46e6-99fc-fcd916ddb5b7"},"vehicle_type_id":"4","last_reported":1726679274,"current_range_meters":24000,"station_id":"ce4bhu92rcd13ifvqi70","pricing_plan_id":"cebpf4jnsgd1na2vs0mg"},{"bike_id":"3f7da9c1-e887-441d-8808-9e98153d4023","system_id":"levelo_inurba_marseille","lat":43.28613,"lon":5.35101,"is_reserved":false,"is_disabled":false,"rental_uris":{"android":"levelo://app?vid=3f7da9c1-e887-441d-8808-9e98153d4023","ios":"levelo://app?vid=3f7da9c1-e887-441d-8808-9e98153d4023"},"vehicle_type_id":"4","last_reported":1726679274,"current_range_meters":7200,"station_id":"ce4bhch2rcd13ifvqeug","pricing_plan_id":"cebpf4jnsgd1na2vs0mg"},{"bike_id":"acb7d6c3-cc7f-43fc-bf93-ecb10caa7979","system_id":"levelo_inurba_marseille","lat":43.29451,"lon":5.39753,"is_reserved":false,"is_disabled":false,"rental_uris":{"android":"levelo://app?vid=acb7d6c3-cc7f-43fc-bf93-ecb10caa7979","ios":"levelo://app?vid=acb7d6c3-cc7f-43fc-bf93-ecb10caa7979"},"vehicle_type_id":"4","last_reported":1726679274,"current_range_meters":19600,"station_id":"ce4bh3h2rcd13ifvqdo0","pricing_plan_id":"cebpf4jnsgd1na2vs0mg"},{"bike_id":"8ceb5aea-b40e-4dad-98b0-1dcabb72c74a","system_id":"levelo_inurba_marseille","lat":43.30101,"lon":5.39956,"is_reserved":false,"is_disabled":false,"rental_uris":{"android":"levelo://app?vid=8ceb5aea-b40e-4dad-98b0-1dcabb72c74a","ios":"levelo://app?vid=8ceb5aea-b40e-4dad-98b0-1dcabb72c74a"},"vehicle_type_id":"4","last_reported":1726679274,"current_range_meters":25200,"station_id":"","pricing_plan_id":"cebpf4jnsgd1na2vs0mg"},{"bike_id":"677498c9-746b-4650-9a8e-2c7479635944","system_id":"levelo_inurba_marseille","lat":43.33023,"lon":5.39047,"is_reserved":false,"is_disabled":false,"rental_uris":{"android":"levelo://app?vid=677498c9-746b-4650-9a8e-2c7479635944","ios":"levelo://app?vid=677498c9-746b-4650-9a8e-2c7479635944"},"vehicle_type_id":"4","last_reported":1726679274,"current_range_meters":13600,"station_id":"ce4bhr92rcd13ifvqhrg","pricing_plan_id":"cebpf4jnsgd1na2vs0mg"},{"bike_id":"a4c2d31a-5a3d-44d8-943e-6a9ae7240a99","system_id":"levelo_inurba_marseille","lat":43.30796,"lon":5.43525,"is_reserved":false,"is_disabled":false,"rental_uris":{"android":"levelo://app?vid=a4c2d31a-5a3d-44d8-943e-6a9ae7240a99","ios":"levelo://app?vid=a4c2d31a-5a3d-44d8-943e-6a9ae7240a99"},"vehicle_type_id":"4","last_reported":1726679274,"current_range_meters":2800,"station_id":"ce4bhph2rcd13ifvqheg","pricing_plan_id":"cebpf4jnsgd1na2vs0mg"},{"bike_id":"2cbb6dd5-2ec8-4ba5-808a-c5301f897d27","system_id":"levelo_inurba_marseille","lat":43.239563,"lon":5.36622,"is_reserved":false,"is_disabled":false,"rental_uris":{"android":"levelo://app?vid=2cbb6dd5-2ec8-4ba5-808a-c5301f897d27","ios":"levelo://app?vid=2cbb6dd5-2ec8-4ba5-808a-c5301f897d27"},"vehicle_type_id":"4","last_reported":1726679274,"current_range_meters":24800,"station_id":"ce4bhi12rcd13ifvqfp0","pricing_plan_id":"cebpf4jnsgd1na2vs0mg"},{"bike_id":"f5ddcaf2-4df3-4791-8314-9ff825829baa","system_id":"levelo_inurba_marseille","lat":43.28465,"lon":5.35893,"is_reserved":false,"is_disabled":false,"rental_uris":{"android":"levelo://app?vid=f5ddcaf2-4df3-4791-8314-9ff825829baa","ios":"levelo://app?vid=f5ddcaf2-4df3-4791-8314-9ff825829baa"},"vehicle_type_id":"4","last_reported":1726679274,"current_range_meters":26800,"station_id":"ce4bhah2rcd13ifvqei0","pricing_plan_id":"cebpf4jnsgd1na2vs0mg"},{"bike_id":"2f4906fe-56ab-44db-a516-03480ce1a647","system_id":"levelo_inurba_marseille","lat":43.337187,"lon":5.391821,"is_reserved":false,"is_disabled":false,"rental_uris":{"android":"levelo://app?vid=2f4906fe-56ab-44db-a516-03480ce1a647","ios":"levelo://app?vid=2f4906fe-56ab-44db-a516-03480ce1a647"},"vehicle_type_id":"4","last_reported":1726679274,"current_range_meters":4400,"station_id":"ce4bhr92rcd13ifvqhsg","pricing_plan_id":"cebpf4jnsgd1na2vs0mg"},{"bike_id":"0f64cac9-1c98-44fb-906b-4ae44047ae4e","system_id":"levelo_inurba_marseille","lat":43.33023,"lon":5.39034,"is_reserved":false,"is_disabled":false,"rental_uris":{"android":"levelo://app?vid=0f64cac9-1c98-44fb-906b-4ae44047ae4e","ios":"levelo://app?vid=0f64cac9-1c98-44fb-906b-4ae44047ae4e"},"vehicle_type_id":"4","last_reported":1726679274,"current_range_meters":23200,"station_id":"ce4bhr92rcd13ifvqhrg","pricing_plan_id":"cebpf4jnsgd1na2vs0mg"},{"bike_id":"ca9a9c6d-5a2e-4fe2-9a37-7ad4579c5b25","system_id":"levelo_inurba_marseille","lat":43.32367,"lon":5.38881,"is_reserved":false,"is_disabled":false,"rental_uris":{"android":"levelo://app?vid=ca9a9c6d-5a2e-4fe2-9a37-7ad4579c5b25","ios":"levelo://app?vid=ca9a9c6d-5a2e-4fe2-9a37-7ad4579c5b25"},"vehicle_type_id":"4","last_reported":1726679274,"current_range_meters":24800,"station_id":"ce4bhqp2rcd13ifvqhog","pricing_plan_id":"cebpf4jnsgd1na2vs0mg"},{"bike_id":"19914ef5-d16e-4cf6-9d33-d15e90414c7d","system_id":"levelo_inurba_marseille","lat":43.23152,"lon":5.43724,"is_reserved":false,"is_disabled":false,"rental_uris":{"android":"levelo://app?vid=19914ef5-d16e-4cf6-9d33-d15e90414c7d","ios":"levelo://app?vid=19914ef5-d16e-4cf6-9d33-d15e90414c7d"},"vehicle_type_id":"4","last_reported":1726679274,"current_range_meters":30800,"station_id":"ce4bhmp2rcd13ifvqgog","pricing_plan_id":"cebpf4jnsgd1na2vs0mg"},{"bike_id":"52611d4a-81ec-4c7e-a96b-db35c40fd6a3","system_id":"levelo_inurba_marseille","lat":43.24089,"lon":5.3773,"is_reserved":false,"is_disabled":false,"rental_uris":{"android":"levelo://app?vid=52611d4a-81ec-4c7e-a96b-db35c40fd6a3","ios":"levelo://app?vid=52611d4a-81ec-4c7e-a96b-db35c40fd6a3"},"vehicle_type_id":"4","last_reported":1726679274,"current_range_meters":20000,"station_id":"ce4bhnp2rcd13ifvqgvg","pricing_plan_id":"cebpf4jnsgd1na2vs0mg"},{"bike_id":"5ab7b336-5033-4e65-9f0e-0aa83a43454d","system_id":"levelo_inurba_marseille","lat":43.27944,"lon":5.41048,"is_reserved":false,"is_disabled":false,"rental_uris":{"android":"levelo://app?vid=5ab7b336-5033-4e65-9f0e-0aa83a43454d","ios":"levelo://app?vid=5ab7b336-5033-4e65-9f0e-0aa83a43454d"},"vehicle_type_id":"4","last_reported":1726679274,"current_range_meters":12000,"station_id":"ce4bhnp2rcd13ifvqh0g","pricing_plan_id":"cebpf4jnsgd1na2vs0mg"},{"bike_id":"b51480c2-9b9c-41e3-9bfc-f3e2a0ce7444","system_id":"levelo_inurba_marseille","lat":43.23192,"lon":5.35546,"is_reserved":false,"is_disabled":false,"rental_uris":{"android":"levelo://app?vid=b51480c2-9b9c-41e3-9bfc-f3e2a0ce7444","ios":"levelo://app?vid=b51480c2-9b9c-41e3-9bfc-f3e2a0ce7444"},"vehicle_type_id":"4","last_reported":1726679274,"current_range_meters":38800,"station_id":"ce4bhu92rcd13ifvqi70","pricing_plan_id":"cebpf4jnsgd1na2vs0mg"},{"bike_id":"3221b643-15e8-4ad9-ad2a-a82e4e9277be","system_id":"levelo_inurba_marseille","lat":43.25583,"lon":5.3824,"is_reserved":false,"is_disabled":false,"rental_uris":{"android":"levelo://app?vid=3221b643-15e8-4ad9-ad2a-a82e4e9277be","ios":"levelo://app?vid=3221b643-15e8-4ad9-ad2a-a82e4e9277be"},"vehicle_type_id":"4","last_reported":1726679274,"current_range_meters":4400,"station_id":"ce4bhih2rcd13ifvqfs0","pricing_plan_id":"cebpf4jnsgd1na2vs0mg"},{"bike_id":"a2698a9c-b023-40a1-bf82-9b13c9a40ea9","system_id":"levelo_inurba_marseille","lat":43.29225,"lon":5.36071,"is_reserved":false,"is_disabled":false,"rental_uris":{"android":"levelo://app?vid=a2698a9c-b023-40a1-bf82-9b13c9a40ea9","ios":"levelo://app?vid=a2698a9c-b023-40a1-bf82-9b13c9a40ea9"},"vehicle_type_id":"4","last_reported":1726679274,"current_range_meters":27200,"station_id":"ce4bhbh2rcd13ifvqeqg","pricing_plan_id":"cebpf4jnsgd1na2vs0mg"},{"bike_id":"5a81ebfd-c296-4f60-9a59-ca70601e9979","system_id":"levelo_inurba_marseille","lat":43.294647,"lon":5.385795,"is_reserved":false,"is_disabled":false,"rental_uris":{"android":"levelo://app?vid=5a81ebfd-c296-4f60-9a59-ca70601e9979","ios":"levelo://app?vid=5a81ebfd-c296-4f60-9a59-ca70601e9979"},"vehicle_type_id":"4","last_reported":1726679274,"current_range_meters":8000,"station_id":"ce4bh2h2rcd13ifvqdh0","pricing_plan_id":"cebpf4jnsgd1na2vs0mg"},{"bike_id":"2b714e73-49f8-4f26-bb6d-7d72ce23aabc","system_id":"levelo_inurba_marseille","lat":43.23051,"lon":5.35491,"is_reserved":false,"is_disabled":false,"rental_uris":{"android":"levelo://app?vid=2b714e73-49f8-4f26-bb6d-7d72ce23aabc","ios":"levelo://app?vid=2b714e73-49f8-4f26-bb6d-7d72ce23aabc"},"vehicle_type_id":"4","last_reported":1726679274,"current_range_meters":7200,"station_id":"cpo3342slgdg3j2ifvpg","pricing_plan_id":"cebpf4jnsgd1na2vs0mg"},{"bike_id":"ce898ded-d843-4956-8ea7-af04d1b63241","system_id":"levelo_inurba_marseille","lat":43.324768,"lon":5.36562,"is_reserved":false,"is_disabled":false,"rental_uris":{"android":"levelo://app?vid=ce898ded-d843-4956-8ea7-af04d1b63241","ios":"levelo://app?vid=ce898ded-d843-4956-8ea7-af04d1b63241"},"vehicle_type_id":"4","last_reported":1726679274,"current_range_meters":30000,"station_id":"ce4bhs12rcd13ifvqhvg","pricing_plan_id":"cebpf4jnsgd1na2vs0mg"},{"bike_id":"a1134d18-97d5-4684-9b81-37c6cbc3bdd4","system_id":"levelo_inurba_marseille","lat":43.30887,"lon":5.3966,"is_reserved":false,"is_disabled":false,"rental_uris":{"android":"levelo://app?vid=a1134d18-97d5-4684-9b81-37c6cbc3bdd4","ios":"levelo://app?vid=a1134d18-97d5-4684-9b81-37c6cbc3bdd4"},"vehicle_type_id":"4","last_reported":1726679274,"current_range_meters":24000,"station_id":"ce4bh012rcd13ifvqcv0","pricing_plan_id":"cebpf4jnsgd1na2vs0mg"},{"bike_id":"12a23237-c0f9-423f-b3be-70abf857c74f","system_id":"levelo_inurba_marseille","lat":43.30652,"lon":5.40099,"is_reserved":false,"is_disabled":false,"rental_uris":{"android":"levelo://app?vid=12a23237-c0f9-423f-b3be-70abf857c74f","ios":"levelo://app?vid=12a23237-c0f9-423f-b3be-70abf857c74f"},"vehicle_type_id":"4","last_reported":1726679274,"current_range_meters":4000,"station_id":"ce4bh112rcd13ifvqda0","pricing_plan_id":"cebpf4jnsgd1na2vs0mg"},{"bike_id":"a68a57b0-2826-4ceb-af35-24eaf8b0a814","system_id":"levelo_inurba_marseille","lat":43.26574,"lon":5.3901,"is_reserved":false,"is_disabled":false,"rental_uris":{"android":"levelo://app?vid=a68a57b0-2826-4ceb-af35-24eaf8b0a814","ios":"levelo://app?vid=a68a57b0-2826-4ceb-af35-24eaf8b0a814"},"vehicle_type_id":"4","last_reported":1726679274,"current_range_meters":25200,"station_id":"ce4bhe12rcd13ifvqf30","pricing_plan_id":"cebpf4jnsgd1na2vs0mg"},{"bike_id":"95f98e57-26bc-481e-bc92-df511c6abfe8","system_id":"levelo_inurba_marseille","lat":43.2942,"lon":5.38625,"is_reserved":false,"is_disabled":false,"rental_uris":{"android":"levelo://app?vid=95f98e57-26bc-481e-bc92-df511c6abfe8","ios":"levelo://app?vid=95f98e57-26bc-481e-bc92-df511c6abfe8"},"vehicle_type_id":"4","last_reported":1726679274,"current_range_meters":8400,"station_id":"ce4bh2h2rcd13ifvqdh0","pricing_plan_id":"cebpf4jnsgd1na2vs0mg"},{"bike_id":"0a38f47b-eb81-4434-b87e-6f21a01bb4ba","system_id":"levelo_inurba_marseille","lat":43.231853,"lon":5.399917,"is_reserved":false,"is_disabled":false,"rental_uris":{"android":"levelo://app?vid=0a38f47b-eb81-4434-b87e-6f21a01bb4ba","ios":"levelo://app?vid=0a38f47b-eb81-4434-b87e-6f21a01bb4ba"},"vehicle_type_id":"4","last_reported":1726679274,"current_range_meters":38800,"station_id":"ce4bhn12rcd13ifvqgqg","pricing_plan_id":"cebpf4jnsgd1na2vs0mg"},{"bike_id":"7b1fa1e3-2d10-46ed-9d74-95e18bd1f72d","system_id":"levelo_inurba_marseille","lat":43.24546,"lon":5.39519,"is_reserved":false,"is_disabled":false,"rental_uris":{"android":"levelo://app?vid=7b1fa1e3-2d10-46ed-9d74-95e18bd1f72d","ios":"levelo://app?vid=7b1fa1e3-2d10-46ed-9d74-95e18bd1f72d"},"vehicle_type_id":"4","last_reported":1726679274,"current_range_meters":20400,"station_id":"ce4bhlp2rcd13ifvqgjg","pricing_plan_id":"cebpf4jnsgd1na2vs0mg"},{"bike_id":"814c3ad7-ae62-4a71-888b-ee4b0342d150","system_id":"levelo_inurba_marseille","lat":43.323824,"lon":5.389566,"is_reserved":false,"is_disabled":false,"rental_uris":{"android":"levelo://app?vid=814c3ad7-ae62-4a71-888b-ee4b0342d150","ios":"levelo://app?vid=814c3ad7-ae62-4a71-888b-ee4b0342d150"},"vehicle_type_id":"4","last_reported":1726679274,"current_range_meters":9200,"station_id":"ce4bhqp2rcd13ifvqhog","pricing_plan_id":"cebpf4jnsgd1na2vs0mg"},{"bike_id":"03f2d651-0f27-4e49-8434-99ded49a443f","system_id":"levelo_inurba_marseille","lat":43.2828,"lon":5.35087,"is_reserved":false,"is_disabled":false,"rental_uris":{"android":"levelo://app?vid=03f2d651-0f27-4e49-8434-99ded49a443f","ios":"levelo://app?vid=03f2d651-0f27-4e49-8434-99ded49a443f"},"vehicle_type_id":"4","last_reported":1726679274,"current_range_meters":16800,"station_id":"ce4bhbp2rcd13ifvqerg","pricing_plan_id":"cebpf4jnsgd1na2vs0mg"},{"bike_id":"07e5b1fe-8791-4712-954d-ce1957cedde6","system_id":"levelo_inurba_marseille","lat":43.29091,"lon":5.38125,"is_reserved":false,"is_disabled":false,"rental_uris":{"android":"levelo://app?vid=07e5b1fe-8791-4712-954d-ce1957cedde6","ios":"levelo://app?vid=07e5b1fe-8791-4712-954d-ce1957cedde6"},"vehicle_type_id":"4","last_reported":1726679274,"current_range_meters":38800,"station_id":"ce4bh512rcd13ifvqe2g","pricing_plan_id":"cebpf4jnsgd1na2vs0mg"},{"bike_id":"609d2d9c-db6d-42ad-9970-e67774086fdc","system_id":"levelo_inurba_marseille","lat":43.27913,"lon":5.38011,"is_reserved":false,"is_disabled":false,"rental_uris":{"android":"levelo://app?vid=609d2d9c-db6d-42ad-9970-e67774086fdc","ios":"levelo://app?vid=609d2d9c-db6d-42ad-9970-e67774086fdc"},"vehicle_type_id":"4","last_reported":1726679274,"current_range_meters":10000,"station_id":"ce4bhf92rcd13ifvqf50","pricing_plan_id":"cebpf4jnsgd1na2vs0mg"},{"bike_id":"105a0c0f-c467-4458-b05b-e2f9a9cb8d46","system_id":"levelo_inurba_marseille","lat":43.3031,"lon":5.39211,"is_reserved":false,"is_disabled":false,"rental_uris":{"android":"levelo://app?vid=105a0c0f-c467-4458-b05b-e2f9a9cb8d46","ios":"levelo://app?vid=105a0c0f-c467-4458-b05b-e2f9a9cb8d46"},"vehicle_type_id":"4","last_reported":1726679274,"current_range_meters":6400,"station_id":"ce4bgkh2rcd13ifvqbk0","pricing_plan_id":"cebpf4jnsgd1na2vs0mg"},{"bike_id":"b8d4a0a2-c1e8-4d8f-b813-87ec1dc37164","system_id":"levelo_inurba_marseille","lat":43.29114,"lon":5.3558,"is_reserved":false,"is_disabled":false,"rental_uris":{"android":"levelo://app?vid=b8d4a0a2-c1e8-4d8f-b813-87ec1dc37164","ios":"levelo://app?vid=b8d4a0a2-c1e8-4d8f-b813-87ec1dc37164"},"vehicle_type_id":"4","last_reported":1726679274,"current_range_meters":14400,"station_id":"ce4bhbp2rcd13ifvqerg","pricing_plan_id":"cebpf4jnsgd1na2vs0mg"},{"bike_id":"02c639a4-fe62-499a-a69a-f474d98d7667","system_id":"levelo_inurba_marseille","lat":43.28462,"lon":5.35889,"is_reserved":false,"is_disabled":false,"rental_uris":{"android":"levelo://app?vid=02c639a4-fe62-499a-a69a-f474d98d7667","ios":"levelo://app?vid=02c639a4-fe62-499a-a69a-f474d98d7667"},"vehicle_type_id":"4","last_reported":1726679274,"current_range_meters":4400,"station_id":"ce4bhah2rcd13ifvqei0","pricing_plan_id":"cebpf4jnsgd1na2vs0mg"},{"bike_id":"6dd17a2f-59bb-4453-859d-2c09ab795824","system_id":"levelo_inurba_marseille","lat":43.33028,"lon":5.39046,"is_reserved":false,"is_disabled":false,"rental_uris":{"android":"levelo://app?vid=6dd17a2f-59bb-4453-859d-2c09ab795824","ios":"levelo://app?vid=6dd17a2f-59bb-4453-859d-2c09ab795824"},"vehicle_type_id":"4","last_reported":1726679274,"current_range_meters":24400,"station_id":"ce4bhr92rcd13ifvqhrg","pricing_plan_id":"cebpf4jnsgd1na2vs0mg"},{"bike_id":"668b6cef-51fa-4d7f-b09f-62bf655f4152","system_id":"levelo_inurba_marseille","lat":43.30595,"lon":5.3723,"is_reserved":false,"is_disabled":false,"rental_uris":{"android":"levelo://app?vid=668b6cef-51fa-4d7f-b09f-62bf655f4152","ios":"levelo://app?vid=668b6cef-51fa-4d7f-b09f-62bf655f4152"},"vehicle_type_id":"4","last_reported":1726679274,"current_range_meters":12800,"station_id":"ce4bgqh2rcd13ifvqc4g","pricing_plan_id":"cebpf4jnsgd1na2vs0mg"},{"bike_id":"682c326f-9756-4537-a3eb-f525cbc855ff","system_id":"levelo_inurba_marseille","lat":43.25722,"lon":5.41113,"is_reserved":false,"is_disabled":false,"rental_uris":{"android":"levelo://app?vid=682c326f-9756-4537-a3eb-f525cbc855ff","ios":"levelo://app?vid=682c326f-9756-4537-a3eb-f525cbc855ff"},"vehicle_type_id":"4","last_reported":1726679274,"current_range_meters":12400,"station_id":"ce4bhkp2rcd13ifvqgd0","pricing_plan_id":"cebpf4jnsgd1na2vs0mg"},{"bike_id":"91fd69a0-2740-4b9a-95aa-5afbd98cad66","system_id":"levelo_inurba_marseille","lat":43.27835,"lon":5.39201,"is_reserved":false,"is_disabled":false,"rental_uris":{"android":"levelo://app?vid=91fd69a0-2740-4b9a-95aa-5afbd98cad66","ios":"levelo://app?vid=91fd69a0-2740-4b9a-95aa-5afbd98cad66"},"vehicle_type_id":"4","last_reported":1726679274,"current_range_meters":20400,"station_id":"ce4bhjp2rcd13ifvqga0","pricing_plan_id":"cebpf4jnsgd1na2vs0mg"},{"bike_id":"fc2c37fd-b30e-4e49-9975-3233bf5effda","system_id":"levelo_inurba_marseille","lat":43.32289,"lon":5.3827,"is_reserved":false,"is_disabled":false,"rental_uris":{"android":"levelo://app?vid=fc2c37fd-b30e-4e49-9975-3233bf5effda","ios":"levelo://app?vid=fc2c37fd-b30e-4e49-9975-3233bf5effda"},"vehicle_type_id":"4","last_reported":1726679274,"current_range_meters":30400,"station_id":"ce4bhr12rcd13ifvqhqg","pricing_plan_id":"cebpf4jnsgd1na2vs0mg"},{"bike_id":"0cd2f6ee-b520-4c00-9b65-ed65032462f6","system_id":"levelo_inurba_marseille","lat":43.28154,"lon":5.42652,"is_reserved":false,"is_disabled":false,"rental_uris":{"android":"levelo://app?vid=0cd2f6ee-b520-4c00-9b65-ed65032462f6","ios":"levelo://app?vid=0cd2f6ee-b520-4c00-9b65-ed65032462f6"},"vehicle_type_id":"4","last_reported":1726679274,"current_range_meters":11600,"station_id":"ce4bhnh2rcd13ifvqgug","pricing_plan_id":"cebpf4jnsgd1na2vs0mg"},{"bike_id":"5d515387-5b60-4afc-a0ed-8055e8ff9330","system_id":"levelo_inurba_marseille","lat":43.26948,"lon":5.38634,"is_reserved":false,"is_disabled":false,"rental_uris":{"android":"levelo://app?vid=5d515387-5b60-4afc-a0ed-8055e8ff9330","ios":"levelo://app?vid=5d515387-5b60-4afc-a0ed-8055e8ff9330"},"vehicle_type_id":"4","last_reported":1726679274,"current_range_meters":10000,"station_id":"ce4bhh92rcd13ifvqfh0","pricing_plan_id":"cebpf4jnsgd1na2vs0mg"},{"bike_id":"11859f6c-e16b-4ee4-8084-fee7beccc9d9","system_id":"levelo_inurba_marseille","lat":43.29025,"lon":5.38633,"is_reserved":false,"is_disabled":false,"rental_uris":{"android":"levelo://app?vid=11859f6c-e16b-4ee4-8084-fee7beccc9d9","ios":"levelo://app?vid=11859f6c-e16b-4ee4-8084-fee7beccc9d9"},"vehicle_type_id":"4","last_reported":1726679274,"current_range_meters":8800,"station_id":"ce4bh4p2rcd13ifvqe0g","pricing_plan_id":"cebpf4jnsgd1na2vs0mg"},{"bike_id":"d69ce271-8964-40f7-831b-0a82a3bfaeec","system_id":"levelo_inurba_marseille","lat":43.2847,"lon":5.38414,"is_reserved":false,"is_disabled":false,"rental_uris":{"android":"levelo://app?vid=d69ce271-8964-40f7-831b-0a82a3bfaeec","ios":"levelo://app?vid=d69ce271-8964-40f7-831b-0a82a3bfaeec"},"vehicle_type_id":"4","last_reported":1726679274,"current_range_meters":16400,"station_id":"ce4bh512rcd13ifvqe3g","pricing_plan_id":"cebpf4jnsgd1na2vs0mg"},{"bike_id":"aaac9508-0c06-4711-abd5-74f9e3e3462c","system_id":"levelo_inurba_marseille","lat":43.30145,"lon":5.3988,"is_reserved":false,"is_disabled":false,"rental_uris":{"android":"levelo://app?vid=aaac9508-0c06-4711-abd5-74f9e3e3462c","ios":"levelo://app?vid=aaac9508-0c06-4711-abd5-74f9e3e3462c"},"vehicle_type_id":"4","last_reported":1726679274,"current_range_meters":28000,"station_id":"ce4bh0h2rcd13ifvqd40","pricing_plan_id":"cebpf4jnsgd1na2vs0mg"},{"bike_id":"af404afe-769a-496b-ba72-445ba6de1c1c","system_id":"levelo_inurba_marseille","lat":43.27939,"lon":5.41045,"is_reserved":false,"is_disabled":false,"rental_uris":{"android":"levelo://app?vid=af404afe-769a-496b-ba72-445ba6de1c1c","ios":"levelo://app?vid=af404afe-769a-496b-ba72-445ba6de1c1c"},"vehicle_type_id":"4","last_reported":1726679274,"current_range_meters":33600,"station_id":"ce4bhnp2rcd13ifvqh0g","pricing_plan_id":"cebpf4jnsgd1na2vs0mg"},{"bike_id":"db5bed51-afb9-4548-98e9-7b7ae226c501","system_id":"levelo_inurba_marseille","lat":43.33747,"lon":5.37455,"is_reserved":false,"is_disabled":false,"rental_uris":{"android":"levelo://app?vid=db5bed51-afb9-4548-98e9-7b7ae226c501","ios":"levelo://app?vid=db5bed51-afb9-4548-98e9-7b7ae226c501"},"vehicle_type_id":"4","last_reported":1726679274,"current_range_meters":34800,"station_id":"","pricing_plan_id":"cebpf4jnsgd1na2vs0mg"},{"bike_id":"6a78926c-7c24-4114-b69b-79fe85c63250","system_id":"levelo_inurba_marseille","lat":43.30875,"lon":5.39642,"is_reserved":false,"is_disabled":false,"rental_uris":{"android":"levelo://app?vid=6a78926c-7c24-4114-b69b-79fe85c63250","ios":"levelo://app?vid=6a78926c-7c24-4114-b69b-79fe85c63250"},"vehicle_type_id":"4","last_reported":1726679274,"current_range_meters":16800,"station_id":"ce4bh012rcd13ifvqcv0","pricing_plan_id":"cebpf4jnsgd1na2vs0mg"},{"bike_id":"0557dd63-2647-4db6-b14d-80a15c6fcd74","system_id":"levelo_inurba_marseille","lat":43.28721,"lon":5.37946,"is_reserved":false,"is_disabled":false,"rental_uris":{"android":"levelo://app?vid=0557dd63-2647-4db6-b14d-80a15c6fcd74","ios":"levelo://app?vid=0557dd63-2647-4db6-b14d-80a15c6fcd74"},"vehicle_type_id":"4","last_reported":1726679274,"current_range_meters":27200,"station_id":"ce4bh9p2rcd13ifvqec0","pricing_plan_id":"cebpf4jnsgd1na2vs0mg"},{"bike_id":"5038bb4c-43d6-4ecb-baf4-df3e0a15cb49","system_id":"levelo_inurba_marseille","lat":43.28441,"lon":5.3918,"is_reserved":false,"is_disabled":false,"rental_uris":{"android":"levelo://app?vid=5038bb4c-43d6-4ecb-baf4-df3e0a15cb49","ios":"levelo://app?vid=5038bb4c-43d6-4ecb-baf4-df3e0a15cb49"},"vehicle_type_id":"4","last_reported":1726679274,"current_range_meters":27600,"station_id":"ce4bhoh2rcd13ifvqh5g","pricing_plan_id":"cebpf4jnsgd1na2vs0mg"},{"bike_id":"8e40b356-3a94-4fbb-9e57-54be69e3c817","system_id":"levelo_inurba_marseille","lat":43.25495,"lon":5.37646,"is_reserved":false,"is_disabled":false,"rental_uris":{"android":"levelo://app?vid=8e40b356-3a94-4fbb-9e57-54be69e3c817","ios":"levelo://app?vid=8e40b356-3a94-4fbb-9e57-54be69e3c817"},"vehicle_type_id":"4","last_reported":1726679274,"current_range_meters":38800,"station_id":"ce4bhh12rcd13ifvqff0","pricing_plan_id":"cebpf4jnsgd1na2vs0mg"},{"bike_id":"283788d5-6d54-4ea4-980e-147687b77082","system_id":"levelo_inurba_marseille","lat":43.26954,"lon":5.38628,"is_reserved":false,"is_disabled":false,"rental_uris":{"android":"levelo://app?vid=283788d5-6d54-4ea4-980e-147687b77082","ios":"levelo://app?vid=283788d5-6d54-4ea4-980e-147687b77082"},"vehicle_type_id":"4","last_reported":1726679274,"current_range_meters":19600,"station_id":"ce4bhh92rcd13ifvqfh0","pricing_plan_id":"cebpf4jnsgd1na2vs0mg"},{"bike_id":"3cbf9fdc-89c5-4fde-b166-1f1518c87d9f","system_id":"levelo_inurba_marseille","lat":43.28933,"lon":5.36647,"is_reserved":false,"is_disabled":false,"rental_uris":{"android":"levelo://app?vid=3cbf9fdc-89c5-4fde-b166-1f1518c87d9f","ios":"levelo://app?vid=3cbf9fdc-89c5-4fde-b166-1f1518c87d9f"},"vehicle_type_id":"4","last_reported":1726679274,"current_range_meters":25200,"station_id":"ce4bhap2rcd13ifvqek0","pricing_plan_id":"cebpf4jnsgd1na2vs0mg"},{"bike_id":"d06834b6-14ec-477c-92f7-a04b5630a0da","system_id":"levelo_inurba_marseille","lat":43.26553,"lon":5.37286,"is_reserved":false,"is_disabled":false,"rental_uris":{"android":"levelo://app?vid=d06834b6-14ec-477c-92f7-a04b5630a0da","ios":"levelo://app?vid=d06834b6-14ec-477c-92f7-a04b5630a0da"},"vehicle_type_id":"4","last_reported":1726679274,"current_range_meters":9200,"station_id":"ce4bhg12rcd13ifvqf70","pricing_plan_id":"cebpf4jnsgd1na2vs0mg"},{"bike_id":"5c62c15c-9ef1-465f-9dcc-f797bf988619","system_id":"levelo_inurba_marseille","lat":43.26959,"lon":5.38605,"is_reserved":false,"is_disabled":false,"rental_uris":{"android":"levelo://app?vid=5c62c15c-9ef1-465f-9dcc-f797bf988619","ios":"levelo://app?vid=5c62c15c-9ef1-465f-9dcc-f797bf988619"},"vehicle_type_id":"4","last_reported":1726679274,"current_range_meters":7200,"station_id":"ce4bhh92rcd13ifvqfh0","pricing_plan_id":"cebpf4jnsgd1na2vs0mg"},{"bike_id":"62c8c913-d05a-4858-9479-af851eb6bf9c","system_id":"levelo_inurba_marseille","lat":43.267792,"lon":5.394144,"is_reserved":false,"is_disabled":false,"rental_uris":{"android":"levelo://app?vid=62c8c913-d05a-4858-9479-af851eb6bf9c","ios":"levelo://app?vid=62c8c913-d05a-4858-9479-af851eb6bf9c"},"vehicle_type_id":"4","last_reported":1726679274,"current_range_meters":28800,"station_id":"ce4bhh12rcd13ifvqfg0","pricing_plan_id":"cebpf4jnsgd1na2vs0mg"},{"bike_id":"955951c0-82ad-457e-818d-1db9706d249f","system_id":"levelo_inurba_marseille","lat":43.28463,"lon":5.35895,"is_reserved":false,"is_disabled":false,"rental_uris":{"android":"levelo://app?vid=955951c0-82ad-457e-818d-1db9706d249f","ios":"levelo://app?vid=955951c0-82ad-457e-818d-1db9706d249f"},"vehicle_type_id":"4","last_reported":1726679274,"current_range_meters":13600,"station_id":"ce4bhah2rcd13ifvqei0","pricing_plan_id":"cebpf4jnsgd1na2vs0mg"},{"bike_id":"58014cc6-4f39-4119-a8a0-cdc0e2507820","system_id":"levelo_inurba_marseille","lat":43.32293,"lon":5.38275,"is_reserved":false,"is_disabled":false,"rental_uris":{"android":"levelo://app?vid=58014cc6-4f39-4119-a8a0-cdc0e2507820","ios":"levelo://app?vid=58014cc6-4f39-4119-a8a0-cdc0e2507820"},"vehicle_type_id":"4","last_reported":1726679274,"current_range_meters":39200,"station_id":"ce4bhr12rcd13ifvqhqg","pricing_plan_id":"cebpf4jnsgd1na2vs0mg"},{"bike_id":"81e6d245-fbdb-46d1-80ad-d7797c1438ab","system_id":"levelo_inurba_marseille","lat":43.29052,"lon":5.35923,"is_reserved":false,"is_disabled":false,"rental_uris":{"android":"levelo://app?vid=81e6d245-fbdb-46d1-80ad-d7797c1438ab","ios":"levelo://app?vid=81e6d245-fbdb-46d1-80ad-d7797c1438ab"},"vehicle_type_id":"4","last_reported":1726679274,"current_range_meters":28000,"station_id":"ce4bha92rcd13ifvqeg0","pricing_plan_id":"cebpf4jnsgd1na2vs0mg"},{"bike_id":"c75843d8-082c-40d9-a830-4e4d2b10f32b","system_id":"levelo_inurba_marseille","lat":43.308876,"lon":5.396637,"is_reserved":false,"is_disabled":false,"rental_uris":{"android":"levelo://app?vid=c75843d8-082c-40d9-a830-4e4d2b10f32b","ios":"levelo://app?vid=c75843d8-082c-40d9-a830-4e4d2b10f32b"},"vehicle_type_id":"4","last_reported":1726679274,"current_range_meters":9600,"station_id":"ce4bh012rcd13ifvqcv0","pricing_plan_id":"cebpf4jnsgd1na2vs0mg"},{"bike_id":"76dac4ff-696a-4fb7-bb6f-1f167bffe15a","system_id":"levelo_inurba_marseille","lat":43.28857,"lon":5.35857,"is_reserved":false,"is_disabled":false,"rental_uris":{"android":"levelo://app?vid=76dac4ff-696a-4fb7-bb6f-1f167bffe15a","ios":"levelo://app?vid=76dac4ff-696a-4fb7-bb6f-1f167bffe15a"},"vehicle_type_id":"4","last_reported":1726679274,"current_range_meters":32400,"station_id":"ce4bhb12rcd13ifvqem0","pricing_plan_id":"cebpf4jnsgd1na2vs0mg"},{"bike_id":"67101e27-2fdd-4e84-bdf7-495c619879ab","system_id":"levelo_inurba_marseille","lat":43.31993,"lon":5.38149,"is_reserved":false,"is_disabled":false,"rental_uris":{"android":"levelo://app?vid=67101e27-2fdd-4e84-bdf7-495c619879ab","ios":"levelo://app?vid=67101e27-2fdd-4e84-bdf7-495c619879ab"},"vehicle_type_id":"4","last_reported":1726679274,"current_range_meters":13600,"station_id":"ce4bhr12rcd13ifvqhpg","pricing_plan_id":"cebpf4jnsgd1na2vs0mg"},{"bike_id":"9f4c301b-f417-44ba-89f2-700314f931e1","system_id":"levelo_inurba_marseille","lat":43.292267,"lon":5.361085,"is_reserved":false,"is_disabled":false,"rental_uris":{"android":"levelo://app?vid=9f4c301b-f417-44ba-89f2-700314f931e1","ios":"levelo://app?vid=9f4c301b-f417-44ba-89f2-700314f931e1"},"vehicle_type_id":"4","last_reported":1726679274,"current_range_meters":10800,"station_id":"ce4bhbh2rcd13ifvqeqg","pricing_plan_id":"cebpf4jnsgd1na2vs0mg"},{"bike_id":"9de036c4-decb-465b-a775-32e663a8924f","system_id":"levelo_inurba_marseille","lat":43.33023,"lon":5.39035,"is_reserved":false,"is_disabled":false,"rental_uris":{"android":"levelo://app?vid=9de036c4-decb-465b-a775-32e663a8924f","ios":"levelo://app?vid=9de036c4-decb-465b-a775-32e663a8924f"},"vehicle_type_id":"4","last_reported":1726679274,"current_range_meters":33200,"station_id":"ce4bhr92rcd13ifvqhrg","pricing_plan_id":"cebpf4jnsgd1na2vs0mg"},{"bike_id":"5eaf0c04-05df-4361-bd36-b0d88b66df4a","system_id":"levelo_inurba_marseille","lat":43.28157,"lon":5.426415,"is_reserved":false,"is_disabled":false,"rental_uris":{"android":"levelo://app?vid=5eaf0c04-05df-4361-bd36-b0d88b66df4a","ios":"levelo://app?vid=5eaf0c04-05df-4361-bd36-b0d88b66df4a"},"vehicle_type_id":"4","last_reported":1726679274,"current_range_meters":12000,"station_id":"ce4bhl12rcd13ifvqgf0","pricing_plan_id":"cebpf4jnsgd1na2vs0mg"},{"bike_id":"4dbae61b-f414-4aa5-b14e-c4434ce4ffed","system_id":"levelo_inurba_marseille","lat":43.28614,"lon":5.35098,"is_reserved":false,"is_disabled":false,"rental_uris":{"android":"levelo://app?vid=4dbae61b-f414-4aa5-b14e-c4434ce4ffed","ios":"levelo://app?vid=4dbae61b-f414-4aa5-b14e-c4434ce4ffed"},"vehicle_type_id":"4","last_reported":1726679274,"current_range_meters":9600,"station_id":"ce4bhch2rcd13ifvqeug","pricing_plan_id":"cebpf4jnsgd1na2vs0mg"},{"bike_id":"cb964271-9a30-4372-b87b-e339f845b099","system_id":"levelo_inurba_marseille","lat":43.295841,"lon":5.397959,"is_reserved":false,"is_disabled":false,"rental_uris":{"android":"levelo://app?vid=cb964271-9a30-4372-b87b-e339f845b099","ios":"levelo://app?vid=cb964271-9a30-4372-b87b-e339f845b099"},"vehicle_type_id":"4","last_reported":1726679274,"current_range_meters":38800,"station_id":"ce4bh312rcd13ifvqdj0","pricing_plan_id":"cebpf4jnsgd1na2vs0mg"},{"bike_id":"4f4be38f-ba2e-40ee-b1c5-57f837cee2ed","system_id":"levelo_inurba_marseille","lat":43.29313,"lon":5.38522,"is_reserved":false,"is_disabled":false,"rental_uris":{"android":"levelo://app?vid=4f4be38f-ba2e-40ee-b1c5-57f837cee2ed","ios":"levelo://app?vid=4f4be38f-ba2e-40ee-b1c5-57f837cee2ed"},"vehicle_type_id":"4","last_reported":1726679274,"current_range_meters":28000,"station_id":"ce4bhb12rcd13ifvqem0","pricing_plan_id":"cebpf4jnsgd1na2vs0mg"},{"bike_id":"cbaf03bf-0340-4293-a424-18d0ef0b595f","system_id":"levelo_inurba_marseille","lat":43.29899,"lon":5.43666,"is_reserved":false,"is_disabled":false,"rental_uris":{"android":"levelo://app?vid=cbaf03bf-0340-4293-a424-18d0ef0b595f","ios":"levelo://app?vid=cbaf03bf-0340-4293-a424-18d0ef0b595f"},"vehicle_type_id":"4","last_reported":1726679274,"current_range_meters":14400,"station_id":"ce4bhpp2rcd13ifvqhfg","pricing_plan_id":"cebpf4jnsgd1na2vs0mg"},{"bike_id":"3878a72c-ab6d-4676-8767-58d1dc82c3dc","system_id":"levelo_inurba_marseille","lat":43.29445,"lon":5.39745,"is_reserved":false,"is_disabled":false,"rental_uris":{"android":"levelo://app?vid=3878a72c-ab6d-4676-8767-58d1dc82c3dc","ios":"levelo://app?vid=3878a72c-ab6d-4676-8767-58d1dc82c3dc"},"vehicle_type_id":"4","last_reported":1726679274,"current_range_meters":23200,"station_id":"ce4bh3h2rcd13ifvqdo0","pricing_plan_id":"cebpf4jnsgd1na2vs0mg"},{"bike_id":"6e00666a-f02f-4580-a990-0531883c2cb7","system_id":"levelo_inurba_marseille","lat":43.29901,"lon":5.43671,"is_reserved":false,"is_disabled":false,"rental_uris":{"android":"levelo://app?vid=6e00666a-f02f-4580-a990-0531883c2cb7","ios":"levelo://app?vid=6e00666a-f02f-4580-a990-0531883c2cb7"},"vehicle_type_id":"4","last_reported":1726679274,"current_range_meters":6000,"station_id":"ce4bhpp2rcd13ifvqhfg","pricing_plan_id":"cebpf4jnsgd1na2vs0mg"},{"bike_id":"7d54046c-3cf1-4344-8137-17101feedbd5","system_id":"levelo_inurba_marseille","lat":43.32293,"lon":5.38271,"is_reserved":false,"is_disabled":false,"rental_uris":{"android":"levelo://app?vid=7d54046c-3cf1-4344-8137-17101feedbd5","ios":"levelo://app?vid=7d54046c-3cf1-4344-8137-17101feedbd5"},"vehicle_type_id":"4","last_reported":1726679274,"current_range_meters":38800,"station_id":"ce4bhr12rcd13ifvqhqg","pricing_plan_id":"cebpf4jnsgd1na2vs0mg"},{"bike_id":"77d6b913-8acb-441f-8cb7-8e3953bab408","system_id":"levelo_inurba_marseille","lat":43.311249,"lon":5.389351,"is_reserved":false,"is_disabled":false,"rental_uris":{"android":"levelo://app?vid=77d6b913-8acb-441f-8cb7-8e3953bab408","ios":"levelo://app?vid=77d6b913-8acb-441f-8cb7-8e3953bab408"},"vehicle_type_id":"4","last_reported":1726679274,"current_range_meters":28400,"station_id":"ce4bh2h2rcd13ifvqdh0","pricing_plan_id":"cebpf4jnsgd1na2vs0mg"},{"bike_id":"3fe85287-2654-4e59-aecd-7052c3075f2b","system_id":"levelo_inurba_marseille","lat":43.29028,"lon":5.38149,"is_reserved":false,"is_disabled":false,"rental_uris":{"android":"levelo://app?vid=3fe85287-2654-4e59-aecd-7052c3075f2b","ios":"levelo://app?vid=3fe85287-2654-4e59-aecd-7052c3075f2b"},"vehicle_type_id":"4","last_reported":1726679274,"current_range_meters":9600,"station_id":"ce4bh4p2rcd13ifvqe1g","pricing_plan_id":"cebpf4jnsgd1na2vs0mg"},{"bike_id":"f30789e9-d8f5-47c7-ac2d-b4d66e650e8d","system_id":"levelo_inurba_marseille","lat":43.27814,"lon":5.40703,"is_reserved":false,"is_disabled":false,"rental_uris":{"android":"levelo://app?vid=f30789e9-d8f5-47c7-ac2d-b4d66e650e8d","ios":"levelo://app?vid=f30789e9-d8f5-47c7-ac2d-b4d66e650e8d"},"vehicle_type_id":"4","last_reported":1726679274,"current_range_meters":2000,"station_id":"ce4bhnh2rcd13ifvqgtg","pricing_plan_id":"cebpf4jnsgd1na2vs0mg"},{"bike_id":"2828bd69-0c75-4d81-b85e-7e7dee15c6fc","system_id":"levelo_inurba_marseille","lat":43.29416,"lon":5.3862,"is_reserved":false,"is_disabled":false,"rental_uris":{"android":"levelo://app?vid=2828bd69-0c75-4d81-b85e-7e7dee15c6fc","ios":"levelo://app?vid=2828bd69-0c75-4d81-b85e-7e7dee15c6fc"},"vehicle_type_id":"4","last_reported":1726679274,"current_range_meters":8400,"station_id":"ce4bh2h2rcd13ifvqdh0","pricing_plan_id":"cebpf4jnsgd1na2vs0mg"},{"bike_id":"fa2e946d-01fe-4bb4-a2b0-55af60a0bcec","system_id":"levelo_inurba_marseille","lat":43.33727,"lon":5.39178,"is_reserved":false,"is_disabled":false,"rental_uris":{"android":"levelo://app?vid=fa2e946d-01fe-4bb4-a2b0-55af60a0bcec","ios":"levelo://app?vid=fa2e946d-01fe-4bb4-a2b0-55af60a0bcec"},"vehicle_type_id":"4","last_reported":1726679274,"current_range_meters":38400,"station_id":"ce4bhr92rcd13ifvqhsg","pricing_plan_id":"cebpf4jnsgd1na2vs0mg"},{"bike_id":"3884d8c9-8196-43c1-8e1b-85179e85dab7","system_id":"levelo_inurba_marseille","lat":43.25864,"lon":5.39899,"is_reserved":false,"is_disabled":false,"rental_uris":{"android":"levelo://app?vid=3884d8c9-8196-43c1-8e1b-85179e85dab7","ios":"levelo://app?vid=3884d8c9-8196-43c1-8e1b-85179e85dab7"},"vehicle_type_id":"4","last_reported":1726679274,"current_range_meters":30400,"station_id":"ce4bhl92rcd13ifvqghg","pricing_plan_id":"cebpf4jnsgd1na2vs0mg"},{"bike_id":"d15cd140-ac39-4ad2-bee2-846af2c0081d","system_id":"levelo_inurba_marseille","lat":43.29795,"lon":5.38104,"is_reserved":false,"is_disabled":false,"rental_uris":{"android":"levelo://app?vid=d15cd140-ac39-4ad2-bee2-846af2c0081d","ios":"levelo://app?vid=d15cd140-ac39-4ad2-bee2-846af2c0081d"},"vehicle_type_id":"4","last_reported":1726679274,"current_range_meters":32000,"station_id":"ce4bgip2rcd13ifvqbb0","pricing_plan_id":"cebpf4jnsgd1na2vs0mg"},{"bike_id":"897f36fe-5290-421f-81e1-d238d9a21fa7","system_id":"levelo_inurba_marseille","lat":43.30126,"lon":5.39862,"is_reserved":false,"is_disabled":false,"rental_uris":{"android":"levelo://app?vid=897f36fe-5290-421f-81e1-d238d9a21fa7","ios":"levelo://app?vid=897f36fe-5290-421f-81e1-d238d9a21fa7"},"vehicle_type_id":"4","last_reported":1726679274,"current_range_meters":21600,"station_id":"ce4bh0h2rcd13ifvqd40","pricing_plan_id":"cebpf4jnsgd1na2vs0mg"},{"bike_id":"6056df30-85de-40e0-bb88-709b3d3c52a5","system_id":"levelo_inurba_marseille","lat":43.29264,"lon":5.38437,"is_reserved":false,"is_disabled":false,"rental_uris":{"android":"levelo://app?vid=6056df30-85de-40e0-bb88-709b3d3c52a5","ios":"levelo://app?vid=6056df30-85de-40e0-bb88-709b3d3c52a5"},"vehicle_type_id":"4","last_reported":1726679274,"current_range_meters":35600,"station_id":"ce4bh692rcd13ifvqea0","pricing_plan_id":"cebpf4jnsgd1na2vs0mg"},{"bike_id":"328d45f9-980e-4811-97c0-47d761861509","system_id":"levelo_inurba_marseille","lat":43.29847,"lon":5.37836,"is_reserved":false,"is_disabled":false,"rental_uris":{"android":"levelo://app?vid=328d45f9-980e-4811-97c0-47d761861509","ios":"levelo://app?vid=328d45f9-980e-4811-97c0-47d761861509"},"vehicle_type_id":"4","last_reported":1726679274,"current_range_meters":10000,"station_id":"ce4bgkh2rcd13ifvqbl0","pricing_plan_id":"cebpf4jnsgd1na2vs0mg"},{"bike_id":"70d6316d-15d8-443b-9f41-9417530b2115","system_id":"levelo_inurba_marseille","lat":43.27994,"lon":5.41658,"is_reserved":false,"is_disabled":false,"rental_uris":{"android":"levelo://app?vid=70d6316d-15d8-443b-9f41-9417530b2115","ios":"levelo://app?vid=70d6316d-15d8-443b-9f41-9417530b2115"},"vehicle_type_id":"4","last_reported":1726679274,"current_range_meters":4000,"station_id":"ce4bho12rcd13ifvqh1g","pricing_plan_id":"cebpf4jnsgd1na2vs0mg"},{"bike_id":"fa690805-233a-4a70-a9f3-33f1b67cdb1f","system_id":"levelo_inurba_marseille","lat":43.32293,"lon":5.3826,"is_reserved":false,"is_disabled":false,"rental_uris":{"android":"levelo://app?vid=fa690805-233a-4a70-a9f3-33f1b67cdb1f","ios":"levelo://app?vid=fa690805-233a-4a70-a9f3-33f1b67cdb1f"},"vehicle_type_id":"4","last_reported":1726679274,"current_range_meters":27600,"station_id":"ce4bhr12rcd13ifvqhqg","pricing_plan_id":"cebpf4jnsgd1na2vs0mg"},{"bike_id":"8b608b96-fedf-4511-8d4b-09bad2606e1a","system_id":"levelo_inurba_marseille","lat":43.27729,"lon":5.41129,"is_reserved":false,"is_disabled":false,"rental_uris":{"android":"levelo://app?vid=8b608b96-fedf-4511-8d4b-09bad2606e1a","ios":"levelo://app?vid=8b608b96-fedf-4511-8d4b-09bad2606e1a"},"vehicle_type_id":"4","last_reported":1726679274,"current_range_meters":3600,"station_id":"","pricing_plan_id":"cebpf4jnsgd1na2vs0mg"},{"bike_id":"669c5c88-0642-4d0f-b1d1-c08015994a5c","system_id":"levelo_inurba_marseille","lat":43.29883,"lon":5.38903,"is_reserved":false,"is_disabled":false,"rental_uris":{"android":"levelo://app?vid=669c5c88-0642-4d0f-b1d1-c08015994a5c","ios":"levelo://app?vid=669c5c88-0642-4d0f-b1d1-c08015994a5c"},"vehicle_type_id":"4","last_reported":1726679274,"current_range_meters":32800,"station_id":"ce4bh392rcd13ifvqdl0","pricing_plan_id":"cebpf4jnsgd1na2vs0mg"},{"bike_id":"7fc29aba-8c9b-4f66-aa5d-a4d4509e18f1","system_id":"levelo_inurba_marseille","lat":43.30208,"lon":5.39477,"is_reserved":false,"is_disabled":false,"rental_uris":{"android":"levelo://app?vid=7fc29aba-8c9b-4f66-aa5d-a4d4509e18f1","ios":"levelo://app?vid=7fc29aba-8c9b-4f66-aa5d-a4d4509e18f1"},"vehicle_type_id":"4","last_reported":1726679274,"current_range_meters":18800,"station_id":"ce4bh0p2rcd13ifvqd70","pricing_plan_id":"cebpf4jnsgd1na2vs0mg"},{"bike_id":"dc6b55b1-acab-4933-a6e6-b968658fc53c","system_id":"levelo_inurba_marseille","lat":43.30788,"lon":5.37655,"is_reserved":false,"is_disabled":false,"rental_uris":{"android":"levelo://app?vid=dc6b55b1-acab-4933-a6e6-b968658fc53c","ios":"levelo://app?vid=dc6b55b1-acab-4933-a6e6-b968658fc53c"},"vehicle_type_id":"4","last_reported":1726679274,"current_range_meters":29600,"station_id":"ce4bgv92rcd13ifvqcq0","pricing_plan_id":"cebpf4jnsgd1na2vs0mg"},{"bike_id":"64eddaba-05c9-4e8f-a098-9eceebba9223","system_id":"levelo_inurba_marseille","lat":43.28422,"lon":5.37516,"is_reserved":false,"is_disabled":false,"rental_uris":{"android":"levelo://app?vid=64eddaba-05c9-4e8f-a098-9eceebba9223","ios":"levelo://app?vid=64eddaba-05c9-4e8f-a098-9eceebba9223"},"vehicle_type_id":"4","last_reported":1726679274,"current_range_meters":28800,"station_id":"ce4bh412rcd13ifvqds0","pricing_plan_id":"cebpf4jnsgd1na2vs0mg"},{"bike_id":"0707522d-3b39-406a-8e15-6e2266fe1296","system_id":"levelo_inurba_marseille","lat":43.29206,"lon":5.39328,"is_reserved":false,"is_disabled":false,"rental_uris":{"android":"levelo://app?vid=0707522d-3b39-406a-8e15-6e2266fe1296","ios":"levelo://app?vid=0707522d-3b39-406a-8e15-6e2266fe1296"},"vehicle_type_id":"4","last_reported":1726679274,"current_range_meters":26000,"station_id":"ce4bh192rcd13ifvqdd0","pricing_plan_id":"cebpf4jnsgd1na2vs0mg"},{"bike_id":"fb68a88c-b0d9-4846-8b60-c12f89d7f97e","system_id":"levelo_inurba_marseille","lat":43.28439,"lon":5.39177,"is_reserved":false,"is_disabled":false,"rental_uris":{"android":"levelo://app?vid=fb68a88c-b0d9-4846-8b60-c12f89d7f97e","ios":"levelo://app?vid=fb68a88c-b0d9-4846-8b60-c12f89d7f97e"},"vehicle_type_id":"4","last_reported":1726679274,"current_range_meters":16000,"station_id":"ce4bhoh2rcd13ifvqh5g","pricing_plan_id":"cebpf4jnsgd1na2vs0mg"},{"bike_id":"1be052d1-ff94-4095-aab0-4664d445c421","system_id":"levelo_inurba_marseille","lat":43.25089,"lon":5.39514,"is_reserved":false,"is_disabled":false,"rental_uris":{"android":"levelo://app?vid=1be052d1-ff94-4095-aab0-4664d445c421","ios":"levelo://app?vid=1be052d1-ff94-4095-aab0-4664d445c421"},"vehicle_type_id":"4","last_reported":1726679274,"current_range_meters":14000,"station_id":"ce4bhm12rcd13ifvqgkg","pricing_plan_id":"cebpf4jnsgd1na2vs0mg"},{"bike_id":"2cb8f1f6-63e5-4302-bf67-9d3891e9a504","system_id":"levelo_inurba_marseille","lat":43.29003,"lon":5.35613,"is_reserved":false,"is_disabled":false,"rental_uris":{"android":"levelo://app?vid=2cb8f1f6-63e5-4302-bf67-9d3891e9a504","ios":"levelo://app?vid=2cb8f1f6-63e5-4302-bf67-9d3891e9a504"},"vehicle_type_id":"4","last_reported":1726679274,"current_range_meters":9200,"station_id":"ce4bhb92rcd13ifvqen0","pricing_plan_id":"cebpf4jnsgd1na2vs0mg"},{"bike_id":"f51cb119-8de2-4a01-b18d-a1ef5f45ddcf","system_id":"levelo_inurba_marseille","lat":43.23183,"lon":5.39992,"is_reserved":false,"is_disabled":false,"rental_uris":{"android":"levelo://app?vid=f51cb119-8de2-4a01-b18d-a1ef5f45ddcf","ios":"levelo://app?vid=f51cb119-8de2-4a01-b18d-a1ef5f45ddcf"},"vehicle_type_id":"4","last_reported":1726679274,"current_range_meters":39200,"station_id":"ce4bhn12rcd13ifvqgqg","pricing_plan_id":"cebpf4jnsgd1na2vs0mg"},{"bike_id":"aa54f1ac-a738-4c78-819f-44396099ea05","system_id":"levelo_inurba_marseille","lat":43.297791,"lon":5.393146,"is_reserved":false,"is_disabled":false,"rental_uris":{"android":"levelo://app?vid=aa54f1ac-a738-4c78-819f-44396099ea05","ios":"levelo://app?vid=aa54f1ac-a738-4c78-819f-44396099ea05"},"vehicle_type_id":"4","last_reported":1726679274,"current_range_meters":17600,"station_id":"chh1huq6cuj3fo74tm60","pricing_plan_id":"cebpf4jnsgd1na2vs0mg"},{"bike_id":"b8dac797-e01a-4d21-9622-7e471590a797","system_id":"levelo_inurba_marseille","lat":43.30264,"lon":5.40084,"is_reserved":false,"is_disabled":false,"rental_uris":{"android":"levelo://app?vid=b8dac797-e01a-4d21-9622-7e471590a797","ios":"levelo://app?vid=b8dac797-e01a-4d21-9622-7e471590a797"},"vehicle_type_id":"4","last_reported":1726679274,"current_range_meters":38800,"station_id":"ce4bgvh2rcd13ifvqcs0","pricing_plan_id":"cebpf4jnsgd1na2vs0mg"},{"bike_id":"b8c0294c-aa24-4b20-80d6-312972ce5b2e","system_id":"levelo_inurba_marseille","lat":43.26064,"lon":5.39392,"is_reserved":false,"is_disabled":false,"rental_uris":{"android":"levelo://app?vid=b8c0294c-aa24-4b20-80d6-312972ce5b2e","ios":"levelo://app?vid=b8c0294c-aa24-4b20-80d6-312972ce5b2e"},"vehicle_type_id":"4","last_reported":1726679274,"current_range_meters":18000,"station_id":"ce4bhh92rcd13ifvqfj0","pricing_plan_id":"cebpf4jnsgd1na2vs0mg"},{"bike_id":"e2421df7-1c7d-4e98-96e2-c048573d19af","system_id":"levelo_inurba_marseille","lat":43.29795,"lon":5.39351,"is_reserved":false,"is_disabled":false,"rental_uris":{"android":"levelo://app?vid=e2421df7-1c7d-4e98-96e2-c048573d19af","ios":"levelo://app?vid=e2421df7-1c7d-4e98-96e2-c048573d19af"},"vehicle_type_id":"4","last_reported":1726679274,"current_range_meters":18800,"station_id":"chh1huq6cuj3fo74tm60","pricing_plan_id":"cebpf4jnsgd1na2vs0mg"},{"bike_id":"0acd6eb5-9660-42e8-be46-e3bfd9f32eee","system_id":"levelo_inurba_marseille","lat":43.26941,"lon":5.40249,"is_reserved":false,"is_disabled":false,"rental_uris":{"android":"levelo://app?vid=0acd6eb5-9660-42e8-be46-e3bfd9f32eee","ios":"levelo://app?vid=0acd6eb5-9660-42e8-be46-e3bfd9f32eee"},"vehicle_type_id":"4","last_reported":1726679274,"current_range_meters":14000,"station_id":"cjm6bp8fraef2m0cb0m0","pricing_plan_id":"cebpf4jnsgd1na2vs0mg"},{"bike_id":"5c8edaa4-6f5e-40c3-920e-543457aeee15","system_id":"levelo_inurba_marseille","lat":43.26683,"lon":5.38272,"is_reserved":false,"is_disabled":false,"rental_uris":{"android":"levelo://app?vid=5c8edaa4-6f5e-40c3-920e-543457aeee15","ios":"levelo://app?vid=5c8edaa4-6f5e-40c3-920e-543457aeee15"},"vehicle_type_id":"4","last_reported":1726679274,"current_range_meters":6800,"station_id":"ce4bhg92rcd13ifvqf90","pricing_plan_id":"cebpf4jnsgd1na2vs0mg"},{"bike_id":"c2c9a555-6ec8-4b92-b33e-073571605c93","system_id":"levelo_inurba_marseille","lat":43.23194,"lon":5.35552,"is_reserved":false,"is_disabled":false,"rental_uris":{"android":"levelo://app?vid=c2c9a555-6ec8-4b92-b33e-073571605c93","ios":"levelo://app?vid=c2c9a555-6ec8-4b92-b33e-073571605c93"},"vehicle_type_id":"4","last_reported":1726679274,"current_range_meters":36800,"station_id":"ce4bhu92rcd13ifvqi70","pricing_plan_id":"cebpf4jnsgd1na2vs0mg"},{"bike_id":"65be6c1a-5189-4db9-8df6-9af31efda561","system_id":"levelo_inurba_marseille","lat":43.30796,"lon":5.38162,"is_reserved":false,"is_disabled":false,"rental_uris":{"android":"levelo://app?vid=65be6c1a-5189-4db9-8df6-9af31efda561","ios":"levelo://app?vid=65be6c1a-5189-4db9-8df6-9af31efda561"},"vehicle_type_id":"4","last_reported":1726679274,"current_range_meters":19200,"station_id":"ce4bgt12rcd13ifvqce0","pricing_plan_id":"cebpf4jnsgd1na2vs0mg"},{"bike_id":"27109f1d-8ca1-4ba1-8193-7ca41a45028e","system_id":"levelo_inurba_marseille","lat":43.26682,"lon":5.38273,"is_reserved":false,"is_disabled":false,"rental_uris":{"android":"levelo://app?vid=27109f1d-8ca1-4ba1-8193-7ca41a45028e","ios":"levelo://app?vid=27109f1d-8ca1-4ba1-8193-7ca41a45028e"},"vehicle_type_id":"4","last_reported":1726679274,"current_range_meters":28800,"station_id":"ce4bhg92rcd13ifvqf90","pricing_plan_id":"cebpf4jnsgd1na2vs0mg"},{"bike_id":"3dd74d91-ba01-4a99-a89f-858b7c5e8ded","system_id":"levelo_inurba_marseille","lat":43.25728,"lon":5.41103,"is_reserved":false,"is_disabled":false,"rental_uris":{"android":"levelo://app?vid=3dd74d91-ba01-4a99-a89f-858b7c5e8ded","ios":"levelo://app?vid=3dd74d91-ba01-4a99-a89f-858b7c5e8ded"},"vehicle_type_id":"4","last_reported":1726679274,"current_range_meters":26000,"station_id":"ce4bhkp2rcd13ifvqgd0","pricing_plan_id":"cebpf4jnsgd1na2vs0mg"},{"bike_id":"e5ce120e-f189-4882-876a-d185220bcf95","system_id":"levelo_inurba_marseille","lat":43.3302,"lon":5.39049,"is_reserved":false,"is_disabled":false,"rental_uris":{"android":"levelo://app?vid=e5ce120e-f189-4882-876a-d185220bcf95","ios":"levelo://app?vid=e5ce120e-f189-4882-876a-d185220bcf95"},"vehicle_type_id":"4","last_reported":1726679274,"current_range_meters":9200,"station_id":"ce4bhr92rcd13ifvqhrg","pricing_plan_id":"cebpf4jnsgd1na2vs0mg"},{"bike_id":"0a3283f9-1885-4d53-8177-f8e3517fc853","system_id":"levelo_inurba_marseille","lat":43.28903,"lon":5.3781,"is_reserved":false,"is_disabled":false,"rental_uris":{"android":"levelo://app?vid=0a3283f9-1885-4d53-8177-f8e3517fc853","ios":"levelo://app?vid=0a3283f9-1885-4d53-8177-f8e3517fc853"},"vehicle_type_id":"4","last_reported":1726679274,"current_range_meters":28000,"station_id":"","pricing_plan_id":"cebpf4jnsgd1na2vs0mg"},{"bike_id":"776449b1-7fa4-4b1c-8ca2-188bab3acacc","system_id":"levelo_inurba_marseille","lat":43.29036,"lon":5.38662,"is_reserved":false,"is_disabled":false,"rental_uris":{"android":"levelo://app?vid=776449b1-7fa4-4b1c-8ca2-188bab3acacc","ios":"levelo://app?vid=776449b1-7fa4-4b1c-8ca2-188bab3acacc"},"vehicle_type_id":"4","last_reported":1726679274,"current_range_meters":20400,"station_id":"ce4bh4p2rcd13ifvqe0g","pricing_plan_id":"cebpf4jnsgd1na2vs0mg"},{"bike_id":"6c9e8a2c-2a1c-444f-9a40-e7646182f685","system_id":"levelo_inurba_marseille","lat":43.26945,"lon":5.38635,"is_reserved":false,"is_disabled":false,"rental_uris":{"android":"levelo://app?vid=6c9e8a2c-2a1c-444f-9a40-e7646182f685","ios":"levelo://app?vid=6c9e8a2c-2a1c-444f-9a40-e7646182f685"},"vehicle_type_id":"4","last_reported":1726679274,"current_range_meters":11200,"station_id":"ce4bhh92rcd13ifvqfh0","pricing_plan_id":"cebpf4jnsgd1na2vs0mg"},{"bike_id":"bb97b6f6-5ecd-4769-91a9-4859677a6229","system_id":"levelo_inurba_marseille","lat":43.30818,"lon":5.38143,"is_reserved":false,"is_disabled":false,"rental_uris":{"android":"levelo://app?vid=bb97b6f6-5ecd-4769-91a9-4859677a6229","ios":"levelo://app?vid=bb97b6f6-5ecd-4769-91a9-4859677a6229"},"vehicle_type_id":"4","last_reported":1726679274,"current_range_meters":23200,"station_id":"ce4bgt12rcd13ifvqce0","pricing_plan_id":"cebpf4jnsgd1na2vs0mg"},{"bike_id":"6f387a41-1a28-4619-ac86-26875678b81b","system_id":"levelo_inurba_marseille","lat":43.29899,"lon":5.43668,"is_reserved":false,"is_disabled":false,"rental_uris":{"android":"levelo://app?vid=6f387a41-1a28-4619-ac86-26875678b81b","ios":"levelo://app?vid=6f387a41-1a28-4619-ac86-26875678b81b"},"vehicle_type_id":"4","last_reported":1726679274,"current_range_meters":14000,"station_id":"ce4bhpp2rcd13ifvqhfg","pricing_plan_id":"cebpf4jnsgd1na2vs0mg"},{"bike_id":"fffdbd3b-7dd4-4b0c-8c6d-5c6f40392088","system_id":"levelo_inurba_marseille","lat":43.31329,"lon":5.39687,"is_reserved":false,"is_disabled":false,"rental_uris":{"android":"levelo://app?vid=fffdbd3b-7dd4-4b0c-8c6d-5c6f40392088","ios":"levelo://app?vid=fffdbd3b-7dd4-4b0c-8c6d-5c6f40392088"},"vehicle_type_id":"4","last_reported":1726679274,"current_range_meters":25600,"station_id":"ce4bgvp2rcd13ifvqcu0","pricing_plan_id":"cebpf4jnsgd1na2vs0mg"},{"bike_id":"3c57c2d2-cd58-499c-8a2c-02af1ad4a03f","system_id":"levelo_inurba_marseille","lat":43.284053,"lon":5.375,"is_reserved":false,"is_disabled":false,"rental_uris":{"android":"levelo://app?vid=3c57c2d2-cd58-499c-8a2c-02af1ad4a03f","ios":"levelo://app?vid=3c57c2d2-cd58-499c-8a2c-02af1ad4a03f"},"vehicle_type_id":"4","last_reported":1726679274,"current_range_meters":12800,"station_id":"ce4bh412rcd13ifvqds0","pricing_plan_id":"cebpf4jnsgd1na2vs0mg"},{"bike_id":"426811f5-0b22-40dd-8ab4-a5bcbf4f25dd","system_id":"levelo_inurba_marseille","lat":43.33023,"lon":5.39039,"is_reserved":false,"is_disabled":false,"rental_uris":{"android":"levelo://app?vid=426811f5-0b22-40dd-8ab4-a5bcbf4f25dd","ios":"levelo://app?vid=426811f5-0b22-40dd-8ab4-a5bcbf4f25dd"},"vehicle_type_id":"4","last_reported":1726679274,"current_range_meters":38800,"station_id":"ce4bhr92rcd13ifvqhrg","pricing_plan_id":"cebpf4jnsgd1na2vs0mg"},{"bike_id":"66075e51-c532-41b2-837a-c8514ef0a0cb","system_id":"levelo_inurba_marseille","lat":43.25729,"lon":5.41109,"is_reserved":false,"is_disabled":false,"rental_uris":{"android":"levelo://app?vid=66075e51-c532-41b2-837a-c8514ef0a0cb","ios":"levelo://app?vid=66075e51-c532-41b2-837a-c8514ef0a0cb"},"vehicle_type_id":"4","last_reported":1726679274,"current_range_meters":6800,"station_id":"ce4bhkp2rcd13ifvqgd0","pricing_plan_id":"cebpf4jnsgd1na2vs0mg"},{"bike_id":"9a6722cf-a656-4d72-9e7f-0dbe77786e89","system_id":"levelo_inurba_marseille","lat":43.304321,"lon":5.397346,"is_reserved":false,"is_disabled":false,"rental_uris":{"android":"levelo://app?vid=9a6722cf-a656-4d72-9e7f-0dbe77786e89","ios":"levelo://app?vid=9a6722cf-a656-4d72-9e7f-0dbe77786e89"},"vehicle_type_id":"4","last_reported":1726679274,"current_range_meters":21600,"station_id":"ce4bh0h2rcd13ifvqd40","pricing_plan_id":"cebpf4jnsgd1na2vs0mg"},{"bike_id":"5ab24690-db5b-4fc8-95d0-bbca224817ea","system_id":"levelo_inurba_marseille","lat":43.32372,"lon":5.3889,"is_reserved":false,"is_disabled":false,"rental_uris":{"android":"levelo://app?vid=5ab24690-db5b-4fc8-95d0-bbca224817ea","ios":"levelo://app?vid=5ab24690-db5b-4fc8-95d0-bbca224817ea"},"vehicle_type_id":"4","last_reported":1726679274,"current_range_meters":17600,"station_id":"ce4bhqp2rcd13ifvqhog","pricing_plan_id":"cebpf4jnsgd1na2vs0mg"},{"bike_id":"88068615-8377-4919-a422-c6e9bcaa3ab4","system_id":"levelo_inurba_marseille","lat":43.32289,"lon":5.38265,"is_reserved":false,"is_disabled":false,"rental_uris":{"android":"levelo://app?vid=88068615-8377-4919-a422-c6e9bcaa3ab4","ios":"levelo://app?vid=88068615-8377-4919-a422-c6e9bcaa3ab4"},"vehicle_type_id":"4","last_reported":1726679274,"current_range_meters":39200,"station_id":"ce4bhr12rcd13ifvqhqg","pricing_plan_id":"cebpf4jnsgd1na2vs0mg"},{"bike_id":"7c63adda-4228-4ba2-907a-ce1df8b3266e","system_id":"levelo_inurba_marseille","lat":43.337444,"lon":5.374475,"is_reserved":false,"is_disabled":false,"rental_uris":{"android":"levelo://app?vid=7c63adda-4228-4ba2-907a-ce1df8b3266e","ios":"levelo://app?vid=7c63adda-4228-4ba2-907a-ce1df8b3266e"},"vehicle_type_id":"4","last_reported":1726679274,"current_range_meters":31200,"station_id":"","pricing_plan_id":"cebpf4jnsgd1na2vs0mg"},{"bike_id":"c52def84-52b7-4caf-bed2-13a109072626","system_id":"levelo_inurba_marseille","lat":43.30242,"lon":5.40044,"is_reserved":false,"is_disabled":false,"rental_uris":{"android":"levelo://app?vid=c52def84-52b7-4caf-bed2-13a109072626","ios":"levelo://app?vid=c52def84-52b7-4caf-bed2-13a109072626"},"vehicle_type_id":"4","last_reported":1726679274,"current_range_meters":29600,"station_id":"ce4bgvh2rcd13ifvqcs0","pricing_plan_id":"cebpf4jnsgd1na2vs0mg"},{"bike_id":"63d0120a-e544-4a2e-90d5-a311bb8b3b37","system_id":"levelo_inurba_marseille","lat":43.31995,"lon":5.38149,"is_reserved":false,"is_disabled":false,"rental_uris":{"android":"levelo://app?vid=63d0120a-e544-4a2e-90d5-a311bb8b3b37","ios":"levelo://app?vid=63d0120a-e544-4a2e-90d5-a311bb8b3b37"},"vehicle_type_id":"4","last_reported":1726679274,"current_range_meters":9600,"station_id":"ce4bhr12rcd13ifvqhpg","pricing_plan_id":"cebpf4jnsgd1na2vs0mg"},{"bike_id":"cb612164-ef29-4863-8347-b66b3d45f902","system_id":"levelo_inurba_marseille","lat":43.31995,"lon":5.38148,"is_reserved":false,"is_disabled":false,"rental_uris":{"android":"levelo://app?vid=cb612164-ef29-4863-8347-b66b3d45f902","ios":"levelo://app?vid=cb612164-ef29-4863-8347-b66b3d45f902"},"vehicle_type_id":"4","last_reported":1726679274,"current_range_meters":22000,"station_id":"ce4bhr12rcd13ifvqhpg","pricing_plan_id":"cebpf4jnsgd1na2vs0mg"},{"bike_id":"79bd3874-8524-44c1-868e-3943d13e7eab","system_id":"levelo_inurba_marseille","lat":43.24385,"lon":5.37053,"is_reserved":false,"is_disabled":false,"rental_uris":{"android":"levelo://app?vid=79bd3874-8524-44c1-868e-3943d13e7eab","ios":"levelo://app?vid=79bd3874-8524-44c1-868e-3943d13e7eab"},"vehicle_type_id":"4","last_reported":1726679274,"current_range_meters":30800,"station_id":"ce4bhhh2rcd13ifvqfk0","pricing_plan_id":"cebpf4jnsgd1na2vs0mg"},{"bike_id":"076efa1f-ce25-4781-99df-3bdd12cc166d","system_id":"levelo_inurba_marseille","lat":43.2927,"lon":5.38442,"is_reserved":false,"is_disabled":false,"rental_uris":{"android":"levelo://app?vid=076efa1f-ce25-4781-99df-3bdd12cc166d","ios":"levelo://app?vid=076efa1f-ce25-4781-99df-3bdd12cc166d"},"vehicle_type_id":"4","last_reported":1726679274,"current_range_meters":8000,"station_id":"ce4bh692rcd13ifvqea0","pricing_plan_id":"cebpf4jnsgd1na2vs0mg"},{"bike_id":"68abef3d-49dd-43b2-b584-df05e0835af6","system_id":"levelo_inurba_marseille","lat":43.2933,"lon":5.4116,"is_reserved":false,"is_disabled":false,"rental_uris":{"android":"levelo://app?vid=68abef3d-49dd-43b2-b584-df05e0835af6","ios":"levelo://app?vid=68abef3d-49dd-43b2-b584-df05e0835af6"},"vehicle_type_id":"4","last_reported":1726679274,"current_range_meters":16800,"station_id":"ce4bh192rcd13ifvqdc0","pricing_plan_id":"cebpf4jnsgd1na2vs0mg"},{"bike_id":"c23a9a6e-4976-4c00-95fb-654df0b807c6","system_id":"levelo_inurba_marseille","lat":43.28618,"lon":5.35108,"is_reserved":false,"is_disabled":false,"rental_uris":{"android":"levelo://app?vid=c23a9a6e-4976-4c00-95fb-654df0b807c6","ios":"levelo://app?vid=c23a9a6e-4976-4c00-95fb-654df0b807c6"},"vehicle_type_id":"4","last_reported":1726679274,"current_range_meters":7200,"station_id":"ce4bhch2rcd13ifvqeug","pricing_plan_id":"cebpf4jnsgd1na2vs0mg"},{"bike_id":"3b1fdc81-4367-4ba4-9e48-283d35734523","system_id":"levelo_inurba_marseille","lat":43.29206,"lon":5.39324,"is_reserved":false,"is_disabled":false,"rental_uris":{"android":"levelo://app?vid=3b1fdc81-4367-4ba4-9e48-283d35734523","ios":"levelo://app?vid=3b1fdc81-4367-4ba4-9e48-283d35734523"},"vehicle_type_id":"4","last_reported":1726679274,"current_range_meters":16800,"station_id":"ce4bh192rcd13ifvqdd0","pricing_plan_id":"cebpf4jnsgd1na2vs0mg"},{"bike_id":"1d323add-7c14-468a-9720-d4e15140df02","system_id":"levelo_inurba_marseille","lat":43.279144,"lon":5.395728,"is_reserved":false,"is_disabled":false,"rental_uris":{"android":"levelo://app?vid=1d323add-7c14-468a-9720-d4e15140df02","ios":"levelo://app?vid=1d323add-7c14-468a-9720-d4e15140df02"},"vehicle_type_id":"4","last_reported":1726679274,"current_range_meters":30400,"station_id":"ce4bhf92rcd13ifvqf40","pricing_plan_id":"cebpf4jnsgd1na2vs0mg"},{"bike_id":"b2d80a0a-0909-4592-8a00-62fbbab09557","system_id":"levelo_inurba_marseille","lat":43.28408,"lon":5.37517,"is_reserved":false,"is_disabled":false,"rental_uris":{"android":"levelo://app?vid=b2d80a0a-0909-4592-8a00-62fbbab09557","ios":"levelo://app?vid=b2d80a0a-0909-4592-8a00-62fbbab09557"},"vehicle_type_id":"4","last_reported":1726679274,"current_range_meters":16800,"station_id":"ce4bh412rcd13ifvqds0","pricing_plan_id":"cebpf4jnsgd1na2vs0mg"},{"bike_id":"cd2933d4-0a3b-4522-9174-007f749532b6","system_id":"levelo_inurba_marseille","lat":43.26209,"lon":5.37931,"is_reserved":false,"is_disabled":false,"rental_uris":{"android":"levelo://app?vid=cd2933d4-0a3b-4522-9174-007f749532b6","ios":"levelo://app?vid=cd2933d4-0a3b-4522-9174-007f749532b6"},"vehicle_type_id":"4","last_reported":1726679274,"current_range_meters":19200,"station_id":"ce4bhjp2rcd13ifvqg90","pricing_plan_id":"cebpf4jnsgd1na2vs0mg"},{"bike_id":"4c034b9f-cbab-4e04-b5bc-ee83cd01a53c","system_id":"levelo_inurba_marseille","lat":43.32287,"lon":5.38266,"is_reserved":false,"is_disabled":false,"rental_uris":{"android":"levelo://app?vid=4c034b9f-cbab-4e04-b5bc-ee83cd01a53c","ios":"levelo://app?vid=4c034b9f-cbab-4e04-b5bc-ee83cd01a53c"},"vehicle_type_id":"4","last_reported":1726679274,"current_range_meters":38800,"station_id":"ce4bhr12rcd13ifvqhqg","pricing_plan_id":"cebpf4jnsgd1na2vs0mg"},{"bike_id":"e9ac777c-c069-4ddb-926a-3061937f3626","system_id":"levelo_inurba_marseille","lat":43.30103,"lon":5.39847,"is_reserved":false,"is_disabled":false,"rental_uris":{"android":"levelo://app?vid=e9ac777c-c069-4ddb-926a-3061937f3626","ios":"levelo://app?vid=e9ac777c-c069-4ddb-926a-3061937f3626"},"vehicle_type_id":"4","last_reported":1726679274,"current_range_meters":8800,"station_id":"ce4bh0h2rcd13ifvqd40","pricing_plan_id":"cebpf4jnsgd1na2vs0mg"},{"bike_id":"05941ff5-cffe-49ab-bcdd-2cbc12343a79","system_id":"levelo_inurba_marseille","lat":43.28619,"lon":5.35108,"is_reserved":false,"is_disabled":false,"rental_uris":{"android":"levelo://app?vid=05941ff5-cffe-49ab-bcdd-2cbc12343a79","ios":"levelo://app?vid=05941ff5-cffe-49ab-bcdd-2cbc12343a79"},"vehicle_type_id":"4","last_reported":1726679274,"current_range_meters":19600,"station_id":"ce4bhch2rcd13ifvqeug","pricing_plan_id":"cebpf4jnsgd1na2vs0mg"},{"bike_id":"66307f02-c2cc-4f9a-a1a2-4da8c09edc01","system_id":"levelo_inurba_marseille","lat":43.28466,"lon":5.35887,"is_reserved":false,"is_disabled":false,"rental_uris":{"android":"levelo://app?vid=66307f02-c2cc-4f9a-a1a2-4da8c09edc01","ios":"levelo://app?vid=66307f02-c2cc-4f9a-a1a2-4da8c09edc01"},"vehicle_type_id":"4","last_reported":1726679274,"current_range_meters":16000,"station_id":"ce4bhah2rcd13ifvqei0","pricing_plan_id":"cebpf4jnsgd1na2vs0mg"},{"bike_id":"d90e9531-6527-40a2-ac2d-06bd4d856bbf","system_id":"levelo_inurba_marseille","lat":43.29419,"lon":5.38627,"is_reserved":false,"is_disabled":false,"rental_uris":{"android":"levelo://app?vid=d90e9531-6527-40a2-ac2d-06bd4d856bbf","ios":"levelo://app?vid=d90e9531-6527-40a2-ac2d-06bd4d856bbf"},"vehicle_type_id":"4","last_reported":1726679274,"current_range_meters":34000,"station_id":"ce4bh2h2rcd13ifvqdh0","pricing_plan_id":"cebpf4jnsgd1na2vs0mg"},{"bike_id":"0ba2e767-7568-40d7-ac4b-5f408a53762f","system_id":"levelo_inurba_marseille","lat":43.29227,"lon":5.36069,"is_reserved":false,"is_disabled":false,"rental_uris":{"android":"levelo://app?vid=0ba2e767-7568-40d7-ac4b-5f408a53762f","ios":"levelo://app?vid=0ba2e767-7568-40d7-ac4b-5f408a53762f"},"vehicle_type_id":"4","last_reported":1726679274,"current_range_meters":32800,"station_id":"ce4bhbh2rcd13ifvqeqg","pricing_plan_id":"cebpf4jnsgd1na2vs0mg"},{"bike_id":"a26722f9-2a63-428f-8619-5ac1a332c164","system_id":"levelo_inurba_marseille","lat":43.27996,"lon":5.4166,"is_reserved":false,"is_disabled":false,"rental_uris":{"android":"levelo://app?vid=a26722f9-2a63-428f-8619-5ac1a332c164","ios":"levelo://app?vid=a26722f9-2a63-428f-8619-5ac1a332c164"},"vehicle_type_id":"4","last_reported":1726679274,"current_range_meters":24000,"station_id":"ce4bho12rcd13ifvqh1g","pricing_plan_id":"cebpf4jnsgd1na2vs0mg"},{"bike_id":"05f71218-8d21-4a68-aa40-74ff464a6ab8","system_id":"levelo_inurba_marseille","lat":43.2408,"lon":5.37752,"is_reserved":false,"is_disabled":false,"rental_uris":{"android":"levelo://app?vid=05f71218-8d21-4a68-aa40-74ff464a6ab8","ios":"levelo://app?vid=05f71218-8d21-4a68-aa40-74ff464a6ab8"},"vehicle_type_id":"4","last_reported":1726679274,"current_range_meters":11600,"station_id":"ce4bhnp2rcd13ifvqgvg","pricing_plan_id":"cebpf4jnsgd1na2vs0mg"},{"bike_id":"e234c845-4fe7-4b15-83e2-2059d7489c62","system_id":"levelo_inurba_marseille","lat":43.3237,"lon":5.38884,"is_reserved":false,"is_disabled":false,"rental_uris":{"android":"levelo://app?vid=e234c845-4fe7-4b15-83e2-2059d7489c62","ios":"levelo://app?vid=e234c845-4fe7-4b15-83e2-2059d7489c62"},"vehicle_type_id":"4","last_reported":1726679274,"current_range_meters":24800,"station_id":"ce4bhqp2rcd13ifvqhog","pricing_plan_id":"cebpf4jnsgd1na2vs0mg"},{"bike_id":"9f59927e-d3b4-43fb-b3c7-44e2934dd99c","system_id":"levelo_inurba_marseille","lat":43.31531,"lon":5.38029,"is_reserved":false,"is_disabled":false,"rental_uris":{"android":"levelo://app?vid=9f59927e-d3b4-43fb-b3c7-44e2934dd99c","ios":"levelo://app?vid=9f59927e-d3b4-43fb-b3c7-44e2934dd99c"},"vehicle_type_id":"4","last_reported":1726679274,"current_range_meters":36400,"station_id":"ce4bhsp2rcd13ifvqi50","pricing_plan_id":"cebpf4jnsgd1na2vs0mg"},{"bike_id":"b3325719-bae2-4a93-93d1-eea4a4eb007a","system_id":"levelo_inurba_marseille","lat":43.28467,"lon":5.38409,"is_reserved":false,"is_disabled":false,"rental_uris":{"android":"levelo://app?vid=b3325719-bae2-4a93-93d1-eea4a4eb007a","ios":"levelo://app?vid=b3325719-bae2-4a93-93d1-eea4a4eb007a"},"vehicle_type_id":"4","last_reported":1726679274,"current_range_meters":24800,"station_id":"ce4bh512rcd13ifvqe3g","pricing_plan_id":"cebpf4jnsgd1na2vs0mg"},{"bike_id":"43a9d9ef-a239-49af-a831-ea621a90d19e","system_id":"levelo_inurba_marseille","lat":43.31709,"lon":5.37735,"is_reserved":false,"is_disabled":false,"rental_uris":{"android":"levelo://app?vid=43a9d9ef-a239-49af-a831-ea621a90d19e","ios":"levelo://app?vid=43a9d9ef-a239-49af-a831-ea621a90d19e"},"vehicle_type_id":"4","last_reported":1726679274,"current_range_meters":12400,"station_id":"ce4bgth2rcd13ifvqch0","pricing_plan_id":"cebpf4jnsgd1na2vs0mg"},{"bike_id":"44720b38-6fa4-4f86-9812-da4fa2349fd6","system_id":"levelo_inurba_marseille","lat":43.30139,"lon":5.39868,"is_reserved":false,"is_disabled":false,"rental_uris":{"android":"levelo://app?vid=44720b38-6fa4-4f86-9812-da4fa2349fd6","ios":"levelo://app?vid=44720b38-6fa4-4f86-9812-da4fa2349fd6"},"vehicle_type_id":"4","last_reported":1726679274,"current_range_meters":17200,"station_id":"ce4bh0h2rcd13ifvqd40","pricing_plan_id":"cebpf4jnsgd1na2vs0mg"},{"bike_id":"1a890316-e740-4d63-9716-0e14290d219e","system_id":"levelo_inurba_marseille","lat":43.30796,"lon":5.38153,"is_reserved":false,"is_disabled":false,"rental_uris":{"android":"levelo://app?vid=1a890316-e740-4d63-9716-0e14290d219e","ios":"levelo://app?vid=1a890316-e740-4d63-9716-0e14290d219e"},"vehicle_type_id":"4","last_reported":1726679274,"current_range_meters":38800,"station_id":"ce4bgt12rcd13ifvqce0","pricing_plan_id":"cebpf4jnsgd1na2vs0mg"},{"bike_id":"27a1a1ed-0600-462e-b97d-1dff1e13d8d1","system_id":"levelo_inurba_marseille","lat":43.24651,"lon":5.38893,"is_reserved":false,"is_disabled":false,"rental_uris":{"android":"levelo://app?vid=27a1a1ed-0600-462e-b97d-1dff1e13d8d1","ios":"levelo://app?vid=27a1a1ed-0600-462e-b97d-1dff1e13d8d1"},"vehicle_type_id":"4","last_reported":1726679274,"current_range_meters":11200,"station_id":"ce4bhg12rcd13ifvqf60","pricing_plan_id":"cebpf4jnsgd1na2vs0mg"},{"bike_id":"8748475d-1f7c-4dba-b00f-383c860c35fe","system_id":"levelo_inurba_marseille","lat":43.25092,"lon":5.39519,"is_reserved":false,"is_disabled":false,"rental_uris":{"android":"levelo://app?vid=8748475d-1f7c-4dba-b00f-383c860c35fe","ios":"levelo://app?vid=8748475d-1f7c-4dba-b00f-383c860c35fe"},"vehicle_type_id":"4","last_reported":1726679274,"current_range_meters":22800,"station_id":"ce4bhm12rcd13ifvqgkg","pricing_plan_id":"cebpf4jnsgd1na2vs0mg"},{"bike_id":"0448aa7f-4827-4a44-9668-a768f1dbe323","system_id":"levelo_inurba_marseille","lat":43.28619,"lon":5.35106,"is_reserved":false,"is_disabled":false,"rental_uris":{"android":"levelo://app?vid=0448aa7f-4827-4a44-9668-a768f1dbe323","ios":"levelo://app?vid=0448aa7f-4827-4a44-9668-a768f1dbe323"},"vehicle_type_id":"4","last_reported":1726679274,"current_range_meters":35600,"station_id":"ce4bhch2rcd13ifvqeug","pricing_plan_id":"cebpf4jnsgd1na2vs0mg"},