{"last_updated":1761574237,"ttl":60,"version":"2.2","data":{"bikes":[{"bike_id":"f7fb5b30-5519-49af-b391-7f68135abe01","system_id":"levelo_inurba_marseille","lat":43.28272,"lon":5.35078,"is_reserved":false,"is_disabled":false,"rental_uris":{"android":"levelo://app?vid=f7fb5b30-5519-49af-b391-7f68135abe01","ios":"levelo://app?vid=f7fb5b30-5519-49af-b391-7f68135abe01"},"vehicle_type_id":"4","last_reported":1761574237,"current_range_meters":2800,"station_id":"ce4bhbp2rcd13ifvqerg","pricing_plan_id":"cebpf4jnsgd1na2vs0mg"},{"bike_id":"9a907ef3-1105-4b30-90b9-124b1084edbb","system_id":"levelo_inurba_marseille","lat":43.27993,"lon":5.41671,"is_reserved":false,"is_disabled":false,"rental_uris":{"android":"levelo://app?vid=9a907ef3-1105-4b30-90b9-124b1084edbb","ios":"levelo://app?vid=9a907ef3-1105-4b30-90b9-124b1084edbb"},"vehicle_type_id":"4","last_reported":1761574237,"current_range_meters":2800,"station_id":"ce4bho12rcd13ifvqh1g","pricing_plan_id":"cebpf4jnsgd1na2vs0mg"},{"bike_id":"85dfc918-051a-4a6a-ac7d-c0216147b41f","system_id":"levelo_inurba_marseille","lat":43.24067,"lon":5.37765,"is_reserved":false,"is_disabled":false,"rental_uris":{"android":"levelo://app?vid=85dfc918-051a-4a6a-ac7d-c0216147b41f","ios":"levelo://app?vid=85dfc918-051a-4a6a-ac7d-c0216147b41f"},"vehicle_type_id":"4","last_reported":1761574237,"current_range_meters":2800,"station_id":"ce4bhnp2rcd13ifvqgvg","pricing_plan_id":"cebpf4jnsgd1na2vs0mg"},{"bike_id":"8be6a47c-9542-4fed-8109-f6d91a0f2b3f","system_id":"levelo_inurba_marseille","lat":43.29174,"lon":5.37161,"is_reserved":false,"is_disabled":false,"rental_uris":{"android":"levelo://app?vid=8be6a47c-9542-4fed-8109-f6d91a0f2b3f","ios":"levelo://app?vid=8be6a47c-9542-4fed-8109-f6d91a0f2b3f"},"vehicle_type_id":"4","last_reported":1761574237,"current_range_meters":3200,"station_id":"ce4bha92rcd13ifvqeh0","pricing_plan_id":"cebpf4jnsgd1na2vs0mg"},{"bike_id":"2d305dc6-e68d-4fc0-af3c-18b4adb6047b","system_id":"levelo_inurba_marseille","lat":43.225311,"lon":5.34837,"is_reserved":false,"is_disabled":false,"rental_uris":{"android":"levelo://app?vid=2d305dc6-e68d-4fc0-af3c-18b4adb6047b","ios":"levelo://app?vid=2d305dc6-e68d-4fc0-af3c-18b4adb6047b"},"vehicle_type_id":"4","last_reported":1761574237,"current_range_meters":3200,"station_id":"","pricing_plan_id":"cebpf4jnsgd1na2vs0mg"},{"bike_id":"732fb6ad-d560-45d7-89e0-7cabf4536ca4","system_id":"levelo_inurba_marseille","lat":43.30409,"lon":5.41279,"is_reserved":false,"is_disabled":false,"rental_uris":{"android":"levelo://app?vid=732fb6ad-d560-45d7-89e0-7cabf4536ca4","ios":"levelo://app?vid=732fb6ad-d560-45d7-89e0-7cabf4536ca4"},"vehicle_type_id":"4","last_reported":1761574237,"current_range_meters":4000,"station_id":"ce4bhop2rcd13ifvqh8g","pricing_plan_id":"cebpf4jnsgd1na2vs0mg"},{"bike_id":"b2652434-7d33-417b-8d5a-b2ebf0f809ac","system_id":"levelo_inurba_marseille","lat":43.28845,"lon":5.39303,"is_reserved":false,"is_disabled":false,"rental_uris":{"android":"levelo://app?vid=b2652434-7d33-417b-8d5a-b2ebf0f809ac","ios":"levelo://app?vid=b2652434-7d33-417b-8d5a-b2ebf0f809ac"},"vehicle_type_id":"4","last_reported":1761574237,"current_range_meters":4000,"station_id":"ce4bh2p2rcd13ifvqdi0","pricing_plan_id":"cebpf4jnsgd1na2vs0mg"},{"bike_id":"abfd401d-a8f7-4f3d-927b-2ef8d8e46d6f","system_id":"levelo_inurba_marseille","lat":43.27997,"lon":5.41661,"is_reserved":false,"is_disabled":false,"rental_uris":{"android":"levelo://app?vid=abfd401d-a8f7-4f3d-927b-2ef8d8e46d6f","ios":"levelo://app?vid=abfd401d-a8f7-4f3d-927b-2ef8d8e46d6f"},"vehicle_type_id":"4","last_reported":1761574237,"current_range_meters":4400,"station_id":"ce4bho12rcd13ifvqh1g","pricing_plan_id":"cebpf4jnsgd1na2vs0mg"},{"bike_id":"fe40cae3-655a-4d18-8283-9922d0359e1c","system_id":"levelo_inurba_marseille","lat":43.29569,"lon":5.39965,"is_reserved":false,"is_disabled":false,"rental_uris":{"android":"levelo://app?vid=fe40cae3-655a-4d18-8283-9922d0359e1c","ios":"levelo://app?vid=fe40cae3-655a-4d18-8283-9922d0359e1c"},"vehicle_type_id":"4","last_reported":1761574237,"current_range_meters":4400,"station_id":"ce4bh312rcd13ifvqdj0","pricing_plan_id":"cebpf4jnsgd1na2vs0mg"},{"bike_id":"44d43f93-f4cf-437b-b250-5921ba67a065","system_id":"levelo_inurba_marseille","lat":43.30298,"lon":5.39204,"is_reserved":false,"is_disabled":false,"rental_uris":{"android":"levelo://app?vid=44d43f93-f4cf-437b-b250-5921ba67a065","ios":"levelo://app?vid=44d43f93-f4cf-437b-b250-5921ba67a065"},"vehicle_type_id":"4","last_reported":1761574237,"current_range_meters":4400,"station_id":"ce4bgkh2rcd13ifvqbk0","pricing_plan_id":"cebpf4jnsgd1na2vs0mg"},{"bike_id":"e4d24b97-7b17-4da6-8674-bf2c1f581ba9","system_id":"levelo_inurba_marseille","lat":43.21187,"lon":5.35078,"is_reserved":false,"is_disabled":false,"rental_uris":{"android":"levelo://app?vid=e4d24b97-7b17-4da6-8674-bf2c1f581ba9","ios":"levelo://app?vid=e4d24b97-7b17-4da6-8674-bf2c1f581ba9"},"vehicle_type_id":"4","last_reported":1761574237,"current_range_meters":4800,"station_id":"st_cvj6sg6p6f1abm77japg","pricing_plan_id":"cebpf4jnsgd1na2vs0mg"},{"bike_id":"69880247-38f2-48e7-ab49-326f3d5eca30","system_id":"levelo_inurba_marseille","lat":43.21188,"lon":5.35082,"is_reserved":false,"is_disabled":false,"rental_uris":{"android":"levelo://app?vid=69880247-38f2-48e7-ab49-326f3d5eca30","ios":"levelo://app?vid=69880247-38f2-48e7-ab49-326f3d5eca30"},"vehicle_type_id":"4","last_reported":1761574237,"current_range_meters":4800,"station_id":"","pricing_plan_id":"cebpf4jnsgd1na2vs0mg"},{"bike_id":"8f3f2f2a-877c-4879-a92d-70b843f55d33","system_id":"levelo_inurba_marseille","lat":43.29249,"lon":5.37635,"is_reserved":false,"is_disabled":false,"rental_uris":{"android":"levelo://app?vid=8f3f2f2a-877c-4879-a92d-70b843f55d33","ios":"levelo://app?vid=8f3f2f2a-877c-4879-a92d-70b843f55d33"},"vehicle_type_id":"4","last_reported":1761574237,"current_range_meters":4800,"station_id":"ce4bgi12rcd13ifvqb80","pricing_plan_id":"cebpf4jnsgd1na2vs0mg"},{"bike_id":"bf2bddcd-531a-4ba8-a112-2a1f580eeb21","system_id":"levelo_inurba_marseille","lat":43.25865,"lon":5.39902,"is_reserved":false,"is_disabled":false,"rental_uris":{"android":"levelo://app?vid=bf2bddcd-531a-4ba8-a112-2a1f580eeb21","ios":"levelo://app?vid=bf2bddcd-531a-4ba8-a112-2a1f580eeb21"},"vehicle_type_id":"4","last_reported":1761574237,"current_range_meters":5600,"station_id":"ce4bhl92rcd13ifvqghg","pricing_plan_id":"cebpf4jnsgd1na2vs0mg"},{"bike_id":"ecc2a654-ef40-420c-9c33-a03084b0430d","system_id":"levelo_inurba_marseille","lat":43.28259,"lon":5.3508,"is_reserved":false,"is_disabled":false,"rental_uris":{"android":"levelo://app?vid=ecc2a654-ef40-420c-9c33-a03084b0430d","ios":"levelo://app?vid=ecc2a654-ef40-420c-9c33-a03084b0430d"},"vehicle_type_id":"4","last_reported":1761574237,"current_range_meters":5600,"station_id":"ce4bhbp2rcd13ifvqerg","pricing_plan_id":"cebpf4jnsgd1na2vs0mg"},{"bike_id":"11ed3229-da96-464f-bee1-15ff06dff35a","system_id":"levelo_inurba_marseille","lat":43.23054,"lon":5.35509,"is_reserved":false,"is_disabled":false,"rental_uris":{"android":"levelo://app?vid=11ed3229-da96-464f-bee1-15ff06dff35a","ios":"levelo://app?vid=11ed3229-da96-464f-bee1-15ff06dff35a"},"vehicle_type_id":"4","last_reported":1761574237,"current_range_meters":5600,"station_id":"cpo3342slgdg3j2ifvpg","pricing_plan_id":"cebpf4jnsgd1na2vs0mg"},{"bike_id":"242a2cae-5090-416c-bb06-fc75f23214ab","system_id":"levelo_inurba_marseille","lat":43.29965,"lon":5.37176,"is_reserved":false,"is_disabled":false,"rental_uris":{"android":"levelo://app?vid=242a2cae-5090-416c-bb06-fc75f23214ab","ios":"levelo://app?vid=242a2cae-5090-416c-bb06-fc75f23214ab"},"vehicle_type_id":"4","last_reported":1761574237,"current_range_meters":5600,"station_id":"ce4bgr92rcd13ifvqc7g","pricing_plan_id":"cebpf4jnsgd1na2vs0mg"},{"bike_id":"13f12d24-3fc3-4202-88f0-68cc1be473cc","system_id":"levelo_inurba_marseille","lat":43.285254,"lon":5.440869,"is_reserved":false,"is_disabled":false,"rental_uris":{"android":"levelo://app?vid=13f12d24-3fc3-4202-88f0-68cc1be473cc","ios":"levelo://app?vid=13f12d24-3fc3-4202-88f0-68cc1be473cc"},"vehicle_type_id":"4","last_reported":1761574237,"current_range_meters":6000,"station_id":"st_d3j3df2ikq2c7380ej80","pricing_plan_id":"cebpf4jnsgd1na2vs0mg"},{"bike_id":"3b3a2036-2b61-4f69-b210-68f571d1d055","system_id":"levelo_inurba_marseille","lat":43.2467,"lon":5.38156,"is_reserved":false,"is_disabled":false,"rental_uris":{"android":"levelo://app?vid=3b3a2036-2b61-4f69-b210-68f571d1d055","ios":"levelo://app?vid=3b3a2036-2b61-4f69-b210-68f571d1d055"},"vehicle_type_id":"4","last_reported":1761574237,"current_range_meters":6000,"station_id":"ce4bhih2rcd13ifvqfr0","pricing_plan_id":"cebpf4jnsgd1na2vs0mg"},{"bike_id":"9d943b33-e12f-4684-b457-eab990b642ab","system_id":"levelo_inurba_marseille","lat":43.21183,"lon":5.35085,"is_reserved":false,"is_disabled":false,"rental_uris":{"android":"levelo://app?vid=9d943b33-e12f-4684-b457-eab990b642ab","ios":"levelo://app?vid=9d943b33-e12f-4684-b457-eab990b642ab"},"vehicle_type_id":"4","last_reported":1761574237,"current_range_meters":6000,"station_id":"st_cvj6sg6p6f1abm77japg","pricing_plan_id":"cebpf4jnsgd1na2vs0mg"},{"bike_id":"6ee611b3-bf13-495e-a0dc-dfd1a8718271","system_id":"levelo_inurba_marseille","lat":43.29821,"lon":5.44072,"is_reserved":false,"is_disabled":false,"rental_uris":{"android":"levelo://app?vid=6ee611b3-bf13-495e-a0dc-dfd1a8718271","ios":"levelo://app?vid=6ee611b3-bf13-495e-a0dc-dfd1a8718271"},"vehicle_type_id":"4","last_reported":1761574237,"current_range_meters":6400,"station_id":"st_d3jp68qikq2c7381ktn0","pricing_plan_id":"cebpf4jnsgd1na2vs0mg"},{"bike_id":"e2173c80-084f-4004-8634-a28c7c20d1c6","system_id":"levelo_inurba_marseille","lat":43.28778,"lon":5.3613,"is_reserved":false,"is_disabled":false,"rental_uris":{"android":"levelo://app?vid=e2173c80-084f-4004-8634-a28c7c20d1c6","ios":"levelo://app?vid=e2173c80-084f-4004-8634-a28c7c20d1c6"},"vehicle_type_id":"4","last_reported":1761574237,"current_range_meters":6400,"station_id":"ce4bhah2rcd13ifvqej0","pricing_plan_id":"cebpf4jnsgd1na2vs0mg"},{"bike_id":"6d148cc3-0681-4dcb-a26b-81f30200d1d0","system_id":"levelo_inurba_marseille","lat":43.279437,"lon":5.415352,"is_reserved":false,"is_disabled":false,"rental_uris":{"android":"levelo://app?vid=6d148cc3-0681-4dcb-a26b-81f30200d1d0","ios":"levelo://app?vid=6d148cc3-0681-4dcb-a26b-81f30200d1d0"},"vehicle_type_id":"4","last_reported":1761574237,"current_range_meters":6800,"station_id":"ce4bho12rcd13ifvqh1g","pricing_plan_id":"cebpf4jnsgd1na2vs0mg"},{"bike_id":"e1aa20f8-799a-4567-bfd0-31e71eee617f","system_id":"levelo_inurba_marseille","lat":43.31437,"lon":5.38885,"is_reserved":false,"is_disabled":false,"rental_uris":{"android":"levelo://app?vid=e1aa20f8-799a-4567-bfd0-31e71eee617f","ios":"levelo://app?vid=e1aa20f8-799a-4567-bfd0-31e71eee617f"},"vehicle_type_id":"4","last_reported":1761574237,"current_range_meters":6800,"station_id":"","pricing_plan_id":"cebpf4jnsgd1na2vs0mg"},{"bike_id":"04ad3944-578a-4ac8-9b58-8b818d2b30bb","system_id":"levelo_inurba_marseille","lat":43.26937,"lon":5.38908,"is_reserved":false,"is_disabled":false,"rental_uris":{"android":"levelo://app?vid=04ad3944-578a-4ac8-9b58-8b818d2b30bb","ios":"levelo://app?vid=04ad3944-578a-4ac8-9b58-8b818d2b30bb"},"vehicle_type_id":"4","last_reported":1761574237,"current_range_meters":6800,"station_id":"ce4bhhh2rcd13ifvqfl0","pricing_plan_id":"cebpf4jnsgd1na2vs0mg"},{"bike_id":"4ade9d83-f2d5-4d19-a54e-74fbd9ec2b53","system_id":"levelo_inurba_marseille","lat":43.3235,"lon":5.38897,"is_reserved":false,"is_disabled":false,"rental_uris":{"android":"levelo://app?vid=4ade9d83-f2d5-4d19-a54e-74fbd9ec2b53","ios":"levelo://app?vid=4ade9d83-f2d5-4d19-a54e-74fbd9ec2b53"},"vehicle_type_id":"4","last_reported":1761574237,"current_range_meters":6800,"station_id":"ce4bhqp2rcd13ifvqhog","pricing_plan_id":"cebpf4jnsgd1na2vs0mg"},{"bike_id":"1d26f9e9-33fb-4449-9bac-dc5323b51c13","system_id":"levelo_inurba_marseille","lat":43.25108,"lon":5.40322,"is_reserved":false,"is_disabled":false,"rental_uris":{"android":"levelo://app?vid=1d26f9e9-33fb-4449-9bac-dc5323b51c13","ios":"levelo://app?vid=1d26f9e9-33fb-4449-9bac-dc5323b51c13"},"vehicle_type_id":"4","last_reported":1761574237,"current_range_meters":6800,"station_id":"ce4bhlh2rcd13ifvqgig","pricing_plan_id":"cebpf4jnsgd1na2vs0mg"},{"bike_id":"23886080-a6d8-47bc-a4a0-7192cb03e53b","system_id":"levelo_inurba_marseille","lat":43.30551,"lon":5.36533,"is_reserved":false,"is_disabled":false,"rental_uris":{"android":"levelo://app?vid=23886080-a6d8-47bc-a4a0-7192cb03e53b","ios":"levelo://app?vid=23886080-a6d8-47bc-a4a0-7192cb03e53b"},"vehicle_type_id":"4","last_reported":1761574237,"current_range_meters":7200,"station_id":"ce4bgs12rcd13ifvqcag","pricing_plan_id":"cebpf4jnsgd1na2vs0mg"},{"bike_id":"4ebfc9c9-75aa-4d2a-b7b8-7db1ded305e6","system_id":"levelo_inurba_marseille","lat":43.23056,"lon":5.35499,"is_reserved":false,"is_disabled":false,"rental_uris":{"android":"levelo://app?vid=4ebfc9c9-75aa-4d2a-b7b8-7db1ded305e6","ios":"levelo://app?vid=4ebfc9c9-75aa-4d2a-b7b8-7db1ded305e6"},"vehicle_type_id":"4","last_reported":1761574237,"current_range_meters":8000,"station_id":"cpo3342slgdg3j2ifvpg","pricing_plan_id":"cebpf4jnsgd1na2vs0mg"},{"bike_id":"767c8600-d9d5-4fa0-a40a-95131a234cfc","system_id":"levelo_inurba_marseille","lat":43.298397,"lon":5.362795,"is_reserved":false,"is_disabled":false,"rental_uris":{"android":"levelo://app?vid=767c8600-d9d5-4fa0-a40a-95131a234cfc","ios":"levelo://app?vid=767c8600-d9d5-4fa0-a40a-95131a234cfc"},"vehicle_type_id":"4","last_reported":1761574237,"current_range_meters":8000,"station_id":"ce4bgpp2rcd13ifvqc3g","pricing_plan_id":"cebpf4jnsgd1na2vs0mg"},{"bike_id":"11ab6101-beca-481d-82f7-97731cb7a212","system_id":"levelo_inurba_marseille","lat":43.292572,"lon":5.409056,"is_reserved":false,"is_disabled":false,"rental_uris":{"android":"levelo://app?vid=11ab6101-beca-481d-82f7-97731cb7a212","ios":"levelo://app?vid=11ab6101-beca-481d-82f7-97731cb7a212"},"vehicle_type_id":"4","last_reported":1761574237,"current_range_meters":8000,"station_id":"ce4bh192rcd13ifvqdc0","pricing_plan_id":"cebpf4jnsgd1na2vs0mg"},{"bike_id":"3ec3b237-0337-45dd-a8a3-b21d546dba40","system_id":"levelo_inurba_marseille","lat":43.24797,"lon":5.37465,"is_reserved":false,"is_disabled":false,"rental_uris":{"android":"levelo://app?vid=3ec3b237-0337-45dd-a8a3-b21d546dba40","ios":"levelo://app?vid=3ec3b237-0337-45dd-a8a3-b21d546dba40"},"vehicle_type_id":"4","last_reported":1761574237,"current_range_meters":8000,"station_id":"ce4bhgh2rcd13ifvqfb0","pricing_plan_id":"cebpf4jnsgd1na2vs0mg"},{"bike_id":"15f5d1c8-c149-4026-99ad-6c327c962947","system_id":"levelo_inurba_marseille","lat":43.26025,"lon":5.37557,"is_reserved":false,"is_disabled":false,"rental_uris":{"android":"levelo://app?vid=15f5d1c8-c149-4026-99ad-6c327c962947","ios":"levelo://app?vid=15f5d1c8-c149-4026-99ad-6c327c962947"},"vehicle_type_id":"4","last_reported":1761574237,"current_range_meters":8000,"station_id":"ce4bhgh2rcd13ifvqfa0","pricing_plan_id":"cebpf4jnsgd1na2vs0mg"},{"bike_id":"2ff820dd-4701-4c44-978c-027d1723e1a8","system_id":"levelo_inurba_marseille","lat":43.2174,"lon":5.34639,"is_reserved":false,"is_disabled":false,"rental_uris":{"android":"levelo://app?vid=2ff820dd-4701-4c44-978c-027d1723e1a8","ios":"levelo://app?vid=2ff820dd-4701-4c44-978c-027d1723e1a8"},"vehicle_type_id":"4","last_reported":1761574237,"current_range_meters":8400,"station_id":"st_cvj6r9ubvosntc0bgbag","pricing_plan_id":"cebpf4jnsgd1na2vs0mg"},{"bike_id":"dbbb35ab-b268-46c0-a37c-3ad17684ab3e","system_id":"levelo_inurba_marseille","lat":43.22932,"lon":5.35373,"is_reserved":false,"is_disabled":false,"rental_uris":{"android":"levelo://app?vid=dbbb35ab-b268-46c0-a37c-3ad17684ab3e","ios":"levelo://app?vid=dbbb35ab-b268-46c0-a37c-3ad17684ab3e"},"vehicle_type_id":"4","last_reported":1761574237,"current_range_meters":8400,"station_id":"cpo3532slgdg3j2ikp40","pricing_plan_id":"cebpf4jnsgd1na2vs0mg"},{"bike_id":"8e49c088-979f-4ff9-81b1-d21901a3a257","system_id":"levelo_inurba_marseille","lat":43.28157,"lon":5.34997,"is_reserved":false,"is_disabled":false,"rental_uris":{"android":"levelo://app?vid=8e49c088-979f-4ff9-81b1-d21901a3a257","ios":"levelo://app?vid=8e49c088-979f-4ff9-81b1-d21901a3a257"},"vehicle_type_id":"4","last_reported":1761574237,"current_range_meters":8400,"station_id":"","pricing_plan_id":"cebpf4jnsgd1na2vs0mg"},{"bike_id":"c0b81f28-bbba-4247-a74b-c55a34b31846","system_id":"levelo_inurba_marseille","lat":43.33258,"lon":5.41086,"is_reserved":false,"is_disabled":false,"rental_uris":{"android":"levelo://app?vid=c0b81f28-bbba-4247-a74b-c55a34b31846","ios":"levelo://app?vid=c0b81f28-bbba-4247-a74b-c55a34b31846"},"vehicle_type_id":"4","last_reported":1761574237,"current_range_meters":8800,"station_id":"","pricing_plan_id":"cebpf4jnsgd1na2vs0mg"},{"bike_id":"376f37db-9367-433a-9ac4-7f57991dd845","system_id":"levelo_inurba_marseille","lat":43.32121,"lon":5.36764,"is_reserved":false,"is_disabled":false,"rental_uris":{"android":"levelo://app?vid=376f37db-9367-433a-9ac4-7f57991dd845","ios":"levelo://app?vid=376f37db-9367-433a-9ac4-7f57991dd845"},"vehicle_type_id":"4","last_reported":1761574237,"current_range_meters":8800,"station_id":"ce4bhrh2rcd13ifvqhug","pricing_plan_id":"cebpf4jnsgd1na2vs0mg"},{"bike_id":"4e2105e0-1cec-4912-aef2-64e29f4157b0","system_id":"levelo_inurba_marseille","lat":43.2549,"lon":5.37648,"is_reserved":false,"is_disabled":false,"rental_uris":{"android":"levelo://app?vid=4e2105e0-1cec-4912-aef2-64e29f4157b0","ios":"levelo://app?vid=4e2105e0-1cec-4912-aef2-64e29f4157b0"},"vehicle_type_id":"4","last_reported":1761574237,"current_range_meters":8800,"station_id":"ce4bhh12rcd13ifvqff0","pricing_plan_id":"cebpf4jnsgd1na2vs0mg"},{"bike_id":"41d45b45-3a52-4b5a-b2b3-1e62d5490ada","system_id":"levelo_inurba_marseille","lat":43.285377,"lon":5.440956,"is_reserved":false,"is_disabled":false,"rental_uris":{"android":"levelo://app?vid=41d45b45-3a52-4b5a-b2b3-1e62d5490ada","ios":"levelo://app?vid=41d45b45-3a52-4b5a-b2b3-1e62d5490ada"},"vehicle_type_id":"4","last_reported":1761574237,"current_range_meters":8800,"station_id":"st_d3j3df2ikq2c7380ej80","pricing_plan_id":"cebpf4jnsgd1na2vs0mg"},{"bike_id":"011d8fef-7a9a-416f-9b40-93ab2721768d","system_id":"levelo_inurba_marseille","lat":43.28247,"lon":5.34999,"is_reserved":false,"is_disabled":false,"rental_uris":{"android":"levelo://app?vid=011d8fef-7a9a-416f-9b40-93ab2721768d","ios":"levelo://app?vid=011d8fef-7a9a-416f-9b40-93ab2721768d"},"vehicle_type_id":"4","last_reported":1761574237,"current_range_meters":8800,"station_id":"","pricing_plan_id":"cebpf4jnsgd1na2vs0mg"},{"bike_id":"68d8a4ed-aaa3-4964-bb8d-19a7432c988d","system_id":"levelo_inurba_marseille","lat":43.3211,"lon":5.36772,"is_reserved":false,"is_disabled":false,"rental_uris":{"android":"levelo://app?vid=68d8a4ed-aaa3-4964-bb8d-19a7432c988d","ios":"levelo://app?vid=68d8a4ed-aaa3-4964-bb8d-19a7432c988d"},"vehicle_type_id":"4","last_reported":1761574237,"current_range_meters":8800,"station_id":"ce4bhrh2rcd13ifvqhug","pricing_plan_id":"cebpf4jnsgd1na2vs0mg"},{"bike_id":"67f8857f-0853-46d2-b9ef-96c5ce2639bc","system_id":"levelo_inurba_marseille","lat":43.230518,"lon":5.354935,"is_reserved":false,"is_disabled":false,"rental_uris":{"android":"levelo://app?vid=67f8857f-0853-46d2-b9ef-96c5ce2639bc","ios":"levelo://app?vid=67f8857f-0853-46d2-b9ef-96c5ce2639bc"},"vehicle_type_id":"4","last_reported":1761574237,"current_range_meters":8800,"station_id":"cpo3342slgdg3j2ifvpg","pricing_plan_id":"cebpf4jnsgd1na2vs0mg"},{"bike_id":"af01d055-b0f4-4e21-ab26-45fb6440de15","system_id":"levelo_inurba_marseille","lat":43.299,"lon":5.43673,"is_reserved":false,"is_disabled":false,"rental_uris":{"android":"levelo://app?vid=af01d055-b0f4-4e21-ab26-45fb6440de15","ios":"levelo://app?vid=af01d055-b0f4-4e21-ab26-45fb6440de15"},"vehicle_type_id":"4","last_reported":1761574237,"current_range_meters":8800,"station_id":"ce4bhpp2rcd13ifvqhfg","pricing_plan_id":"cebpf4jnsgd1na2vs0mg"},{"bike_id":"de5cece4-6186-4ccb-b70e-a25e8bd3fc86","system_id":"levelo_inurba_marseille","lat":43.337444,"lon":5.374475,"is_reserved":false,"is_disabled":false,"rental_uris":{"android":"levelo://app?vid=de5cece4-6186-4ccb-b70e-a25e8bd3fc86","ios":"levelo://app?vid=de5cece4-6186-4ccb-b70e-a25e8bd3fc86"},"vehicle_type_id":"4","last_reported":1761574237,"current_range_meters":8800,"station_id":"","pricing_plan_id":"cebpf4jnsgd1na2vs0mg"},{"bike_id":"54a26065-ae65-4d07-947d-498eda9ead61","system_id":"levelo_inurba_marseille","lat":43.26681,"lon":5.38274,"is_reserved":false,"is_disabled":false,"rental_uris":{"android":"levelo://app?vid=54a26065-ae65-4d07-947d-498eda9ead61","ios":"levelo://app?vid=54a26065-ae65-4d07-947d-498eda9ead61"},"vehicle_type_id":"4","last_reported":1761574237,"current_range_meters":9200,"station_id":"ce4bhg92rcd13ifvqf90","pricing_plan_id":"cebpf4jnsgd1na2vs0mg"},{"bike_id":"a0cbb20f-b4db-4bfc-ba17-cdc3204f3b87","system_id":"levelo_inurba_marseille","lat":43.30304,"lon":5.36883,"is_reserved":false,"is_disabled":false,"rental_uris":{"android":"levelo://app?vid=a0cbb20f-b4db-4bfc-ba17-cdc3204f3b87","ios":"levelo://app?vid=a0cbb20f-b4db-4bfc-ba17-cdc3204f3b87"},"vehicle_type_id":"4","last_reported":1761574237,"current_range_meters":9200,"station_id":"ce4bgqh2rcd13ifvqc5g","pricing_plan_id":"cebpf4jnsgd1na2vs0mg"},{"bike_id":"5c804781-5aea-4e12-8d03-cb8829527549","system_id":"levelo_inurba_marseille","lat":43.29977,"lon":5.37173,"is_reserved":false,"is_disabled":false,"rental_uris":{"android":"levelo://app?vid=5c804781-5aea-4e12-8d03-cb8829527549","ios":"levelo://app?vid=5c804781-5aea-4e12-8d03-cb8829527549"},"vehicle_type_id":"4","last_reported":1761574237,"current_range_meters":9200,"station_id":"ce4bgr92rcd13ifvqc7g","pricing_plan_id":"cebpf4jnsgd1na2vs0mg"},{"bike_id":"6d869614-3604-49bd-a725-40ab1f26375d","system_id":"levelo_inurba_marseille","lat":43.30198,"lon":5.367551,"is_reserved":false,"is_disabled":false,"rental_uris":{"android":"levelo://app?vid=6d869614-3604-49bd-a725-40ab1f26375d","ios":"levelo://app?vid=6d869614-3604-49bd-a725-40ab1f26375d"},"vehicle_type_id":"4","last_reported":1761574237,"current_range_meters":9200,"station_id":"ce4bgrh2rcd13ifvqc8g","pricing_plan_id":"cebpf4jnsgd1na2vs0mg"},{"bike_id":"64b75b4a-3497-4861-8cc2-90dd62cd9f5e","system_id":"levelo_inurba_marseille","lat":43.29304,"lon":5.43437,"is_reserved":false,"is_disabled":false,"rental_uris":{"android":"levelo://app?vid=64b75b4a-3497-4861-8cc2-90dd62cd9f5e","ios":"levelo://app?vid=64b75b4a-3497-4861-8cc2-90dd62cd9f5e"},"vehicle_type_id":"4","last_reported":1761574237,"current_range_meters":9200,"station_id":"","pricing_plan_id":"cebpf4jnsgd1na2vs0mg"},{"bike_id":"375b3fa6-4f19-4ffb-8f5d-26c47e160841","system_id":"levelo_inurba_marseille","lat":43.21749,"lon":5.34606,"is_reserved":false,"is_disabled":false,"rental_uris":{"android":"levelo://app?vid=375b3fa6-4f19-4ffb-8f5d-26c47e160841","ios":"levelo://app?vid=375b3fa6-4f19-4ffb-8f5d-26c47e160841"},"vehicle_type_id":"4","last_reported":1761574237,"current_range_meters":9200,"station_id":"","pricing_plan_id":"cebpf4jnsgd1na2vs0mg"},{"bike_id":"520a923d-8393-46c2-9fe4-754780c4305a","system_id":"levelo_inurba_marseille","lat":43.29463,"lon":5.43381,"is_reserved":false,"is_disabled":false,"rental_uris":{"android":"levelo://app?vid=520a923d-8393-46c2-9fe4-754780c4305a","ios":"levelo://app?vid=520a923d-8393-46c2-9fe4-754780c4305a"},"vehicle_type_id":"4","last_reported":1761574237,"current_range_meters":9200,"station_id":"st_d3j5ugp08ojc73fj9d10","pricing_plan_id":"cebpf4jnsgd1na2vs0mg"},{"bike_id":"2385021a-3ab5-4e98-b753-188e744ea2a9","system_id":"levelo_inurba_marseille","lat":43.2861,"lon":5.37065,"is_reserved":false,"is_disabled":false,"rental_uris":{"android":"levelo://app?vid=2385021a-3ab5-4e98-b753-188e744ea2a9","ios":"levelo://app?vid=2385021a-3ab5-4e98-b753-188e744ea2a9"},"vehicle_type_id":"4","last_reported":1761574237,"current_range_meters":9200,"station_id":"ce4bht12rcd13ifvqi60","pricing_plan_id":"cebpf4jnsgd1na2vs0mg"},{"bike_id":"e4ccce50-4824-4895-aa8c-033835526f23","system_id":"levelo_inurba_marseille","lat":43.318826,"lon":5.399722,"is_reserved":false,"is_disabled":false,"rental_uris":{"android":"levelo://app?vid=e4ccce50-4824-4895-aa8c-033835526f23","ios":"levelo://app?vid=e4ccce50-4824-4895-aa8c-033835526f23"},"vehicle_type_id":"4","last_reported":1761574237,"current_range_meters":9200,"station_id":"","pricing_plan_id":"cebpf4jnsgd1na2vs0mg"},{"bike_id":"33906dfb-7cab-4ddf-b6c2-3b5b11a6f76b","system_id":"levelo_inurba_marseille","lat":43.32487,"lon":5.3656,"is_reserved":false,"is_disabled":false,"rental_uris":{"android":"levelo://app?vid=33906dfb-7cab-4ddf-b6c2-3b5b11a6f76b","ios":"levelo://app?vid=33906dfb-7cab-4ddf-b6c2-3b5b11a6f76b"},"vehicle_type_id":"4","last_reported":1761574237,"current_range_meters":9200,"station_id":"ce4bhs12rcd13ifvqhvg","pricing_plan_id":"cebpf4jnsgd1na2vs0mg"},{"bike_id":"c148f3de-8838-403c-9d3f-3c281cdce3df","system_id":"levelo_inurba_marseille","lat":43.30299,"lon":5.39225,"is_reserved":false,"is_disabled":false,"rental_uris":{"android":"levelo://app?vid=c148f3de-8838-403c-9d3f-3c281cdce3df","ios":"levelo://app?vid=c148f3de-8838-403c-9d3f-3c281cdce3df"},"vehicle_type_id":"4","last_reported":1761574237,"current_range_meters":9600,"station_id":"ce4bgkh2rcd13ifvqbk0","pricing_plan_id":"cebpf4jnsgd1na2vs0mg"},{"bike_id":"8847af5d-c1ad-4d8d-a5c1-273c3b41c105","system_id":"levelo_inurba_marseille","lat":43.322462,"lon":5.419617,"is_reserved":false,"is_disabled":false,"rental_uris":{"android":"levelo://app?vid=8847af5d-c1ad-4d8d-a5c1-273c3b41c105","ios":"levelo://app?vid=8847af5d-c1ad-4d8d-a5c1-273c3b41c105"},"vehicle_type_id":"4","last_reported":1761574237,"current_range_meters":9600,"station_id":"","pricing_plan_id":"cebpf4jnsgd1na2vs0mg"},{"bike_id":"de0ca7a8-116a-46c8-8c50-6b445a473423","system_id":"levelo_inurba_marseille","lat":43.2887,"lon":5.42529,"is_reserved":false,"is_disabled":false,"rental_uris":{"android":"levelo://app?vid=de0ca7a8-116a-46c8-8c50-6b445a473423","ios":"levelo://app?vid=de0ca7a8-116a-46c8-8c50-6b445a473423"},"vehicle_type_id":"4","last_reported":1761574237,"current_range_meters":9600,"station_id":"st_d3b462108ojc7389ooeg","pricing_plan_id":"cebpf4jnsgd1na2vs0mg"},{"bike_id":"61e35669-bebb-443d-8601-985c12c6d9ec","system_id":"levelo_inurba_marseille","lat":43.32482,"lon":5.36573,"is_reserved":false,"is_disabled":false,"rental_uris":{"android":"levelo://app?vid=61e35669-bebb-443d-8601-985c12c6d9ec","ios":"levelo://app?vid=61e35669-bebb-443d-8601-985c12c6d9ec"},"vehicle_type_id":"4","last_reported":1761574237,"current_range_meters":9600,"station_id":"ce4bhs12rcd13ifvqhvg","pricing_plan_id":"cebpf4jnsgd1na2vs0mg"},{"bike_id":"650419e3-ecbd-4bbf-9cb4-5da48a9f1d28","system_id":"levelo_inurba_marseille","lat":43.30628,"lon":5.40093,"is_reserved":false,"is_disabled":false,"rental_uris":{"android":"levelo://app?vid=650419e3-ecbd-4bbf-9cb4-5da48a9f1d28","ios":"levelo://app?vid=650419e3-ecbd-4bbf-9cb4-5da48a9f1d28"},"vehicle_type_id":"4","last_reported":1761574237,"current_range_meters":9600,"station_id":"ce4bh112rcd13ifvqda0","pricing_plan_id":"cebpf4jnsgd1na2vs0mg"},{"bike_id":"e80257ad-078d-4372-925c-fb433f33b9c1","system_id":"levelo_inurba_marseille","lat":43.29944,"lon":5.36562,"is_reserved":false,"is_disabled":false,"rental_uris":{"android":"levelo://app?vid=e80257ad-078d-4372-925c-fb433f33b9c1","ios":"levelo://app?vid=e80257ad-078d-4372-925c-fb433f33b9c1"},"vehicle_type_id":"4","last_reported":1761574237,"current_range_meters":9600,"station_id":"ce4bgm92rcd13ifvqbr0","pricing_plan_id":"cebpf4jnsgd1na2vs0mg"},{"bike_id":"16567260-6ce1-441f-b9e9-be4c60bcf5bc","system_id":"levelo_inurba_marseille","lat":43.31484,"lon":5.37315,"is_reserved":false,"is_disabled":false,"rental_uris":{"android":"levelo://app?vid=16567260-6ce1-441f-b9e9-be4c60bcf5bc","ios":"levelo://app?vid=16567260-6ce1-441f-b9e9-be4c60bcf5bc"},"vehicle_type_id":"4","last_reported":1761574237,"current_range_meters":10000,"station_id":"ce4bgt12rcd13ifvqcd0","pricing_plan_id":"cebpf4jnsgd1na2vs0mg"},{"bike_id":"eb7c4021-3dd5-4f23-bd2b-8a8dfaa6752f","system_id":"levelo_inurba_marseille","lat":43.29969,"lon":5.38497,"is_reserved":false,"is_disabled":false,"rental_uris":{"android":"levelo://app?vid=eb7c4021-3dd5-4f23-bd2b-8a8dfaa6752f","ios":"levelo://app?vid=eb7c4021-3dd5-4f23-bd2b-8a8dfaa6752f"},"vehicle_type_id":"4","last_reported":1761574237,"current_range_meters":10000,"station_id":"ce4bgj92rcd13ifvqbd0","pricing_plan_id":"cebpf4jnsgd1na2vs0mg"},{"bike_id":"3042439a-cc80-4cf5-bab4-b7b4aaa615db","system_id":"levelo_inurba_marseille","lat":43.26027,"lon":5.37552,"is_reserved":false,"is_disabled":false,"rental_uris":{"android":"levelo://app?vid=3042439a-cc80-4cf5-bab4-b7b4aaa615db","ios":"levelo://app?vid=3042439a-cc80-4cf5-bab4-b7b4aaa615db"},"vehicle_type_id":"4","last_reported":1761574237,"current_range_meters":10000,"station_id":"ce4bhgh2rcd13ifvqfa0","pricing_plan_id":"cebpf4jnsgd1na2vs0mg"},{"bike_id":"109eb898-c171-4330-adea-84bd1cfd3c1e","system_id":"levelo_inurba_marseille","lat":43.24802,"lon":5.37467,"is_reserved":false,"is_disabled":false,"rental_uris":{"android":"levelo://app?vid=109eb898-c171-4330-adea-84bd1cfd3c1e","ios":"levelo://app?vid=109eb898-c171-4330-adea-84bd1cfd3c1e"},"vehicle_type_id":"4","last_reported":1761574237,"current_range_meters":10000,"station_id":"ce4bhgh2rcd13ifvqfb0","pricing_plan_id":"cebpf4jnsgd1na2vs0mg"},{"bike_id":"b5a069c1-d3e3-4255-81b3-9a738d68b4b1","system_id":"levelo_inurba_marseille","lat":43.28475,"lon":5.3843,"is_reserved":false,"is_disabled":false,"rental_uris":{"android":"levelo://app?vid=b5a069c1-d3e3-4255-81b3-9a738d68b4b1","ios":"levelo://app?vid=b5a069c1-d3e3-4255-81b3-9a738d68b4b1"},"vehicle_type_id":"4","last_reported":1761574237,"current_range_meters":10800,"station_id":"ce4bh512rcd13ifvqe3g","pricing_plan_id":"cebpf4jnsgd1na2vs0mg"},{"bike_id":"2a876339-eeed-4e3b-99f7-52d12404ab29","system_id":"levelo_inurba_marseille","lat":43.26551,"lon":5.37292,"is_reserved":false,"is_disabled":false,"rental_uris":{"android":"levelo://app?vid=2a876339-eeed-4e3b-99f7-52d12404ab29","ios":"levelo://app?vid=2a876339-eeed-4e3b-99f7-52d12404ab29"},"vehicle_type_id":"4","last_reported":1761574237,"current_range_meters":10800,"station_id":"ce4bhg12rcd13ifvqf70","pricing_plan_id":"cebpf4jnsgd1na2vs0mg"},{"bike_id":"184f2c39-d3f3-4131-9428-a9d2f8c665d5","system_id":"levelo_inurba_marseille","lat":43.29908,"lon":5.37478,"is_reserved":false,"is_disabled":false,"rental_uris":{"android":"levelo://app?vid=184f2c39-d3f3-4131-9428-a9d2f8c665d5","ios":"levelo://app?vid=184f2c39-d3f3-4131-9428-a9d2f8c665d5"},"vehicle_type_id":"4","last_reported":1761574237,"current_range_meters":10800,"station_id":"","pricing_plan_id":"cebpf4jnsgd1na2vs0mg"},{"bike_id":"d9bb607d-1ecc-49cc-9f82-e52383a3bc84","system_id":"levelo_inurba_marseille","lat":43.2931,"lon":5.4119,"is_reserved":false,"is_disabled":false,"rental_uris":{"android":"levelo://app?vid=d9bb607d-1ecc-49cc-9f82-e52383a3bc84","ios":"levelo://app?vid=d9bb607d-1ecc-49cc-9f82-e52383a3bc84"},"vehicle_type_id":"4","last_reported":1761574237,"current_range_meters":10800,"station_id":"","pricing_plan_id":"cebpf4jnsgd1na2vs0mg"},{"bike_id":"81a1b6fb-1f88-4713-82cd-8758a38cffd9","system_id":"levelo_inurba_marseille","lat":43.211902,"lon":5.350728,"is_reserved":false,"is_disabled":false,"rental_uris":{"android":"levelo://app?vid=81a1b6fb-1f88-4713-82cd-8758a38cffd9","ios":"levelo://app?vid=81a1b6fb-1f88-4713-82cd-8758a38cffd9"},"vehicle_type_id":"4","last_reported":1761574237,"current_range_meters":10800,"station_id":"cpo3342slgdg3j2ifvpg","pricing_plan_id":"cebpf4jnsgd1na2vs0mg"},{"bike_id":"6b597f47-b74f-4af1-9261-019735c79aa0","system_id":"levelo_inurba_marseille","lat":43.29524,"lon":5.38544,"is_reserved":false,"is_disabled":false,"rental_uris":{"android":"levelo://app?vid=6b597f47-b74f-4af1-9261-019735c79aa0","ios":"levelo://app?vid=6b597f47-b74f-4af1-9261-019735c79aa0"},"vehicle_type_id":"4","last_reported":1761574237,"current_range_meters":11200,"station_id":"ce4bgih2rcd13ifvqba0","pricing_plan_id":"cebpf4jnsgd1na2vs0mg"},{"bike_id":"7348219f-62a2-4f61-9dc3-4c6ae6e126f0","system_id":"levelo_inurba_marseille","lat":43.33743,"lon":5.37469,"is_reserved":false,"is_disabled":false,"rental_uris":{"android":"levelo://app?vid=7348219f-62a2-4f61-9dc3-4c6ae6e126f0","ios":"levelo://app?vid=7348219f-62a2-4f61-9dc3-4c6ae6e126f0"},"vehicle_type_id":"4","last_reported":1761574237,"current_range_meters":11200,"station_id":"","pricing_plan_id":"cebpf4jnsgd1na2vs0mg"},{"bike_id":"01183e53-05a1-40f5-b287-3f596e9fa674","system_id":"levelo_inurba_marseille","lat":43.29164,"lon":5.37167,"is_reserved":false,"is_disabled":false,"rental_uris":{"android":"levelo://app?vid=01183e53-05a1-40f5-b287-3f596e9fa674","ios":"levelo://app?vid=01183e53-05a1-40f5-b287-3f596e9fa674"},"vehicle_type_id":"4","last_reported":1761574237,"current_range_meters":11200,"station_id":"ce4bha92rcd13ifvqeh0","pricing_plan_id":"cebpf4jnsgd1na2vs0mg"},{"bike_id":"423e556f-17c4-4408-a1f1-7c1e84f1b6f8","system_id":"levelo_inurba_marseille","lat":43.2315,"lon":5.4373,"is_reserved":false,"is_disabled":false,"rental_uris":{"android":"levelo://app?vid=423e556f-17c4-4408-a1f1-7c1e84f1b6f8","ios":"levelo://app?vid=423e556f-17c4-4408-a1f1-7c1e84f1b6f8"},"vehicle_type_id":"4","last_reported":1761574237,"current_range_meters":11200,"station_id":"ce4bhmp2rcd13ifvqgog","pricing_plan_id":"cebpf4jnsgd1na2vs0mg"},{"bike_id":"08b89487-7647-4a54-9c05-2a9b71119650","system_id":"levelo_inurba_marseille","lat":43.32475,"lon":5.36598,"is_reserved":false,"is_disabled":false,"rental_uris":{"android":"levelo://app?vid=08b89487-7647-4a54-9c05-2a9b71119650","ios":"levelo://app?vid=08b89487-7647-4a54-9c05-2a9b71119650"},"vehicle_type_id":"4","last_reported":1761574237,"current_range_meters":11600,"station_id":"ce4bhs12rcd13ifvqhvg","pricing_plan_id":"cebpf4jnsgd1na2vs0mg"},{"bike_id":"7ebed296-9c39-4448-8c31-14084ae11589","system_id":"levelo_inurba_marseille","lat":43.29588,"lon":5.38094,"is_reserved":false,"is_disabled":false,"rental_uris":{"android":"levelo://app?vid=7ebed296-9c39-4448-8c31-14084ae11589","ios":"levelo://app?vid=7ebed296-9c39-4448-8c31-14084ae11589"},"vehicle_type_id":"4","last_reported":1761574237,"current_range_meters":11600,"station_id":"ce4bgl12rcd13ifvqbo0","pricing_plan_id":"cebpf4jnsgd1na2vs0mg"},{"bike_id":"3af31174-e1ee-4592-8a91-36899f80135b","system_id":"levelo_inurba_marseille","lat":43.236251,"lon":5.361946,"is_reserved":false,"is_disabled":false,"rental_uris":{"android":"levelo://app?vid=3af31174-e1ee-4592-8a91-36899f80135b","ios":"levelo://app?vid=3af31174-e1ee-4592-8a91-36899f80135b"},"vehicle_type_id":"4","last_reported":1761574237,"current_range_meters":11600,"station_id":"cpo3532slgdg3j2ikp40","pricing_plan_id":"cebpf4jnsgd1na2vs0mg"},{"bike_id":"e8ae4447-4bdd-40bb-b1cd-976bb41550ec","system_id":"levelo_inurba_marseille","lat":43.30137,"lon":5.38076,"is_reserved":false,"is_disabled":false,"rental_uris":{"android":"levelo://app?vid=e8ae4447-4bdd-40bb-b1cd-976bb41550ec","ios":"levelo://app?vid=e8ae4447-4bdd-40bb-b1cd-976bb41550ec"},"vehicle_type_id":"4","last_reported":1761574237,"current_range_meters":11600,"station_id":"ce4bgjp2rcd13ifvqbh0","pricing_plan_id":"cebpf4jnsgd1na2vs0mg"},{"bike_id":"9ac4e872-a94a-43e5-b4dd-f69367f65668","system_id":"levelo_inurba_marseille","lat":43.29035,"lon":5.39958,"is_reserved":false,"is_disabled":false,"rental_uris":{"android":"levelo://app?vid=9ac4e872-a94a-43e5-b4dd-f69367f65668","ios":"levelo://app?vid=9ac4e872-a94a-43e5-b4dd-f69367f65668"},"vehicle_type_id":"4","last_reported":1761574237,"current_range_meters":12000,"station_id":"ce4bh392rcd13ifvqdm0","pricing_plan_id":"cebpf4jnsgd1na2vs0mg"},{"bike_id":"8c52e4cf-652a-4f67-a7e4-e569715afaf2","system_id":"levelo_inurba_marseille","lat":43.289348,"lon":5.361774,"is_reserved":false,"is_disabled":false,"rental_uris":{"android":"levelo://app?vid=8c52e4cf-652a-4f67-a7e4-e569715afaf2","ios":"levelo://app?vid=8c52e4cf-652a-4f67-a7e4-e569715afaf2"},"vehicle_type_id":"4","last_reported":1761574237,"current_range_meters":12000,"station_id":"ce4bha92rcd13ifvqeg0","pricing_plan_id":"cebpf4jnsgd1na2vs0mg"},{"bike_id":"1f210e0d-add7-4137-b312-49a512e16576","system_id":"levelo_inurba_marseille","lat":43.31162,"lon":5.38736,"is_reserved":false,"is_disabled":false,"rental_uris":{"android":"levelo://app?vid=1f210e0d-add7-4137-b312-49a512e16576","ios":"levelo://app?vid=1f210e0d-add7-4137-b312-49a512e16576"},"vehicle_type_id":"4","last_reported":1761574237,"current_range_meters":12000,"station_id":"ce4bgv12rcd13ifvqcp0","pricing_plan_id":"cebpf4jnsgd1na2vs0mg"},{"bike_id":"ab2e8c77-4846-4b79-abc7-30dc4d99a337","system_id":"levelo_inurba_marseille","lat":43.26227,"lon":5.40459,"is_reserved":false,"is_disabled":false,"rental_uris":{"android":"levelo://app?vid=ab2e8c77-4846-4b79-abc7-30dc4d99a337","ios":"levelo://app?vid=ab2e8c77-4846-4b79-abc7-30dc4d99a337"},"vehicle_type_id":"4","last_reported":1761574237,"current_range_meters":12000,"station_id":"ce4bhmh2rcd13ifvqgmg","pricing_plan_id":"cebpf4jnsgd1na2vs0mg"},{"bike_id":"75029131-1ad5-4d65-b62f-c7846ade473e","system_id":"levelo_inurba_marseille","lat":43.27985,"lon":5.4166,"is_reserved":false,"is_disabled":false,"rental_uris":{"android":"levelo://app?vid=75029131-1ad5-4d65-b62f-c7846ade473e","ios":"levelo://app?vid=75029131-1ad5-4d65-b62f-c7846ade473e"},"vehicle_type_id":"4","last_reported":1761574237,"current_range_meters":12000,"station_id":"ce4bho12rcd13ifvqh1g","pricing_plan_id":"cebpf4jnsgd1na2vs0mg"},{"bike_id":"8ce4acf9-3cce-4a2c-80a0-2e9ba0bb1c6c","system_id":"levelo_inurba_marseille","lat":43.241815,"lon":5.397217,"is_reserved":false,"is_disabled":false,"rental_uris":{"android":"levelo://app?vid=8ce4acf9-3cce-4a2c-80a0-2e9ba0bb1c6c","ios":"levelo://app?vid=8ce4acf9-3cce-4a2c-80a0-2e9ba0bb1c6c"},"vehicle_type_id":"4","last_reported":1761574237,"current_range_meters":12400,"station_id":"ce4bhn12rcd13ifvqgpg","pricing_plan_id":"cebpf4jnsgd1na2vs0mg"},{"bike_id":"a540d909-3e62-4063-954d-8c5ae63774d4","system_id":"levelo_inurba_marseille","lat":43.27428,"lon":5.39276,"is_reserved":false,"is_disabled":false,"rental_uris":{"android":"levelo://app?vid=a540d909-3e62-4063-954d-8c5ae63774d4","ios":"levelo://app?vid=a540d909-3e62-4063-954d-8c5ae63774d4"},"vehicle_type_id":"4","last_reported":1761574237,"current_range_meters":12400,"station_id":"","pricing_plan_id":"cebpf4jnsgd1na2vs0mg"},{"bike_id":"71fe0d6a-f99e-45a0-9c75-e294b78524b2","system_id":"levelo_inurba_marseille","lat":43.21668,"lon":5.34628,"is_reserved":false,"is_disabled":false,"rental_uris":{"android":"levelo://app?vid=71fe0d6a-f99e-45a0-9c75-e294b78524b2","ios":"levelo://app?vid=71fe0d6a-f99e-45a0-9c75-e294b78524b2"},"vehicle_type_id":"4","last_reported":1761574237,"current_range_meters":12800,"station_id":"","pricing_plan_id":"cebpf4jnsgd1na2vs0mg"},{"bike_id":"83106217-f024-4381-9607-50194d3370ce","system_id":"levelo_inurba_marseille","lat":43.24168,"lon":5.36387,"is_reserved":false,"is_disabled":false,"rental_uris":{"android":"levelo://app?vid=83106217-f024-4381-9607-50194d3370ce","ios":"levelo://app?vid=83106217-f024-4381-9607-50194d3370ce"},"vehicle_type_id":"4","last_reported":1761574237,"current_range_meters":12800,"station_id":"cpo36qri1sfpv3e86is0","pricing_plan_id":"cebpf4jnsgd1na2vs0mg"},{"bike_id":"f6f41915-49e3-4fb8-8c5c-96d42e084e15","system_id":"levelo_inurba_marseille","lat":43.32031,"lon":5.37114,"is_reserved":false,"is_disabled":false,"rental_uris":{"android":"levelo://app?vid=f6f41915-49e3-4fb8-8c5c-96d42e084e15","ios":"levelo://app?vid=f6f41915-49e3-4fb8-8c5c-96d42e084e15"},"vehicle_type_id":"4","last_reported":1761574237,"current_range_meters":12800,"station_id":"","pricing_plan_id":"cebpf4jnsgd1na2vs0mg"},{"bike_id":"5aa6627e-013d-4713-bec8-202680d5aa93","system_id":"levelo_inurba_marseille","lat":43.2885,"lon":5.39321,"is_reserved":false,"is_disabled":false,"rental_uris":{"android":"levelo://app?vid=5aa6627e-013d-4713-bec8-202680d5aa93","ios":"levelo://app?vid=5aa6627e-013d-4713-bec8-202680d5aa93"},"vehicle_type_id":"4","last_reported":1761574237,"current_range_meters":12800,"station_id":"ce4bh2p2rcd13ifvqdi0","pricing_plan_id":"cebpf4jnsgd1na2vs0mg"},{"bike_id":"571c5936-6e91-4114-8f58-032da9daa2d8","system_id":"levelo_inurba_marseille","lat":43.26208,"lon":5.37459,"is_reserved":false,"is_disabled":false,"rental_uris":{"android":"levelo://app?vid=571c5936-6e91-4114-8f58-032da9daa2d8","ios":"levelo://app?vid=571c5936-6e91-4114-8f58-032da9daa2d8"},"vehicle_type_id":"4","last_reported":1761574237,"current_range_meters":12800,"station_id":"ce4bhgp2rcd13ifvqfc0","pricing_plan_id":"cebpf4jnsgd1na2vs0mg"},{"bike_id":"b83891d3-7971-45ae-9af3-651a6e6209e2","system_id":"levelo_inurba_marseille","lat":43.2319,"lon":5.35556,"is_reserved":false,"is_disabled":true,"rental_uris":{"android":"levelo://app?vid=b83891d3-7971-45ae-9af3-651a6e6209e2","ios":"levelo://app?vid=b83891d3-7971-45ae-9af3-651a6e6209e2"},"vehicle_type_id":"4","last_reported":1761574237,"current_range_meters":13600,"station_id":"ce4bhu92rcd13ifvqi70","pricing_plan_id":"cebpf4jnsgd1na2vs0mg"},{"bike_id":"ee37cf4c-0100-4e60-bf1c-086e50b8f0b3","system_id":"levelo_inurba_marseille","lat":43.27904,"lon":5.38003,"is_reserved":false,"is_disabled":false,"rental_uris":{"android":"levelo://app?vid=ee37cf4c-0100-4e60-bf1c-086e50b8f0b3","ios":"levelo://app?vid=ee37cf4c-0100-4e60-bf1c-086e50b8f0b3"},"vehicle_type_id":"4","last_reported":1761574237,"current_range_meters":13600,"station_id":"ce4bhf92rcd13ifvqf50","pricing_plan_id":"cebpf4jnsgd1na2vs0mg"},{"bike_id":"f3673a60-efd2-465f-aa18-cb0baaf105f7","system_id":"levelo_inurba_marseille","lat":43.32355,"lon":5.38897,"is_reserved":false,"is_disabled":false,"rental_uris":{"android":"levelo://app?vid=f3673a60-efd2-465f-aa18-cb0baaf105f7","ios":"levelo://app?vid=f3673a60-efd2-465f-aa18-cb0baaf105f7"},"vehicle_type_id":"4","last_reported":1761574237,"current_range_meters":13600,"station_id":"ce4bhqp2rcd13ifvqhog","pricing_plan_id":"cebpf4jnsgd1na2vs0mg"},{"bike_id":"02dd205b-e97c-4104-9683-066d2523fd3f","system_id":"levelo_inurba_marseille","lat":43.2196,"lon":5.34548,"is_reserved":false,"is_disabled":false,"rental_uris":{"android":"levelo://app?vid=02dd205b-e97c-4104-9683-066d2523fd3f","ios":"levelo://app?vid=02dd205b-e97c-4104-9683-066d2523fd3f"},"vehicle_type_id":"4","last_reported":1761574237,"current_range_meters":13600,"station_id":"","pricing_plan_id":"cebpf4jnsgd1na2vs0mg"},{"bike_id":"99604b58-d182-4334-99ee-a0cd33dddfef","system_id":"levelo_inurba_marseille","lat":43.29472,"lon":5.38575,"is_reserved":false,"is_disabled":false,"rental_uris":{"android":"levelo://app?vid=99604b58-d182-4334-99ee-a0cd33dddfef","ios":"levelo://app?vid=99604b58-d182-4334-99ee-a0cd33dddfef"},"vehicle_type_id":"4","last_reported":1761574237,"current_range_meters":13600,"station_id":"","pricing_plan_id":"cebpf4jnsgd1na2vs0mg"},{"bike_id":"3ce424f2-328c-4bf3-b6fe-b10a5190adca","system_id":"levelo_inurba_marseille","lat":43.28567,"lon":5.39496,"is_reserved":false,"is_disabled":false,"rental_uris":{"android":"levelo://app?vid=3ce424f2-328c-4bf3-b6fe-b10a5190adca","ios":"levelo://app?vid=3ce424f2-328c-4bf3-b6fe-b10a5190adca"},"vehicle_type_id":"4","last_reported":1761574237,"current_range_meters":14000,"station_id":"ce4bh292rcd13ifvqdg0","pricing_plan_id":"cebpf4jnsgd1na2vs0mg"},{"bike_id":"d0c081ad-3486-48c9-8966-70405df77a5b","system_id":"levelo_inurba_marseille","lat":43.22934,"lon":5.353772,"is_reserved":false,"is_disabled":false,"rental_uris":{"android":"levelo://app?vid=d0c081ad-3486-48c9-8966-70405df77a5b","ios":"levelo://app?vid=d0c081ad-3486-48c9-8966-70405df77a5b"},"vehicle_type_id":"4","last_reported":1761574237,"current_range_meters":14000,"station_id":"cpo3532slgdg3j2ikp40","pricing_plan_id":"cebpf4jnsgd1na2vs0mg"},{"bike_id":"bbbf3dbb-fbe2-4b7e-bfad-c027ca4e1c25","system_id":"levelo_inurba_marseille","lat":43.28478,"lon":5.48369,"is_reserved":false,"is_disabled":false,"rental_uris":{"android":"levelo://app?vid=bbbf3dbb-fbe2-4b7e-bfad-c027ca4e1c25","ios":"levelo://app?vid=bbbf3dbb-fbe2-4b7e-bfad-c027ca4e1c25"},"vehicle_type_id":"4","last_reported":1761574237,"current_range_meters":14000,"station_id":"st_d3svhcjqgbts73a3dn0g","pricing_plan_id":"cebpf4jnsgd1na2vs0mg"},{"bike_id":"e92a5181-3093-4535-adde-2230374de0aa","system_id":"levelo_inurba_marseille","lat":43.31332,"lon":5.37694,"is_reserved":false,"is_disabled":false,"rental_uris":{"android":"levelo://app?vid=e92a5181-3093-4535-adde-2230374de0aa","ios":"levelo://app?vid=e92a5181-3093-4535-adde-2230374de0aa"},"vehicle_type_id":"4","last_reported":1761574237,"current_range_meters":14000,"station_id":"","pricing_plan_id":"cebpf4jnsgd1na2vs0mg"},{"bike_id":"e272099a-410c-4d81-b1a2-b1486972a05d","system_id":"levelo_inurba_marseille","lat":43.27319,"lon":5.39072,"is_reserved":false,"is_disabled":false,"rental_uris":{"android":"levelo://app?vid=e272099a-410c-4d81-b1a2-b1486972a05d","ios":"levelo://app?vid=e272099a-410c-4d81-b1a2-b1486972a05d"},"vehicle_type_id":"4","last_reported":1761574237,"current_range_meters":14000,"station_id":"ce4bhgp2rcd13ifvqfe0","pricing_plan_id":"cebpf4jnsgd1na2vs0mg"},{"bike_id":"f8a1e404-1be4-47ac-9923-3776e62c0dbf","system_id":"levelo_inurba_marseille","lat":43.27053,"lon":5.38308,"is_reserved":false,"is_disabled":false,"rental_uris":{"android":"levelo://app?vid=f8a1e404-1be4-47ac-9923-3776e62c0dbf","ios":"levelo://app?vid=f8a1e404-1be4-47ac-9923-3776e62c0dbf"},"vehicle_type_id":"4","last_reported":1761574237,"current_range_meters":14000,"station_id":"st_d3n2fo6cfp8s73cte1j0","pricing_plan_id":"cebpf4jnsgd1na2vs0mg"},{"bike_id":"2319520a-fc10-4ea5-a5ca-d3a4702f6c7b","system_id":"levelo_inurba_marseille","lat":43.29898,"lon":5.43666,"is_reserved":false,"is_disabled":true,"rental_uris":{"android":"levelo://app?vid=2319520a-fc10-4ea5-a5ca-d3a4702f6c7b","ios":"levelo://app?vid=2319520a-fc10-4ea5-a5ca-d3a4702f6c7b"},"vehicle_type_id":"4","last_reported":1761574237,"current_range_meters":14400,"station_id":"ce4bhpp2rcd13ifvqhfg","pricing_plan_id":"cebpf4jnsgd1na2vs0mg"},{"bike_id":"b0ba880f-81c8-4233-9770-506b14a49247","system_id":"levelo_inurba_marseille","lat":43.279213,"lon":5.395857,"is_reserved":false,"is_disabled":false,"rental_uris":{"android":"levelo://app?vid=b0ba880f-81c8-4233-9770-506b14a49247","ios":"levelo://app?vid=b0ba880f-81c8-4233-9770-506b14a49247"},"vehicle_type_id":"4","last_reported":1761574237,"current_range_meters":14400,"station_id":"ce4bhf92rcd13ifvqf40","pricing_plan_id":"cebpf4jnsgd1na2vs0mg"},{"bike_id":"1b7829fd-c993-41fc-94f6-0cddf3da8a25","system_id":"levelo_inurba_marseille","lat":43.2481,"lon":5.37464,"is_reserved":false,"is_disabled":false,"rental_uris":{"android":"levelo://app?vid=1b7829fd-c993-41fc-94f6-0cddf3da8a25","ios":"levelo://app?vid=1b7829fd-c993-41fc-94f6-0cddf3da8a25"},"vehicle_type_id":"4","last_reported":1761574237,"current_range_meters":14400,"station_id":"ce4bhgh2rcd13ifvqfb0","pricing_plan_id":"cebpf4jnsgd1na2vs0mg"},{"bike_id":"6b27b53b-ade4-4e59-9555-b40b30fb2fb2","system_id":"levelo_inurba_marseille","lat":43.253355,"lon":5.421806,"is_reserved":false,"is_disabled":false,"rental_uris":{"android":"levelo://app?vid=6b27b53b-ade4-4e59-9555-b40b30fb2fb2","ios":"levelo://app?vid=6b27b53b-ade4-4e59-9555-b40b30fb2fb2"},"vehicle_type_id":"4","last_reported":1761574237,"current_range_meters":14400,"station_id":"st_d2m65c5bi1j21697t3ng","pricing_plan_id":"cebpf4jnsgd1na2vs0mg"},{"bike_id":"fdc43030-5704-454e-ad42-cd94061c06a1","system_id":"levelo_inurba_marseille","lat":43.32088,"lon":5.36774,"is_reserved":false,"is_disabled":false,"rental_uris":{"android":"levelo://app?vid=fdc43030-5704-454e-ad42-cd94061c06a1","ios":"levelo://app?vid=fdc43030-5704-454e-ad42-cd94061c06a1"},"vehicle_type_id":"4","last_reported":1761574237,"current_range_meters":14400,"station_id":"ce4bhrh2rcd13ifvqhug","pricing_plan_id":"cebpf4jnsgd1na2vs0mg"},{"bike_id":"1880ebb9-7edb-463e-976b-226e958b9ebe","system_id":"levelo_inurba_marseille","lat":43.31097,"lon":5.37487,"is_reserved":false,"is_disabled":false,"rental_uris":{"android":"levelo://app?vid=1880ebb9-7edb-463e-976b-226e958b9ebe","ios":"levelo://app?vid=1880ebb9-7edb-463e-976b-226e958b9ebe"},"vehicle_type_id":"4","last_reported":1761574237,"current_range_meters":14800,"station_id":"ce4bgt12rcd13ifvqce0","pricing_plan_id":"cebpf4jnsgd1na2vs0mg"},{"bike_id":"72692e77-b537-477c-ba7d-fdff69794bfb","system_id":"levelo_inurba_marseille","lat":43.25326,"lon":5.42171,"is_reserved":false,"is_disabled":false,"rental_uris":{"android":"levelo://app?vid=72692e77-b537-477c-ba7d-fdff69794bfb","ios":"levelo://app?vid=72692e77-b537-477c-ba7d-fdff69794bfb"},"vehicle_type_id":"4","last_reported":1761574237,"current_range_meters":14800,"station_id":"st_d2m65c5bi1j21697t3ng","pricing_plan_id":"cebpf4jnsgd1na2vs0mg"},{"bike_id":"87647e8b-c2a5-4152-ba67-4d3c898166ac","system_id":"levelo_inurba_marseille","lat":43.30272,"lon":5.3772,"is_reserved":false,"is_disabled":false,"rental_uris":{"android":"levelo://app?vid=87647e8b-c2a5-4152-ba67-4d3c898166ac","ios":"levelo://app?vid=87647e8b-c2a5-4152-ba67-4d3c898166ac"},"vehicle_type_id":"4","last_reported":1761574237,"current_range_meters":14800,"station_id":"ce4bguh2rcd13ifvqcj0","pricing_plan_id":"cebpf4jnsgd1na2vs0mg"},{"bike_id":"38ac2f8a-86dc-492d-8264-9f25599ea7d3","system_id":"levelo_inurba_marseille","lat":43.28214,"lon":5.39055,"is_reserved":false,"is_disabled":false,"rental_uris":{"android":"levelo://app?vid=38ac2f8a-86dc-492d-8264-9f25599ea7d3","ios":"levelo://app?vid=38ac2f8a-86dc-492d-8264-9f25599ea7d3"},"vehicle_type_id":"4","last_reported":1761574237,"current_range_meters":14800,"station_id":"ce4bhn92rcd13ifvqgsg","pricing_plan_id":"cebpf4jnsgd1na2vs0mg"},{"bike_id":"d37751be-2f98-461b-8104-c20ff8ab7ea9","system_id":"levelo_inurba_marseille","lat":43.29703,"lon":5.37699,"is_reserved":false,"is_disabled":false,"rental_uris":{"android":"levelo://app?vid=d37751be-2f98-461b-8104-c20ff8ab7ea9","ios":"levelo://app?vid=d37751be-2f98-461b-8104-c20ff8ab7ea9"},"vehicle_type_id":"4","last_reported":1761574237,"current_range_meters":14800,"station_id":"ce4bgkh2rcd13ifvqbl0","pricing_plan_id":"cebpf4jnsgd1na2vs0mg"},{"bike_id":"dac59d94-5f8c-49a8-aaff-998411484e05","system_id":"levelo_inurba_marseille","lat":43.29616,"lon":5.37707,"is_reserved":false,"is_disabled":false,"rental_uris":{"android":"levelo://app?vid=dac59d94-5f8c-49a8-aaff-998411484e05","ios":"levelo://app?vid=dac59d94-5f8c-49a8-aaff-998411484e05"},"vehicle_type_id":"4","last_reported":1761574237,"current_range_meters":14800,"station_id":"ce4bgi92rcd13ifvqb90","pricing_plan_id":"cebpf4jnsgd1na2vs0mg"},{"bike_id":"62616c63-ea8b-4212-bb4e-8302e0d5eab8","system_id":"levelo_inurba_marseille","lat":43.30605,"lon":5.37223,"is_reserved":false,"is_disabled":false,"rental_uris":{"android":"levelo://app?vid=62616c63-ea8b-4212-bb4e-8302e0d5eab8","ios":"levelo://app?vid=62616c63-ea8b-4212-bb4e-8302e0d5eab8"},"vehicle_type_id":"4","last_reported":1761574237,"current_range_meters":14800,"station_id":"ce4bgqh2rcd13ifvqc4g","pricing_plan_id":"cebpf4jnsgd1na2vs0mg"},{"bike_id":"93ef566c-0909-48d1-8deb-d11c9c5aea5b","system_id":"levelo_inurba_marseille","lat":43.32354,"lon":5.36747,"is_reserved":false,"is_disabled":false,"rental_uris":{"android":"levelo://app?vid=93ef566c-0909-48d1-8deb-d11c9c5aea5b","ios":"levelo://app?vid=93ef566c-0909-48d1-8deb-d11c9c5aea5b"},"vehicle_type_id":"4","last_reported":1761574237,"current_range_meters":15200,"station_id":"ce4bhsh2rcd13ifvqi2g","pricing_plan_id":"cebpf4jnsgd1na2vs0mg"},{"bike_id":"8e419f9d-51a8-4789-a256-555975ff55f9","system_id":"levelo_inurba_marseille","lat":43.304628,"lon":5.379069,"is_reserved":false,"is_disabled":false,"rental_uris":{"android":"levelo://app?vid=8e419f9d-51a8-4789-a256-555975ff55f9","ios":"levelo://app?vid=8e419f9d-51a8-4789-a256-555975ff55f9"},"vehicle_type_id":"4","last_reported":1761574237,"current_range_meters":15200,"station_id":"ce4bgup2rcd13ifvqcn0","pricing_plan_id":"cebpf4jnsgd1na2vs0mg"},{"bike_id":"aa32868b-d3bb-45fc-86a3-c5fba71450f0","system_id":"levelo_inurba_marseille","lat":43.296222,"lon":5.371729,"is_reserved":false,"is_disabled":false,"rental_uris":{"android":"levelo://app?vid=aa32868b-d3bb-45fc-86a3-c5fba71450f0","ios":"levelo://app?vid=aa32868b-d3bb-45fc-86a3-c5fba71450f0"},"vehicle_type_id":"4","last_reported":1761574237,"current_range_meters":15200,"station_id":"ce4bgnh2rcd13ifvqc0g","pricing_plan_id":"cebpf4jnsgd1na2vs0mg"},{"bike_id":"b435c3eb-ac69-4665-bed8-d8c98496674c","system_id":"levelo_inurba_marseille","lat":43.231889,"lon":5.400135,"is_reserved":false,"is_disabled":false,"rental_uris":{"android":"levelo://app?vid=b435c3eb-ac69-4665-bed8-d8c98496674c","ios":"levelo://app?vid=b435c3eb-ac69-4665-bed8-d8c98496674c"},"vehicle_type_id":"4","last_reported":1761574237,"current_range_meters":15200,"station_id":"ce4bhn12rcd13ifvqgqg","pricing_plan_id":"cebpf4jnsgd1na2vs0mg"},{"bike_id":"49af997c-b821-4a4e-b62d-e7f5b9351c20","system_id":"levelo_inurba_marseille","lat":43.2848,"lon":5.38562,"is_reserved":false,"is_disabled":false,"rental_uris":{"android":"levelo://app?vid=49af997c-b821-4a4e-b62d-e7f5b9351c20","ios":"levelo://app?vid=49af997c-b821-4a4e-b62d-e7f5b9351c20"},"vehicle_type_id":"4","last_reported":1761574237,"current_range_meters":15200,"station_id":"ce4bh8p2rcd13ifvqeb0","pricing_plan_id":"cebpf4jnsgd1na2vs0mg"},{"bike_id":"a507e789-f440-40a8-85cf-09841d81676c","system_id":"levelo_inurba_marseille","lat":43.22527,"lon":5.34843,"is_reserved":false,"is_disabled":false,"rental_uris":{"android":"levelo://app?vid=a507e789-f440-40a8-85cf-09841d81676c","ios":"levelo://app?vid=a507e789-f440-40a8-85cf-09841d81676c"},"vehicle_type_id":"4","last_reported":1761574237,"current_range_meters":16000,"station_id":"","pricing_plan_id":"cebpf4jnsgd1na2vs0mg"},{"bike_id":"a3100ff0-76ab-498b-bebf-b9c52f3d2538","system_id":"levelo_inurba_marseille","lat":43.28479,"lon":5.484,"is_reserved":false,"is_disabled":false,"rental_uris":{"android":"levelo://app?vid=a3100ff0-76ab-498b-bebf-b9c52f3d2538","ios":"levelo://app?vid=a3100ff0-76ab-498b-bebf-b9c52f3d2538"},"vehicle_type_id":"4","last_reported":1761574237,"current_range_meters":16000,"station_id":"","pricing_plan_id":"cebpf4jnsgd1na2vs0mg"},{"bike_id":"4018917b-063a-443f-b00c-5121f423f29d","system_id":"levelo_inurba_marseille","lat":43.293224,"lon":5.375654,"is_reserved":false,"is_disabled":false,"rental_uris":{"android":"levelo://app?vid=4018917b-063a-443f-b00c-5121f423f29d","ios":"levelo://app?vid=4018917b-063a-443f-b00c-5121f423f29d"},"vehicle_type_id":"4","last_reported":1761574237,"current_range_meters":16000,"station_id":"ce4bgi12rcd13ifvqb70","pricing_plan_id":"cebpf4jnsgd1na2vs0mg"},{"bike_id":"2fc1f180-acee-43e1-8d09-beee254fde53","system_id":"levelo_inurba_marseille","lat":43.31075,"lon":5.4243,"is_reserved":false,"is_disabled":false,"rental_uris":{"android":"levelo://app?vid=2fc1f180-acee-43e1-8d09-beee254fde53","ios":"levelo://app?vid=2fc1f180-acee-43e1-8d09-beee254fde53"},"vehicle_type_id":"4","last_reported":1761574237,"current_range_meters":16000,"station_id":"ce4bhp92rcd13ifvqhag","pricing_plan_id":"cebpf4jnsgd1na2vs0mg"},{"bike_id":"dd071dc5-4cca-41e5-a876-eefbb6376451","system_id":"levelo_inurba_marseille","lat":43.29193,"lon":5.358,"is_reserved":false,"is_disabled":false,"rental_uris":{"android":"levelo://app?vid=dd071dc5-4cca-41e5-a876-eefbb6376451","ios":"levelo://app?vid=dd071dc5-4cca-41e5-a876-eefbb6376451"},"vehicle_type_id":"4","last_reported":1761574237,"current_range_meters":16000,"station_id":"ce4bhb12rcd13ifvqel0","pricing_plan_id":"cebpf4jnsgd1na2vs0mg"},{"bike_id":"c415a72f-d431-4275-834f-e624034d5b75","system_id":"levelo_inurba_marseille","lat":43.289137,"lon":5.395722,"is_reserved":false,"is_disabled":false,"rental_uris":{"android":"levelo://app?vid=c415a72f-d431-4275-834f-e624034d5b75","ios":"levelo://app?vid=c415a72f-d431-4275-834f-e624034d5b75"},"vehicle_type_id":"4","last_reported":1761574237,"current_range_meters":16400,"station_id":"ce4bh3h2rcd13ifvqdn0","pricing_plan_id":"cebpf4jnsgd1na2vs0mg"},{"bike_id":"2b1439df-3719-4969-b4f4-03e89e796f35","system_id":"levelo_inurba_marseille","lat":43.2969,"lon":5.36592,"is_reserved":false,"is_disabled":false,"rental_uris":{"android":"levelo://app?vid=2b1439df-3719-4969-b4f4-03e89e796f35","ios":"levelo://app?vid=2b1439df-3719-4969-b4f4-03e89e796f35"},"vehicle_type_id":"4","last_reported":1761574237,"current_range_meters":16400,"station_id":"ce4bgn12rcd13ifvqbt0","pricing_plan_id":"cebpf4jnsgd1na2vs0mg"},{"bike_id":"596e07e5-ee28-4f19-90c1-99ddc246077a","system_id":"levelo_inurba_marseille","lat":43.297565,"lon":5.427823,"is_reserved":false,"is_disabled":false,"rental_uris":{"android":"levelo://app?vid=596e07e5-ee28-4f19-90c1-99ddc246077a","ios":"levelo://app?vid=596e07e5-ee28-4f19-90c1-99ddc246077a"},"vehicle_type_id":"4","last_reported":1761574237,"current_range_meters":16400,"station_id":"st_d3md5207bmas73dh9klg","pricing_plan_id":"cebpf4jnsgd1na2vs0mg"},{"bike_id":"eea3c3c3-734f-4fd3-8061-ed84cfe47b38","system_id":"levelo_inurba_marseille","lat":43.32565,"lon":5.39138,"is_reserved":false,"is_disabled":false,"rental_uris":{"android":"levelo://app?vid=eea3c3c3-734f-4fd3-8061-ed84cfe47b38","ios":"levelo://app?vid=eea3c3c3-734f-4fd3-8061-ed84cfe47b38"},"vehicle_type_id":"4","last_reported":1761574237,"current_range_meters":16400,"station_id":"","pricing_plan_id":"cebpf4jnsgd1na2vs0mg"},{"bike_id":"6b3ec03b-40cd-4647-b2ae-5d07b7bfd6ba","system_id":"levelo_inurba_marseille","lat":43.23962,"lon":5.36627,"is_reserved":false,"is_disabled":false,"rental_uris":{"android":"levelo://app?vid=6b3ec03b-40cd-4647-b2ae-5d07b7bfd6ba","ios":"levelo://app?vid=6b3ec03b-40cd-4647-b2ae-5d07b7bfd6ba"},"vehicle_type_id":"4","last_reported":1761574237,"current_range_meters":16400,"station_id":"ce4bhi12rcd13ifvqfp0","pricing_plan_id":"cebpf4jnsgd1na2vs0mg"},{"bike_id":"04f05742-34e4-4285-9012-d64d097608c7","system_id":"levelo_inurba_marseille","lat":43.25848,"lon":5.39884,"is_reserved":false,"is_disabled":false,"rental_uris":{"android":"levelo://app?vid=04f05742-34e4-4285-9012-d64d097608c7","ios":"levelo://app?vid=04f05742-34e4-4285-9012-d64d097608c7"},"vehicle_type_id":"4","last_reported":1761574237,"current_range_meters":16400,"station_id":"ce4bhl92rcd13ifvqghg","pricing_plan_id":"cebpf4jnsgd1na2vs0mg"},{"bike_id":"06166c92-463a-44f7-b1d4-c4efdf9f8f9c","system_id":"levelo_inurba_marseille","lat":43.29453,"lon":5.39745,"is_reserved":false,"is_disabled":false,"rental_uris":{"android":"levelo://app?vid=06166c92-463a-44f7-b1d4-c4efdf9f8f9c","ios":"levelo://app?vid=06166c92-463a-44f7-b1d4-c4efdf9f8f9c"},"vehicle_type_id":"4","last_reported":1761574237,"current_range_meters":16400,"station_id":"ce4bh3h2rcd13ifvqdo0","pricing_plan_id":"cebpf4jnsgd1na2vs0mg"},{"bike_id":"4a465682-c054-49b7-8b07-c7d170b19e37","system_id":"levelo_inurba_marseille","lat":43.29936,"lon":5.36549,"is_reserved":false,"is_disabled":false,"rental_uris":{"android":"levelo://app?vid=4a465682-c054-49b7-8b07-c7d170b19e37","ios":"levelo://app?vid=4a465682-c054-49b7-8b07-c7d170b19e37"},"vehicle_type_id":"4","last_reported":1761574237,"current_range_meters":16400,"station_id":"ce4bgm92rcd13ifvqbr0","pricing_plan_id":"cebpf4jnsgd1na2vs0mg"},{"bike_id":"21dbf7f2-eb19-4663-b1c0-879822879492","system_id":"levelo_inurba_marseille","lat":43.337631,"lon":5.374577,"is_reserved":false,"is_disabled":false,"rental_uris":{"android":"levelo://app?vid=21dbf7f2-eb19-4663-b1c0-879822879492","ios":"levelo://app?vid=21dbf7f2-eb19-4663-b1c0-879822879492"},"vehicle_type_id":"4","last_reported":1761574237,"current_range_meters":16400,"station_id":"","pricing_plan_id":"cebpf4jnsgd1na2vs0mg"},{"bike_id":"6a1d2475-9b76-4fee-b2c9-3a1f0ed26a05","system_id":"levelo_inurba_marseille","lat":43.24171,"lon":5.39738,"is_reserved":false,"is_disabled":false,"rental_uris":{"android":"levelo://app?vid=6a1d2475-9b76-4fee-b2c9-3a1f0ed26a05","ios":"levelo://app?vid=6a1d2475-9b76-4fee-b2c9-3a1f0ed26a05"},"vehicle_type_id":"4","last_reported":1761574237,"current_range_meters":16800,"station_id":"ce4bhn12rcd13ifvqgpg","pricing_plan_id":"cebpf4jnsgd1na2vs0mg"},{"bike_id":"c5357aaa-f358-42dd-a7b4-114e2fddc718","system_id":"levelo_inurba_marseille","lat":43.24808,"lon":5.37458,"is_reserved":false,"is_disabled":false,"rental_uris":{"android":"levelo://app?vid=c5357aaa-f358-42dd-a7b4-114e2fddc718","ios":"levelo://app?vid=c5357aaa-f358-42dd-a7b4-114e2fddc718"},"vehicle_type_id":"4","last_reported":1761574237,"current_range_meters":16800,"station_id":"ce4bhgh2rcd13ifvqfb0","pricing_plan_id":"cebpf4jnsgd1na2vs0mg"},{"bike_id":"0bbc239a-da27-4714-a802-1c546dd89778","system_id":"levelo_inurba_marseille","lat":43.23134,"lon":5.43721,"is_reserved":false,"is_disabled":false,"rental_uris":{"android":"levelo://app?vid=0bbc239a-da27-4714-a802-1c546dd89778","ios":"levelo://app?vid=0bbc239a-da27-4714-a802-1c546dd89778"},"vehicle_type_id":"4","last_reported":1761574237,"current_range_meters":16800,"station_id":"ce4bhmp2rcd13ifvqgog","pricing_plan_id":"cebpf4jnsgd1na2vs0mg"},{"bike_id":"6707e9ca-92a2-4e95-8654-3b145595537a","system_id":"levelo_inurba_marseille","lat":43.29837,"lon":5.3626,"is_reserved":false,"is_disabled":false,"rental_uris":{"android":"levelo://app?vid=6707e9ca-92a2-4e95-8654-3b145595537a","ios":"levelo://app?vid=6707e9ca-92a2-4e95-8654-3b145595537a"},"vehicle_type_id":"4","last_reported":1761574237,"current_range_meters":16800,"station_id":"ce4bgpp2rcd13ifvqc3g","pricing_plan_id":"cebpf4jnsgd1na2vs0mg"},{"bike_id":"5b91ba71-aa7b-4e9c-8b6d-282b28a3eef8","system_id":"levelo_inurba_marseille","lat":43.30641,"lon":5.3667,"is_reserved":false,"is_disabled":false,"rental_uris":{"android":"levelo://app?vid=5b91ba71-aa7b-4e9c-8b6d-282b28a3eef8","ios":"levelo://app?vid=5b91ba71-aa7b-4e9c-8b6d-282b28a3eef8"},"vehicle_type_id":"4","last_reported":1761574237,"current_range_meters":16800,"station_id":"","pricing_plan_id":"cebpf4jnsgd1na2vs0mg"},{"bike_id":"8d2992fb-f4e0-4592-8dd5-3f18a4027db6","system_id":"levelo_inurba_marseille","lat":43.25343,"lon":5.42171,"is_reserved":false,"is_disabled":false,"rental_uris":{"android":"levelo://app?vid=8d2992fb-f4e0-4592-8dd5-3f18a4027db6","ios":"levelo://app?vid=8d2992fb-f4e0-4592-8dd5-3f18a4027db6"},"vehicle_type_id":"4","last_reported":1761574237,"current_range_meters":16800,"station_id":"st_d2m65c5bi1j21697t3ng","pricing_plan_id":"cebpf4jnsgd1na2vs0mg"},{"bike_id":"a0cf46a2-fa87-4307-932b-200fad155801","system_id":"levelo_inurba_marseille","lat":43.29935,"lon":5.36537,"is_reserved":false,"is_disabled":false,"rental_uris":{"android":"levelo://app?vid=a0cf46a2-fa87-4307-932b-200fad155801","ios":"levelo://app?vid=a0cf46a2-fa87-4307-932b-200fad155801"},"vehicle_type_id":"4","last_reported":1761574237,"current_range_meters":16800,"station_id":"ce4bgm92rcd13ifvqbr0","pricing_plan_id":"cebpf4jnsgd1na2vs0mg"},{"bike_id":"b689a5bf-875d-4ab1-9212-a71e85899faa","system_id":"levelo_inurba_marseille","lat":43.29753,"lon":5.427818,"is_reserved":false,"is_disabled":false,"rental_uris":{"android":"levelo://app?vid=b689a5bf-875d-4ab1-9212-a71e85899faa","ios":"levelo://app?vid=b689a5bf-875d-4ab1-9212-a71e85899faa"},"vehicle_type_id":"4","last_reported":1761574237,"current_range_meters":17200,"station_id":"st_d3md5207bmas73dh9klg","pricing_plan_id":"cebpf4jnsgd1na2vs0mg"},{"bike_id":"d7b556e6-ac3d-4fe4-b136-c7cd05c756e3","system_id":"levelo_inurba_marseille","lat":43.23065,"lon":5.3549,"is_reserved":false,"is_disabled":false,"rental_uris":{"android":"levelo://app?vid=d7b556e6-ac3d-4fe4-b136-c7cd05c756e3","ios":"levelo://app?vid=d7b556e6-ac3d-4fe4-b136-c7cd05c756e3"},"vehicle_type_id":"4","last_reported":1761574237,"current_range_meters":17200,"station_id":"cpo3342slgdg3j2ifvpg","pricing_plan_id":"cebpf4jnsgd1na2vs0mg"},{"bike_id":"d5ca831f-8041-403e-ada8-7b4196c3d5be","system_id":"levelo_inurba_marseille","lat":43.293714,"lon":5.379385,"is_reserved":false,"is_disabled":false,"rental_uris":{"android":"levelo://app?vid=d5ca831f-8041-403e-ada8-7b4196c3d5be","ios":"levelo://app?vid=d5ca831f-8041-403e-ada8-7b4196c3d5be"},"vehicle_type_id":"4","last_reported":1761574237,"current_range_meters":17200,"station_id":"","pricing_plan_id":"cebpf4jnsgd1na2vs0mg"},{"bike_id":"72ff869f-50e0-4045-a920-3ad975f90c2e","system_id":"levelo_inurba_marseille","lat":43.323719,"lon":5.367638,"is_reserved":false,"is_disabled":false,"rental_uris":{"android":"levelo://app?vid=72ff869f-50e0-4045-a920-3ad975f90c2e","ios":"levelo://app?vid=72ff869f-50e0-4045-a920-3ad975f90c2e"},"vehicle_type_id":"4","last_reported":1761574237,"current_range_meters":17600,"station_id":"ce4bhsh2rcd13ifvqi2g","pricing_plan_id":"cebpf4jnsgd1na2vs0mg"},{"bike_id":"0709da96-3569-4b3f-9bc8-3bb4680af42a","system_id":"levelo_inurba_marseille","lat":43.31528,"lon":5.37318,"is_reserved":false,"is_disabled":false,"rental_uris":{"android":"levelo://app?vid=0709da96-3569-4b3f-9bc8-3bb4680af42a","ios":"levelo://app?vid=0709da96-3569-4b3f-9bc8-3bb4680af42a"},"vehicle_type_id":"4","last_reported":1761574237,"current_range_meters":17600,"station_id":"","pricing_plan_id":"cebpf4jnsgd1na2vs0mg"},{"bike_id":"09ae951d-1c9a-4fd0-aedf-ecb87f9a390f","system_id":"levelo_inurba_marseille","lat":43.29259,"lon":5.38442,"is_reserved":false,"is_disabled":false,"rental_uris":{"android":"levelo://app?vid=09ae951d-1c9a-4fd0-aedf-ecb87f9a390f","ios":"levelo://app?vid=09ae951d-1c9a-4fd0-aedf-ecb87f9a390f"},"vehicle_type_id":"4","last_reported":1761574237,"current_range_meters":17600,"station_id":"ce4bh692rcd13ifvqea0","pricing_plan_id":"cebpf4jnsgd1na2vs0mg"},{"bike_id":"6259f55b-2b03-426c-926a-c8a432bd1482","system_id":"levelo_inurba_marseille","lat":43.2175,"lon":5.34599,"is_reserved":false,"is_disabled":false,"rental_uris":{"android":"levelo://app?vid=6259f55b-2b03-426c-926a-c8a432bd1482","ios":"levelo://app?vid=6259f55b-2b03-426c-926a-c8a432bd1482"},"vehicle_type_id":"4","last_reported":1761574237,"current_range_meters":17600,"station_id":"","pricing_plan_id":"cebpf4jnsgd1na2vs0mg"},{"bike_id":"584373b2-7857-4514-ba1b-a8cbf8f807e7","system_id":"levelo_inurba_marseille","lat":43.29805,"lon":5.36281,"is_reserved":false,"is_disabled":false,"rental_uris":{"android":"levelo://app?vid=584373b2-7857-4514-ba1b-a8cbf8f807e7","ios":"levelo://app?vid=584373b2-7857-4514-ba1b-a8cbf8f807e7"},"vehicle_type_id":"4","last_reported":1761574237,"current_range_meters":18000,"station_id":"ce4bgpp2rcd13ifvqc3g","pricing_plan_id":"cebpf4jnsgd1na2vs0mg"},{"bike_id":"edf5f0fb-0959-44c0-b6b3-9db9d272d2c0","system_id":"levelo_inurba_marseille","lat":43.24178,"lon":5.39756,"is_reserved":false,"is_disabled":false,"rental_uris":{"android":"levelo://app?vid=edf5f0fb-0959-44c0-b6b3-9db9d272d2c0","ios":"levelo://app?vid=edf5f0fb-0959-44c0-b6b3-9db9d272d2c0"},"vehicle_type_id":"4","last_reported":1761574237,"current_range_meters":18000,"station_id":"ce4bhn12rcd13ifvqgpg","pricing_plan_id":"cebpf4jnsgd1na2vs0mg"},{"bike_id":"52944b99-aa1e-426b-9ae3-e8c0bc615427","system_id":"levelo_inurba_marseille","lat":43.29759,"lon":5.42777,"is_reserved":false,"is_disabled":false,"rental_uris":{"android":"levelo://app?vid=52944b99-aa1e-426b-9ae3-e8c0bc615427","ios":"levelo://app?vid=52944b99-aa1e-426b-9ae3-e8c0bc615427"},"vehicle_type_id":"4","last_reported":1761574237,"current_range_meters":18000,"station_id":"st_d3md5207bmas73dh9klg","pricing_plan_id":"cebpf4jnsgd1na2vs0mg"},{"bike_id":"edf849fb-5192-43cb-b71a-9bdb55843529","system_id":"levelo_inurba_marseille","lat":43.307856,"lon":5.376438,"is_reserved":false,"is_disabled":false,"rental_uris":{"android":"levelo://app?vid=edf849fb-5192-43cb-b71a-9bdb55843529","ios":"levelo://app?vid=edf849fb-5192-43cb-b71a-9bdb55843529"},"vehicle_type_id":"4","last_reported":1761574237,"current_range_meters":18000,"station_id":"ce4bgv92rcd13ifvqcq0","pricing_plan_id":"cebpf4jnsgd1na2vs0mg"},{"bike_id":"2484d73d-0ed9-4aeb-b08e-8d8cbd56d7f7","system_id":"levelo_inurba_marseille","lat":43.312379,"lon":5.368484,"is_reserved":false,"is_disabled":false,"rental_uris":{"android":"levelo://app?vid=2484d73d-0ed9-4aeb-b08e-8d8cbd56d7f7","ios":"levelo://app?vid=2484d73d-0ed9-4aeb-b08e-8d8cbd56d7f7"},"vehicle_type_id":"4","last_reported":1761574237,"current_range_meters":18000,"station_id":"ce4bgr92rcd13ifvqc6g","pricing_plan_id":"cebpf4jnsgd1na2vs0mg"},{"bike_id":"8c71c05b-dd29-470b-8b05-4159f459865a","system_id":"levelo_inurba_marseille","lat":43.276613,"lon":5.388954,"is_reserved":false,"is_disabled":false,"rental_uris":{"android":"levelo://app?vid=8c71c05b-dd29-470b-8b05-4159f459865a","ios":"levelo://app?vid=8c71c05b-dd29-470b-8b05-4159f459865a"},"vehicle_type_id":"4","last_reported":1761574237,"current_range_meters":18000,"station_id":"ce4bhi12rcd13ifvqfo0","pricing_plan_id":"cebpf4jnsgd1na2vs0mg"},{"bike_id":"a630ed88-3f05-4926-bbab-8387ab6b6a28","system_id":"levelo_inurba_marseille","lat":43.23159,"lon":5.43706,"is_reserved":false,"is_disabled":true,"rental_uris":{"android":"levelo://app?vid=a630ed88-3f05-4926-bbab-8387ab6b6a28","ios":"levelo://app?vid=a630ed88-3f05-4926-bbab-8387ab6b6a28"},"vehicle_type_id":"4","last_reported":1761574237,"current_range_meters":18000,"station_id":"ce4bhmp2rcd13ifvqgog","pricing_plan_id":"cebpf4jnsgd1na2vs0mg"},{"bike_id":"a546dadc-68f6-43af-9cf6-816c3f28f153","system_id":"levelo_inurba_marseille","lat":43.3014,"lon":5.38097,"is_reserved":false,"is_disabled":false,"rental_uris":{"android":"levelo://app?vid=a546dadc-68f6-43af-9cf6-816c3f28f153","ios":"levelo://app?vid=a546dadc-68f6-43af-9cf6-816c3f28f153"},"vehicle_type_id":"4","last_reported":1761574237,"current_range_meters":18000,"station_id":"ce4bgjp2rcd13ifvqbh0","pricing_plan_id":"cebpf4jnsgd1na2vs0mg"},{"bike_id":"df94896d-c58b-459d-81e3-39f98a9915b5","system_id":"levelo_inurba_marseille","lat":43.28274,"lon":5.35087,"is_reserved":false,"is_disabled":false,"rental_uris":{"android":"levelo://app?vid=df94896d-c58b-459d-81e3-39f98a9915b5","ios":"levelo://app?vid=df94896d-c58b-459d-81e3-39f98a9915b5"},"vehicle_type_id":"4","last_reported":1761574237,"current_range_meters":18000,"station_id":"ce4bhbp2rcd13ifvqerg","pricing_plan_id":"cebpf4jnsgd1na2vs0mg"},{"bike_id":"a4df403f-b1ec-477b-8826-6faee0e696b4","system_id":"levelo_inurba_marseille","lat":43.30936,"lon":5.40146,"is_reserved":false,"is_disabled":false,"rental_uris":{"android":"levelo://app?vid=a4df403f-b1ec-477b-8826-6faee0e696b4","ios":"levelo://app?vid=a4df403f-b1ec-477b-8826-6faee0e696b4"},"vehicle_type_id":"4","last_reported":1761574237,"current_range_meters":18800,"station_id":"ce4bgvp2rcd13ifvqct0","pricing_plan_id":"cebpf4jnsgd1na2vs0mg"},{"bike_id":"c05ed31b-7334-4e89-a7d1-077b263f828d","system_id":"levelo_inurba_marseille","lat":43.28259,"lon":5.35062,"is_reserved":false,"is_disabled":false,"rental_uris":{"android":"levelo://app?vid=c05ed31b-7334-4e89-a7d1-077b263f828d","ios":"levelo://app?vid=c05ed31b-7334-4e89-a7d1-077b263f828d"},"vehicle_type_id":"4","last_reported":1761574237,"current_range_meters":18800,"station_id":"ce4bhbp2rcd13ifvqerg","pricing_plan_id":"cebpf4jnsgd1na2vs0mg"},{"bike_id":"61830560-5fe4-40b5-af07-6f953e4f955b","system_id":"levelo_inurba_marseille","lat":43.262085,"lon":5.374418,"is_reserved":false,"is_disabled":false,"rental_uris":{"android":"levelo://app?vid=61830560-5fe4-40b5-af07-6f953e4f955b","ios":"levelo://app?vid=61830560-5fe4-40b5-af07-6f953e4f955b"},"vehicle_type_id":"4","last_reported":1761574237,"current_range_meters":18800,"station_id":"ce4bhgp2rcd13ifvqfc0","pricing_plan_id":"cebpf4jnsgd1na2vs0mg"},{"bike_id":"42d3320d-07ec-45f6-bb9b-bdc18343f9e9","system_id":"levelo_inurba_marseille","lat":43.29559,"lon":5.37517,"is_reserved":false,"is_disabled":false,"rental_uris":{"android":"levelo://app?vid=42d3320d-07ec-45f6-bb9b-bdc18343f9e9","ios":"levelo://app?vid=42d3320d-07ec-45f6-bb9b-bdc18343f9e9"},"vehicle_type_id":"4","last_reported":1761574237,"current_range_meters":18800,"station_id":"ce4bgh92rcd13ifvqb50","pricing_plan_id":"cebpf4jnsgd1na2vs0mg"},{"bike_id":"7a2db725-bbd2-4faf-ad2b-6cbc12302a78","system_id":"levelo_inurba_marseille","lat":43.31227,"lon":5.36863,"is_reserved":false,"is_disabled":false,"rental_uris":{"android":"levelo://app?vid=7a2db725-bbd2-4faf-ad2b-6cbc12302a78","ios":"levelo://app?vid=7a2db725-bbd2-4faf-ad2b-6cbc12302a78"},"vehicle_type_id":"4","last_reported":1761574237,"current_range_meters":18800,"station_id":"ce4bgl92rcd13ifvqbq0","pricing_plan_id":"cebpf4jnsgd1na2vs0mg"},{"bike_id":"e1ca1064-3ac1-495e-b8d2-df8047d11b2e","system_id":"levelo_inurba_marseille","lat":43.28484,"lon":5.48407,"is_reserved":false,"is_disabled":false,"rental_uris":{"android":"levelo://app?vid=e1ca1064-3ac1-495e-b8d2-df8047d11b2e","ios":"levelo://app?vid=e1ca1064-3ac1-495e-b8d2-df8047d11b2e"},"vehicle_type_id":"4","last_reported":1761574237,"current_range_meters":18800,"station_id":"st_d3svhcjqgbts73a3dn0g","pricing_plan_id":"cebpf4jnsgd1na2vs0mg"},{"bike_id":"acf47aaa-a17b-4a3c-9a4f-b1efdd78d7c6","system_id":"levelo_inurba_marseille","lat":43.28404,"lon":5.37512,"is_reserved":false,"is_disabled":false,"rental_uris":{"android":"levelo://app?vid=acf47aaa-a17b-4a3c-9a4f-b1efdd78d7c6","ios":"levelo://app?vid=acf47aaa-a17b-4a3c-9a4f-b1efdd78d7c6"},"vehicle_type_id":"4","last_reported":1761574237,"current_range_meters":19200,"station_id":"ce4bh412rcd13ifvqds0","pricing_plan_id":"cebpf4jnsgd1na2vs0mg"},{"bike_id":"310e927d-d5b8-4a6f-82be-2d623690659d","system_id":"levelo_inurba_marseille","lat":43.3126,"lon":5.37876,"is_reserved":false,"is_disabled":false,"rental_uris":{"android":"levelo://app?vid=310e927d-d5b8-4a6f-82be-2d623690659d","ios":"levelo://app?vid=310e927d-d5b8-4a6f-82be-2d623690659d"},"vehicle_type_id":"4","last_reported":1761574237,"current_range_meters":19200,"station_id":"","pricing_plan_id":"cebpf4jnsgd1na2vs0mg"},{"bike_id":"d5a49dbd-284f-44d1-bf21-988be425a5e5","system_id":"levelo_inurba_marseille","lat":43.25576,"lon":5.3824,"is_reserved":false,"is_disabled":true,"rental_uris":{"android":"levelo://app?vid=d5a49dbd-284f-44d1-bf21-988be425a5e5","ios":"levelo://app?vid=d5a49dbd-284f-44d1-bf21-988be425a5e5"},"vehicle_type_id":"4","last_reported":1761574237,"current_range_meters":19200,"station_id":"ce4bhih2rcd13ifvqfs0","pricing_plan_id":"cebpf4jnsgd1na2vs0mg"},{"bike_id":"2a667dcd-47ec-49a8-8204-3d19e70b3d65","system_id":"levelo_inurba_marseille","lat":43.30527,"lon":5.36552,"is_reserved":false,"is_disabled":false,"rental_uris":{"android":"levelo://app?vid=2a667dcd-47ec-49a8-8204-3d19e70b3d65","ios":"levelo://app?vid=2a667dcd-47ec-49a8-8204-3d19e70b3d65"},"vehicle_type_id":"4","last_reported":1761574237,"current_range_meters":19200,"station_id":"ce4bgs12rcd13ifvqcag","pricing_plan_id":"cebpf4jnsgd1na2vs0mg"},{"bike_id":"16b2586f-072f-49e0-be90-bc6a7f318969","system_id":"levelo_inurba_marseille","lat":43.30193,"lon":5.36608,"is_reserved":false,"is_disabled":false,"rental_uris":{"android":"levelo://app?vid=16b2586f-072f-49e0-be90-bc6a7f318969","ios":"levelo://app?vid=16b2586f-072f-49e0-be90-bc6a7f318969"},"vehicle_type_id":"4","last_reported":1761574237,"current_range_meters":19200,"station_id":"ce4bgrh2rcd13ifvqc8g","pricing_plan_id":"cebpf4jnsgd1na2vs0mg"},{"bike_id":"af1099fc-451f-4695-8d42-b836f1ff607b","system_id":"levelo_inurba_marseille","lat":43.299475,"lon":5.371674,"is_reserved":false,"is_disabled":false,"rental_uris":{"android":"levelo://app?vid=af1099fc-451f-4695-8d42-b836f1ff607b","ios":"levelo://app?vid=af1099fc-451f-4695-8d42-b836f1ff607b"},"vehicle_type_id":"4","last_reported":1761574237,"current_range_meters":19200,"station_id":"ce4bgr92rcd13ifvqc7g","pricing_plan_id":"cebpf4jnsgd1na2vs0mg"},{"bike_id":"58c4dbde-6a7d-4645-959d-588177b9dc81","system_id":"levelo_inurba_marseille","lat":43.25893,"lon":5.40878,"is_reserved":false,"is_disabled":false,"rental_uris":{"android":"levelo://app?vid=58c4dbde-6a7d-4645-959d-588177b9dc81","ios":"levelo://app?vid=58c4dbde-6a7d-4645-959d-588177b9dc81"},"vehicle_type_id":"4","last_reported":1761574237,"current_range_meters":19600,"station_id":"ce4bhm92rcd13ifvqglg","pricing_plan_id":"cebpf4jnsgd1na2vs0mg"},{"bike_id":"316ded5d-28c9-4663-be5c-04dc90d5b34c","system_id":"levelo_inurba_marseille","lat":43.28391,"lon":5.38724,"is_reserved":false,"is_disabled":false,"rental_uris":{"android":"levelo://app?vid=316ded5d-28c9-4663-be5c-04dc90d5b34c","ios":"levelo://app?vid=316ded5d-28c9-4663-be5c-04dc90d5b34c"},"vehicle_type_id":"4","last_reported":1761574237,"current_range_meters":19600,"station_id":"","pricing_plan_id":"cebpf4jnsgd1na2vs0mg"},{"bike_id":"dccef0b1-edb3-49b5-866c-43e10e5763cc","system_id":"levelo_inurba_marseille","lat":43.288045,"lon":5.438432,"is_reserved":false,"is_disabled":false,"rental_uris":{"android":"levelo://app?vid=dccef0b1-edb3-49b5-866c-43e10e5763cc","ios":"levelo://app?vid=dccef0b1-edb3-49b5-866c-43e10e5763cc"},"vehicle_type_id":"4","last_reported":1761574237,"current_range_meters":19600,"station_id":"","pricing_plan_id":"cebpf4jnsgd1na2vs0mg"},{"bike_id":"6e3a7e6e-71b5-40f8-a9af-3d340e6706cc","system_id":"levelo_inurba_marseille","lat":43.296782,"lon":5.378637,"is_reserved":false,"is_disabled":false,"rental_uris":{"android":"levelo://app?vid=6e3a7e6e-71b5-40f8-a9af-3d340e6706cc","ios":"levelo://app?vid=6e3a7e6e-71b5-40f8-a9af-3d340e6706cc"},"vehicle_type_id":"4","last_reported":1761574237,"current_range_meters":19600,"station_id":"","pricing_plan_id":"cebpf4jnsgd1na2vs0mg"},{"bike_id":"dced2bcc-e95f-44ce-b7d8-7bb47def612a","system_id":"levelo_inurba_marseille","lat":43.23052,"lon":5.35483,"is_reserved":false,"is_disabled":false,"rental_uris":{"android":"levelo://app?vid=dced2bcc-e95f-44ce-b7d8-7bb47def612a","ios":"levelo://app?vid=dced2bcc-e95f-44ce-b7d8-7bb47def612a"},"vehicle_type_id":"4","last_reported":1761574237,"current_range_meters":19600,"station_id":"cpo3342slgdg3j2ifvpg","pricing_plan_id":"cebpf4jnsgd1na2vs0mg"},{"bike_id":"2be3bf9b-39f4-4c37-8c01-9e9bcabe1c53","system_id":"levelo_inurba_marseille","lat":43.33741,"lon":5.37444,"is_reserved":false,"is_disabled":false,"rental_uris":{"android":"levelo://app?vid=2be3bf9b-39f4-4c37-8c01-9e9bcabe1c53","ios":"levelo://app?vid=2be3bf9b-39f4-4c37-8c01-9e9bcabe1c53"},"vehicle_type_id":"4","last_reported":1761574237,"current_range_meters":19600,"station_id":"","pricing_plan_id":"cebpf4jnsgd1na2vs0mg"},{"bike_id":"c7415a86-5ec7-4a6b-972b-794e17f96f80","system_id":"levelo_inurba_marseille","lat":43.25117,"lon":5.40307,"is_reserved":false,"is_disabled":false,"rental_uris":{"android":"levelo://app?vid=c7415a86-5ec7-4a6b-972b-794e17f96f80","ios":"levelo://app?vid=c7415a86-5ec7-4a6b-972b-794e17f96f80"},"vehicle_type_id":"4","last_reported":1761574237,"current_range_meters":19600,"station_id":"ce4bhlh2rcd13ifvqgig","pricing_plan_id":"cebpf4jnsgd1na2vs0mg"},{"bike_id":"f568391f-b71f-4807-9099-53eb6b0dc22d","system_id":"levelo_inurba_marseille","lat":43.2979,"lon":5.38168,"is_reserved":false,"is_disabled":false,"rental_uris":{"android":"levelo://app?vid=f568391f-b71f-4807-9099-53eb6b0dc22d","ios":"levelo://app?vid=f568391f-b71f-4807-9099-53eb6b0dc22d"},"vehicle_type_id":"4","last_reported":1761574237,"current_range_meters":19600,"station_id":"","pricing_plan_id":"cebpf4jnsgd1na2vs0mg"},{"bike_id":"4e9f2aab-f886-46f1-ae71-2d9553abaeb7","system_id":"levelo_inurba_marseille","lat":43.2439,"lon":5.37059,"is_reserved":false,"is_disabled":false,"rental_uris":{"android":"levelo://app?vid=4e9f2aab-f886-46f1-ae71-2d9553abaeb7","ios":"levelo://app?vid=4e9f2aab-f886-46f1-ae71-2d9553abaeb7"},"vehicle_type_id":"4","last_reported":1761574237,"current_range_meters":19600,"station_id":"ce4bhhh2rcd13ifvqfk0","pricing_plan_id":"cebpf4jnsgd1na2vs0mg"},{"bike_id":"b4f483e5-3aef-4504-8a58-16d4924c4fbe","system_id":"levelo_inurba_marseille","lat":43.29844,"lon":5.36271,"is_reserved":false,"is_disabled":false,"rental_uris":{"android":"levelo://app?vid=b4f483e5-3aef-4504-8a58-16d4924c4fbe","ios":"levelo://app?vid=b4f483e5-3aef-4504-8a58-16d4924c4fbe"},"vehicle_type_id":"4","last_reported":1761574237,"current_range_meters":19600,"station_id":"ce4bgpp2rcd13ifvqc3g","pricing_plan_id":"cebpf4jnsgd1na2vs0mg"},{"bike_id":"ae8ebe94-fc0f-4409-8f77-39eb5c613a67","system_id":"levelo_inurba_marseille","lat":43.337444,"lon":5.374475,"is_reserved":false,"is_disabled":false,"rental_uris":{"android":"levelo://app?vid=ae8ebe94-fc0f-4409-8f77-39eb5c613a67","ios":"levelo://app?vid=ae8ebe94-fc0f-4409-8f77-39eb5c613a67"},"vehicle_type_id":"4","last_reported":1761574237,"current_range_meters":20000,"station_id":"","pricing_plan_id":"cebpf4jnsgd1na2vs0mg"},{"bike_id":"5bac8c2a-12e9-4858-a30d-932120e79d9f","system_id":"levelo_inurba_marseille","lat":43.24395,"lon":5.37072,"is_reserved":false,"is_disabled":false,"rental_uris":{"android":"levelo://app?vid=5bac8c2a-12e9-4858-a30d-932120e79d9f","ios":"levelo://app?vid=5bac8c2a-12e9-4858-a30d-932120e79d9f"},"vehicle_type_id":"4","last_reported":1761574237,"current_range_meters":20000,"station_id":"ce4bhhh2rcd13ifvqfk0","pricing_plan_id":"cebpf4jnsgd1na2vs0mg"},{"bike_id":"622d062c-adf7-40f1-8953-ac828fca2088","system_id":"levelo_inurba_marseille","lat":43.296065,"lon":5.380752,"is_reserved":false,"is_disabled":false,"rental_uris":{"android":"levelo://app?vid=622d062c-adf7-40f1-8953-ac828fca2088","ios":"levelo://app?vid=622d062c-adf7-40f1-8953-ac828fca2088"},"vehicle_type_id":"4","last_reported":1761574237,"current_range_meters":20000,"station_id":"ce4bgl12rcd13ifvqbo0","pricing_plan_id":"cebpf4jnsgd1na2vs0mg"},{"bike_id":"1f5b6923-7e2e-42d6-8e54-5b27cbc17051","system_id":"levelo_inurba_marseille","lat":43.29489,"lon":5.39387,"is_reserved":false,"is_disabled":false,"rental_uris":{"android":"levelo://app?vid=1f5b6923-7e2e-42d6-8e54-5b27cbc17051","ios":"levelo://app?vid=1f5b6923-7e2e-42d6-8e54-5b27cbc17051"},"vehicle_type_id":"4","last_reported":1761574237,"current_range_meters":20000,"station_id":"ce4bh292rcd13ifvqdf0","pricing_plan_id":"cebpf4jnsgd1na2vs0mg"},{"bike_id":"32d7653e-b033-4183-b4c0-f44169bb9067","system_id":"levelo_inurba_marseille","lat":43.32692,"lon":5.39199,"is_reserved":false,"is_disabled":false,"rental_uris":{"android":"levelo://app?vid=32d7653e-b033-4183-b4c0-f44169bb9067","ios":"levelo://app?vid=32d7653e-b033-4183-b4c0-f44169bb9067"},"vehicle_type_id":"4","last_reported":1761574237,"current_range_meters":20000,"station_id":"","pricing_plan_id":"cebpf4jnsgd1na2vs0mg"},{"bike_id":"985cf2a5-6560-4622-9131-59ec4174ede8","system_id":"levelo_inurba_marseille","lat":43.29575,"lon":5.36742,"is_reserved":false,"is_disabled":false,"rental_uris":{"android":"levelo://app?vid=985cf2a5-6560-4622-9131-59ec4174ede8","ios":"levelo://app?vid=985cf2a5-6560-4622-9131-59ec4174ede8"},"vehicle_type_id":"4","last_reported":1761574237,"current_range_meters":20000,"station_id":"ce4bgph2rcd13ifvqc2g","pricing_plan_id":"cebpf4jnsgd1na2vs0mg"},{"bike_id":"18384c40-61b5-4db9-a53a-e1a8f51e7d81","system_id":"levelo_inurba_marseille","lat":43.291997,"lon":5.382847,"is_reserved":false,"is_disabled":false,"rental_uris":{"android":"levelo://app?vid=18384c40-61b5-4db9-a53a-e1a8f51e7d81","ios":"levelo://app?vid=18384c40-61b5-4db9-a53a-e1a8f51e7d81"},"vehicle_type_id":"4","last_reported":1761574237,"current_range_meters":20000,"station_id":"ce4bh692rcd13ifvqea0","pricing_plan_id":"cebpf4jnsgd1na2vs0mg"},{"bike_id":"4f221918-84b5-4b9e-a22d-a70ce4456717","system_id":"levelo_inurba_marseille","lat":43.21754,"lon":5.34608,"is_reserved":false,"is_disabled":false,"rental_uris":{"android":"levelo://app?vid=4f221918-84b5-4b9e-a22d-a70ce4456717","ios":"levelo://app?vid=4f221918-84b5-4b9e-a22d-a70ce4456717"},"vehicle_type_id":"4","last_reported":1761574237,"current_range_meters":20000,"station_id":"","pricing_plan_id":"cebpf4jnsgd1na2vs0mg"},{"bike_id":"5dc2cf3f-3f11-4404-b771-c14a2e7e15a2","system_id":"levelo_inurba_marseille","lat":43.293805,"lon":5.378375,"is_reserved":false,"is_disabled":false,"rental_uris":{"android":"levelo://app?vid=5dc2cf3f-3f11-4404-b771-c14a2e7e15a2","ios":"levelo://app?vid=5dc2cf3f-3f11-4404-b771-c14a2e7e15a2"},"vehicle_type_id":"4","last_reported":1761574237,"current_range_meters":20000,"station_id":"ce4bgjh2rcd13ifvqbf0","pricing_plan_id":"cebpf4jnsgd1na2vs0mg"},{"bike_id":"97d64e7a-40ce-4e0c-adf8-9a823ea518ce","system_id":"levelo_inurba_marseille","lat":43.23146,"lon":5.43722,"is_reserved":false,"is_disabled":false,"rental_uris":{"android":"levelo://app?vid=97d64e7a-40ce-4e0c-adf8-9a823ea518ce","ios":"levelo://app?vid=97d64e7a-40ce-4e0c-adf8-9a823ea518ce"},"vehicle_type_id":"4","last_reported":1761574237,"current_range_meters":20000,"station_id":"ce4bhmp2rcd13ifvqgog","pricing_plan_id":"cebpf4jnsgd1na2vs0mg"},{"bike_id":"a9d6f84c-7daf-4c59-adfe-f1faabb86893","system_id":"levelo_inurba_marseille","lat":43.323563,"lon":5.367563,"is_reserved":false,"is_disabled":false,"rental_uris":{"android":"levelo://app?vid=a9d6f84c-7daf-4c59-adfe-f1faabb86893","ios":"levelo://app?vid=a9d6f84c-7daf-4c59-adfe-f1faabb86893"},"vehicle_type_id":"4","last_reported":1761574237,"current_range_meters":20000,"station_id":"ce4bhsh2rcd13ifvqi2g","pricing_plan_id":"cebpf4jnsgd1na2vs0mg"},{"bike_id":"4b6ebb6f-a156-4aa2-a6d0-f76095f1d024","system_id":"levelo_inurba_marseille","lat":43.26187,"lon":5.37452,"is_reserved":false,"is_disabled":false,"rental_uris":{"android":"levelo://app?vid=4b6ebb6f-a156-4aa2-a6d0-f76095f1d024","ios":"levelo://app?vid=4b6ebb6f-a156-4aa2-a6d0-f76095f1d024"},"vehicle_type_id":"4","last_reported":1761574237,"current_range_meters":20000,"station_id":"ce4bhgp2rcd13ifvqfc0","pricing_plan_id":"cebpf4jnsgd1na2vs0mg"},{"bike_id":"a04c429f-ff9d-433b-81b8-350b9f2fadd7","system_id":"levelo_inurba_marseille","lat":43.3079,"lon":5.37639,"is_reserved":false,"is_disabled":false,"rental_uris":{"android":"levelo://app?vid=a04c429f-ff9d-433b-81b8-350b9f2fadd7","ios":"levelo://app?vid=a04c429f-ff9d-433b-81b8-350b9f2fadd7"},"vehicle_type_id":"4","last_reported":1761574237,"current_range_meters":20000,"station_id":"ce4bgv92rcd13ifvqcq0","pricing_plan_id":"cebpf4jnsgd1na2vs0mg"},{"bike_id":"308b83e5-7cab-40fd-bf77-4ff48e75c52b","system_id":"levelo_inurba_marseille","lat":43.32541,"lon":5.41454,"is_reserved":false,"is_disabled":false,"rental_uris":{"android":"levelo://app?vid=308b83e5-7cab-40fd-bf77-4ff48e75c52b","ios":"levelo://app?vid=308b83e5-7cab-40fd-bf77-4ff48e75c52b"},"vehicle_type_id":"4","last_reported":1761574237,"current_range_meters":20400,"station_id":"ce4bhq12rcd13ifvqhhg","pricing_plan_id":"cebpf4jnsgd1na2vs0mg"},{"bike_id":"46292dbd-4a2f-46bb-964b-a4a3d10786f9","system_id":"levelo_inurba_marseille","lat":43.24782,"lon":5.37471,"is_reserved":false,"is_disabled":false,"rental_uris":{"android":"levelo://app?vid=46292dbd-4a2f-46bb-964b-a4a3d10786f9","ios":"levelo://app?vid=46292dbd-4a2f-46bb-964b-a4a3d10786f9"},"vehicle_type_id":"4","last_reported":1761574237,"current_range_meters":20400,"station_id":"ce4bhgh2rcd13ifvqfb0","pricing_plan_id":"cebpf4jnsgd1na2vs0mg"},{"bike_id":"c2323435-b9b1-41fd-8a0e-175e4f465257","system_id":"levelo_inurba_marseille","lat":43.3117,"lon":5.38703,"is_reserved":false,"is_disabled":false,"rental_uris":{"android":"levelo://app?vid=c2323435-b9b1-41fd-8a0e-175e4f465257","ios":"levelo://app?vid=c2323435-b9b1-41fd-8a0e-175e4f465257"},"vehicle_type_id":"4","last_reported":1761574237,"current_range_meters":20400,"station_id":"ce4bgv12rcd13ifvqcp0","pricing_plan_id":"cebpf4jnsgd1na2vs0mg"},{"bike_id":"af96d0e3-d801-42d7-a0dc-15b2fdf2eb9e","system_id":"levelo_inurba_marseille","lat":43.26242,"lon":5.40467,"is_reserved":false,"is_disabled":false,"rental_uris":{"android":"levelo://app?vid=af96d0e3-d801-42d7-a0dc-15b2fdf2eb9e","ios":"levelo://app?vid=af96d0e3-d801-42d7-a0dc-15b2fdf2eb9e"},"vehicle_type_id":"4","last_reported":1761574237,"current_range_meters":20400,"station_id":"ce4bhmh2rcd13ifvqgmg","pricing_plan_id":"cebpf4jnsgd1na2vs0mg"},{"bike_id":"b9d8e4ef-2483-42fb-8aac-84e19d95cbde","system_id":"levelo_inurba_marseille","lat":43.29625,"lon":5.377067,"is_reserved":false,"is_disabled":false,"rental_uris":{"android":"levelo://app?vid=b9d8e4ef-2483-42fb-8aac-84e19d95cbde","ios":"levelo://app?vid=b9d8e4ef-2483-42fb-8aac-84e19d95cbde"},"vehicle_type_id":"4","last_reported":1761574237,"current_range_meters":20400,"station_id":"ce4bgi92rcd13ifvqb90","pricing_plan_id":"cebpf4jnsgd1na2vs0mg"},{"bike_id":"b57e8353-b0bb-4803-90b6-62a9400967c3","system_id":"levelo_inurba_marseille","lat":43.26477,"lon":5.3954,"is_reserved":false,"is_disabled":false,"rental_uris":{"android":"levelo://app?vid=b57e8353-b0bb-4803-90b6-62a9400967c3","ios":"levelo://app?vid=b57e8353-b0bb-4803-90b6-62a9400967c3"},"vehicle_type_id":"4","last_reported":1761574237,"current_range_meters":20400,"station_id":"ce4bhi12rcd13ifvqfq0","pricing_plan_id":"cebpf4jnsgd1na2vs0mg"},{"bike_id":"d5d744bc-1e5d-4657-b38b-3a76833d6d31","system_id":"levelo_inurba_marseille","lat":43.23188,"lon":5.43739,"is_reserved":false,"is_disabled":false,"rental_uris":{"android":"levelo://app?vid=d5d744bc-1e5d-4657-b38b-3a76833d6d31","ios":"levelo://app?vid=d5d744bc-1e5d-4657-b38b-3a76833d6d31"},"vehicle_type_id":"4","last_reported":1761574237,"current_range_meters":20400,"station_id":"","pricing_plan_id":"cebpf4jnsgd1na2vs0mg"},{"bike_id":"dd56a528-ddbf-4da6-b8bf-0101bb83ecd3","system_id":"levelo_inurba_marseille","lat":43.29045,"lon":5.35926,"is_reserved":false,"is_disabled":false,"rental_uris":{"android":"levelo://app?vid=dd56a528-ddbf-4da6-b8bf-0101bb83ecd3","ios":"levelo://app?vid=dd56a528-ddbf-4da6-b8bf-0101bb83ecd3"},"vehicle_type_id":"4","last_reported":1761574237,"current_range_meters":20400,"station_id":"ce4bha92rcd13ifvqeg0","pricing_plan_id":"cebpf4jnsgd1na2vs0mg"},{"bike_id":"6aa9a1ee-9778-4d45-859f-f81494315a8d","system_id":"levelo_inurba_marseille","lat":43.211926,"lon":5.350734,"is_reserved":false,"is_disabled":false,"rental_uris":{"android":"levelo://app?vid=6aa9a1ee-9778-4d45-859f-f81494315a8d","ios":"levelo://app?vid=6aa9a1ee-9778-4d45-859f-f81494315a8d"},"vehicle_type_id":"4","last_reported":1761574237,"current_range_meters":20400,"station_id":"","pricing_plan_id":"cebpf4jnsgd1na2vs0mg"},{"bike_id":"0b79f1cd-6cf7-4d8e-b061-47d742430920","system_id":"levelo_inurba_marseille","lat":43.28261,"lon":5.35085,"is_reserved":false,"is_disabled":false,"rental_uris":{"android":"levelo://app?vid=0b79f1cd-6cf7-4d8e-b061-47d742430920","ios":"levelo://app?vid=0b79f1cd-6cf7-4d8e-b061-47d742430920"},"vehicle_type_id":"4","last_reported":1761574237,"current_range_meters":20800,"station_id":"ce4bhbp2rcd13ifvqerg","pricing_plan_id":"cebpf4jnsgd1na2vs0mg"},{"bike_id":"8f4138f1-129f-4dc2-a705-abd002b7d710","system_id":"levelo_inurba_marseille","lat":43.25593,"lon":5.38267,"is_reserved":false,"is_disabled":false,"rental_uris":{"android":"levelo://app?vid=8f4138f1-129f-4dc2-a705-abd002b7d710","ios":"levelo://app?vid=8f4138f1-129f-4dc2-a705-abd002b7d710"},"vehicle_type_id":"4","last_reported":1761574237,"current_range_meters":20800,"station_id":"ce4bhih2rcd13ifvqfs0","pricing_plan_id":"cebpf4jnsgd1na2vs0mg"},{"bike_id":"b67e4d89-eb40-4705-8e55-320922c7b91b","system_id":"levelo_inurba_marseille","lat":43.22567,"lon":5.41614,"is_reserved":false,"is_disabled":false,"rental_uris":{"android":"levelo://app?vid=b67e4d89-eb40-4705-8e55-320922c7b91b","ios":"levelo://app?vid=b67e4d89-eb40-4705-8e55-320922c7b91b"},"vehicle_type_id":"4","last_reported":1761574237,"current_range_meters":20800,"station_id":"st_d2o4gvlbi1j2169b742g","pricing_plan_id":"cebpf4jnsgd1na2vs0mg"},{"bike_id":"dc8929ba-a503-4409-89bb-f2c68f67a198","system_id":"levelo_inurba_marseille","lat":43.26948,"lon":5.38902,"is_reserved":false,"is_disabled":false,"rental_uris":{"android":"levelo://app?vid=dc8929ba-a503-4409-89bb-f2c68f67a198","ios":"levelo://app?vid=dc8929ba-a503-4409-89bb-f2c68f67a198"},"vehicle_type_id":"4","last_reported":1761574237,"current_range_meters":20800,"station_id":"ce4bhhh2rcd13ifvqfl0","pricing_plan_id":"cebpf4jnsgd1na2vs0mg"},{"bike_id":"c861fc75-3101-499a-8a13-f54229807bfc","system_id":"levelo_inurba_marseille","lat":43.29437,"lon":5.39766,"is_reserved":false,"is_disabled":false,"rental_uris":{"android":"levelo://app?vid=c861fc75-3101-499a-8a13-f54229807bfc","ios":"levelo://app?vid=c861fc75-3101-499a-8a13-f54229807bfc"},"vehicle_type_id":"4","last_reported":1761574237,"current_range_meters":20800,"station_id":"ce4bh3h2rcd13ifvqdo0","pricing_plan_id":"cebpf4jnsgd1na2vs0mg"},{"bike_id":"695244d2-8863-41d7-a0be-f1af1db5b50e","system_id":"levelo_inurba_marseille","lat":43.24066,"lon":5.37767,"is_reserved":false,"is_disabled":false,"rental_uris":{"android":"levelo://app?vid=695244d2-8863-41d7-a0be-f1af1db5b50e","ios":"levelo://app?vid=695244d2-8863-41d7-a0be-f1af1db5b50e"},"vehicle_type_id":"4","last_reported":1761574237,"current_range_meters":20800,"station_id":"ce4bhnp2rcd13ifvqgvg","pricing_plan_id":"cebpf4jnsgd1na2vs0mg"},{"bike_id":"6f60b159-83c5-40f3-a1b0-7b6a6268dfa5","system_id":"levelo_inurba_marseille","lat":43.29168,"lon":5.35611,"is_reserved":false,"is_disabled":false,"rental_uris":{"android":"levelo://app?vid=6f60b159-83c5-40f3-a1b0-7b6a6268dfa5","ios":"levelo://app?vid=6f60b159-83c5-40f3-a1b0-7b6a6268dfa5"},"vehicle_type_id":"4","last_reported":1761574237,"current_range_meters":20800,"station_id":"","pricing_plan_id":"cebpf4jnsgd1na2vs0mg"},{"bike_id":"979822cf-56f6-44e7-8388-b5caf88ac3e5","system_id":"levelo_inurba_marseille","lat":43.29925,"lon":5.36533,"is_reserved":false,"is_disabled":false,"rental_uris":{"android":"levelo://app?vid=979822cf-56f6-44e7-8388-b5caf88ac3e5","ios":"levelo://app?vid=979822cf-56f6-44e7-8388-b5caf88ac3e5"},"vehicle_type_id":"4","last_reported":1761574237,"current_range_meters":20800,"station_id":"ce4bgm92rcd13ifvqbr0","pricing_plan_id":"cebpf4jnsgd1na2vs0mg"},{"bike_id":"44b8ca1a-ee41-417a-84b7-f51f5d60ce0c","system_id":"levelo_inurba_marseille","lat":43.279015,"lon":5.38006,"is_reserved":false,"is_disabled":false,"rental_uris":{"android":"levelo://app?vid=44b8ca1a-ee41-417a-84b7-f51f5d60ce0c","ios":"levelo://app?vid=44b8ca1a-ee41-417a-84b7-f51f5d60ce0c"},"vehicle_type_id":"4","last_reported":1761574237,"current_range_meters":20800,"station_id":"ce4bhf92rcd13ifvqf50","pricing_plan_id":"cebpf4jnsgd1na2vs0mg"},{"bike_id":"d91cfbe0-118f-4805-9bd2-37014145cfad","system_id":"levelo_inurba_marseille","lat":43.302533,"lon":5.369728,"is_reserved":false,"is_disabled":false,"rental_uris":{"android":"levelo://app?vid=d91cfbe0-118f-4805-9bd2-37014145cfad","ios":"levelo://app?vid=d91cfbe0-118f-4805-9bd2-37014145cfad"},"vehicle_type_id":"4","last_reported":1761574237,"current_range_meters":20800,"station_id":"ce4bgqh2rcd13ifvqc5g","pricing_plan_id":"cebpf4jnsgd1na2vs0mg"},{"bike_id":"9d447215-7097-463a-ab01-ffec67831b86","system_id":"levelo_inurba_marseille","lat":43.32365,"lon":5.36757,"is_reserved":false,"is_disabled":false,"rental_uris":{"android":"levelo://app?vid=9d447215-7097-463a-ab01-ffec67831b86","ios":"levelo://app?vid=9d447215-7097-463a-ab01-ffec67831b86"},"vehicle_type_id":"4","last_reported":1761574237,"current_range_meters":20800,"station_id":"ce4bhsh2rcd13ifvqi2g","pricing_plan_id":"cebpf4jnsgd1na2vs0mg"},{"bike_id":"99fa14d4-29ae-41ae-b6a1-973c3ac28e67","system_id":"levelo_inurba_marseille","lat":43.26778,"lon":5.39411,"is_reserved":false,"is_disabled":false,"rental_uris":{"android":"levelo://app?vid=99fa14d4-29ae-41ae-b6a1-973c3ac28e67","ios":"levelo://app?vid=99fa14d4-29ae-41ae-b6a1-973c3ac28e67"},"vehicle_type_id":"4","last_reported":1761574237,"current_range_meters":20800,"station_id":"ce4bhh12rcd13ifvqfg0","pricing_plan_id":"cebpf4jnsgd1na2vs0mg"},{"bike_id":"61f736b1-22c2-460a-99f5-3badfb681088","system_id":"levelo_inurba_marseille","lat":43.32484,"lon":5.36571,"is_reserved":false,"is_disabled":false,"rental_uris":{"android":"levelo://app?vid=61f736b1-22c2-460a-99f5-3badfb681088","ios":"levelo://app?vid=61f736b1-22c2-460a-99f5-3badfb681088"},"vehicle_type_id":"4","last_reported":1761574237,"current_range_meters":20800,"station_id":"ce4bhs12rcd13ifvqhvg","pricing_plan_id":"cebpf4jnsgd1na2vs0mg"},{"bike_id":"a45afcb8-dce8-4f3d-8c34-e07d53545177","system_id":"levelo_inurba_marseille","lat":43.295757,"lon":5.367427,"is_reserved":false,"is_disabled":false,"rental_uris":{"android":"levelo://app?vid=a45afcb8-dce8-4f3d-8c34-e07d53545177","ios":"levelo://app?vid=a45afcb8-dce8-4f3d-8c34-e07d53545177"},"vehicle_type_id":"4","last_reported":1761574237,"current_range_meters":21600,"station_id":"ce4bgph2rcd13ifvqc2g","pricing_plan_id":"cebpf4jnsgd1na2vs0mg"},{"bike_id":"28caf2ae-2f78-4bab-8d1a-0e7bc4db0f21","system_id":"levelo_inurba_marseille","lat":43.27997,"lon":5.41666,"is_reserved":false,"is_disabled":false,"rental_uris":{"android":"levelo://app?vid=28caf2ae-2f78-4bab-8d1a-0e7bc4db0f21","ios":"levelo://app?vid=28caf2ae-2f78-4bab-8d1a-0e7bc4db0f21"},"vehicle_type_id":"4","last_reported":1761574237,"current_range_meters":21600,"station_id":"ce4bho12rcd13ifvqh1g","pricing_plan_id":"cebpf4jnsgd1na2vs0mg"},{"bike_id":"53709006-e9b7-4bc9-82d1-2849d73cdfe4","system_id":"levelo_inurba_marseille","lat":43.27173,"lon":5.40992,"is_reserved":false,"is_disabled":false,"rental_uris":{"android":"levelo://app?vid=53709006-e9b7-4bc9-82d1-2849d73cdfe4","ios":"levelo://app?vid=53709006-e9b7-4bc9-82d1-2849d73cdfe4"},"vehicle_type_id":"4","last_reported":1761574237,"current_range_meters":21600,"station_id":"ce4bhl12rcd13ifvqgf0","pricing_plan_id":"cebpf4jnsgd1na2vs0mg"},{"bike_id":"0bb7781a-0f42-4be8-8140-a94feb928c58","system_id":"levelo_inurba_marseille","lat":43.30144,"lon":5.38106,"is_reserved":false,"is_disabled":false,"rental_uris":{"android":"levelo://app?vid=0bb7781a-0f42-4be8-8140-a94feb928c58","ios":"levelo://app?vid=0bb7781a-0f42-4be8-8140-a94feb928c58"},"vehicle_type_id":"4","last_reported":1761574237,"current_range_meters":22000,"station_id":"ce4bgjp2rcd13ifvqbh0","pricing_plan_id":"cebpf4jnsgd1na2vs0mg"},{"bike_id":"51a7e268-9562-4b96-8e84-f568b0acc7b7","system_id":"levelo_inurba_marseille","lat":43.247969,"lon":5.37456,"is_reserved":false,"is_disabled":false,"rental_uris":{"android":"levelo://app?vid=51a7e268-9562-4b96-8e84-f568b0acc7b7","ios":"levelo://app?vid=51a7e268-9562-4b96-8e84-f568b0acc7b7"},"vehicle_type_id":"4","last_reported":1761574237,"current_range_meters":22000,"station_id":"","pricing_plan_id":"cebpf4jnsgd1na2vs0mg"},{"bike_id":"abe34bf0-7048-4da1-9eec-5004d4e0fdf3","system_id":"levelo_inurba_marseille","lat":43.29909,"lon":5.37462,"is_reserved":false,"is_disabled":false,"rental_uris":{"android":"levelo://app?vid=abe34bf0-7048-4da1-9eec-5004d4e0fdf3","ios":"levelo://app?vid=abe34bf0-7048-4da1-9eec-5004d4e0fdf3"},"vehicle_type_id":"4","last_reported":1761574237,"current_range_meters":22000,"station_id":"ce4bgjh2rcd13ifvqbg0","pricing_plan_id":"cebpf4jnsgd1na2vs0mg"},{"bike_id":"e71a4775-badd-44f1-838f-e1f4ccbdf82f","system_id":"levelo_inurba_marseille","lat":43.3266,"lon":5.40994,"is_reserved":false,"is_disabled":false,"rental_uris":{"android":"levelo://app?vid=e71a4775-badd-44f1-838f-e1f4ccbdf82f","ios":"levelo://app?vid=e71a4775-badd-44f1-838f-e1f4ccbdf82f"},"vehicle_type_id":"4","last_reported":1761574237,"current_range_meters":22000,"station_id":"ce4bhpp2rcd13ifvqhgg","pricing_plan_id":"cebpf4jnsgd1na2vs0mg"},{"bike_id":"5f6c4fea-ada2-453b-9aa3-59bf116cef02","system_id":"levelo_inurba_marseille","lat":43.225341,"lon":5.348319,"is_reserved":false,"is_disabled":false,"rental_uris":{"android":"levelo://app?vid=5f6c4fea-ada2-453b-9aa3-59bf116cef02","ios":"levelo://app?vid=5f6c4fea-ada2-453b-9aa3-59bf116cef02"},"vehicle_type_id":"4","last_reported":1761574237,"current_range_meters":22000,"station_id":"","pricing_plan_id":"cebpf4jnsgd1na2vs0mg"},