{"last_updated":1771429191,"ttl":60,"version":"2.2","data":{"bikes":[{"bike_id":"e8bb9c43-3550-4013-ba7e-497f22a57e0c","system_id":"levelo_inurba_marseille","lat":43.29804,"lon":5.40404,"is_reserved":false,"is_disabled":false,"rental_uris":{"android":"levelo://app?vid=e8bb9c43-3550-4013-ba7e-497f22a57e0c","ios":"levelo://app?vid=e8bb9c43-3550-4013-ba7e-497f22a57e0c"},"vehicle_type_id":"4","last_reported":1771429192,"current_range_meters":39200,"station_id":"ce4bh112rcd13ifvqd90","pricing_plan_id":"cebpf4jnsgd1na2vs0mg"},{"bike_id":"45893c92-5032-4cc9-8217-1e61902860c4","system_id":"levelo_inurba_marseille","lat":43.26788,"lon":5.39437,"is_reserved":false,"is_disabled":false,"rental_uris":{"android":"levelo://app?vid=45893c92-5032-4cc9-8217-1e61902860c4","ios":"levelo://app?vid=45893c92-5032-4cc9-8217-1e61902860c4"},"vehicle_type_id":"4","last_reported":1771429192,"current_range_meters":24800,"station_id":"ce4bhh12rcd13ifvqfg0","pricing_plan_id":"cebpf4jnsgd1na2vs0mg"},{"bike_id":"d2556e92-2ca9-4a78-9f71-9255354e5fd9","system_id":"levelo_inurba_marseille","lat":43.28853,"lon":5.39316,"is_reserved":false,"is_disabled":true,"rental_uris":{"android":"levelo://app?vid=d2556e92-2ca9-4a78-9f71-9255354e5fd9","ios":"levelo://app?vid=d2556e92-2ca9-4a78-9f71-9255354e5fd9"},"vehicle_type_id":"4","last_reported":1771429192,"current_range_meters":31200,"station_id":"ce4bh2p2rcd13ifvqdi0","pricing_plan_id":"cebpf4jnsgd1na2vs0mg"},{"bike_id":"723cf7d3-93f7-4554-b0f4-995b0f16e6af","system_id":"levelo_inurba_marseille","lat":43.29847,"lon":5.3628,"is_reserved":false,"is_disabled":false,"rental_uris":{"android":"levelo://app?vid=723cf7d3-93f7-4554-b0f4-995b0f16e6af","ios":"levelo://app?vid=723cf7d3-93f7-4554-b0f4-995b0f16e6af"},"vehicle_type_id":"4","last_reported":1771429192,"current_range_meters":21600,"station_id":"ce4bgpp2rcd13ifvqc3g","pricing_plan_id":"cebpf4jnsgd1na2vs0mg"},{"bike_id":"2215d9ea-d180-454e-997c-4ccbb30a5173","system_id":"levelo_inurba_marseille","lat":43.301291,"lon":5.398556,"is_reserved":false,"is_disabled":false,"rental_uris":{"android":"levelo://app?vid=2215d9ea-d180-454e-997c-4ccbb30a5173","ios":"levelo://app?vid=2215d9ea-d180-454e-997c-4ccbb30a5173"},"vehicle_type_id":"4","last_reported":1771429192,"current_range_meters":28400,"station_id":"ce4bh0h2rcd13ifvqd40","pricing_plan_id":"cebpf4jnsgd1na2vs0mg"},{"bike_id":"f56469d6-156e-4dc9-9c3e-3416ed76c4ba","system_id":"levelo_inurba_marseille","lat":43.33161,"lon":5.37693,"is_reserved":false,"is_disabled":false,"rental_uris":{"android":"levelo://app?vid=f56469d6-156e-4dc9-9c3e-3416ed76c4ba","ios":"levelo://app?vid=f56469d6-156e-4dc9-9c3e-3416ed76c4ba"},"vehicle_type_id":"4","last_reported":1771429192,"current_range_meters":25200,"station_id":"st_d46cu089ee8s73dldbu0","pricing_plan_id":"cebpf4jnsgd1na2vs0mg"},{"bike_id":"6fdf3c0c-e2fd-48ef-ba20-cd96942d8a55","system_id":"levelo_inurba_marseille","lat":43.26229,"lon":5.40453,"is_reserved":false,"is_disabled":true,"rental_uris":{"android":"levelo://app?vid=6fdf3c0c-e2fd-48ef-ba20-cd96942d8a55","ios":"levelo://app?vid=6fdf3c0c-e2fd-48ef-ba20-cd96942d8a55"},"vehicle_type_id":"4","last_reported":1771429192,"current_range_meters":16400,"station_id":"ce4bhmh2rcd13ifvqgmg","pricing_plan_id":"cebpf4jnsgd1na2vs0mg"},{"bike_id":"6eb021f8-a07e-45b7-8838-0d0e720398c2","system_id":"levelo_inurba_marseille","lat":43.30879,"lon":5.39654,"is_reserved":false,"is_disabled":false,"rental_uris":{"android":"levelo://app?vid=6eb021f8-a07e-45b7-8838-0d0e720398c2","ios":"levelo://app?vid=6eb021f8-a07e-45b7-8838-0d0e720398c2"},"vehicle_type_id":"4","last_reported":1771429192,"current_range_meters":2800,"station_id":"ce4bh012rcd13ifvqcv0","pricing_plan_id":"cebpf4jnsgd1na2vs0mg"},{"bike_id":"d2855836-f19f-4be4-8f1e-9aea92729b43","system_id":"levelo_inurba_marseille","lat":43.2827,"lon":5.35069,"is_reserved":false,"is_disabled":false,"rental_uris":{"android":"levelo://app?vid=d2855836-f19f-4be4-8f1e-9aea92729b43","ios":"levelo://app?vid=d2855836-f19f-4be4-8f1e-9aea92729b43"},"vehicle_type_id":"4","last_reported":1771429192,"current_range_meters":24800,"station_id":"ce4bhbp2rcd13ifvqerg","pricing_plan_id":"cebpf4jnsgd1na2vs0mg"},{"bike_id":"d8c9f9c3-dee7-4958-bac5-b856a984d157","system_id":"levelo_inurba_marseille","lat":43.28621,"lon":5.35105,"is_reserved":false,"is_disabled":false,"rental_uris":{"android":"levelo://app?vid=d8c9f9c3-dee7-4958-bac5-b856a984d157","ios":"levelo://app?vid=d8c9f9c3-dee7-4958-bac5-b856a984d157"},"vehicle_type_id":"4","last_reported":1771429192,"current_range_meters":28000,"station_id":"ce4bhch2rcd13ifvqeug","pricing_plan_id":"cebpf4jnsgd1na2vs0mg"},{"bike_id":"13caf1df-b573-4a18-98ad-13019b214b6b","system_id":"levelo_inurba_marseille","lat":43.26047,"lon":5.39402,"is_reserved":false,"is_disabled":false,"rental_uris":{"android":"levelo://app?vid=13caf1df-b573-4a18-98ad-13019b214b6b","ios":"levelo://app?vid=13caf1df-b573-4a18-98ad-13019b214b6b"},"vehicle_type_id":"4","last_reported":1771429192,"current_range_meters":6000,"station_id":"ce4bhh92rcd13ifvqfj0","pricing_plan_id":"cebpf4jnsgd1na2vs0mg"},{"bike_id":"df2b51b8-6266-41bb-a3ab-a4dcd1fc3155","system_id":"levelo_inurba_marseille","lat":43.304207,"lon":5.412811,"is_reserved":false,"is_disabled":false,"rental_uris":{"android":"levelo://app?vid=df2b51b8-6266-41bb-a3ab-a4dcd1fc3155","ios":"levelo://app?vid=df2b51b8-6266-41bb-a3ab-a4dcd1fc3155"},"vehicle_type_id":"4","last_reported":1771429192,"current_range_meters":3200,"station_id":"ce4bhop2rcd13ifvqh8g","pricing_plan_id":"cebpf4jnsgd1na2vs0mg"},{"bike_id":"37b7f341-16d7-4eb9-9d63-c0dc411fcc94","system_id":"levelo_inurba_marseille","lat":43.2417,"lon":5.39705,"is_reserved":false,"is_disabled":false,"rental_uris":{"android":"levelo://app?vid=37b7f341-16d7-4eb9-9d63-c0dc411fcc94","ios":"levelo://app?vid=37b7f341-16d7-4eb9-9d63-c0dc411fcc94"},"vehicle_type_id":"4","last_reported":1771429192,"current_range_meters":22400,"station_id":"ce4bhn12rcd13ifvqgpg","pricing_plan_id":"cebpf4jnsgd1na2vs0mg"},{"bike_id":"d2bb17c7-6558-4b9c-ae8a-0d2292552853","system_id":"levelo_inurba_marseille","lat":43.2851,"lon":5.484,"is_reserved":false,"is_disabled":false,"rental_uris":{"android":"levelo://app?vid=d2bb17c7-6558-4b9c-ae8a-0d2292552853","ios":"levelo://app?vid=d2bb17c7-6558-4b9c-ae8a-0d2292552853"},"vehicle_type_id":"4","last_reported":1771429192,"current_range_meters":37600,"station_id":"","pricing_plan_id":"cebpf4jnsgd1na2vs0mg"},{"bike_id":"da4093a5-6673-43a8-b7ee-b4859a45cac4","system_id":"levelo_inurba_marseille","lat":43.24388,"lon":5.37089,"is_reserved":false,"is_disabled":false,"rental_uris":{"android":"levelo://app?vid=da4093a5-6673-43a8-b7ee-b4859a45cac4","ios":"levelo://app?vid=da4093a5-6673-43a8-b7ee-b4859a45cac4"},"vehicle_type_id":"4","last_reported":1771429192,"current_range_meters":8800,"station_id":"ce4bhhh2rcd13ifvqfk0","pricing_plan_id":"cebpf4jnsgd1na2vs0mg"},{"bike_id":"f3db919d-26f4-49f5-8c5c-0a908e0444ca","system_id":"levelo_inurba_marseille","lat":43.28973,"lon":5.37833,"is_reserved":false,"is_disabled":false,"rental_uris":{"android":"levelo://app?vid=f3db919d-26f4-49f5-8c5c-0a908e0444ca","ios":"levelo://app?vid=f3db919d-26f4-49f5-8c5c-0a908e0444ca"},"vehicle_type_id":"4","last_reported":1771429192,"current_range_meters":4800,"station_id":"ce4bh9p2rcd13ifvqed0","pricing_plan_id":"cebpf4jnsgd1na2vs0mg"},{"bike_id":"589f0357-5a3b-49dd-8324-ff8ace5a6805","system_id":"levelo_inurba_marseille","lat":43.26784,"lon":5.39436,"is_reserved":false,"is_disabled":false,"rental_uris":{"android":"levelo://app?vid=589f0357-5a3b-49dd-8324-ff8ace5a6805","ios":"levelo://app?vid=589f0357-5a3b-49dd-8324-ff8ace5a6805"},"vehicle_type_id":"4","last_reported":1771429192,"current_range_meters":32400,"station_id":"ce4bhh12rcd13ifvqfg0","pricing_plan_id":"cebpf4jnsgd1na2vs0mg"},{"bike_id":"6ea2f9d9-85e7-458e-acf1-457e5caa82ce","system_id":"levelo_inurba_marseille","lat":43.29026,"lon":5.3812,"is_reserved":false,"is_disabled":false,"rental_uris":{"android":"levelo://app?vid=6ea2f9d9-85e7-458e-acf1-457e5caa82ce","ios":"levelo://app?vid=6ea2f9d9-85e7-458e-acf1-457e5caa82ce"},"vehicle_type_id":"4","last_reported":1771429192,"current_range_meters":36400,"station_id":"ce4bh4p2rcd13ifvqe1g","pricing_plan_id":"cebpf4jnsgd1na2vs0mg"},{"bike_id":"786ea790-1b16-419a-9211-d21135bd80e8","system_id":"levelo_inurba_marseille","lat":43.26216,"lon":5.37424,"is_reserved":false,"is_disabled":false,"rental_uris":{"android":"levelo://app?vid=786ea790-1b16-419a-9211-d21135bd80e8","ios":"levelo://app?vid=786ea790-1b16-419a-9211-d21135bd80e8"},"vehicle_type_id":"4","last_reported":1771429192,"current_range_meters":3200,"station_id":"ce4bhgp2rcd13ifvqfc0","pricing_plan_id":"cebpf4jnsgd1na2vs0mg"},{"bike_id":"351bcd66-96e5-4e62-ae12-2c87a2f81846","system_id":"levelo_inurba_marseille","lat":43.2757,"lon":5.38389,"is_reserved":false,"is_disabled":false,"rental_uris":{"android":"levelo://app?vid=351bcd66-96e5-4e62-ae12-2c87a2f81846","ios":"levelo://app?vid=351bcd66-96e5-4e62-ae12-2c87a2f81846"},"vehicle_type_id":"4","last_reported":1771429192,"current_range_meters":38800,"station_id":"ce4bhh92rcd13ifvqfi0","pricing_plan_id":"cebpf4jnsgd1na2vs0mg"},{"bike_id":"f804907a-6142-4415-9eb8-6e8398bac507","system_id":"levelo_inurba_marseille","lat":43.25574,"lon":5.38255,"is_reserved":false,"is_disabled":false,"rental_uris":{"android":"levelo://app?vid=f804907a-6142-4415-9eb8-6e8398bac507","ios":"levelo://app?vid=f804907a-6142-4415-9eb8-6e8398bac507"},"vehicle_type_id":"4","last_reported":1771429192,"current_range_meters":16800,"station_id":"ce4bhih2rcd13ifvqfs0","pricing_plan_id":"cebpf4jnsgd1na2vs0mg"},{"bike_id":"995dd4aa-d943-4547-aee8-c3325bdb05ae","system_id":"levelo_inurba_marseille","lat":43.3128,"lon":5.40155,"is_reserved":false,"is_disabled":true,"rental_uris":{"android":"levelo://app?vid=995dd4aa-d943-4547-aee8-c3325bdb05ae","ios":"levelo://app?vid=995dd4aa-d943-4547-aee8-c3325bdb05ae"},"vehicle_type_id":"4","last_reported":1771429192,"current_range_meters":25600,"station_id":"ce4bh092rcd13ifvqd30","pricing_plan_id":"cebpf4jnsgd1na2vs0mg"},{"bike_id":"0d556e9f-0611-4f3c-8a2c-f68279a59dec","system_id":"levelo_inurba_marseille","lat":43.28673,"lon":5.35154,"is_reserved":false,"is_disabled":false,"rental_uris":{"android":"levelo://app?vid=0d556e9f-0611-4f3c-8a2c-f68279a59dec","ios":"levelo://app?vid=0d556e9f-0611-4f3c-8a2c-f68279a59dec"},"vehicle_type_id":"4","last_reported":1771429192,"current_range_meters":31200,"station_id":"ce4bhch2rcd13ifvqeug","pricing_plan_id":"cebpf4jnsgd1na2vs0mg"},{"bike_id":"2135168d-2719-481c-b149-a31a5ccbbbde","system_id":"levelo_inurba_marseille","lat":43.28493,"lon":5.38421,"is_reserved":false,"is_disabled":false,"rental_uris":{"android":"levelo://app?vid=2135168d-2719-481c-b149-a31a5ccbbbde","ios":"levelo://app?vid=2135168d-2719-481c-b149-a31a5ccbbbde"},"vehicle_type_id":"4","last_reported":1771429192,"current_range_meters":4800,"station_id":"ce4bh512rcd13ifvqe3g","pricing_plan_id":"cebpf4jnsgd1na2vs0mg"},{"bike_id":"78300cd2-3d23-4031-97ed-d6e4990ebaf8","system_id":"levelo_inurba_marseille","lat":43.29251,"lon":5.38299,"is_reserved":false,"is_disabled":false,"rental_uris":{"android":"levelo://app?vid=78300cd2-3d23-4031-97ed-d6e4990ebaf8","ios":"levelo://app?vid=78300cd2-3d23-4031-97ed-d6e4990ebaf8"},"vehicle_type_id":"4","last_reported":1771429192,"current_range_meters":12400,"station_id":"","pricing_plan_id":"cebpf4jnsgd1na2vs0mg"},{"bike_id":"97e5b8bb-9ce2-4a3e-b4a9-8b7acc5a9dcc","system_id":"levelo_inurba_marseille","lat":43.29218,"lon":5.36072,"is_reserved":false,"is_disabled":false,"rental_uris":{"android":"levelo://app?vid=97e5b8bb-9ce2-4a3e-b4a9-8b7acc5a9dcc","ios":"levelo://app?vid=97e5b8bb-9ce2-4a3e-b4a9-8b7acc5a9dcc"},"vehicle_type_id":"4","last_reported":1771429192,"current_range_meters":36800,"station_id":"ce4bhbh2rcd13ifvqeqg","pricing_plan_id":"cebpf4jnsgd1na2vs0mg"},{"bike_id":"c0be5c69-d4d0-408f-9686-7f71cf6f7bc9","system_id":"levelo_inurba_marseille","lat":43.29272,"lon":5.37631,"is_reserved":false,"is_disabled":false,"rental_uris":{"android":"levelo://app?vid=c0be5c69-d4d0-408f-9686-7f71cf6f7bc9","ios":"levelo://app?vid=c0be5c69-d4d0-408f-9686-7f71cf6f7bc9"},"vehicle_type_id":"4","last_reported":1771429192,"current_range_meters":20400,"station_id":"ce4bgi12rcd13ifvqb80","pricing_plan_id":"cebpf4jnsgd1na2vs0mg"},{"bike_id":"0b0e423c-db6c-414d-8673-81468a2b7d18","system_id":"levelo_inurba_marseille","lat":43.25932,"lon":5.40911,"is_reserved":false,"is_disabled":false,"rental_uris":{"android":"levelo://app?vid=0b0e423c-db6c-414d-8673-81468a2b7d18","ios":"levelo://app?vid=0b0e423c-db6c-414d-8673-81468a2b7d18"},"vehicle_type_id":"4","last_reported":1771429192,"current_range_meters":32800,"station_id":"ce4bhm92rcd13ifvqglg","pricing_plan_id":"cebpf4jnsgd1na2vs0mg"},{"bike_id":"9daa25c7-d524-46ae-8d41-0a3c36c8c2a4","system_id":"levelo_inurba_marseille","lat":43.29043,"lon":5.399595,"is_reserved":false,"is_disabled":true,"rental_uris":{"android":"levelo://app?vid=9daa25c7-d524-46ae-8d41-0a3c36c8c2a4","ios":"levelo://app?vid=9daa25c7-d524-46ae-8d41-0a3c36c8c2a4"},"vehicle_type_id":"4","last_reported":1771429192,"current_range_meters":20000,"station_id":"ce4bh392rcd13ifvqdm0","pricing_plan_id":"cebpf4jnsgd1na2vs0mg"},{"bike_id":"748e0f94-1d84-4e99-a2d8-3ed4f6188416","system_id":"levelo_inurba_marseille","lat":43.25086,"lon":5.40324,"is_reserved":false,"is_disabled":false,"rental_uris":{"android":"levelo://app?vid=748e0f94-1d84-4e99-a2d8-3ed4f6188416","ios":"levelo://app?vid=748e0f94-1d84-4e99-a2d8-3ed4f6188416"},"vehicle_type_id":"4","last_reported":1771429192,"current_range_meters":36000,"station_id":"ce4bhlh2rcd13ifvqgig","pricing_plan_id":"cebpf4jnsgd1na2vs0mg"},{"bike_id":"09d4aefd-adc3-4f75-8707-0e43c5622ccd","system_id":"levelo_inurba_marseille","lat":43.30272,"lon":5.37701,"is_reserved":false,"is_disabled":false,"rental_uris":{"android":"levelo://app?vid=09d4aefd-adc3-4f75-8707-0e43c5622ccd","ios":"levelo://app?vid=09d4aefd-adc3-4f75-8707-0e43c5622ccd"},"vehicle_type_id":"4","last_reported":1771429192,"current_range_meters":36800,"station_id":"ce4bguh2rcd13ifvqcj0","pricing_plan_id":"cebpf4jnsgd1na2vs0mg"},{"bike_id":"aadc594e-5343-41d4-86e4-ef868a6f09de","system_id":"levelo_inurba_marseille","lat":43.29551,"lon":5.42267,"is_reserved":false,"is_disabled":false,"rental_uris":{"android":"levelo://app?vid=aadc594e-5343-41d4-86e4-ef868a6f09de","ios":"levelo://app?vid=aadc594e-5343-41d4-86e4-ef868a6f09de"},"vehicle_type_id":"4","last_reported":1771429192,"current_range_meters":33600,"station_id":"ce4bhph2rcd13ifvqhdg","pricing_plan_id":"cebpf4jnsgd1na2vs0mg"},{"bike_id":"f2d30de6-4c83-468b-9ea0-b4022ee843f0","system_id":"levelo_inurba_marseille","lat":43.32341,"lon":5.36738,"is_reserved":false,"is_disabled":false,"rental_uris":{"android":"levelo://app?vid=f2d30de6-4c83-468b-9ea0-b4022ee843f0","ios":"levelo://app?vid=f2d30de6-4c83-468b-9ea0-b4022ee843f0"},"vehicle_type_id":"4","last_reported":1771429192,"current_range_meters":28800,"station_id":"ce4bhsh2rcd13ifvqi2g","pricing_plan_id":"cebpf4jnsgd1na2vs0mg"},{"bike_id":"c2601411-1596-4294-8a6c-6b3d2a9b9b83","system_id":"levelo_inurba_marseille","lat":43.303086,"lon":5.369018,"is_reserved":false,"is_disabled":false,"rental_uris":{"android":"levelo://app?vid=c2601411-1596-4294-8a6c-6b3d2a9b9b83","ios":"levelo://app?vid=c2601411-1596-4294-8a6c-6b3d2a9b9b83"},"vehicle_type_id":"4","last_reported":1771429192,"current_range_meters":35600,"station_id":"ce4bgqh2rcd13ifvqc5g","pricing_plan_id":"cebpf4jnsgd1na2vs0mg"},{"bike_id":"086329f7-9695-4e95-9918-9c8fb0248f27","system_id":"levelo_inurba_marseille","lat":43.29736,"lon":5.37691,"is_reserved":false,"is_disabled":false,"rental_uris":{"android":"levelo://app?vid=086329f7-9695-4e95-9918-9c8fb0248f27","ios":"levelo://app?vid=086329f7-9695-4e95-9918-9c8fb0248f27"},"vehicle_type_id":"4","last_reported":1771429192,"current_range_meters":39200,"station_id":"ce4bgkh2rcd13ifvqbl0","pricing_plan_id":"cebpf4jnsgd1na2vs0mg"},{"bike_id":"c12a3f3f-ee09-4692-a697-721eb5841563","system_id":"levelo_inurba_marseille","lat":43.30175,"lon":5.36613,"is_reserved":false,"is_disabled":false,"rental_uris":{"android":"levelo://app?vid=c12a3f3f-ee09-4692-a697-721eb5841563","ios":"levelo://app?vid=c12a3f3f-ee09-4692-a697-721eb5841563"},"vehicle_type_id":"4","last_reported":1771429192,"current_range_meters":39200,"station_id":"ce4bgrh2rcd13ifvqc8g","pricing_plan_id":"cebpf4jnsgd1na2vs0mg"},{"bike_id":"e071cb6b-00dd-46cc-bbae-0c336769674f","system_id":"levelo_inurba_marseille","lat":43.26482,"lon":5.39563,"is_reserved":false,"is_disabled":false,"rental_uris":{"android":"levelo://app?vid=e071cb6b-00dd-46cc-bbae-0c336769674f","ios":"levelo://app?vid=e071cb6b-00dd-46cc-bbae-0c336769674f"},"vehicle_type_id":"4","last_reported":1771429192,"current_range_meters":32400,"station_id":"ce4bhi12rcd13ifvqfq0","pricing_plan_id":"cebpf4jnsgd1na2vs0mg"},{"bike_id":"01c62984-a2ae-4489-84a9-6a173aa3a0f3","system_id":"levelo_inurba_marseille","lat":43.31226,"lon":5.36842,"is_reserved":false,"is_disabled":true,"rental_uris":{"android":"levelo://app?vid=01c62984-a2ae-4489-84a9-6a173aa3a0f3","ios":"levelo://app?vid=01c62984-a2ae-4489-84a9-6a173aa3a0f3"},"vehicle_type_id":"4","last_reported":1771429192,"current_range_meters":34000,"station_id":"ce4bgl92rcd13ifvqbq0","pricing_plan_id":"cebpf4jnsgd1na2vs0mg"},{"bike_id":"b887e689-88f1-4736-b4ab-9c38b8d63ea9","system_id":"levelo_inurba_marseille","lat":43.29273,"lon":5.36844,"is_reserved":false,"is_disabled":false,"rental_uris":{"android":"levelo://app?vid=b887e689-88f1-4736-b4ab-9c38b8d63ea9","ios":"levelo://app?vid=b887e689-88f1-4736-b4ab-9c38b8d63ea9"},"vehicle_type_id":"4","last_reported":1771429192,"current_range_meters":26800,"station_id":"ce4bhbp2rcd13ifvqesg","pricing_plan_id":"cebpf4jnsgd1na2vs0mg"},{"bike_id":"e9c8c195-4938-4494-9005-66aa872cbce1","system_id":"levelo_inurba_marseille","lat":43.31228,"lon":5.36874,"is_reserved":false,"is_disabled":false,"rental_uris":{"android":"levelo://app?vid=e9c8c195-4938-4494-9005-66aa872cbce1","ios":"levelo://app?vid=e9c8c195-4938-4494-9005-66aa872cbce1"},"vehicle_type_id":"4","last_reported":1771429192,"current_range_meters":16800,"station_id":"ce4bgl92rcd13ifvqbq0","pricing_plan_id":"cebpf4jnsgd1na2vs0mg"},{"bike_id":"b0447951-c1c0-4cd2-a886-8a9420a4eef0","system_id":"levelo_inurba_marseille","lat":43.30366,"lon":5.41881,"is_reserved":false,"is_disabled":false,"rental_uris":{"android":"levelo://app?vid=b0447951-c1c0-4cd2-a886-8a9420a4eef0","ios":"levelo://app?vid=b0447951-c1c0-4cd2-a886-8a9420a4eef0"},"vehicle_type_id":"4","last_reported":1771429192,"current_range_meters":36800,"station_id":"ce4bhop2rcd13ifvqh7g","pricing_plan_id":"cebpf4jnsgd1na2vs0mg"},{"bike_id":"dc185dcd-c869-41d8-8509-fa86db2f0d51","system_id":"levelo_inurba_marseille","lat":43.28415,"lon":5.34982,"is_reserved":false,"is_disabled":false,"rental_uris":{"android":"levelo://app?vid=dc185dcd-c869-41d8-8509-fa86db2f0d51","ios":"levelo://app?vid=dc185dcd-c869-41d8-8509-fa86db2f0d51"},"vehicle_type_id":"4","last_reported":1771429192,"current_range_meters":32000,"station_id":"ce4bhbh2rcd13ifvqepg","pricing_plan_id":"cebpf4jnsgd1na2vs0mg"},{"bike_id":"a2aac6db-ff2a-410f-9224-52b6b4391027","system_id":"levelo_inurba_marseille","lat":43.25105,"lon":5.40338,"is_reserved":false,"is_disabled":false,"rental_uris":{"android":"levelo://app?vid=a2aac6db-ff2a-410f-9224-52b6b4391027","ios":"levelo://app?vid=a2aac6db-ff2a-410f-9224-52b6b4391027"},"vehicle_type_id":"4","last_reported":1771429192,"current_range_meters":27600,"station_id":"ce4bhlh2rcd13ifvqgig","pricing_plan_id":"cebpf4jnsgd1na2vs0mg"},{"bike_id":"370a6522-0dfe-4330-a0d2-68753ae1de7b","system_id":"levelo_inurba_marseille","lat":43.29273,"lon":5.36843,"is_reserved":false,"is_disabled":false,"rental_uris":{"android":"levelo://app?vid=370a6522-0dfe-4330-a0d2-68753ae1de7b","ios":"levelo://app?vid=370a6522-0dfe-4330-a0d2-68753ae1de7b"},"vehicle_type_id":"4","last_reported":1771429192,"current_range_meters":16400,"station_id":"ce4bhbp2rcd13ifvqesg","pricing_plan_id":"cebpf4jnsgd1na2vs0mg"},{"bike_id":"81d0320a-a61a-4244-81e4-d2e5c4269b7c","system_id":"levelo_inurba_marseille","lat":43.25568,"lon":5.38249,"is_reserved":false,"is_disabled":false,"rental_uris":{"android":"levelo://app?vid=81d0320a-a61a-4244-81e4-d2e5c4269b7c","ios":"levelo://app?vid=81d0320a-a61a-4244-81e4-d2e5c4269b7c"},"vehicle_type_id":"4","last_reported":1771429192,"current_range_meters":14000,"station_id":"ce4bhih2rcd13ifvqfs0","pricing_plan_id":"cebpf4jnsgd1na2vs0mg"},{"bike_id":"06df2014-e9a7-4eea-a10c-90e91f6aa7ca","system_id":"levelo_inurba_marseille","lat":43.2649,"lon":5.39554,"is_reserved":false,"is_disabled":false,"rental_uris":{"android":"levelo://app?vid=06df2014-e9a7-4eea-a10c-90e91f6aa7ca","ios":"levelo://app?vid=06df2014-e9a7-4eea-a10c-90e91f6aa7ca"},"vehicle_type_id":"4","last_reported":1771429192,"current_range_meters":31200,"station_id":"ce4bhi12rcd13ifvqfq0","pricing_plan_id":"cebpf4jnsgd1na2vs0mg"},{"bike_id":"d2fb2733-88e8-46aa-a903-dc7e062bbe51","system_id":"levelo_inurba_marseille","lat":43.26091,"lon":5.39375,"is_reserved":false,"is_disabled":true,"rental_uris":{"android":"levelo://app?vid=d2fb2733-88e8-46aa-a903-dc7e062bbe51","ios":"levelo://app?vid=d2fb2733-88e8-46aa-a903-dc7e062bbe51"},"vehicle_type_id":"4","last_reported":1771429192,"current_range_meters":5600,"station_id":"ce4bhh92rcd13ifvqfj0","pricing_plan_id":"cebpf4jnsgd1na2vs0mg"},{"bike_id":"d795ea89-d3b1-4bf3-ac3a-6d3ce5ce0060","system_id":"levelo_inurba_marseille","lat":43.30924,"lon":5.40158,"is_reserved":false,"is_disabled":false,"rental_uris":{"android":"levelo://app?vid=d795ea89-d3b1-4bf3-ac3a-6d3ce5ce0060","ios":"levelo://app?vid=d795ea89-d3b1-4bf3-ac3a-6d3ce5ce0060"},"vehicle_type_id":"4","last_reported":1771429192,"current_range_meters":36800,"station_id":"ce4bgvp2rcd13ifvqct0","pricing_plan_id":"cebpf4jnsgd1na2vs0mg"},{"bike_id":"659923c1-de2a-425b-b089-253fcf51c04f","system_id":"levelo_inurba_marseille","lat":43.24166,"lon":5.3641,"is_reserved":false,"is_disabled":false,"rental_uris":{"android":"levelo://app?vid=659923c1-de2a-425b-b089-253fcf51c04f","ios":"levelo://app?vid=659923c1-de2a-425b-b089-253fcf51c04f"},"vehicle_type_id":"4","last_reported":1771429192,"current_range_meters":28000,"station_id":"cpo36qri1sfpv3e86is0","pricing_plan_id":"cebpf4jnsgd1na2vs0mg"},{"bike_id":"388b1bc2-2ad3-42a2-a7e4-94066aa5b495","system_id":"levelo_inurba_marseille","lat":43.29973,"lon":5.38505,"is_reserved":false,"is_disabled":true,"rental_uris":{"android":"levelo://app?vid=388b1bc2-2ad3-42a2-a7e4-94066aa5b495","ios":"levelo://app?vid=388b1bc2-2ad3-42a2-a7e4-94066aa5b495"},"vehicle_type_id":"4","last_reported":1771429192,"current_range_meters":39200,"station_id":"ce4bgj92rcd13ifvqbd0","pricing_plan_id":"cebpf4jnsgd1na2vs0mg"},{"bike_id":"bc01de01-7c7b-4c16-bb69-69d755a02ffe","system_id":"levelo_inurba_marseille","lat":43.30736,"lon":5.42465,"is_reserved":false,"is_disabled":false,"rental_uris":{"android":"levelo://app?vid=bc01de01-7c7b-4c16-bb69-69d755a02ffe","ios":"levelo://app?vid=bc01de01-7c7b-4c16-bb69-69d755a02ffe"},"vehicle_type_id":"4","last_reported":1771429192,"current_range_meters":23200,"station_id":"st_cvj6ca6bvosntc0bfgr0","pricing_plan_id":"cebpf4jnsgd1na2vs0mg"},{"bike_id":"a8ac64ba-4309-4021-98a9-d1607f0b1c3c","system_id":"levelo_inurba_marseille","lat":43.29228,"lon":5.36036,"is_reserved":false,"is_disabled":false,"rental_uris":{"android":"levelo://app?vid=a8ac64ba-4309-4021-98a9-d1607f0b1c3c","ios":"levelo://app?vid=a8ac64ba-4309-4021-98a9-d1607f0b1c3c"},"vehicle_type_id":"4","last_reported":1771429192,"current_range_meters":22800,"station_id":"ce4bhbh2rcd13ifvqeqg","pricing_plan_id":"cebpf4jnsgd1na2vs0mg"},{"bike_id":"93287eb1-a523-4a24-814a-2745b6064e32","system_id":"levelo_inurba_marseille","lat":43.28871,"lon":5.393,"is_reserved":false,"is_disabled":false,"rental_uris":{"android":"levelo://app?vid=93287eb1-a523-4a24-814a-2745b6064e32","ios":"levelo://app?vid=93287eb1-a523-4a24-814a-2745b6064e32"},"vehicle_type_id":"4","last_reported":1771429192,"current_range_meters":38800,"station_id":"ce4bh2p2rcd13ifvqdi0","pricing_plan_id":"cebpf4jnsgd1na2vs0mg"},{"bike_id":"19d3787d-1c8e-4249-902d-f5e776447478","system_id":"levelo_inurba_marseille","lat":43.25523,"lon":5.37621,"is_reserved":false,"is_disabled":false,"rental_uris":{"android":"levelo://app?vid=19d3787d-1c8e-4249-902d-f5e776447478","ios":"levelo://app?vid=19d3787d-1c8e-4249-902d-f5e776447478"},"vehicle_type_id":"4","last_reported":1771429192,"current_range_meters":30400,"station_id":"ce4bhh12rcd13ifvqff0","pricing_plan_id":"cebpf4jnsgd1na2vs0mg"},{"bike_id":"5c0952e3-3469-48d1-b0ac-88596b084e30","system_id":"levelo_inurba_marseille","lat":43.33747,"lon":5.37481,"is_reserved":false,"is_disabled":false,"rental_uris":{"android":"levelo://app?vid=5c0952e3-3469-48d1-b0ac-88596b084e30","ios":"levelo://app?vid=5c0952e3-3469-48d1-b0ac-88596b084e30"},"vehicle_type_id":"4","last_reported":1771429192,"current_range_meters":36800,"station_id":"","pricing_plan_id":"cebpf4jnsgd1na2vs0mg"},{"bike_id":"12dea603-7cb2-4a92-b31f-ba23aeb986a7","system_id":"levelo_inurba_marseille","lat":43.3029,"lon":5.3769,"is_reserved":false,"is_disabled":false,"rental_uris":{"android":"levelo://app?vid=12dea603-7cb2-4a92-b31f-ba23aeb986a7","ios":"levelo://app?vid=12dea603-7cb2-4a92-b31f-ba23aeb986a7"},"vehicle_type_id":"4","last_reported":1771429192,"current_range_meters":22000,"station_id":"ce4bguh2rcd13ifvqcj0","pricing_plan_id":"cebpf4jnsgd1na2vs0mg"},{"bike_id":"c4194e41-de52-45db-97b1-1968612c04dc","system_id":"levelo_inurba_marseille","lat":43.29984,"lon":5.41313,"is_reserved":false,"is_disabled":false,"rental_uris":{"android":"levelo://app?vid=c4194e41-de52-45db-97b1-1968612c04dc","ios":"levelo://app?vid=c4194e41-de52-45db-97b1-1968612c04dc"},"vehicle_type_id":"4","last_reported":1771429192,"current_range_meters":35600,"station_id":"ce4bhp12rcd13ifvqh9g","pricing_plan_id":"cebpf4jnsgd1na2vs0mg"},{"bike_id":"f30ef7dc-f16c-4ba1-a4ee-a90ead43deaf","system_id":"levelo_inurba_marseille","lat":43.3016,"lon":5.38075,"is_reserved":false,"is_disabled":false,"rental_uris":{"android":"levelo://app?vid=f30ef7dc-f16c-4ba1-a4ee-a90ead43deaf","ios":"levelo://app?vid=f30ef7dc-f16c-4ba1-a4ee-a90ead43deaf"},"vehicle_type_id":"4","last_reported":1771429192,"current_range_meters":32400,"station_id":"ce4bgjp2rcd13ifvqbh0","pricing_plan_id":"cebpf4jnsgd1na2vs0mg"},{"bike_id":"1917bf3e-ffec-4198-8dbd-fbc67a4db19d","system_id":"levelo_inurba_marseille","lat":43.30125,"lon":5.37427,"is_reserved":false,"is_disabled":false,"rental_uris":{"android":"levelo://app?vid=1917bf3e-ffec-4198-8dbd-fbc67a4db19d","ios":"levelo://app?vid=1917bf3e-ffec-4198-8dbd-fbc67a4db19d"},"vehicle_type_id":"4","last_reported":1771429192,"current_range_meters":23200,"station_id":"ce4bgs92rcd13ifvqcc0","pricing_plan_id":"cebpf4jnsgd1na2vs0mg"},{"bike_id":"9ffabed5-9b56-4f2a-a18d-0c0a1114f4da","system_id":"levelo_inurba_marseille","lat":43.30455,"lon":5.3791,"is_reserved":false,"is_disabled":false,"rental_uris":{"android":"levelo://app?vid=9ffabed5-9b56-4f2a-a18d-0c0a1114f4da","ios":"levelo://app?vid=9ffabed5-9b56-4f2a-a18d-0c0a1114f4da"},"vehicle_type_id":"4","last_reported":1771429192,"current_range_meters":24800,"station_id":"ce4bgup2rcd13ifvqcn0","pricing_plan_id":"cebpf4jnsgd1na2vs0mg"},{"bike_id":"166e35c4-ba58-48ae-81a6-945bb5d753ca","system_id":"levelo_inurba_marseille","lat":43.246457,"lon":5.388985,"is_reserved":false,"is_disabled":false,"rental_uris":{"android":"levelo://app?vid=166e35c4-ba58-48ae-81a6-945bb5d753ca","ios":"levelo://app?vid=166e35c4-ba58-48ae-81a6-945bb5d753ca"},"vehicle_type_id":"4","last_reported":1771429192,"current_range_meters":16000,"station_id":"ce4bhg12rcd13ifvqf60","pricing_plan_id":"cebpf4jnsgd1na2vs0mg"},{"bike_id":"e52969ea-e41a-4b4f-8b3e-e0a9baa48bf6","system_id":"levelo_inurba_marseille","lat":43.294896,"lon":5.433176,"is_reserved":false,"is_disabled":false,"rental_uris":{"android":"levelo://app?vid=e52969ea-e41a-4b4f-8b3e-e0a9baa48bf6","ios":"levelo://app?vid=e52969ea-e41a-4b4f-8b3e-e0a9baa48bf6"},"vehicle_type_id":"4","last_reported":1771429192,"current_range_meters":39200,"station_id":"st_d3j5ugp08ojc73fj9d10","pricing_plan_id":"cebpf4jnsgd1na2vs0mg"},{"bike_id":"44efe955-55b3-4aa2-9980-b386fed81fe9","system_id":"levelo_inurba_marseille","lat":43.28002,"lon":5.40017,"is_reserved":false,"is_disabled":false,"rental_uris":{"android":"levelo://app?vid=44efe955-55b3-4aa2-9980-b386fed81fe9","ios":"levelo://app?vid=44efe955-55b3-4aa2-9980-b386fed81fe9"},"vehicle_type_id":"4","last_reported":1771429192,"current_range_meters":40000,"station_id":"ce4bho92rcd13ifvqh4g","pricing_plan_id":"cebpf4jnsgd1na2vs0mg"},{"bike_id":"2cbbc2f5-92a3-4c38-a0e2-181ee10ae410","system_id":"levelo_inurba_marseille","lat":43.27486,"lon":5.42456,"is_reserved":false,"is_disabled":false,"rental_uris":{"android":"levelo://app?vid=2cbbc2f5-92a3-4c38-a0e2-181ee10ae410","ios":"levelo://app?vid=2cbbc2f5-92a3-4c38-a0e2-181ee10ae410"},"vehicle_type_id":"4","last_reported":1771429192,"current_range_meters":38000,"station_id":"ce4bhn92rcd13ifvqgrg","pricing_plan_id":"cebpf4jnsgd1na2vs0mg"},{"bike_id":"77c84e28-a226-4c9d-bcc9-76b7f8c0d11c","system_id":"levelo_inurba_marseille","lat":43.24545,"lon":5.39501,"is_reserved":false,"is_disabled":true,"rental_uris":{"android":"levelo://app?vid=77c84e28-a226-4c9d-bcc9-76b7f8c0d11c","ios":"levelo://app?vid=77c84e28-a226-4c9d-bcc9-76b7f8c0d11c"},"vehicle_type_id":"4","last_reported":1771429192,"current_range_meters":38000,"station_id":"ce4bhlp2rcd13ifvqgjg","pricing_plan_id":"cebpf4jnsgd1na2vs0mg"},{"bike_id":"c9b743d2-ea19-486c-9150-6905c9d98a27","system_id":"levelo_inurba_marseille","lat":43.26574,"lon":5.40331,"is_reserved":false,"is_disabled":false,"rental_uris":{"android":"levelo://app?vid=c9b743d2-ea19-486c-9150-6905c9d98a27","ios":"levelo://app?vid=c9b743d2-ea19-486c-9150-6905c9d98a27"},"vehicle_type_id":"4","last_reported":1771429192,"current_range_meters":24800,"station_id":"ce4bhmp2rcd13ifvqgng","pricing_plan_id":"cebpf4jnsgd1na2vs0mg"},{"bike_id":"bc4aca59-1548-4c6c-9b4b-d48c12a614aa","system_id":"levelo_inurba_marseille","lat":43.30266,"lon":5.40066,"is_reserved":false,"is_disabled":false,"rental_uris":{"android":"levelo://app?vid=bc4aca59-1548-4c6c-9b4b-d48c12a614aa","ios":"levelo://app?vid=bc4aca59-1548-4c6c-9b4b-d48c12a614aa"},"vehicle_type_id":"4","last_reported":1771429192,"current_range_meters":38400,"station_id":"ce4bgvh2rcd13ifvqcs0","pricing_plan_id":"cebpf4jnsgd1na2vs0mg"},{"bike_id":"55e798b8-c3a1-4483-a648-b2dc68f4f4d3","system_id":"levelo_inurba_marseille","lat":43.24662,"lon":5.38167,"is_reserved":false,"is_disabled":false,"rental_uris":{"android":"levelo://app?vid=55e798b8-c3a1-4483-a648-b2dc68f4f4d3","ios":"levelo://app?vid=55e798b8-c3a1-4483-a648-b2dc68f4f4d3"},"vehicle_type_id":"4","last_reported":1771429192,"current_range_meters":8400,"station_id":"ce4bhih2rcd13ifvqfr0","pricing_plan_id":"cebpf4jnsgd1na2vs0mg"},{"bike_id":"fc1aa6b8-6e5e-467f-92e9-aae02099ae9d","system_id":"levelo_inurba_marseille","lat":43.246355,"lon":5.431391,"is_reserved":false,"is_disabled":false,"rental_uris":{"android":"levelo://app?vid=fc1aa6b8-6e5e-467f-92e9-aae02099ae9d","ios":"levelo://app?vid=fc1aa6b8-6e5e-467f-92e9-aae02099ae9d"},"vehicle_type_id":"4","last_reported":1771429192,"current_range_meters":9600,"station_id":"st_d2m6c4gdas8pm72e190g","pricing_plan_id":"cebpf4jnsgd1na2vs0mg"},{"bike_id":"67285332-5652-4c2b-b8be-d99c6194277d","system_id":"levelo_inurba_marseille","lat":43.26069,"lon":5.3939,"is_reserved":false,"is_disabled":false,"rental_uris":{"android":"levelo://app?vid=67285332-5652-4c2b-b8be-d99c6194277d","ios":"levelo://app?vid=67285332-5652-4c2b-b8be-d99c6194277d"},"vehicle_type_id":"4","last_reported":1771429192,"current_range_meters":26800,"station_id":"ce4bhh92rcd13ifvqfj0","pricing_plan_id":"cebpf4jnsgd1na2vs0mg"},{"bike_id":"247929ef-06db-4867-a845-71bf576c71e1","system_id":"levelo_inurba_marseille","lat":43.28861,"lon":5.42516,"is_reserved":false,"is_disabled":false,"rental_uris":{"android":"levelo://app?vid=247929ef-06db-4867-a845-71bf576c71e1","ios":"levelo://app?vid=247929ef-06db-4867-a845-71bf576c71e1"},"vehicle_type_id":"4","last_reported":1771429192,"current_range_meters":38800,"station_id":"st_d3b462108ojc7389ooeg","pricing_plan_id":"cebpf4jnsgd1na2vs0mg"},{"bike_id":"4585df67-5569-4771-aa03-6e87fdd568df","system_id":"levelo_inurba_marseille","lat":43.23192,"lon":5.43706,"is_reserved":false,"is_disabled":false,"rental_uris":{"android":"levelo://app?vid=4585df67-5569-4771-aa03-6e87fdd568df","ios":"levelo://app?vid=4585df67-5569-4771-aa03-6e87fdd568df"},"vehicle_type_id":"4","last_reported":1771429192,"current_range_meters":29600,"station_id":"ce4bhmp2rcd13ifvqgog","pricing_plan_id":"cebpf4jnsgd1na2vs0mg"},{"bike_id":"1bdf262b-5b53-4108-b666-339efbe4431c","system_id":"levelo_inurba_marseille","lat":43.29019,"lon":5.38147,"is_reserved":false,"is_disabled":true,"rental_uris":{"android":"levelo://app?vid=1bdf262b-5b53-4108-b666-339efbe4431c","ios":"levelo://app?vid=1bdf262b-5b53-4108-b666-339efbe4431c"},"vehicle_type_id":"4","last_reported":1771429192,"current_range_meters":37600,"station_id":"ce4bh4p2rcd13ifvqe1g","pricing_plan_id":"cebpf4jnsgd1na2vs0mg"},{"bike_id":"57723f7a-061e-46b7-a0ae-b6210e118d77","system_id":"levelo_inurba_marseille","lat":43.30946,"lon":5.36841,"is_reserved":false,"is_disabled":false,"rental_uris":{"android":"levelo://app?vid=57723f7a-061e-46b7-a0ae-b6210e118d77","ios":"levelo://app?vid=57723f7a-061e-46b7-a0ae-b6210e118d77"},"vehicle_type_id":"4","last_reported":1771429192,"current_range_meters":33200,"station_id":"ce4bgn92rcd13ifvqbvg","pricing_plan_id":"cebpf4jnsgd1na2vs0mg"},{"bike_id":"c1b26ae8-8837-4bd2-b0e2-b890b8516fff","system_id":"levelo_inurba_marseille","lat":43.31251,"lon":5.36888,"is_reserved":false,"is_disabled":false,"rental_uris":{"android":"levelo://app?vid=c1b26ae8-8837-4bd2-b0e2-b890b8516fff","ios":"levelo://app?vid=c1b26ae8-8837-4bd2-b0e2-b890b8516fff"},"vehicle_type_id":"4","last_reported":1771429192,"current_range_meters":39200,"station_id":"ce4bgl92rcd13ifvqbq0","pricing_plan_id":"cebpf4jnsgd1na2vs0mg"},{"bike_id":"3cf9a213-82f8-4af5-954b-9210b699cd7b","system_id":"levelo_inurba_marseille","lat":43.33178,"lon":5.37659,"is_reserved":false,"is_disabled":false,"rental_uris":{"android":"levelo://app?vid=3cf9a213-82f8-4af5-954b-9210b699cd7b","ios":"levelo://app?vid=3cf9a213-82f8-4af5-954b-9210b699cd7b"},"vehicle_type_id":"4","last_reported":1771429192,"current_range_meters":33600,"station_id":"st_d46cu089ee8s73dldbu0","pricing_plan_id":"cebpf4jnsgd1na2vs0mg"},{"bike_id":"f4b72c32-b078-47bf-bd6e-2a4cf9260d45","system_id":"levelo_inurba_marseille","lat":43.28682,"lon":5.35488,"is_reserved":false,"is_disabled":true,"rental_uris":{"android":"levelo://app?vid=f4b72c32-b078-47bf-bd6e-2a4cf9260d45","ios":"levelo://app?vid=f4b72c32-b078-47bf-bd6e-2a4cf9260d45"},"vehicle_type_id":"4","last_reported":1771429192,"current_range_meters":34800,"station_id":"","pricing_plan_id":"cebpf4jnsgd1na2vs0mg"},{"bike_id":"786db946-01e6-401d-825a-5be2365421b8","system_id":"levelo_inurba_marseille","lat":43.25579,"lon":5.38225,"is_reserved":false,"is_disabled":false,"rental_uris":{"android":"levelo://app?vid=786db946-01e6-401d-825a-5be2365421b8","ios":"levelo://app?vid=786db946-01e6-401d-825a-5be2365421b8"},"vehicle_type_id":"4","last_reported":1771429192,"current_range_meters":20400,"station_id":"ce4bhih2rcd13ifvqfs0","pricing_plan_id":"cebpf4jnsgd1na2vs0mg"},{"bike_id":"9aa7d9fa-7f16-4ecf-9e83-1b253d6936b8","system_id":"levelo_inurba_marseille","lat":43.30143,"lon":5.37402,"is_reserved":false,"is_disabled":false,"rental_uris":{"android":"levelo://app?vid=9aa7d9fa-7f16-4ecf-9e83-1b253d6936b8","ios":"levelo://app?vid=9aa7d9fa-7f16-4ecf-9e83-1b253d6936b8"},"vehicle_type_id":"4","last_reported":1771429192,"current_range_meters":38400,"station_id":"ce4bgs92rcd13ifvqcc0","pricing_plan_id":"cebpf4jnsgd1na2vs0mg"},{"bike_id":"f5d22547-d06e-4fad-85c6-2cbbdcd29ad4","system_id":"levelo_inurba_marseille","lat":43.29175,"lon":5.37194,"is_reserved":false,"is_disabled":false,"rental_uris":{"android":"levelo://app?vid=f5d22547-d06e-4fad-85c6-2cbbdcd29ad4","ios":"levelo://app?vid=f5d22547-d06e-4fad-85c6-2cbbdcd29ad4"},"vehicle_type_id":"4","last_reported":1771429192,"current_range_meters":30800,"station_id":"ce4bha92rcd13ifvqeh0","pricing_plan_id":"cebpf4jnsgd1na2vs0mg"},{"bike_id":"6946a672-f062-4471-84f8-45eb3b2d6e19","system_id":"levelo_inurba_marseille","lat":43.27507,"lon":5.42392,"is_reserved":false,"is_disabled":false,"rental_uris":{"android":"levelo://app?vid=6946a672-f062-4471-84f8-45eb3b2d6e19","ios":"levelo://app?vid=6946a672-f062-4471-84f8-45eb3b2d6e19"},"vehicle_type_id":"4","last_reported":1771429192,"current_range_meters":8000,"station_id":"ce4bhn92rcd13ifvqgrg","pricing_plan_id":"cebpf4jnsgd1na2vs0mg"},{"bike_id":"ef1aa0f8-ae58-47b4-b1fd-062991b0fff7","system_id":"levelo_inurba_marseille","lat":43.29629,"lon":5.37142,"is_reserved":false,"is_disabled":false,"rental_uris":{"android":"levelo://app?vid=ef1aa0f8-ae58-47b4-b1fd-062991b0fff7","ios":"levelo://app?vid=ef1aa0f8-ae58-47b4-b1fd-062991b0fff7"},"vehicle_type_id":"4","last_reported":1771429192,"current_range_meters":39200,"station_id":"ce4bgnh2rcd13ifvqc0g","pricing_plan_id":"cebpf4jnsgd1na2vs0mg"},{"bike_id":"84b7ad10-e0fc-438e-8380-13d5febe8641","system_id":"levelo_inurba_marseille","lat":43.28423,"lon":5.34975,"is_reserved":false,"is_disabled":false,"rental_uris":{"android":"levelo://app?vid=84b7ad10-e0fc-438e-8380-13d5febe8641","ios":"levelo://app?vid=84b7ad10-e0fc-438e-8380-13d5febe8641"},"vehicle_type_id":"4","last_reported":1771429192,"current_range_meters":38400,"station_id":"ce4bhbh2rcd13ifvqepg","pricing_plan_id":"cebpf4jnsgd1na2vs0mg"},{"bike_id":"e1400a97-c181-4f54-be3e-0569af26a141","system_id":"levelo_inurba_marseille","lat":43.29617,"lon":5.37725,"is_reserved":false,"is_disabled":false,"rental_uris":{"android":"levelo://app?vid=e1400a97-c181-4f54-be3e-0569af26a141","ios":"levelo://app?vid=e1400a97-c181-4f54-be3e-0569af26a141"},"vehicle_type_id":"4","last_reported":1771429192,"current_range_meters":38000,"station_id":"ce4bgi92rcd13ifvqb90","pricing_plan_id":"cebpf4jnsgd1na2vs0mg"},{"bike_id":"ea69c854-b344-4c31-b6f4-ef28d11339a7","system_id":"levelo_inurba_marseille","lat":43.28282,"lon":5.35073,"is_reserved":false,"is_disabled":false,"rental_uris":{"android":"levelo://app?vid=ea69c854-b344-4c31-b6f4-ef28d11339a7","ios":"levelo://app?vid=ea69c854-b344-4c31-b6f4-ef28d11339a7"},"vehicle_type_id":"4","last_reported":1771429192,"current_range_meters":27200,"station_id":"ce4bhbp2rcd13ifvqerg","pricing_plan_id":"cebpf4jnsgd1na2vs0mg"},{"bike_id":"8e88b741-7fc5-4239-947a-128f1d311f8c","system_id":"levelo_inurba_marseille","lat":43.29952,"lon":5.36551,"is_reserved":false,"is_disabled":false,"rental_uris":{"android":"levelo://app?vid=8e88b741-7fc5-4239-947a-128f1d311f8c","ios":"levelo://app?vid=8e88b741-7fc5-4239-947a-128f1d311f8c"},"vehicle_type_id":"4","last_reported":1771429192,"current_range_meters":38400,"station_id":"ce4bgm92rcd13ifvqbr0","pricing_plan_id":"cebpf4jnsgd1na2vs0mg"},{"bike_id":"ded98d33-589f-41f4-bb93-00d47e49d5a3","system_id":"levelo_inurba_marseille","lat":43.32531,"lon":5.4149,"is_reserved":false,"is_disabled":false,"rental_uris":{"android":"levelo://app?vid=ded98d33-589f-41f4-bb93-00d47e49d5a3","ios":"levelo://app?vid=ded98d33-589f-41f4-bb93-00d47e49d5a3"},"vehicle_type_id":"4","last_reported":1771429192,"current_range_meters":29600,"station_id":"ce4bhq12rcd13ifvqhhg","pricing_plan_id":"cebpf4jnsgd1na2vs0mg"},{"bike_id":"cdcd8c42-d26a-4e42-9873-59170e37aa87","system_id":"levelo_inurba_marseille","lat":43.23053,"lon":5.3551,"is_reserved":false,"is_disabled":false,"rental_uris":{"android":"levelo://app?vid=cdcd8c42-d26a-4e42-9873-59170e37aa87","ios":"levelo://app?vid=cdcd8c42-d26a-4e42-9873-59170e37aa87"},"vehicle_type_id":"4","last_reported":1771429192,"current_range_meters":40000,"station_id":"cpo3342slgdg3j2ifvpg","pricing_plan_id":"cebpf4jnsgd1na2vs0mg"},{"bike_id":"12ad18fd-3d3e-4eb8-9bf9-145233c696a5","system_id":"levelo_inurba_marseille","lat":43.26053,"lon":5.39401,"is_reserved":false,"is_disabled":false,"rental_uris":{"android":"levelo://app?vid=12ad18fd-3d3e-4eb8-9bf9-145233c696a5","ios":"levelo://app?vid=12ad18fd-3d3e-4eb8-9bf9-145233c696a5"},"vehicle_type_id":"4","last_reported":1771429192,"current_range_meters":40000,"station_id":"ce4bhh92rcd13ifvqfj0","pricing_plan_id":"cebpf4jnsgd1na2vs0mg"},{"bike_id":"dd8100c3-3169-4922-bf7d-5a153f40b247","system_id":"levelo_inurba_marseille","lat":43.27817,"lon":5.40708,"is_reserved":false,"is_disabled":false,"rental_uris":{"android":"levelo://app?vid=dd8100c3-3169-4922-bf7d-5a153f40b247","ios":"levelo://app?vid=dd8100c3-3169-4922-bf7d-5a153f40b247"},"vehicle_type_id":"4","last_reported":1771429192,"current_range_meters":16400,"station_id":"ce4bhnh2rcd13ifvqgtg","pricing_plan_id":"cebpf4jnsgd1na2vs0mg"},{"bike_id":"acc728cd-ad25-43c2-b545-1e473d88f901","system_id":"levelo_inurba_marseille","lat":43.27945,"lon":5.3872,"is_reserved":false,"is_disabled":false,"rental_uris":{"android":"levelo://app?vid=acc728cd-ad25-43c2-b545-1e473d88f901","ios":"levelo://app?vid=acc728cd-ad25-43c2-b545-1e473d88f901"},"vehicle_type_id":"4","last_reported":1771429192,"current_range_meters":24800,"station_id":"ce4bhg12rcd13ifvqf80","pricing_plan_id":"cebpf4jnsgd1na2vs0mg"},{"bike_id":"91f95071-cb44-4294-8d05-12a1be58ba9d","system_id":"levelo_inurba_marseille","lat":43.25117,"lon":5.40307,"is_reserved":false,"is_disabled":false,"rental_uris":{"android":"levelo://app?vid=91f95071-cb44-4294-8d05-12a1be58ba9d","ios":"levelo://app?vid=91f95071-cb44-4294-8d05-12a1be58ba9d"},"vehicle_type_id":"4","last_reported":1771429192,"current_range_meters":37600,"station_id":"ce4bhlh2rcd13ifvqgig","pricing_plan_id":"cebpf4jnsgd1na2vs0mg"},{"bike_id":"180e5942-7cde-4b03-949b-44ef424b5e5d","system_id":"levelo_inurba_marseille","lat":43.29626,"lon":5.37693,"is_reserved":false,"is_disabled":false,"rental_uris":{"android":"levelo://app?vid=180e5942-7cde-4b03-949b-44ef424b5e5d","ios":"levelo://app?vid=180e5942-7cde-4b03-949b-44ef424b5e5d"},"vehicle_type_id":"4","last_reported":1771429192,"current_range_meters":17600,"station_id":"ce4bgi92rcd13ifvqb90","pricing_plan_id":"cebpf4jnsgd1na2vs0mg"},{"bike_id":"dc655ea5-70fb-48d3-8b6f-7b58498d97e2","system_id":"levelo_inurba_marseille","lat":43.28261,"lon":5.35067,"is_reserved":false,"is_disabled":false,"rental_uris":{"android":"levelo://app?vid=dc655ea5-70fb-48d3-8b6f-7b58498d97e2","ios":"levelo://app?vid=dc655ea5-70fb-48d3-8b6f-7b58498d97e2"},"vehicle_type_id":"4","last_reported":1771429192,"current_range_meters":19200,"station_id":"ce4bhbp2rcd13ifvqerg","pricing_plan_id":"cebpf4jnsgd1na2vs0mg"},{"bike_id":"42b6100a-41f2-4d60-944d-8dd96a15e3d1","system_id":"levelo_inurba_marseille","lat":43.31443,"lon":5.37328,"is_reserved":false,"is_disabled":false,"rental_uris":{"android":"levelo://app?vid=42b6100a-41f2-4d60-944d-8dd96a15e3d1","ios":"levelo://app?vid=42b6100a-41f2-4d60-944d-8dd96a15e3d1"},"vehicle_type_id":"4","last_reported":1771429192,"current_range_meters":37600,"station_id":"ce4bgt12rcd13ifvqcd0","pricing_plan_id":"cebpf4jnsgd1na2vs0mg"},{"bike_id":"808e17f3-e8fb-4322-91e5-e0d3af4ac05c","system_id":"levelo_inurba_marseille","lat":43.23175,"lon":5.40002,"is_reserved":false,"is_disabled":false,"rental_uris":{"android":"levelo://app?vid=808e17f3-e8fb-4322-91e5-e0d3af4ac05c","ios":"levelo://app?vid=808e17f3-e8fb-4322-91e5-e0d3af4ac05c"},"vehicle_type_id":"4","last_reported":1771429192,"current_range_meters":5600,"station_id":"ce4bhn12rcd13ifvqgqg","pricing_plan_id":"cebpf4jnsgd1na2vs0mg"},{"bike_id":"a68b4305-b95a-44fa-a8f9-fb050648ab50","system_id":"levelo_inurba_marseille","lat":43.2738,"lon":5.36255,"is_reserved":false,"is_disabled":false,"rental_uris":{"android":"levelo://app?vid=a68b4305-b95a-44fa-a8f9-fb050648ab50","ios":"levelo://app?vid=a68b4305-b95a-44fa-a8f9-fb050648ab50"},"vehicle_type_id":"4","last_reported":1771429192,"current_range_meters":38400,"station_id":"ce4bhbh2rcd13ifvqeo0","pricing_plan_id":"cebpf4jnsgd1na2vs0mg"},{"bike_id":"ed801aba-6299-4abc-846c-98c2ac128308","system_id":"levelo_inurba_marseille","lat":43.24372,"lon":5.37105,"is_reserved":false,"is_disabled":false,"rental_uris":{"android":"levelo://app?vid=ed801aba-6299-4abc-846c-98c2ac128308","ios":"levelo://app?vid=ed801aba-6299-4abc-846c-98c2ac128308"},"vehicle_type_id":"4","last_reported":1771429192,"current_range_meters":22400,"station_id":"ce4bhhh2rcd13ifvqfk0","pricing_plan_id":"cebpf4jnsgd1na2vs0mg"},{"bike_id":"14589d13-7cd9-43b4-88ac-9e3761dbb58c","system_id":"levelo_inurba_marseille","lat":43.29226,"lon":5.36041,"is_reserved":false,"is_disabled":false,"rental_uris":{"android":"levelo://app?vid=14589d13-7cd9-43b4-88ac-9e3761dbb58c","ios":"levelo://app?vid=14589d13-7cd9-43b4-88ac-9e3761dbb58c"},"vehicle_type_id":"4","last_reported":1771429192,"current_range_meters":36000,"station_id":"ce4bhbh2rcd13ifvqeqg","pricing_plan_id":"cebpf4jnsgd1na2vs0mg"},{"bike_id":"0ef49ef8-5ac3-4d67-bb66-cf7cc07012a4","system_id":"levelo_inurba_marseille","lat":43.30599,"lon":5.37232,"is_reserved":false,"is_disabled":false,"rental_uris":{"android":"levelo://app?vid=0ef49ef8-5ac3-4d67-bb66-cf7cc07012a4","ios":"levelo://app?vid=0ef49ef8-5ac3-4d67-bb66-cf7cc07012a4"},"vehicle_type_id":"4","last_reported":1771429192,"current_range_meters":27600,"station_id":"ce4bgqh2rcd13ifvqc4g","pricing_plan_id":"cebpf4jnsgd1na2vs0mg"},{"bike_id":"f29121dd-4f20-4b78-aa38-d3d565dbdfae","system_id":"levelo_inurba_marseille","lat":43.25589,"lon":5.38226,"is_reserved":false,"is_disabled":false,"rental_uris":{"android":"levelo://app?vid=f29121dd-4f20-4b78-aa38-d3d565dbdfae","ios":"levelo://app?vid=f29121dd-4f20-4b78-aa38-d3d565dbdfae"},"vehicle_type_id":"4","last_reported":1771429192,"current_range_meters":39200,"station_id":"ce4bhih2rcd13ifvqfs0","pricing_plan_id":"cebpf4jnsgd1na2vs0mg"},{"bike_id":"e59f665b-ca8e-40ab-a2ed-9455369e7fbf","system_id":"levelo_inurba_marseille","lat":43.284757,"lon":5.484029,"is_reserved":false,"is_disabled":false,"rental_uris":{"android":"levelo://app?vid=e59f665b-ca8e-40ab-a2ed-9455369e7fbf","ios":"levelo://app?vid=e59f665b-ca8e-40ab-a2ed-9455369e7fbf"},"vehicle_type_id":"4","last_reported":1771429192,"current_range_meters":28000,"station_id":"","pricing_plan_id":"cebpf4jnsgd1na2vs0mg"},{"bike_id":"c2f7603f-62b4-4a9b-9088-a52a3dabc7aa","system_id":"levelo_inurba_marseille","lat":43.25511,"lon":5.3766,"is_reserved":false,"is_disabled":false,"rental_uris":{"android":"levelo://app?vid=c2f7603f-62b4-4a9b-9088-a52a3dabc7aa","ios":"levelo://app?vid=c2f7603f-62b4-4a9b-9088-a52a3dabc7aa"},"vehicle_type_id":"4","last_reported":1771429192,"current_range_meters":39200,"station_id":"ce4bhh12rcd13ifvqff0","pricing_plan_id":"cebpf4jnsgd1na2vs0mg"},{"bike_id":"7b8c7193-f1f2-43c9-91a4-a4cc93269862","system_id":"levelo_inurba_marseille","lat":43.29569,"lon":5.42291,"is_reserved":false,"is_disabled":false,"rental_uris":{"android":"levelo://app?vid=7b8c7193-f1f2-43c9-91a4-a4cc93269862","ios":"levelo://app?vid=7b8c7193-f1f2-43c9-91a4-a4cc93269862"},"vehicle_type_id":"4","last_reported":1771429192,"current_range_meters":39200,"station_id":"ce4bhph2rcd13ifvqhdg","pricing_plan_id":"cebpf4jnsgd1na2vs0mg"},{"bike_id":"ae1526ac-94c0-4471-b06e-92c0bff1ac42","system_id":"levelo_inurba_marseille","lat":43.28103,"lon":5.39639,"is_reserved":false,"is_disabled":false,"rental_uris":{"android":"levelo://app?vid=ae1526ac-94c0-4471-b06e-92c0bff1ac42","ios":"levelo://app?vid=ae1526ac-94c0-4471-b06e-92c0bff1ac42"},"vehicle_type_id":"4","last_reported":1771429192,"current_range_meters":24800,"station_id":"ce4bho12rcd13ifvqh2g","pricing_plan_id":"cebpf4jnsgd1na2vs0mg"},{"bike_id":"3dd3b302-fcc1-4d22-80f5-f44f99e164b7","system_id":"levelo_inurba_marseille","lat":43.30427,"lon":5.38896,"is_reserved":false,"is_disabled":false,"rental_uris":{"android":"levelo://app?vid=3dd3b302-fcc1-4d22-80f5-f44f99e164b7","ios":"levelo://app?vid=3dd3b302-fcc1-4d22-80f5-f44f99e164b7"},"vehicle_type_id":"4","last_reported":1771429192,"current_range_meters":8000,"station_id":"ce4bgk12rcd13ifvqbi0","pricing_plan_id":"cebpf4jnsgd1na2vs0mg"},{"bike_id":"6a073e53-b7ba-45d5-a82b-20ab8b7b8e96","system_id":"levelo_inurba_marseille","lat":43.33545,"lon":5.37478,"is_reserved":false,"is_disabled":false,"rental_uris":{"android":"levelo://app?vid=6a073e53-b7ba-45d5-a82b-20ab8b7b8e96","ios":"levelo://app?vid=6a073e53-b7ba-45d5-a82b-20ab8b7b8e96"},"vehicle_type_id":"4","last_reported":1771429192,"current_range_meters":20800,"station_id":"st_d46tts09ee8s73dlu43g","pricing_plan_id":"cebpf4jnsgd1na2vs0mg"},{"bike_id":"9eb5584b-c84e-4164-9000-331b4fc82b93","system_id":"levelo_inurba_marseille","lat":43.29167,"lon":5.37151,"is_reserved":false,"is_disabled":false,"rental_uris":{"android":"levelo://app?vid=9eb5584b-c84e-4164-9000-331b4fc82b93","ios":"levelo://app?vid=9eb5584b-c84e-4164-9000-331b4fc82b93"},"vehicle_type_id":"4","last_reported":1771429192,"current_range_meters":35200,"station_id":"ce4bha92rcd13ifvqeh0","pricing_plan_id":"cebpf4jnsgd1na2vs0mg"},{"bike_id":"27586e15-78a0-41b9-981d-e5de2751a5b3","system_id":"levelo_inurba_marseille","lat":43.30306,"lon":5.36886,"is_reserved":false,"is_disabled":false,"rental_uris":{"android":"levelo://app?vid=27586e15-78a0-41b9-981d-e5de2751a5b3","ios":"levelo://app?vid=27586e15-78a0-41b9-981d-e5de2751a5b3"},"vehicle_type_id":"4","last_reported":1771429192,"current_range_meters":19200,"station_id":"ce4bgqh2rcd13ifvqc5g","pricing_plan_id":"cebpf4jnsgd1na2vs0mg"},{"bike_id":"4e6ae03e-50eb-4e46-ad3a-b607c4b7ae2f","system_id":"levelo_inurba_marseille","lat":43.26938,"lon":5.40242,"is_reserved":false,"is_disabled":false,"rental_uris":{"android":"levelo://app?vid=4e6ae03e-50eb-4e46-ad3a-b607c4b7ae2f","ios":"levelo://app?vid=4e6ae03e-50eb-4e46-ad3a-b607c4b7ae2f"},"vehicle_type_id":"4","last_reported":1771429192,"current_range_meters":39200,"station_id":"cjm6bp8fraef2m0cb0m0","pricing_plan_id":"cebpf4jnsgd1na2vs0mg"},{"bike_id":"854fbc7d-1431-4787-b504-2b5e49d980d9","system_id":"levelo_inurba_marseille","lat":43.29971,"lon":5.37179,"is_reserved":false,"is_disabled":false,"rental_uris":{"android":"levelo://app?vid=854fbc7d-1431-4787-b504-2b5e49d980d9","ios":"levelo://app?vid=854fbc7d-1431-4787-b504-2b5e49d980d9"},"vehicle_type_id":"4","last_reported":1771429192,"current_range_meters":7200,"station_id":"ce4bgr92rcd13ifvqc7g","pricing_plan_id":"cebpf4jnsgd1na2vs0mg"},{"bike_id":"e87cafb3-c406-4824-9e46-4ead45fa0dad","system_id":"levelo_inurba_marseille","lat":43.2761,"lon":5.36111,"is_reserved":false,"is_disabled":false,"rental_uris":{"android":"levelo://app?vid=e87cafb3-c406-4824-9e46-4ead45fa0dad","ios":"levelo://app?vid=e87cafb3-c406-4824-9e46-4ead45fa0dad"},"vehicle_type_id":"4","last_reported":1771429192,"current_range_meters":18000,"station_id":"ce4bgj92rcd13ifvqbe0","pricing_plan_id":"cebpf4jnsgd1na2vs0mg"},{"bike_id":"b256f836-d3c4-4133-9b55-7e5a3accf6d7","system_id":"levelo_inurba_marseille","lat":43.26688,"lon":5.38248,"is_reserved":false,"is_disabled":false,"rental_uris":{"android":"levelo://app?vid=b256f836-d3c4-4133-9b55-7e5a3accf6d7","ios":"levelo://app?vid=b256f836-d3c4-4133-9b55-7e5a3accf6d7"},"vehicle_type_id":"4","last_reported":1771429192,"current_range_meters":32800,"station_id":"ce4bhg92rcd13ifvqf90","pricing_plan_id":"cebpf4jnsgd1na2vs0mg"},{"bike_id":"cdedfe68-8f81-48b1-a1d4-83bdd88645c6","system_id":"levelo_inurba_marseille","lat":43.2293,"lon":5.35364,"is_reserved":false,"is_disabled":false,"rental_uris":{"android":"levelo://app?vid=cdedfe68-8f81-48b1-a1d4-83bdd88645c6","ios":"levelo://app?vid=cdedfe68-8f81-48b1-a1d4-83bdd88645c6"},"vehicle_type_id":"4","last_reported":1771429192,"current_range_meters":32000,"station_id":"cpo3532slgdg3j2ikp40","pricing_plan_id":"cebpf4jnsgd1na2vs0mg"},{"bike_id":"9c1b82a1-61b6-48fa-96f9-4294d2d0f7d8","system_id":"levelo_inurba_marseille","lat":43.28604,"lon":5.37031,"is_reserved":false,"is_disabled":false,"rental_uris":{"android":"levelo://app?vid=9c1b82a1-61b6-48fa-96f9-4294d2d0f7d8","ios":"levelo://app?vid=9c1b82a1-61b6-48fa-96f9-4294d2d0f7d8"},"vehicle_type_id":"4","last_reported":1771429192,"current_range_meters":38800,"station_id":"ce4bht12rcd13ifvqi60","pricing_plan_id":"cebpf4jnsgd1na2vs0mg"},{"bike_id":"13340ecb-169e-475c-8d80-1f8d20f37097","system_id":"levelo_inurba_marseille","lat":43.29261,"lon":5.40903,"is_reserved":false,"is_disabled":false,"rental_uris":{"android":"levelo://app?vid=13340ecb-169e-475c-8d80-1f8d20f37097","ios":"levelo://app?vid=13340ecb-169e-475c-8d80-1f8d20f37097"},"vehicle_type_id":"4","last_reported":1771429192,"current_range_meters":33600,"station_id":"ce4bh192rcd13ifvqdc0","pricing_plan_id":"cebpf4jnsgd1na2vs0mg"},{"bike_id":"2284acb1-c522-47c3-bfae-bc0b1cc5d6f2","system_id":"levelo_inurba_marseille","lat":43.28469,"lon":5.35893,"is_reserved":false,"is_disabled":false,"rental_uris":{"android":"levelo://app?vid=2284acb1-c522-47c3-bfae-bc0b1cc5d6f2","ios":"levelo://app?vid=2284acb1-c522-47c3-bfae-bc0b1cc5d6f2"},"vehicle_type_id":"4","last_reported":1771429192,"current_range_meters":15200,"station_id":"ce4bhah2rcd13ifvqei0","pricing_plan_id":"cebpf4jnsgd1na2vs0mg"},{"bike_id":"c1f203dd-a634-4d03-9e32-a140b9660268","system_id":"levelo_inurba_marseille","lat":43.28967,"lon":5.37825,"is_reserved":false,"is_disabled":false,"rental_uris":{"android":"levelo://app?vid=c1f203dd-a634-4d03-9e32-a140b9660268","ios":"levelo://app?vid=c1f203dd-a634-4d03-9e32-a140b9660268"},"vehicle_type_id":"4","last_reported":1771429192,"current_range_meters":17600,"station_id":"ce4bh9p2rcd13ifvqed0","pricing_plan_id":"cebpf4jnsgd1na2vs0mg"},{"bike_id":"12673977-5b25-450a-8cdc-00ac951258dd","system_id":"levelo_inurba_marseille","lat":43.30977,"lon":5.37195,"is_reserved":false,"is_disabled":true,"rental_uris":{"android":"levelo://app?vid=12673977-5b25-450a-8cdc-00ac951258dd","ios":"levelo://app?vid=12673977-5b25-450a-8cdc-00ac951258dd"},"vehicle_type_id":"4","last_reported":1771429192,"current_range_meters":36800,"station_id":"ce4bguh2rcd13ifvqckg","pricing_plan_id":"cebpf4jnsgd1na2vs0mg"},{"bike_id":"099fe592-2fa3-4f57-bfab-42a8e4b3770c","system_id":"levelo_inurba_marseille","lat":43.23152,"lon":5.39982,"is_reserved":false,"is_disabled":false,"rental_uris":{"android":"levelo://app?vid=099fe592-2fa3-4f57-bfab-42a8e4b3770c","ios":"levelo://app?vid=099fe592-2fa3-4f57-bfab-42a8e4b3770c"},"vehicle_type_id":"4","last_reported":1771429192,"current_range_meters":20400,"station_id":"ce4bhn12rcd13ifvqgqg","pricing_plan_id":"cebpf4jnsgd1na2vs0mg"},{"bike_id":"9cedbc59-c329-42ca-8428-d7644086f6b2","system_id":"levelo_inurba_marseille","lat":43.32466,"lon":5.36557,"is_reserved":false,"is_disabled":false,"rental_uris":{"android":"levelo://app?vid=9cedbc59-c329-42ca-8428-d7644086f6b2","ios":"levelo://app?vid=9cedbc59-c329-42ca-8428-d7644086f6b2"},"vehicle_type_id":"4","last_reported":1771429192,"current_range_meters":10800,"station_id":"ce4bhs12rcd13ifvqhvg","pricing_plan_id":"cebpf4jnsgd1na2vs0mg"},{"bike_id":"dbee3b04-5ad0-4739-9be1-4a344053621f","system_id":"levelo_inurba_marseille","lat":43.299663,"lon":5.413158,"is_reserved":false,"is_disabled":false,"rental_uris":{"android":"levelo://app?vid=dbee3b04-5ad0-4739-9be1-4a344053621f","ios":"levelo://app?vid=dbee3b04-5ad0-4739-9be1-4a344053621f"},"vehicle_type_id":"4","last_reported":1771429192,"current_range_meters":39200,"station_id":"ce4bhp12rcd13ifvqh9g","pricing_plan_id":"cebpf4jnsgd1na2vs0mg"},{"bike_id":"0fbe3a82-3ccb-45d1-8343-13ee240f2c2f","system_id":"levelo_inurba_marseille","lat":43.27367,"lon":5.36237,"is_reserved":false,"is_disabled":false,"rental_uris":{"android":"levelo://app?vid=0fbe3a82-3ccb-45d1-8343-13ee240f2c2f","ios":"levelo://app?vid=0fbe3a82-3ccb-45d1-8343-13ee240f2c2f"},"vehicle_type_id":"4","last_reported":1771429192,"current_range_meters":36000,"station_id":"ce4bhbh2rcd13ifvqeo0","pricing_plan_id":"cebpf4jnsgd1na2vs0mg"},{"bike_id":"201ca36c-c632-433f-8e63-028103426023","system_id":"levelo_inurba_marseille","lat":43.284769,"lon":5.484036,"is_reserved":false,"is_disabled":false,"rental_uris":{"android":"levelo://app?vid=201ca36c-c632-433f-8e63-028103426023","ios":"levelo://app?vid=201ca36c-c632-433f-8e63-028103426023"},"vehicle_type_id":"4","last_reported":1771429192,"current_range_meters":14400,"station_id":"","pricing_plan_id":"cebpf4jnsgd1na2vs0mg"},{"bike_id":"ef70ce12-fd44-42a0-88ed-3b2ca489b7fa","system_id":"levelo_inurba_marseille","lat":43.28864,"lon":5.42526,"is_reserved":false,"is_disabled":false,"rental_uris":{"android":"levelo://app?vid=ef70ce12-fd44-42a0-88ed-3b2ca489b7fa","ios":"levelo://app?vid=ef70ce12-fd44-42a0-88ed-3b2ca489b7fa"},"vehicle_type_id":"4","last_reported":1771429192,"current_range_meters":38400,"station_id":"st_d3b462108ojc7389ooeg","pricing_plan_id":"cebpf4jnsgd1na2vs0mg"},{"bike_id":"ec6770e7-ed64-4495-878f-8ee65c0e3087","system_id":"levelo_inurba_marseille","lat":43.278983,"lon":5.380027,"is_reserved":false,"is_disabled":false,"rental_uris":{"android":"levelo://app?vid=ec6770e7-ed64-4495-878f-8ee65c0e3087","ios":"levelo://app?vid=ec6770e7-ed64-4495-878f-8ee65c0e3087"},"vehicle_type_id":"4","last_reported":1771429192,"current_range_meters":8800,"station_id":"ce4bhf92rcd13ifvqf50","pricing_plan_id":"cebpf4jnsgd1na2vs0mg"},{"bike_id":"8aaa266d-0a34-4b9b-916a-60237097bd56","system_id":"levelo_inurba_marseille","lat":43.28406,"lon":5.34991,"is_reserved":false,"is_disabled":false,"rental_uris":{"android":"levelo://app?vid=8aaa266d-0a34-4b9b-916a-60237097bd56","ios":"levelo://app?vid=8aaa266d-0a34-4b9b-916a-60237097bd56"},"vehicle_type_id":"4","last_reported":1771429192,"current_range_meters":32400,"station_id":"ce4bhbh2rcd13ifvqepg","pricing_plan_id":"cebpf4jnsgd1na2vs0mg"},{"bike_id":"892c093f-3820-44d8-b368-1377fa417eb5","system_id":"levelo_inurba_marseille","lat":43.239554,"lon":5.366303,"is_reserved":false,"is_disabled":false,"rental_uris":{"android":"levelo://app?vid=892c093f-3820-44d8-b368-1377fa417eb5","ios":"levelo://app?vid=892c093f-3820-44d8-b368-1377fa417eb5"},"vehicle_type_id":"4","last_reported":1771429192,"current_range_meters":16400,"station_id":"ce4bhi12rcd13ifvqfp0","pricing_plan_id":"cebpf4jnsgd1na2vs0mg"},{"bike_id":"8eec4919-dd75-4dee-a3ff-fb5db29f0f67","system_id":"levelo_inurba_marseille","lat":43.26687,"lon":5.38275,"is_reserved":false,"is_disabled":false,"rental_uris":{"android":"levelo://app?vid=8eec4919-dd75-4dee-a3ff-fb5db29f0f67","ios":"levelo://app?vid=8eec4919-dd75-4dee-a3ff-fb5db29f0f67"},"vehicle_type_id":"4","last_reported":1771429192,"current_range_meters":26000,"station_id":"ce4bhg92rcd13ifvqf90","pricing_plan_id":"cebpf4jnsgd1na2vs0mg"},{"bike_id":"257b9280-d612-4597-a657-251b23b48073","system_id":"levelo_inurba_marseille","lat":43.30131,"lon":5.38766,"is_reserved":false,"is_disabled":false,"rental_uris":{"android":"levelo://app?vid=257b9280-d612-4597-a657-251b23b48073","ios":"levelo://app?vid=257b9280-d612-4597-a657-251b23b48073"},"vehicle_type_id":"4","last_reported":1771429192,"current_range_meters":36000,"station_id":"ce4bghh2rcd13ifvqb60","pricing_plan_id":"cebpf4jnsgd1na2vs0mg"},{"bike_id":"5b012de4-7e8b-4538-86be-6640a0946719","system_id":"levelo_inurba_marseille","lat":43.24178,"lon":5.36393,"is_reserved":false,"is_disabled":true,"rental_uris":{"android":"levelo://app?vid=5b012de4-7e8b-4538-86be-6640a0946719","ios":"levelo://app?vid=5b012de4-7e8b-4538-86be-6640a0946719"},"vehicle_type_id":"4","last_reported":1771429192,"current_range_meters":16800,"station_id":"cpo36qri1sfpv3e86is0","pricing_plan_id":"cebpf4jnsgd1na2vs0mg"},{"bike_id":"76c587c4-69bc-4af5-940a-775b8ad9b058","system_id":"levelo_inurba_marseille","lat":43.30541,"lon":5.36515,"is_reserved":false,"is_disabled":false,"rental_uris":{"android":"levelo://app?vid=76c587c4-69bc-4af5-940a-775b8ad9b058","ios":"levelo://app?vid=76c587c4-69bc-4af5-940a-775b8ad9b058"},"vehicle_type_id":"4","last_reported":1771429192,"current_range_meters":38000,"station_id":"ce4bgs12rcd13ifvqcag","pricing_plan_id":"cebpf4jnsgd1na2vs0mg"},{"bike_id":"4455645d-a31e-4811-bd5e-9830c8ef57b4","system_id":"levelo_inurba_marseille","lat":43.305385,"lon":5.365369,"is_reserved":false,"is_disabled":false,"rental_uris":{"android":"levelo://app?vid=4455645d-a31e-4811-bd5e-9830c8ef57b4","ios":"levelo://app?vid=4455645d-a31e-4811-bd5e-9830c8ef57b4"},"vehicle_type_id":"4","last_reported":1771429192,"current_range_meters":39200,"station_id":"ce4bgs12rcd13ifvqcag","pricing_plan_id":"cebpf4jnsgd1na2vs0mg"},{"bike_id":"4176571c-754f-4582-8e5a-2f156b2feddd","system_id":"levelo_inurba_marseille","lat":43.25579,"lon":5.38232,"is_reserved":false,"is_disabled":false,"rental_uris":{"android":"levelo://app?vid=4176571c-754f-4582-8e5a-2f156b2feddd","ios":"levelo://app?vid=4176571c-754f-4582-8e5a-2f156b2feddd"},"vehicle_type_id":"4","last_reported":1771429192,"current_range_meters":26000,"station_id":"ce4bhih2rcd13ifvqfs0","pricing_plan_id":"cebpf4jnsgd1na2vs0mg"},{"bike_id":"e764085e-f4e1-42a6-baab-ba6d13c85e46","system_id":"levelo_inurba_marseille","lat":43.27933,"lon":5.37994,"is_reserved":false,"is_disabled":false,"rental_uris":{"android":"levelo://app?vid=e764085e-f4e1-42a6-baab-ba6d13c85e46","ios":"levelo://app?vid=e764085e-f4e1-42a6-baab-ba6d13c85e46"},"vehicle_type_id":"4","last_reported":1771429192,"current_range_meters":34800,"station_id":"ce4bhf92rcd13ifvqf50","pricing_plan_id":"cebpf4jnsgd1na2vs0mg"},{"bike_id":"96438059-8ec7-4cad-b18f-887d9f3a4374","system_id":"levelo_inurba_marseille","lat":43.315,"lon":5.37271,"is_reserved":false,"is_disabled":false,"rental_uris":{"android":"levelo://app?vid=96438059-8ec7-4cad-b18f-887d9f3a4374","ios":"levelo://app?vid=96438059-8ec7-4cad-b18f-887d9f3a4374"},"vehicle_type_id":"4","last_reported":1771429192,"current_range_meters":36400,"station_id":"ce4bgt12rcd13ifvqcd0","pricing_plan_id":"cebpf4jnsgd1na2vs0mg"},{"bike_id":"65b90786-eaff-4bba-b947-7726467f0166","system_id":"levelo_inurba_marseille","lat":43.28125,"lon":5.37834,"is_reserved":false,"is_disabled":false,"rental_uris":{"android":"levelo://app?vid=65b90786-eaff-4bba-b947-7726467f0166","ios":"levelo://app?vid=65b90786-eaff-4bba-b947-7726467f0166"},"vehicle_type_id":"4","last_reported":1771429192,"current_range_meters":19200,"station_id":"ce4bha12rcd13ifvqee0","pricing_plan_id":"cebpf4jnsgd1na2vs0mg"},{"bike_id":"ee2018c7-3c49-4635-8aa3-64dc2aacbe83","system_id":"levelo_inurba_marseille","lat":43.309524,"lon":5.390349,"is_reserved":false,"is_disabled":false,"rental_uris":{"android":"levelo://app?vid=ee2018c7-3c49-4635-8aa3-64dc2aacbe83","ios":"levelo://app?vid=ee2018c7-3c49-4635-8aa3-64dc2aacbe83"},"vehicle_type_id":"4","last_reported":1771429192,"current_range_meters":19200,"station_id":"ce4bgup2rcd13ifvqco0","pricing_plan_id":"cebpf4jnsgd1na2vs0mg"},{"bike_id":"0dfa6421-c8cf-4d26-9aa4-6c0a5c5b4d53","system_id":"levelo_inurba_marseille","lat":43.2668,"lon":5.38255,"is_reserved":false,"is_disabled":false,"rental_uris":{"android":"levelo://app?vid=0dfa6421-c8cf-4d26-9aa4-6c0a5c5b4d53","ios":"levelo://app?vid=0dfa6421-c8cf-4d26-9aa4-6c0a5c5b4d53"},"vehicle_type_id":"4","last_reported":1771429192,"current_range_meters":29600,"station_id":"ce4bhg92rcd13ifvqf90","pricing_plan_id":"cebpf4jnsgd1na2vs0mg"},{"bike_id":"60d19533-d916-46e5-9e83-963557cfb5f0","system_id":"levelo_inurba_marseille","lat":43.30931,"lon":5.36841,"is_reserved":false,"is_disabled":false,"rental_uris":{"android":"levelo://app?vid=60d19533-d916-46e5-9e83-963557cfb5f0","ios":"levelo://app?vid=60d19533-d916-46e5-9e83-963557cfb5f0"},"vehicle_type_id":"4","last_reported":1771429192,"current_range_meters":36400,"station_id":"ce4bgn92rcd13ifvqbvg","pricing_plan_id":"cebpf4jnsgd1na2vs0mg"},{"bike_id":"200f07f2-6ab6-46ed-9f22-639cf1d5ab95","system_id":"levelo_inurba_marseille","lat":43.27056,"lon":5.42291,"is_reserved":false,"is_disabled":false,"rental_uris":{"android":"levelo://app?vid=200f07f2-6ab6-46ed-9f22-639cf1d5ab95","ios":"levelo://app?vid=200f07f2-6ab6-46ed-9f22-639cf1d5ab95"},"vehicle_type_id":"4","last_reported":1771429192,"current_range_meters":33200,"station_id":"ce4bhk92rcd13ifvqgb0","pricing_plan_id":"cebpf4jnsgd1na2vs0mg"},{"bike_id":"9e4610df-db29-48f2-8f30-efbbe0bc64f6","system_id":"levelo_inurba_marseille","lat":43.29085,"lon":5.38162,"is_reserved":false,"is_disabled":false,"rental_uris":{"android":"levelo://app?vid=9e4610df-db29-48f2-8f30-efbbe0bc64f6","ios":"levelo://app?vid=9e4610df-db29-48f2-8f30-efbbe0bc64f6"},"vehicle_type_id":"4","last_reported":1771429192,"current_range_meters":35600,"station_id":"ce4bh512rcd13ifvqe2g","pricing_plan_id":"cebpf4jnsgd1na2vs0mg"},{"bike_id":"a958c0ab-fb27-4c69-9f1f-ee5425783efa","system_id":"levelo_inurba_marseille","lat":43.30494,"lon":5.36619,"is_reserved":false,"is_disabled":false,"rental_uris":{"android":"levelo://app?vid=a958c0ab-fb27-4c69-9f1f-ee5425783efa","ios":"levelo://app?vid=a958c0ab-fb27-4c69-9f1f-ee5425783efa"},"vehicle_type_id":"4","last_reported":1771429192,"current_range_meters":32000,"station_id":"","pricing_plan_id":"cebpf4jnsgd1na2vs0mg"},{"bike_id":"e67d7016-9fca-4894-b12e-c7e0526d5bd0","system_id":"levelo_inurba_marseille","lat":43.29231,"lon":5.36069,"is_reserved":false,"is_disabled":false,"rental_uris":{"android":"levelo://app?vid=e67d7016-9fca-4894-b12e-c7e0526d5bd0","ios":"levelo://app?vid=e67d7016-9fca-4894-b12e-c7e0526d5bd0"},"vehicle_type_id":"4","last_reported":1771429192,"current_range_meters":34800,"station_id":"ce4bhbh2rcd13ifvqeqg","pricing_plan_id":"cebpf4jnsgd1na2vs0mg"},{"bike_id":"f6041667-a189-4c35-8328-024fab0e230c","system_id":"levelo_inurba_marseille","lat":43.26501,"lon":5.39542,"is_reserved":false,"is_disabled":false,"rental_uris":{"android":"levelo://app?vid=f6041667-a189-4c35-8328-024fab0e230c","ios":"levelo://app?vid=f6041667-a189-4c35-8328-024fab0e230c"},"vehicle_type_id":"4","last_reported":1771429192,"current_range_meters":14000,"station_id":"ce4bhi12rcd13ifvqfq0","pricing_plan_id":"cebpf4jnsgd1na2vs0mg"},{"bike_id":"9da307a9-6eeb-417a-bd1a-5a2bc5ec4b21","system_id":"levelo_inurba_marseille","lat":43.297003,"lon":5.376916,"is_reserved":false,"is_disabled":false,"rental_uris":{"android":"levelo://app?vid=9da307a9-6eeb-417a-bd1a-5a2bc5ec4b21","ios":"levelo://app?vid=9da307a9-6eeb-417a-bd1a-5a2bc5ec4b21"},"vehicle_type_id":"4","last_reported":1771429192,"current_range_meters":30000,"station_id":"ce4bh4p2rcd13ifvqe1g","pricing_plan_id":"cebpf4jnsgd1na2vs0mg"},{"bike_id":"c7d2b54a-d383-408d-9a81-b600a9105a37","system_id":"levelo_inurba_marseille","lat":43.33546,"lon":5.37451,"is_reserved":false,"is_disabled":false,"rental_uris":{"android":"levelo://app?vid=c7d2b54a-d383-408d-9a81-b600a9105a37","ios":"levelo://app?vid=c7d2b54a-d383-408d-9a81-b600a9105a37"},"vehicle_type_id":"4","last_reported":1771429192,"current_range_meters":24800,"station_id":"st_d46tts09ee8s73dlu43g","pricing_plan_id":"cebpf4jnsgd1na2vs0mg"},{"bike_id":"6fe58f3a-4ff0-4bc8-9d59-03b1c6e1d656","system_id":"levelo_inurba_marseille","lat":43.30328,"lon":5.4043,"is_reserved":false,"is_disabled":false,"rental_uris":{"android":"levelo://app?vid=6fe58f3a-4ff0-4bc8-9d59-03b1c6e1d656","ios":"levelo://app?vid=6fe58f3a-4ff0-4bc8-9d59-03b1c6e1d656"},"vehicle_type_id":"4","last_reported":1771429192,"current_range_meters":24400,"station_id":"ce4bh012rcd13ifvqd10","pricing_plan_id":"cebpf4jnsgd1na2vs0mg"},{"bike_id":"0d3f2863-1e97-45ce-afb6-01f38e4bf1dc","system_id":"levelo_inurba_marseille","lat":43.31998,"lon":5.38142,"is_reserved":false,"is_disabled":false,"rental_uris":{"android":"levelo://app?vid=0d3f2863-1e97-45ce-afb6-01f38e4bf1dc","ios":"levelo://app?vid=0d3f2863-1e97-45ce-afb6-01f38e4bf1dc"},"vehicle_type_id":"4","last_reported":1771429192,"current_range_meters":25600,"station_id":"ce4bhr12rcd13ifvqhpg","pricing_plan_id":"cebpf4jnsgd1na2vs0mg"},{"bike_id":"5cda5c36-f096-4794-8ac2-5c68a28a2acc","system_id":"levelo_inurba_marseille","lat":43.31025,"lon":5.37155,"is_reserved":false,"is_disabled":false,"rental_uris":{"android":"levelo://app?vid=5cda5c36-f096-4794-8ac2-5c68a28a2acc","ios":"levelo://app?vid=5cda5c36-f096-4794-8ac2-5c68a28a2acc"},"vehicle_type_id":"4","last_reported":1771429192,"current_range_meters":32000,"station_id":"st_d4kl2rp97mjs73e7tdfg","pricing_plan_id":"cebpf4jnsgd1na2vs0mg"},{"bike_id":"bc33fc08-f85a-4f32-84fb-8b24d5daa10d","system_id":"levelo_inurba_marseille","lat":43.27991,"lon":5.41663,"is_reserved":false,"is_disabled":false,"rental_uris":{"android":"levelo://app?vid=bc33fc08-f85a-4f32-84fb-8b24d5daa10d","ios":"levelo://app?vid=bc33fc08-f85a-4f32-84fb-8b24d5daa10d"},"vehicle_type_id":"4","last_reported":1771429192,"current_range_meters":34800,"station_id":"ce4bho12rcd13ifvqh1g","pricing_plan_id":"cebpf4jnsgd1na2vs0mg"},{"bike_id":"46c6f5ba-b42c-4e17-b178-009995b3d8bc","system_id":"levelo_inurba_marseille","lat":43.27618,"lon":5.36111,"is_reserved":false,"is_disabled":false,"rental_uris":{"android":"levelo://app?vid=46c6f5ba-b42c-4e17-b178-009995b3d8bc","ios":"levelo://app?vid=46c6f5ba-b42c-4e17-b178-009995b3d8bc"},"vehicle_type_id":"4","last_reported":1771429192,"current_range_meters":30400,"station_id":"ce4bgj92rcd13ifvqbe0","pricing_plan_id":"cebpf4jnsgd1na2vs0mg"},{"bike_id":"b56380f9-a759-4bad-ae97-ee9b0c34fdbe","system_id":"levelo_inurba_marseille","lat":43.33546,"lon":5.37471,"is_reserved":false,"is_disabled":false,"rental_uris":{"android":"levelo://app?vid=b56380f9-a759-4bad-ae97-ee9b0c34fdbe","ios":"levelo://app?vid=b56380f9-a759-4bad-ae97-ee9b0c34fdbe"},"vehicle_type_id":"4","last_reported":1771429192,"current_range_meters":24800,"station_id":"st_d46tts09ee8s73dlu43g","pricing_plan_id":"cebpf4jnsgd1na2vs0mg"},{"bike_id":"ec4dbac0-9bbc-4877-b0a4-5e970b8017d8","system_id":"levelo_inurba_marseille","lat":43.313614,"lon":5.367034,"is_reserved":false,"is_disabled":false,"rental_uris":{"android":"levelo://app?vid=ec4dbac0-9bbc-4877-b0a4-5e970b8017d8","ios":"levelo://app?vid=ec4dbac0-9bbc-4877-b0a4-5e970b8017d8"},"vehicle_type_id":"4","last_reported":1771429192,"current_range_meters":11200,"station_id":"ce4bgr92rcd13ifvqc6g","pricing_plan_id":"cebpf4jnsgd1na2vs0mg"},{"bike_id":"2412dde1-34ed-4d2b-a68d-ac7df292189c","system_id":"levelo_inurba_marseille","lat":43.29845,"lon":5.36285,"is_reserved":false,"is_disabled":false,"rental_uris":{"android":"levelo://app?vid=2412dde1-34ed-4d2b-a68d-ac7df292189c","ios":"levelo://app?vid=2412dde1-34ed-4d2b-a68d-ac7df292189c"},"vehicle_type_id":"4","last_reported":1771429192,"current_range_meters":36400,"station_id":"ce4bgpp2rcd13ifvqc3g","pricing_plan_id":"cebpf4jnsgd1na2vs0mg"},{"bike_id":"e5c37de4-5b20-40fe-851e-2d0c03d75c93","system_id":"levelo_inurba_marseille","lat":43.33125,"lon":5.39271,"is_reserved":false,"is_disabled":false,"rental_uris":{"android":"levelo://app?vid=e5c37de4-5b20-40fe-851e-2d0c03d75c93","ios":"levelo://app?vid=e5c37de4-5b20-40fe-851e-2d0c03d75c93"},"vehicle_type_id":"4","last_reported":1771429192,"current_range_meters":16000,"station_id":"","pricing_plan_id":"cebpf4jnsgd1na2vs0mg"},{"bike_id":"07b0f432-5e82-4f8c-81ee-67d93dfdf4d8","system_id":"levelo_inurba_marseille","lat":43.28622,"lon":5.35106,"is_reserved":false,"is_disabled":false,"rental_uris":{"android":"levelo://app?vid=07b0f432-5e82-4f8c-81ee-67d93dfdf4d8","ios":"levelo://app?vid=07b0f432-5e82-4f8c-81ee-67d93dfdf4d8"},"vehicle_type_id":"4","last_reported":1771429192,"current_range_meters":8800,"station_id":"ce4bhch2rcd13ifvqeug","pricing_plan_id":"cebpf4jnsgd1na2vs0mg"},{"bike_id":"127677c5-4cab-4685-9cfe-a1e546a48838","system_id":"levelo_inurba_marseille","lat":43.32099,"lon":5.36761,"is_reserved":false,"is_disabled":false,"rental_uris":{"android":"levelo://app?vid=127677c5-4cab-4685-9cfe-a1e546a48838","ios":"levelo://app?vid=127677c5-4cab-4685-9cfe-a1e546a48838"},"vehicle_type_id":"4","last_reported":1771429192,"current_range_meters":19200,"station_id":"ce4bhrh2rcd13ifvqhug","pricing_plan_id":"cebpf4jnsgd1na2vs0mg"},{"bike_id":"dcd0cf55-ffb3-4ae8-85bc-3fda68997124","system_id":"levelo_inurba_marseille","lat":43.26953,"lon":5.38631,"is_reserved":false,"is_disabled":true,"rental_uris":{"android":"levelo://app?vid=dcd0cf55-ffb3-4ae8-85bc-3fda68997124","ios":"levelo://app?vid=dcd0cf55-ffb3-4ae8-85bc-3fda68997124"},"vehicle_type_id":"4","last_reported":1771429192,"current_range_meters":16400,"station_id":"ce4bhh92rcd13ifvqfh0","pricing_plan_id":"cebpf4jnsgd1na2vs0mg"},{"bike_id":"c55a6103-f739-43a8-85c1-e9cbb225b61e","system_id":"levelo_inurba_marseille","lat":43.24038,"lon":5.37734,"is_reserved":false,"is_disabled":false,"rental_uris":{"android":"levelo://app?vid=c55a6103-f739-43a8-85c1-e9cbb225b61e","ios":"levelo://app?vid=c55a6103-f739-43a8-85c1-e9cbb225b61e"},"vehicle_type_id":"4","last_reported":1771429192,"current_range_meters":8400,"station_id":"ce4bhnp2rcd13ifvqgvg","pricing_plan_id":"cebpf4jnsgd1na2vs0mg"},{"bike_id":"082c6800-9739-4f77-bf81-19d57b72bb23","system_id":"levelo_inurba_marseille","lat":43.27611,"lon":5.36115,"is_reserved":false,"is_disabled":false,"rental_uris":{"android":"levelo://app?vid=082c6800-9739-4f77-bf81-19d57b72bb23","ios":"levelo://app?vid=082c6800-9739-4f77-bf81-19d57b72bb23"},"vehicle_type_id":"4","last_reported":1771429192,"current_range_meters":14400,"station_id":"ce4bgj92rcd13ifvqbe0","pricing_plan_id":"cebpf4jnsgd1na2vs0mg"},{"bike_id":"47788a9b-3d71-4615-adaa-2c88572889ac","system_id":"levelo_inurba_marseille","lat":43.31473,"lon":5.37302,"is_reserved":false,"is_disabled":false,"rental_uris":{"android":"levelo://app?vid=47788a9b-3d71-4615-adaa-2c88572889ac","ios":"levelo://app?vid=47788a9b-3d71-4615-adaa-2c88572889ac"},"vehicle_type_id":"4","last_reported":1771429192,"current_range_meters":34800,"station_id":"ce4bgt12rcd13ifvqcd0","pricing_plan_id":"cebpf4jnsgd1na2vs0mg"},{"bike_id":"fb4c81e1-59ab-4a96-ad75-2e8d74c036e5","system_id":"levelo_inurba_marseille","lat":43.31157,"lon":5.38578,"is_reserved":false,"is_disabled":false,"rental_uris":{"android":"levelo://app?vid=fb4c81e1-59ab-4a96-ad75-2e8d74c036e5","ios":"levelo://app?vid=fb4c81e1-59ab-4a96-ad75-2e8d74c036e5"},"vehicle_type_id":"4","last_reported":1771429192,"current_range_meters":9200,"station_id":"ce4bgv12rcd13ifvqcp0","pricing_plan_id":"cebpf4jnsgd1na2vs0mg"},{"bike_id":"7290e0e5-5b78-44af-aec2-e1b87a7d4c80","system_id":"levelo_inurba_marseille","lat":43.23969,"lon":5.36618,"is_reserved":false,"is_disabled":false,"rental_uris":{"android":"levelo://app?vid=7290e0e5-5b78-44af-aec2-e1b87a7d4c80","ios":"levelo://app?vid=7290e0e5-5b78-44af-aec2-e1b87a7d4c80"},"vehicle_type_id":"4","last_reported":1771429192,"current_range_meters":38800,"station_id":"ce4bhi12rcd13ifvqfp0","pricing_plan_id":"cebpf4jnsgd1na2vs0mg"},{"bike_id":"3cf17d3c-847b-4e36-946e-46ab84562c9a","system_id":"levelo_inurba_marseille","lat":43.25082,"lon":5.39505,"is_reserved":false,"is_disabled":true,"rental_uris":{"android":"levelo://app?vid=3cf17d3c-847b-4e36-946e-46ab84562c9a","ios":"levelo://app?vid=3cf17d3c-847b-4e36-946e-46ab84562c9a"},"vehicle_type_id":"4","last_reported":1771429192,"current_range_meters":400,"station_id":"ce4bhm12rcd13ifvqgkg","pricing_plan_id":"cebpf4jnsgd1na2vs0mg"},{"bike_id":"1dfc9df6-efc3-44e1-bfa7-eabdccc695a9","system_id":"levelo_inurba_marseille","lat":43.3354,"lon":5.37503,"is_reserved":false,"is_disabled":false,"rental_uris":{"android":"levelo://app?vid=1dfc9df6-efc3-44e1-bfa7-eabdccc695a9","ios":"levelo://app?vid=1dfc9df6-efc3-44e1-bfa7-eabdccc695a9"},"vehicle_type_id":"4","last_reported":1771429192,"current_range_meters":14400,"station_id":"st_d46tts09ee8s73dlu43g","pricing_plan_id":"cebpf4jnsgd1na2vs0mg"},{"bike_id":"11fb42ab-c9c3-46ed-93b1-291897de14c2","system_id":"levelo_inurba_marseille","lat":43.29847,"lon":5.36252,"is_reserved":false,"is_disabled":false,"rental_uris":{"android":"levelo://app?vid=11fb42ab-c9c3-46ed-93b1-291897de14c2","ios":"levelo://app?vid=11fb42ab-c9c3-46ed-93b1-291897de14c2"},"vehicle_type_id":"4","last_reported":1771429192,"current_range_meters":14800,"station_id":"ce4bgpp2rcd13ifvqc3g","pricing_plan_id":"cebpf4jnsgd1na2vs0mg"},{"bike_id":"feddf533-e694-4295-8a00-2ac5034dd517","system_id":"levelo_inurba_marseille","lat":43.26927,"lon":5.40259,"is_reserved":false,"is_disabled":false,"rental_uris":{"android":"levelo://app?vid=feddf533-e694-4295-8a00-2ac5034dd517","ios":"levelo://app?vid=feddf533-e694-4295-8a00-2ac5034dd517"},"vehicle_type_id":"4","last_reported":1771429192,"current_range_meters":38800,"station_id":"cjm6bp8fraef2m0cb0m0","pricing_plan_id":"cebpf4jnsgd1na2vs0mg"},{"bike_id":"14867868-6aed-41c1-9296-5792e4f862f8","system_id":"levelo_inurba_marseille","lat":43.25323,"lon":5.42176,"is_reserved":false,"is_disabled":false,"rental_uris":{"android":"levelo://app?vid=14867868-6aed-41c1-9296-5792e4f862f8","ios":"levelo://app?vid=14867868-6aed-41c1-9296-5792e4f862f8"},"vehicle_type_id":"4","last_reported":1771429192,"current_range_meters":27600,"station_id":"st_d2m65c5bi1j21697t3ng","pricing_plan_id":"cebpf4jnsgd1na2vs0mg"},{"bike_id":"2f84c6f6-1af1-4f12-9943-f4b364371f34","system_id":"levelo_inurba_marseille","lat":43.305502,"lon":5.365259,"is_reserved":false,"is_disabled":false,"rental_uris":{"android":"levelo://app?vid=2f84c6f6-1af1-4f12-9943-f4b364371f34","ios":"levelo://app?vid=2f84c6f6-1af1-4f12-9943-f4b364371f34"},"vehicle_type_id":"4","last_reported":1771429192,"current_range_meters":8800,"station_id":"ce4bgs12rcd13ifvqcag","pricing_plan_id":"cebpf4jnsgd1na2vs0mg"},{"bike_id":"baf5634a-458e-4f5a-a6f0-61ff3624b257","system_id":"levelo_inurba_marseille","lat":43.2756,"lon":5.3842,"is_reserved":false,"is_disabled":false,"rental_uris":{"android":"levelo://app?vid=baf5634a-458e-4f5a-a6f0-61ff3624b257","ios":"levelo://app?vid=baf5634a-458e-4f5a-a6f0-61ff3624b257"},"vehicle_type_id":"4","last_reported":1771429192,"current_range_meters":36000,"station_id":"ce4bhh92rcd13ifvqfi0","pricing_plan_id":"cebpf4jnsgd1na2vs0mg"},{"bike_id":"e5ddf298-59a6-48a6-9f22-1ea1820e4aeb","system_id":"levelo_inurba_marseille","lat":43.28077,"lon":5.39667,"is_reserved":false,"is_disabled":false,"rental_uris":{"android":"levelo://app?vid=e5ddf298-59a6-48a6-9f22-1ea1820e4aeb","ios":"levelo://app?vid=e5ddf298-59a6-48a6-9f22-1ea1820e4aeb"},"vehicle_type_id":"4","last_reported":1771429192,"current_range_meters":39200,"station_id":"ce4bho12rcd13ifvqh2g","pricing_plan_id":"cebpf4jnsgd1na2vs0mg"},{"bike_id":"400a55e3-1f67-48f3-b2a0-4ffd9094c8ef","system_id":"levelo_inurba_marseille","lat":43.257361,"lon":5.410959,"is_reserved":false,"is_disabled":false,"rental_uris":{"android":"levelo://app?vid=400a55e3-1f67-48f3-b2a0-4ffd9094c8ef","ios":"levelo://app?vid=400a55e3-1f67-48f3-b2a0-4ffd9094c8ef"},"vehicle_type_id":"4","last_reported":1771429192,"current_range_meters":28000,"station_id":"","pricing_plan_id":"cebpf4jnsgd1na2vs0mg"},{"bike_id":"d62a45b9-4827-4d38-b36b-656d8a9fce75","system_id":"levelo_inurba_marseille","lat":43.27327,"lon":5.39082,"is_reserved":false,"is_disabled":false,"rental_uris":{"android":"levelo://app?vid=d62a45b9-4827-4d38-b36b-656d8a9fce75","ios":"levelo://app?vid=d62a45b9-4827-4d38-b36b-656d8a9fce75"},"vehicle_type_id":"4","last_reported":1771429192,"current_range_meters":27200,"station_id":"ce4bhgp2rcd13ifvqfe0","pricing_plan_id":"cebpf4jnsgd1na2vs0mg"},{"bike_id":"0a9805da-4766-4522-9e65-e3830b56acec","system_id":"levelo_inurba_marseille","lat":43.246779,"lon":5.381431,"is_reserved":false,"is_disabled":false,"rental_uris":{"android":"levelo://app?vid=0a9805da-4766-4522-9e65-e3830b56acec","ios":"levelo://app?vid=0a9805da-4766-4522-9e65-e3830b56acec"},"vehicle_type_id":"4","last_reported":1771429192,"current_range_meters":38800,"station_id":"ce4bhih2rcd13ifvqfr0","pricing_plan_id":"cebpf4jnsgd1na2vs0mg"},{"bike_id":"4ec29948-c60f-4139-b4b2-dc04182e0373","system_id":"levelo_inurba_marseille","lat":43.26681,"lon":5.3826,"is_reserved":false,"is_disabled":false,"rental_uris":{"android":"levelo://app?vid=4ec29948-c60f-4139-b4b2-dc04182e0373","ios":"levelo://app?vid=4ec29948-c60f-4139-b4b2-dc04182e0373"},"vehicle_type_id":"4","last_reported":1771429192,"current_range_meters":33600,"station_id":"ce4bhg92rcd13ifvqf90","pricing_plan_id":"cebpf4jnsgd1na2vs0mg"},{"bike_id":"a390b538-2807-40e2-95f9-4ed175e72a0b","system_id":"levelo_inurba_marseille","lat":43.249453,"lon":5.40503,"is_reserved":false,"is_disabled":false,"rental_uris":{"android":"levelo://app?vid=a390b538-2807-40e2-95f9-4ed175e72a0b","ios":"levelo://app?vid=a390b538-2807-40e2-95f9-4ed175e72a0b"},"vehicle_type_id":"4","last_reported":1771429192,"current_range_meters":25600,"station_id":"st_d2ngiaodas8pm72gd1h0","pricing_plan_id":"cebpf4jnsgd1na2vs0mg"},{"bike_id":"822a37e9-cc86-4db6-b810-29ef8016af0b","system_id":"levelo_inurba_marseille","lat":43.29818,"lon":5.44066,"is_reserved":false,"is_disabled":false,"rental_uris":{"android":"levelo://app?vid=822a37e9-cc86-4db6-b810-29ef8016af0b","ios":"levelo://app?vid=822a37e9-cc86-4db6-b810-29ef8016af0b"},"vehicle_type_id":"4","last_reported":1771429192,"current_range_meters":24400,"station_id":"st_d3jp68qikq2c7381ktn0","pricing_plan_id":"cebpf4jnsgd1na2vs0mg"},{"bike_id":"89a34713-cef8-437f-a0f3-8d1ab5296d6b","system_id":"levelo_inurba_marseille","lat":43.30979,"lon":5.39055,"is_reserved":false,"is_disabled":false,"rental_uris":{"android":"levelo://app?vid=89a34713-cef8-437f-a0f3-8d1ab5296d6b","ios":"levelo://app?vid=89a34713-cef8-437f-a0f3-8d1ab5296d6b"},"vehicle_type_id":"4","last_reported":1771429192,"current_range_meters":39200,"station_id":"ce4bgup2rcd13ifvqco0","pricing_plan_id":"cebpf4jnsgd1na2vs0mg"},{"bike_id":"a80a5edf-9c06-430b-a090-097190f72f17","system_id":"levelo_inurba_marseille","lat":43.27049,"lon":5.40273,"is_reserved":false,"is_disabled":false,"rental_uris":{"android":"levelo://app?vid=a80a5edf-9c06-430b-a090-097190f72f17","ios":"levelo://app?vid=a80a5edf-9c06-430b-a090-097190f72f17"},"vehicle_type_id":"4","last_reported":1771429192,"current_range_meters":35600,"station_id":"ce4bhk92rcd13ifvqgc0","pricing_plan_id":"cebpf4jnsgd1na2vs0mg"},{"bike_id":"55eb0aad-f6b5-4ef8-8c2b-ee220d251165","system_id":"levelo_inurba_marseille","lat":43.26917,"lon":5.40278,"is_reserved":false,"is_disabled":false,"rental_uris":{"android":"levelo://app?vid=55eb0aad-f6b5-4ef8-8c2b-ee220d251165","ios":"levelo://app?vid=55eb0aad-f6b5-4ef8-8c2b-ee220d251165"},"vehicle_type_id":"4","last_reported":1771429192,"current_range_meters":30000,"station_id":"cjm6bp8fraef2m0cb0m0","pricing_plan_id":"cebpf4jnsgd1na2vs0mg"},{"bike_id":"59aabee3-6211-4f8a-9630-29cde1e1b3d7","system_id":"levelo_inurba_marseille","lat":43.29541,"lon":5.37488,"is_reserved":false,"is_disabled":false,"rental_uris":{"android":"levelo://app?vid=59aabee3-6211-4f8a-9630-29cde1e1b3d7","ios":"levelo://app?vid=59aabee3-6211-4f8a-9630-29cde1e1b3d7"},"vehicle_type_id":"4","last_reported":1771429192,"current_range_meters":20000,"station_id":"ce4bgkp2rcd13ifvqbmg","pricing_plan_id":"cebpf4jnsgd1na2vs0mg"},{"bike_id":"89b3e01c-4867-4ddb-b4c3-f53bd946fe77","system_id":"levelo_inurba_marseille","lat":43.29225,"lon":5.36045,"is_reserved":false,"is_disabled":false,"rental_uris":{"android":"levelo://app?vid=89b3e01c-4867-4ddb-b4c3-f53bd946fe77","ios":"levelo://app?vid=89b3e01c-4867-4ddb-b4c3-f53bd946fe77"},"vehicle_type_id":"4","last_reported":1771429192,"current_range_meters":6800,"station_id":"ce4bhbh2rcd13ifvqeqg","pricing_plan_id":"cebpf4jnsgd1na2vs0mg"},{"bike_id":"012436c7-b0d2-44f6-9f1e-20d7a40c23a6","system_id":"levelo_inurba_marseille","lat":43.26219,"lon":5.40444,"is_reserved":false,"is_disabled":false,"rental_uris":{"android":"levelo://app?vid=012436c7-b0d2-44f6-9f1e-20d7a40c23a6","ios":"levelo://app?vid=012436c7-b0d2-44f6-9f1e-20d7a40c23a6"},"vehicle_type_id":"4","last_reported":1771429192,"current_range_meters":36800,"station_id":"ce4bhmh2rcd13ifvqgmg","pricing_plan_id":"cebpf4jnsgd1na2vs0mg"},{"bike_id":"ddb35e99-7580-4184-b1a3-39dee08fd05d","system_id":"levelo_inurba_marseille","lat":43.29598,"lon":5.43884,"is_reserved":false,"is_disabled":false,"rental_uris":{"android":"levelo://app?vid=ddb35e99-7580-4184-b1a3-39dee08fd05d","ios":"levelo://app?vid=ddb35e99-7580-4184-b1a3-39dee08fd05d"},"vehicle_type_id":"4","last_reported":1771429192,"current_range_meters":16400,"station_id":"","pricing_plan_id":"cebpf4jnsgd1na2vs0mg"},{"bike_id":"4d976bf5-f813-4b36-99cd-ae82b3487f1d","system_id":"levelo_inurba_marseille","lat":43.27987,"lon":5.41678,"is_reserved":false,"is_disabled":false,"rental_uris":{"android":"levelo://app?vid=4d976bf5-f813-4b36-99cd-ae82b3487f1d","ios":"levelo://app?vid=4d976bf5-f813-4b36-99cd-ae82b3487f1d"},"vehicle_type_id":"4","last_reported":1771429192,"current_range_meters":9200,"station_id":"ce4bho12rcd13ifvqh1g","pricing_plan_id":"cebpf4jnsgd1na2vs0mg"},{"bike_id":"f8efe6c1-e3a1-4fc3-9f37-3ab003f5cbb7","system_id":"levelo_inurba_marseille","lat":43.29195,"lon":5.35784,"is_reserved":false,"is_disabled":false,"rental_uris":{"android":"levelo://app?vid=f8efe6c1-e3a1-4fc3-9f37-3ab003f5cbb7","ios":"levelo://app?vid=f8efe6c1-e3a1-4fc3-9f37-3ab003f5cbb7"},"vehicle_type_id":"4","last_reported":1771429192,"current_range_meters":35600,"station_id":"ce4bhb12rcd13ifvqel0","pricing_plan_id":"cebpf4jnsgd1na2vs0mg"},{"bike_id":"9f3630eb-dbc9-48cb-9dc8-34da35d113eb","system_id":"levelo_inurba_marseille","lat":43.28608,"lon":5.35103,"is_reserved":false,"is_disabled":false,"rental_uris":{"android":"levelo://app?vid=9f3630eb-dbc9-48cb-9dc8-34da35d113eb","ios":"levelo://app?vid=9f3630eb-dbc9-48cb-9dc8-34da35d113eb"},"vehicle_type_id":"4","last_reported":1771429192,"current_range_meters":32000,"station_id":"ce4bhch2rcd13ifvqeug","pricing_plan_id":"cebpf4jnsgd1na2vs0mg"},{"bike_id":"7223ca8f-d860-411b-96fb-57d191828ae8","system_id":"levelo_inurba_marseille","lat":43.26561,"lon":5.38989,"is_reserved":false,"is_disabled":false,"rental_uris":{"android":"levelo://app?vid=7223ca8f-d860-411b-96fb-57d191828ae8","ios":"levelo://app?vid=7223ca8f-d860-411b-96fb-57d191828ae8"},"vehicle_type_id":"4","last_reported":1771429192,"current_range_meters":22000,"station_id":"ce4bhe12rcd13ifvqf30","pricing_plan_id":"cebpf4jnsgd1na2vs0mg"},{"bike_id":"e20c4760-3d10-4402-8539-0046b00120e2","system_id":"levelo_inurba_marseille","lat":43.25722,"lon":5.41113,"is_reserved":false,"is_disabled":false,"rental_uris":{"android":"levelo://app?vid=e20c4760-3d10-4402-8539-0046b00120e2","ios":"levelo://app?vid=e20c4760-3d10-4402-8539-0046b00120e2"},"vehicle_type_id":"4","last_reported":1771429192,"current_range_meters":38800,"station_id":"ce4bhkp2rcd13ifvqgd0","pricing_plan_id":"cebpf4jnsgd1na2vs0mg"},{"bike_id":"dccf2ee6-c59f-40ca-8baf-56095c8e25c8","system_id":"levelo_inurba_marseille","lat":43.30974,"lon":5.39025,"is_reserved":false,"is_disabled":false,"rental_uris":{"android":"levelo://app?vid=dccf2ee6-c59f-40ca-8baf-56095c8e25c8","ios":"levelo://app?vid=dccf2ee6-c59f-40ca-8baf-56095c8e25c8"},"vehicle_type_id":"4","last_reported":1771429192,"current_range_meters":20000,"station_id":"ce4bgup2rcd13ifvqco0","pricing_plan_id":"cebpf4jnsgd1na2vs0mg"},{"bike_id":"9b1aa077-c899-4d93-9614-bf098199063e","system_id":"levelo_inurba_marseille","lat":43.25004,"lon":5.38938,"is_reserved":false,"is_disabled":false,"rental_uris":{"android":"levelo://app?vid=9b1aa077-c899-4d93-9614-bf098199063e","ios":"levelo://app?vid=9b1aa077-c899-4d93-9614-bf098199063e"},"vehicle_type_id":"4","last_reported":1771429192,"current_range_meters":38800,"station_id":"ce4bhgp2rcd13ifvqfd0","pricing_plan_id":"cebpf4jnsgd1na2vs0mg"},{"bike_id":"a6a087cf-2a67-47b9-99e4-d67b90925e09","system_id":"levelo_inurba_marseille","lat":43.283,"lon":5.35055,"is_reserved":false,"is_disabled":false,"rental_uris":{"android":"levelo://app?vid=a6a087cf-2a67-47b9-99e4-d67b90925e09","ios":"levelo://app?vid=a6a087cf-2a67-47b9-99e4-d67b90925e09"},"vehicle_type_id":"4","last_reported":1771429192,"current_range_meters":30000,"station_id":"ce4bhbp2rcd13ifvqerg","pricing_plan_id":"cebpf4jnsgd1na2vs0mg"},{"bike_id":"0c285a3b-0a97-45f4-bbcf-2e8735c1e540","system_id":"levelo_inurba_marseille","lat":43.25332,"lon":5.42162,"is_reserved":false,"is_disabled":false,"rental_uris":{"android":"levelo://app?vid=0c285a3b-0a97-45f4-bbcf-2e8735c1e540","ios":"levelo://app?vid=0c285a3b-0a97-45f4-bbcf-2e8735c1e540"},"vehicle_type_id":"4","last_reported":1771429192,"current_range_meters":6000,"station_id":"st_d2m65c5bi1j21697t3ng","pricing_plan_id":"cebpf4jnsgd1na2vs0mg"},{"bike_id":"bc27f817-2110-4022-81c0-1b6ce9a635da","system_id":"levelo_inurba_marseille","lat":43.29628,"lon":5.37753,"is_reserved":false,"is_disabled":false,"rental_uris":{"android":"levelo://app?vid=bc27f817-2110-4022-81c0-1b6ce9a635da","ios":"levelo://app?vid=bc27f817-2110-4022-81c0-1b6ce9a635da"},"vehicle_type_id":"4","last_reported":1771429192,"current_range_meters":15200,"station_id":"ce4bgi92rcd13ifvqb90","pricing_plan_id":"cebpf4jnsgd1na2vs0mg"},{"bike_id":"0b74cd8a-6c0c-4176-93e3-42989c9ec1f3","system_id":"levelo_inurba_marseille","lat":43.23184,"lon":5.39984,"is_reserved":false,"is_disabled":false,"rental_uris":{"android":"levelo://app?vid=0b74cd8a-6c0c-4176-93e3-42989c9ec1f3","ios":"levelo://app?vid=0b74cd8a-6c0c-4176-93e3-42989c9ec1f3"},"vehicle_type_id":"4","last_reported":1771429192,"current_range_meters":15200,"station_id":"ce4bhn12rcd13ifvqgqg","pricing_plan_id":"cebpf4jnsgd1na2vs0mg"},{"bike_id":"759f0a09-9669-46dc-9822-7ecc825b93de","system_id":"levelo_inurba_marseille","lat":43.30552,"lon":5.36528,"is_reserved":false,"is_disabled":false,"rental_uris":{"android":"levelo://app?vid=759f0a09-9669-46dc-9822-7ecc825b93de","ios":"levelo://app?vid=759f0a09-9669-46dc-9822-7ecc825b93de"},"vehicle_type_id":"4","last_reported":1771429192,"current_range_meters":38400,"station_id":"ce4bgs12rcd13ifvqcag","pricing_plan_id":"cebpf4jnsgd1na2vs0mg"},{"bike_id":"b8dcc597-4759-4122-9592-969487759374","system_id":"levelo_inurba_marseille","lat":43.262206,"lon":5.404472,"is_reserved":false,"is_disabled":false,"rental_uris":{"android":"levelo://app?vid=b8dcc597-4759-4122-9592-969487759374","ios":"levelo://app?vid=b8dcc597-4759-4122-9592-969487759374"},"vehicle_type_id":"4","last_reported":1771429192,"current_range_meters":19200,"station_id":"ce4bhmh2rcd13ifvqgmg","pricing_plan_id":"cebpf4jnsgd1na2vs0mg"},{"bike_id":"da21f500-f4fc-44f8-8b60-d25decbd1f0c","system_id":"levelo_inurba_marseille","lat":43.295294,"lon":5.374904,"is_reserved":false,"is_disabled":false,"rental_uris":{"android":"levelo://app?vid=da21f500-f4fc-44f8-8b60-d25decbd1f0c","ios":"levelo://app?vid=da21f500-f4fc-44f8-8b60-d25decbd1f0c"},"vehicle_type_id":"4","last_reported":1771429192,"current_range_meters":37600,"station_id":"ce4bgkp2rcd13ifvqbmg","pricing_plan_id":"cebpf4jnsgd1na2vs0mg"},{"bike_id":"1f736713-40bb-4417-989e-c059341c3cc8","system_id":"levelo_inurba_marseille","lat":43.2983,"lon":5.4406,"is_reserved":false,"is_disabled":false,"rental_uris":{"android":"levelo://app?vid=1f736713-40bb-4417-989e-c059341c3cc8","ios":"levelo://app?vid=1f736713-40bb-4417-989e-c059341c3cc8"},"vehicle_type_id":"4","last_reported":1771429192,"current_range_meters":4000,"station_id":"st_d3jp68qikq2c7381ktn0","pricing_plan_id":"cebpf4jnsgd1na2vs0mg"},{"bike_id":"e9625b04-fbb5-47f1-a190-0741f506f4fb","system_id":"levelo_inurba_marseille","lat":43.30187,"lon":5.36628,"is_reserved":false,"is_disabled":false,"rental_uris":{"android":"levelo://app?vid=e9625b04-fbb5-47f1-a190-0741f506f4fb","ios":"levelo://app?vid=e9625b04-fbb5-47f1-a190-0741f506f4fb"},"vehicle_type_id":"4","last_reported":1771429192,"current_range_meters":30400,"station_id":"ce4bgrh2rcd13ifvqc8g","pricing_plan_id":"cebpf4jnsgd1na2vs0mg"},{"bike_id":"17f7ca05-9ff1-4847-81f4-6f637ce906bc","system_id":"levelo_inurba_marseille","lat":43.25332,"lon":5.42162,"is_reserved":false,"is_disabled":true,"rental_uris":{"android":"levelo://app?vid=17f7ca05-9ff1-4847-81f4-6f637ce906bc","ios":"levelo://app?vid=17f7ca05-9ff1-4847-81f4-6f637ce906bc"},"vehicle_type_id":"4","last_reported":1771429192,"current_range_meters":1600,"station_id":"st_d2m65c5bi1j21697t3ng","pricing_plan_id":"cebpf4jnsgd1na2vs0mg"},{"bike_id":"2c25d654-b135-4813-92cc-877e0c70e8da","system_id":"levelo_inurba_marseille","lat":43.31233,"lon":5.36797,"is_reserved":false,"is_disabled":false,"rental_uris":{"android":"levelo://app?vid=2c25d654-b135-4813-92cc-877e0c70e8da","ios":"levelo://app?vid=2c25d654-b135-4813-92cc-877e0c70e8da"},"vehicle_type_id":"4","last_reported":1771429192,"current_range_meters":28800,"station_id":"ce4bgl92rcd13ifvqbq0","pricing_plan_id":"cebpf4jnsgd1na2vs0mg"},{"bike_id":"41ccd3f3-430a-4c74-a651-2f112b3d9094","system_id":"levelo_inurba_marseille","lat":43.25494,"lon":5.37656,"is_reserved":false,"is_disabled":false,"rental_uris":{"android":"levelo://app?vid=41ccd3f3-430a-4c74-a651-2f112b3d9094","ios":"levelo://app?vid=41ccd3f3-430a-4c74-a651-2f112b3d9094"},"vehicle_type_id":"4","last_reported":1771429192,"current_range_meters":39200,"station_id":"ce4bhh12rcd13ifvqff0","pricing_plan_id":"cebpf4jnsgd1na2vs0mg"},{"bike_id":"95ac3875-f146-4303-af46-f73fc1aee76b","system_id":"levelo_inurba_marseille","lat":43.28479,"lon":5.484,"is_reserved":false,"is_disabled":false,"rental_uris":{"android":"levelo://app?vid=95ac3875-f146-4303-af46-f73fc1aee76b","ios":"levelo://app?vid=95ac3875-f146-4303-af46-f73fc1aee76b"},"vehicle_type_id":"4","last_reported":1771429192,"current_range_meters":5600,"station_id":"st_d3svhcjqgbts73a3dn0g","pricing_plan_id":"cebpf4jnsgd1na2vs0mg"},{"bike_id":"b7f87733-4438-47c5-8f3b-bb631c3a62bf","system_id":"levelo_inurba_marseille","lat":43.29957,"lon":5.38528,"is_reserved":false,"is_disabled":false,"rental_uris":{"android":"levelo://app?vid=b7f87733-4438-47c5-8f3b-bb631c3a62bf","ios":"levelo://app?vid=b7f87733-4438-47c5-8f3b-bb631c3a62bf"},"vehicle_type_id":"4","last_reported":1771429192,"current_range_meters":39200,"station_id":"ce4bgj92rcd13ifvqbd0","pricing_plan_id":"cebpf4jnsgd1na2vs0mg"},{"bike_id":"5a7441dd-4a33-48a2-b3bf-8431fc7d51d9","system_id":"levelo_inurba_marseille","lat":43.244007,"lon":5.370569,"is_reserved":false,"is_disabled":false,"rental_uris":{"android":"levelo://app?vid=5a7441dd-4a33-48a2-b3bf-8431fc7d51d9","ios":"levelo://app?vid=5a7441dd-4a33-48a2-b3bf-8431fc7d51d9"},"vehicle_type_id":"4","last_reported":1771429192,"current_range_meters":28800,"station_id":"ce4bhhh2rcd13ifvqfk0","pricing_plan_id":"cebpf4jnsgd1na2vs0mg"},{"bike_id":"83ca159a-cd56-4bd6-982b-76378f2fe7ea","system_id":"levelo_inurba_marseille","lat":43.28616,"lon":5.35106,"is_reserved":false,"is_disabled":false,"rental_uris":{"android":"levelo://app?vid=83ca159a-cd56-4bd6-982b-76378f2fe7ea","ios":"levelo://app?vid=83ca159a-cd56-4bd6-982b-76378f2fe7ea"},"vehicle_type_id":"4","last_reported":1771429192,"current_range_meters":25200,"station_id":"ce4bhch2rcd13ifvqeug","pricing_plan_id":"cebpf4jnsgd1na2vs0mg"},{"bike_id":"a201ba99-9b60-4670-a217-2b526452aed2","system_id":"levelo_inurba_marseille","lat":43.27938,"lon":5.3871,"is_reserved":false,"is_disabled":false,"rental_uris":{"android":"levelo://app?vid=a201ba99-9b60-4670-a217-2b526452aed2","ios":"levelo://app?vid=a201ba99-9b60-4670-a217-2b526452aed2"},"vehicle_type_id":"4","last_reported":1771429192,"current_range_meters":24000,"station_id":"ce4bhg12rcd13ifvqf80","pricing_plan_id":"cebpf4jnsgd1na2vs0mg"},{"bike_id":"ce9e9485-2f02-49c5-81ab-b31dbb5f770f","system_id":"levelo_inurba_marseille","lat":43.24072,"lon":5.37755,"is_reserved":false,"is_disabled":false,"rental_uris":{"android":"levelo://app?vid=ce9e9485-2f02-49c5-81ab-b31dbb5f770f","ios":"levelo://app?vid=ce9e9485-2f02-49c5-81ab-b31dbb5f770f"},"vehicle_type_id":"4","last_reported":1771429192,"current_range_meters":39200,"station_id":"ce4bhnp2rcd13ifvqgvg","pricing_plan_id":"cebpf4jnsgd1na2vs0mg"},{"bike_id":"b17b59e0-45b5-4a28-9c0b-fa0d086392c0","system_id":"levelo_inurba_marseille","lat":43.30533,"lon":5.36542,"is_reserved":false,"is_disabled":false,"rental_uris":{"android":"levelo://app?vid=b17b59e0-45b5-4a28-9c0b-fa0d086392c0","ios":"levelo://app?vid=b17b59e0-45b5-4a28-9c0b-fa0d086392c0"},"vehicle_type_id":"4","last_reported":1771429192,"current_range_meters":12800,"station_id":"ce4bgs12rcd13ifvqcag","pricing_plan_id":"cebpf4jnsgd1na2vs0mg"},{"bike_id":"6155bb94-0027-430a-a184-064ee2103de4","system_id":"levelo_inurba_marseille","lat":43.24672,"lon":5.38149,"is_reserved":false,"is_disabled":false,"rental_uris":{"android":"levelo://app?vid=6155bb94-0027-430a-a184-064ee2103de4","ios":"levelo://app?vid=6155bb94-0027-430a-a184-064ee2103de4"},"vehicle_type_id":"4","last_reported":1771429192,"current_range_meters":25600,"station_id":"ce4bhih2rcd13ifvqfr0","pricing_plan_id":"cebpf4jnsgd1na2vs0mg"},{"bike_id":"10a2dea5-76af-489d-bde2-bf96f99e6687","system_id":"levelo_inurba_marseille","lat":43.29578,"lon":5.39972,"is_reserved":false,"is_disabled":true,"rental_uris":{"android":"levelo://app?vid=10a2dea5-76af-489d-bde2-bf96f99e6687","ios":"levelo://app?vid=10a2dea5-76af-489d-bde2-bf96f99e6687"},"vehicle_type_id":"4","last_reported":1771429192,"current_range_meters":36800,"station_id":"ce4bh312rcd13ifvqdj0","pricing_plan_id":"cebpf4jnsgd1na2vs0mg"},{"bike_id":"aeabf3a4-90f1-478f-9a2a-8374f2f483d9","system_id":"levelo_inurba_marseille","lat":43.28349,"lon":5.381,"is_reserved":false,"is_disabled":false,"rental_uris":{"android":"levelo://app?vid=aeabf3a4-90f1-478f-9a2a-8374f2f483d9","ios":"levelo://app?vid=aeabf3a4-90f1-478f-9a2a-8374f2f483d9"},"vehicle_type_id":"4","last_reported":1771429192,"current_range_meters":30000,"station_id":"ce4bh412rcd13ifvqdr0","pricing_plan_id":"cebpf4jnsgd1na2vs0mg"},{"bike_id":"46ef66d8-2fc4-44f1-8322-6a597c8826d5","system_id":"levelo_inurba_marseille","lat":43.29763,"lon":5.42783,"is_reserved":false,"is_disabled":false,"rental_uris":{"android":"levelo://app?vid=46ef66d8-2fc4-44f1-8322-6a597c8826d5","ios":"levelo://app?vid=46ef66d8-2fc4-44f1-8322-6a597c8826d5"},"vehicle_type_id":"4","last_reported":1771429192,"current_range_meters":29600,"station_id":"st_d3md5207bmas73dh9klg","pricing_plan_id":"cebpf4jnsgd1na2vs0mg"},{"bike_id":"f5a83828-f353-4692-b521-be18cc9b6b45","system_id":"levelo_inurba_marseille","lat":43.29039,"lon":5.35453,"is_reserved":false,"is_disabled":false,"rental_uris":{"android":"levelo://app?vid=f5a83828-f353-4692-b521-be18cc9b6b45","ios":"levelo://app?vid=f5a83828-f353-4692-b521-be18cc9b6b45"},"vehicle_type_id":"4","last_reported":1771429192,"current_range_meters":24800,"station_id":"ce4bhb92rcd13ifvqen0","pricing_plan_id":"cebpf4jnsgd1na2vs0mg"},{"bike_id":"e5a53d9a-99d1-43d7-ae95-edc0215af7c2","system_id":"levelo_inurba_marseille","lat":43.302802,"lon":5.377015,"is_reserved":false,"is_disabled":false,"rental_uris":{"android":"levelo://app?vid=e5a53d9a-99d1-43d7-ae95-edc0215af7c2","ios":"levelo://app?vid=e5a53d9a-99d1-43d7-ae95-edc0215af7c2"},"vehicle_type_id":"4","last_reported":1771429192,"current_range_meters":39200,"station_id":"ce4bguh2rcd13ifvqcj0","pricing_plan_id":"cebpf4jnsgd1na2vs0mg"},{"bike_id":"6948257a-5d07-42b5-a1cc-cbd125c95595","system_id":"levelo_inurba_marseille","lat":43.29729,"lon":5.37693,"is_reserved":false,"is_disabled":false,"rental_uris":{"android":"levelo://app?vid=6948257a-5d07-42b5-a1cc-cbd125c95595","ios":"levelo://app?vid=6948257a-5d07-42b5-a1cc-cbd125c95595"},"vehicle_type_id":"4","last_reported":1771429192,"current_range_meters":20800,"station_id":"ce4bgkh2rcd13ifvqbl0","pricing_plan_id":"cebpf4jnsgd1na2vs0mg"},{"bike_id":"bb26a459-b7f4-4f7e-b4d2-da258b4f41ce","system_id":"levelo_inurba_marseille","lat":43.31703,"lon":5.43706,"is_reserved":false,"is_disabled":false,"rental_uris":{"android":"levelo://app?vid=bb26a459-b7f4-4f7e-b4d2-da258b4f41ce","ios":"levelo://app?vid=bb26a459-b7f4-4f7e-b4d2-da258b4f41ce"},"vehicle_type_id":"4","last_reported":1771429192,"current_range_meters":26000,"station_id":"ce4bhp92rcd13ifvqhcg","pricing_plan_id":"cebpf4jnsgd1na2vs0mg"},