{"last_updated":1713027829,"ttl":30,"version":"2.2","data":{"bikes":[{"bike_id":"eae135af-56a9-40bf-a899-627bcabd2c5a","system_id":"levelo_inurba_marseille","lat":43.31341,"lon":5.367098,"is_reserved":false,"is_disabled":false,"rental_uris":{"android":"levelo://app?vid=eae135af-56a9-40bf-a899-627bcabd2c5a","ios":"levelo://app?vid=eae135af-56a9-40bf-a899-627bcabd2c5a"},"vehicle_type_id":"4","last_reported":1713027829,"current_range_meters":2400,"station_id":"ce4bgr92rcd13ifvqc6g","pricing_plan_id":"cebpf4jnsgd1na2vs0mg"},{"bike_id":"757c3891-0bd5-4d0c-ba7f-e06f8bd872b6","system_id":"levelo_inurba_marseille","lat":43.314811,"lon":5.373104,"is_reserved":false,"is_disabled":false,"rental_uris":{"android":"levelo://app?vid=757c3891-0bd5-4d0c-ba7f-e06f8bd872b6","ios":"levelo://app?vid=757c3891-0bd5-4d0c-ba7f-e06f8bd872b6"},"vehicle_type_id":"4","last_reported":1713027829,"current_range_meters":5600,"station_id":"ce4bgt12rcd13ifvqcd0","pricing_plan_id":"cebpf4jnsgd1na2vs0mg"},{"bike_id":"64ac3771-30c7-4709-85b6-77ebfe4110e1","system_id":"levelo_inurba_marseille","lat":43.30891,"lon":5.37194,"is_reserved":false,"is_disabled":false,"rental_uris":{"android":"levelo://app?vid=64ac3771-30c7-4709-85b6-77ebfe4110e1","ios":"levelo://app?vid=64ac3771-30c7-4709-85b6-77ebfe4110e1"},"vehicle_type_id":"4","last_reported":1713027829,"current_range_meters":16000,"station_id":"ce4bguh2rcd13ifvqckg","pricing_plan_id":"cebpf4jnsgd1na2vs0mg"},{"bike_id":"291fa7d1-1ec2-4bd8-8e07-ffb28da5059d","system_id":"levelo_inurba_marseille","lat":43.308264,"lon":5.371618,"is_reserved":false,"is_disabled":false,"rental_uris":{"android":"levelo://app?vid=291fa7d1-1ec2-4bd8-8e07-ffb28da5059d","ios":"levelo://app?vid=291fa7d1-1ec2-4bd8-8e07-ffb28da5059d"},"vehicle_type_id":"4","last_reported":1713027829,"current_range_meters":8400,"station_id":"ce4bguh2rcd13ifvqckg","pricing_plan_id":"cebpf4jnsgd1na2vs0mg"},{"bike_id":"2eece998-4d36-41be-bf9f-dc25365a0766","system_id":"levelo_inurba_marseille","lat":43.305712,"lon":5.365641,"is_reserved":false,"is_disabled":false,"rental_uris":{"android":"levelo://app?vid=2eece998-4d36-41be-bf9f-dc25365a0766","ios":"levelo://app?vid=2eece998-4d36-41be-bf9f-dc25365a0766"},"vehicle_type_id":"4","last_reported":1713027829,"current_range_meters":5600,"station_id":"ce4bgs12rcd13ifvqcag","pricing_plan_id":"cebpf4jnsgd1na2vs0mg"},{"bike_id":"9fb563d2-2eef-42e9-9458-07876c9ff922","system_id":"levelo_inurba_marseille","lat":43.305714,"lon":5.365633,"is_reserved":false,"is_disabled":false,"rental_uris":{"android":"levelo://app?vid=9fb563d2-2eef-42e9-9458-07876c9ff922","ios":"levelo://app?vid=9fb563d2-2eef-42e9-9458-07876c9ff922"},"vehicle_type_id":"4","last_reported":1713027829,"current_range_meters":16800,"station_id":"ce4bgs12rcd13ifvqcag","pricing_plan_id":"cebpf4jnsgd1na2vs0mg"},{"bike_id":"1765d094-dfb0-4912-a696-c6e36b6d5599","system_id":"levelo_inurba_marseille","lat":43.30543,"lon":5.36543,"is_reserved":false,"is_disabled":false,"rental_uris":{"android":"levelo://app?vid=1765d094-dfb0-4912-a696-c6e36b6d5599","ios":"levelo://app?vid=1765d094-dfb0-4912-a696-c6e36b6d5599"},"vehicle_type_id":"4","last_reported":1713027829,"current_range_meters":0,"station_id":"ce4bgs12rcd13ifvqcag","pricing_plan_id":"cebpf4jnsgd1na2vs0mg"},{"bike_id":"5e0f199c-b9eb-4c14-bb59-f10124f2b63d","system_id":"levelo_inurba_marseille","lat":43.305706,"lon":5.365654,"is_reserved":false,"is_disabled":false,"rental_uris":{"android":"levelo://app?vid=5e0f199c-b9eb-4c14-bb59-f10124f2b63d","ios":"levelo://app?vid=5e0f199c-b9eb-4c14-bb59-f10124f2b63d"},"vehicle_type_id":"4","last_reported":1713027829,"current_range_meters":29600,"station_id":"ce4bgs12rcd13ifvqcag","pricing_plan_id":"cebpf4jnsgd1na2vs0mg"},{"bike_id":"088d4a5e-f065-4865-914a-13f4908fa815","system_id":"levelo_inurba_marseille","lat":43.305714,"lon":5.365633,"is_reserved":false,"is_disabled":false,"rental_uris":{"android":"levelo://app?vid=088d4a5e-f065-4865-914a-13f4908fa815","ios":"levelo://app?vid=088d4a5e-f065-4865-914a-13f4908fa815"},"vehicle_type_id":"4","last_reported":1713027829,"current_range_meters":0,"station_id":"ce4bgs12rcd13ifvqcag","pricing_plan_id":"cebpf4jnsgd1na2vs0mg"},{"bike_id":"ea5a0491-76dc-44f0-a0bf-e9345d08605f","system_id":"levelo_inurba_marseille","lat":43.308012,"lon":5.381511,"is_reserved":false,"is_disabled":false,"rental_uris":{"android":"levelo://app?vid=ea5a0491-76dc-44f0-a0bf-e9345d08605f","ios":"levelo://app?vid=ea5a0491-76dc-44f0-a0bf-e9345d08605f"},"vehicle_type_id":"4","last_reported":1713027829,"current_range_meters":0,"station_id":"ce4bgt12rcd13ifvqce0","pricing_plan_id":"cebpf4jnsgd1na2vs0mg"},{"bike_id":"e137044e-f012-48c9-b89f-e046e32536fd","system_id":"levelo_inurba_marseille","lat":43.317075,"lon":5.377367,"is_reserved":false,"is_disabled":false,"rental_uris":{"android":"levelo://app?vid=e137044e-f012-48c9-b89f-e046e32536fd","ios":"levelo://app?vid=e137044e-f012-48c9-b89f-e046e32536fd"},"vehicle_type_id":"4","last_reported":1713027829,"current_range_meters":2400,"station_id":"ce4bgth2rcd13ifvqch0","pricing_plan_id":"cebpf4jnsgd1na2vs0mg"},{"bike_id":"6ef16e0a-8361-4799-9d84-fb495806fc69","system_id":"levelo_inurba_marseille","lat":43.30304,"lon":5.368987,"is_reserved":false,"is_disabled":false,"rental_uris":{"android":"levelo://app?vid=6ef16e0a-8361-4799-9d84-fb495806fc69","ios":"levelo://app?vid=6ef16e0a-8361-4799-9d84-fb495806fc69"},"vehicle_type_id":"4","last_reported":1713027829,"current_range_meters":0,"station_id":"ce4bgqh2rcd13ifvqc5g","pricing_plan_id":"cebpf4jnsgd1na2vs0mg"},{"bike_id":"c973c696-6cf3-4ef6-9922-20142626237f","system_id":"levelo_inurba_marseille","lat":43.30282,"lon":5.37259,"is_reserved":false,"is_disabled":false,"rental_uris":{"android":"levelo://app?vid=c973c696-6cf3-4ef6-9922-20142626237f","ios":"levelo://app?vid=c973c696-6cf3-4ef6-9922-20142626237f"},"vehicle_type_id":"4","last_reported":1713027829,"current_range_meters":14400,"station_id":"","pricing_plan_id":"cebpf4jnsgd1na2vs0mg"},{"bike_id":"f5a3f466-5519-44bf-977c-e286a7d55481","system_id":"levelo_inurba_marseille","lat":43.308012,"lon":5.381511,"is_reserved":false,"is_disabled":false,"rental_uris":{"android":"levelo://app?vid=f5a3f466-5519-44bf-977c-e286a7d55481","ios":"levelo://app?vid=f5a3f466-5519-44bf-977c-e286a7d55481"},"vehicle_type_id":"4","last_reported":1713027829,"current_range_meters":0,"station_id":"ce4bgt12rcd13ifvqce0","pricing_plan_id":"cebpf4jnsgd1na2vs0mg"},{"bike_id":"eea8b188-5c77-4d05-aba1-819d59798e6a","system_id":"levelo_inurba_marseille","lat":43.308012,"lon":5.381511,"is_reserved":false,"is_disabled":false,"rental_uris":{"android":"levelo://app?vid=eea8b188-5c77-4d05-aba1-819d59798e6a","ios":"levelo://app?vid=eea8b188-5c77-4d05-aba1-819d59798e6a"},"vehicle_type_id":"4","last_reported":1713027829,"current_range_meters":7200,"station_id":"ce4bgt12rcd13ifvqce0","pricing_plan_id":"cebpf4jnsgd1na2vs0mg"},{"bike_id":"b7f53cbc-9b10-4e90-9e15-2e83c49dce16","system_id":"levelo_inurba_marseille","lat":43.308012,"lon":5.381511,"is_reserved":false,"is_disabled":false,"rental_uris":{"android":"levelo://app?vid=b7f53cbc-9b10-4e90-9e15-2e83c49dce16","ios":"levelo://app?vid=b7f53cbc-9b10-4e90-9e15-2e83c49dce16"},"vehicle_type_id":"4","last_reported":1713027829,"current_range_meters":10400,"station_id":"ce4bgt12rcd13ifvqce0","pricing_plan_id":"cebpf4jnsgd1na2vs0mg"},{"bike_id":"438ffca9-3fc6-4dab-a37c-b656aeb5462e","system_id":"levelo_inurba_marseille","lat":43.304606,"lon":5.379026,"is_reserved":false,"is_disabled":false,"rental_uris":{"android":"levelo://app?vid=438ffca9-3fc6-4dab-a37c-b656aeb5462e","ios":"levelo://app?vid=438ffca9-3fc6-4dab-a37c-b656aeb5462e"},"vehicle_type_id":"4","last_reported":1713027829,"current_range_meters":7200,"station_id":"ce4bgup2rcd13ifvqcn0","pricing_plan_id":"cebpf4jnsgd1na2vs0mg"},{"bike_id":"c1a4e4fc-91e6-4d8c-b1ff-5893e3499cf7","system_id":"levelo_inurba_marseille","lat":43.324771,"lon":5.36557,"is_reserved":false,"is_disabled":false,"rental_uris":{"android":"levelo://app?vid=c1a4e4fc-91e6-4d8c-b1ff-5893e3499cf7","ios":"levelo://app?vid=c1a4e4fc-91e6-4d8c-b1ff-5893e3499cf7"},"vehicle_type_id":"4","last_reported":1713027829,"current_range_meters":5200,"station_id":"ce4bhs12rcd13ifvqhvg","pricing_plan_id":"cebpf4jnsgd1na2vs0mg"},{"bike_id":"a0a07164-c0c2-41aa-b710-99113a5fa34b","system_id":"levelo_inurba_marseille","lat":43.324771,"lon":5.36557,"is_reserved":false,"is_disabled":false,"rental_uris":{"android":"levelo://app?vid=a0a07164-c0c2-41aa-b710-99113a5fa34b","ios":"levelo://app?vid=a0a07164-c0c2-41aa-b710-99113a5fa34b"},"vehicle_type_id":"4","last_reported":1713027829,"current_range_meters":11600,"station_id":"ce4bhs12rcd13ifvqhvg","pricing_plan_id":"cebpf4jnsgd1na2vs0mg"},{"bike_id":"0386cda5-1e13-4bc5-8e81-964e6eb70ae0","system_id":"levelo_inurba_marseille","lat":43.324771,"lon":5.36557,"is_reserved":false,"is_disabled":false,"rental_uris":{"android":"levelo://app?vid=0386cda5-1e13-4bc5-8e81-964e6eb70ae0","ios":"levelo://app?vid=0386cda5-1e13-4bc5-8e81-964e6eb70ae0"},"vehicle_type_id":"4","last_reported":1713027829,"current_range_meters":6000,"station_id":"ce4bhs12rcd13ifvqhvg","pricing_plan_id":"cebpf4jnsgd1na2vs0mg"},{"bike_id":"6bd30c09-c007-4c03-a14e-53bb25dc6171","system_id":"levelo_inurba_marseille","lat":43.324771,"lon":5.36557,"is_reserved":false,"is_disabled":false,"rental_uris":{"android":"levelo://app?vid=6bd30c09-c007-4c03-a14e-53bb25dc6171","ios":"levelo://app?vid=6bd30c09-c007-4c03-a14e-53bb25dc6171"},"vehicle_type_id":"4","last_reported":1713027829,"current_range_meters":24800,"station_id":"ce4bhs12rcd13ifvqhvg","pricing_plan_id":"cebpf4jnsgd1na2vs0mg"},{"bike_id":"7adb18dc-e38f-48af-bcf5-e232230afe4d","system_id":"levelo_inurba_marseille","lat":43.31078,"lon":5.38357,"is_reserved":false,"is_disabled":false,"rental_uris":{"android":"levelo://app?vid=7adb18dc-e38f-48af-bcf5-e232230afe4d","ios":"levelo://app?vid=7adb18dc-e38f-48af-bcf5-e232230afe4d"},"vehicle_type_id":"4","last_reported":1713027829,"current_range_meters":12000,"station_id":"","pricing_plan_id":"cebpf4jnsgd1na2vs0mg"},{"bike_id":"de852f1d-9d33-4a96-95ce-c2c677708491","system_id":"levelo_inurba_marseille","lat":43.31991,"lon":5.38162,"is_reserved":false,"is_disabled":false,"rental_uris":{"android":"levelo://app?vid=de852f1d-9d33-4a96-95ce-c2c677708491","ios":"levelo://app?vid=de852f1d-9d33-4a96-95ce-c2c677708491"},"vehicle_type_id":"4","last_reported":1713027829,"current_range_meters":4400,"station_id":"ce4bhr12rcd13ifvqhpg","pricing_plan_id":"cebpf4jnsgd1na2vs0mg"},{"bike_id":"f20c6e9b-dcc7-4cfd-87f9-44495aae8f00","system_id":"levelo_inurba_marseille","lat":43.31998,"lon":5.38164,"is_reserved":false,"is_disabled":false,"rental_uris":{"android":"levelo://app?vid=f20c6e9b-dcc7-4cfd-87f9-44495aae8f00","ios":"levelo://app?vid=f20c6e9b-dcc7-4cfd-87f9-44495aae8f00"},"vehicle_type_id":"4","last_reported":1713027829,"current_range_meters":10000,"station_id":"ce4bhr12rcd13ifvqhpg","pricing_plan_id":"cebpf4jnsgd1na2vs0mg"},{"bike_id":"26445cae-ef44-4773-b133-c7c44033b6d1","system_id":"levelo_inurba_marseille","lat":43.317557,"lon":5.390173,"is_reserved":false,"is_disabled":false,"rental_uris":{"android":"levelo://app?vid=26445cae-ef44-4773-b133-c7c44033b6d1","ios":"levelo://app?vid=26445cae-ef44-4773-b133-c7c44033b6d1"},"vehicle_type_id":"4","last_reported":1713027829,"current_range_meters":4000,"station_id":"ce4bhqp2rcd13ifvqhng","pricing_plan_id":"cebpf4jnsgd1na2vs0mg"},{"bike_id":"82d93192-9864-4d83-8b23-758210aead1b","system_id":"levelo_inurba_marseille","lat":43.313571,"lon":5.384829,"is_reserved":false,"is_disabled":false,"rental_uris":{"android":"levelo://app?vid=82d93192-9864-4d83-8b23-758210aead1b","ios":"levelo://app?vid=82d93192-9864-4d83-8b23-758210aead1b"},"vehicle_type_id":"4","last_reported":1713027829,"current_range_meters":14000,"station_id":"ce4bgt92rcd13ifvqcf0","pricing_plan_id":"cebpf4jnsgd1na2vs0mg"},{"bike_id":"85942cb8-3455-46fe-a450-92814bead7ba","system_id":"levelo_inurba_marseille","lat":43.313571,"lon":5.384829,"is_reserved":false,"is_disabled":false,"rental_uris":{"android":"levelo://app?vid=85942cb8-3455-46fe-a450-92814bead7ba","ios":"levelo://app?vid=85942cb8-3455-46fe-a450-92814bead7ba"},"vehicle_type_id":"4","last_reported":1713027829,"current_range_meters":12400,"station_id":"ce4bgt92rcd13ifvqcf0","pricing_plan_id":"cebpf4jnsgd1na2vs0mg"},{"bike_id":"40d1254c-0f7c-4564-a279-a604df62c1ff","system_id":"levelo_inurba_marseille","lat":43.313571,"lon":5.384829,"is_reserved":false,"is_disabled":false,"rental_uris":{"android":"levelo://app?vid=40d1254c-0f7c-4564-a279-a604df62c1ff","ios":"levelo://app?vid=40d1254c-0f7c-4564-a279-a604df62c1ff"},"vehicle_type_id":"4","last_reported":1713027829,"current_range_meters":24000,"station_id":"ce4bgt92rcd13ifvqcf0","pricing_plan_id":"cebpf4jnsgd1na2vs0mg"},{"bike_id":"733e81a2-cf08-4956-b87d-80ca9c499698","system_id":"levelo_inurba_marseille","lat":43.313571,"lon":5.384829,"is_reserved":false,"is_disabled":false,"rental_uris":{"android":"levelo://app?vid=733e81a2-cf08-4956-b87d-80ca9c499698","ios":"levelo://app?vid=733e81a2-cf08-4956-b87d-80ca9c499698"},"vehicle_type_id":"4","last_reported":1713027829,"current_range_meters":6000,"station_id":"ce4bgt92rcd13ifvqcf0","pricing_plan_id":"cebpf4jnsgd1na2vs0mg"},{"bike_id":"3e3d4ac5-7e7c-4e37-933c-8de2f401f925","system_id":"levelo_inurba_marseille","lat":43.313571,"lon":5.384829,"is_reserved":false,"is_disabled":false,"rental_uris":{"android":"levelo://app?vid=3e3d4ac5-7e7c-4e37-933c-8de2f401f925","ios":"levelo://app?vid=3e3d4ac5-7e7c-4e37-933c-8de2f401f925"},"vehicle_type_id":"4","last_reported":1713027829,"current_range_meters":2400,"station_id":"ce4bgt92rcd13ifvqcf0","pricing_plan_id":"cebpf4jnsgd1na2vs0mg"},{"bike_id":"7fbb553c-ab30-42c1-b001-6091af13debf","system_id":"levelo_inurba_marseille","lat":43.313571,"lon":5.384829,"is_reserved":false,"is_disabled":false,"rental_uris":{"android":"levelo://app?vid=7fbb553c-ab30-42c1-b001-6091af13debf","ios":"levelo://app?vid=7fbb553c-ab30-42c1-b001-6091af13debf"},"vehicle_type_id":"4","last_reported":1713027829,"current_range_meters":2800,"station_id":"ce4bgt92rcd13ifvqcf0","pricing_plan_id":"cebpf4jnsgd1na2vs0mg"},{"bike_id":"0df53359-b52c-4f25-b3f5-82e87a8112ae","system_id":"levelo_inurba_marseille","lat":43.313571,"lon":5.384829,"is_reserved":false,"is_disabled":false,"rental_uris":{"android":"levelo://app?vid=0df53359-b52c-4f25-b3f5-82e87a8112ae","ios":"levelo://app?vid=0df53359-b52c-4f25-b3f5-82e87a8112ae"},"vehicle_type_id":"4","last_reported":1713027829,"current_range_meters":4400,"station_id":"ce4bgt92rcd13ifvqcf0","pricing_plan_id":"cebpf4jnsgd1na2vs0mg"},{"bike_id":"98cf6772-1562-4f12-8ae3-4581e9625f82","system_id":"levelo_inurba_marseille","lat":43.298433,"lon":5.362774,"is_reserved":false,"is_disabled":false,"rental_uris":{"android":"levelo://app?vid=98cf6772-1562-4f12-8ae3-4581e9625f82","ios":"levelo://app?vid=98cf6772-1562-4f12-8ae3-4581e9625f82"},"vehicle_type_id":"4","last_reported":1713027829,"current_range_meters":0,"station_id":"ce4bgpp2rcd13ifvqc3g","pricing_plan_id":"cebpf4jnsgd1na2vs0mg"},{"bike_id":"339ca270-11aa-4f8a-9a11-fd3c150caf0c","system_id":"levelo_inurba_marseille","lat":43.299243,"lon":5.374807,"is_reserved":false,"is_disabled":false,"rental_uris":{"android":"levelo://app?vid=339ca270-11aa-4f8a-9a11-fd3c150caf0c","ios":"levelo://app?vid=339ca270-11aa-4f8a-9a11-fd3c150caf0c"},"vehicle_type_id":"4","last_reported":1713027829,"current_range_meters":24000,"station_id":"ce4bgjh2rcd13ifvqbg0","pricing_plan_id":"cebpf4jnsgd1na2vs0mg"},{"bike_id":"98f7c97d-b437-4940-a9a0-c133a3b2a1b2","system_id":"levelo_inurba_marseille","lat":43.31188,"lon":5.38705,"is_reserved":false,"is_disabled":false,"rental_uris":{"android":"levelo://app?vid=98f7c97d-b437-4940-a9a0-c133a3b2a1b2","ios":"levelo://app?vid=98f7c97d-b437-4940-a9a0-c133a3b2a1b2"},"vehicle_type_id":"4","last_reported":1713027829,"current_range_meters":0,"station_id":"ce4bgv12rcd13ifvqcp0","pricing_plan_id":"cebpf4jnsgd1na2vs0mg"},{"bike_id":"9507b77f-93e2-4f61-9c0f-21a38e827c6a","system_id":"levelo_inurba_marseille","lat":43.311722,"lon":5.387247,"is_reserved":false,"is_disabled":false,"rental_uris":{"android":"levelo://app?vid=9507b77f-93e2-4f61-9c0f-21a38e827c6a","ios":"levelo://app?vid=9507b77f-93e2-4f61-9c0f-21a38e827c6a"},"vehicle_type_id":"4","last_reported":1713027829,"current_range_meters":3600,"station_id":"ce4bgv12rcd13ifvqcp0","pricing_plan_id":"cebpf4jnsgd1na2vs0mg"},{"bike_id":"4b062aad-25db-4843-872d-d388d0410ce7","system_id":"levelo_inurba_marseille","lat":43.322872,"lon":5.382756,"is_reserved":false,"is_disabled":false,"rental_uris":{"android":"levelo://app?vid=4b062aad-25db-4843-872d-d388d0410ce7","ios":"levelo://app?vid=4b062aad-25db-4843-872d-d388d0410ce7"},"vehicle_type_id":"4","last_reported":1713027829,"current_range_meters":15200,"station_id":"ce4bhr12rcd13ifvqhqg","pricing_plan_id":"cebpf4jnsgd1na2vs0mg"},{"bike_id":"145cb2b7-9f50-4da9-9ea1-e1a1763f3b75","system_id":"levelo_inurba_marseille","lat":43.296759,"lon":5.370182,"is_reserved":false,"is_disabled":false,"rental_uris":{"android":"levelo://app?vid=145cb2b7-9f50-4da9-9ea1-e1a1763f3b75","ios":"levelo://app?vid=145cb2b7-9f50-4da9-9ea1-e1a1763f3b75"},"vehicle_type_id":"4","last_reported":1713027829,"current_range_meters":17200,"station_id":"","pricing_plan_id":"cebpf4jnsgd1na2vs0mg"},{"bike_id":"64d5e69f-5b7c-46f6-bdc6-66600d1d402e","system_id":"levelo_inurba_marseille","lat":43.29681,"lon":5.372797,"is_reserved":false,"is_disabled":false,"rental_uris":{"android":"levelo://app?vid=64d5e69f-5b7c-46f6-bdc6-66600d1d402e","ios":"levelo://app?vid=64d5e69f-5b7c-46f6-bdc6-66600d1d402e"},"vehicle_type_id":"4","last_reported":1713027829,"current_range_meters":0,"station_id":"ce4bgk12rcd13ifvqbj0","pricing_plan_id":"cebpf4jnsgd1na2vs0mg"},{"bike_id":"602cfb5a-3d80-40f9-b854-67003084fcaa","system_id":"levelo_inurba_marseille","lat":43.2968,"lon":5.37291,"is_reserved":false,"is_disabled":false,"rental_uris":{"android":"levelo://app?vid=602cfb5a-3d80-40f9-b854-67003084fcaa","ios":"levelo://app?vid=602cfb5a-3d80-40f9-b854-67003084fcaa"},"vehicle_type_id":"4","last_reported":1713027829,"current_range_meters":14800,"station_id":"ce4bgk12rcd13ifvqbj0","pricing_plan_id":"cebpf4jnsgd1na2vs0mg"},{"bike_id":"a7e56808-0340-4bb5-a8da-202f966a770f","system_id":"levelo_inurba_marseille","lat":43.296129,"lon":5.370777,"is_reserved":false,"is_disabled":false,"rental_uris":{"android":"levelo://app?vid=a7e56808-0340-4bb5-a8da-202f966a770f","ios":"levelo://app?vid=a7e56808-0340-4bb5-a8da-202f966a770f"},"vehicle_type_id":"4","last_reported":1713027829,"current_range_meters":0,"station_id":"ce4bgnh2rcd13ifvqc0g","pricing_plan_id":"cebpf4jnsgd1na2vs0mg"},{"bike_id":"de232a96-f58b-4f2b-bcf3-c03524af3300","system_id":"levelo_inurba_marseille","lat":43.296131,"lon":5.370791,"is_reserved":false,"is_disabled":false,"rental_uris":{"android":"levelo://app?vid=de232a96-f58b-4f2b-bcf3-c03524af3300","ios":"levelo://app?vid=de232a96-f58b-4f2b-bcf3-c03524af3300"},"vehicle_type_id":"4","last_reported":1713027829,"current_range_meters":0,"station_id":"ce4bgnh2rcd13ifvqc0g","pricing_plan_id":"cebpf4jnsgd1na2vs0mg"},{"bike_id":"126a8133-8488-420d-9ffc-52d338f2327e","system_id":"levelo_inurba_marseille","lat":43.295775,"lon":5.367342,"is_reserved":false,"is_disabled":false,"rental_uris":{"android":"levelo://app?vid=126a8133-8488-420d-9ffc-52d338f2327e","ios":"levelo://app?vid=126a8133-8488-420d-9ffc-52d338f2327e"},"vehicle_type_id":"4","last_reported":1713027829,"current_range_meters":0,"station_id":"ce4bgph2rcd13ifvqc2g","pricing_plan_id":"cebpf4jnsgd1na2vs0mg"},{"bike_id":"06b82a0d-f359-4d81-8af0-badc19bbe9e8","system_id":"levelo_inurba_marseille","lat":43.29713,"lon":5.37692,"is_reserved":false,"is_disabled":false,"rental_uris":{"android":"levelo://app?vid=06b82a0d-f359-4d81-8af0-badc19bbe9e8","ios":"levelo://app?vid=06b82a0d-f359-4d81-8af0-badc19bbe9e8"},"vehicle_type_id":"4","last_reported":1713027829,"current_range_meters":16800,"station_id":"ce4bgkh2rcd13ifvqbl0","pricing_plan_id":"cebpf4jnsgd1na2vs0mg"},{"bike_id":"e3546ffe-1c9b-4be2-bc7d-580ce98a8cc1","system_id":"levelo_inurba_marseille","lat":43.2971,"lon":5.37688,"is_reserved":false,"is_disabled":false,"rental_uris":{"android":"levelo://app?vid=e3546ffe-1c9b-4be2-bc7d-580ce98a8cc1","ios":"levelo://app?vid=e3546ffe-1c9b-4be2-bc7d-580ce98a8cc1"},"vehicle_type_id":"4","last_reported":1713027829,"current_range_meters":0,"station_id":"ce4bgkh2rcd13ifvqbl0","pricing_plan_id":"cebpf4jnsgd1na2vs0mg"},{"bike_id":"d642ebfb-5ea0-4a77-8ec3-addb744ad117","system_id":"levelo_inurba_marseille","lat":43.30951,"lon":5.39022,"is_reserved":false,"is_disabled":false,"rental_uris":{"android":"levelo://app?vid=d642ebfb-5ea0-4a77-8ec3-addb744ad117","ios":"levelo://app?vid=d642ebfb-5ea0-4a77-8ec3-addb744ad117"},"vehicle_type_id":"4","last_reported":1713027829,"current_range_meters":3600,"station_id":"","pricing_plan_id":"cebpf4jnsgd1na2vs0mg"},{"bike_id":"547c8d42-120b-4138-af2e-752773d4176f","system_id":"levelo_inurba_marseille","lat":43.299028,"lon":5.381509,"is_reserved":false,"is_disabled":false,"rental_uris":{"android":"levelo://app?vid=547c8d42-120b-4138-af2e-752773d4176f","ios":"levelo://app?vid=547c8d42-120b-4138-af2e-752773d4176f"},"vehicle_type_id":"4","last_reported":1713027829,"current_range_meters":24800,"station_id":"ce4bgj12rcd13ifvqbc0","pricing_plan_id":"cebpf4jnsgd1na2vs0mg"},{"bike_id":"756719b7-cb53-4fb3-b1f1-4e06604705f9","system_id":"levelo_inurba_marseille","lat":43.309589,"lon":5.390258,"is_reserved":false,"is_disabled":false,"rental_uris":{"android":"levelo://app?vid=756719b7-cb53-4fb3-b1f1-4e06604705f9","ios":"levelo://app?vid=756719b7-cb53-4fb3-b1f1-4e06604705f9"},"vehicle_type_id":"4","last_reported":1713027829,"current_range_meters":5600,"station_id":"ce4bgup2rcd13ifvqco0","pricing_plan_id":"cebpf4jnsgd1na2vs0mg"},{"bike_id":"6cca20b1-e3bc-493a-9a85-4235f5b9da35","system_id":"levelo_inurba_marseille","lat":43.309589,"lon":5.390258,"is_reserved":false,"is_disabled":false,"rental_uris":{"android":"levelo://app?vid=6cca20b1-e3bc-493a-9a85-4235f5b9da35","ios":"levelo://app?vid=6cca20b1-e3bc-493a-9a85-4235f5b9da35"},"vehicle_type_id":"4","last_reported":1713027829,"current_range_meters":0,"station_id":"ce4bgup2rcd13ifvqco0","pricing_plan_id":"cebpf4jnsgd1na2vs0mg"},{"bike_id":"41c5cfd9-7823-4856-a941-7f04c7a5d406","system_id":"levelo_inurba_marseille","lat":43.290336,"lon":5.386425,"is_reserved":false,"is_disabled":false,"rental_uris":{"android":"levelo://app?vid=41c5cfd9-7823-4856-a941-7f04c7a5d406","ios":"levelo://app?vid=41c5cfd9-7823-4856-a941-7f04c7a5d406"},"vehicle_type_id":"4","last_reported":1713027829,"current_range_meters":15200,"station_id":"ce4bh4p2rcd13ifvqe0g","pricing_plan_id":"cebpf4jnsgd1na2vs0mg"},{"bike_id":"dda73e86-ea53-4d24-be08-ff20bfa0a03b","system_id":"levelo_inurba_marseille","lat":43.299028,"lon":5.381509,"is_reserved":false,"is_disabled":false,"rental_uris":{"android":"levelo://app?vid=dda73e86-ea53-4d24-be08-ff20bfa0a03b","ios":"levelo://app?vid=dda73e86-ea53-4d24-be08-ff20bfa0a03b"},"vehicle_type_id":"4","last_reported":1713027829,"current_range_meters":0,"station_id":"ce4bgj12rcd13ifvqbc0","pricing_plan_id":"cebpf4jnsgd1na2vs0mg"},{"bike_id":"fbe5915f-278c-4574-bba0-5215240b8759","system_id":"levelo_inurba_marseille","lat":43.30944,"lon":5.3903,"is_reserved":false,"is_disabled":false,"rental_uris":{"android":"levelo://app?vid=fbe5915f-278c-4574-bba0-5215240b8759","ios":"levelo://app?vid=fbe5915f-278c-4574-bba0-5215240b8759"},"vehicle_type_id":"4","last_reported":1713027829,"current_range_meters":5600,"station_id":"ce4bgup2rcd13ifvqco0","pricing_plan_id":"cebpf4jnsgd1na2vs0mg"},{"bike_id":"1eab1b1e-7f7a-45c2-915b-3fd57ae3d5f5","system_id":"levelo_inurba_marseille","lat":43.297956,"lon":5.380804,"is_reserved":false,"is_disabled":false,"rental_uris":{"android":"levelo://app?vid=1eab1b1e-7f7a-45c2-915b-3fd57ae3d5f5","ios":"levelo://app?vid=1eab1b1e-7f7a-45c2-915b-3fd57ae3d5f5"},"vehicle_type_id":"4","last_reported":1713027829,"current_range_meters":0,"station_id":"ce4bgip2rcd13ifvqbb0","pricing_plan_id":"cebpf4jnsgd1na2vs0mg"},{"bike_id":"5d747ab9-f4e6-4cdb-baae-7983d08e4f0b","system_id":"levelo_inurba_marseille","lat":43.298037,"lon":5.381066,"is_reserved":false,"is_disabled":false,"rental_uris":{"android":"levelo://app?vid=5d747ab9-f4e6-4cdb-baae-7983d08e4f0b","ios":"levelo://app?vid=5d747ab9-f4e6-4cdb-baae-7983d08e4f0b"},"vehicle_type_id":"4","last_reported":1713027829,"current_range_meters":11600,"station_id":"ce4bgip2rcd13ifvqbb0","pricing_plan_id":"cebpf4jnsgd1na2vs0mg"},{"bike_id":"51df1e5d-7ad8-4609-af0b-108eda8ec440","system_id":"levelo_inurba_marseille","lat":43.298037,"lon":5.381066,"is_reserved":false,"is_disabled":false,"rental_uris":{"android":"levelo://app?vid=51df1e5d-7ad8-4609-af0b-108eda8ec440","ios":"levelo://app?vid=51df1e5d-7ad8-4609-af0b-108eda8ec440"},"vehicle_type_id":"4","last_reported":1713027829,"current_range_meters":1200,"station_id":"ce4bgip2rcd13ifvqbb0","pricing_plan_id":"cebpf4jnsgd1na2vs0mg"},{"bike_id":"f078e73f-f9bc-4ea1-974b-75fdd55931fe","system_id":"levelo_inurba_marseille","lat":43.295752,"lon":5.375125,"is_reserved":false,"is_disabled":false,"rental_uris":{"android":"levelo://app?vid=f078e73f-f9bc-4ea1-974b-75fdd55931fe","ios":"levelo://app?vid=f078e73f-f9bc-4ea1-974b-75fdd55931fe"},"vehicle_type_id":"4","last_reported":1713027829,"current_range_meters":800,"station_id":"ce4bgj92rcd13ifvqbd0","pricing_plan_id":"cebpf4jnsgd1na2vs0mg"},{"bike_id":"c79bad00-ff4d-4519-a48f-10af35c4f9a8","system_id":"levelo_inurba_marseille","lat":43.298037,"lon":5.381066,"is_reserved":false,"is_disabled":false,"rental_uris":{"android":"levelo://app?vid=c79bad00-ff4d-4519-a48f-10af35c4f9a8","ios":"levelo://app?vid=c79bad00-ff4d-4519-a48f-10af35c4f9a8"},"vehicle_type_id":"4","last_reported":1713027829,"current_range_meters":17600,"station_id":"ce4bgip2rcd13ifvqbb0","pricing_plan_id":"cebpf4jnsgd1na2vs0mg"},{"bike_id":"e9ec8faa-c55d-4801-be22-c7c4f5b43181","system_id":"levelo_inurba_marseille","lat":43.296129,"lon":5.370777,"is_reserved":false,"is_disabled":false,"rental_uris":{"android":"levelo://app?vid=e9ec8faa-c55d-4801-be22-c7c4f5b43181","ios":"levelo://app?vid=e9ec8faa-c55d-4801-be22-c7c4f5b43181"},"vehicle_type_id":"4","last_reported":1713027829,"current_range_meters":6800,"station_id":"ce4bgnh2rcd13ifvqc0g","pricing_plan_id":"cebpf4jnsgd1na2vs0mg"},{"bike_id":"c3cac714-853e-443e-ab02-e2fe82e6ea65","system_id":"levelo_inurba_marseille","lat":43.295672,"lon":5.375199,"is_reserved":false,"is_disabled":false,"rental_uris":{"android":"levelo://app?vid=c3cac714-853e-443e-ab02-e2fe82e6ea65","ios":"levelo://app?vid=c3cac714-853e-443e-ab02-e2fe82e6ea65"},"vehicle_type_id":"4","last_reported":1713027829,"current_range_meters":0,"station_id":"ce4bgh92rcd13ifvqb50","pricing_plan_id":"cebpf4jnsgd1na2vs0mg"},{"bike_id":"affc6411-1342-4c8f-b2b4-cb71f1f2865a","system_id":"levelo_inurba_marseille","lat":43.29564,"lon":5.37515,"is_reserved":false,"is_disabled":false,"rental_uris":{"android":"levelo://app?vid=affc6411-1342-4c8f-b2b4-cb71f1f2865a","ios":"levelo://app?vid=affc6411-1342-4c8f-b2b4-cb71f1f2865a"},"vehicle_type_id":"4","last_reported":1713027829,"current_range_meters":0,"station_id":"ce4bgh92rcd13ifvqb50","pricing_plan_id":"cebpf4jnsgd1na2vs0mg"},{"bike_id":"48687774-985f-4f53-925e-e4d86cb9619f","system_id":"levelo_inurba_marseille","lat":43.299717,"lon":5.384845,"is_reserved":false,"is_disabled":false,"rental_uris":{"android":"levelo://app?vid=48687774-985f-4f53-925e-e4d86cb9619f","ios":"levelo://app?vid=48687774-985f-4f53-925e-e4d86cb9619f"},"vehicle_type_id":"4","last_reported":1713027829,"current_range_meters":3600,"station_id":"ce4bgj92rcd13ifvqbd0","pricing_plan_id":"cebpf4jnsgd1na2vs0mg"},{"bike_id":"b52eef60-bbaa-4b9c-ab4f-f25ba6b34fba","system_id":"levelo_inurba_marseille","lat":43.296149,"lon":5.377124,"is_reserved":false,"is_disabled":false,"rental_uris":{"android":"levelo://app?vid=b52eef60-bbaa-4b9c-ab4f-f25ba6b34fba","ios":"levelo://app?vid=b52eef60-bbaa-4b9c-ab4f-f25ba6b34fba"},"vehicle_type_id":"4","last_reported":1713027829,"current_range_meters":0,"station_id":"ce4bgi92rcd13ifvqb90","pricing_plan_id":"cebpf4jnsgd1na2vs0mg"},{"bike_id":"bd51b2a1-fde0-4f0d-ba60-e3bfc2c79ee7","system_id":"levelo_inurba_marseille","lat":43.29612,"lon":5.3773,"is_reserved":false,"is_disabled":false,"rental_uris":{"android":"levelo://app?vid=bd51b2a1-fde0-4f0d-ba60-e3bfc2c79ee7","ios":"levelo://app?vid=bd51b2a1-fde0-4f0d-ba60-e3bfc2c79ee7"},"vehicle_type_id":"4","last_reported":1713027829,"current_range_meters":0,"station_id":"ce4bgi92rcd13ifvqb90","pricing_plan_id":"cebpf4jnsgd1na2vs0mg"},{"bike_id":"b16aadf5-abdf-472d-a46b-f651d592b48c","system_id":"levelo_inurba_marseille","lat":43.2961,"lon":5.37734,"is_reserved":false,"is_disabled":false,"rental_uris":{"android":"levelo://app?vid=b16aadf5-abdf-472d-a46b-f651d592b48c","ios":"levelo://app?vid=b16aadf5-abdf-472d-a46b-f651d592b48c"},"vehicle_type_id":"4","last_reported":1713027829,"current_range_meters":0,"station_id":"ce4bgi92rcd13ifvqb90","pricing_plan_id":"cebpf4jnsgd1na2vs0mg"},{"bike_id":"c990280e-6ec9-45f2-8446-d5c135ece8f3","system_id":"levelo_inurba_marseille","lat":43.29528,"lon":5.37498,"is_reserved":false,"is_disabled":false,"rental_uris":{"android":"levelo://app?vid=c990280e-6ec9-45f2-8446-d5c135ece8f3","ios":"levelo://app?vid=c990280e-6ec9-45f2-8446-d5c135ece8f3"},"vehicle_type_id":"4","last_reported":1713027829,"current_range_meters":16000,"station_id":"ce4bgkp2rcd13ifvqbmg","pricing_plan_id":"cebpf4jnsgd1na2vs0mg"},{"bike_id":"9c0c6a52-9e6b-4dc3-9f9f-e3fe5eaa65fd","system_id":"levelo_inurba_marseille","lat":43.299717,"lon":5.384845,"is_reserved":false,"is_disabled":false,"rental_uris":{"android":"levelo://app?vid=9c0c6a52-9e6b-4dc3-9f9f-e3fe5eaa65fd","ios":"levelo://app?vid=9c0c6a52-9e6b-4dc3-9f9f-e3fe5eaa65fd"},"vehicle_type_id":"4","last_reported":1713027829,"current_range_meters":2400,"station_id":"ce4bgj92rcd13ifvqbd0","pricing_plan_id":"cebpf4jnsgd1na2vs0mg"},{"bike_id":"c45b9630-dc0b-40fd-8dd8-871fda04b377","system_id":"levelo_inurba_marseille","lat":43.299717,"lon":5.384845,"is_reserved":false,"is_disabled":false,"rental_uris":{"android":"levelo://app?vid=c45b9630-dc0b-40fd-8dd8-871fda04b377","ios":"levelo://app?vid=c45b9630-dc0b-40fd-8dd8-871fda04b377"},"vehicle_type_id":"4","last_reported":1713027829,"current_range_meters":6000,"station_id":"ce4bgj92rcd13ifvqbd0","pricing_plan_id":"cebpf4jnsgd1na2vs0mg"},{"bike_id":"d8baea62-988e-4625-9c8f-6e995c5cf346","system_id":"levelo_inurba_marseille","lat":43.300695,"lon":5.386563,"is_reserved":false,"is_disabled":false,"rental_uris":{"android":"levelo://app?vid=d8baea62-988e-4625-9c8f-6e995c5cf346","ios":"levelo://app?vid=d8baea62-988e-4625-9c8f-6e995c5cf346"},"vehicle_type_id":"4","last_reported":1713027829,"current_range_meters":0,"station_id":"","pricing_plan_id":"cebpf4jnsgd1na2vs0mg"},{"bike_id":"17b61457-6c41-4569-b40a-224f7524ffea","system_id":"levelo_inurba_marseille","lat":43.32367,"lon":5.388836,"is_reserved":false,"is_disabled":false,"rental_uris":{"android":"levelo://app?vid=17b61457-6c41-4569-b40a-224f7524ffea","ios":"levelo://app?vid=17b61457-6c41-4569-b40a-224f7524ffea"},"vehicle_type_id":"4","last_reported":1713027829,"current_range_meters":3600,"station_id":"ce4bhqp2rcd13ifvqhog","pricing_plan_id":"cebpf4jnsgd1na2vs0mg"},{"bike_id":"a0f02e39-c58f-427a-882e-25a18f5eb643","system_id":"levelo_inurba_marseille","lat":43.29602,"lon":5.381084,"is_reserved":false,"is_disabled":false,"rental_uris":{"android":"levelo://app?vid=a0f02e39-c58f-427a-882e-25a18f5eb643","ios":"levelo://app?vid=a0f02e39-c58f-427a-882e-25a18f5eb643"},"vehicle_type_id":"4","last_reported":1713027829,"current_range_meters":1600,"station_id":"ce4bgl12rcd13ifvqbo0","pricing_plan_id":"cebpf4jnsgd1na2vs0mg"},{"bike_id":"aea5cef7-9436-4f8a-a261-2a5cf291dd8f","system_id":"levelo_inurba_marseille","lat":43.29602,"lon":5.381084,"is_reserved":false,"is_disabled":false,"rental_uris":{"android":"levelo://app?vid=aea5cef7-9436-4f8a-a261-2a5cf291dd8f","ios":"levelo://app?vid=aea5cef7-9436-4f8a-a261-2a5cf291dd8f"},"vehicle_type_id":"4","last_reported":1713027829,"current_range_meters":1600,"station_id":"ce4bgl12rcd13ifvqbo0","pricing_plan_id":"cebpf4jnsgd1na2vs0mg"},{"bike_id":"b05cd795-a5a6-4ca8-a876-732ab1b7ced4","system_id":"levelo_inurba_marseille","lat":43.29602,"lon":5.381084,"is_reserved":false,"is_disabled":false,"rental_uris":{"android":"levelo://app?vid=b05cd795-a5a6-4ca8-a876-732ab1b7ced4","ios":"levelo://app?vid=b05cd795-a5a6-4ca8-a876-732ab1b7ced4"},"vehicle_type_id":"4","last_reported":1713027829,"current_range_meters":4800,"station_id":"ce4bgl12rcd13ifvqbo0","pricing_plan_id":"cebpf4jnsgd1na2vs0mg"},{"bike_id":"16be6522-4ffe-44b7-a384-4b0ca8ebd8df","system_id":"levelo_inurba_marseille","lat":43.292749,"lon":5.368398,"is_reserved":false,"is_disabled":false,"rental_uris":{"android":"levelo://app?vid=16be6522-4ffe-44b7-a384-4b0ca8ebd8df","ios":"levelo://app?vid=16be6522-4ffe-44b7-a384-4b0ca8ebd8df"},"vehicle_type_id":"4","last_reported":1713027829,"current_range_meters":0,"station_id":"ce4bhbp2rcd13ifvqesg","pricing_plan_id":"cebpf4jnsgd1na2vs0mg"},{"bike_id":"98689da5-aa51-49cf-87ac-02a60fb5dbc2","system_id":"levelo_inurba_marseille","lat":43.292764,"lon":5.368482,"is_reserved":false,"is_disabled":false,"rental_uris":{"android":"levelo://app?vid=98689da5-aa51-49cf-87ac-02a60fb5dbc2","ios":"levelo://app?vid=98689da5-aa51-49cf-87ac-02a60fb5dbc2"},"vehicle_type_id":"4","last_reported":1713027829,"current_range_meters":0,"station_id":"ce4bhbp2rcd13ifvqesg","pricing_plan_id":"cebpf4jnsgd1na2vs0mg"},{"bike_id":"65b57e1a-2e11-497e-b0d1-71d5358a0d48","system_id":"levelo_inurba_marseille","lat":43.293249,"lon":5.371578,"is_reserved":false,"is_disabled":false,"rental_uris":{"android":"levelo://app?vid=65b57e1a-2e11-497e-b0d1-71d5358a0d48","ios":"levelo://app?vid=65b57e1a-2e11-497e-b0d1-71d5358a0d48"},"vehicle_type_id":"4","last_reported":1713027829,"current_range_meters":0,"station_id":"ce4bgh92rcd13ifvqb40","pricing_plan_id":"cebpf4jnsgd1na2vs0mg"},{"bike_id":"617664fd-7cfb-4f83-ad33-d83b8213189d","system_id":"levelo_inurba_marseille","lat":43.293009,"lon":5.374584,"is_reserved":false,"is_disabled":false,"rental_uris":{"android":"levelo://app?vid=617664fd-7cfb-4f83-ad33-d83b8213189d","ios":"levelo://app?vid=617664fd-7cfb-4f83-ad33-d83b8213189d"},"vehicle_type_id":"4","last_reported":1713027829,"current_range_meters":1600,"station_id":"ce4bgi12rcd13ifvqb70","pricing_plan_id":"cebpf4jnsgd1na2vs0mg"},{"bike_id":"fb75e36a-d0ec-4dd9-8eff-c143fa8d39a8","system_id":"levelo_inurba_marseille","lat":43.292749,"lon":5.368398,"is_reserved":false,"is_disabled":false,"rental_uris":{"android":"levelo://app?vid=fb75e36a-d0ec-4dd9-8eff-c143fa8d39a8","ios":"levelo://app?vid=fb75e36a-d0ec-4dd9-8eff-c143fa8d39a8"},"vehicle_type_id":"4","last_reported":1713027829,"current_range_meters":0,"station_id":"ce4bhbp2rcd13ifvqesg","pricing_plan_id":"cebpf4jnsgd1na2vs0mg"},{"bike_id":"08915538-1dd2-4517-b1ff-92b559377809","system_id":"levelo_inurba_marseille","lat":43.293249,"lon":5.371578,"is_reserved":false,"is_disabled":false,"rental_uris":{"android":"levelo://app?vid=08915538-1dd2-4517-b1ff-92b559377809","ios":"levelo://app?vid=08915538-1dd2-4517-b1ff-92b559377809"},"vehicle_type_id":"4","last_reported":1713027829,"current_range_meters":0,"station_id":"ce4bgh92rcd13ifvqb40","pricing_plan_id":"cebpf4jnsgd1na2vs0mg"},{"bike_id":"8c7b8283-ed1e-44bc-8253-3a1ba960272a","system_id":"levelo_inurba_marseille","lat":43.292693,"lon":5.368423,"is_reserved":false,"is_disabled":false,"rental_uris":{"android":"levelo://app?vid=8c7b8283-ed1e-44bc-8253-3a1ba960272a","ios":"levelo://app?vid=8c7b8283-ed1e-44bc-8253-3a1ba960272a"},"vehicle_type_id":"4","last_reported":1713027829,"current_range_meters":29200,"station_id":"ce4bhbp2rcd13ifvqesg","pricing_plan_id":"cebpf4jnsgd1na2vs0mg"},{"bike_id":"fb2e09af-7dfb-4d0f-bbb5-5f1c11c21c9a","system_id":"levelo_inurba_marseille","lat":43.291994,"lon":5.357886,"is_reserved":false,"is_disabled":false,"rental_uris":{"android":"levelo://app?vid=fb2e09af-7dfb-4d0f-bbb5-5f1c11c21c9a","ios":"levelo://app?vid=fb2e09af-7dfb-4d0f-bbb5-5f1c11c21c9a"},"vehicle_type_id":"4","last_reported":1713027829,"current_range_meters":2000,"station_id":"ce4bhb12rcd13ifvqel0","pricing_plan_id":"cebpf4jnsgd1na2vs0mg"},{"bike_id":"c27241a8-5296-43c2-af55-2791daedbb08","system_id":"levelo_inurba_marseille","lat":43.29241,"lon":5.3658,"is_reserved":false,"is_disabled":false,"rental_uris":{"android":"levelo://app?vid=c27241a8-5296-43c2-af55-2791daedbb08","ios":"levelo://app?vid=c27241a8-5296-43c2-af55-2791daedbb08"},"vehicle_type_id":"4","last_reported":1713027829,"current_range_meters":0,"station_id":"","pricing_plan_id":"cebpf4jnsgd1na2vs0mg"},{"bike_id":"5669cee3-ac7f-4cf4-9c6d-d37112c76b85","system_id":"levelo_inurba_marseille","lat":43.298037,"lon":5.381066,"is_reserved":false,"is_disabled":false,"rental_uris":{"android":"levelo://app?vid=5669cee3-ac7f-4cf4-9c6d-d37112c76b85","ios":"levelo://app?vid=5669cee3-ac7f-4cf4-9c6d-d37112c76b85"},"vehicle_type_id":"4","last_reported":1713027829,"current_range_meters":0,"station_id":"ce4bgip2rcd13ifvqbb0","pricing_plan_id":"cebpf4jnsgd1na2vs0mg"},{"bike_id":"33e6ce40-4d8e-4b74-8d3c-c9d0cfebd046","system_id":"levelo_inurba_marseille","lat":43.293009,"lon":5.374584,"is_reserved":false,"is_disabled":false,"rental_uris":{"android":"levelo://app?vid=33e6ce40-4d8e-4b74-8d3c-c9d0cfebd046","ios":"levelo://app?vid=33e6ce40-4d8e-4b74-8d3c-c9d0cfebd046"},"vehicle_type_id":"4","last_reported":1713027829,"current_range_meters":14400,"station_id":"ce4bgi12rcd13ifvqb70","pricing_plan_id":"cebpf4jnsgd1na2vs0mg"},{"bike_id":"40de11fe-c1f3-44ea-a3f6-4261335a1f87","system_id":"levelo_inurba_marseille","lat":43.330442,"lon":5.389148,"is_reserved":false,"is_disabled":false,"rental_uris":{"android":"levelo://app?vid=40de11fe-c1f3-44ea-a3f6-4261335a1f87","ios":"levelo://app?vid=40de11fe-c1f3-44ea-a3f6-4261335a1f87"},"vehicle_type_id":"4","last_reported":1713027829,"current_range_meters":8400,"station_id":"ce4bhr92rcd13ifvqhrg","pricing_plan_id":"cebpf4jnsgd1na2vs0mg"},{"bike_id":"34a9c1e7-4509-40ae-a3d3-1e2f9e3c4172","system_id":"levelo_inurba_marseille","lat":43.292311,"lon":5.360731,"is_reserved":false,"is_disabled":false,"rental_uris":{"android":"levelo://app?vid=34a9c1e7-4509-40ae-a3d3-1e2f9e3c4172","ios":"levelo://app?vid=34a9c1e7-4509-40ae-a3d3-1e2f9e3c4172"},"vehicle_type_id":"4","last_reported":1713027829,"current_range_meters":0,"station_id":"ce4bhbh2rcd13ifvqeqg","pricing_plan_id":"cebpf4jnsgd1na2vs0mg"},{"bike_id":"3810ab8a-7944-40b0-af30-0b9ff04c51dd","system_id":"levelo_inurba_marseille","lat":43.300852,"lon":5.390859,"is_reserved":false,"is_disabled":false,"rental_uris":{"android":"levelo://app?vid=3810ab8a-7944-40b0-af30-0b9ff04c51dd","ios":"levelo://app?vid=3810ab8a-7944-40b0-af30-0b9ff04c51dd"},"vehicle_type_id":"4","last_reported":1713027829,"current_range_meters":8400,"station_id":"ce4bh192rcd13ifvqdb0","pricing_plan_id":"cebpf4jnsgd1na2vs0mg"},{"bike_id":"19fe547a-0bdb-468f-a9d8-30c51b6d9678","system_id":"levelo_inurba_marseille","lat":43.319842,"lon":5.394213,"is_reserved":false,"is_disabled":false,"rental_uris":{"android":"levelo://app?vid=19fe547a-0bdb-468f-a9d8-30c51b6d9678","ios":"levelo://app?vid=19fe547a-0bdb-468f-a9d8-30c51b6d9678"},"vehicle_type_id":"4","last_reported":1713027829,"current_range_meters":5200,"station_id":"ce4bhqp2rcd13ifvqhng","pricing_plan_id":"cebpf4jnsgd1na2vs0mg"},{"bike_id":"5590541f-d301-47cc-b70f-2c315b0045a1","system_id":"levelo_inurba_marseille","lat":43.298755,"lon":5.389091,"is_reserved":false,"is_disabled":false,"rental_uris":{"android":"levelo://app?vid=5590541f-d301-47cc-b70f-2c315b0045a1","ios":"levelo://app?vid=5590541f-d301-47cc-b70f-2c315b0045a1"},"vehicle_type_id":"4","last_reported":1713027829,"current_range_meters":0,"station_id":"ce4bh392rcd13ifvqdl0","pricing_plan_id":"cebpf4jnsgd1na2vs0mg"},{"bike_id":"faf8c463-b402-4417-85f0-5705f67183e6","system_id":"levelo_inurba_marseille","lat":43.29872,"lon":5.38907,"is_reserved":false,"is_disabled":false,"rental_uris":{"android":"levelo://app?vid=faf8c463-b402-4417-85f0-5705f67183e6","ios":"levelo://app?vid=faf8c463-b402-4417-85f0-5705f67183e6"},"vehicle_type_id":"4","last_reported":1713027829,"current_range_meters":0,"station_id":"ce4bh392rcd13ifvqdl0","pricing_plan_id":"cebpf4jnsgd1na2vs0mg"},{"bike_id":"8cb3f49b-52a1-4499-9df5-e35b0cd44d2a","system_id":"levelo_inurba_marseille","lat":43.291994,"lon":5.392907,"is_reserved":false,"is_disabled":false,"rental_uris":{"android":"levelo://app?vid=8cb3f49b-52a1-4499-9df5-e35b0cd44d2a","ios":"levelo://app?vid=8cb3f49b-52a1-4499-9df5-e35b0cd44d2a"},"vehicle_type_id":"4","last_reported":1713027829,"current_range_meters":9200,"station_id":"ce4bh192rcd13ifvqdd0","pricing_plan_id":"cebpf4jnsgd1na2vs0mg"},{"bike_id":"67fe3386-0e9e-47a7-881a-3f34b358553a","system_id":"levelo_inurba_marseille","lat":43.31331,"lon":5.39686,"is_reserved":false,"is_disabled":false,"rental_uris":{"android":"levelo://app?vid=67fe3386-0e9e-47a7-881a-3f34b358553a","ios":"levelo://app?vid=67fe3386-0e9e-47a7-881a-3f34b358553a"},"vehicle_type_id":"4","last_reported":1713027829,"current_range_meters":8000,"station_id":"ce4bgvp2rcd13ifvqcu0","pricing_plan_id":"cebpf4jnsgd1na2vs0mg"},{"bike_id":"79af9e8f-b8a1-496e-9dc8-c91c130354b3","system_id":"levelo_inurba_marseille","lat":43.313291,"lon":5.396838,"is_reserved":false,"is_disabled":false,"rental_uris":{"android":"levelo://app?vid=79af9e8f-b8a1-496e-9dc8-c91c130354b3","ios":"levelo://app?vid=79af9e8f-b8a1-496e-9dc8-c91c130354b3"},"vehicle_type_id":"4","last_reported":1713027829,"current_range_meters":14000,"station_id":"ce4bgvp2rcd13ifvqcu0","pricing_plan_id":"cebpf4jnsgd1na2vs0mg"},{"bike_id":"5e7d3815-b303-423a-8af6-fb61573e34e9","system_id":"levelo_inurba_marseille","lat":43.313291,"lon":5.396838,"is_reserved":false,"is_disabled":false,"rental_uris":{"android":"levelo://app?vid=5e7d3815-b303-423a-8af6-fb61573e34e9","ios":"levelo://app?vid=5e7d3815-b303-423a-8af6-fb61573e34e9"},"vehicle_type_id":"4","last_reported":1713027829,"current_range_meters":2000,"station_id":"ce4bgvp2rcd13ifvqcu0","pricing_plan_id":"cebpf4jnsgd1na2vs0mg"},{"bike_id":"0a8e639d-401f-4f12-9ce9-b9091d1d4a0e","system_id":"levelo_inurba_marseille","lat":43.309038,"lon":5.396546,"is_reserved":false,"is_disabled":false,"rental_uris":{"android":"levelo://app?vid=0a8e639d-401f-4f12-9ce9-b9091d1d4a0e","ios":"levelo://app?vid=0a8e639d-401f-4f12-9ce9-b9091d1d4a0e"},"vehicle_type_id":"4","last_reported":1713027829,"current_range_meters":4800,"station_id":"ce4bh012rcd13ifvqcv0","pricing_plan_id":"cebpf4jnsgd1na2vs0mg"},{"bike_id":"6af5e98b-2f70-4a52-9570-5df10805e8a6","system_id":"levelo_inurba_marseille","lat":43.29529,"lon":5.385581,"is_reserved":false,"is_disabled":false,"rental_uris":{"android":"levelo://app?vid=6af5e98b-2f70-4a52-9570-5df10805e8a6","ios":"levelo://app?vid=6af5e98b-2f70-4a52-9570-5df10805e8a6"},"vehicle_type_id":"4","last_reported":1713027829,"current_range_meters":2800,"station_id":"ce4bgih2rcd13ifvqba0","pricing_plan_id":"cebpf4jnsgd1na2vs0mg"},{"bike_id":"0a63dec3-d8f6-474f-9c2d-e788143b03ab","system_id":"levelo_inurba_marseille","lat":43.29529,"lon":5.385581,"is_reserved":false,"is_disabled":false,"rental_uris":{"android":"levelo://app?vid=0a63dec3-d8f6-474f-9c2d-e788143b03ab","ios":"levelo://app?vid=0a63dec3-d8f6-474f-9c2d-e788143b03ab"},"vehicle_type_id":"4","last_reported":1713027829,"current_range_meters":14400,"station_id":"ce4bgih2rcd13ifvqba0","pricing_plan_id":"cebpf4jnsgd1na2vs0mg"},{"bike_id":"0b0f23b4-ad71-4a2f-a3b1-47533aa5af6f","system_id":"levelo_inurba_marseille","lat":43.29064,"lon":5.37162,"is_reserved":false,"is_disabled":false,"rental_uris":{"android":"levelo://app?vid=0b0f23b4-ad71-4a2f-a3b1-47533aa5af6f","ios":"levelo://app?vid=0b0f23b4-ad71-4a2f-a3b1-47533aa5af6f"},"vehicle_type_id":"4","last_reported":1713027829,"current_range_meters":0,"station_id":"ce4bh5p2rcd13ifvqe4g","pricing_plan_id":"cebpf4jnsgd1na2vs0mg"},{"bike_id":"5e252c1e-5ee4-4392-8065-e8ea2f5e3bd8","system_id":"levelo_inurba_marseille","lat":43.29046,"lon":5.37148,"is_reserved":false,"is_disabled":false,"rental_uris":{"android":"levelo://app?vid=5e252c1e-5ee4-4392-8065-e8ea2f5e3bd8","ios":"levelo://app?vid=5e252c1e-5ee4-4392-8065-e8ea2f5e3bd8"},"vehicle_type_id":"4","last_reported":1713027829,"current_range_meters":0,"station_id":"ce4bh5p2rcd13ifvqe4g","pricing_plan_id":"cebpf4jnsgd1na2vs0mg"},{"bike_id":"48c9d3ee-a7fe-4252-81aa-a20ff32f1822","system_id":"levelo_inurba_marseille","lat":43.302008,"lon":5.394694,"is_reserved":false,"is_disabled":false,"rental_uris":{"android":"levelo://app?vid=48c9d3ee-a7fe-4252-81aa-a20ff32f1822","ios":"levelo://app?vid=48c9d3ee-a7fe-4252-81aa-a20ff32f1822"},"vehicle_type_id":"4","last_reported":1713027829,"current_range_meters":5600,"station_id":"ce4bh0p2rcd13ifvqd70","pricing_plan_id":"cebpf4jnsgd1na2vs0mg"},{"bike_id":"76dad52e-fe6e-4c57-927c-83985ca6804e","system_id":"levelo_inurba_marseille","lat":43.290631,"lon":5.359244,"is_reserved":false,"is_disabled":false,"rental_uris":{"android":"levelo://app?vid=76dad52e-fe6e-4c57-927c-83985ca6804e","ios":"levelo://app?vid=76dad52e-fe6e-4c57-927c-83985ca6804e"},"vehicle_type_id":"4","last_reported":1713027829,"current_range_meters":1200,"station_id":"ce4bha92rcd13ifvqeg0","pricing_plan_id":"cebpf4jnsgd1na2vs0mg"},{"bike_id":"98f2e3fe-8441-4fd9-89a8-37f0095747dc","system_id":"levelo_inurba_marseille","lat":43.290327,"lon":5.375711,"is_reserved":false,"is_disabled":false,"rental_uris":{"android":"levelo://app?vid=98f2e3fe-8441-4fd9-89a8-37f0095747dc","ios":"levelo://app?vid=98f2e3fe-8441-4fd9-89a8-37f0095747dc"},"vehicle_type_id":"4","last_reported":1713027829,"current_range_meters":18000,"station_id":"ce4bh692rcd13ifvqe90","pricing_plan_id":"cebpf4jnsgd1na2vs0mg"},{"bike_id":"209b7fb7-f6b4-44f6-a7a2-642b4923fd94","system_id":"levelo_inurba_marseille","lat":43.290319,"lon":5.375732,"is_reserved":false,"is_disabled":false,"rental_uris":{"android":"levelo://app?vid=209b7fb7-f6b4-44f6-a7a2-642b4923fd94","ios":"levelo://app?vid=209b7fb7-f6b4-44f6-a7a2-642b4923fd94"},"vehicle_type_id":"4","last_reported":1713027829,"current_range_meters":0,"station_id":"ce4bh692rcd13ifvqe90","pricing_plan_id":"cebpf4jnsgd1na2vs0mg"},{"bike_id":"cf3aa2f7-5307-44a1-8736-9b8e75c21054","system_id":"levelo_inurba_marseille","lat":43.294153,"lon":5.386305,"is_reserved":false,"is_disabled":false,"rental_uris":{"android":"levelo://app?vid=cf3aa2f7-5307-44a1-8736-9b8e75c21054","ios":"levelo://app?vid=cf3aa2f7-5307-44a1-8736-9b8e75c21054"},"vehicle_type_id":"4","last_reported":1713027829,"current_range_meters":3200,"station_id":"ce4bh2h2rcd13ifvqdh0","pricing_plan_id":"cebpf4jnsgd1na2vs0mg"},{"bike_id":"fb15521d-843f-4f9e-b264-6a99da4bb169","system_id":"levelo_inurba_marseille","lat":43.294153,"lon":5.386305,"is_reserved":false,"is_disabled":false,"rental_uris":{"android":"levelo://app?vid=fb15521d-843f-4f9e-b264-6a99da4bb169","ios":"levelo://app?vid=fb15521d-843f-4f9e-b264-6a99da4bb169"},"vehicle_type_id":"4","last_reported":1713027829,"current_range_meters":4000,"station_id":"ce4bh2h2rcd13ifvqdh0","pricing_plan_id":"cebpf4jnsgd1na2vs0mg"},{"bike_id":"61bbb26f-d0a3-49cd-b8cd-3586c8af0221","system_id":"levelo_inurba_marseille","lat":43.294153,"lon":5.386305,"is_reserved":false,"is_disabled":false,"rental_uris":{"android":"levelo://app?vid=61bbb26f-d0a3-49cd-b8cd-3586c8af0221","ios":"levelo://app?vid=61bbb26f-d0a3-49cd-b8cd-3586c8af0221"},"vehicle_type_id":"4","last_reported":1713027829,"current_range_meters":6800,"station_id":"ce4bh2h2rcd13ifvqdh0","pricing_plan_id":"cebpf4jnsgd1na2vs0mg"},{"bike_id":"f32ad56f-3211-4903-b661-a3e4cea62f2c","system_id":"levelo_inurba_marseille","lat":43.294224,"lon":5.386282,"is_reserved":false,"is_disabled":false,"rental_uris":{"android":"levelo://app?vid=f32ad56f-3211-4903-b661-a3e4cea62f2c","ios":"levelo://app?vid=f32ad56f-3211-4903-b661-a3e4cea62f2c"},"vehicle_type_id":"4","last_reported":1713027829,"current_range_meters":0,"station_id":"ce4bh2h2rcd13ifvqdh0","pricing_plan_id":"cebpf4jnsgd1na2vs0mg"},{"bike_id":"62ff4134-cba4-4be5-84b1-1a6d8bfbb690","system_id":"levelo_inurba_marseille","lat":43.294153,"lon":5.386305,"is_reserved":false,"is_disabled":false,"rental_uris":{"android":"levelo://app?vid=62ff4134-cba4-4be5-84b1-1a6d8bfbb690","ios":"levelo://app?vid=62ff4134-cba4-4be5-84b1-1a6d8bfbb690"},"vehicle_type_id":"4","last_reported":1713027829,"current_range_meters":800,"station_id":"ce4bh2h2rcd13ifvqdh0","pricing_plan_id":"cebpf4jnsgd1na2vs0mg"},{"bike_id":"eec38546-366a-4866-9b3c-b50884a94066","system_id":"levelo_inurba_marseille","lat":43.29418,"lon":5.38625,"is_reserved":false,"is_disabled":false,"rental_uris":{"android":"levelo://app?vid=eec38546-366a-4866-9b3c-b50884a94066","ios":"levelo://app?vid=eec38546-366a-4866-9b3c-b50884a94066"},"vehicle_type_id":"4","last_reported":1713027829,"current_range_meters":9200,"station_id":"ce4bh2h2rcd13ifvqdh0","pricing_plan_id":"cebpf4jnsgd1na2vs0mg"},{"bike_id":"02384a88-3e97-4452-ace3-832f62fd4ee4","system_id":"levelo_inurba_marseille","lat":43.2942,"lon":5.38632,"is_reserved":false,"is_disabled":false,"rental_uris":{"android":"levelo://app?vid=02384a88-3e97-4452-ace3-832f62fd4ee4","ios":"levelo://app?vid=02384a88-3e97-4452-ace3-832f62fd4ee4"},"vehicle_type_id":"4","last_reported":1713027829,"current_range_meters":6400,"station_id":"ce4bh2h2rcd13ifvqdh0","pricing_plan_id":"cebpf4jnsgd1na2vs0mg"},{"bike_id":"bcabd74e-e12f-417c-ab50-dfbfe9280532","system_id":"levelo_inurba_marseille","lat":43.29417,"lon":5.38633,"is_reserved":false,"is_disabled":false,"rental_uris":{"android":"levelo://app?vid=bcabd74e-e12f-417c-ab50-dfbfe9280532","ios":"levelo://app?vid=bcabd74e-e12f-417c-ab50-dfbfe9280532"},"vehicle_type_id":"4","last_reported":1713027829,"current_range_meters":0,"station_id":"ce4bh2h2rcd13ifvqdh0","pricing_plan_id":"cebpf4jnsgd1na2vs0mg"},{"bike_id":"77e54ce3-63bc-425c-a9ae-9d2b3b47cba6","system_id":"levelo_inurba_marseille","lat":43.294138,"lon":5.38631,"is_reserved":false,"is_disabled":false,"rental_uris":{"android":"levelo://app?vid=77e54ce3-63bc-425c-a9ae-9d2b3b47cba6","ios":"levelo://app?vid=77e54ce3-63bc-425c-a9ae-9d2b3b47cba6"},"vehicle_type_id":"4","last_reported":1713027829,"current_range_meters":0,"station_id":"ce4bh2h2rcd13ifvqdh0","pricing_plan_id":"cebpf4jnsgd1na2vs0mg"},{"bike_id":"d607e47a-4844-4637-bd51-22dae9aa8681","system_id":"levelo_inurba_marseille","lat":43.289184,"lon":5.366408,"is_reserved":false,"is_disabled":false,"rental_uris":{"android":"levelo://app?vid=d607e47a-4844-4637-bd51-22dae9aa8681","ios":"levelo://app?vid=d607e47a-4844-4637-bd51-22dae9aa8681"},"vehicle_type_id":"4","last_reported":1713027829,"current_range_meters":0,"station_id":"ce4bhap2rcd13ifvqek0","pricing_plan_id":"cebpf4jnsgd1na2vs0mg"},{"bike_id":"cb950bb0-95f0-47ae-9dff-084c00c2c4e8","system_id":"levelo_inurba_marseille","lat":43.295169,"lon":5.390426,"is_reserved":false,"is_disabled":false,"rental_uris":{"android":"levelo://app?vid=cb950bb0-95f0-47ae-9dff-084c00c2c4e8","ios":"levelo://app?vid=cb950bb0-95f0-47ae-9dff-084c00c2c4e8"},"vehicle_type_id":"4","last_reported":1713027829,"current_range_meters":0,"station_id":"ce4bh3p2rcd13ifvqdp0","pricing_plan_id":"cebpf4jnsgd1na2vs0mg"},{"bike_id":"3cea5216-04e0-4d5c-8301-51883850cf87","system_id":"levelo_inurba_marseille","lat":43.304296,"lon":5.397513,"is_reserved":false,"is_disabled":false,"rental_uris":{"android":"levelo://app?vid=3cea5216-04e0-4d5c-8301-51883850cf87","ios":"levelo://app?vid=3cea5216-04e0-4d5c-8301-51883850cf87"},"vehicle_type_id":"4","last_reported":1713027829,"current_range_meters":24800,"station_id":"ce4bh092rcd13ifvqd20","pricing_plan_id":"cebpf4jnsgd1na2vs0mg"},{"bike_id":"5c74c5af-5597-48a5-ad7d-dd9bdff1844f","system_id":"levelo_inurba_marseille","lat":43.292644,"lon":5.384257,"is_reserved":false,"is_disabled":false,"rental_uris":{"android":"levelo://app?vid=5c74c5af-5597-48a5-ad7d-dd9bdff1844f","ios":"levelo://app?vid=5c74c5af-5597-48a5-ad7d-dd9bdff1844f"},"vehicle_type_id":"4","last_reported":1713027829,"current_range_meters":21600,"station_id":"ce4bh692rcd13ifvqea0","pricing_plan_id":"cebpf4jnsgd1na2vs0mg"},{"bike_id":"5b79b014-bc1d-4c29-8119-6fbdb0e75a74","system_id":"levelo_inurba_marseille","lat":43.292634,"lon":5.384522,"is_reserved":false,"is_disabled":false,"rental_uris":{"android":"levelo://app?vid=5b79b014-bc1d-4c29-8119-6fbdb0e75a74","ios":"levelo://app?vid=5b79b014-bc1d-4c29-8119-6fbdb0e75a74"},"vehicle_type_id":"4","last_reported":1713027829,"current_range_meters":0,"station_id":"ce4bh692rcd13ifvqea0","pricing_plan_id":"cebpf4jnsgd1na2vs0mg"},{"bike_id":"7918718f-1800-419d-9d8e-3e36d1f4b6c6","system_id":"levelo_inurba_marseille","lat":43.304274,"lon":5.397513,"is_reserved":false,"is_disabled":false,"rental_uris":{"android":"levelo://app?vid=7918718f-1800-419d-9d8e-3e36d1f4b6c6","ios":"levelo://app?vid=7918718f-1800-419d-9d8e-3e36d1f4b6c6"},"vehicle_type_id":"4","last_reported":1713027829,"current_range_meters":22400,"station_id":"ce4bh092rcd13ifvqd20","pricing_plan_id":"cebpf4jnsgd1na2vs0mg"},{"bike_id":"afe019dc-3d20-4dad-b1b8-1ce76172f362","system_id":"levelo_inurba_marseille","lat":43.292644,"lon":5.384257,"is_reserved":false,"is_disabled":false,"rental_uris":{"android":"levelo://app?vid=afe019dc-3d20-4dad-b1b8-1ce76172f362","ios":"levelo://app?vid=afe019dc-3d20-4dad-b1b8-1ce76172f362"},"vehicle_type_id":"4","last_reported":1713027829,"current_range_meters":0,"station_id":"ce4bh692rcd13ifvqea0","pricing_plan_id":"cebpf4jnsgd1na2vs0mg"},{"bike_id":"4f1a4650-f608-4e53-9799-f82d92cd0c5d","system_id":"levelo_inurba_marseille","lat":43.29006,"lon":5.35612,"is_reserved":false,"is_disabled":false,"rental_uris":{"android":"levelo://app?vid=4f1a4650-f608-4e53-9799-f82d92cd0c5d","ios":"levelo://app?vid=4f1a4650-f608-4e53-9799-f82d92cd0c5d"},"vehicle_type_id":"4","last_reported":1713027829,"current_range_meters":0,"station_id":"ce4bhb92rcd13ifvqen0","pricing_plan_id":"cebpf4jnsgd1na2vs0mg"},{"bike_id":"415d5010-f095-4582-bf27-869e196a5a22","system_id":"levelo_inurba_marseille","lat":43.290103,"lon":5.356114,"is_reserved":false,"is_disabled":false,"rental_uris":{"android":"levelo://app?vid=415d5010-f095-4582-bf27-869e196a5a22","ios":"levelo://app?vid=415d5010-f095-4582-bf27-869e196a5a22"},"vehicle_type_id":"4","last_reported":1713027829,"current_range_meters":0,"station_id":"ce4bhb92rcd13ifvqen0","pricing_plan_id":"cebpf4jnsgd1na2vs0mg"},{"bike_id":"e2eae617-70e4-4266-bcf8-eca0cd237266","system_id":"levelo_inurba_marseille","lat":43.290995,"lon":5.381361,"is_reserved":false,"is_disabled":false,"rental_uris":{"android":"levelo://app?vid=e2eae617-70e4-4266-bcf8-eca0cd237266","ios":"levelo://app?vid=e2eae617-70e4-4266-bcf8-eca0cd237266"},"vehicle_type_id":"4","last_reported":1713027829,"current_range_meters":31200,"station_id":"ce4bh512rcd13ifvqe2g","pricing_plan_id":"cebpf4jnsgd1na2vs0mg"},{"bike_id":"784b514e-aec4-47bf-a088-cc5ea8a325ec","system_id":"levelo_inurba_marseille","lat":43.290995,"lon":5.381361,"is_reserved":false,"is_disabled":false,"rental_uris":{"android":"levelo://app?vid=784b514e-aec4-47bf-a088-cc5ea8a325ec","ios":"levelo://app?vid=784b514e-aec4-47bf-a088-cc5ea8a325ec"},"vehicle_type_id":"4","last_reported":1713027829,"current_range_meters":0,"station_id":"ce4bh512rcd13ifvqe2g","pricing_plan_id":"cebpf4jnsgd1na2vs0mg"},{"bike_id":"c3152b45-fac3-40a1-8bdd-682cfd0bf8ca","system_id":"levelo_inurba_marseille","lat":43.290995,"lon":5.381361,"is_reserved":false,"is_disabled":false,"rental_uris":{"android":"levelo://app?vid=c3152b45-fac3-40a1-8bdd-682cfd0bf8ca","ios":"levelo://app?vid=c3152b45-fac3-40a1-8bdd-682cfd0bf8ca"},"vehicle_type_id":"4","last_reported":1713027829,"current_range_meters":2800,"station_id":"ce4bh512rcd13ifvqe2g","pricing_plan_id":"cebpf4jnsgd1na2vs0mg"},{"bike_id":"82276360-6c90-4b28-a422-5b262a875134","system_id":"levelo_inurba_marseille","lat":43.29092,"lon":5.38142,"is_reserved":false,"is_disabled":false,"rental_uris":{"android":"levelo://app?vid=82276360-6c90-4b28-a422-5b262a875134","ios":"levelo://app?vid=82276360-6c90-4b28-a422-5b262a875134"},"vehicle_type_id":"4","last_reported":1713027829,"current_range_meters":0,"station_id":"ce4bh512rcd13ifvqe2g","pricing_plan_id":"cebpf4jnsgd1na2vs0mg"},{"bike_id":"3de4a342-f7ff-4034-b30e-e900f82aeb54","system_id":"levelo_inurba_marseille","lat":43.290995,"lon":5.381361,"is_reserved":false,"is_disabled":false,"rental_uris":{"android":"levelo://app?vid=3de4a342-f7ff-4034-b30e-e900f82aeb54","ios":"levelo://app?vid=3de4a342-f7ff-4034-b30e-e900f82aeb54"},"vehicle_type_id":"4","last_reported":1713027829,"current_range_meters":0,"station_id":"ce4bh512rcd13ifvqe2g","pricing_plan_id":"cebpf4jnsgd1na2vs0mg"},{"bike_id":"af2b75d2-d7a0-4075-826f-fb3ecf853c7f","system_id":"levelo_inurba_marseille","lat":43.254945,"lon":5.376454,"is_reserved":false,"is_disabled":false,"rental_uris":{"android":"levelo://app?vid=af2b75d2-d7a0-4075-826f-fb3ecf853c7f","ios":"levelo://app?vid=af2b75d2-d7a0-4075-826f-fb3ecf853c7f"},"vehicle_type_id":"4","last_reported":1713027829,"current_range_meters":5200,"station_id":"ce4bhh12rcd13ifvqff0","pricing_plan_id":"cebpf4jnsgd1na2vs0mg"},{"bike_id":"c710b520-538d-4f08-b9bb-373a020ebd3a","system_id":"levelo_inurba_marseille","lat":43.297815,"lon":5.393548,"is_reserved":false,"is_disabled":false,"rental_uris":{"android":"levelo://app?vid=c710b520-538d-4f08-b9bb-373a020ebd3a","ios":"levelo://app?vid=c710b520-538d-4f08-b9bb-373a020ebd3a"},"vehicle_type_id":"4","last_reported":1713027829,"current_range_meters":14800,"station_id":"chh1huq6cuj3fo74tm60","pricing_plan_id":"cebpf4jnsgd1na2vs0mg"},{"bike_id":"5a9da201-e880-4911-b5b9-24ceefb08c3d","system_id":"levelo_inurba_marseille","lat":43.29787,"lon":5.39342,"is_reserved":false,"is_disabled":false,"rental_uris":{"android":"levelo://app?vid=5a9da201-e880-4911-b5b9-24ceefb08c3d","ios":"levelo://app?vid=5a9da201-e880-4911-b5b9-24ceefb08c3d"},"vehicle_type_id":"4","last_reported":1713027829,"current_range_meters":8400,"station_id":"chh1huq6cuj3fo74tm60","pricing_plan_id":"cebpf4jnsgd1na2vs0mg"},{"bike_id":"aad570c8-2878-4b4e-9ec3-ae0420a766eb","system_id":"levelo_inurba_marseille","lat":43.289743,"lon":5.378304,"is_reserved":false,"is_disabled":false,"rental_uris":{"android":"levelo://app?vid=aad570c8-2878-4b4e-9ec3-ae0420a766eb","ios":"levelo://app?vid=aad570c8-2878-4b4e-9ec3-ae0420a766eb"},"vehicle_type_id":"4","last_reported":1713027829,"current_range_meters":0,"station_id":"ce4bh9p2rcd13ifvqed0","pricing_plan_id":"cebpf4jnsgd1na2vs0mg"},{"bike_id":"56b8dad8-e7ec-4c83-ae73-93d5992ddfc4","system_id":"levelo_inurba_marseille","lat":43.330442,"lon":5.389148,"is_reserved":false,"is_disabled":false,"rental_uris":{"android":"levelo://app?vid=56b8dad8-e7ec-4c83-ae73-93d5992ddfc4","ios":"levelo://app?vid=56b8dad8-e7ec-4c83-ae73-93d5992ddfc4"},"vehicle_type_id":"4","last_reported":1713027829,"current_range_meters":23200,"station_id":"ce4bhr92rcd13ifvqhrg","pricing_plan_id":"cebpf4jnsgd1na2vs0mg"},{"bike_id":"cd9cdd86-a7e9-46bc-80be-0f6d0663c71c","system_id":"levelo_inurba_marseille","lat":43.330442,"lon":5.389148,"is_reserved":false,"is_disabled":false,"rental_uris":{"android":"levelo://app?vid=cd9cdd86-a7e9-46bc-80be-0f6d0663c71c","ios":"levelo://app?vid=cd9cdd86-a7e9-46bc-80be-0f6d0663c71c"},"vehicle_type_id":"4","last_reported":1713027829,"current_range_meters":4800,"station_id":"ce4bhr92rcd13ifvqhrg","pricing_plan_id":"cebpf4jnsgd1na2vs0mg"},{"bike_id":"d36baa55-e0c1-4e4a-8fbd-e75a58e60f4e","system_id":"levelo_inurba_marseille","lat":43.330442,"lon":5.389148,"is_reserved":false,"is_disabled":false,"rental_uris":{"android":"levelo://app?vid=d36baa55-e0c1-4e4a-8fbd-e75a58e60f4e","ios":"levelo://app?vid=d36baa55-e0c1-4e4a-8fbd-e75a58e60f4e"},"vehicle_type_id":"4","last_reported":1713027829,"current_range_meters":3600,"station_id":"ce4bhr92rcd13ifvqhrg","pricing_plan_id":"cebpf4jnsgd1na2vs0mg"},{"bike_id":"ce0f0707-9869-4ee0-97f8-fce4165cbf9c","system_id":"levelo_inurba_marseille","lat":43.295169,"lon":5.390426,"is_reserved":false,"is_disabled":false,"rental_uris":{"android":"levelo://app?vid=ce0f0707-9869-4ee0-97f8-fce4165cbf9c","ios":"levelo://app?vid=ce0f0707-9869-4ee0-97f8-fce4165cbf9c"},"vehicle_type_id":"4","last_reported":1713027829,"current_range_meters":6000,"station_id":"ce4bh3p2rcd13ifvqdp0","pricing_plan_id":"cebpf4jnsgd1na2vs0mg"},{"bike_id":"0ffc5085-cb96-4981-bc25-91c4ad6b340c","system_id":"levelo_inurba_marseille","lat":43.295169,"lon":5.390426,"is_reserved":false,"is_disabled":false,"rental_uris":{"android":"levelo://app?vid=0ffc5085-cb96-4981-bc25-91c4ad6b340c","ios":"levelo://app?vid=0ffc5085-cb96-4981-bc25-91c4ad6b340c"},"vehicle_type_id":"4","last_reported":1713027829,"current_range_meters":1600,"station_id":"ce4bh3p2rcd13ifvqdp0","pricing_plan_id":"cebpf4jnsgd1na2vs0mg"},{"bike_id":"22e7f781-5a4d-4c4c-b9f0-88c5767a4e25","system_id":"levelo_inurba_marseille","lat":43.292644,"lon":5.384257,"is_reserved":false,"is_disabled":false,"rental_uris":{"android":"levelo://app?vid=22e7f781-5a4d-4c4c-b9f0-88c5767a4e25","ios":"levelo://app?vid=22e7f781-5a4d-4c4c-b9f0-88c5767a4e25"},"vehicle_type_id":"4","last_reported":1713027829,"current_range_meters":26800,"station_id":"ce4bh692rcd13ifvqea0","pricing_plan_id":"cebpf4jnsgd1na2vs0mg"},{"bike_id":"2cc2a59f-2378-48ae-9eac-0c82c0510caa","system_id":"levelo_inurba_marseille","lat":43.288473,"lon":5.35857,"is_reserved":false,"is_disabled":false,"rental_uris":{"android":"levelo://app?vid=2cc2a59f-2378-48ae-9eac-0c82c0510caa","ios":"levelo://app?vid=2cc2a59f-2378-48ae-9eac-0c82c0510caa"},"vehicle_type_id":"4","last_reported":1713027829,"current_range_meters":0,"station_id":"ce4bhb12rcd13ifvqem0","pricing_plan_id":"cebpf4jnsgd1na2vs0mg"},{"bike_id":"23c222d8-6f79-4746-97eb-e26706bf6014","system_id":"levelo_inurba_marseille","lat":43.312609,"lon":5.401662,"is_reserved":false,"is_disabled":false,"rental_uris":{"android":"levelo://app?vid=23c222d8-6f79-4746-97eb-e26706bf6014","ios":"levelo://app?vid=23c222d8-6f79-4746-97eb-e26706bf6014"},"vehicle_type_id":"4","last_reported":1713027829,"current_range_meters":6000,"station_id":"ce4bh092rcd13ifvqd30","pricing_plan_id":"cebpf4jnsgd1na2vs0mg"},{"bike_id":"c0ff7e7e-deaa-416a-8c35-126ddcde366a","system_id":"levelo_inurba_marseille","lat":43.312609,"lon":5.401662,"is_reserved":false,"is_disabled":false,"rental_uris":{"android":"levelo://app?vid=c0ff7e7e-deaa-416a-8c35-126ddcde366a","ios":"levelo://app?vid=c0ff7e7e-deaa-416a-8c35-126ddcde366a"},"vehicle_type_id":"4","last_reported":1713027829,"current_range_meters":400,"station_id":"ce4bh092rcd13ifvqd30","pricing_plan_id":"cebpf4jnsgd1na2vs0mg"},{"bike_id":"d3ea26f4-7d4d-45b7-8172-0133ecd9329b","system_id":"levelo_inurba_marseille","lat":43.337583,"lon":5.374545,"is_reserved":false,"is_disabled":false,"rental_uris":{"android":"levelo://app?vid=d3ea26f4-7d4d-45b7-8172-0133ecd9329b","ios":"levelo://app?vid=d3ea26f4-7d4d-45b7-8172-0133ecd9329b"},"vehicle_type_id":"4","last_reported":1713027829,"current_range_meters":24800,"station_id":"","pricing_plan_id":"cebpf4jnsgd1na2vs0mg"},{"bike_id":"38ee1843-ba6d-43ff-9a22-e01a582f481c","system_id":"levelo_inurba_marseille","lat":43.30636,"lon":5.40095,"is_reserved":false,"is_disabled":false,"rental_uris":{"android":"levelo://app?vid=38ee1843-ba6d-43ff-9a22-e01a582f481c","ios":"levelo://app?vid=38ee1843-ba6d-43ff-9a22-e01a582f481c"},"vehicle_type_id":"4","last_reported":1713027829,"current_range_meters":1600,"station_id":"ce4bh112rcd13ifvqda0","pricing_plan_id":"cebpf4jnsgd1na2vs0mg"},{"bike_id":"5ce9ac23-9f5b-4e80-9f44-353925db2bef","system_id":"levelo_inurba_marseille","lat":43.306412,"lon":5.401035,"is_reserved":false,"is_disabled":false,"rental_uris":{"android":"levelo://app?vid=5ce9ac23-9f5b-4e80-9f44-353925db2bef","ios":"levelo://app?vid=5ce9ac23-9f5b-4e80-9f44-353925db2bef"},"vehicle_type_id":"4","last_reported":1713027829,"current_range_meters":4000,"station_id":"ce4bh112rcd13ifvqda0","pricing_plan_id":"cebpf4jnsgd1na2vs0mg"},{"bike_id":"b1d999ff-63db-406e-912a-0140cab7f384","system_id":"levelo_inurba_marseille","lat":43.298681,"lon":5.397225,"is_reserved":false,"is_disabled":false,"rental_uris":{"android":"levelo://app?vid=b1d999ff-63db-406e-912a-0140cab7f384","ios":"levelo://app?vid=b1d999ff-63db-406e-912a-0140cab7f384"},"vehicle_type_id":"4","last_reported":1713027829,"current_range_meters":0,"station_id":"ce4bh0h2rcd13ifvqd50","pricing_plan_id":"cebpf4jnsgd1na2vs0mg"},{"bike_id":"a8fed374-a5e3-4ff1-a99c-c6fbefe8468e","system_id":"levelo_inurba_marseille","lat":43.298681,"lon":5.397225,"is_reserved":false,"is_disabled":false,"rental_uris":{"android":"levelo://app?vid=a8fed374-a5e3-4ff1-a99c-c6fbefe8468e","ios":"levelo://app?vid=a8fed374-a5e3-4ff1-a99c-c6fbefe8468e"},"vehicle_type_id":"4","last_reported":1713027829,"current_range_meters":3200,"station_id":"ce4bh0h2rcd13ifvqd50","pricing_plan_id":"cebpf4jnsgd1na2vs0mg"},{"bike_id":"41bc4d58-6619-4e9d-9d65-881109cb9c63","system_id":"levelo_inurba_marseille","lat":43.28705,"lon":5.37385,"is_reserved":false,"is_disabled":false,"rental_uris":{"android":"levelo://app?vid=41bc4d58-6619-4e9d-9d65-881109cb9c63","ios":"levelo://app?vid=41bc4d58-6619-4e9d-9d65-881109cb9c63"},"vehicle_type_id":"4","last_reported":1713027829,"current_range_meters":0,"station_id":"ce4bh3p2rcd13ifvqdq0","pricing_plan_id":"cebpf4jnsgd1na2vs0mg"},{"bike_id":"fee49a43-d4f0-4e50-a9f5-b146fb285e32","system_id":"levelo_inurba_marseille","lat":43.28698,"lon":5.37394,"is_reserved":false,"is_disabled":false,"rental_uris":{"android":"levelo://app?vid=fee49a43-d4f0-4e50-a9f5-b146fb285e32","ios":"levelo://app?vid=fee49a43-d4f0-4e50-a9f5-b146fb285e32"},"vehicle_type_id":"4","last_reported":1713027829,"current_range_meters":0,"station_id":"ce4bh3p2rcd13ifvqdq0","pricing_plan_id":"cebpf4jnsgd1na2vs0mg"},{"bike_id":"945cdae9-3d92-43bb-857c-c213679d5210","system_id":"levelo_inurba_marseille","lat":43.295194,"lon":5.39397,"is_reserved":false,"is_disabled":false,"rental_uris":{"android":"levelo://app?vid=945cdae9-3d92-43bb-857c-c213679d5210","ios":"levelo://app?vid=945cdae9-3d92-43bb-857c-c213679d5210"},"vehicle_type_id":"4","last_reported":1713027829,"current_range_meters":11600,"station_id":"ce4bh292rcd13ifvqdf0","pricing_plan_id":"cebpf4jnsgd1na2vs0mg"},{"bike_id":"d1424a07-dc18-4613-8461-bbc4518e0571","system_id":"levelo_inurba_marseille","lat":43.302759,"lon":5.400793,"is_reserved":false,"is_disabled":false,"rental_uris":{"android":"levelo://app?vid=d1424a07-dc18-4613-8461-bbc4518e0571","ios":"levelo://app?vid=d1424a07-dc18-4613-8461-bbc4518e0571"},"vehicle_type_id":"4","last_reported":1713027829,"current_range_meters":0,"station_id":"ce4bgvh2rcd13ifvqcs0","pricing_plan_id":"cebpf4jnsgd1na2vs0mg"},{"bike_id":"f9ededdc-5ee7-42d9-ad84-3b4649c0c57f","system_id":"levelo_inurba_marseille","lat":43.290345,"lon":5.38646,"is_reserved":false,"is_disabled":false,"rental_uris":{"android":"levelo://app?vid=f9ededdc-5ee7-42d9-ad84-3b4649c0c57f","ios":"levelo://app?vid=f9ededdc-5ee7-42d9-ad84-3b4649c0c57f"},"vehicle_type_id":"4","last_reported":1713027829,"current_range_meters":22800,"station_id":"ce4bh4p2rcd13ifvqe0g","pricing_plan_id":"cebpf4jnsgd1na2vs0mg"},{"bike_id":"90085009-a1f1-4185-87c1-2feb06b484e8","system_id":"levelo_inurba_marseille","lat":43.290345,"lon":5.38646,"is_reserved":false,"is_disabled":false,"rental_uris":{"android":"levelo://app?vid=90085009-a1f1-4185-87c1-2feb06b484e8","ios":"levelo://app?vid=90085009-a1f1-4185-87c1-2feb06b484e8"},"vehicle_type_id":"4","last_reported":1713027829,"current_range_meters":0,"station_id":"ce4bh4p2rcd13ifvqe0g","pricing_plan_id":"cebpf4jnsgd1na2vs0mg"},{"bike_id":"13247ae1-50fb-4d67-ba92-0b5302c8c6dc","system_id":"levelo_inurba_marseille","lat":43.289307,"lon":5.38406,"is_reserved":false,"is_disabled":false,"rental_uris":{"android":"levelo://app?vid=13247ae1-50fb-4d67-ba92-0b5302c8c6dc","ios":"levelo://app?vid=13247ae1-50fb-4d67-ba92-0b5302c8c6dc"},"vehicle_type_id":"4","last_reported":1713027829,"current_range_meters":3200,"station_id":"ce4bh612rcd13ifvqe6g","pricing_plan_id":"cebpf4jnsgd1na2vs0mg"},{"bike_id":"dcd4c935-69a5-430e-8700-0f72b70919a2","system_id":"levelo_inurba_marseille","lat":43.290345,"lon":5.38646,"is_reserved":false,"is_disabled":false,"rental_uris":{"android":"levelo://app?vid=dcd4c935-69a5-430e-8700-0f72b70919a2","ios":"levelo://app?vid=dcd4c935-69a5-430e-8700-0f72b70919a2"},"vehicle_type_id":"4","last_reported":1713027829,"current_range_meters":5600,"station_id":"ce4bh4p2rcd13ifvqe0g","pricing_plan_id":"cebpf4jnsgd1na2vs0mg"},{"bike_id":"b3b234da-32f4-47fa-bced-1a973561a853","system_id":"levelo_inurba_marseille","lat":43.289307,"lon":5.38406,"is_reserved":false,"is_disabled":false,"rental_uris":{"android":"levelo://app?vid=b3b234da-32f4-47fa-bced-1a973561a853","ios":"levelo://app?vid=b3b234da-32f4-47fa-bced-1a973561a853"},"vehicle_type_id":"4","last_reported":1713027829,"current_range_meters":4800,"station_id":"ce4bh612rcd13ifvqe6g","pricing_plan_id":"cebpf4jnsgd1na2vs0mg"},{"bike_id":"92a6b6b1-6bb3-4ab3-8fb9-b70d33e4961c","system_id":"levelo_inurba_marseille","lat":43.290336,"lon":5.386425,"is_reserved":false,"is_disabled":false,"rental_uris":{"android":"levelo://app?vid=92a6b6b1-6bb3-4ab3-8fb9-b70d33e4961c","ios":"levelo://app?vid=92a6b6b1-6bb3-4ab3-8fb9-b70d33e4961c"},"vehicle_type_id":"4","last_reported":1713027829,"current_range_meters":5200,"station_id":"ce4bh4p2rcd13ifvqe0g","pricing_plan_id":"cebpf4jnsgd1na2vs0mg"},{"bike_id":"23c24373-d024-4afe-b5c7-7eae0bd2bd14","system_id":"levelo_inurba_marseille","lat":43.302491,"lon":5.400685,"is_reserved":false,"is_disabled":false,"rental_uris":{"android":"levelo://app?vid=23c24373-d024-4afe-b5c7-7eae0bd2bd14","ios":"levelo://app?vid=23c24373-d024-4afe-b5c7-7eae0bd2bd14"},"vehicle_type_id":"4","last_reported":1713027829,"current_range_meters":0,"station_id":"ce4bgh92rcd13ifvqb40","pricing_plan_id":"cebpf4jnsgd1na2vs0mg"},{"bike_id":"5838b3e0-faf9-44f9-adc0-1eb5944f002a","system_id":"levelo_inurba_marseille","lat":43.286039,"lon":5.370679,"is_reserved":false,"is_disabled":false,"rental_uris":{"android":"levelo://app?vid=5838b3e0-faf9-44f9-adc0-1eb5944f002a","ios":"levelo://app?vid=5838b3e0-faf9-44f9-adc0-1eb5944f002a"},"vehicle_type_id":"4","last_reported":1713027829,"current_range_meters":16800,"station_id":"ce4bht12rcd13ifvqi60","pricing_plan_id":"cebpf4jnsgd1na2vs0mg"},{"bike_id":"75afafa3-1760-4ec8-ad63-b93f0ee837fd","system_id":"levelo_inurba_marseille","lat":43.287184,"lon":5.37937,"is_reserved":false,"is_disabled":false,"rental_uris":{"android":"levelo://app?vid=75afafa3-1760-4ec8-ad63-b93f0ee837fd","ios":"levelo://app?vid=75afafa3-1760-4ec8-ad63-b93f0ee837fd"},"vehicle_type_id":"4","last_reported":1713027829,"current_range_meters":1600,"station_id":"ce4bh9p2rcd13ifvqec0","pricing_plan_id":"cebpf4jnsgd1na2vs0mg"},{"bike_id":"52b073c2-6725-46a4-a517-c25735d9132d","system_id":"levelo_inurba_marseille","lat":43.287185,"lon":5.379373,"is_reserved":false,"is_disabled":false,"rental_uris":{"android":"levelo://app?vid=52b073c2-6725-46a4-a517-c25735d9132d","ios":"levelo://app?vid=52b073c2-6725-46a4-a517-c25735d9132d"},"vehicle_type_id":"4","last_reported":1713027829,"current_range_meters":0,"station_id":"ce4bh9p2rcd13ifvqec0","pricing_plan_id":"cebpf4jnsgd1na2vs0mg"},{"bike_id":"75a7df37-00e5-4a4f-8833-a20457736778","system_id":"levelo_inurba_marseille","lat":43.316828,"lon":5.404723,"is_reserved":false,"is_disabled":false,"rental_uris":{"android":"levelo://app?vid=75a7df37-00e5-4a4f-8833-a20457736778","ios":"levelo://app?vid=75a7df37-00e5-4a4f-8833-a20457736778"},"vehicle_type_id":"4","last_reported":1713027829,"current_range_meters":4800,"station_id":"ce4bh012rcd13ifvqd00","pricing_plan_id":"cebpf4jnsgd1na2vs0mg"},{"bike_id":"08578390-1a7e-4783-89da-f0fe069e2d37","system_id":"levelo_inurba_marseille","lat":43.316821,"lon":5.404737,"is_reserved":false,"is_disabled":false,"rental_uris":{"android":"levelo://app?vid=08578390-1a7e-4783-89da-f0fe069e2d37","ios":"levelo://app?vid=08578390-1a7e-4783-89da-f0fe069e2d37"},"vehicle_type_id":"4","last_reported":1713027829,"current_range_meters":28800,"station_id":"ce4bh012rcd13ifvqd00","pricing_plan_id":"cebpf4jnsgd1na2vs0mg"},{"bike_id":"33a1d37d-1097-4517-a6ec-61972a254a37","system_id":"levelo_inurba_marseille","lat":43.316833,"lon":5.404897,"is_reserved":false,"is_disabled":false,"rental_uris":{"android":"levelo://app?vid=33a1d37d-1097-4517-a6ec-61972a254a37","ios":"levelo://app?vid=33a1d37d-1097-4517-a6ec-61972a254a37"},"vehicle_type_id":"4","last_reported":1713027829,"current_range_meters":12000,"station_id":"ce4bh012rcd13ifvqd00","pricing_plan_id":"cebpf4jnsgd1na2vs0mg"},{"bike_id":"d900a918-9aa4-427c-aa24-f7ee15938d99","system_id":"levelo_inurba_marseille","lat":43.330442,"lon":5.389148,"is_reserved":false,"is_disabled":false,"rental_uris":{"android":"levelo://app?vid=d900a918-9aa4-427c-aa24-f7ee15938d99","ios":"levelo://app?vid=d900a918-9aa4-427c-aa24-f7ee15938d99"},"vehicle_type_id":"4","last_reported":1713027829,"current_range_meters":15200,"station_id":"ce4bhr92rcd13ifvqhrg","pricing_plan_id":"cebpf4jnsgd1na2vs0mg"},{"bike_id":"d4afcdcb-a09c-4e1e-ae74-172b2347c5c0","system_id":"levelo_inurba_marseille","lat":43.291994,"lon":5.392907,"is_reserved":false,"is_disabled":false,"rental_uris":{"android":"levelo://app?vid=d4afcdcb-a09c-4e1e-ae74-172b2347c5c0","ios":"levelo://app?vid=d4afcdcb-a09c-4e1e-ae74-172b2347c5c0"},"vehicle_type_id":"4","last_reported":1713027829,"current_range_meters":16000,"station_id":"ce4bh192rcd13ifvqdd0","pricing_plan_id":"cebpf4jnsgd1na2vs0mg"},{"bike_id":"26934918-50a6-49b7-808e-6491a94a46c8","system_id":"levelo_inurba_marseille","lat":43.291994,"lon":5.392907,"is_reserved":false,"is_disabled":false,"rental_uris":{"android":"levelo://app?vid=26934918-50a6-49b7-808e-6491a94a46c8","ios":"levelo://app?vid=26934918-50a6-49b7-808e-6491a94a46c8"},"vehicle_type_id":"4","last_reported":1713027829,"current_range_meters":12000,"station_id":"ce4bh192rcd13ifvqdd0","pricing_plan_id":"cebpf4jnsgd1na2vs0mg"},{"bike_id":"375aff79-c228-4eca-aed4-d48f72d93fa7","system_id":"levelo_inurba_marseille","lat":43.319179,"lon":5.407725,"is_reserved":false,"is_disabled":false,"rental_uris":{"android":"levelo://app?vid=375aff79-c228-4eca-aed4-d48f72d93fa7","ios":"levelo://app?vid=375aff79-c228-4eca-aed4-d48f72d93fa7"},"vehicle_type_id":"4","last_reported":1713027829,"current_range_meters":2000,"station_id":"ce4bhq12rcd13ifvqhig","pricing_plan_id":"cebpf4jnsgd1na2vs0mg"},{"bike_id":"4ac9aed7-ff16-4c14-b741-1e9d800fdeaa","system_id":"levelo_inurba_marseille","lat":43.28617,"lon":5.35102,"is_reserved":false,"is_disabled":false,"rental_uris":{"android":"levelo://app?vid=4ac9aed7-ff16-4c14-b741-1e9d800fdeaa","ios":"levelo://app?vid=4ac9aed7-ff16-4c14-b741-1e9d800fdeaa"},"vehicle_type_id":"4","last_reported":1713027829,"current_range_meters":0,"station_id":"ce4bhch2rcd13ifvqeug","pricing_plan_id":"cebpf4jnsgd1na2vs0mg"},{"bike_id":"9f2c5a17-dbe4-4ca0-8623-2f5078f22719","system_id":"levelo_inurba_marseille","lat":43.28616,"lon":5.35103,"is_reserved":false,"is_disabled":false,"rental_uris":{"android":"levelo://app?vid=9f2c5a17-dbe4-4ca0-8623-2f5078f22719","ios":"levelo://app?vid=9f2c5a17-dbe4-4ca0-8623-2f5078f22719"},"vehicle_type_id":"4","last_reported":1713027829,"current_range_meters":0,"station_id":"ce4bhch2rcd13ifvqeug","pricing_plan_id":"cebpf4jnsgd1na2vs0mg"},{"bike_id":"e92f7893-22ad-4936-8f3a-fb1ce950ceff","system_id":"levelo_inurba_marseille","lat":43.28614,"lon":5.351,"is_reserved":false,"is_disabled":false,"rental_uris":{"android":"levelo://app?vid=e92f7893-22ad-4936-8f3a-fb1ce950ceff","ios":"levelo://app?vid=e92f7893-22ad-4936-8f3a-fb1ce950ceff"},"vehicle_type_id":"4","last_reported":1713027829,"current_range_meters":0,"station_id":"ce4bhch2rcd13ifvqeug","pricing_plan_id":"cebpf4jnsgd1na2vs0mg"},{"bike_id":"8ad021f6-5e01-425e-a39c-857eea708fab","system_id":"levelo_inurba_marseille","lat":43.291994,"lon":5.392907,"is_reserved":false,"is_disabled":false,"rental_uris":{"android":"levelo://app?vid=8ad021f6-5e01-425e-a39c-857eea708fab","ios":"levelo://app?vid=8ad021f6-5e01-425e-a39c-857eea708fab"},"vehicle_type_id":"4","last_reported":1713027829,"current_range_meters":22000,"station_id":"ce4bh192rcd13ifvqdd0","pricing_plan_id":"cebpf4jnsgd1na2vs0mg"},{"bike_id":"7a2371b8-8f09-441a-8f01-5c08ca2b50cf","system_id":"levelo_inurba_marseille","lat":43.286595,"lon":5.386795,"is_reserved":false,"is_disabled":false,"rental_uris":{"android":"levelo://app?vid=7a2371b8-8f09-441a-8f01-5c08ca2b50cf","ios":"levelo://app?vid=7a2371b8-8f09-441a-8f01-5c08ca2b50cf"},"vehicle_type_id":"4","last_reported":1713027829,"current_range_meters":3600,"station_id":"ce4bh492rcd13ifvqdug","pricing_plan_id":"cebpf4jnsgd1na2vs0mg"},{"bike_id":"e1937b44-4f8e-414c-b28e-2959d2c54585","system_id":"levelo_inurba_marseille","lat":43.286595,"lon":5.386795,"is_reserved":false,"is_disabled":false,"rental_uris":{"android":"levelo://app?vid=e1937b44-4f8e-414c-b28e-2959d2c54585","ios":"levelo://app?vid=e1937b44-4f8e-414c-b28e-2959d2c54585"},"vehicle_type_id":"4","last_reported":1713027829,"current_range_meters":400,"station_id":"ce4bh492rcd13ifvqdug","pricing_plan_id":"cebpf4jnsgd1na2vs0mg"},{"bike_id":"514a8e11-f06c-4a86-8978-d828d343af90","system_id":"levelo_inurba_marseille","lat":43.286595,"lon":5.386795,"is_reserved":false,"is_disabled":false,"rental_uris":{"android":"levelo://app?vid=514a8e11-f06c-4a86-8978-d828d343af90","ios":"levelo://app?vid=514a8e11-f06c-4a86-8978-d828d343af90"},"vehicle_type_id":"4","last_reported":1713027829,"current_range_meters":24400,"station_id":"ce4bh492rcd13ifvqdug","pricing_plan_id":"cebpf4jnsgd1na2vs0mg"},{"bike_id":"6b353f42-caee-4cc1-9fb1-5688ebb1bf50","system_id":"levelo_inurba_marseille","lat":43.319179,"lon":5.407725,"is_reserved":false,"is_disabled":false,"rental_uris":{"android":"levelo://app?vid=6b353f42-caee-4cc1-9fb1-5688ebb1bf50","ios":"levelo://app?vid=6b353f42-caee-4cc1-9fb1-5688ebb1bf50"},"vehicle_type_id":"4","last_reported":1713027829,"current_range_meters":6800,"station_id":"ce4bhq12rcd13ifvqhig","pricing_plan_id":"cebpf4jnsgd1na2vs0mg"},{"bike_id":"c78441d6-26a8-4762-9555-eed367143d34","system_id":"levelo_inurba_marseille","lat":43.319179,"lon":5.407725,"is_reserved":false,"is_disabled":false,"rental_uris":{"android":"levelo://app?vid=c78441d6-26a8-4762-9555-eed367143d34","ios":"levelo://app?vid=c78441d6-26a8-4762-9555-eed367143d34"},"vehicle_type_id":"4","last_reported":1713027829,"current_range_meters":1600,"station_id":"ce4bhq12rcd13ifvqhig","pricing_plan_id":"cebpf4jnsgd1na2vs0mg"},{"bike_id":"11ac603b-2891-45af-8e0b-4fc0839527e8","system_id":"levelo_inurba_marseille","lat":43.323464,"lon":5.406297,"is_reserved":false,"is_disabled":false,"rental_uris":{"android":"levelo://app?vid=11ac603b-2891-45af-8e0b-4fc0839527e8","ios":"levelo://app?vid=11ac603b-2891-45af-8e0b-4fc0839527e8"},"vehicle_type_id":"4","last_reported":1713027829,"current_range_meters":6400,"station_id":"ce4bhq92rcd13ifvqhjg","pricing_plan_id":"cebpf4jnsgd1na2vs0mg"},{"bike_id":"639be11f-809b-4926-9b4f-e48b46f43c03","system_id":"levelo_inurba_marseille","lat":43.28484,"lon":5.38422,"is_reserved":false,"is_disabled":false,"rental_uris":{"android":"levelo://app?vid=639be11f-809b-4926-9b4f-e48b46f43c03","ios":"levelo://app?vid=639be11f-809b-4926-9b4f-e48b46f43c03"},"vehicle_type_id":"4","last_reported":1713027829,"current_range_meters":0,"station_id":"ce4bh512rcd13ifvqe3g","pricing_plan_id":"cebpf4jnsgd1na2vs0mg"},{"bike_id":"f5ac26b6-56fa-4b58-8919-8c6d02ce85dd","system_id":"levelo_inurba_marseille","lat":43.297946,"lon":5.404063,"is_reserved":false,"is_disabled":false,"rental_uris":{"android":"levelo://app?vid=f5ac26b6-56fa-4b58-8919-8c6d02ce85dd","ios":"levelo://app?vid=f5ac26b6-56fa-4b58-8919-8c6d02ce85dd"},"vehicle_type_id":"4","last_reported":1713027829,"current_range_meters":17200,"station_id":"ce4bh112rcd13ifvqd90","pricing_plan_id":"cebpf4jnsgd1na2vs0mg"},{"bike_id":"df47d4f9-dbcc-491e-9e82-d2700dfe2529","system_id":"levelo_inurba_marseille","lat":43.28467,"lon":5.38413,"is_reserved":false,"is_disabled":false,"rental_uris":{"android":"levelo://app?vid=df47d4f9-dbcc-491e-9e82-d2700dfe2529","ios":"levelo://app?vid=df47d4f9-dbcc-491e-9e82-d2700dfe2529"},"vehicle_type_id":"4","last_reported":1713027829,"current_range_meters":0,"station_id":"ce4bh512rcd13ifvqe3g","pricing_plan_id":"cebpf4jnsgd1na2vs0mg"},{"bike_id":"4231e44f-6e64-47d9-802b-1946e9c53ecf","system_id":"levelo_inurba_marseille","lat":43.32532,"lon":5.40558,"is_reserved":false,"is_disabled":false,"rental_uris":{"android":"levelo://app?vid=4231e44f-6e64-47d9-802b-1946e9c53ecf","ios":"levelo://app?vid=4231e44f-6e64-47d9-802b-1946e9c53ecf"},"vehicle_type_id":"4","last_reported":1713027829,"current_range_meters":4400,"station_id":"","pricing_plan_id":"cebpf4jnsgd1na2vs0mg"},{"bike_id":"d9ca1156-ced6-4c3a-8439-a241fabfb770","system_id":"levelo_inurba_marseille","lat":43.32533,"lon":5.40562,"is_reserved":false,"is_disabled":false,"rental_uris":{"android":"levelo://app?vid=d9ca1156-ced6-4c3a-8439-a241fabfb770","ios":"levelo://app?vid=d9ca1156-ced6-4c3a-8439-a241fabfb770"},"vehicle_type_id":"4","last_reported":1713027829,"current_range_meters":8400,"station_id":"","pricing_plan_id":"cebpf4jnsgd1na2vs0mg"},{"bike_id":"7b01e74e-0183-4f57-a68d-3da972284d84","system_id":"levelo_inurba_marseille","lat":43.29795,"lon":5.404086,"is_reserved":false,"is_disabled":false,"rental_uris":{"android":"levelo://app?vid=7b01e74e-0183-4f57-a68d-3da972284d84","ios":"levelo://app?vid=7b01e74e-0183-4f57-a68d-3da972284d84"},"vehicle_type_id":"4","last_reported":1713027829,"current_range_meters":0,"station_id":"ce4bh112rcd13ifvqd90","pricing_plan_id":"cebpf4jnsgd1na2vs0mg"},{"bike_id":"9220796c-850a-4542-af32-b23061a1144d","system_id":"levelo_inurba_marseille","lat":43.288501,"lon":5.393087,"is_reserved":false,"is_disabled":false,"rental_uris":{"android":"levelo://app?vid=9220796c-850a-4542-af32-b23061a1144d","ios":"levelo://app?vid=9220796c-850a-4542-af32-b23061a1144d"},"vehicle_type_id":"4","last_reported":1713027829,"current_range_meters":0,"station_id":"ce4bh2p2rcd13ifvqdi0","pricing_plan_id":"cebpf4jnsgd1na2vs0mg"},{"bike_id":"16354239-de35-43ca-875c-92bb4a5ace82","system_id":"levelo_inurba_marseille","lat":43.32534,"lon":5.40567,"is_reserved":false,"is_disabled":false,"rental_uris":{"android":"levelo://app?vid=16354239-de35-43ca-875c-92bb4a5ace82","ios":"levelo://app?vid=16354239-de35-43ca-875c-92bb4a5ace82"},"vehicle_type_id":"4","last_reported":1713027829,"current_range_meters":23600,"station_id":"","pricing_plan_id":"cebpf4jnsgd1na2vs0mg"},{"bike_id":"2d5980fa-ce47-4e23-8448-bc7dbf91f13f","system_id":"levelo_inurba_marseille","lat":43.283494,"lon":5.380945,"is_reserved":false,"is_disabled":false,"rental_uris":{"android":"levelo://app?vid=2d5980fa-ce47-4e23-8448-bc7dbf91f13f","ios":"levelo://app?vid=2d5980fa-ce47-4e23-8448-bc7dbf91f13f"},"vehicle_type_id":"4","last_reported":1713027829,"current_range_meters":0,"station_id":"ce4bh412rcd13ifvqdr0","pricing_plan_id":"cebpf4jnsgd1na2vs0mg"},{"bike_id":"0906bb2a-45c7-44de-bb91-d1d3fa1de9d2","system_id":"levelo_inurba_marseille","lat":43.28432,"lon":5.34986,"is_reserved":false,"is_disabled":false,"rental_uris":{"android":"levelo://app?vid=0906bb2a-45c7-44de-bb91-d1d3fa1de9d2","ios":"levelo://app?vid=0906bb2a-45c7-44de-bb91-d1d3fa1de9d2"},"vehicle_type_id":"4","last_reported":1713027829,"current_range_meters":0,"station_id":"ce4bhbh2rcd13ifvqepg","pricing_plan_id":"cebpf4jnsgd1na2vs0mg"},{"bike_id":"c7fd384a-977b-4fd1-b1e5-104252fca4cf","system_id":"levelo_inurba_marseille","lat":43.28426,"lon":5.34984,"is_reserved":false,"is_disabled":false,"rental_uris":{"android":"levelo://app?vid=c7fd384a-977b-4fd1-b1e5-104252fca4cf","ios":"levelo://app?vid=c7fd384a-977b-4fd1-b1e5-104252fca4cf"},"vehicle_type_id":"4","last_reported":1713027829,"current_range_meters":0,"station_id":"ce4bhbh2rcd13ifvqepg","pricing_plan_id":"cebpf4jnsgd1na2vs0mg"},{"bike_id":"cfb6735d-d685-493d-ad9d-f34fd0a4abfc","system_id":"levelo_inurba_marseille","lat":43.28386,"lon":5.384175,"is_reserved":false,"is_disabled":false,"rental_uris":{"android":"levelo://app?vid=cfb6735d-d685-493d-ad9d-f34fd0a4abfc","ios":"levelo://app?vid=cfb6735d-d685-493d-ad9d-f34fd0a4abfc"},"vehicle_type_id":"4","last_reported":1713027829,"current_range_meters":0,"station_id":"","pricing_plan_id":"cebpf4jnsgd1na2vs0mg"},{"bike_id":"13fe7737-aad7-4a60-b786-1f01d47261bf","system_id":"levelo_inurba_marseille","lat":43.289363,"lon":5.396322,"is_reserved":false,"is_disabled":false,"rental_uris":{"android":"levelo://app?vid=13fe7737-aad7-4a60-b786-1f01d47261bf","ios":"levelo://app?vid=13fe7737-aad7-4a60-b786-1f01d47261bf"},"vehicle_type_id":"4","last_reported":1713027829,"current_range_meters":6400,"station_id":"ce4bh3h2rcd13ifvqdn0","pricing_plan_id":"cebpf4jnsgd1na2vs0mg"},{"bike_id":"93771f3b-f732-4857-9045-5487a6390df8","system_id":"levelo_inurba_marseille","lat":43.289363,"lon":5.396322,"is_reserved":false,"is_disabled":false,"rental_uris":{"android":"levelo://app?vid=93771f3b-f732-4857-9045-5487a6390df8","ios":"levelo://app?vid=93771f3b-f732-4857-9045-5487a6390df8"},"vehicle_type_id":"4","last_reported":1713027829,"current_range_meters":23600,"station_id":"ce4bh3h2rcd13ifvqdn0","pricing_plan_id":"cebpf4jnsgd1na2vs0mg"},{"bike_id":"0ef069b2-defa-41fd-a7d0-0825cd6475c5","system_id":"levelo_inurba_marseille","lat":43.289363,"lon":5.396322,"is_reserved":false,"is_disabled":false,"rental_uris":{"android":"levelo://app?vid=0ef069b2-defa-41fd-a7d0-0825cd6475c5","ios":"levelo://app?vid=0ef069b2-defa-41fd-a7d0-0825cd6475c5"},"vehicle_type_id":"4","last_reported":1713027829,"current_range_meters":2800,"station_id":"ce4bh3h2rcd13ifvqdn0","pricing_plan_id":"cebpf4jnsgd1na2vs0mg"},{"bike_id":"2b0801b1-91a4-41f6-8b01-4d249d5792d6","system_id":"levelo_inurba_marseille","lat":43.323464,"lon":5.406297,"is_reserved":false,"is_disabled":false,"rental_uris":{"android":"levelo://app?vid=2b0801b1-91a4-41f6-8b01-4d249d5792d6","ios":"levelo://app?vid=2b0801b1-91a4-41f6-8b01-4d249d5792d6"},"vehicle_type_id":"4","last_reported":1713027829,"current_range_meters":9200,"station_id":"ce4bhq92rcd13ifvqhjg","pricing_plan_id":"cebpf4jnsgd1na2vs0mg"},{"bike_id":"55ecacfa-8f74-4564-8e8f-0c44a9bef24c","system_id":"levelo_inurba_marseille","lat":43.281922,"lon":5.378392,"is_reserved":false,"is_disabled":false,"rental_uris":{"android":"levelo://app?vid=55ecacfa-8f74-4564-8e8f-0c44a9bef24c","ios":"levelo://app?vid=55ecacfa-8f74-4564-8e8f-0c44a9bef24c"},"vehicle_type_id":"4","last_reported":1713027829,"current_range_meters":5600,"station_id":"ce4bha12rcd13ifvqee0","pricing_plan_id":"cebpf4jnsgd1na2vs0mg"},{"bike_id":"7b8543bd-93b5-43b2-863c-7c23914f428d","system_id":"levelo_inurba_marseille","lat":43.29279,"lon":5.40124,"is_reserved":false,"is_disabled":false,"rental_uris":{"android":"levelo://app?vid=7b8543bd-93b5-43b2-863c-7c23914f428d","ios":"levelo://app?vid=7b8543bd-93b5-43b2-863c-7c23914f428d"},"vehicle_type_id":"4","last_reported":1713027829,"current_range_meters":0,"station_id":"ce4bh312rcd13ifvqdk0","pricing_plan_id":"cebpf4jnsgd1na2vs0mg"},{"bike_id":"113efc77-937b-4c40-9949-535d4de99897","system_id":"levelo_inurba_marseille","lat":43.28277,"lon":5.35065,"is_reserved":false,"is_disabled":false,"rental_uris":{"android":"levelo://app?vid=113efc77-937b-4c40-9949-535d4de99897","ios":"levelo://app?vid=113efc77-937b-4c40-9949-535d4de99897"},"vehicle_type_id":"4","last_reported":1713027829,"current_range_meters":0,"station_id":"ce4bhbp2rcd13ifvqerg","pricing_plan_id":"cebpf4jnsgd1na2vs0mg"},{"bike_id":"3b462549-0580-40a6-803c-200960c0bbaf","system_id":"levelo_inurba_marseille","lat":43.282773,"lon":5.350573,"is_reserved":false,"is_disabled":false,"rental_uris":{"android":"levelo://app?vid=3b462549-0580-40a6-803c-200960c0bbaf","ios":"levelo://app?vid=3b462549-0580-40a6-803c-200960c0bbaf"},"vehicle_type_id":"4","last_reported":1713027829,"current_range_meters":0,"station_id":"ce4bhbp2rcd13ifvqerg","pricing_plan_id":"cebpf4jnsgd1na2vs0mg"},{"bike_id":"03f0f3f2-07c3-4af7-bd83-7843cb20b85e","system_id":"levelo_inurba_marseille","lat":43.28272,"lon":5.35062,"is_reserved":false,"is_disabled":false,"rental_uris":{"android":"levelo://app?vid=03f0f3f2-07c3-4af7-bd83-7843cb20b85e","ios":"levelo://app?vid=03f0f3f2-07c3-4af7-bd83-7843cb20b85e"},"vehicle_type_id":"4","last_reported":1713027829,"current_range_meters":0,"station_id":"ce4bhbp2rcd13ifvqerg","pricing_plan_id":"cebpf4jnsgd1na2vs0mg"},{"bike_id":"10e85f19-d2b8-4a3d-bf7a-ba73e5030c69","system_id":"levelo_inurba_marseille","lat":43.30085,"lon":5.390856,"is_reserved":false,"is_disabled":false,"rental_uris":{"android":"levelo://app?vid=10e85f19-d2b8-4a3d-bf7a-ba73e5030c69","ios":"levelo://app?vid=10e85f19-d2b8-4a3d-bf7a-ba73e5030c69"},"vehicle_type_id":"4","last_reported":1713027829,"current_range_meters":12800,"station_id":"ce4bh192rcd13ifvqdb0","pricing_plan_id":"cebpf4jnsgd1na2vs0mg"},{"bike_id":"d1c7c110-a95e-4f6b-920c-e28167bb70ee","system_id":"levelo_inurba_marseille","lat":43.283502,"lon":5.386471,"is_reserved":false,"is_disabled":false,"rental_uris":{"android":"levelo://app?vid=d1c7c110-a95e-4f6b-920c-e28167bb70ee","ios":"levelo://app?vid=d1c7c110-a95e-4f6b-920c-e28167bb70ee"},"vehicle_type_id":"4","last_reported":1713027829,"current_range_meters":2400,"station_id":"ce4bh492rcd13ifvqdvg","pricing_plan_id":"cebpf4jnsgd1na2vs0mg"},{"bike_id":"f2081ebc-41e6-4dd3-9496-30c0cfad33e1","system_id":"levelo_inurba_marseille","lat":43.295713,"lon":5.399639,"is_reserved":false,"is_disabled":false,"rental_uris":{"android":"levelo://app?vid=f2081ebc-41e6-4dd3-9496-30c0cfad33e1","ios":"levelo://app?vid=f2081ebc-41e6-4dd3-9496-30c0cfad33e1"},"vehicle_type_id":"4","last_reported":1713027829,"current_range_meters":3600,"station_id":"ce4bh312rcd13ifvqdj0","pricing_plan_id":"cebpf4jnsgd1na2vs0mg"},{"bike_id":"8c642a52-7378-499b-aeba-b4ba5e5d80e2","system_id":"levelo_inurba_marseille","lat":43.283502,"lon":5.386471,"is_reserved":false,"is_disabled":false,"rental_uris":{"android":"levelo://app?vid=8c642a52-7378-499b-aeba-b4ba5e5d80e2","ios":"levelo://app?vid=8c642a52-7378-499b-aeba-b4ba5e5d80e2"},"vehicle_type_id":"4","last_reported":1713027829,"current_range_meters":4000,"station_id":"ce4bh492rcd13ifvqdvg","pricing_plan_id":"cebpf4jnsgd1na2vs0mg"},{"bike_id":"9e260b28-88ae-46fe-8176-90ecd1b23dd6","system_id":"levelo_inurba_marseille","lat":43.261782,"lon":5.374515,"is_reserved":false,"is_disabled":false,"rental_uris":{"android":"levelo://app?vid=9e260b28-88ae-46fe-8176-90ecd1b23dd6","ios":"levelo://app?vid=9e260b28-88ae-46fe-8176-90ecd1b23dd6"},"vehicle_type_id":"4","last_reported":1713027829,"current_range_meters":0,"station_id":"ce4bhgp2rcd13ifvqfc0","pricing_plan_id":"cebpf4jnsgd1na2vs0mg"},{"bike_id":"c4f667ac-e76e-427c-82ae-92b1f6efae6b","system_id":"levelo_inurba_marseille","lat":43.290412,"lon":5.399633,"is_reserved":false,"is_disabled":false,"rental_uris":{"android":"levelo://app?vid=c4f667ac-e76e-427c-82ae-92b1f6efae6b","ios":"levelo://app?vid=c4f667ac-e76e-427c-82ae-92b1f6efae6b"},"vehicle_type_id":"4","last_reported":1713027829,"current_range_meters":1600,"station_id":"ce4bh392rcd13ifvqdm0","pricing_plan_id":"cebpf4jnsgd1na2vs0mg"},{"bike_id":"99eb055a-ded1-49cc-8e10-bd6b5efbfea0","system_id":"levelo_inurba_marseille","lat":43.290412,"lon":5.399633,"is_reserved":false,"is_disabled":false,"rental_uris":{"android":"levelo://app?vid=99eb055a-ded1-49cc-8e10-bd6b5efbfea0","ios":"levelo://app?vid=99eb055a-ded1-49cc-8e10-bd6b5efbfea0"},"vehicle_type_id":"4","last_reported":1713027829,"current_range_meters":400,"station_id":"ce4bh392rcd13ifvqdm0","pricing_plan_id":"cebpf4jnsgd1na2vs0mg"},{"bike_id":"4c22c7d7-075b-4d4a-a007-b98615e9f9d4","system_id":"levelo_inurba_marseille","lat":43.29042,"lon":5.399785,"is_reserved":false,"is_disabled":false,"rental_uris":{"android":"levelo://app?vid=4c22c7d7-075b-4d4a-a007-b98615e9f9d4","ios":"levelo://app?vid=4c22c7d7-075b-4d4a-a007-b98615e9f9d4"},"vehicle_type_id":"4","last_reported":1713027829,"current_range_meters":0,"station_id":"ce4bh392rcd13ifvqdm0","pricing_plan_id":"cebpf4jnsgd1na2vs0mg"},{"bike_id":"cdcd693e-617a-450d-b18b-d33091a84061","system_id":"levelo_inurba_marseille","lat":43.290412,"lon":5.399633,"is_reserved":false,"is_disabled":false,"rental_uris":{"android":"levelo://app?vid=cdcd693e-617a-450d-b18b-d33091a84061","ios":"levelo://app?vid=cdcd693e-617a-450d-b18b-d33091a84061"},"vehicle_type_id":"4","last_reported":1713027829,"current_range_meters":17600,"station_id":"ce4bh392rcd13ifvqdm0","pricing_plan_id":"cebpf4jnsgd1na2vs0mg"},{"bike_id":"32ff6c5b-c80d-4d0b-91a3-6cc3ba78af79","system_id":"levelo_inurba_marseille","lat":43.281065,"lon":5.378333,"is_reserved":false,"is_disabled":false,"rental_uris":{"android":"levelo://app?vid=32ff6c5b-c80d-4d0b-91a3-6cc3ba78af79","ios":"levelo://app?vid=32ff6c5b-c80d-4d0b-91a3-6cc3ba78af79"},"vehicle_type_id":"4","last_reported":1713027829,"current_range_meters":400,"station_id":"ce4bha12rcd13ifvqee0","pricing_plan_id":"cebpf4jnsgd1na2vs0mg"},{"bike_id":"250c3167-3a37-4f80-a596-4fe7cfce7f42","system_id":"levelo_inurba_marseille","lat":43.281044,"lon":5.378308,"is_reserved":false,"is_disabled":false,"rental_uris":{"android":"levelo://app?vid=250c3167-3a37-4f80-a596-4fe7cfce7f42","ios":"levelo://app?vid=250c3167-3a37-4f80-a596-4fe7cfce7f42"},"vehicle_type_id":"4","last_reported":1713027829,"current_range_meters":0,"station_id":"ce4bha12rcd13ifvqee0","pricing_plan_id":"cebpf4jnsgd1na2vs0mg"},{"bike_id":"575ffb88-6301-4396-92c0-3f562552a1c8","system_id":"levelo_inurba_marseille","lat":43.28106,"lon":5.37844,"is_reserved":false,"is_disabled":false,"rental_uris":{"android":"levelo://app?vid=575ffb88-6301-4396-92c0-3f562552a1c8","ios":"levelo://app?vid=575ffb88-6301-4396-92c0-3f562552a1c8"},"vehicle_type_id":"4","last_reported":1713027829,"current_range_meters":7200,"station_id":"ce4bha12rcd13ifvqee0","pricing_plan_id":"cebpf4jnsgd1na2vs0mg"},{"bike_id":"f10a39f2-ad18-4bd9-9faf-55d5f25efcd5","system_id":"levelo_inurba_marseille","lat":43.281044,"lon":5.378308,"is_reserved":false,"is_disabled":false,"rental_uris":{"android":"levelo://app?vid=f10a39f2-ad18-4bd9-9faf-55d5f25efcd5","ios":"levelo://app?vid=f10a39f2-ad18-4bd9-9faf-55d5f25efcd5"},"vehicle_type_id":"4","last_reported":1713027829,"current_range_meters":5600,"station_id":"ce4bha12rcd13ifvqee0","pricing_plan_id":"cebpf4jnsgd1na2vs0mg"},{"bike_id":"9f7c5ab3-267e-4a5e-9468-25564aec43c0","system_id":"levelo_inurba_marseille","lat":43.282754,"lon":5.350519,"is_reserved":false,"is_disabled":false,"rental_uris":{"android":"levelo://app?vid=9f7c5ab3-267e-4a5e-9468-25564aec43c0","ios":"levelo://app?vid=9f7c5ab3-267e-4a5e-9468-25564aec43c0"},"vehicle_type_id":"4","last_reported":1713027829,"current_range_meters":0,"station_id":"ce4bhbp2rcd13ifvqerg","pricing_plan_id":"cebpf4jnsgd1na2vs0mg"},{"bike_id":"23e962de-82fd-4727-83ed-13d1601fa25c","system_id":"levelo_inurba_marseille","lat":43.28101,"lon":5.37842,"is_reserved":false,"is_disabled":false,"rental_uris":{"android":"levelo://app?vid=23e962de-82fd-4727-83ed-13d1601fa25c","ios":"levelo://app?vid=23e962de-82fd-4727-83ed-13d1601fa25c"},"vehicle_type_id":"4","last_reported":1713027829,"current_range_meters":0,"station_id":"ce4bha12rcd13ifvqee0","pricing_plan_id":"cebpf4jnsgd1na2vs0mg"},{"bike_id":"dc0b41a2-c4e2-4a97-83c7-09de1be12ee5","system_id":"levelo_inurba_marseille","lat":43.2479,"lon":5.374457,"is_reserved":false,"is_disabled":false,"rental_uris":{"android":"levelo://app?vid=dc0b41a2-c4e2-4a97-83c7-09de1be12ee5","ios":"levelo://app?vid=dc0b41a2-c4e2-4a97-83c7-09de1be12ee5"},"vehicle_type_id":"4","last_reported":1713027829,"current_range_meters":0,"station_id":"ce4bhgh2rcd13ifvqfb0","pricing_plan_id":"cebpf4jnsgd1na2vs0mg"},{"bike_id":"10e9639c-6deb-4f57-8849-92434af4dd94","system_id":"levelo_inurba_marseille","lat":43.326605,"lon":5.409903,"is_reserved":false,"is_disabled":false,"rental_uris":{"android":"levelo://app?vid=10e9639c-6deb-4f57-8849-92434af4dd94","ios":"levelo://app?vid=10e9639c-6deb-4f57-8849-92434af4dd94"},"vehicle_type_id":"4","last_reported":1713027829,"current_range_meters":10400,"station_id":"ce4bhpp2rcd13ifvqhgg","pricing_plan_id":"cebpf4jnsgd1na2vs0mg"},{"bike_id":"ac675dba-da6f-4c86-8931-2d4914067266","system_id":"levelo_inurba_marseille","lat":43.326605,"lon":5.409903,"is_reserved":false,"is_disabled":false,"rental_uris":{"android":"levelo://app?vid=ac675dba-da6f-4c86-8931-2d4914067266","ios":"levelo://app?vid=ac675dba-da6f-4c86-8931-2d4914067266"},"vehicle_type_id":"4","last_reported":1713027829,"current_range_meters":0,"station_id":"ce4bhpp2rcd13ifvqhgg","pricing_plan_id":"cebpf4jnsgd1na2vs0mg"},{"bike_id":"cba20068-6412-436a-9351-690bda108887","system_id":"levelo_inurba_marseille","lat":43.326605,"lon":5.409903,"is_reserved":false,"is_disabled":false,"rental_uris":{"android":"levelo://app?vid=cba20068-6412-436a-9351-690bda108887","ios":"levelo://app?vid=cba20068-6412-436a-9351-690bda108887"},"vehicle_type_id":"4","last_reported":1713027829,"current_range_meters":8400,"station_id":"ce4bhpp2rcd13ifvqhgg","pricing_plan_id":"cebpf4jnsgd1na2vs0mg"},{"bike_id":"8746d604-3833-42b6-bd47-ca50cf2674fa","system_id":"levelo_inurba_marseille","lat":43.326605,"lon":5.409903,"is_reserved":false,"is_disabled":false,"rental_uris":{"android":"levelo://app?vid=8746d604-3833-42b6-bd47-ca50cf2674fa","ios":"levelo://app?vid=8746d604-3833-42b6-bd47-ca50cf2674fa"},"vehicle_type_id":"4","last_reported":1713027829,"current_range_meters":5200,"station_id":"ce4bhpp2rcd13ifvqhgg","pricing_plan_id":"cebpf4jnsgd1na2vs0mg"},{"bike_id":"b10ce88c-d6e1-406d-bc6e-d3a4a6eb52dd","system_id":"levelo_inurba_marseille","lat":43.326605,"lon":5.409903,"is_reserved":false,"is_disabled":false,"rental_uris":{"android":"levelo://app?vid=b10ce88c-d6e1-406d-bc6e-d3a4a6eb52dd","ios":"levelo://app?vid=b10ce88c-d6e1-406d-bc6e-d3a4a6eb52dd"},"vehicle_type_id":"4","last_reported":1713027829,"current_range_meters":16400,"station_id":"ce4bhpp2rcd13ifvqhgg","pricing_plan_id":"cebpf4jnsgd1na2vs0mg"},{"bike_id":"c5bcaafc-5bff-474a-ae94-ab645ef726a3","system_id":"levelo_inurba_marseille","lat":43.326605,"lon":5.409903,"is_reserved":false,"is_disabled":false,"rental_uris":{"android":"levelo://app?vid=c5bcaafc-5bff-474a-ae94-ab645ef726a3","ios":"levelo://app?vid=c5bcaafc-5bff-474a-ae94-ab645ef726a3"},"vehicle_type_id":"4","last_reported":1713027829,"current_range_meters":19600,"station_id":"ce4bhpp2rcd13ifvqhgg","pricing_plan_id":"cebpf4jnsgd1na2vs0mg"},{"bike_id":"efbf1829-2e76-415b-9251-5a07ae04082f","system_id":"levelo_inurba_marseille","lat":43.304188,"lon":5.412904,"is_reserved":false,"is_disabled":false,"rental_uris":{"android":"levelo://app?vid=efbf1829-2e76-415b-9251-5a07ae04082f","ios":"levelo://app?vid=efbf1829-2e76-415b-9251-5a07ae04082f"},"vehicle_type_id":"4","last_reported":1713027829,"current_range_meters":22000,"station_id":"ce4bhop2rcd13ifvqh8g","pricing_plan_id":"cebpf4jnsgd1na2vs0mg"},{"bike_id":"067bf00a-004f-4a95-bd6a-e721a6051c23","system_id":"levelo_inurba_marseille","lat":43.30414,"lon":5.4129,"is_reserved":false,"is_disabled":false,"rental_uris":{"android":"levelo://app?vid=067bf00a-004f-4a95-bd6a-e721a6051c23","ios":"levelo://app?vid=067bf00a-004f-4a95-bd6a-e721a6051c23"},"vehicle_type_id":"4","last_reported":1713027829,"current_range_meters":0,"station_id":"ce4bhop2rcd13ifvqh8g","pricing_plan_id":"cebpf4jnsgd1na2vs0mg"},