{"last_updated":1734873124,"ttl":60,"version":"2.2","data":{"bikes":[{"bike_id":"1b972379-3d56-4bdd-bb60-33ac0578776e","system_id":"levelo_inurba_marseille","lat":43.29366,"lon":5.37857,"is_reserved":false,"is_disabled":false,"rental_uris":{"android":"levelo://app?vid=1b972379-3d56-4bdd-bb60-33ac0578776e","ios":"levelo://app?vid=1b972379-3d56-4bdd-bb60-33ac0578776e"},"vehicle_type_id":"4","last_reported":1734873124,"current_range_meters":38400,"station_id":"ce4bgjh2rcd13ifvqbf0","pricing_plan_id":"cebpf4jnsgd1na2vs0mg"},{"bike_id":"fdba6f40-eaaa-4257-aef3-88564d393988","system_id":"levelo_inurba_marseille","lat":43.281,"lon":5.37857,"is_reserved":false,"is_disabled":false,"rental_uris":{"android":"levelo://app?vid=fdba6f40-eaaa-4257-aef3-88564d393988","ios":"levelo://app?vid=fdba6f40-eaaa-4257-aef3-88564d393988"},"vehicle_type_id":"4","last_reported":1734873124,"current_range_meters":25600,"station_id":"ce4bha12rcd13ifvqee0","pricing_plan_id":"cebpf4jnsgd1na2vs0mg"},{"bike_id":"9ac1c4ec-436f-43f4-b149-448f8ccbdce1","system_id":"levelo_inurba_marseille","lat":43.30541,"lon":5.36541,"is_reserved":false,"is_disabled":false,"rental_uris":{"android":"levelo://app?vid=9ac1c4ec-436f-43f4-b149-448f8ccbdce1","ios":"levelo://app?vid=9ac1c4ec-436f-43f4-b149-448f8ccbdce1"},"vehicle_type_id":"4","last_reported":1734873124,"current_range_meters":30400,"station_id":"ce4bgs12rcd13ifvqcag","pricing_plan_id":"cebpf4jnsgd1na2vs0mg"},{"bike_id":"b5251cd0-66bc-4e10-9cd1-311b5de694fa","system_id":"levelo_inurba_marseille","lat":43.27615,"lon":5.36114,"is_reserved":false,"is_disabled":false,"rental_uris":{"android":"levelo://app?vid=b5251cd0-66bc-4e10-9cd1-311b5de694fa","ios":"levelo://app?vid=b5251cd0-66bc-4e10-9cd1-311b5de694fa"},"vehicle_type_id":"4","last_reported":1734873124,"current_range_meters":19200,"station_id":"ce4bgj92rcd13ifvqbe0","pricing_plan_id":"cebpf4jnsgd1na2vs0mg"},{"bike_id":"18b44145-f3ce-44f1-9e54-ef8855051847","system_id":"levelo_inurba_marseille","lat":43.30169,"lon":5.36615,"is_reserved":false,"is_disabled":false,"rental_uris":{"android":"levelo://app?vid=18b44145-f3ce-44f1-9e54-ef8855051847","ios":"levelo://app?vid=18b44145-f3ce-44f1-9e54-ef8855051847"},"vehicle_type_id":"4","last_reported":1734873124,"current_range_meters":32000,"station_id":"ce4bgrh2rcd13ifvqc8g","pricing_plan_id":"cebpf4jnsgd1na2vs0mg"},{"bike_id":"eb4bf53d-3d61-4207-b417-a973f628f04e","system_id":"levelo_inurba_marseille","lat":43.32339,"lon":5.40624,"is_reserved":false,"is_disabled":false,"rental_uris":{"android":"levelo://app?vid=eb4bf53d-3d61-4207-b417-a973f628f04e","ios":"levelo://app?vid=eb4bf53d-3d61-4207-b417-a973f628f04e"},"vehicle_type_id":"4","last_reported":1734873124,"current_range_meters":24400,"station_id":"ce4bhq92rcd13ifvqhjg","pricing_plan_id":"cebpf4jnsgd1na2vs0mg"},{"bike_id":"a5dc6bde-b5b7-4366-84a3-c8ba7babf44e","system_id":"levelo_inurba_marseille","lat":43.29185,"lon":5.39914,"is_reserved":false,"is_disabled":false,"rental_uris":{"android":"levelo://app?vid=a5dc6bde-b5b7-4366-84a3-c8ba7babf44e","ios":"levelo://app?vid=a5dc6bde-b5b7-4366-84a3-c8ba7babf44e"},"vehicle_type_id":"4","last_reported":1734873124,"current_range_meters":16000,"station_id":"","pricing_plan_id":"cebpf4jnsgd1na2vs0mg"},{"bike_id":"367457f8-a350-457f-bfd2-92edf5808d2f","system_id":"levelo_inurba_marseille","lat":43.30529,"lon":5.36713,"is_reserved":false,"is_disabled":false,"rental_uris":{"android":"levelo://app?vid=367457f8-a350-457f-bfd2-92edf5808d2f","ios":"levelo://app?vid=367457f8-a350-457f-bfd2-92edf5808d2f"},"vehicle_type_id":"4","last_reported":1734873124,"current_range_meters":38800,"station_id":"ce4bgrp2rcd13ifvqc9g","pricing_plan_id":"cebpf4jnsgd1na2vs0mg"},{"bike_id":"8c01f501-a711-4f5f-bc3f-d096c0f455c8","system_id":"levelo_inurba_marseille","lat":43.2848,"lon":5.3589,"is_reserved":false,"is_disabled":false,"rental_uris":{"android":"levelo://app?vid=8c01f501-a711-4f5f-bc3f-d096c0f455c8","ios":"levelo://app?vid=8c01f501-a711-4f5f-bc3f-d096c0f455c8"},"vehicle_type_id":"4","last_reported":1734873124,"current_range_meters":36000,"station_id":"ce4bhah2rcd13ifvqei0","pricing_plan_id":"cebpf4jnsgd1na2vs0mg"},{"bike_id":"6ad2e58c-b750-49bc-a40d-854b1efaf908","system_id":"levelo_inurba_marseille","lat":43.26939,"lon":5.40258,"is_reserved":false,"is_disabled":false,"rental_uris":{"android":"levelo://app?vid=6ad2e58c-b750-49bc-a40d-854b1efaf908","ios":"levelo://app?vid=6ad2e58c-b750-49bc-a40d-854b1efaf908"},"vehicle_type_id":"4","last_reported":1734873124,"current_range_meters":38000,"station_id":"cjm6bp8fraef2m0cb0m0","pricing_plan_id":"cebpf4jnsgd1na2vs0mg"},{"bike_id":"96f67906-c94f-4a78-ae6e-fdff28a17019","system_id":"levelo_inurba_marseille","lat":43.337444,"lon":5.374475,"is_reserved":false,"is_disabled":false,"rental_uris":{"android":"levelo://app?vid=96f67906-c94f-4a78-ae6e-fdff28a17019","ios":"levelo://app?vid=96f67906-c94f-4a78-ae6e-fdff28a17019"},"vehicle_type_id":"4","last_reported":1734873124,"current_range_meters":34000,"station_id":"","pricing_plan_id":"cebpf4jnsgd1na2vs0mg"},{"bike_id":"4ae04926-163e-4ffb-be62-88da4a5836ca","system_id":"levelo_inurba_marseille","lat":43.29219,"lon":5.36104,"is_reserved":false,"is_disabled":false,"rental_uris":{"android":"levelo://app?vid=4ae04926-163e-4ffb-be62-88da4a5836ca","ios":"levelo://app?vid=4ae04926-163e-4ffb-be62-88da4a5836ca"},"vehicle_type_id":"4","last_reported":1734873124,"current_range_meters":18800,"station_id":"ce4bhbh2rcd13ifvqeqg","pricing_plan_id":"cebpf4jnsgd1na2vs0mg"},{"bike_id":"e2ea9762-33de-4451-9122-8484d44748a7","system_id":"levelo_inurba_marseille","lat":43.31178,"lon":5.38723,"is_reserved":false,"is_disabled":false,"rental_uris":{"android":"levelo://app?vid=e2ea9762-33de-4451-9122-8484d44748a7","ios":"levelo://app?vid=e2ea9762-33de-4451-9122-8484d44748a7"},"vehicle_type_id":"4","last_reported":1734873124,"current_range_meters":24400,"station_id":"ce4bgv12rcd13ifvqcp0","pricing_plan_id":"cebpf4jnsgd1na2vs0mg"},{"bike_id":"be8fb006-28e5-48e1-9abd-19a103f0a2ce","system_id":"levelo_inurba_marseille","lat":43.28367,"lon":5.38639,"is_reserved":false,"is_disabled":false,"rental_uris":{"android":"levelo://app?vid=be8fb006-28e5-48e1-9abd-19a103f0a2ce","ios":"levelo://app?vid=be8fb006-28e5-48e1-9abd-19a103f0a2ce"},"vehicle_type_id":"4","last_reported":1734873124,"current_range_meters":26800,"station_id":"ce4bh492rcd13ifvqdvg","pricing_plan_id":"cebpf4jnsgd1na2vs0mg"},{"bike_id":"7fecf7cd-57c8-4918-98c5-481fc257cd30","system_id":"levelo_inurba_marseille","lat":43.307909,"lon":5.376522,"is_reserved":false,"is_disabled":false,"rental_uris":{"android":"levelo://app?vid=7fecf7cd-57c8-4918-98c5-481fc257cd30","ios":"levelo://app?vid=7fecf7cd-57c8-4918-98c5-481fc257cd30"},"vehicle_type_id":"4","last_reported":1734873124,"current_range_meters":22000,"station_id":"ce4bgv92rcd13ifvqcq0","pricing_plan_id":"cebpf4jnsgd1na2vs0mg"},{"bike_id":"58297941-334f-439d-b949-7b7f3f2dced0","system_id":"levelo_inurba_marseille","lat":43.31317,"lon":5.39699,"is_reserved":false,"is_disabled":false,"rental_uris":{"android":"levelo://app?vid=58297941-334f-439d-b949-7b7f3f2dced0","ios":"levelo://app?vid=58297941-334f-439d-b949-7b7f3f2dced0"},"vehicle_type_id":"4","last_reported":1734873124,"current_range_meters":24400,"station_id":"ce4bgvp2rcd13ifvqcu0","pricing_plan_id":"cebpf4jnsgd1na2vs0mg"},{"bike_id":"5481ebd9-b3a3-4db6-ba37-c92c821046b1","system_id":"levelo_inurba_marseille","lat":43.27614,"lon":5.36122,"is_reserved":false,"is_disabled":false,"rental_uris":{"android":"levelo://app?vid=5481ebd9-b3a3-4db6-ba37-c92c821046b1","ios":"levelo://app?vid=5481ebd9-b3a3-4db6-ba37-c92c821046b1"},"vehicle_type_id":"4","last_reported":1734873124,"current_range_meters":38800,"station_id":"ce4bgj92rcd13ifvqbe0","pricing_plan_id":"cebpf4jnsgd1na2vs0mg"},{"bike_id":"23ba2a08-b337-4cae-8fc3-3109046ca384","system_id":"levelo_inurba_marseille","lat":43.2799,"lon":5.40031,"is_reserved":false,"is_disabled":false,"rental_uris":{"android":"levelo://app?vid=23ba2a08-b337-4cae-8fc3-3109046ca384","ios":"levelo://app?vid=23ba2a08-b337-4cae-8fc3-3109046ca384"},"vehicle_type_id":"4","last_reported":1734873124,"current_range_meters":16400,"station_id":"ce4bho92rcd13ifvqh4g","pricing_plan_id":"cebpf4jnsgd1na2vs0mg"},{"bike_id":"483c1a88-3d76-4ce2-b8a0-18ab3d6306de","system_id":"levelo_inurba_marseille","lat":43.2993,"lon":5.36551,"is_reserved":false,"is_disabled":false,"rental_uris":{"android":"levelo://app?vid=483c1a88-3d76-4ce2-b8a0-18ab3d6306de","ios":"levelo://app?vid=483c1a88-3d76-4ce2-b8a0-18ab3d6306de"},"vehicle_type_id":"4","last_reported":1734873124,"current_range_meters":16800,"station_id":"ce4bgm92rcd13ifvqbr0","pricing_plan_id":"cebpf4jnsgd1na2vs0mg"},{"bike_id":"db083458-0044-4ef8-a1fe-987454812136","system_id":"levelo_inurba_marseille","lat":43.28271,"lon":5.35082,"is_reserved":false,"is_disabled":false,"rental_uris":{"android":"levelo://app?vid=db083458-0044-4ef8-a1fe-987454812136","ios":"levelo://app?vid=db083458-0044-4ef8-a1fe-987454812136"},"vehicle_type_id":"4","last_reported":1734873124,"current_range_meters":38800,"station_id":"ce4bhbp2rcd13ifvqerg","pricing_plan_id":"cebpf4jnsgd1na2vs0mg"},{"bike_id":"c4d4aa11-95a8-4e18-9cef-b7638dd66738","system_id":"levelo_inurba_marseille","lat":43.27824,"lon":5.39218,"is_reserved":false,"is_disabled":false,"rental_uris":{"android":"levelo://app?vid=c4d4aa11-95a8-4e18-9cef-b7638dd66738","ios":"levelo://app?vid=c4d4aa11-95a8-4e18-9cef-b7638dd66738"},"vehicle_type_id":"4","last_reported":1734873124,"current_range_meters":38400,"station_id":"ce4bhjp2rcd13ifvqga0","pricing_plan_id":"cebpf4jnsgd1na2vs0mg"},{"bike_id":"843c6878-0e3f-4b01-b1b7-bbb9a0523c31","system_id":"levelo_inurba_marseille","lat":43.32661,"lon":5.40985,"is_reserved":false,"is_disabled":false,"rental_uris":{"android":"levelo://app?vid=843c6878-0e3f-4b01-b1b7-bbb9a0523c31","ios":"levelo://app?vid=843c6878-0e3f-4b01-b1b7-bbb9a0523c31"},"vehicle_type_id":"4","last_reported":1734873124,"current_range_meters":30400,"station_id":"ce4bhpp2rcd13ifvqhgg","pricing_plan_id":"cebpf4jnsgd1na2vs0mg"},{"bike_id":"122e5731-49d1-47ac-8569-8da0f2b96421","system_id":"levelo_inurba_marseille","lat":43.25725,"lon":5.41112,"is_reserved":false,"is_disabled":false,"rental_uris":{"android":"levelo://app?vid=122e5731-49d1-47ac-8569-8da0f2b96421","ios":"levelo://app?vid=122e5731-49d1-47ac-8569-8da0f2b96421"},"vehicle_type_id":"4","last_reported":1734873124,"current_range_meters":36400,"station_id":"ce4bhkp2rcd13ifvqgd0","pricing_plan_id":"cebpf4jnsgd1na2vs0mg"},{"bike_id":"db6d4cd6-324d-40d9-b2a7-d53d9856d610","system_id":"levelo_inurba_marseille","lat":43.29352,"lon":5.42831,"is_reserved":false,"is_disabled":true,"rental_uris":{"android":"levelo://app?vid=db6d4cd6-324d-40d9-b2a7-d53d9856d610","ios":"levelo://app?vid=db6d4cd6-324d-40d9-b2a7-d53d9856d610"},"vehicle_type_id":"4","last_reported":1734873124,"current_range_meters":0,"station_id":"","pricing_plan_id":"cebpf4jnsgd1na2vs0mg"},{"bike_id":"4e2e6240-5440-4ed7-ace9-4c9e6bd778e5","system_id":"levelo_inurba_marseille","lat":43.24071,"lon":5.37772,"is_reserved":false,"is_disabled":false,"rental_uris":{"android":"levelo://app?vid=4e2e6240-5440-4ed7-ace9-4c9e6bd778e5","ios":"levelo://app?vid=4e2e6240-5440-4ed7-ace9-4c9e6bd778e5"},"vehicle_type_id":"4","last_reported":1734873124,"current_range_meters":32800,"station_id":"ce4bhnp2rcd13ifvqgvg","pricing_plan_id":"cebpf4jnsgd1na2vs0mg"},{"bike_id":"df357b14-4c6a-4905-8927-9863400f5dca","system_id":"levelo_inurba_marseille","lat":43.25874,"lon":5.39896,"is_reserved":false,"is_disabled":false,"rental_uris":{"android":"levelo://app?vid=df357b14-4c6a-4905-8927-9863400f5dca","ios":"levelo://app?vid=df357b14-4c6a-4905-8927-9863400f5dca"},"vehicle_type_id":"4","last_reported":1734873124,"current_range_meters":34000,"station_id":"ce4bhl92rcd13ifvqghg","pricing_plan_id":"cebpf4jnsgd1na2vs0mg"},{"bike_id":"710cbb4b-92a3-4fcb-a674-51cdb538a062","system_id":"levelo_inurba_marseille","lat":43.2605,"lon":5.39404,"is_reserved":false,"is_disabled":true,"rental_uris":{"android":"levelo://app?vid=710cbb4b-92a3-4fcb-a674-51cdb538a062","ios":"levelo://app?vid=710cbb4b-92a3-4fcb-a674-51cdb538a062"},"vehicle_type_id":"4","last_reported":1734873124,"current_range_meters":33600,"station_id":"ce4bhh92rcd13ifvqfj0","pricing_plan_id":"cebpf4jnsgd1na2vs0mg"},{"bike_id":"9221bb9f-639a-453a-a3e1-74b8f4861147","system_id":"levelo_inurba_marseille","lat":43.29526,"lon":5.38556,"is_reserved":false,"is_disabled":false,"rental_uris":{"android":"levelo://app?vid=9221bb9f-639a-453a-a3e1-74b8f4861147","ios":"levelo://app?vid=9221bb9f-639a-453a-a3e1-74b8f4861147"},"vehicle_type_id":"4","last_reported":1734873124,"current_range_meters":16800,"station_id":"ce4bgih2rcd13ifvqba0","pricing_plan_id":"cebpf4jnsgd1na2vs0mg"},{"bike_id":"19c0be92-b0d6-42d1-8836-5f912360d8ff","system_id":"levelo_inurba_marseille","lat":43.2957,"lon":5.37517,"is_reserved":false,"is_disabled":false,"rental_uris":{"android":"levelo://app?vid=19c0be92-b0d6-42d1-8836-5f912360d8ff","ios":"levelo://app?vid=19c0be92-b0d6-42d1-8836-5f912360d8ff"},"vehicle_type_id":"4","last_reported":1734873124,"current_range_meters":25600,"station_id":"ce4bgh92rcd13ifvqb50","pricing_plan_id":"cebpf4jnsgd1na2vs0mg"},{"bike_id":"503ba1df-3f56-4f3d-a5af-785dd19b6493","system_id":"levelo_inurba_marseille","lat":43.25003,"lon":5.38947,"is_reserved":false,"is_disabled":false,"rental_uris":{"android":"levelo://app?vid=503ba1df-3f56-4f3d-a5af-785dd19b6493","ios":"levelo://app?vid=503ba1df-3f56-4f3d-a5af-785dd19b6493"},"vehicle_type_id":"4","last_reported":1734873124,"current_range_meters":30000,"station_id":"ce4bhgp2rcd13ifvqfd0","pricing_plan_id":"cebpf4jnsgd1na2vs0mg"},{"bike_id":"40a290a5-0a5b-4fc8-b4f9-a2d33b0a1188","system_id":"levelo_inurba_marseille","lat":43.25098,"lon":5.4033,"is_reserved":false,"is_disabled":false,"rental_uris":{"android":"levelo://app?vid=40a290a5-0a5b-4fc8-b4f9-a2d33b0a1188","ios":"levelo://app?vid=40a290a5-0a5b-4fc8-b4f9-a2d33b0a1188"},"vehicle_type_id":"4","last_reported":1734873124,"current_range_meters":17200,"station_id":"ce4bhlh2rcd13ifvqgig","pricing_plan_id":"cebpf4jnsgd1na2vs0mg"},{"bike_id":"b577cbed-b70c-41b5-a4ca-711154e07916","system_id":"levelo_inurba_marseille","lat":43.31329,"lon":5.39702,"is_reserved":false,"is_disabled":false,"rental_uris":{"android":"levelo://app?vid=b577cbed-b70c-41b5-a4ca-711154e07916","ios":"levelo://app?vid=b577cbed-b70c-41b5-a4ca-711154e07916"},"vehicle_type_id":"4","last_reported":1734873124,"current_range_meters":26800,"station_id":"ce4bgvp2rcd13ifvqcu0","pricing_plan_id":"cebpf4jnsgd1na2vs0mg"},{"bike_id":"e2093eaf-d010-461b-aa40-a85f704a9b1e","system_id":"levelo_inurba_marseille","lat":43.27371,"lon":5.36253,"is_reserved":false,"is_disabled":false,"rental_uris":{"android":"levelo://app?vid=e2093eaf-d010-461b-aa40-a85f704a9b1e","ios":"levelo://app?vid=e2093eaf-d010-461b-aa40-a85f704a9b1e"},"vehicle_type_id":"4","last_reported":1734873124,"current_range_meters":38800,"station_id":"ce4bhbh2rcd13ifvqeo0","pricing_plan_id":"cebpf4jnsgd1na2vs0mg"},{"bike_id":"f74d2ef3-6279-4dde-ac96-3f995b7007fd","system_id":"levelo_inurba_marseille","lat":43.26929,"lon":5.38916,"is_reserved":false,"is_disabled":false,"rental_uris":{"android":"levelo://app?vid=f74d2ef3-6279-4dde-ac96-3f995b7007fd","ios":"levelo://app?vid=f74d2ef3-6279-4dde-ac96-3f995b7007fd"},"vehicle_type_id":"4","last_reported":1734873124,"current_range_meters":30400,"station_id":"ce4bhhh2rcd13ifvqfl0","pricing_plan_id":"cebpf4jnsgd1na2vs0mg"},{"bike_id":"a7cfd2b8-b9ad-4ad6-a840-d70d03c4d9f6","system_id":"levelo_inurba_marseille","lat":43.27991,"lon":5.41661,"is_reserved":false,"is_disabled":false,"rental_uris":{"android":"levelo://app?vid=a7cfd2b8-b9ad-4ad6-a840-d70d03c4d9f6","ios":"levelo://app?vid=a7cfd2b8-b9ad-4ad6-a840-d70d03c4d9f6"},"vehicle_type_id":"4","last_reported":1734873124,"current_range_meters":38400,"station_id":"ce4bho12rcd13ifvqh1g","pricing_plan_id":"cebpf4jnsgd1na2vs0mg"},{"bike_id":"4314e17a-dbf2-4fd2-aa52-9272915562ad","system_id":"levelo_inurba_marseille","lat":43.29564,"lon":5.37506,"is_reserved":false,"is_disabled":false,"rental_uris":{"android":"levelo://app?vid=4314e17a-dbf2-4fd2-aa52-9272915562ad","ios":"levelo://app?vid=4314e17a-dbf2-4fd2-aa52-9272915562ad"},"vehicle_type_id":"4","last_reported":1734873124,"current_range_meters":36000,"station_id":"ce4bgh92rcd13ifvqb50","pricing_plan_id":"cebpf4jnsgd1na2vs0mg"},{"bike_id":"357e8f1c-a971-4b17-8dfb-fc048cb72b19","system_id":"levelo_inurba_marseille","lat":43.29287,"lon":5.37438,"is_reserved":false,"is_disabled":false,"rental_uris":{"android":"levelo://app?vid=357e8f1c-a971-4b17-8dfb-fc048cb72b19","ios":"levelo://app?vid=357e8f1c-a971-4b17-8dfb-fc048cb72b19"},"vehicle_type_id":"4","last_reported":1734873124,"current_range_meters":27600,"station_id":"ce4bgi12rcd13ifvqb70","pricing_plan_id":"cebpf4jnsgd1na2vs0mg"},{"bike_id":"ea71a701-424b-47da-a439-f8da29300674","system_id":"levelo_inurba_marseille","lat":43.29273,"lon":5.36844,"is_reserved":false,"is_disabled":false,"rental_uris":{"android":"levelo://app?vid=ea71a701-424b-47da-a439-f8da29300674","ios":"levelo://app?vid=ea71a701-424b-47da-a439-f8da29300674"},"vehicle_type_id":"4","last_reported":1734873124,"current_range_meters":38000,"station_id":"ce4bhbp2rcd13ifvqesg","pricing_plan_id":"cebpf4jnsgd1na2vs0mg"},{"bike_id":"008971e0-f1f1-4e47-a97b-408107f3d3d2","system_id":"levelo_inurba_marseille","lat":43.3117,"lon":5.38716,"is_reserved":false,"is_disabled":true,"rental_uris":{"android":"levelo://app?vid=008971e0-f1f1-4e47-a97b-408107f3d3d2","ios":"levelo://app?vid=008971e0-f1f1-4e47-a97b-408107f3d3d2"},"vehicle_type_id":"4","last_reported":1734873124,"current_range_meters":400,"station_id":"ce4bgv12rcd13ifvqcp0","pricing_plan_id":"cebpf4jnsgd1na2vs0mg"},{"bike_id":"41d0d9f5-bb31-41f6-8358-898df39bf21c","system_id":"levelo_inurba_marseille","lat":43.25866,"lon":5.39916,"is_reserved":false,"is_disabled":false,"rental_uris":{"android":"levelo://app?vid=41d0d9f5-bb31-41f6-8358-898df39bf21c","ios":"levelo://app?vid=41d0d9f5-bb31-41f6-8358-898df39bf21c"},"vehicle_type_id":"4","last_reported":1734873124,"current_range_meters":38800,"station_id":"ce4bhl92rcd13ifvqghg","pricing_plan_id":"cebpf4jnsgd1na2vs0mg"},{"bike_id":"551c372b-97e5-441e-a96b-5360e3771f96","system_id":"levelo_inurba_marseille","lat":43.29573,"lon":5.3752,"is_reserved":false,"is_disabled":false,"rental_uris":{"android":"levelo://app?vid=551c372b-97e5-441e-a96b-5360e3771f96","ios":"levelo://app?vid=551c372b-97e5-441e-a96b-5360e3771f96"},"vehicle_type_id":"4","last_reported":1734873124,"current_range_meters":32000,"station_id":"ce4bgh92rcd13ifvqb50","pricing_plan_id":"cebpf4jnsgd1na2vs0mg"},{"bike_id":"22197afe-a1ff-4312-800c-c9ca803fb856","system_id":"levelo_inurba_marseille","lat":43.24173,"lon":5.39735,"is_reserved":false,"is_disabled":false,"rental_uris":{"android":"levelo://app?vid=22197afe-a1ff-4312-800c-c9ca803fb856","ios":"levelo://app?vid=22197afe-a1ff-4312-800c-c9ca803fb856"},"vehicle_type_id":"4","last_reported":1734873124,"current_range_meters":26000,"station_id":"ce4bhn12rcd13ifvqgpg","pricing_plan_id":"cebpf4jnsgd1na2vs0mg"},{"bike_id":"e724f4e5-0922-4e36-91f4-8a4c9d514ff5","system_id":"levelo_inurba_marseille","lat":43.298434,"lon":5.362616,"is_reserved":false,"is_disabled":false,"rental_uris":{"android":"levelo://app?vid=e724f4e5-0922-4e36-91f4-8a4c9d514ff5","ios":"levelo://app?vid=e724f4e5-0922-4e36-91f4-8a4c9d514ff5"},"vehicle_type_id":"4","last_reported":1734873124,"current_range_meters":38800,"station_id":"ce4bgpp2rcd13ifvqc3g","pricing_plan_id":"cebpf4jnsgd1na2vs0mg"},{"bike_id":"5a418441-3b6e-4ddf-98ce-0061b442196a","system_id":"levelo_inurba_marseille","lat":43.31174,"lon":5.38713,"is_reserved":false,"is_disabled":false,"rental_uris":{"android":"levelo://app?vid=5a418441-3b6e-4ddf-98ce-0061b442196a","ios":"levelo://app?vid=5a418441-3b6e-4ddf-98ce-0061b442196a"},"vehicle_type_id":"4","last_reported":1734873124,"current_range_meters":21600,"station_id":"ce4bgv12rcd13ifvqcp0","pricing_plan_id":"cebpf4jnsgd1na2vs0mg"},{"bike_id":"b567452d-1653-4b1e-8f57-3d9ff57e59c9","system_id":"levelo_inurba_marseille","lat":43.29578,"lon":5.37503,"is_reserved":false,"is_disabled":false,"rental_uris":{"android":"levelo://app?vid=b567452d-1653-4b1e-8f57-3d9ff57e59c9","ios":"levelo://app?vid=b567452d-1653-4b1e-8f57-3d9ff57e59c9"},"vehicle_type_id":"4","last_reported":1734873124,"current_range_meters":23200,"station_id":"ce4bgh92rcd13ifvqb50","pricing_plan_id":"cebpf4jnsgd1na2vs0mg"},{"bike_id":"d98f0b8a-1ef4-43b4-85a1-12b00b5f4de1","system_id":"levelo_inurba_marseille","lat":43.28426,"lon":5.3499,"is_reserved":false,"is_disabled":false,"rental_uris":{"android":"levelo://app?vid=d98f0b8a-1ef4-43b4-85a1-12b00b5f4de1","ios":"levelo://app?vid=d98f0b8a-1ef4-43b4-85a1-12b00b5f4de1"},"vehicle_type_id":"4","last_reported":1734873124,"current_range_meters":36000,"station_id":"ce4bhbh2rcd13ifvqepg","pricing_plan_id":"cebpf4jnsgd1na2vs0mg"},{"bike_id":"db793b2b-b07f-400f-9e62-a0c928414636","system_id":"levelo_inurba_marseille","lat":43.33025,"lon":5.39041,"is_reserved":false,"is_disabled":false,"rental_uris":{"android":"levelo://app?vid=db793b2b-b07f-400f-9e62-a0c928414636","ios":"levelo://app?vid=db793b2b-b07f-400f-9e62-a0c928414636"},"vehicle_type_id":"4","last_reported":1734873124,"current_range_meters":22400,"station_id":"ce4bhr92rcd13ifvqhrg","pricing_plan_id":"cebpf4jnsgd1na2vs0mg"},{"bike_id":"0a05aa73-b008-4d93-acc1-ddc4b3b9ff3a","system_id":"levelo_inurba_marseille","lat":43.28923,"lon":5.36647,"is_reserved":false,"is_disabled":false,"rental_uris":{"android":"levelo://app?vid=0a05aa73-b008-4d93-acc1-ddc4b3b9ff3a","ios":"levelo://app?vid=0a05aa73-b008-4d93-acc1-ddc4b3b9ff3a"},"vehicle_type_id":"4","last_reported":1734873124,"current_range_meters":34800,"station_id":"ce4bhap2rcd13ifvqek0","pricing_plan_id":"cebpf4jnsgd1na2vs0mg"},{"bike_id":"71bbaaf0-30fa-412b-9088-f880a672af88","system_id":"levelo_inurba_marseille","lat":43.26023,"lon":5.37559,"is_reserved":false,"is_disabled":false,"rental_uris":{"android":"levelo://app?vid=71bbaaf0-30fa-412b-9088-f880a672af88","ios":"levelo://app?vid=71bbaaf0-30fa-412b-9088-f880a672af88"},"vehicle_type_id":"4","last_reported":1734873124,"current_range_meters":36800,"station_id":"ce4bhgh2rcd13ifvqfa0","pricing_plan_id":"cebpf4jnsgd1na2vs0mg"},{"bike_id":"e0982767-088c-4563-a7f9-6e3714ed3445","system_id":"levelo_inurba_marseille","lat":43.30181,"lon":5.38093,"is_reserved":false,"is_disabled":false,"rental_uris":{"android":"levelo://app?vid=e0982767-088c-4563-a7f9-6e3714ed3445","ios":"levelo://app?vid=e0982767-088c-4563-a7f9-6e3714ed3445"},"vehicle_type_id":"4","last_reported":1734873124,"current_range_meters":29600,"station_id":"ce4bgjp2rcd13ifvqbh0","pricing_plan_id":"cebpf4jnsgd1na2vs0mg"},{"bike_id":"4ba2d8d3-19b4-4608-b134-5f2d86707690","system_id":"levelo_inurba_marseille","lat":43.29564,"lon":5.37513,"is_reserved":false,"is_disabled":false,"rental_uris":{"android":"levelo://app?vid=4ba2d8d3-19b4-4608-b134-5f2d86707690","ios":"levelo://app?vid=4ba2d8d3-19b4-4608-b134-5f2d86707690"},"vehicle_type_id":"4","last_reported":1734873124,"current_range_meters":9600,"station_id":"ce4bgh92rcd13ifvqb50","pricing_plan_id":"cebpf4jnsgd1na2vs0mg"},{"bike_id":"d1aed847-98af-41ac-a611-c35d33b973ea","system_id":"levelo_inurba_marseille","lat":43.27971,"lon":5.39593,"is_reserved":false,"is_disabled":true,"rental_uris":{"android":"levelo://app?vid=d1aed847-98af-41ac-a611-c35d33b973ea","ios":"levelo://app?vid=d1aed847-98af-41ac-a611-c35d33b973ea"},"vehicle_type_id":"4","last_reported":1734873124,"current_range_meters":0,"station_id":"","pricing_plan_id":"cebpf4jnsgd1na2vs0mg"},{"bike_id":"56f1e802-0d31-4b85-8171-4fcfa9248948","system_id":"levelo_inurba_marseille","lat":43.26491,"lon":5.39551,"is_reserved":false,"is_disabled":false,"rental_uris":{"android":"levelo://app?vid=56f1e802-0d31-4b85-8171-4fcfa9248948","ios":"levelo://app?vid=56f1e802-0d31-4b85-8171-4fcfa9248948"},"vehicle_type_id":"4","last_reported":1734873124,"current_range_meters":38000,"station_id":"ce4bhi12rcd13ifvqfq0","pricing_plan_id":"cebpf4jnsgd1na2vs0mg"},{"bike_id":"252b4c9e-12c7-4a8a-8059-ec130627e2f7","system_id":"levelo_inurba_marseille","lat":43.25825,"lon":5.39913,"is_reserved":false,"is_disabled":false,"rental_uris":{"android":"levelo://app?vid=252b4c9e-12c7-4a8a-8059-ec130627e2f7","ios":"levelo://app?vid=252b4c9e-12c7-4a8a-8059-ec130627e2f7"},"vehicle_type_id":"4","last_reported":1734873124,"current_range_meters":25200,"station_id":"ce4bhl92rcd13ifvqghg","pricing_plan_id":"cebpf4jnsgd1na2vs0mg"},{"bike_id":"52ed76b1-5466-4f53-bcce-959e801223dc","system_id":"levelo_inurba_marseille","lat":43.29414,"lon":5.38633,"is_reserved":false,"is_disabled":false,"rental_uris":{"android":"levelo://app?vid=52ed76b1-5466-4f53-bcce-959e801223dc","ios":"levelo://app?vid=52ed76b1-5466-4f53-bcce-959e801223dc"},"vehicle_type_id":"4","last_reported":1734873124,"current_range_meters":0,"station_id":"ce4bh2h2rcd13ifvqdh0","pricing_plan_id":"cebpf4jnsgd1na2vs0mg"},{"bike_id":"7520e871-a018-43fa-9397-1edc60037d1c","system_id":"levelo_inurba_marseille","lat":43.30783,"lon":5.37658,"is_reserved":false,"is_disabled":false,"rental_uris":{"android":"levelo://app?vid=7520e871-a018-43fa-9397-1edc60037d1c","ios":"levelo://app?vid=7520e871-a018-43fa-9397-1edc60037d1c"},"vehicle_type_id":"4","last_reported":1734873124,"current_range_meters":20400,"station_id":"ce4bgv92rcd13ifvqcq0","pricing_plan_id":"cebpf4jnsgd1na2vs0mg"},{"bike_id":"574569a8-47af-4b5a-abbf-9be9948fc833","system_id":"levelo_inurba_marseille","lat":43.28941,"lon":5.39621,"is_reserved":false,"is_disabled":false,"rental_uris":{"android":"levelo://app?vid=574569a8-47af-4b5a-abbf-9be9948fc833","ios":"levelo://app?vid=574569a8-47af-4b5a-abbf-9be9948fc833"},"vehicle_type_id":"4","last_reported":1734873124,"current_range_meters":38800,"station_id":"ce4bh3h2rcd13ifvqdn0","pricing_plan_id":"cebpf4jnsgd1na2vs0mg"},{"bike_id":"c9b88195-e7cd-4734-9416-e0daab0d058c","system_id":"levelo_inurba_marseille","lat":43.30465,"lon":5.37908,"is_reserved":false,"is_disabled":false,"rental_uris":{"android":"levelo://app?vid=c9b88195-e7cd-4734-9416-e0daab0d058c","ios":"levelo://app?vid=c9b88195-e7cd-4734-9416-e0daab0d058c"},"vehicle_type_id":"4","last_reported":1734873124,"current_range_meters":30000,"station_id":"ce4bgup2rcd13ifvqcn0","pricing_plan_id":"cebpf4jnsgd1na2vs0mg"},{"bike_id":"5de55ec3-b446-45b5-9e6a-b67b9996a2b3","system_id":"levelo_inurba_marseille","lat":43.27333,"lon":5.39111,"is_reserved":false,"is_disabled":true,"rental_uris":{"android":"levelo://app?vid=5de55ec3-b446-45b5-9e6a-b67b9996a2b3","ios":"levelo://app?vid=5de55ec3-b446-45b5-9e6a-b67b9996a2b3"},"vehicle_type_id":"4","last_reported":1734873124,"current_range_meters":32400,"station_id":"ce4bhgp2rcd13ifvqfe0","pricing_plan_id":"cebpf4jnsgd1na2vs0mg"},{"bike_id":"cc3832ad-c569-492a-9f43-cbfcbde90cbf","system_id":"levelo_inurba_marseille","lat":43.3088,"lon":5.39661,"is_reserved":false,"is_disabled":false,"rental_uris":{"android":"levelo://app?vid=cc3832ad-c569-492a-9f43-cbfcbde90cbf","ios":"levelo://app?vid=cc3832ad-c569-492a-9f43-cbfcbde90cbf"},"vehicle_type_id":"4","last_reported":1734873124,"current_range_meters":26800,"station_id":"ce4bh012rcd13ifvqcv0","pricing_plan_id":"cebpf4jnsgd1na2vs0mg"},{"bike_id":"9daa44e7-dbcd-4dc1-8b8c-d5b1cf6bc951","system_id":"levelo_inurba_marseille","lat":43.28928,"lon":5.36639,"is_reserved":false,"is_disabled":false,"rental_uris":{"android":"levelo://app?vid=9daa44e7-dbcd-4dc1-8b8c-d5b1cf6bc951","ios":"levelo://app?vid=9daa44e7-dbcd-4dc1-8b8c-d5b1cf6bc951"},"vehicle_type_id":"4","last_reported":1734873124,"current_range_meters":38000,"station_id":"ce4bhap2rcd13ifvqek0","pricing_plan_id":"cebpf4jnsgd1na2vs0mg"},{"bike_id":"d5ba4a52-632b-4292-a7fd-b53fd5e0afe3","system_id":"levelo_inurba_marseille","lat":43.28,"lon":5.4001,"is_reserved":false,"is_disabled":false,"rental_uris":{"android":"levelo://app?vid=d5ba4a52-632b-4292-a7fd-b53fd5e0afe3","ios":"levelo://app?vid=d5ba4a52-632b-4292-a7fd-b53fd5e0afe3"},"vehicle_type_id":"4","last_reported":1734873124,"current_range_meters":24800,"station_id":"ce4bho92rcd13ifvqh4g","pricing_plan_id":"cebpf4jnsgd1na2vs0mg"},{"bike_id":"9c5ba4f1-cf99-4485-9aef-5eac0529dc31","system_id":"levelo_inurba_marseille","lat":43.292273,"lon":5.360586,"is_reserved":false,"is_disabled":false,"rental_uris":{"android":"levelo://app?vid=9c5ba4f1-cf99-4485-9aef-5eac0529dc31","ios":"levelo://app?vid=9c5ba4f1-cf99-4485-9aef-5eac0529dc31"},"vehicle_type_id":"4","last_reported":1734873124,"current_range_meters":13600,"station_id":"ce4bhbh2rcd13ifvqeqg","pricing_plan_id":"cebpf4jnsgd1na2vs0mg"},{"bike_id":"ef27aad9-09dc-432e-885f-205ca4c1808a","system_id":"levelo_inurba_marseille","lat":43.25582,"lon":5.38232,"is_reserved":false,"is_disabled":false,"rental_uris":{"android":"levelo://app?vid=ef27aad9-09dc-432e-885f-205ca4c1808a","ios":"levelo://app?vid=ef27aad9-09dc-432e-885f-205ca4c1808a"},"vehicle_type_id":"4","last_reported":1734873124,"current_range_meters":31200,"station_id":"ce4bhih2rcd13ifvqfs0","pricing_plan_id":"cebpf4jnsgd1na2vs0mg"},{"bike_id":"cea7a48b-f6f3-44c8-9bdb-57d63d158c06","system_id":"levelo_inurba_marseille","lat":43.30535,"lon":5.3653,"is_reserved":false,"is_disabled":false,"rental_uris":{"android":"levelo://app?vid=cea7a48b-f6f3-44c8-9bdb-57d63d158c06","ios":"levelo://app?vid=cea7a48b-f6f3-44c8-9bdb-57d63d158c06"},"vehicle_type_id":"4","last_reported":1734873124,"current_range_meters":38800,"station_id":"ce4bgs12rcd13ifvqcag","pricing_plan_id":"cebpf4jnsgd1na2vs0mg"},{"bike_id":"954f040c-9c68-484b-977a-d101cc152ccc","system_id":"levelo_inurba_marseille","lat":43.266723,"lon":5.383023,"is_reserved":false,"is_disabled":false,"rental_uris":{"android":"levelo://app?vid=954f040c-9c68-484b-977a-d101cc152ccc","ios":"levelo://app?vid=954f040c-9c68-484b-977a-d101cc152ccc"},"vehicle_type_id":"4","last_reported":1734873124,"current_range_meters":32400,"station_id":"ce4bhg92rcd13ifvqf90","pricing_plan_id":"cebpf4jnsgd1na2vs0mg"},{"bike_id":"a3f20b06-fbbc-488d-ab74-510676955d57","system_id":"levelo_inurba_marseille","lat":43.31893,"lon":5.40747,"is_reserved":false,"is_disabled":false,"rental_uris":{"android":"levelo://app?vid=a3f20b06-fbbc-488d-ab74-510676955d57","ios":"levelo://app?vid=a3f20b06-fbbc-488d-ab74-510676955d57"},"vehicle_type_id":"4","last_reported":1734873124,"current_range_meters":36000,"station_id":"ce4bhq12rcd13ifvqhig","pricing_plan_id":"cebpf4jnsgd1na2vs0mg"},{"bike_id":"14cc687b-71c4-459d-a3eb-47ed89de8453","system_id":"levelo_inurba_marseille","lat":43.29967,"lon":5.38494,"is_reserved":false,"is_disabled":false,"rental_uris":{"android":"levelo://app?vid=14cc687b-71c4-459d-a3eb-47ed89de8453","ios":"levelo://app?vid=14cc687b-71c4-459d-a3eb-47ed89de8453"},"vehicle_type_id":"4","last_reported":1734873124,"current_range_meters":30000,"station_id":"ce4bgj92rcd13ifvqbd0","pricing_plan_id":"cebpf4jnsgd1na2vs0mg"},{"bike_id":"fd040e30-401d-4169-a3ac-fdb5a127115d","system_id":"levelo_inurba_marseille","lat":43.30949,"lon":5.39052,"is_reserved":false,"is_disabled":false,"rental_uris":{"android":"levelo://app?vid=fd040e30-401d-4169-a3ac-fdb5a127115d","ios":"levelo://app?vid=fd040e30-401d-4169-a3ac-fdb5a127115d"},"vehicle_type_id":"4","last_reported":1734873124,"current_range_meters":38000,"station_id":"ce4bgup2rcd13ifvqco0","pricing_plan_id":"cebpf4jnsgd1na2vs0mg"},{"bike_id":"53205f68-2898-4f7b-8818-7fae62be5175","system_id":"levelo_inurba_marseille","lat":43.31357,"lon":5.38501,"is_reserved":false,"is_disabled":false,"rental_uris":{"android":"levelo://app?vid=53205f68-2898-4f7b-8818-7fae62be5175","ios":"levelo://app?vid=53205f68-2898-4f7b-8818-7fae62be5175"},"vehicle_type_id":"4","last_reported":1734873124,"current_range_meters":29600,"station_id":"ce4bgt92rcd13ifvqcf0","pricing_plan_id":"cebpf4jnsgd1na2vs0mg"},{"bike_id":"aefcdcf4-0054-497c-84de-208c38470734","system_id":"levelo_inurba_marseille","lat":43.2937,"lon":5.37859,"is_reserved":false,"is_disabled":false,"rental_uris":{"android":"levelo://app?vid=aefcdcf4-0054-497c-84de-208c38470734","ios":"levelo://app?vid=aefcdcf4-0054-497c-84de-208c38470734"},"vehicle_type_id":"4","last_reported":1734873124,"current_range_meters":24800,"station_id":"ce4bgjh2rcd13ifvqbf0","pricing_plan_id":"cebpf4jnsgd1na2vs0mg"},{"bike_id":"ff19ce84-10b6-4ffc-b9fc-1625914b166c","system_id":"levelo_inurba_marseille","lat":43.29703,"lon":5.3662,"is_reserved":false,"is_disabled":false,"rental_uris":{"android":"levelo://app?vid=ff19ce84-10b6-4ffc-b9fc-1625914b166c","ios":"levelo://app?vid=ff19ce84-10b6-4ffc-b9fc-1625914b166c"},"vehicle_type_id":"4","last_reported":1734873124,"current_range_meters":33600,"station_id":"ce4bgn12rcd13ifvqbt0","pricing_plan_id":"cebpf4jnsgd1na2vs0mg"},{"bike_id":"87d69bc5-f571-4cec-ada1-394c59468abb","system_id":"levelo_inurba_marseille","lat":43.3088,"lon":5.37196,"is_reserved":false,"is_disabled":false,"rental_uris":{"android":"levelo://app?vid=87d69bc5-f571-4cec-ada1-394c59468abb","ios":"levelo://app?vid=87d69bc5-f571-4cec-ada1-394c59468abb"},"vehicle_type_id":"4","last_reported":1734873124,"current_range_meters":38800,"station_id":"ce4bguh2rcd13ifvqckg","pricing_plan_id":"cebpf4jnsgd1na2vs0mg"},{"bike_id":"c889bce7-ce58-4551-b1fe-fe2f91c10fbf","system_id":"levelo_inurba_marseille","lat":43.28928,"lon":5.39637,"is_reserved":false,"is_disabled":false,"rental_uris":{"android":"levelo://app?vid=c889bce7-ce58-4551-b1fe-fe2f91c10fbf","ios":"levelo://app?vid=c889bce7-ce58-4551-b1fe-fe2f91c10fbf"},"vehicle_type_id":"4","last_reported":1734873124,"current_range_meters":38800,"station_id":"ce4bh3h2rcd13ifvqdn0","pricing_plan_id":"cebpf4jnsgd1na2vs0mg"},{"bike_id":"2ecd7a5c-6b03-4906-a193-c1bc16b7668c","system_id":"levelo_inurba_marseille","lat":43.30239,"lon":5.40079,"is_reserved":false,"is_disabled":true,"rental_uris":{"android":"levelo://app?vid=2ecd7a5c-6b03-4906-a193-c1bc16b7668c","ios":"levelo://app?vid=2ecd7a5c-6b03-4906-a193-c1bc16b7668c"},"vehicle_type_id":"4","last_reported":1734873124,"current_range_meters":36800,"station_id":"ce4bgvh2rcd13ifvqcs0","pricing_plan_id":"cebpf4jnsgd1na2vs0mg"},{"bike_id":"4bcb37c0-9249-499d-890c-0bbf93d29f8b","system_id":"levelo_inurba_marseille","lat":43.23185,"lon":5.3556,"is_reserved":false,"is_disabled":true,"rental_uris":{"android":"levelo://app?vid=4bcb37c0-9249-499d-890c-0bbf93d29f8b","ios":"levelo://app?vid=4bcb37c0-9249-499d-890c-0bbf93d29f8b"},"vehicle_type_id":"4","last_reported":1734873124,"current_range_meters":27200,"station_id":"ce4bhu92rcd13ifvqi70","pricing_plan_id":"cebpf4jnsgd1na2vs0mg"},{"bike_id":"57263b19-bd39-4f7b-b29d-fb59d05995ff","system_id":"levelo_inurba_marseille","lat":43.246574,"lon":5.376945,"is_reserved":false,"is_disabled":false,"rental_uris":{"android":"levelo://app?vid=57263b19-bd39-4f7b-b29d-fb59d05995ff","ios":"levelo://app?vid=57263b19-bd39-4f7b-b29d-fb59d05995ff"},"vehicle_type_id":"4","last_reported":1734873124,"current_range_meters":16000,"station_id":"","pricing_plan_id":"cebpf4jnsgd1na2vs0mg"},{"bike_id":"ba23e652-739f-4377-ab3a-1c9bd4208041","system_id":"levelo_inurba_marseille","lat":43.25087,"lon":5.39527,"is_reserved":false,"is_disabled":false,"rental_uris":{"android":"levelo://app?vid=ba23e652-739f-4377-ab3a-1c9bd4208041","ios":"levelo://app?vid=ba23e652-739f-4377-ab3a-1c9bd4208041"},"vehicle_type_id":"4","last_reported":1734873124,"current_range_meters":38800,"station_id":"ce4bhm12rcd13ifvqgkg","pricing_plan_id":"cebpf4jnsgd1na2vs0mg"},{"bike_id":"e512a51e-355e-4ca8-9ee6-3df83dcc8b7b","system_id":"levelo_inurba_marseille","lat":43.29619,"lon":5.37158,"is_reserved":false,"is_disabled":false,"rental_uris":{"android":"levelo://app?vid=e512a51e-355e-4ca8-9ee6-3df83dcc8b7b","ios":"levelo://app?vid=e512a51e-355e-4ca8-9ee6-3df83dcc8b7b"},"vehicle_type_id":"4","last_reported":1734873124,"current_range_meters":10800,"station_id":"ce4bgnh2rcd13ifvqc0g","pricing_plan_id":"cebpf4jnsgd1na2vs0mg"},{"bike_id":"f5a8beca-18b8-4844-9aa0-8575a0784f3d","system_id":"levelo_inurba_marseille","lat":43.26202,"lon":5.37932,"is_reserved":false,"is_disabled":false,"rental_uris":{"android":"levelo://app?vid=f5a8beca-18b8-4844-9aa0-8575a0784f3d","ios":"levelo://app?vid=f5a8beca-18b8-4844-9aa0-8575a0784f3d"},"vehicle_type_id":"4","last_reported":1734873124,"current_range_meters":34800,"station_id":"ce4bhjp2rcd13ifvqg90","pricing_plan_id":"cebpf4jnsgd1na2vs0mg"},{"bike_id":"ee8d4cb3-c7a1-467b-b3ac-f9755b922268","system_id":"levelo_inurba_marseille","lat":43.30458,"lon":5.37935,"is_reserved":false,"is_disabled":false,"rental_uris":{"android":"levelo://app?vid=ee8d4cb3-c7a1-467b-b3ac-f9755b922268","ios":"levelo://app?vid=ee8d4cb3-c7a1-467b-b3ac-f9755b922268"},"vehicle_type_id":"4","last_reported":1734873124,"current_range_meters":29600,"station_id":"ce4bgup2rcd13ifvqcn0","pricing_plan_id":"cebpf4jnsgd1na2vs0mg"},{"bike_id":"343bc065-3555-49ac-90b9-9f9335d87211","system_id":"levelo_inurba_marseille","lat":43.2582,"lon":5.39431,"is_reserved":false,"is_disabled":false,"rental_uris":{"android":"levelo://app?vid=343bc065-3555-49ac-90b9-9f9335d87211","ios":"levelo://app?vid=343bc065-3555-49ac-90b9-9f9335d87211"},"vehicle_type_id":"4","last_reported":1734873124,"current_range_meters":38000,"station_id":"ce4bhip2rcd13ifvqft0","pricing_plan_id":"cebpf4jnsgd1na2vs0mg"},{"bike_id":"e58c1357-a49f-492e-902c-5d902838ade4","system_id":"levelo_inurba_marseille","lat":43.29365,"lon":5.37848,"is_reserved":false,"is_disabled":false,"rental_uris":{"android":"levelo://app?vid=e58c1357-a49f-492e-902c-5d902838ade4","ios":"levelo://app?vid=e58c1357-a49f-492e-902c-5d902838ade4"},"vehicle_type_id":"4","last_reported":1734873124,"current_range_meters":30800,"station_id":"ce4bgjh2rcd13ifvqbf0","pricing_plan_id":"cebpf4jnsgd1na2vs0mg"},{"bike_id":"fe5ae011-c19e-41b7-b7ad-d4ed62f50fe7","system_id":"levelo_inurba_marseille","lat":43.27207,"lon":5.39183,"is_reserved":false,"is_disabled":false,"rental_uris":{"android":"levelo://app?vid=fe5ae011-c19e-41b7-b7ad-d4ed62f50fe7","ios":"levelo://app?vid=fe5ae011-c19e-41b7-b7ad-d4ed62f50fe7"},"vehicle_type_id":"4","last_reported":1734873124,"current_range_meters":34000,"station_id":"ce4bhhp2rcd13ifvqfm0","pricing_plan_id":"cebpf4jnsgd1na2vs0mg"},{"bike_id":"f05c7e32-ee1f-4822-9688-1d8bdc5b4813","system_id":"levelo_inurba_marseille","lat":43.26681,"lon":5.38269,"is_reserved":false,"is_disabled":false,"rental_uris":{"android":"levelo://app?vid=f05c7e32-ee1f-4822-9688-1d8bdc5b4813","ios":"levelo://app?vid=f05c7e32-ee1f-4822-9688-1d8bdc5b4813"},"vehicle_type_id":"4","last_reported":1734873124,"current_range_meters":16000,"station_id":"ce4bhg92rcd13ifvqf90","pricing_plan_id":"cebpf4jnsgd1na2vs0mg"},{"bike_id":"3216941d-b90f-4166-9789-4659f8e52f65","system_id":"levelo_inurba_marseille","lat":43.26556,"lon":5.37288,"is_reserved":false,"is_disabled":false,"rental_uris":{"android":"levelo://app?vid=3216941d-b90f-4166-9789-4659f8e52f65","ios":"levelo://app?vid=3216941d-b90f-4166-9789-4659f8e52f65"},"vehicle_type_id":"4","last_reported":1734873124,"current_range_meters":14400,"station_id":"ce4bhg12rcd13ifvqf70","pricing_plan_id":"cebpf4jnsgd1na2vs0mg"},{"bike_id":"dad6db58-f5bc-4da2-b0b4-3d5d1002166b","system_id":"levelo_inurba_marseille","lat":43.3211,"lon":5.36775,"is_reserved":false,"is_disabled":false,"rental_uris":{"android":"levelo://app?vid=dad6db58-f5bc-4da2-b0b4-3d5d1002166b","ios":"levelo://app?vid=dad6db58-f5bc-4da2-b0b4-3d5d1002166b"},"vehicle_type_id":"4","last_reported":1734873124,"current_range_meters":9600,"station_id":"ce4bhrh2rcd13ifvqhug","pricing_plan_id":"cebpf4jnsgd1na2vs0mg"},{"bike_id":"e1e55b34-0cc8-42c6-b9d9-a442d6ab0cd4","system_id":"levelo_inurba_marseille","lat":43.23189,"lon":5.39987,"is_reserved":false,"is_disabled":false,"rental_uris":{"android":"levelo://app?vid=e1e55b34-0cc8-42c6-b9d9-a442d6ab0cd4","ios":"levelo://app?vid=e1e55b34-0cc8-42c6-b9d9-a442d6ab0cd4"},"vehicle_type_id":"4","last_reported":1734873124,"current_range_meters":22000,"station_id":"ce4bhn12rcd13ifvqgqg","pricing_plan_id":"cebpf4jnsgd1na2vs0mg"},{"bike_id":"60770c9f-5288-402e-a2f3-9eefe1cc354e","system_id":"levelo_inurba_marseille","lat":43.295671,"lon":5.375188,"is_reserved":false,"is_disabled":false,"rental_uris":{"android":"levelo://app?vid=60770c9f-5288-402e-a2f3-9eefe1cc354e","ios":"levelo://app?vid=60770c9f-5288-402e-a2f3-9eefe1cc354e"},"vehicle_type_id":"4","last_reported":1734873124,"current_range_meters":17600,"station_id":"ce4bgh92rcd13ifvqb50","pricing_plan_id":"cebpf4jnsgd1na2vs0mg"},{"bike_id":"d3686b5b-a829-479e-a14a-439694ed183e","system_id":"levelo_inurba_marseille","lat":43.27054,"lon":5.4228,"is_reserved":false,"is_disabled":false,"rental_uris":{"android":"levelo://app?vid=d3686b5b-a829-479e-a14a-439694ed183e","ios":"levelo://app?vid=d3686b5b-a829-479e-a14a-439694ed183e"},"vehicle_type_id":"4","last_reported":1734873124,"current_range_meters":28800,"station_id":"ce4bhk92rcd13ifvqgb0","pricing_plan_id":"cebpf4jnsgd1na2vs0mg"},{"bike_id":"9c40d531-c649-49cb-8395-3f2c6509ecbc","system_id":"levelo_inurba_marseille","lat":43.29297,"lon":5.37455,"is_reserved":false,"is_disabled":false,"rental_uris":{"android":"levelo://app?vid=9c40d531-c649-49cb-8395-3f2c6509ecbc","ios":"levelo://app?vid=9c40d531-c649-49cb-8395-3f2c6509ecbc"},"vehicle_type_id":"4","last_reported":1734873124,"current_range_meters":28800,"station_id":"ce4bgi12rcd13ifvqb70","pricing_plan_id":"cebpf4jnsgd1na2vs0mg"},{"bike_id":"6507bce1-e9b4-4aad-bbab-13ef4b5297a4","system_id":"levelo_inurba_marseille","lat":43.31724,"lon":5.42405,"is_reserved":false,"is_disabled":false,"rental_uris":{"android":"levelo://app?vid=6507bce1-e9b4-4aad-bbab-13ef4b5297a4","ios":"levelo://app?vid=6507bce1-e9b4-4aad-bbab-13ef4b5297a4"},"vehicle_type_id":"4","last_reported":1734873124,"current_range_meters":38800,"station_id":"ce4bhp92rcd13ifvqhbg","pricing_plan_id":"cebpf4jnsgd1na2vs0mg"},{"bike_id":"44127e4e-8e84-4a38-89f7-8f4efb63f7a5","system_id":"levelo_inurba_marseille","lat":43.31191,"lon":5.3675,"is_reserved":false,"is_disabled":true,"rental_uris":{"android":"levelo://app?vid=44127e4e-8e84-4a38-89f7-8f4efb63f7a5","ios":"levelo://app?vid=44127e4e-8e84-4a38-89f7-8f4efb63f7a5"},"vehicle_type_id":"4","last_reported":1734873124,"current_range_meters":0,"station_id":"","pricing_plan_id":"cebpf4jnsgd1na2vs0mg"},{"bike_id":"171b02d4-2048-4af8-8a54-dbdce16409ce","system_id":"levelo_inurba_marseille","lat":43.291,"lon":5.3813,"is_reserved":false,"is_disabled":false,"rental_uris":{"android":"levelo://app?vid=171b02d4-2048-4af8-8a54-dbdce16409ce","ios":"levelo://app?vid=171b02d4-2048-4af8-8a54-dbdce16409ce"},"vehicle_type_id":"4","last_reported":1734873124,"current_range_meters":24400,"station_id":"ce4bh512rcd13ifvqe2g","pricing_plan_id":"cebpf4jnsgd1na2vs0mg"},{"bike_id":"1eef5757-2a74-4727-868d-9821df78eaa2","system_id":"levelo_inurba_marseille","lat":43.25872,"lon":5.39905,"is_reserved":false,"is_disabled":false,"rental_uris":{"android":"levelo://app?vid=1eef5757-2a74-4727-868d-9821df78eaa2","ios":"levelo://app?vid=1eef5757-2a74-4727-868d-9821df78eaa2"},"vehicle_type_id":"4","last_reported":1734873124,"current_range_meters":38800,"station_id":"ce4bhl92rcd13ifvqghg","pricing_plan_id":"cebpf4jnsgd1na2vs0mg"},{"bike_id":"ab786567-8bd4-45bd-b8e6-badf38aee9ee","system_id":"levelo_inurba_marseille","lat":43.31368,"lon":5.3669,"is_reserved":false,"is_disabled":false,"rental_uris":{"android":"levelo://app?vid=ab786567-8bd4-45bd-b8e6-badf38aee9ee","ios":"levelo://app?vid=ab786567-8bd4-45bd-b8e6-badf38aee9ee"},"vehicle_type_id":"4","last_reported":1734873124,"current_range_meters":38000,"station_id":"ce4bgr92rcd13ifvqc6g","pricing_plan_id":"cebpf4jnsgd1na2vs0mg"},{"bike_id":"25537870-c0aa-4ef5-b432-169fbe979bd9","system_id":"levelo_inurba_marseille","lat":43.30458,"lon":5.37911,"is_reserved":false,"is_disabled":false,"rental_uris":{"android":"levelo://app?vid=25537870-c0aa-4ef5-b432-169fbe979bd9","ios":"levelo://app?vid=25537870-c0aa-4ef5-b432-169fbe979bd9"},"vehicle_type_id":"4","last_reported":1734873124,"current_range_meters":22400,"station_id":"ce4bgup2rcd13ifvqcn0","pricing_plan_id":"cebpf4jnsgd1na2vs0mg"},{"bike_id":"6014ebd4-e8ca-4bce-8e30-b2491ea8684f","system_id":"levelo_inurba_marseille","lat":43.24178,"lon":5.39755,"is_reserved":false,"is_disabled":true,"rental_uris":{"android":"levelo://app?vid=6014ebd4-e8ca-4bce-8e30-b2491ea8684f","ios":"levelo://app?vid=6014ebd4-e8ca-4bce-8e30-b2491ea8684f"},"vehicle_type_id":"4","last_reported":1734873124,"current_range_meters":17200,"station_id":"ce4bhn12rcd13ifvqgpg","pricing_plan_id":"cebpf4jnsgd1na2vs0mg"},{"bike_id":"e7393f2b-e420-45d3-9d0f-06b9483abb12","system_id":"levelo_inurba_marseille","lat":43.29351,"lon":5.37863,"is_reserved":false,"is_disabled":false,"rental_uris":{"android":"levelo://app?vid=e7393f2b-e420-45d3-9d0f-06b9483abb12","ios":"levelo://app?vid=e7393f2b-e420-45d3-9d0f-06b9483abb12"},"vehicle_type_id":"4","last_reported":1734873124,"current_range_meters":24000,"station_id":"ce4bgjh2rcd13ifvqbf0","pricing_plan_id":"cebpf4jnsgd1na2vs0mg"},{"bike_id":"8f13b184-1f81-4295-b253-c00df2fe43ab","system_id":"levelo_inurba_marseille","lat":43.30529,"lon":5.36555,"is_reserved":false,"is_disabled":false,"rental_uris":{"android":"levelo://app?vid=8f13b184-1f81-4295-b253-c00df2fe43ab","ios":"levelo://app?vid=8f13b184-1f81-4295-b253-c00df2fe43ab"},"vehicle_type_id":"4","last_reported":1734873124,"current_range_meters":22800,"station_id":"ce4bgs12rcd13ifvqcag","pricing_plan_id":"cebpf4jnsgd1na2vs0mg"},{"bike_id":"1c8f9743-4deb-4e15-8ba2-1dc2049f6ca6","system_id":"levelo_inurba_marseille","lat":43.28611,"lon":5.37066,"is_reserved":false,"is_disabled":false,"rental_uris":{"android":"levelo://app?vid=1c8f9743-4deb-4e15-8ba2-1dc2049f6ca6","ios":"levelo://app?vid=1c8f9743-4deb-4e15-8ba2-1dc2049f6ca6"},"vehicle_type_id":"4","last_reported":1734873124,"current_range_meters":37600,"station_id":"ce4bht12rcd13ifvqi60","pricing_plan_id":"cebpf4jnsgd1na2vs0mg"},{"bike_id":"a59b4cb8-90c9-45c9-b1be-98d2502dd8e7","system_id":"levelo_inurba_marseille","lat":43.24662,"lon":5.38156,"is_reserved":false,"is_disabled":false,"rental_uris":{"android":"levelo://app?vid=a59b4cb8-90c9-45c9-b1be-98d2502dd8e7","ios":"levelo://app?vid=a59b4cb8-90c9-45c9-b1be-98d2502dd8e7"},"vehicle_type_id":"4","last_reported":1734873124,"current_range_meters":30000,"station_id":"ce4bhih2rcd13ifvqfr0","pricing_plan_id":"cebpf4jnsgd1na2vs0mg"},{"bike_id":"4c4857d7-70f5-4e5f-9880-b0ffae53456c","system_id":"levelo_inurba_marseille","lat":43.31222,"lon":5.36852,"is_reserved":false,"is_disabled":false,"rental_uris":{"android":"levelo://app?vid=4c4857d7-70f5-4e5f-9880-b0ffae53456c","ios":"levelo://app?vid=4c4857d7-70f5-4e5f-9880-b0ffae53456c"},"vehicle_type_id":"4","last_reported":1734873124,"current_range_meters":25600,"station_id":"ce4bgl92rcd13ifvqbq0","pricing_plan_id":"cebpf4jnsgd1na2vs0mg"},{"bike_id":"0c5cd037-7dc7-47fd-91ef-14ad0f0cd98b","system_id":"levelo_inurba_marseille","lat":43.2884,"lon":5.35858,"is_reserved":false,"is_disabled":false,"rental_uris":{"android":"levelo://app?vid=0c5cd037-7dc7-47fd-91ef-14ad0f0cd98b","ios":"levelo://app?vid=0c5cd037-7dc7-47fd-91ef-14ad0f0cd98b"},"vehicle_type_id":"4","last_reported":1734873124,"current_range_meters":24000,"station_id":"ce4bhb12rcd13ifvqem0","pricing_plan_id":"cebpf4jnsgd1na2vs0mg"},{"bike_id":"cb4b0459-eadc-4c1d-8da4-e2da5b66641a","system_id":"levelo_inurba_marseille","lat":43.27191,"lon":5.39201,"is_reserved":false,"is_disabled":false,"rental_uris":{"android":"levelo://app?vid=cb4b0459-eadc-4c1d-8da4-e2da5b66641a","ios":"levelo://app?vid=cb4b0459-eadc-4c1d-8da4-e2da5b66641a"},"vehicle_type_id":"4","last_reported":1734873124,"current_range_meters":38800,"station_id":"ce4bhhp2rcd13ifvqfm0","pricing_plan_id":"cebpf4jnsgd1na2vs0mg"},{"bike_id":"3473774f-5c39-4ac0-8737-801f833a85e2","system_id":"levelo_inurba_marseille","lat":43.29908,"lon":5.37456,"is_reserved":false,"is_disabled":false,"rental_uris":{"android":"levelo://app?vid=3473774f-5c39-4ac0-8737-801f833a85e2","ios":"levelo://app?vid=3473774f-5c39-4ac0-8737-801f833a85e2"},"vehicle_type_id":"4","last_reported":1734873124,"current_range_meters":35200,"station_id":"ce4bgjh2rcd13ifvqbg0","pricing_plan_id":"cebpf4jnsgd1na2vs0mg"},{"bike_id":"84e09380-e07c-4182-a487-97ea66008fd0","system_id":"levelo_inurba_marseille","lat":43.297813,"lon":5.381164,"is_reserved":false,"is_disabled":true,"rental_uris":{"android":"levelo://app?vid=84e09380-e07c-4182-a487-97ea66008fd0","ios":"levelo://app?vid=84e09380-e07c-4182-a487-97ea66008fd0"},"vehicle_type_id":"4","last_reported":1734873124,"current_range_meters":30400,"station_id":"ce4bgip2rcd13ifvqbb0","pricing_plan_id":"cebpf4jnsgd1na2vs0mg"},{"bike_id":"9c7eeb5b-f97e-4fc2-ab19-aaf7531bd9e2","system_id":"levelo_inurba_marseille","lat":43.30147,"lon":5.380825,"is_reserved":false,"is_disabled":false,"rental_uris":{"android":"levelo://app?vid=9c7eeb5b-f97e-4fc2-ab19-aaf7531bd9e2","ios":"levelo://app?vid=9c7eeb5b-f97e-4fc2-ab19-aaf7531bd9e2"},"vehicle_type_id":"4","last_reported":1734873124,"current_range_meters":35600,"station_id":"ce4bgjp2rcd13ifvqbh0","pricing_plan_id":"cebpf4jnsgd1na2vs0mg"},{"bike_id":"546add6e-e1b6-46e8-868f-de76822ac11c","system_id":"levelo_inurba_marseille","lat":43.30531,"lon":5.38434,"is_reserved":false,"is_disabled":false,"rental_uris":{"android":"levelo://app?vid=546add6e-e1b6-46e8-868f-de76822ac11c","ios":"levelo://app?vid=546add6e-e1b6-46e8-868f-de76822ac11c"},"vehicle_type_id":"4","last_reported":1734873124,"current_range_meters":36400,"station_id":"ce4bgg92rcd13ifvqb30","pricing_plan_id":"cebpf4jnsgd1na2vs0mg"},{"bike_id":"6814601d-706b-4c6f-bf87-23329d7935ee","system_id":"levelo_inurba_marseille","lat":43.2956,"lon":5.42294,"is_reserved":false,"is_disabled":false,"rental_uris":{"android":"levelo://app?vid=6814601d-706b-4c6f-bf87-23329d7935ee","ios":"levelo://app?vid=6814601d-706b-4c6f-bf87-23329d7935ee"},"vehicle_type_id":"4","last_reported":1734873124,"current_range_meters":17200,"station_id":"ce4bhph2rcd13ifvqhdg","pricing_plan_id":"cebpf4jnsgd1na2vs0mg"},{"bike_id":"b453635f-0279-4d78-aa89-078d023fe480","system_id":"levelo_inurba_marseille","lat":43.29963,"lon":5.38501,"is_reserved":false,"is_disabled":false,"rental_uris":{"android":"levelo://app?vid=b453635f-0279-4d78-aa89-078d023fe480","ios":"levelo://app?vid=b453635f-0279-4d78-aa89-078d023fe480"},"vehicle_type_id":"4","last_reported":1734873124,"current_range_meters":19200,"station_id":"ce4bgj92rcd13ifvqbd0","pricing_plan_id":"cebpf4jnsgd1na2vs0mg"},{"bike_id":"6865cfa9-6a00-44f6-88bd-a2dcea53706b","system_id":"levelo_inurba_marseille","lat":43.25866,"lon":5.39918,"is_reserved":false,"is_disabled":false,"rental_uris":{"android":"levelo://app?vid=6865cfa9-6a00-44f6-88bd-a2dcea53706b","ios":"levelo://app?vid=6865cfa9-6a00-44f6-88bd-a2dcea53706b"},"vehicle_type_id":"4","last_reported":1734873124,"current_range_meters":23200,"station_id":"ce4bhl92rcd13ifvqghg","pricing_plan_id":"cebpf4jnsgd1na2vs0mg"},{"bike_id":"641d39d1-88cc-4f20-9fcf-9a79e49a860c","system_id":"levelo_inurba_marseille","lat":43.28938,"lon":5.36632,"is_reserved":false,"is_disabled":false,"rental_uris":{"android":"levelo://app?vid=641d39d1-88cc-4f20-9fcf-9a79e49a860c","ios":"levelo://app?vid=641d39d1-88cc-4f20-9fcf-9a79e49a860c"},"vehicle_type_id":"4","last_reported":1734873124,"current_range_meters":39200,"station_id":"ce4bhap2rcd13ifvqek0","pricing_plan_id":"cebpf4jnsgd1na2vs0mg"},{"bike_id":"8cd1dbfd-3e4f-4abc-b619-6fa4a3f1a8ad","system_id":"levelo_inurba_marseille","lat":43.26782,"lon":5.39416,"is_reserved":false,"is_disabled":false,"rental_uris":{"android":"levelo://app?vid=8cd1dbfd-3e4f-4abc-b619-6fa4a3f1a8ad","ios":"levelo://app?vid=8cd1dbfd-3e4f-4abc-b619-6fa4a3f1a8ad"},"vehicle_type_id":"4","last_reported":1734873124,"current_range_meters":36400,"station_id":"ce4bhh12rcd13ifvqfg0","pricing_plan_id":"cebpf4jnsgd1na2vs0mg"},{"bike_id":"06c950bf-a847-427e-9be9-4c544219c97d","system_id":"levelo_inurba_marseille","lat":43.30453,"lon":5.37917,"is_reserved":false,"is_disabled":false,"rental_uris":{"android":"levelo://app?vid=06c950bf-a847-427e-9be9-4c544219c97d","ios":"levelo://app?vid=06c950bf-a847-427e-9be9-4c544219c97d"},"vehicle_type_id":"4","last_reported":1734873124,"current_range_meters":26000,"station_id":"ce4bgup2rcd13ifvqcn0","pricing_plan_id":"cebpf4jnsgd1na2vs0mg"},{"bike_id":"54c315b6-ce30-4d23-99a7-a112ef2b7153","system_id":"levelo_inurba_marseille","lat":43.26679,"lon":5.38277,"is_reserved":false,"is_disabled":false,"rental_uris":{"android":"levelo://app?vid=54c315b6-ce30-4d23-99a7-a112ef2b7153","ios":"levelo://app?vid=54c315b6-ce30-4d23-99a7-a112ef2b7153"},"vehicle_type_id":"4","last_reported":1734873124,"current_range_meters":16000,"station_id":"ce4bhg92rcd13ifvqf90","pricing_plan_id":"cebpf4jnsgd1na2vs0mg"},{"bike_id":"7e8975c6-da2c-404e-97b8-cabbfa211dd8","system_id":"levelo_inurba_marseille","lat":43.28926,"lon":5.39623,"is_reserved":false,"is_disabled":true,"rental_uris":{"android":"levelo://app?vid=7e8975c6-da2c-404e-97b8-cabbfa211dd8","ios":"levelo://app?vid=7e8975c6-da2c-404e-97b8-cabbfa211dd8"},"vehicle_type_id":"4","last_reported":1734873124,"current_range_meters":21600,"station_id":"ce4bh3h2rcd13ifvqdn0","pricing_plan_id":"cebpf4jnsgd1na2vs0mg"},{"bike_id":"53350377-5a23-4e0b-a35e-934fe2a3a1f7","system_id":"levelo_inurba_marseille","lat":43.28154,"lon":5.42645,"is_reserved":false,"is_disabled":false,"rental_uris":{"android":"levelo://app?vid=53350377-5a23-4e0b-a35e-934fe2a3a1f7","ios":"levelo://app?vid=53350377-5a23-4e0b-a35e-934fe2a3a1f7"},"vehicle_type_id":"4","last_reported":1734873124,"current_range_meters":23200,"station_id":"ce4bhnh2rcd13ifvqgug","pricing_plan_id":"cebpf4jnsgd1na2vs0mg"},{"bike_id":"763ba5b0-9fe1-4781-8e8b-1d3f78164bf4","system_id":"levelo_inurba_marseille","lat":43.30962,"lon":5.39045,"is_reserved":false,"is_disabled":false,"rental_uris":{"android":"levelo://app?vid=763ba5b0-9fe1-4781-8e8b-1d3f78164bf4","ios":"levelo://app?vid=763ba5b0-9fe1-4781-8e8b-1d3f78164bf4"},"vehicle_type_id":"4","last_reported":1734873124,"current_range_meters":38800,"station_id":"ce4bgup2rcd13ifvqco0","pricing_plan_id":"cebpf4jnsgd1na2vs0mg"},{"bike_id":"d67e77fe-33d0-4f2c-9baa-01a12ea64716","system_id":"levelo_inurba_marseille","lat":43.2557,"lon":5.38239,"is_reserved":false,"is_disabled":false,"rental_uris":{"android":"levelo://app?vid=d67e77fe-33d0-4f2c-9baa-01a12ea64716","ios":"levelo://app?vid=d67e77fe-33d0-4f2c-9baa-01a12ea64716"},"vehicle_type_id":"4","last_reported":1734873124,"current_range_meters":38800,"station_id":"ce4bhih2rcd13ifvqfs0","pricing_plan_id":"cebpf4jnsgd1na2vs0mg"},{"bike_id":"7774400c-8ee3-43ba-8024-d3ebf2de69f5","system_id":"levelo_inurba_marseille","lat":43.27671,"lon":5.3891,"is_reserved":false,"is_disabled":false,"rental_uris":{"android":"levelo://app?vid=7774400c-8ee3-43ba-8024-d3ebf2de69f5","ios":"levelo://app?vid=7774400c-8ee3-43ba-8024-d3ebf2de69f5"},"vehicle_type_id":"4","last_reported":1734873124,"current_range_meters":35200,"station_id":"ce4bhi12rcd13ifvqfo0","pricing_plan_id":"cebpf4jnsgd1na2vs0mg"},{"bike_id":"70816a9d-23a1-47ff-902a-f7c679bbe762","system_id":"levelo_inurba_marseille","lat":43.29729,"lon":5.37684,"is_reserved":false,"is_disabled":false,"rental_uris":{"android":"levelo://app?vid=70816a9d-23a1-47ff-902a-f7c679bbe762","ios":"levelo://app?vid=70816a9d-23a1-47ff-902a-f7c679bbe762"},"vehicle_type_id":"4","last_reported":1734873124,"current_range_meters":20800,"station_id":"ce4bgkh2rcd13ifvqbl0","pricing_plan_id":"cebpf4jnsgd1na2vs0mg"},{"bike_id":"ab6e5928-4160-4e94-9b97-81f68513a835","system_id":"levelo_inurba_marseille","lat":43.29626,"lon":5.40593,"is_reserved":false,"is_disabled":false,"rental_uris":{"android":"levelo://app?vid=ab6e5928-4160-4e94-9b97-81f68513a835","ios":"levelo://app?vid=ab6e5928-4160-4e94-9b97-81f68513a835"},"vehicle_type_id":"4","last_reported":1734873124,"current_range_meters":38000,"station_id":"ce4bh0h2rcd13ifvqd60","pricing_plan_id":"cebpf4jnsgd1na2vs0mg"},{"bike_id":"69822536-6181-499a-a3a9-01b21d954401","system_id":"levelo_inurba_marseille","lat":43.29221,"lon":5.36069,"is_reserved":false,"is_disabled":false,"rental_uris":{"android":"levelo://app?vid=69822536-6181-499a-a3a9-01b21d954401","ios":"levelo://app?vid=69822536-6181-499a-a3a9-01b21d954401"},"vehicle_type_id":"4","last_reported":1734873124,"current_range_meters":22800,"station_id":"ce4bhbh2rcd13ifvqeqg","pricing_plan_id":"cebpf4jnsgd1na2vs0mg"},{"bike_id":"bf9a15af-c387-4e0e-83c2-5db944adc348","system_id":"levelo_inurba_marseille","lat":43.27995,"lon":5.40016,"is_reserved":false,"is_disabled":false,"rental_uris":{"android":"levelo://app?vid=bf9a15af-c387-4e0e-83c2-5db944adc348","ios":"levelo://app?vid=bf9a15af-c387-4e0e-83c2-5db944adc348"},"vehicle_type_id":"4","last_reported":1734873124,"current_range_meters":26000,"station_id":"ce4bho92rcd13ifvqh4g","pricing_plan_id":"cebpf4jnsgd1na2vs0mg"},{"bike_id":"591e56d3-570f-4000-8104-235340497ab2","system_id":"levelo_inurba_marseille","lat":43.28018,"lon":5.36941,"is_reserved":false,"is_disabled":false,"rental_uris":{"android":"levelo://app?vid=591e56d3-570f-4000-8104-235340497ab2","ios":"levelo://app?vid=591e56d3-570f-4000-8104-235340497ab2"},"vehicle_type_id":"4","last_reported":1734873124,"current_range_meters":38800,"station_id":"ce4bha12rcd13ifvqef0","pricing_plan_id":"cebpf4jnsgd1na2vs0mg"},{"bike_id":"f48a14a2-9872-4765-8926-287cde6f0bb7","system_id":"levelo_inurba_marseille","lat":43.29422,"lon":5.38622,"is_reserved":false,"is_disabled":false,"rental_uris":{"android":"levelo://app?vid=f48a14a2-9872-4765-8926-287cde6f0bb7","ios":"levelo://app?vid=f48a14a2-9872-4765-8926-287cde6f0bb7"},"vehicle_type_id":"4","last_reported":1734873124,"current_range_meters":24400,"station_id":"ce4bh2h2rcd13ifvqdh0","pricing_plan_id":"cebpf4jnsgd1na2vs0mg"},{"bike_id":"09c3c41f-73a8-4655-8703-171457b246b1","system_id":"levelo_inurba_marseille","lat":43.26572,"lon":5.39006,"is_reserved":false,"is_disabled":false,"rental_uris":{"android":"levelo://app?vid=09c3c41f-73a8-4655-8703-171457b246b1","ios":"levelo://app?vid=09c3c41f-73a8-4655-8703-171457b246b1"},"vehicle_type_id":"4","last_reported":1734873124,"current_range_meters":38800,"station_id":"ce4bhe12rcd13ifvqf30","pricing_plan_id":"cebpf4jnsgd1na2vs0mg"},{"bike_id":"6bda5f81-4461-449d-a260-822e9ee73f46","system_id":"levelo_inurba_marseille","lat":43.262003,"lon":5.379241,"is_reserved":false,"is_disabled":false,"rental_uris":{"android":"levelo://app?vid=6bda5f81-4461-449d-a260-822e9ee73f46","ios":"levelo://app?vid=6bda5f81-4461-449d-a260-822e9ee73f46"},"vehicle_type_id":"4","last_reported":1734873124,"current_range_meters":35200,"station_id":"ce4bhjp2rcd13ifvqg90","pricing_plan_id":"cebpf4jnsgd1na2vs0mg"},{"bike_id":"62c376e4-92f7-450f-8f5d-5cb85b396d00","system_id":"levelo_inurba_marseille","lat":43.25824,"lon":5.3944,"is_reserved":false,"is_disabled":false,"rental_uris":{"android":"levelo://app?vid=62c376e4-92f7-450f-8f5d-5cb85b396d00","ios":"levelo://app?vid=62c376e4-92f7-450f-8f5d-5cb85b396d00"},"vehicle_type_id":"4","last_reported":1734873124,"current_range_meters":27200,"station_id":"ce4bhip2rcd13ifvqft0","pricing_plan_id":"cebpf4jnsgd1na2vs0mg"},{"bike_id":"39e3c689-23f1-439a-9277-97bd1a4600ec","system_id":"levelo_inurba_marseille","lat":43.32294,"lon":5.38275,"is_reserved":false,"is_disabled":false,"rental_uris":{"android":"levelo://app?vid=39e3c689-23f1-439a-9277-97bd1a4600ec","ios":"levelo://app?vid=39e3c689-23f1-439a-9277-97bd1a4600ec"},"vehicle_type_id":"4","last_reported":1734873124,"current_range_meters":39200,"station_id":"ce4bhr12rcd13ifvqhqg","pricing_plan_id":"cebpf4jnsgd1na2vs0mg"},{"bike_id":"21ebe8be-0e2d-48fc-92b0-4f5dd7d9723b","system_id":"levelo_inurba_marseille","lat":43.34153,"lon":5.40901,"is_reserved":false,"is_disabled":false,"rental_uris":{"android":"levelo://app?vid=21ebe8be-0e2d-48fc-92b0-4f5dd7d9723b","ios":"levelo://app?vid=21ebe8be-0e2d-48fc-92b0-4f5dd7d9723b"},"vehicle_type_id":"4","last_reported":1734873124,"current_range_meters":16400,"station_id":"ce4bhqh2rcd13ifvqhlg","pricing_plan_id":"cebpf4jnsgd1na2vs0mg"},{"bike_id":"45fc8440-6713-4f40-820a-a45516790db5","system_id":"levelo_inurba_marseille","lat":43.30541,"lon":5.36552,"is_reserved":false,"is_disabled":false,"rental_uris":{"android":"levelo://app?vid=45fc8440-6713-4f40-820a-a45516790db5","ios":"levelo://app?vid=45fc8440-6713-4f40-820a-a45516790db5"},"vehicle_type_id":"4","last_reported":1734873124,"current_range_meters":27600,"station_id":"ce4bgs12rcd13ifvqcag","pricing_plan_id":"cebpf4jnsgd1na2vs0mg"},{"bike_id":"b9a2a5db-4e4f-4472-9221-981416be1b6c","system_id":"levelo_inurba_marseille","lat":43.30129,"lon":5.39872,"is_reserved":false,"is_disabled":true,"rental_uris":{"android":"levelo://app?vid=b9a2a5db-4e4f-4472-9221-981416be1b6c","ios":"levelo://app?vid=b9a2a5db-4e4f-4472-9221-981416be1b6c"},"vehicle_type_id":"4","last_reported":1734873124,"current_range_meters":35200,"station_id":"ce4bh0h2rcd13ifvqd40","pricing_plan_id":"cebpf4jnsgd1na2vs0mg"},{"bike_id":"e4e15143-800c-4f49-a6bc-8331a0ba0e9d","system_id":"levelo_inurba_marseille","lat":43.25586,"lon":5.38244,"is_reserved":false,"is_disabled":false,"rental_uris":{"android":"levelo://app?vid=e4e15143-800c-4f49-a6bc-8331a0ba0e9d","ios":"levelo://app?vid=e4e15143-800c-4f49-a6bc-8331a0ba0e9d"},"vehicle_type_id":"4","last_reported":1734873124,"current_range_meters":38800,"station_id":"ce4bhih2rcd13ifvqfs0","pricing_plan_id":"cebpf4jnsgd1na2vs0mg"},{"bike_id":"46c308aa-af0a-4eb7-815a-5fb9b83d1f42","system_id":"levelo_inurba_marseille","lat":43.29921,"lon":5.37458,"is_reserved":false,"is_disabled":false,"rental_uris":{"android":"levelo://app?vid=46c308aa-af0a-4eb7-815a-5fb9b83d1f42","ios":"levelo://app?vid=46c308aa-af0a-4eb7-815a-5fb9b83d1f42"},"vehicle_type_id":"4","last_reported":1734873124,"current_range_meters":38800,"station_id":"ce4bgjh2rcd13ifvqbg0","pricing_plan_id":"cebpf4jnsgd1na2vs0mg"},{"bike_id":"dabdb816-8280-4165-8f88-ae205fe0accb","system_id":"levelo_inurba_marseille","lat":43.23959,"lon":5.36647,"is_reserved":false,"is_disabled":false,"rental_uris":{"android":"levelo://app?vid=dabdb816-8280-4165-8f88-ae205fe0accb","ios":"levelo://app?vid=dabdb816-8280-4165-8f88-ae205fe0accb"},"vehicle_type_id":"4","last_reported":1734873124,"current_range_meters":32000,"station_id":"ce4bhi12rcd13ifvqfp0","pricing_plan_id":"cebpf4jnsgd1na2vs0mg"},{"bike_id":"4db57875-b0ba-4899-a51a-c66cdddcc885","system_id":"levelo_inurba_marseille","lat":43.2603,"lon":5.37576,"is_reserved":false,"is_disabled":false,"rental_uris":{"android":"levelo://app?vid=4db57875-b0ba-4899-a51a-c66cdddcc885","ios":"levelo://app?vid=4db57875-b0ba-4899-a51a-c66cdddcc885"},"vehicle_type_id":"4","last_reported":1734873124,"current_range_meters":19600,"station_id":"ce4bhgh2rcd13ifvqfa0","pricing_plan_id":"cebpf4jnsgd1na2vs0mg"},{"bike_id":"18bc712f-05f8-4bfe-a81a-9b0f3911a5b1","system_id":"levelo_inurba_marseille","lat":43.27548,"lon":5.38443,"is_reserved":false,"is_disabled":false,"rental_uris":{"android":"levelo://app?vid=18bc712f-05f8-4bfe-a81a-9b0f3911a5b1","ios":"levelo://app?vid=18bc712f-05f8-4bfe-a81a-9b0f3911a5b1"},"vehicle_type_id":"4","last_reported":1734873124,"current_range_meters":38800,"station_id":"ce4bhh92rcd13ifvqfi0","pricing_plan_id":"cebpf4jnsgd1na2vs0mg"},{"bike_id":"730a145f-37ad-4cd4-912e-23d6718e4e41","system_id":"levelo_inurba_marseille","lat":43.29921,"lon":5.37464,"is_reserved":false,"is_disabled":false,"rental_uris":{"android":"levelo://app?vid=730a145f-37ad-4cd4-912e-23d6718e4e41","ios":"levelo://app?vid=730a145f-37ad-4cd4-912e-23d6718e4e41"},"vehicle_type_id":"4","last_reported":1734873124,"current_range_meters":37600,"station_id":"ce4bgjh2rcd13ifvqbg0","pricing_plan_id":"cebpf4jnsgd1na2vs0mg"},{"bike_id":"2d995820-d040-480b-a897-bf9d5f03891e","system_id":"levelo_inurba_marseille","lat":43.29363,"lon":5.37871,"is_reserved":false,"is_disabled":true,"rental_uris":{"android":"levelo://app?vid=2d995820-d040-480b-a897-bf9d5f03891e","ios":"levelo://app?vid=2d995820-d040-480b-a897-bf9d5f03891e"},"vehicle_type_id":"4","last_reported":1734873124,"current_range_meters":35600,"station_id":"ce4bgjh2rcd13ifvqbf0","pricing_plan_id":"cebpf4jnsgd1na2vs0mg"},{"bike_id":"343bdba5-56cf-4dfd-9495-0464c409cdad","system_id":"levelo_inurba_marseille","lat":43.2406,"lon":5.3779,"is_reserved":false,"is_disabled":false,"rental_uris":{"android":"levelo://app?vid=343bdba5-56cf-4dfd-9495-0464c409cdad","ios":"levelo://app?vid=343bdba5-56cf-4dfd-9495-0464c409cdad"},"vehicle_type_id":"4","last_reported":1734873124,"current_range_meters":33600,"station_id":"ce4bhnp2rcd13ifvqgvg","pricing_plan_id":"cebpf4jnsgd1na2vs0mg"},{"bike_id":"70abcd4b-ecda-4a83-abb2-ac425f1befa2","system_id":"levelo_inurba_marseille","lat":43.29719,"lon":5.37693,"is_reserved":false,"is_disabled":false,"rental_uris":{"android":"levelo://app?vid=70abcd4b-ecda-4a83-abb2-ac425f1befa2","ios":"levelo://app?vid=70abcd4b-ecda-4a83-abb2-ac425f1befa2"},"vehicle_type_id":"4","last_reported":1734873124,"current_range_meters":19600,"station_id":"ce4bgkh2rcd13ifvqbl0","pricing_plan_id":"cebpf4jnsgd1na2vs0mg"},{"bike_id":"28914c1d-40ed-4db8-aff2-9cd5e739b4f4","system_id":"levelo_inurba_marseille","lat":43.27049,"lon":5.40268,"is_reserved":false,"is_disabled":false,"rental_uris":{"android":"levelo://app?vid=28914c1d-40ed-4db8-aff2-9cd5e739b4f4","ios":"levelo://app?vid=28914c1d-40ed-4db8-aff2-9cd5e739b4f4"},"vehicle_type_id":"4","last_reported":1734873124,"current_range_meters":28800,"station_id":"ce4bhk92rcd13ifvqgc0","pricing_plan_id":"cebpf4jnsgd1na2vs0mg"},{"bike_id":"9e7661e6-cb24-441f-9f34-a97f4c746eea","system_id":"levelo_inurba_marseille","lat":43.3027,"lon":5.37718,"is_reserved":false,"is_disabled":false,"rental_uris":{"android":"levelo://app?vid=9e7661e6-cb24-441f-9f34-a97f4c746eea","ios":"levelo://app?vid=9e7661e6-cb24-441f-9f34-a97f4c746eea"},"vehicle_type_id":"4","last_reported":1734873124,"current_range_meters":36000,"station_id":"ce4bguh2rcd13ifvqcj0","pricing_plan_id":"cebpf4jnsgd1na2vs0mg"},{"bike_id":"dfcdb34a-6d91-4bd5-83b3-df14955564a1","system_id":"levelo_inurba_marseille","lat":43.27826,"lon":5.39209,"is_reserved":false,"is_disabled":true,"rental_uris":{"android":"levelo://app?vid=dfcdb34a-6d91-4bd5-83b3-df14955564a1","ios":"levelo://app?vid=dfcdb34a-6d91-4bd5-83b3-df14955564a1"},"vehicle_type_id":"4","last_reported":1734873124,"current_range_meters":39200,"station_id":"ce4bhjp2rcd13ifvqga0","pricing_plan_id":"cebpf4jnsgd1na2vs0mg"},{"bike_id":"4f188835-24c2-4591-b181-38380001a4af","system_id":"levelo_inurba_marseille","lat":43.24691,"lon":5.3815,"is_reserved":false,"is_disabled":false,"rental_uris":{"android":"levelo://app?vid=4f188835-24c2-4591-b181-38380001a4af","ios":"levelo://app?vid=4f188835-24c2-4591-b181-38380001a4af"},"vehicle_type_id":"4","last_reported":1734873124,"current_range_meters":38800,"station_id":"ce4bhih2rcd13ifvqfr0","pricing_plan_id":"cebpf4jnsgd1na2vs0mg"},{"bike_id":"1482f585-6c4e-4143-bc22-40ccdbc5b2ac","system_id":"levelo_inurba_marseille","lat":43.31174,"lon":5.38723,"is_reserved":false,"is_disabled":false,"rental_uris":{"android":"levelo://app?vid=1482f585-6c4e-4143-bc22-40ccdbc5b2ac","ios":"levelo://app?vid=1482f585-6c4e-4143-bc22-40ccdbc5b2ac"},"vehicle_type_id":"4","last_reported":1734873124,"current_range_meters":28400,"station_id":"ce4bgv12rcd13ifvqcp0","pricing_plan_id":"cebpf4jnsgd1na2vs0mg"},{"bike_id":"732bc5c2-ab3c-4dc8-b7a3-f6a9c2513ff6","system_id":"levelo_inurba_marseille","lat":43.2774,"lon":5.38821,"is_reserved":false,"is_disabled":false,"rental_uris":{"android":"levelo://app?vid=732bc5c2-ab3c-4dc8-b7a3-f6a9c2513ff6","ios":"levelo://app?vid=732bc5c2-ab3c-4dc8-b7a3-f6a9c2513ff6"},"vehicle_type_id":"4","last_reported":1734873124,"current_range_meters":37600,"station_id":"ce4bh192rcd13ifvqdd0","pricing_plan_id":"cebpf4jnsgd1na2vs0mg"},{"bike_id":"14c0d230-2494-4daa-b545-8ab33c913200","system_id":"levelo_inurba_marseille","lat":43.301399,"lon":5.374185,"is_reserved":false,"is_disabled":false,"rental_uris":{"android":"levelo://app?vid=14c0d230-2494-4daa-b545-8ab33c913200","ios":"levelo://app?vid=14c0d230-2494-4daa-b545-8ab33c913200"},"vehicle_type_id":"4","last_reported":1734873124,"current_range_meters":38400,"station_id":"ce4bgs92rcd13ifvqcc0","pricing_plan_id":"cebpf4jnsgd1na2vs0mg"},{"bike_id":"7567c896-fdf9-4f9a-94b8-e1e4f04c391d","system_id":"levelo_inurba_marseille","lat":43.30134,"lon":5.37429,"is_reserved":false,"is_disabled":false,"rental_uris":{"android":"levelo://app?vid=7567c896-fdf9-4f9a-94b8-e1e4f04c391d","ios":"levelo://app?vid=7567c896-fdf9-4f9a-94b8-e1e4f04c391d"},"vehicle_type_id":"4","last_reported":1734873124,"current_range_meters":38000,"station_id":"ce4bgs92rcd13ifvqcc0","pricing_plan_id":"cebpf4jnsgd1na2vs0mg"},{"bike_id":"49580bca-7fdd-4980-ba9d-b58e16ff3054","system_id":"levelo_inurba_marseille","lat":43.29849,"lon":5.36278,"is_reserved":false,"is_disabled":false,"rental_uris":{"android":"levelo://app?vid=49580bca-7fdd-4980-ba9d-b58e16ff3054","ios":"levelo://app?vid=49580bca-7fdd-4980-ba9d-b58e16ff3054"},"vehicle_type_id":"4","last_reported":1734873124,"current_range_meters":32800,"station_id":"ce4bgpp2rcd13ifvqc3g","pricing_plan_id":"cebpf4jnsgd1na2vs0mg"},{"bike_id":"60b37473-5a37-4073-93af-05af4190504d","system_id":"levelo_inurba_marseille","lat":43.26521,"lon":5.39514,"is_reserved":false,"is_disabled":false,"rental_uris":{"android":"levelo://app?vid=60b37473-5a37-4073-93af-05af4190504d","ios":"levelo://app?vid=60b37473-5a37-4073-93af-05af4190504d"},"vehicle_type_id":"4","last_reported":1734873124,"current_range_meters":20400,"station_id":"ce4bhi12rcd13ifvqfq0","pricing_plan_id":"cebpf4jnsgd1na2vs0mg"},{"bike_id":"f420c505-8725-4742-81ff-77a4429e068f","system_id":"levelo_inurba_marseille","lat":43.24175,"lon":5.39731,"is_reserved":false,"is_disabled":false,"rental_uris":{"android":"levelo://app?vid=f420c505-8725-4742-81ff-77a4429e068f","ios":"levelo://app?vid=f420c505-8725-4742-81ff-77a4429e068f"},"vehicle_type_id":"4","last_reported":1734873124,"current_range_meters":38400,"station_id":"ce4bhn12rcd13ifvqgpg","pricing_plan_id":"cebpf4jnsgd1na2vs0mg"},{"bike_id":"ef79c047-6c72-4916-ad9a-fd9a3dd38f21","system_id":"levelo_inurba_marseille","lat":43.27479,"lon":5.42472,"is_reserved":false,"is_disabled":false,"rental_uris":{"android":"levelo://app?vid=ef79c047-6c72-4916-ad9a-fd9a3dd38f21","ios":"levelo://app?vid=ef79c047-6c72-4916-ad9a-fd9a3dd38f21"},"vehicle_type_id":"4","last_reported":1734873124,"current_range_meters":11200,"station_id":"ce4bhn92rcd13ifvqgrg","pricing_plan_id":"cebpf4jnsgd1na2vs0mg"},{"bike_id":"fb5a4893-e782-4d01-836f-7b098b5b58ac","system_id":"levelo_inurba_marseille","lat":43.29264,"lon":5.38451,"is_reserved":false,"is_disabled":false,"rental_uris":{"android":"levelo://app?vid=fb5a4893-e782-4d01-836f-7b098b5b58ac","ios":"levelo://app?vid=fb5a4893-e782-4d01-836f-7b098b5b58ac"},"vehicle_type_id":"4","last_reported":1734873124,"current_range_meters":17200,"station_id":"ce4bh692rcd13ifvqea0","pricing_plan_id":"cebpf4jnsgd1na2vs0mg"},{"bike_id":"a8241d4a-6511-4c13-8389-e037a362bfcf","system_id":"levelo_inurba_marseille","lat":43.28464,"lon":5.359,"is_reserved":false,"is_disabled":false,"rental_uris":{"android":"levelo://app?vid=a8241d4a-6511-4c13-8389-e037a362bfcf","ios":"levelo://app?vid=a8241d4a-6511-4c13-8389-e037a362bfcf"},"vehicle_type_id":"4","last_reported":1734873124,"current_range_meters":37600,"station_id":"ce4bhah2rcd13ifvqei0","pricing_plan_id":"cebpf4jnsgd1na2vs0mg"},{"bike_id":"22dc9479-4c03-46af-b032-d31c9c8e71b4","system_id":"levelo_inurba_marseille","lat":43.311756,"lon":5.386974,"is_reserved":false,"is_disabled":false,"rental_uris":{"android":"levelo://app?vid=22dc9479-4c03-46af-b032-d31c9c8e71b4","ios":"levelo://app?vid=22dc9479-4c03-46af-b032-d31c9c8e71b4"},"vehicle_type_id":"4","last_reported":1734873124,"current_range_meters":24400,"station_id":"ce4bgv12rcd13ifvqcp0","pricing_plan_id":"cebpf4jnsgd1na2vs0mg"},{"bike_id":"537ef1bf-3a78-45af-b334-3a2c52a599a8","system_id":"levelo_inurba_marseille","lat":43.3414,"lon":5.40906,"is_reserved":false,"is_disabled":false,"rental_uris":{"android":"levelo://app?vid=537ef1bf-3a78-45af-b334-3a2c52a599a8","ios":"levelo://app?vid=537ef1bf-3a78-45af-b334-3a2c52a599a8"},"vehicle_type_id":"4","last_reported":1734873124,"current_range_meters":38800,"station_id":"ce4bhqh2rcd13ifvqhlg","pricing_plan_id":"cebpf4jnsgd1na2vs0mg"},{"bike_id":"c3d844aa-872d-45d8-8e01-9492d4abf50d","system_id":"levelo_inurba_marseille","lat":43.273,"lon":5.39124,"is_reserved":false,"is_disabled":false,"rental_uris":{"android":"levelo://app?vid=c3d844aa-872d-45d8-8e01-9492d4abf50d","ios":"levelo://app?vid=c3d844aa-872d-45d8-8e01-9492d4abf50d"},"vehicle_type_id":"4","last_reported":1734873124,"current_range_meters":30400,"station_id":"ce4bhgp2rcd13ifvqfe0","pricing_plan_id":"cebpf4jnsgd1na2vs0mg"},{"bike_id":"7cfa7914-a6fa-49c8-b1ec-dbe48b7366ea","system_id":"levelo_inurba_marseille","lat":43.24386,"lon":5.3706,"is_reserved":false,"is_disabled":false,"rental_uris":{"android":"levelo://app?vid=7cfa7914-a6fa-49c8-b1ec-dbe48b7366ea","ios":"levelo://app?vid=7cfa7914-a6fa-49c8-b1ec-dbe48b7366ea"},"vehicle_type_id":"4","last_reported":1734873124,"current_range_meters":20800,"station_id":"ce4bhhh2rcd13ifvqfk0","pricing_plan_id":"cebpf4jnsgd1na2vs0mg"},{"bike_id":"88451a00-5ecd-4ab5-91f4-d6e64d252e2c","system_id":"levelo_inurba_marseille","lat":43.29287,"lon":5.37454,"is_reserved":false,"is_disabled":true,"rental_uris":{"android":"levelo://app?vid=88451a00-5ecd-4ab5-91f4-d6e64d252e2c","ios":"levelo://app?vid=88451a00-5ecd-4ab5-91f4-d6e64d252e2c"},"vehicle_type_id":"4","last_reported":1734873124,"current_range_meters":38800,"station_id":"ce4bgi12rcd13ifvqb70","pricing_plan_id":"cebpf4jnsgd1na2vs0mg"},{"bike_id":"b07e0204-2c57-49d1-a1f7-320de8610e25","system_id":"levelo_inurba_marseille","lat":43.29402,"lon":5.37344,"is_reserved":false,"is_disabled":false,"rental_uris":{"android":"levelo://app?vid=b07e0204-2c57-49d1-a1f7-320de8610e25","ios":"levelo://app?vid=b07e0204-2c57-49d1-a1f7-320de8610e25"},"vehicle_type_id":"4","last_reported":1734873124,"current_range_meters":28400,"station_id":"","pricing_plan_id":"cebpf4jnsgd1na2vs0mg"},{"bike_id":"45e3c6e8-2425-480d-954d-84a4d8588f4d","system_id":"levelo_inurba_marseille","lat":43.31698,"lon":5.40467,"is_reserved":false,"is_disabled":false,"rental_uris":{"android":"levelo://app?vid=45e3c6e8-2425-480d-954d-84a4d8588f4d","ios":"levelo://app?vid=45e3c6e8-2425-480d-954d-84a4d8588f4d"},"vehicle_type_id":"4","last_reported":1734873124,"current_range_meters":31200,"station_id":"ce4bh012rcd13ifvqd00","pricing_plan_id":"cebpf4jnsgd1na2vs0mg"},{"bike_id":"be0acfaa-4db5-44e9-ba46-919d8c9143a0","system_id":"levelo_inurba_marseille","lat":43.29844,"lon":5.36271,"is_reserved":false,"is_disabled":true,"rental_uris":{"android":"levelo://app?vid=be0acfaa-4db5-44e9-ba46-919d8c9143a0","ios":"levelo://app?vid=be0acfaa-4db5-44e9-ba46-919d8c9143a0"},"vehicle_type_id":"4","last_reported":1734873124,"current_range_meters":1600,"station_id":"ce4bgpp2rcd13ifvqc3g","pricing_plan_id":"cebpf4jnsgd1na2vs0mg"},{"bike_id":"7797c75d-2bdf-4a52-acb2-40a527f21daf","system_id":"levelo_inurba_marseille","lat":43.28941,"lon":5.36644,"is_reserved":false,"is_disabled":false,"rental_uris":{"android":"levelo://app?vid=7797c75d-2bdf-4a52-acb2-40a527f21daf","ios":"levelo://app?vid=7797c75d-2bdf-4a52-acb2-40a527f21daf"},"vehicle_type_id":"4","last_reported":1734873124,"current_range_meters":28400,"station_id":"ce4bhap2rcd13ifvqek0","pricing_plan_id":"cebpf4jnsgd1na2vs0mg"},{"bike_id":"f40e7c61-8a43-4da7-a842-fa391ba2fc6e","system_id":"levelo_inurba_marseille","lat":43.2604,"lon":5.37566,"is_reserved":false,"is_disabled":false,"rental_uris":{"android":"levelo://app?vid=f40e7c61-8a43-4da7-a842-fa391ba2fc6e","ios":"levelo://app?vid=f40e7c61-8a43-4da7-a842-fa391ba2fc6e"},"vehicle_type_id":"4","last_reported":1734873124,"current_range_meters":35200,"station_id":"ce4bhgh2rcd13ifvqfa0","pricing_plan_id":"cebpf4jnsgd1na2vs0mg"},{"bike_id":"0ba6d847-b04d-4662-8e74-a4fd8409ab96","system_id":"levelo_inurba_marseille","lat":43.2679,"lon":5.39453,"is_reserved":false,"is_disabled":true,"rental_uris":{"android":"levelo://app?vid=0ba6d847-b04d-4662-8e74-a4fd8409ab96","ios":"levelo://app?vid=0ba6d847-b04d-4662-8e74-a4fd8409ab96"},"vehicle_type_id":"4","last_reported":1734873124,"current_range_meters":24400,"station_id":"ce4bhh12rcd13ifvqfg0","pricing_plan_id":"cebpf4jnsgd1na2vs0mg"},{"bike_id":"f0bcbb45-555d-4c5b-8534-084b0fafc4e9","system_id":"levelo_inurba_marseille","lat":43.29171,"lon":5.37143,"is_reserved":false,"is_disabled":true,"rental_uris":{"android":"levelo://app?vid=f0bcbb45-555d-4c5b-8534-084b0fafc4e9","ios":"levelo://app?vid=f0bcbb45-555d-4c5b-8534-084b0fafc4e9"},"vehicle_type_id":"4","last_reported":1734873124,"current_range_meters":36000,"station_id":"ce4bha92rcd13ifvqeh0","pricing_plan_id":"cebpf4jnsgd1na2vs0mg"},{"bike_id":"02ab5726-4542-4e6f-ba85-b37abbe4eb69","system_id":"levelo_inurba_marseille","lat":43.29908,"lon":5.38135,"is_reserved":false,"is_disabled":false,"rental_uris":{"android":"levelo://app?vid=02ab5726-4542-4e6f-ba85-b37abbe4eb69","ios":"levelo://app?vid=02ab5726-4542-4e6f-ba85-b37abbe4eb69"},"vehicle_type_id":"4","last_reported":1734873124,"current_range_meters":18800,"station_id":"ce4bgj12rcd13ifvqbc0","pricing_plan_id":"cebpf4jnsgd1na2vs0mg"},{"bike_id":"9f5c7256-fa89-4c39-94bd-af128e89055f","system_id":"levelo_inurba_marseille","lat":43.25501,"lon":5.37652,"is_reserved":false,"is_disabled":false,"rental_uris":{"android":"levelo://app?vid=9f5c7256-fa89-4c39-94bd-af128e89055f","ios":"levelo://app?vid=9f5c7256-fa89-4c39-94bd-af128e89055f"},"vehicle_type_id":"4","last_reported":1734873124,"current_range_meters":28400,"station_id":"ce4bhh12rcd13ifvqff0","pricing_plan_id":"cebpf4jnsgd1na2vs0mg"},{"bike_id":"b002d028-e42c-46e2-93ce-a18a7a90546e","system_id":"levelo_inurba_marseille","lat":43.32284,"lon":5.38286,"is_reserved":false,"is_disabled":false,"rental_uris":{"android":"levelo://app?vid=b002d028-e42c-46e2-93ce-a18a7a90546e","ios":"levelo://app?vid=b002d028-e42c-46e2-93ce-a18a7a90546e"},"vehicle_type_id":"4","last_reported":1734873124,"current_range_meters":38800,"station_id":"ce4bhr12rcd13ifvqhqg","pricing_plan_id":"cebpf4jnsgd1na2vs0mg"},{"bike_id":"63f6e179-512f-44a7-80a0-4970a4e4560e","system_id":"levelo_inurba_marseille","lat":43.29299,"lon":5.3746,"is_reserved":false,"is_disabled":false,"rental_uris":{"android":"levelo://app?vid=63f6e179-512f-44a7-80a0-4970a4e4560e","ios":"levelo://app?vid=63f6e179-512f-44a7-80a0-4970a4e4560e"},"vehicle_type_id":"4","last_reported":1734873124,"current_range_meters":39200,"station_id":"ce4bgi12rcd13ifvqb70","pricing_plan_id":"cebpf4jnsgd1na2vs0mg"},{"bike_id":"725f2ba4-42ee-480b-a31f-097189b1c2cf","system_id":"levelo_inurba_marseille","lat":43.29183,"lon":5.35794,"is_reserved":false,"is_disabled":true,"rental_uris":{"android":"levelo://app?vid=725f2ba4-42ee-480b-a31f-097189b1c2cf","ios":"levelo://app?vid=725f2ba4-42ee-480b-a31f-097189b1c2cf"},"vehicle_type_id":"4","last_reported":1734873124,"current_range_meters":38000,"station_id":"ce4bhb12rcd13ifvqel0","pricing_plan_id":"cebpf4jnsgd1na2vs0mg"},{"bike_id":"6d34d5a6-3eec-49e6-a934-5f8f464af98e","system_id":"levelo_inurba_marseille","lat":43.26204,"lon":5.37435,"is_reserved":false,"is_disabled":false,"rental_uris":{"android":"levelo://app?vid=6d34d5a6-3eec-49e6-a934-5f8f464af98e","ios":"levelo://app?vid=6d34d5a6-3eec-49e6-a934-5f8f464af98e"},"vehicle_type_id":"4","last_reported":1734873124,"current_range_meters":22000,"station_id":"ce4bhgp2rcd13ifvqfc0","pricing_plan_id":"cebpf4jnsgd1na2vs0mg"},{"bike_id":"51ffb053-0261-4426-afce-ebb6ea03b581","system_id":"levelo_inurba_marseille","lat":43.2721,"lon":5.39177,"is_reserved":false,"is_disabled":false,"rental_uris":{"android":"levelo://app?vid=51ffb053-0261-4426-afce-ebb6ea03b581","ios":"levelo://app?vid=51ffb053-0261-4426-afce-ebb6ea03b581"},"vehicle_type_id":"4","last_reported":1734873124,"current_range_meters":36400,"station_id":"ce4bhhp2rcd13ifvqfm0","pricing_plan_id":"cebpf4jnsgd1na2vs0mg"},{"bike_id":"c4ce525d-967d-4663-838d-692388f3fdc6","system_id":"levelo_inurba_marseille","lat":43.29259,"lon":5.40174,"is_reserved":false,"is_disabled":true,"rental_uris":{"android":"levelo://app?vid=c4ce525d-967d-4663-838d-692388f3fdc6","ios":"levelo://app?vid=c4ce525d-967d-4663-838d-692388f3fdc6"},"vehicle_type_id":"4","last_reported":1734873124,"current_range_meters":0,"station_id":"","pricing_plan_id":"cebpf4jnsgd1na2vs0mg"},{"bike_id":"4094ac40-fe97-4483-91f4-bc4b6a97b4f3","system_id":"levelo_inurba_marseille","lat":43.25831,"lon":5.39408,"is_reserved":false,"is_disabled":true,"rental_uris":{"android":"levelo://app?vid=4094ac40-fe97-4483-91f4-bc4b6a97b4f3","ios":"levelo://app?vid=4094ac40-fe97-4483-91f4-bc4b6a97b4f3"},"vehicle_type_id":"4","last_reported":1734873124,"current_range_meters":0,"station_id":"ce4bhip2rcd13ifvqft0","pricing_plan_id":"cebpf4jnsgd1na2vs0mg"},{"bike_id":"ed495aba-f9b6-4311-b39c-649f2202b23f","system_id":"levelo_inurba_marseille","lat":43.27555,"lon":5.38436,"is_reserved":false,"is_disabled":false,"rental_uris":{"android":"levelo://app?vid=ed495aba-f9b6-4311-b39c-649f2202b23f","ios":"levelo://app?vid=ed495aba-f9b6-4311-b39c-649f2202b23f"},"vehicle_type_id":"4","last_reported":1734873124,"current_range_meters":38800,"station_id":"ce4bhh92rcd13ifvqfi0","pricing_plan_id":"cebpf4jnsgd1na2vs0mg"},{"bike_id":"f953c87c-4ea7-4e78-9490-68e955a0946d","system_id":"levelo_inurba_marseille","lat":43.25488,"lon":5.37647,"is_reserved":false,"is_disabled":true,"rental_uris":{"android":"levelo://app?vid=f953c87c-4ea7-4e78-9490-68e955a0946d","ios":"levelo://app?vid=f953c87c-4ea7-4e78-9490-68e955a0946d"},"vehicle_type_id":"4","last_reported":1734873124,"current_range_meters":14000,"station_id":"ce4bhh12rcd13ifvqff0","pricing_plan_id":"cebpf4jnsgd1na2vs0mg"},{"bike_id":"eddf6680-846f-4329-a45c-ae95db2c1ac9","system_id":"levelo_inurba_marseille","lat":43.26212,"lon":5.37445,"is_reserved":false,"is_disabled":false,"rental_uris":{"android":"levelo://app?vid=eddf6680-846f-4329-a45c-ae95db2c1ac9","ios":"levelo://app?vid=eddf6680-846f-4329-a45c-ae95db2c1ac9"},"vehicle_type_id":"4","last_reported":1734873124,"current_range_meters":38000,"station_id":"ce4bhgp2rcd13ifvqfc0","pricing_plan_id":"cebpf4jnsgd1na2vs0mg"},{"bike_id":"6b186745-2091-424b-a646-ec954a3aff8a","system_id":"levelo_inurba_marseille","lat":43.24661,"lon":5.38159,"is_reserved":false,"is_disabled":false,"rental_uris":{"android":"levelo://app?vid=6b186745-2091-424b-a646-ec954a3aff8a","ios":"levelo://app?vid=6b186745-2091-424b-a646-ec954a3aff8a"},"vehicle_type_id":"4","last_reported":1734873124,"current_range_meters":24000,"station_id":"ce4bhih2rcd13ifvqfr0","pricing_plan_id":"cebpf4jnsgd1na2vs0mg"},{"bike_id":"c91da701-8020-4c63-924e-c2588244a161","system_id":"levelo_inurba_marseille","lat":43.31166,"lon":5.38717,"is_reserved":false,"is_disabled":true,"rental_uris":{"android":"levelo://app?vid=c91da701-8020-4c63-924e-c2588244a161","ios":"levelo://app?vid=c91da701-8020-4c63-924e-c2588244a161"},"vehicle_type_id":"4","last_reported":1734873124,"current_range_meters":400,"station_id":"ce4bgv12rcd13ifvqcp0","pricing_plan_id":"cebpf4jnsgd1na2vs0mg"},{"bike_id":"b73b3cc8-26fa-4032-8e99-f74b6ff40c2a","system_id":"levelo_inurba_marseille","lat":43.27014,"lon":5.40216,"is_reserved":false,"is_disabled":false,"rental_uris":{"android":"levelo://app?vid=b73b3cc8-26fa-4032-8e99-f74b6ff40c2a","ios":"levelo://app?vid=b73b3cc8-26fa-4032-8e99-f74b6ff40c2a"},"vehicle_type_id":"4","last_reported":1734873124,"current_range_meters":13600,"station_id":"","pricing_plan_id":"cebpf4jnsgd1na2vs0mg"},{"bike_id":"0fa4fd6a-c920-470e-9628-342bc95af557","system_id":"levelo_inurba_marseille","lat":43.24674,"lon":5.38128,"is_reserved":false,"is_disabled":false,"rental_uris":{"android":"levelo://app?vid=0fa4fd6a-c920-470e-9628-342bc95af557","ios":"levelo://app?vid=0fa4fd6a-c920-470e-9628-342bc95af557"},"vehicle_type_id":"4","last_reported":1734873124,"current_range_meters":33600,"station_id":"ce4bhih2rcd13ifvqfr0","pricing_plan_id":"cebpf4jnsgd1na2vs0mg"},{"bike_id":"32ebf098-e002-4aa6-88f7-5b365ee05e11","system_id":"levelo_inurba_marseille","lat":43.24081,"lon":5.37743,"is_reserved":false,"is_disabled":true,"rental_uris":{"android":"levelo://app?vid=32ebf098-e002-4aa6-88f7-5b365ee05e11","ios":"levelo://app?vid=32ebf098-e002-4aa6-88f7-5b365ee05e11"},"vehicle_type_id":"4","last_reported":1734873124,"current_range_meters":0,"station_id":"ce4bhnp2rcd13ifvqgvg","pricing_plan_id":"cebpf4jnsgd1na2vs0mg"},{"bike_id":"f869b85f-6c79-40ff-9927-e1558317ad30","system_id":"levelo_inurba_marseille","lat":43.26062,"lon":5.39385,"is_reserved":false,"is_disabled":false,"rental_uris":{"android":"levelo://app?vid=f869b85f-6c79-40ff-9927-e1558317ad30","ios":"levelo://app?vid=f869b85f-6c79-40ff-9927-e1558317ad30"},"vehicle_type_id":"4","last_reported":1734873124,"current_range_meters":38800,"station_id":"ce4bhh92rcd13ifvqfj0","pricing_plan_id":"cebpf4jnsgd1na2vs0mg"},{"bike_id":"aea1fce2-2ac2-4214-9613-fa3aae7cc4b7","system_id":"levelo_inurba_marseille","lat":43.29585,"lon":5.37519,"is_reserved":false,"is_disabled":false,"rental_uris":{"android":"levelo://app?vid=aea1fce2-2ac2-4214-9613-fa3aae7cc4b7","ios":"levelo://app?vid=aea1fce2-2ac2-4214-9613-fa3aae7cc4b7"},"vehicle_type_id":"4","last_reported":1734873124,"current_range_meters":30000,"station_id":"ce4bgh92rcd13ifvqb50","pricing_plan_id":"cebpf4jnsgd1na2vs0mg"},{"bike_id":"2eca7853-a930-4d1c-84b1-bcda9d1eab66","system_id":"levelo_inurba_marseille","lat":43.30877,"lon":5.39645,"is_reserved":false,"is_disabled":false,"rental_uris":{"android":"levelo://app?vid=2eca7853-a930-4d1c-84b1-bcda9d1eab66","ios":"levelo://app?vid=2eca7853-a930-4d1c-84b1-bcda9d1eab66"},"vehicle_type_id":"4","last_reported":1734873124,"current_range_meters":8800,"station_id":"ce4bh012rcd13ifvqcv0","pricing_plan_id":"cebpf4jnsgd1na2vs0mg"},{"bike_id":"65aa7d33-db19-4b48-b2a2-a177bc62ee14","system_id":"levelo_inurba_marseille","lat":43.29842,"lon":5.36273,"is_reserved":false,"is_disabled":false,"rental_uris":{"android":"levelo://app?vid=65aa7d33-db19-4b48-b2a2-a177bc62ee14","ios":"levelo://app?vid=65aa7d33-db19-4b48-b2a2-a177bc62ee14"},"vehicle_type_id":"4","last_reported":1734873124,"current_range_meters":34000,"station_id":"ce4bgpp2rcd13ifvqc3g","pricing_plan_id":"cebpf4jnsgd1na2vs0mg"},{"bike_id":"613ef478-edfa-4c2d-aa46-74c062f09223","system_id":"levelo_inurba_marseille","lat":43.30144,"lon":5.37404,"is_reserved":false,"is_disabled":false,"rental_uris":{"android":"levelo://app?vid=613ef478-edfa-4c2d-aa46-74c062f09223","ios":"levelo://app?vid=613ef478-edfa-4c2d-aa46-74c062f09223"},"vehicle_type_id":"4","last_reported":1734873124,"current_range_meters":22000,"station_id":"ce4bgs92rcd13ifvqcc0","pricing_plan_id":"cebpf4jnsgd1na2vs0mg"},{"bike_id":"c3048b7c-6006-413b-beb0-d202b3011a45","system_id":"levelo_inurba_marseille","lat":43.30448,"lon":5.37916,"is_reserved":false,"is_disabled":false,"rental_uris":{"android":"levelo://app?vid=c3048b7c-6006-413b-beb0-d202b3011a45","ios":"levelo://app?vid=c3048b7c-6006-413b-beb0-d202b3011a45"},"vehicle_type_id":"4","last_reported":1734873124,"current_range_meters":29600,"station_id":"ce4bgup2rcd13ifvqcn0","pricing_plan_id":"cebpf4jnsgd1na2vs0mg"},{"bike_id":"ba623d7f-de4d-43e6-9a39-be19938e75fb","system_id":"levelo_inurba_marseille","lat":43.29369,"lon":5.37856,"is_reserved":false,"is_disabled":true,"rental_uris":{"android":"levelo://app?vid=ba623d7f-de4d-43e6-9a39-be19938e75fb","ios":"levelo://app?vid=ba623d7f-de4d-43e6-9a39-be19938e75fb"},"vehicle_type_id":"4","last_reported":1734873124,"current_range_meters":36800,"station_id":"","pricing_plan_id":"cebpf4jnsgd1na2vs0mg"},{"bike_id":"5028cdfd-122f-4fc0-a849-5136996d0f33","system_id":"levelo_inurba_marseille","lat":43.30154,"lon":5.38085,"is_reserved":false,"is_disabled":false,"rental_uris":{"android":"levelo://app?vid=5028cdfd-122f-4fc0-a849-5136996d0f33","ios":"levelo://app?vid=5028cdfd-122f-4fc0-a849-5136996d0f33"},"vehicle_type_id":"4","last_reported":1734873124,"current_range_meters":32400,"station_id":"ce4bgjp2rcd13ifvqbh0","pricing_plan_id":"cebpf4jnsgd1na2vs0mg"},{"bike_id":"8a29122e-f8c4-45cd-bd14-38f840afd86a","system_id":"levelo_inurba_marseille","lat":43.29293,"lon":5.3747,"is_reserved":false,"is_disabled":false,"rental_uris":{"android":"levelo://app?vid=8a29122e-f8c4-45cd-bd14-38f840afd86a","ios":"levelo://app?vid=8a29122e-f8c4-45cd-bd14-38f840afd86a"},"vehicle_type_id":"4","last_reported":1734873124,"current_range_meters":19600,"station_id":"ce4bgi12rcd13ifvqb70","pricing_plan_id":"cebpf4jnsgd1na2vs0mg"},{"bike_id":"b0d452dd-c99e-4677-8979-04c5d831a9e8","system_id":"levelo_inurba_marseille","lat":43.29577,"lon":5.36745,"is_reserved":false,"is_disabled":false,"rental_uris":{"android":"levelo://app?vid=b0d452dd-c99e-4677-8979-04c5d831a9e8","ios":"levelo://app?vid=b0d452dd-c99e-4677-8979-04c5d831a9e8"},"vehicle_type_id":"4","last_reported":1734873124,"current_range_meters":38800,"station_id":"ce4bgph2rcd13ifvqc2g","pricing_plan_id":"cebpf4jnsgd1na2vs0mg"},{"bike_id":"10d16ca8-28c0-405d-8543-1a0f299451c6","system_id":"levelo_inurba_marseille","lat":43.27816,"lon":5.40722,"is_reserved":false,"is_disabled":false,"rental_uris":{"android":"levelo://app?vid=10d16ca8-28c0-405d-8543-1a0f299451c6","ios":"levelo://app?vid=10d16ca8-28c0-405d-8543-1a0f299451c6"},"vehicle_type_id":"4","last_reported":1734873124,"current_range_meters":10800,"station_id":"ce4bhnh2rcd13ifvqgtg","pricing_plan_id":"cebpf4jnsgd1na2vs0mg"},{"bike_id":"d7a9a039-2919-4498-94bc-85df69bbf9b4","system_id":"levelo_inurba_marseille","lat":43.25097,"lon":5.395,"is_reserved":false,"is_disabled":true,"rental_uris":{"android":"levelo://app?vid=d7a9a039-2919-4498-94bc-85df69bbf9b4","ios":"levelo://app?vid=d7a9a039-2919-4498-94bc-85df69bbf9b4"},"vehicle_type_id":"4","last_reported":1734873124,"current_range_meters":0,"station_id":"ce4bhm12rcd13ifvqgkg","pricing_plan_id":"cebpf4jnsgd1na2vs0mg"},{"bike_id":"f6e00a83-cc1f-4aaf-83bb-77e9d3b9e809","system_id":"levelo_inurba_marseille","lat":43.337444,"lon":5.374475,"is_reserved":false,"is_disabled":false,"rental_uris":{"android":"levelo://app?vid=f6e00a83-cc1f-4aaf-83bb-77e9d3b9e809","ios":"levelo://app?vid=f6e00a83-cc1f-4aaf-83bb-77e9d3b9e809"},"vehicle_type_id":"4","last_reported":1734873124,"current_range_meters":24400,"station_id":"","pricing_plan_id":"cebpf4jnsgd1na2vs0mg"},{"bike_id":"4557c5fc-60ed-4c34-9596-70c70138f451","system_id":"levelo_inurba_marseille","lat":43.29621,"lon":5.37152,"is_reserved":false,"is_disabled":true,"rental_uris":{"android":"levelo://app?vid=4557c5fc-60ed-4c34-9596-70c70138f451","ios":"levelo://app?vid=4557c5fc-60ed-4c34-9596-70c70138f451"},"vehicle_type_id":"4","last_reported":1734873124,"current_range_meters":0,"station_id":"","pricing_plan_id":"cebpf4jnsgd1na2vs0mg"},{"bike_id":"23e07abd-81cd-494b-853f-01de9d6cd1c5","system_id":"levelo_inurba_marseille","lat":43.26912,"lon":5.40274,"is_reserved":false,"is_disabled":false,"rental_uris":{"android":"levelo://app?vid=23e07abd-81cd-494b-853f-01de9d6cd1c5","ios":"levelo://app?vid=23e07abd-81cd-494b-853f-01de9d6cd1c5"},"vehicle_type_id":"4","last_reported":1734873124,"current_range_meters":38800,"station_id":"cjm6bp8fraef2m0cb0m0","pricing_plan_id":"cebpf4jnsgd1na2vs0mg"},{"bike_id":"2daf6017-db0c-42c7-86d8-f89177a5712a","system_id":"levelo_inurba_marseille","lat":43.2408,"lon":5.37756,"is_reserved":false,"is_disabled":false,"rental_uris":{"android":"levelo://app?vid=2daf6017-db0c-42c7-86d8-f89177a5712a","ios":"levelo://app?vid=2daf6017-db0c-42c7-86d8-f89177a5712a"},"vehicle_type_id":"4","last_reported":1734873124,"current_range_meters":22000,"station_id":"ce4bhnp2rcd13ifvqgvg","pricing_plan_id":"cebpf4jnsgd1na2vs0mg"},{"bike_id":"5d3dccbb-bf20-44a3-8771-80caee06bf13","system_id":"levelo_inurba_marseille","lat":43.31987,"lon":5.38151,"is_reserved":false,"is_disabled":false,"rental_uris":{"android":"levelo://app?vid=5d3dccbb-bf20-44a3-8771-80caee06bf13","ios":"levelo://app?vid=5d3dccbb-bf20-44a3-8771-80caee06bf13"},"vehicle_type_id":"4","last_reported":1734873124,"current_range_meters":38800,"station_id":"ce4bhr12rcd13ifvqhpg","pricing_plan_id":"cebpf4jnsgd1na2vs0mg"},{"bike_id":"e05683a4-b583-4eb2-86de-28c1fe4b7690","system_id":"levelo_inurba_marseille","lat":43.29074,"lon":5.37172,"is_reserved":false,"is_disabled":false,"rental_uris":{"android":"levelo://app?vid=e05683a4-b583-4eb2-86de-28c1fe4b7690","ios":"levelo://app?vid=e05683a4-b583-4eb2-86de-28c1fe4b7690"},"vehicle_type_id":"4","last_reported":1734873124,"current_range_meters":37600,"station_id":"ce4bh5p2rcd13ifvqe4g","pricing_plan_id":"cebpf4jnsgd1na2vs0mg"},{"bike_id":"a98c7fb1-32b6-47d3-863d-fcb2a8f86141","system_id":"levelo_inurba_marseille","lat":43.27895,"lon":5.37997,"is_reserved":false,"is_disabled":false,"rental_uris":{"android":"levelo://app?vid=a98c7fb1-32b6-47d3-863d-fcb2a8f86141","ios":"levelo://app?vid=a98c7fb1-32b6-47d3-863d-fcb2a8f86141"},"vehicle_type_id":"4","last_reported":1734873124,"current_range_meters":38800,"station_id":"ce4bhf92rcd13ifvqf50","pricing_plan_id":"cebpf4jnsgd1na2vs0mg"},{"bike_id":"ba66dcd7-1375-48c7-9d1c-af860c98462a","system_id":"levelo_inurba_marseille","lat":43.27991,"lon":5.41663,"is_reserved":false,"is_disabled":false,"rental_uris":{"android":"levelo://app?vid=ba66dcd7-1375-48c7-9d1c-af860c98462a","ios":"levelo://app?vid=ba66dcd7-1375-48c7-9d1c-af860c98462a"},"vehicle_type_id":"4","last_reported":1734873124,"current_range_meters":38800,"station_id":"ce4bho12rcd13ifvqh1g","pricing_plan_id":"cebpf4jnsgd1na2vs0mg"},{"bike_id":"8922ed47-2207-42e9-b95e-56584623ff8f","system_id":"levelo_inurba_marseille","lat":43.27828,"lon":5.39205,"is_reserved":false,"is_disabled":false,"rental_uris":{"android":"levelo://app?vid=8922ed47-2207-42e9-b95e-56584623ff8f","ios":"levelo://app?vid=8922ed47-2207-42e9-b95e-56584623ff8f"},"vehicle_type_id":"4","last_reported":1734873124,"current_range_meters":38800,"station_id":"ce4bhjp2rcd13ifvqga0","pricing_plan_id":"cebpf4jnsgd1na2vs0mg"},{"bike_id":"031e0cd8-a7f6-44e5-81cf-3196ebc70dc4","system_id":"levelo_inurba_marseille","lat":43.30536,"lon":5.36542,"is_reserved":false,"is_disabled":true,"rental_uris":{"android":"levelo://app?vid=031e0cd8-a7f6-44e5-81cf-3196ebc70dc4","ios":"levelo://app?vid=031e0cd8-a7f6-44e5-81cf-3196ebc70dc4"},"vehicle_type_id":"4","last_reported":1734873124,"current_range_meters":0,"station_id":"ce4bgs12rcd13ifvqcag","pricing_plan_id":"cebpf4jnsgd1na2vs0mg"},{"bike_id":"8d23ef1c-4d80-41f5-8856-02b6ab55c880","system_id":"levelo_inurba_marseille","lat":43.33727,"lon":5.39193,"is_reserved":false,"is_disabled":false,"rental_uris":{"android":"levelo://app?vid=8d23ef1c-4d80-41f5-8856-02b6ab55c880","ios":"levelo://app?vid=8d23ef1c-4d80-41f5-8856-02b6ab55c880"},"vehicle_type_id":"4","last_reported":1734873124,"current_range_meters":30000,"station_id":"ce4bhr92rcd13ifvqhsg","pricing_plan_id":"cebpf4jnsgd1na2vs0mg"},{"bike_id":"7eef964e-8b71-4771-a5f9-558dc0f6b5fa","system_id":"levelo_inurba_marseille","lat":43.31518,"lon":5.37329,"is_reserved":false,"is_disabled":false,"rental_uris":{"android":"levelo://app?vid=7eef964e-8b71-4771-a5f9-558dc0f6b5fa","ios":"levelo://app?vid=7eef964e-8b71-4771-a5f9-558dc0f6b5fa"},"vehicle_type_id":"4","last_reported":1734873124,"current_range_meters":36400,"station_id":"ce4bgt12rcd13ifvqcd0","pricing_plan_id":"cebpf4jnsgd1na2vs0mg"},{"bike_id":"c0c2e3c9-35d8-45f3-b5bf-303abd9596a2","system_id":"levelo_inurba_marseille","lat":43.29603,"lon":5.37718,"is_reserved":false,"is_disabled":false,"rental_uris":{"android":"levelo://app?vid=c0c2e3c9-35d8-45f3-b5bf-303abd9596a2","ios":"levelo://app?vid=c0c2e3c9-35d8-45f3-b5bf-303abd9596a2"},"vehicle_type_id":"4","last_reported":1734873124,"current_range_meters":38800,"station_id":"ce4bgi92rcd13ifvqb90","pricing_plan_id":"cebpf4jnsgd1na2vs0mg"},{"bike_id":"60d37bab-e0a6-4b11-81f8-85326da8d120","system_id":"levelo_inurba_marseille","lat":43.28944,"lon":5.36629,"is_reserved":false,"is_disabled":true,"rental_uris":{"android":"levelo://app?vid=60d37bab-e0a6-4b11-81f8-85326da8d120","ios":"levelo://app?vid=60d37bab-e0a6-4b11-81f8-85326da8d120"},"vehicle_type_id":"4","last_reported":1734873124,"current_range_meters":8400,"station_id":"ce4bhap2rcd13ifvqek0","pricing_plan_id":"cebpf4jnsgd1na2vs0mg"},{"bike_id":"79f2dfe8-42b3-4de0-af2b-dcda220905e5","system_id":"levelo_inurba_marseille","lat":43.30416,"lon":5.41285,"is_reserved":false,"is_disabled":false,"rental_uris":{"android":"levelo://app?vid=79f2dfe8-42b3-4de0-af2b-dcda220905e5","ios":"levelo://app?vid=79f2dfe8-42b3-4de0-af2b-dcda220905e5"},"vehicle_type_id":"4","last_reported":1734873124,"current_range_meters":17200,"station_id":"ce4bhop2rcd13ifvqh8g","pricing_plan_id":"cebpf4jnsgd1na2vs0mg"},{"bike_id":"dac94ecf-3203-4c89-acc0-21c14e979588","system_id":"levelo_inurba_marseille","lat":43.267,"lon":5.38308,"is_reserved":false,"is_disabled":false,"rental_uris":{"android":"levelo://app?vid=dac94ecf-3203-4c89-acc0-21c14e979588","ios":"levelo://app?vid=dac94ecf-3203-4c89-acc0-21c14e979588"},"vehicle_type_id":"4","last_reported":1734873124,"current_range_meters":26800,"station_id":"ce4bhg92rcd13ifvqf90","pricing_plan_id":"cebpf4jnsgd1na2vs0mg"},{"bike_id":"c38be7c4-ef50-4576-b934-7eacf0a4350f","system_id":"levelo_inurba_marseille","lat":43.2962,"lon":5.40605,"is_reserved":false,"is_disabled":false,"rental_uris":{"android":"levelo://app?vid=c38be7c4-ef50-4576-b934-7eacf0a4350f","ios":"levelo://app?vid=c38be7c4-ef50-4576-b934-7eacf0a4350f"},"vehicle_type_id":"4","last_reported":1734873124,"current_range_meters":26000,"station_id":"ce4bh0h2rcd13ifvqd60","pricing_plan_id":"cebpf4jnsgd1na2vs0mg"},{"bike_id":"ebefe249-7ec5-42c3-8bfa-8b1fd50d0f6c","system_id":"levelo_inurba_marseille","lat":43.31131,"lon":5.37771,"is_reserved":false,"is_disabled":false,"rental_uris":{"android":"levelo://app?vid=ebefe249-7ec5-42c3-8bfa-8b1fd50d0f6c","ios":"levelo://app?vid=ebefe249-7ec5-42c3-8bfa-8b1fd50d0f6c"},"vehicle_type_id":"4","last_reported":1734873124,"current_range_meters":14000,"station_id":"ce4bgt92rcd13ifvqcg0","pricing_plan_id":"cebpf4jnsgd1na2vs0mg"},{"bike_id":"71a2ba42-20f8-4edb-b74c-0e5f42f60dd6","system_id":"levelo_inurba_marseille","lat":43.29544,"lon":5.3748,"is_reserved":false,"is_disabled":false,"rental_uris":{"android":"levelo://app?vid=71a2ba42-20f8-4edb-b74c-0e5f42f60dd6","ios":"levelo://app?vid=71a2ba42-20f8-4edb-b74c-0e5f42f60dd6"},"vehicle_type_id":"4","last_reported":1734873124,"current_range_meters":16800,"station_id":"ce4bgkp2rcd13ifvqbmg","pricing_plan_id":"cebpf4jnsgd1na2vs0mg"},{"bike_id":"89bbf467-a889-43f3-b2aa-bb797985cd3f","system_id":"levelo_inurba_marseille","lat":43.29,"lon":5.35631,"is_reserved":false,"is_disabled":false,"rental_uris":{"android":"levelo://app?vid=89bbf467-a889-43f3-b2aa-bb797985cd3f","ios":"levelo://app?vid=89bbf467-a889-43f3-b2aa-bb797985cd3f"},"vehicle_type_id":"4","last_reported":1734873124,"current_range_meters":38400,"station_id":"ce4bhb92rcd13ifvqen0","pricing_plan_id":"cebpf4jnsgd1na2vs0mg"},{"bike_id":"a4a485f0-f9dd-4a3c-a39d-587a982ff4e8","system_id":"levelo_inurba_marseille","lat":43.27213,"lon":5.39188,"is_reserved":false,"is_disabled":false,"rental_uris":{"android":"levelo://app?vid=a4a485f0-f9dd-4a3c-a39d-587a982ff4e8","ios":"levelo://app?vid=a4a485f0-f9dd-4a3c-a39d-587a982ff4e8"},"vehicle_type_id":"4","last_reported":1734873124,"current_range_meters":16400,"station_id":"ce4bhhp2rcd13ifvqfm0","pricing_plan_id":"cebpf4jnsgd1na2vs0mg"},