{"last_updated":1742371992,"ttl":60,"version":"2.2","data":{"bikes":[{"bike_id":"b96fe5d0-a0bb-41c4-8332-4e427fb846d7","system_id":"levelo_inurba_marseille","lat":43.27967,"lon":5.38718,"is_reserved":false,"is_disabled":false,"rental_uris":{"android":"levelo://app?vid=b96fe5d0-a0bb-41c4-8332-4e427fb846d7","ios":"levelo://app?vid=b96fe5d0-a0bb-41c4-8332-4e427fb846d7"},"vehicle_type_id":"4","last_reported":1742371992,"current_range_meters":2800,"station_id":"ce4bhg12rcd13ifvqf80","pricing_plan_id":"cebpf4jnsgd1na2vs0mg"},{"bike_id":"637995e0-cc0c-4d95-8d5f-d31b4a662aff","system_id":"levelo_inurba_marseille","lat":43.24997,"lon":5.38932,"is_reserved":false,"is_disabled":false,"rental_uris":{"android":"levelo://app?vid=637995e0-cc0c-4d95-8d5f-d31b4a662aff","ios":"levelo://app?vid=637995e0-cc0c-4d95-8d5f-d31b4a662aff"},"vehicle_type_id":"4","last_reported":1742371992,"current_range_meters":2800,"station_id":"ce4bhgp2rcd13ifvqfd0","pricing_plan_id":"cebpf4jnsgd1na2vs0mg"},{"bike_id":"55c83ebf-913d-48a1-abee-3e29e6909fd2","system_id":"levelo_inurba_marseille","lat":43.27982,"lon":5.41675,"is_reserved":false,"is_disabled":true,"rental_uris":{"android":"levelo://app?vid=55c83ebf-913d-48a1-abee-3e29e6909fd2","ios":"levelo://app?vid=55c83ebf-913d-48a1-abee-3e29e6909fd2"},"vehicle_type_id":"4","last_reported":1742371992,"current_range_meters":2800,"station_id":"ce4bho12rcd13ifvqh1g","pricing_plan_id":"cebpf4jnsgd1na2vs0mg"},{"bike_id":"c22bb503-75e9-450e-959a-2d779ba40875","system_id":"levelo_inurba_marseille","lat":43.309,"lon":5.36839,"is_reserved":false,"is_disabled":false,"rental_uris":{"android":"levelo://app?vid=c22bb503-75e9-450e-959a-2d779ba40875","ios":"levelo://app?vid=c22bb503-75e9-450e-959a-2d779ba40875"},"vehicle_type_id":"4","last_reported":1742371992,"current_range_meters":2800,"station_id":"ce4bgn92rcd13ifvqbvg","pricing_plan_id":"cebpf4jnsgd1na2vs0mg"},{"bike_id":"444ca085-c785-4d56-8339-9d70bc0983ca","system_id":"levelo_inurba_marseille","lat":43.30555,"lon":5.36563,"is_reserved":false,"is_disabled":false,"rental_uris":{"android":"levelo://app?vid=444ca085-c785-4d56-8339-9d70bc0983ca","ios":"levelo://app?vid=444ca085-c785-4d56-8339-9d70bc0983ca"},"vehicle_type_id":"4","last_reported":1742371992,"current_range_meters":3200,"station_id":"ce4bgs12rcd13ifvqcag","pricing_plan_id":"cebpf4jnsgd1na2vs0mg"},{"bike_id":"1ddfdf15-6b6f-4a91-a0d6-4120898bdf47","system_id":"levelo_inurba_marseille","lat":43.2558,"lon":5.38239,"is_reserved":false,"is_disabled":false,"rental_uris":{"android":"levelo://app?vid=1ddfdf15-6b6f-4a91-a0d6-4120898bdf47","ios":"levelo://app?vid=1ddfdf15-6b6f-4a91-a0d6-4120898bdf47"},"vehicle_type_id":"4","last_reported":1742371992,"current_range_meters":3200,"station_id":"ce4bhih2rcd13ifvqfs0","pricing_plan_id":"cebpf4jnsgd1na2vs0mg"},{"bike_id":"c90b3e1c-bd66-4435-aed4-55692e4bf897","system_id":"levelo_inurba_marseille","lat":43.30199,"lon":5.36638,"is_reserved":false,"is_disabled":false,"rental_uris":{"android":"levelo://app?vid=c90b3e1c-bd66-4435-aed4-55692e4bf897","ios":"levelo://app?vid=c90b3e1c-bd66-4435-aed4-55692e4bf897"},"vehicle_type_id":"4","last_reported":1742371992,"current_range_meters":2800,"station_id":"ce4bgrh2rcd13ifvqc8g","pricing_plan_id":"cebpf4jnsgd1na2vs0mg"},{"bike_id":"2edd09dd-7abe-4f83-9aaa-dc8af833838e","system_id":"levelo_inurba_marseille","lat":43.29019,"lon":5.40016,"is_reserved":false,"is_disabled":false,"rental_uris":{"android":"levelo://app?vid=2edd09dd-7abe-4f83-9aaa-dc8af833838e","ios":"levelo://app?vid=2edd09dd-7abe-4f83-9aaa-dc8af833838e"},"vehicle_type_id":"4","last_reported":1742371992,"current_range_meters":3200,"station_id":"ce4bh392rcd13ifvqdm0","pricing_plan_id":"cebpf4jnsgd1na2vs0mg"},{"bike_id":"fd04e5af-c40b-4959-b835-28bd614c0d14","system_id":"levelo_inurba_marseille","lat":43.23193,"lon":5.35554,"is_reserved":false,"is_disabled":false,"rental_uris":{"android":"levelo://app?vid=fd04e5af-c40b-4959-b835-28bd614c0d14","ios":"levelo://app?vid=fd04e5af-c40b-4959-b835-28bd614c0d14"},"vehicle_type_id":"4","last_reported":1742371992,"current_range_meters":3200,"station_id":"ce4bhu92rcd13ifvqi70","pricing_plan_id":"cebpf4jnsgd1na2vs0mg"},{"bike_id":"3db91aa6-845b-4ce3-9a81-55687c0461bc","system_id":"levelo_inurba_marseille","lat":43.24986,"lon":5.38925,"is_reserved":false,"is_disabled":false,"rental_uris":{"android":"levelo://app?vid=3db91aa6-845b-4ce3-9a81-55687c0461bc","ios":"levelo://app?vid=3db91aa6-845b-4ce3-9a81-55687c0461bc"},"vehicle_type_id":"4","last_reported":1742371992,"current_range_meters":3200,"station_id":"ce4bhgp2rcd13ifvqfd0","pricing_plan_id":"cebpf4jnsgd1na2vs0mg"},{"bike_id":"b157661b-022b-4aa0-b21e-49789ef76c80","system_id":"levelo_inurba_marseille","lat":43.26152,"lon":5.39781,"is_reserved":false,"is_disabled":false,"rental_uris":{"android":"levelo://app?vid=b157661b-022b-4aa0-b21e-49789ef76c80","ios":"levelo://app?vid=b157661b-022b-4aa0-b21e-49789ef76c80"},"vehicle_type_id":"4","last_reported":1742371992,"current_range_meters":3200,"station_id":"","pricing_plan_id":"cebpf4jnsgd1na2vs0mg"},{"bike_id":"0cd524a9-5590-4c1d-b735-ce705c8034a1","system_id":"levelo_inurba_marseille","lat":43.29379,"lon":5.37865,"is_reserved":false,"is_disabled":false,"rental_uris":{"android":"levelo://app?vid=0cd524a9-5590-4c1d-b735-ce705c8034a1","ios":"levelo://app?vid=0cd524a9-5590-4c1d-b735-ce705c8034a1"},"vehicle_type_id":"4","last_reported":1742371992,"current_range_meters":3200,"station_id":"ce4bgjh2rcd13ifvqbf0","pricing_plan_id":"cebpf4jnsgd1na2vs0mg"},{"bike_id":"916d4bfa-8c3d-4ab2-9d90-24ecce2674a8","system_id":"levelo_inurba_marseille","lat":43.24999,"lon":5.3893,"is_reserved":false,"is_disabled":false,"rental_uris":{"android":"levelo://app?vid=916d4bfa-8c3d-4ab2-9d90-24ecce2674a8","ios":"levelo://app?vid=916d4bfa-8c3d-4ab2-9d90-24ecce2674a8"},"vehicle_type_id":"4","last_reported":1742371992,"current_range_meters":3200,"station_id":"ce4bhgp2rcd13ifvqfd0","pricing_plan_id":"cebpf4jnsgd1na2vs0mg"},{"bike_id":"bf53558a-323c-40e3-9c37-ac64ba388e1c","system_id":"levelo_inurba_marseille","lat":43.23958,"lon":5.36634,"is_reserved":false,"is_disabled":false,"rental_uris":{"android":"levelo://app?vid=bf53558a-323c-40e3-9c37-ac64ba388e1c","ios":"levelo://app?vid=bf53558a-323c-40e3-9c37-ac64ba388e1c"},"vehicle_type_id":"4","last_reported":1742371992,"current_range_meters":3200,"station_id":"ce4bhi12rcd13ifvqfp0","pricing_plan_id":"cebpf4jnsgd1na2vs0mg"},{"bike_id":"6227a0ff-d0ca-42a3-9618-9e5a19927c8d","system_id":"levelo_inurba_marseille","lat":43.279499,"lon":5.410509,"is_reserved":false,"is_disabled":false,"rental_uris":{"android":"levelo://app?vid=6227a0ff-d0ca-42a3-9618-9e5a19927c8d","ios":"levelo://app?vid=6227a0ff-d0ca-42a3-9618-9e5a19927c8d"},"vehicle_type_id":"4","last_reported":1742371992,"current_range_meters":3200,"station_id":"ce4bhnp2rcd13ifvqh0g","pricing_plan_id":"cebpf4jnsgd1na2vs0mg"},{"bike_id":"d1545a85-0a45-478f-b2e4-9f498e55e1ab","system_id":"levelo_inurba_marseille","lat":43.24169,"lon":5.36396,"is_reserved":false,"is_disabled":false,"rental_uris":{"android":"levelo://app?vid=d1545a85-0a45-478f-b2e4-9f498e55e1ab","ios":"levelo://app?vid=d1545a85-0a45-478f-b2e4-9f498e55e1ab"},"vehicle_type_id":"4","last_reported":1742371992,"current_range_meters":3600,"station_id":"cpo36qri1sfpv3e86is0","pricing_plan_id":"cebpf4jnsgd1na2vs0mg"},{"bike_id":"c47cd96f-fb89-45d3-9706-73222cfc8331","system_id":"levelo_inurba_marseille","lat":43.31048,"lon":5.37517,"is_reserved":false,"is_disabled":false,"rental_uris":{"android":"levelo://app?vid=c47cd96f-fb89-45d3-9706-73222cfc8331","ios":"levelo://app?vid=c47cd96f-fb89-45d3-9706-73222cfc8331"},"vehicle_type_id":"4","last_reported":1742371992,"current_range_meters":3600,"station_id":"","pricing_plan_id":"cebpf4jnsgd1na2vs0mg"},{"bike_id":"22224239-5f2c-4009-afd9-f257e1b4b95d","system_id":"levelo_inurba_marseille","lat":43.29038,"lon":5.37555,"is_reserved":false,"is_disabled":false,"rental_uris":{"android":"levelo://app?vid=22224239-5f2c-4009-afd9-f257e1b4b95d","ios":"levelo://app?vid=22224239-5f2c-4009-afd9-f257e1b4b95d"},"vehicle_type_id":"4","last_reported":1742371992,"current_range_meters":4800,"station_id":"ce4bh692rcd13ifvqe90","pricing_plan_id":"cebpf4jnsgd1na2vs0mg"},{"bike_id":"2665cc4b-07ed-4ae6-a66f-2b09983c709d","system_id":"levelo_inurba_marseille","lat":43.33761,"lon":5.37489,"is_reserved":false,"is_disabled":false,"rental_uris":{"android":"levelo://app?vid=2665cc4b-07ed-4ae6-a66f-2b09983c709d","ios":"levelo://app?vid=2665cc4b-07ed-4ae6-a66f-2b09983c709d"},"vehicle_type_id":"4","last_reported":1742371992,"current_range_meters":3600,"station_id":"","pricing_plan_id":"cebpf4jnsgd1na2vs0mg"},{"bike_id":"8257fa4b-011c-40dc-8f4e-ee1db1b5964c","system_id":"levelo_inurba_marseille","lat":43.29269,"lon":5.36848,"is_reserved":false,"is_disabled":false,"rental_uris":{"android":"levelo://app?vid=8257fa4b-011c-40dc-8f4e-ee1db1b5964c","ios":"levelo://app?vid=8257fa4b-011c-40dc-8f4e-ee1db1b5964c"},"vehicle_type_id":"4","last_reported":1742371992,"current_range_meters":3600,"station_id":"ce4bhbp2rcd13ifvqesg","pricing_plan_id":"cebpf4jnsgd1na2vs0mg"},{"bike_id":"0d3accb9-853e-4df0-b9d8-4607b8048f46","system_id":"levelo_inurba_marseille","lat":43.24166,"lon":5.36389,"is_reserved":false,"is_disabled":false,"rental_uris":{"android":"levelo://app?vid=0d3accb9-853e-4df0-b9d8-4607b8048f46","ios":"levelo://app?vid=0d3accb9-853e-4df0-b9d8-4607b8048f46"},"vehicle_type_id":"4","last_reported":1742371992,"current_range_meters":3600,"station_id":"cpo36qri1sfpv3e86is0","pricing_plan_id":"cebpf4jnsgd1na2vs0mg"},{"bike_id":"21032f3f-ddb9-4d93-ad0a-e8740b657459","system_id":"levelo_inurba_marseille","lat":43.26688,"lon":5.38278,"is_reserved":false,"is_disabled":false,"rental_uris":{"android":"levelo://app?vid=21032f3f-ddb9-4d93-ad0a-e8740b657459","ios":"levelo://app?vid=21032f3f-ddb9-4d93-ad0a-e8740b657459"},"vehicle_type_id":"4","last_reported":1742371992,"current_range_meters":3600,"station_id":"ce4bhg92rcd13ifvqf90","pricing_plan_id":"cebpf4jnsgd1na2vs0mg"},{"bike_id":"387c0397-2461-427d-82e7-228478ad047c","system_id":"levelo_inurba_marseille","lat":43.25003,"lon":5.38928,"is_reserved":false,"is_disabled":false,"rental_uris":{"android":"levelo://app?vid=387c0397-2461-427d-82e7-228478ad047c","ios":"levelo://app?vid=387c0397-2461-427d-82e7-228478ad047c"},"vehicle_type_id":"4","last_reported":1742371992,"current_range_meters":3600,"station_id":"ce4bhgp2rcd13ifvqfd0","pricing_plan_id":"cebpf4jnsgd1na2vs0mg"},{"bike_id":"2aa42258-ea51-4b67-b81a-f211c037174a","system_id":"levelo_inurba_marseille","lat":43.31756,"lon":5.39014,"is_reserved":false,"is_disabled":false,"rental_uris":{"android":"levelo://app?vid=2aa42258-ea51-4b67-b81a-f211c037174a","ios":"levelo://app?vid=2aa42258-ea51-4b67-b81a-f211c037174a"},"vehicle_type_id":"4","last_reported":1742371992,"current_range_meters":3600,"station_id":"ce4bhqp2rcd13ifvqhng","pricing_plan_id":"cebpf4jnsgd1na2vs0mg"},{"bike_id":"f51f34c4-1fe1-43c1-b616-3067162d8b45","system_id":"levelo_inurba_marseille","lat":43.24179,"lon":5.39722,"is_reserved":false,"is_disabled":false,"rental_uris":{"android":"levelo://app?vid=f51f34c4-1fe1-43c1-b616-3067162d8b45","ios":"levelo://app?vid=f51f34c4-1fe1-43c1-b616-3067162d8b45"},"vehicle_type_id":"4","last_reported":1742371992,"current_range_meters":3600,"station_id":"ce4bhn12rcd13ifvqgpg","pricing_plan_id":"cebpf4jnsgd1na2vs0mg"},{"bike_id":"6cde2c17-d18b-4507-9013-7b5ebe083d43","system_id":"levelo_inurba_marseille","lat":43.29267,"lon":5.38444,"is_reserved":false,"is_disabled":false,"rental_uris":{"android":"levelo://app?vid=6cde2c17-d18b-4507-9013-7b5ebe083d43","ios":"levelo://app?vid=6cde2c17-d18b-4507-9013-7b5ebe083d43"},"vehicle_type_id":"4","last_reported":1742371992,"current_range_meters":3600,"station_id":"ce4bh692rcd13ifvqea0","pricing_plan_id":"cebpf4jnsgd1na2vs0mg"},{"bike_id":"6752b955-ddf8-41c2-ae27-89529275f41a","system_id":"levelo_inurba_marseille","lat":43.2918,"lon":5.40268,"is_reserved":false,"is_disabled":false,"rental_uris":{"android":"levelo://app?vid=6752b955-ddf8-41c2-ae27-89529275f41a","ios":"levelo://app?vid=6752b955-ddf8-41c2-ae27-89529275f41a"},"vehicle_type_id":"4","last_reported":1742371992,"current_range_meters":3600,"station_id":"ce4bh312rcd13ifvqdk0","pricing_plan_id":"cebpf4jnsgd1na2vs0mg"},{"bike_id":"6b71389f-e60a-489a-a95a-5914b46c2a28","system_id":"levelo_inurba_marseille","lat":43.31335,"lon":5.3676,"is_reserved":false,"is_disabled":false,"rental_uris":{"android":"levelo://app?vid=6b71389f-e60a-489a-a95a-5914b46c2a28","ios":"levelo://app?vid=6b71389f-e60a-489a-a95a-5914b46c2a28"},"vehicle_type_id":"4","last_reported":1742371992,"current_range_meters":3600,"station_id":"ce4bgr92rcd13ifvqc6g","pricing_plan_id":"cebpf4jnsgd1na2vs0mg"},{"bike_id":"5fd9db73-99d7-42b7-ac64-c4835a3e86c4","system_id":"levelo_inurba_marseille","lat":43.29797,"lon":5.38102,"is_reserved":false,"is_disabled":false,"rental_uris":{"android":"levelo://app?vid=5fd9db73-99d7-42b7-ac64-c4835a3e86c4","ios":"levelo://app?vid=5fd9db73-99d7-42b7-ac64-c4835a3e86c4"},"vehicle_type_id":"4","last_reported":1742371992,"current_range_meters":3200,"station_id":"ce4bgip2rcd13ifvqbb0","pricing_plan_id":"cebpf4jnsgd1na2vs0mg"},{"bike_id":"6368f354-6da7-4884-a394-062f1a963ed6","system_id":"levelo_inurba_marseille","lat":43.29296,"lon":5.42812,"is_reserved":false,"is_disabled":false,"rental_uris":{"android":"levelo://app?vid=6368f354-6da7-4884-a394-062f1a963ed6","ios":"levelo://app?vid=6368f354-6da7-4884-a394-062f1a963ed6"},"vehicle_type_id":"4","last_reported":1742371992,"current_range_meters":3600,"station_id":"","pricing_plan_id":"cebpf4jnsgd1na2vs0mg"},{"bike_id":"4542c029-681c-4e55-a94d-0c62b7a336af","system_id":"levelo_inurba_marseille","lat":43.29942,"lon":5.38674,"is_reserved":false,"is_disabled":false,"rental_uris":{"android":"levelo://app?vid=4542c029-681c-4e55-a94d-0c62b7a336af","ios":"levelo://app?vid=4542c029-681c-4e55-a94d-0c62b7a336af"},"vehicle_type_id":"4","last_reported":1742371992,"current_range_meters":3600,"station_id":"ce4bh012rcd13ifvqd10","pricing_plan_id":"cebpf4jnsgd1na2vs0mg"},{"bike_id":"e2f4c9ff-4312-4727-bea5-296d57083a26","system_id":"levelo_inurba_marseille","lat":43.28947,"lon":5.39628,"is_reserved":false,"is_disabled":false,"rental_uris":{"android":"levelo://app?vid=e2f4c9ff-4312-4727-bea5-296d57083a26","ios":"levelo://app?vid=e2f4c9ff-4312-4727-bea5-296d57083a26"},"vehicle_type_id":"4","last_reported":1742371992,"current_range_meters":4000,"station_id":"ce4bh3h2rcd13ifvqdn0","pricing_plan_id":"cebpf4jnsgd1na2vs0mg"},{"bike_id":"8fe7e33b-57fc-439c-ba02-015988635c80","system_id":"levelo_inurba_marseille","lat":43.2708,"lon":5.42291,"is_reserved":false,"is_disabled":true,"rental_uris":{"android":"levelo://app?vid=8fe7e33b-57fc-439c-ba02-015988635c80","ios":"levelo://app?vid=8fe7e33b-57fc-439c-ba02-015988635c80"},"vehicle_type_id":"4","last_reported":1742371992,"current_range_meters":4000,"station_id":"ce4bhk92rcd13ifvqgb0","pricing_plan_id":"cebpf4jnsgd1na2vs0mg"},{"bike_id":"f5c97f8a-2624-4b99-bdf9-59f10ff7cfce","system_id":"levelo_inurba_marseille","lat":43.27612,"lon":5.361,"is_reserved":false,"is_disabled":false,"rental_uris":{"android":"levelo://app?vid=f5c97f8a-2624-4b99-bdf9-59f10ff7cfce","ios":"levelo://app?vid=f5c97f8a-2624-4b99-bdf9-59f10ff7cfce"},"vehicle_type_id":"4","last_reported":1742371992,"current_range_meters":4400,"station_id":"ce4bgj92rcd13ifvqbe0","pricing_plan_id":"cebpf4jnsgd1na2vs0mg"},{"bike_id":"b5da3d9d-e77a-4e03-b03c-39bbc74ed73f","system_id":"levelo_inurba_marseille","lat":43.32539,"lon":5.4143,"is_reserved":false,"is_disabled":false,"rental_uris":{"android":"levelo://app?vid=b5da3d9d-e77a-4e03-b03c-39bbc74ed73f","ios":"levelo://app?vid=b5da3d9d-e77a-4e03-b03c-39bbc74ed73f"},"vehicle_type_id":"4","last_reported":1742371992,"current_range_meters":4400,"station_id":"ce4bhq12rcd13ifvqhhg","pricing_plan_id":"cebpf4jnsgd1na2vs0mg"},{"bike_id":"97a1e633-c2b3-487e-8569-9036bf18d175","system_id":"levelo_inurba_marseille","lat":43.24168,"lon":5.364013,"is_reserved":false,"is_disabled":false,"rental_uris":{"android":"levelo://app?vid=97a1e633-c2b3-487e-8569-9036bf18d175","ios":"levelo://app?vid=97a1e633-c2b3-487e-8569-9036bf18d175"},"vehicle_type_id":"4","last_reported":1742371992,"current_range_meters":4400,"station_id":"cpo36qri1sfpv3e86is0","pricing_plan_id":"cebpf4jnsgd1na2vs0mg"},{"bike_id":"df227953-74ac-4151-8017-3b7a1e24e192","system_id":"levelo_inurba_marseille","lat":43.23977,"lon":5.36637,"is_reserved":false,"is_disabled":false,"rental_uris":{"android":"levelo://app?vid=df227953-74ac-4151-8017-3b7a1e24e192","ios":"levelo://app?vid=df227953-74ac-4151-8017-3b7a1e24e192"},"vehicle_type_id":"4","last_reported":1742371992,"current_range_meters":4800,"station_id":"ce4bhi12rcd13ifvqfp0","pricing_plan_id":"cebpf4jnsgd1na2vs0mg"},{"bike_id":"98429657-deff-4328-bb6c-4f7618245f83","system_id":"levelo_inurba_marseille","lat":43.29536,"lon":5.37513,"is_reserved":false,"is_disabled":false,"rental_uris":{"android":"levelo://app?vid=98429657-deff-4328-bb6c-4f7618245f83","ios":"levelo://app?vid=98429657-deff-4328-bb6c-4f7618245f83"},"vehicle_type_id":"4","last_reported":1742371992,"current_range_meters":4400,"station_id":"ce4bgkp2rcd13ifvqbmg","pricing_plan_id":"cebpf4jnsgd1na2vs0mg"},{"bike_id":"a3ea1aa5-5308-41a5-bb80-121dbfe7c811","system_id":"levelo_inurba_marseille","lat":43.28725,"lon":5.39999,"is_reserved":false,"is_disabled":true,"rental_uris":{"android":"levelo://app?vid=a3ea1aa5-5308-41a5-bb80-121dbfe7c811","ios":"levelo://app?vid=a3ea1aa5-5308-41a5-bb80-121dbfe7c811"},"vehicle_type_id":"4","last_reported":1742371992,"current_range_meters":4400,"station_id":"ce4bho92rcd13ifvqh3g","pricing_plan_id":"cebpf4jnsgd1na2vs0mg"},{"bike_id":"26df7014-ee6b-4190-96cb-9176e42243c5","system_id":"levelo_inurba_marseille","lat":43.33611,"lon":5.41032,"is_reserved":false,"is_disabled":false,"rental_uris":{"android":"levelo://app?vid=26df7014-ee6b-4190-96cb-9176e42243c5","ios":"levelo://app?vid=26df7014-ee6b-4190-96cb-9176e42243c5"},"vehicle_type_id":"4","last_reported":1742371992,"current_range_meters":4400,"station_id":"ce4bhqh2rcd13ifvqhmg","pricing_plan_id":"cebpf4jnsgd1na2vs0mg"},{"bike_id":"8e16691c-6ef8-406b-94cf-7f5affc12792","system_id":"levelo_inurba_marseille","lat":43.31223,"lon":5.36859,"is_reserved":false,"is_disabled":false,"rental_uris":{"android":"levelo://app?vid=8e16691c-6ef8-406b-94cf-7f5affc12792","ios":"levelo://app?vid=8e16691c-6ef8-406b-94cf-7f5affc12792"},"vehicle_type_id":"4","last_reported":1742371992,"current_range_meters":4400,"station_id":"ce4bgl92rcd13ifvqbq0","pricing_plan_id":"cebpf4jnsgd1na2vs0mg"},{"bike_id":"d3cc3b00-f881-4a5a-8920-6e75d0fcab4b","system_id":"levelo_inurba_marseille","lat":43.30278,"lon":5.36914,"is_reserved":false,"is_disabled":false,"rental_uris":{"android":"levelo://app?vid=d3cc3b00-f881-4a5a-8920-6e75d0fcab4b","ios":"levelo://app?vid=d3cc3b00-f881-4a5a-8920-6e75d0fcab4b"},"vehicle_type_id":"4","last_reported":1742371992,"current_range_meters":4400,"station_id":"ce4bgqh2rcd13ifvqc5g","pricing_plan_id":"cebpf4jnsgd1na2vs0mg"},{"bike_id":"75c7d171-41c9-49f4-a46e-fa8d7f6f669c","system_id":"levelo_inurba_marseille","lat":43.30286,"lon":5.37708,"is_reserved":false,"is_disabled":false,"rental_uris":{"android":"levelo://app?vid=75c7d171-41c9-49f4-a46e-fa8d7f6f669c","ios":"levelo://app?vid=75c7d171-41c9-49f4-a46e-fa8d7f6f669c"},"vehicle_type_id":"4","last_reported":1742371992,"current_range_meters":4400,"station_id":"ce4bguh2rcd13ifvqcj0","pricing_plan_id":"cebpf4jnsgd1na2vs0mg"},{"bike_id":"5e2fca71-0f3f-4aa4-affd-fff1472c16b4","system_id":"levelo_inurba_marseille","lat":43.24189,"lon":5.39738,"is_reserved":false,"is_disabled":false,"rental_uris":{"android":"levelo://app?vid=5e2fca71-0f3f-4aa4-affd-fff1472c16b4","ios":"levelo://app?vid=5e2fca71-0f3f-4aa4-affd-fff1472c16b4"},"vehicle_type_id":"4","last_reported":1742371992,"current_range_meters":4400,"station_id":"ce4bhn12rcd13ifvqgpg","pricing_plan_id":"cebpf4jnsgd1na2vs0mg"},{"bike_id":"613d47dd-19fe-4699-9531-1fd6c3a43c75","system_id":"levelo_inurba_marseille","lat":43.23974,"lon":5.3662,"is_reserved":false,"is_disabled":false,"rental_uris":{"android":"levelo://app?vid=613d47dd-19fe-4699-9531-1fd6c3a43c75","ios":"levelo://app?vid=613d47dd-19fe-4699-9531-1fd6c3a43c75"},"vehicle_type_id":"4","last_reported":1742371992,"current_range_meters":4800,"station_id":"ce4bhi12rcd13ifvqfp0","pricing_plan_id":"cebpf4jnsgd1na2vs0mg"},{"bike_id":"00ed3cbb-10e0-480e-9475-0a52fd8c21a9","system_id":"levelo_inurba_marseille","lat":43.26948,"lon":5.38641,"is_reserved":false,"is_disabled":false,"rental_uris":{"android":"levelo://app?vid=00ed3cbb-10e0-480e-9475-0a52fd8c21a9","ios":"levelo://app?vid=00ed3cbb-10e0-480e-9475-0a52fd8c21a9"},"vehicle_type_id":"4","last_reported":1742371992,"current_range_meters":4800,"station_id":"ce4bhh92rcd13ifvqfh0","pricing_plan_id":"cebpf4jnsgd1na2vs0mg"},{"bike_id":"6450165b-aca9-423c-bc17-e78fe46f1184","system_id":"levelo_inurba_marseille","lat":43.23968,"lon":5.36641,"is_reserved":false,"is_disabled":false,"rental_uris":{"android":"levelo://app?vid=6450165b-aca9-423c-bc17-e78fe46f1184","ios":"levelo://app?vid=6450165b-aca9-423c-bc17-e78fe46f1184"},"vehicle_type_id":"4","last_reported":1742371992,"current_range_meters":4800,"station_id":"ce4bhi12rcd13ifvqfp0","pricing_plan_id":"cebpf4jnsgd1na2vs0mg"},{"bike_id":"39921d4f-e888-4f25-9916-244a57e35396","system_id":"levelo_inurba_marseille","lat":43.28478,"lon":5.38429,"is_reserved":false,"is_disabled":false,"rental_uris":{"android":"levelo://app?vid=39921d4f-e888-4f25-9916-244a57e35396","ios":"levelo://app?vid=39921d4f-e888-4f25-9916-244a57e35396"},"vehicle_type_id":"4","last_reported":1742371992,"current_range_meters":4800,"station_id":"ce4bh512rcd13ifvqe3g","pricing_plan_id":"cebpf4jnsgd1na2vs0mg"},{"bike_id":"50aecc23-4672-43c5-ad8f-ae10dcdc1812","system_id":"levelo_inurba_marseille","lat":43.28851,"lon":5.39312,"is_reserved":false,"is_disabled":false,"rental_uris":{"android":"levelo://app?vid=50aecc23-4672-43c5-ad8f-ae10dcdc1812","ios":"levelo://app?vid=50aecc23-4672-43c5-ad8f-ae10dcdc1812"},"vehicle_type_id":"4","last_reported":1742371992,"current_range_meters":4400,"station_id":"ce4bh2p2rcd13ifvqdi0","pricing_plan_id":"cebpf4jnsgd1na2vs0mg"},{"bike_id":"f3fd20cb-87b9-4b5c-8410-0fd8376d1fb5","system_id":"levelo_inurba_marseille","lat":43.30237,"lon":5.40092,"is_reserved":false,"is_disabled":false,"rental_uris":{"android":"levelo://app?vid=f3fd20cb-87b9-4b5c-8410-0fd8376d1fb5","ios":"levelo://app?vid=f3fd20cb-87b9-4b5c-8410-0fd8376d1fb5"},"vehicle_type_id":"4","last_reported":1742371992,"current_range_meters":4800,"station_id":"ce4bgvh2rcd13ifvqcs0","pricing_plan_id":"cebpf4jnsgd1na2vs0mg"},{"bike_id":"a4647986-2229-462e-9248-2a45a552d1fb","system_id":"levelo_inurba_marseille","lat":43.31351,"lon":5.36719,"is_reserved":false,"is_disabled":false,"rental_uris":{"android":"levelo://app?vid=a4647986-2229-462e-9248-2a45a552d1fb","ios":"levelo://app?vid=a4647986-2229-462e-9248-2a45a552d1fb"},"vehicle_type_id":"4","last_reported":1742371992,"current_range_meters":800,"station_id":"ce4bgr92rcd13ifvqc6g","pricing_plan_id":"cebpf4jnsgd1na2vs0mg"},{"bike_id":"8a4e1b2e-8fac-480b-a668-ef6a620a9814","system_id":"levelo_inurba_marseille","lat":43.27876,"lon":5.42445,"is_reserved":false,"is_disabled":false,"rental_uris":{"android":"levelo://app?vid=8a4e1b2e-8fac-480b-a668-ef6a620a9814","ios":"levelo://app?vid=8a4e1b2e-8fac-480b-a668-ef6a620a9814"},"vehicle_type_id":"4","last_reported":1742371992,"current_range_meters":4800,"station_id":"","pricing_plan_id":"cebpf4jnsgd1na2vs0mg"},{"bike_id":"e7ac7a57-bc7a-451e-be23-ef2cbf01a9ae","system_id":"levelo_inurba_marseille","lat":43.29008,"lon":5.37129,"is_reserved":false,"is_disabled":false,"rental_uris":{"android":"levelo://app?vid=e7ac7a57-bc7a-451e-be23-ef2cbf01a9ae","ios":"levelo://app?vid=e7ac7a57-bc7a-451e-be23-ef2cbf01a9ae"},"vehicle_type_id":"4","last_reported":1742371992,"current_range_meters":4800,"station_id":"","pricing_plan_id":"cebpf4jnsgd1na2vs0mg"},{"bike_id":"74a12d76-d9c4-42a8-8b4f-1db62cba8c8a","system_id":"levelo_inurba_marseille","lat":43.30186,"lon":5.36626,"is_reserved":false,"is_disabled":false,"rental_uris":{"android":"levelo://app?vid=74a12d76-d9c4-42a8-8b4f-1db62cba8c8a","ios":"levelo://app?vid=74a12d76-d9c4-42a8-8b4f-1db62cba8c8a"},"vehicle_type_id":"4","last_reported":1742371992,"current_range_meters":5600,"station_id":"ce4bgrh2rcd13ifvqc8g","pricing_plan_id":"cebpf4jnsgd1na2vs0mg"},{"bike_id":"cdb6c2cf-a963-433f-b13e-4192875a8c86","system_id":"levelo_inurba_marseille","lat":43.28617,"lon":5.37056,"is_reserved":false,"is_disabled":false,"rental_uris":{"android":"levelo://app?vid=cdb6c2cf-a963-433f-b13e-4192875a8c86","ios":"levelo://app?vid=cdb6c2cf-a963-433f-b13e-4192875a8c86"},"vehicle_type_id":"4","last_reported":1742371992,"current_range_meters":5600,"station_id":"ce4bht12rcd13ifvqi60","pricing_plan_id":"cebpf4jnsgd1na2vs0mg"},{"bike_id":"1f41a69d-d385-4b94-bbcb-9824c38543a2","system_id":"levelo_inurba_marseille","lat":43.27997,"lon":5.40006,"is_reserved":false,"is_disabled":true,"rental_uris":{"android":"levelo://app?vid=1f41a69d-d385-4b94-bbcb-9824c38543a2","ios":"levelo://app?vid=1f41a69d-d385-4b94-bbcb-9824c38543a2"},"vehicle_type_id":"4","last_reported":1742371992,"current_range_meters":5600,"station_id":"ce4bho92rcd13ifvqh4g","pricing_plan_id":"cebpf4jnsgd1na2vs0mg"},{"bike_id":"a2b55b3e-6d2a-48ab-b87d-838913aa8d96","system_id":"levelo_inurba_marseille","lat":43.25935,"lon":5.40897,"is_reserved":false,"is_disabled":false,"rental_uris":{"android":"levelo://app?vid=a2b55b3e-6d2a-48ab-b87d-838913aa8d96","ios":"levelo://app?vid=a2b55b3e-6d2a-48ab-b87d-838913aa8d96"},"vehicle_type_id":"4","last_reported":1742371992,"current_range_meters":6000,"station_id":"ce4bhm92rcd13ifvqglg","pricing_plan_id":"cebpf4jnsgd1na2vs0mg"},{"bike_id":"900606e9-1414-408c-b609-f4c9952f2d0c","system_id":"levelo_inurba_marseille","lat":43.31126,"lon":5.37769,"is_reserved":false,"is_disabled":true,"rental_uris":{"android":"levelo://app?vid=900606e9-1414-408c-b609-f4c9952f2d0c","ios":"levelo://app?vid=900606e9-1414-408c-b609-f4c9952f2d0c"},"vehicle_type_id":"4","last_reported":1742371992,"current_range_meters":6000,"station_id":"ce4bgt92rcd13ifvqcg0","pricing_plan_id":"cebpf4jnsgd1na2vs0mg"},{"bike_id":"99dd7654-2075-4099-aec2-4e77510eab61","system_id":"levelo_inurba_marseille","lat":43.33603,"lon":5.41036,"is_reserved":false,"is_disabled":false,"rental_uris":{"android":"levelo://app?vid=99dd7654-2075-4099-aec2-4e77510eab61","ios":"levelo://app?vid=99dd7654-2075-4099-aec2-4e77510eab61"},"vehicle_type_id":"4","last_reported":1742371992,"current_range_meters":6000,"station_id":"ce4bhqh2rcd13ifvqhmg","pricing_plan_id":"cebpf4jnsgd1na2vs0mg"},{"bike_id":"538b2a74-6dc4-43cc-b3ce-cd2555f34771","system_id":"levelo_inurba_marseille","lat":43.30948,"lon":5.39031,"is_reserved":false,"is_disabled":true,"rental_uris":{"android":"levelo://app?vid=538b2a74-6dc4-43cc-b3ce-cd2555f34771","ios":"levelo://app?vid=538b2a74-6dc4-43cc-b3ce-cd2555f34771"},"vehicle_type_id":"4","last_reported":1742371992,"current_range_meters":6400,"station_id":"ce4bgup2rcd13ifvqco0","pricing_plan_id":"cebpf4jnsgd1na2vs0mg"},{"bike_id":"284246fb-e8a0-47be-af3d-27a97f0de6bc","system_id":"levelo_inurba_marseille","lat":43.24076,"lon":5.37746,"is_reserved":false,"is_disabled":false,"rental_uris":{"android":"levelo://app?vid=284246fb-e8a0-47be-af3d-27a97f0de6bc","ios":"levelo://app?vid=284246fb-e8a0-47be-af3d-27a97f0de6bc"},"vehicle_type_id":"4","last_reported":1742371992,"current_range_meters":6400,"station_id":"ce4bhnp2rcd13ifvqgvg","pricing_plan_id":"cebpf4jnsgd1na2vs0mg"},{"bike_id":"52bd4f14-775f-459f-9791-851d088e69cb","system_id":"levelo_inurba_marseille","lat":43.25015,"lon":5.38929,"is_reserved":false,"is_disabled":false,"rental_uris":{"android":"levelo://app?vid=52bd4f14-775f-459f-9791-851d088e69cb","ios":"levelo://app?vid=52bd4f14-775f-459f-9791-851d088e69cb"},"vehicle_type_id":"4","last_reported":1742371992,"current_range_meters":6400,"station_id":"ce4bhgp2rcd13ifvqfd0","pricing_plan_id":"cebpf4jnsgd1na2vs0mg"},{"bike_id":"5cc7107b-4638-44b7-9016-fb56a8137a82","system_id":"levelo_inurba_marseille","lat":43.33006,"lon":5.39026,"is_reserved":false,"is_disabled":false,"rental_uris":{"android":"levelo://app?vid=5cc7107b-4638-44b7-9016-fb56a8137a82","ios":"levelo://app?vid=5cc7107b-4638-44b7-9016-fb56a8137a82"},"vehicle_type_id":"4","last_reported":1742371992,"current_range_meters":6400,"station_id":"ce4bhr92rcd13ifvqhrg","pricing_plan_id":"cebpf4jnsgd1na2vs0mg"},{"bike_id":"4f6d11f4-8d23-4e35-8c59-e818e64ce7ab","system_id":"levelo_inurba_marseille","lat":43.29528,"lon":5.43899,"is_reserved":false,"is_disabled":false,"rental_uris":{"android":"levelo://app?vid=4f6d11f4-8d23-4e35-8c59-e818e64ce7ab","ios":"levelo://app?vid=4f6d11f4-8d23-4e35-8c59-e818e64ce7ab"},"vehicle_type_id":"4","last_reported":1742371992,"current_range_meters":6400,"station_id":"","pricing_plan_id":"cebpf4jnsgd1na2vs0mg"},{"bike_id":"61e9fd90-e9dd-462d-a9bd-1aa2307b7287","system_id":"levelo_inurba_marseille","lat":43.231851,"lon":5.436645,"is_reserved":false,"is_disabled":false,"rental_uris":{"android":"levelo://app?vid=61e9fd90-e9dd-462d-a9bd-1aa2307b7287","ios":"levelo://app?vid=61e9fd90-e9dd-462d-a9bd-1aa2307b7287"},"vehicle_type_id":"4","last_reported":1742371992,"current_range_meters":6400,"station_id":"ce4bhmp2rcd13ifvqgog","pricing_plan_id":"cebpf4jnsgd1na2vs0mg"},{"bike_id":"2b13f4ac-f5a7-4be7-a38e-b248ce22b04d","system_id":"levelo_inurba_marseille","lat":43.31224,"lon":5.36857,"is_reserved":false,"is_disabled":false,"rental_uris":{"android":"levelo://app?vid=2b13f4ac-f5a7-4be7-a38e-b248ce22b04d","ios":"levelo://app?vid=2b13f4ac-f5a7-4be7-a38e-b248ce22b04d"},"vehicle_type_id":"4","last_reported":1742371992,"current_range_meters":6400,"station_id":"ce4bgl92rcd13ifvqbq0","pricing_plan_id":"cebpf4jnsgd1na2vs0mg"},{"bike_id":"c8aebf71-8f92-4a15-a86e-14c7cfbd9a29","system_id":"levelo_inurba_marseille","lat":43.29629,"lon":5.38022,"is_reserved":false,"is_disabled":false,"rental_uris":{"android":"levelo://app?vid=c8aebf71-8f92-4a15-a86e-14c7cfbd9a29","ios":"levelo://app?vid=c8aebf71-8f92-4a15-a86e-14c7cfbd9a29"},"vehicle_type_id":"4","last_reported":1742371992,"current_range_meters":6400,"station_id":"","pricing_plan_id":"cebpf4jnsgd1na2vs0mg"},{"bike_id":"aeade7b5-8670-49e4-937d-b3a3781105ed","system_id":"levelo_inurba_marseille","lat":43.30283,"lon":5.3769,"is_reserved":false,"is_disabled":false,"rental_uris":{"android":"levelo://app?vid=aeade7b5-8670-49e4-937d-b3a3781105ed","ios":"levelo://app?vid=aeade7b5-8670-49e4-937d-b3a3781105ed"},"vehicle_type_id":"4","last_reported":1742371992,"current_range_meters":6000,"station_id":"ce4bguh2rcd13ifvqcj0","pricing_plan_id":"cebpf4jnsgd1na2vs0mg"},{"bike_id":"8f79f3b7-6513-4def-bb2d-05a7d82b97a5","system_id":"levelo_inurba_marseille","lat":43.24173,"lon":5.364,"is_reserved":false,"is_disabled":false,"rental_uris":{"android":"levelo://app?vid=8f79f3b7-6513-4def-bb2d-05a7d82b97a5","ios":"levelo://app?vid=8f79f3b7-6513-4def-bb2d-05a7d82b97a5"},"vehicle_type_id":"4","last_reported":1742371992,"current_range_meters":6400,"station_id":"cpo36qri1sfpv3e86is0","pricing_plan_id":"cebpf4jnsgd1na2vs0mg"},{"bike_id":"0be2b54a-2df5-4cb9-ab77-c64ea4c4d6a6","system_id":"levelo_inurba_marseille","lat":43.2955,"lon":5.42267,"is_reserved":false,"is_disabled":false,"rental_uris":{"android":"levelo://app?vid=0be2b54a-2df5-4cb9-ab77-c64ea4c4d6a6","ios":"levelo://app?vid=0be2b54a-2df5-4cb9-ab77-c64ea4c4d6a6"},"vehicle_type_id":"4","last_reported":1742371992,"current_range_meters":6800,"station_id":"ce4bhph2rcd13ifvqhdg","pricing_plan_id":"cebpf4jnsgd1na2vs0mg"},{"bike_id":"5b317713-25ad-4983-b78e-6861d0c26e0b","system_id":"levelo_inurba_marseille","lat":43.30943,"lon":5.39028,"is_reserved":false,"is_disabled":false,"rental_uris":{"android":"levelo://app?vid=5b317713-25ad-4983-b78e-6861d0c26e0b","ios":"levelo://app?vid=5b317713-25ad-4983-b78e-6861d0c26e0b"},"vehicle_type_id":"4","last_reported":1742371992,"current_range_meters":6800,"station_id":"ce4bgup2rcd13ifvqco0","pricing_plan_id":"cebpf4jnsgd1na2vs0mg"},{"bike_id":"b42f4c9a-9892-43f7-a581-bbb76ea4bd1b","system_id":"levelo_inurba_marseille","lat":43.314797,"lon":5.373117,"is_reserved":false,"is_disabled":false,"rental_uris":{"android":"levelo://app?vid=b42f4c9a-9892-43f7-a581-bbb76ea4bd1b","ios":"levelo://app?vid=b42f4c9a-9892-43f7-a581-bbb76ea4bd1b"},"vehicle_type_id":"4","last_reported":1742371992,"current_range_meters":6400,"station_id":"ce4bgt12rcd13ifvqcd0","pricing_plan_id":"cebpf4jnsgd1na2vs0mg"},{"bike_id":"d0ecd06f-b344-485c-8550-9fa5bf448f53","system_id":"levelo_inurba_marseille","lat":43.25835,"lon":5.39446,"is_reserved":false,"is_disabled":false,"rental_uris":{"android":"levelo://app?vid=d0ecd06f-b344-485c-8550-9fa5bf448f53","ios":"levelo://app?vid=d0ecd06f-b344-485c-8550-9fa5bf448f53"},"vehicle_type_id":"4","last_reported":1742371992,"current_range_meters":6800,"station_id":"ce4bhip2rcd13ifvqft0","pricing_plan_id":"cebpf4jnsgd1na2vs0mg"},{"bike_id":"6d9af3d2-64a4-4940-82e8-d40c3df7c517","system_id":"levelo_inurba_marseille","lat":43.30139,"lon":5.37411,"is_reserved":false,"is_disabled":false,"rental_uris":{"android":"levelo://app?vid=6d9af3d2-64a4-4940-82e8-d40c3df7c517","ios":"levelo://app?vid=6d9af3d2-64a4-4940-82e8-d40c3df7c517"},"vehicle_type_id":"4","last_reported":1742371992,"current_range_meters":6800,"station_id":"ce4bgs92rcd13ifvqcc0","pricing_plan_id":"cebpf4jnsgd1na2vs0mg"},{"bike_id":"8528cfd6-758c-4197-aaac-800294acfea6","system_id":"levelo_inurba_marseille","lat":43.25876,"lon":5.39894,"is_reserved":false,"is_disabled":false,"rental_uris":{"android":"levelo://app?vid=8528cfd6-758c-4197-aaac-800294acfea6","ios":"levelo://app?vid=8528cfd6-758c-4197-aaac-800294acfea6"},"vehicle_type_id":"4","last_reported":1742371992,"current_range_meters":6800,"station_id":"ce4bhl92rcd13ifvqghg","pricing_plan_id":"cebpf4jnsgd1na2vs0mg"},{"bike_id":"faccb755-09d8-4857-a76e-a52465dbf53e","system_id":"levelo_inurba_marseille","lat":43.284143,"lon":5.349982,"is_reserved":false,"is_disabled":false,"rental_uris":{"android":"levelo://app?vid=faccb755-09d8-4857-a76e-a52465dbf53e","ios":"levelo://app?vid=faccb755-09d8-4857-a76e-a52465dbf53e"},"vehicle_type_id":"4","last_reported":1742371992,"current_range_meters":7200,"station_id":"ce4bhbh2rcd13ifvqepg","pricing_plan_id":"cebpf4jnsgd1na2vs0mg"},{"bike_id":"3c4f394c-0305-4c58-97e5-6826bd9d917e","system_id":"levelo_inurba_marseille","lat":43.32414,"lon":5.36594,"is_reserved":false,"is_disabled":false,"rental_uris":{"android":"levelo://app?vid=3c4f394c-0305-4c58-97e5-6826bd9d917e","ios":"levelo://app?vid=3c4f394c-0305-4c58-97e5-6826bd9d917e"},"vehicle_type_id":"4","last_reported":1742371992,"current_range_meters":7200,"station_id":"ce4bhs12rcd13ifvqhvg","pricing_plan_id":"cebpf4jnsgd1na2vs0mg"},{"bike_id":"df3c45fc-26ba-4d97-b077-0f6bf7264134","system_id":"levelo_inurba_marseille","lat":43.29045,"lon":5.39973,"is_reserved":false,"is_disabled":false,"rental_uris":{"android":"levelo://app?vid=df3c45fc-26ba-4d97-b077-0f6bf7264134","ios":"levelo://app?vid=df3c45fc-26ba-4d97-b077-0f6bf7264134"},"vehicle_type_id":"4","last_reported":1742371992,"current_range_meters":7200,"station_id":"ce4bh392rcd13ifvqdm0","pricing_plan_id":"cebpf4jnsgd1na2vs0mg"},{"bike_id":"f6819977-114a-4c8c-9fc2-7293f8147798","system_id":"levelo_inurba_marseille","lat":43.309457,"lon":5.390293,"is_reserved":false,"is_disabled":false,"rental_uris":{"android":"levelo://app?vid=f6819977-114a-4c8c-9fc2-7293f8147798","ios":"levelo://app?vid=f6819977-114a-4c8c-9fc2-7293f8147798"},"vehicle_type_id":"4","last_reported":1742371992,"current_range_meters":7200,"station_id":"ce4bgup2rcd13ifvqco0","pricing_plan_id":"cebpf4jnsgd1na2vs0mg"},{"bike_id":"049b5602-ba3f-4a09-ad40-b8c54e6f1cb6","system_id":"levelo_inurba_marseille","lat":43.25013,"lon":5.38956,"is_reserved":false,"is_disabled":true,"rental_uris":{"android":"levelo://app?vid=049b5602-ba3f-4a09-ad40-b8c54e6f1cb6","ios":"levelo://app?vid=049b5602-ba3f-4a09-ad40-b8c54e6f1cb6"},"vehicle_type_id":"4","last_reported":1742371992,"current_range_meters":7200,"station_id":"ce4bhgp2rcd13ifvqfd0","pricing_plan_id":"cebpf4jnsgd1na2vs0mg"},{"bike_id":"c12dbdad-22a4-4e8a-bfd1-73baf79aae9f","system_id":"levelo_inurba_marseille","lat":43.30141,"lon":5.37424,"is_reserved":false,"is_disabled":false,"rental_uris":{"android":"levelo://app?vid=c12dbdad-22a4-4e8a-bfd1-73baf79aae9f","ios":"levelo://app?vid=c12dbdad-22a4-4e8a-bfd1-73baf79aae9f"},"vehicle_type_id":"4","last_reported":1742371992,"current_range_meters":7200,"station_id":"ce4bgs92rcd13ifvqcc0","pricing_plan_id":"cebpf4jnsgd1na2vs0mg"},{"bike_id":"2b1860cd-c7d7-4275-92ee-e31c02194138","system_id":"levelo_inurba_marseille","lat":43.26942,"lon":5.38631,"is_reserved":false,"is_disabled":false,"rental_uris":{"android":"levelo://app?vid=2b1860cd-c7d7-4275-92ee-e31c02194138","ios":"levelo://app?vid=2b1860cd-c7d7-4275-92ee-e31c02194138"},"vehicle_type_id":"4","last_reported":1742371992,"current_range_meters":7200,"station_id":"ce4bhh92rcd13ifvqfh0","pricing_plan_id":"cebpf4jnsgd1na2vs0mg"},{"bike_id":"1419c31b-845a-44c3-b6ce-4ce0a428a907","system_id":"levelo_inurba_marseille","lat":43.30144,"lon":5.37418,"is_reserved":false,"is_disabled":false,"rental_uris":{"android":"levelo://app?vid=1419c31b-845a-44c3-b6ce-4ce0a428a907","ios":"levelo://app?vid=1419c31b-845a-44c3-b6ce-4ce0a428a907"},"vehicle_type_id":"4","last_reported":1742371992,"current_range_meters":7200,"station_id":"ce4bgs92rcd13ifvqcc0","pricing_plan_id":"cebpf4jnsgd1na2vs0mg"},{"bike_id":"a28ced5f-1ff9-44b7-9e4f-b15f8e5eed98","system_id":"levelo_inurba_marseille","lat":43.30139,"lon":5.38781,"is_reserved":false,"is_disabled":false,"rental_uris":{"android":"levelo://app?vid=a28ced5f-1ff9-44b7-9e4f-b15f8e5eed98","ios":"levelo://app?vid=a28ced5f-1ff9-44b7-9e4f-b15f8e5eed98"},"vehicle_type_id":"4","last_reported":1742371992,"current_range_meters":7200,"station_id":"ce4bghh2rcd13ifvqb60","pricing_plan_id":"cebpf4jnsgd1na2vs0mg"},{"bike_id":"2fc9495d-c829-4229-a4db-5c8674880d7a","system_id":"levelo_inurba_marseille","lat":43.2304,"lon":5.35526,"is_reserved":false,"is_disabled":false,"rental_uris":{"android":"levelo://app?vid=2fc9495d-c829-4229-a4db-5c8674880d7a","ios":"levelo://app?vid=2fc9495d-c829-4229-a4db-5c8674880d7a"},"vehicle_type_id":"4","last_reported":1742371992,"current_range_meters":7200,"station_id":"cpo3342slgdg3j2ifvpg","pricing_plan_id":"cebpf4jnsgd1na2vs0mg"},{"bike_id":"963a17fa-4222-4f93-b414-09c4cce8d25a","system_id":"levelo_inurba_marseille","lat":43.28386,"lon":5.38477,"is_reserved":false,"is_disabled":false,"rental_uris":{"android":"levelo://app?vid=963a17fa-4222-4f93-b414-09c4cce8d25a","ios":"levelo://app?vid=963a17fa-4222-4f93-b414-09c4cce8d25a"},"vehicle_type_id":"4","last_reported":1742371992,"current_range_meters":7200,"station_id":"","pricing_plan_id":"cebpf4jnsgd1na2vs0mg"},{"bike_id":"4dc303bf-8e33-4663-9893-285be545c312","system_id":"levelo_inurba_marseille","lat":43.34155,"lon":5.40917,"is_reserved":false,"is_disabled":false,"rental_uris":{"android":"levelo://app?vid=4dc303bf-8e33-4663-9893-285be545c312","ios":"levelo://app?vid=4dc303bf-8e33-4663-9893-285be545c312"},"vehicle_type_id":"4","last_reported":1742371992,"current_range_meters":6800,"station_id":"ce4bhqh2rcd13ifvqhlg","pricing_plan_id":"cebpf4jnsgd1na2vs0mg"},{"bike_id":"0b60e72b-d8b1-4266-9b63-b94b87c1ad4b","system_id":"levelo_inurba_marseille","lat":43.23182,"lon":5.40005,"is_reserved":false,"is_disabled":false,"rental_uris":{"android":"levelo://app?vid=0b60e72b-d8b1-4266-9b63-b94b87c1ad4b","ios":"levelo://app?vid=0b60e72b-d8b1-4266-9b63-b94b87c1ad4b"},"vehicle_type_id":"4","last_reported":1742371992,"current_range_meters":8000,"station_id":"ce4bhn12rcd13ifvqgqg","pricing_plan_id":"cebpf4jnsgd1na2vs0mg"},{"bike_id":"eb1b87c2-8633-452c-92ee-d083f5f14a15","system_id":"levelo_inurba_marseille","lat":43.30191,"lon":5.36637,"is_reserved":false,"is_disabled":false,"rental_uris":{"android":"levelo://app?vid=eb1b87c2-8633-452c-92ee-d083f5f14a15","ios":"levelo://app?vid=eb1b87c2-8633-452c-92ee-d083f5f14a15"},"vehicle_type_id":"4","last_reported":1742371992,"current_range_meters":8000,"station_id":"ce4bgrh2rcd13ifvqc8g","pricing_plan_id":"cebpf4jnsgd1na2vs0mg"},{"bike_id":"5d3cfd74-2a59-427d-9e50-aff8dd236c3c","system_id":"levelo_inurba_marseille","lat":43.27047,"lon":5.42316,"is_reserved":false,"is_disabled":true,"rental_uris":{"android":"levelo://app?vid=5d3cfd74-2a59-427d-9e50-aff8dd236c3c","ios":"levelo://app?vid=5d3cfd74-2a59-427d-9e50-aff8dd236c3c"},"vehicle_type_id":"4","last_reported":1742371992,"current_range_meters":8000,"station_id":"ce4bhk92rcd13ifvqgb0","pricing_plan_id":"cebpf4jnsgd1na2vs0mg"},{"bike_id":"6ae6f76c-6a01-4d75-9d3f-dfa610803a78","system_id":"levelo_inurba_marseille","lat":43.23067,"lon":5.35497,"is_reserved":false,"is_disabled":false,"rental_uris":{"android":"levelo://app?vid=6ae6f76c-6a01-4d75-9d3f-dfa610803a78","ios":"levelo://app?vid=6ae6f76c-6a01-4d75-9d3f-dfa610803a78"},"vehicle_type_id":"4","last_reported":1742371992,"current_range_meters":8000,"station_id":"cpo3342slgdg3j2ifvpg","pricing_plan_id":"cebpf4jnsgd1na2vs0mg"},{"bike_id":"519efbbc-7577-4063-8eac-658ef30e98a3","system_id":"levelo_inurba_marseille","lat":43.2501,"lon":5.38984,"is_reserved":false,"is_disabled":false,"rental_uris":{"android":"levelo://app?vid=519efbbc-7577-4063-8eac-658ef30e98a3","ios":"levelo://app?vid=519efbbc-7577-4063-8eac-658ef30e98a3"},"vehicle_type_id":"4","last_reported":1742371992,"current_range_meters":8000,"station_id":"","pricing_plan_id":"cebpf4jnsgd1na2vs0mg"},{"bike_id":"253fce13-8607-4f2f-839f-40104be19b05","system_id":"levelo_inurba_marseille","lat":43.23968,"lon":5.36642,"is_reserved":false,"is_disabled":false,"rental_uris":{"android":"levelo://app?vid=253fce13-8607-4f2f-839f-40104be19b05","ios":"levelo://app?vid=253fce13-8607-4f2f-839f-40104be19b05"},"vehicle_type_id":"4","last_reported":1742371992,"current_range_meters":8000,"station_id":"ce4bhi12rcd13ifvqfp0","pricing_plan_id":"cebpf4jnsgd1na2vs0mg"},{"bike_id":"49d04d98-1548-409e-b15d-5f0b85a3c26c","system_id":"levelo_inurba_marseille","lat":43.30385,"lon":5.42487,"is_reserved":false,"is_disabled":false,"rental_uris":{"android":"levelo://app?vid=49d04d98-1548-409e-b15d-5f0b85a3c26c","ios":"levelo://app?vid=49d04d98-1548-409e-b15d-5f0b85a3c26c"},"vehicle_type_id":"4","last_reported":1742371992,"current_range_meters":8000,"station_id":"ce4bhoh2rcd13ifvqh6g","pricing_plan_id":"cebpf4jnsgd1na2vs0mg"},{"bike_id":"e1cf8556-14e7-4704-856a-35e198f3d965","system_id":"levelo_inurba_marseille","lat":43.29972,"lon":5.37186,"is_reserved":false,"is_disabled":false,"rental_uris":{"android":"levelo://app?vid=e1cf8556-14e7-4704-856a-35e198f3d965","ios":"levelo://app?vid=e1cf8556-14e7-4704-856a-35e198f3d965"},"vehicle_type_id":"4","last_reported":1742371992,"current_range_meters":8000,"station_id":"ce4bgr92rcd13ifvqc7g","pricing_plan_id":"cebpf4jnsgd1na2vs0mg"},{"bike_id":"93d34d92-c907-4df9-a792-b6ee1e3ff7eb","system_id":"levelo_inurba_marseille","lat":43.25942,"lon":5.40905,"is_reserved":false,"is_disabled":false,"rental_uris":{"android":"levelo://app?vid=93d34d92-c907-4df9-a792-b6ee1e3ff7eb","ios":"levelo://app?vid=93d34d92-c907-4df9-a792-b6ee1e3ff7eb"},"vehicle_type_id":"4","last_reported":1742371992,"current_range_meters":8000,"station_id":"ce4bhm92rcd13ifvqglg","pricing_plan_id":"cebpf4jnsgd1na2vs0mg"},{"bike_id":"3bff80ec-e94e-42a9-988b-9e0817493bec","system_id":"levelo_inurba_marseille","lat":43.23197,"lon":5.3555,"is_reserved":false,"is_disabled":false,"rental_uris":{"android":"levelo://app?vid=3bff80ec-e94e-42a9-988b-9e0817493bec","ios":"levelo://app?vid=3bff80ec-e94e-42a9-988b-9e0817493bec"},"vehicle_type_id":"4","last_reported":1742371992,"current_range_meters":8000,"station_id":"ce4bhu92rcd13ifvqi70","pricing_plan_id":"cebpf4jnsgd1na2vs0mg"},{"bike_id":"7c67c1ac-9f8e-48cd-973f-d2cb72b5bc79","system_id":"levelo_inurba_marseille","lat":43.32471,"lon":5.36563,"is_reserved":false,"is_disabled":false,"rental_uris":{"android":"levelo://app?vid=7c67c1ac-9f8e-48cd-973f-d2cb72b5bc79","ios":"levelo://app?vid=7c67c1ac-9f8e-48cd-973f-d2cb72b5bc79"},"vehicle_type_id":"4","last_reported":1742371992,"current_range_meters":8000,"station_id":"ce4bhs12rcd13ifvqhvg","pricing_plan_id":"cebpf4jnsgd1na2vs0mg"},{"bike_id":"9bb27247-52ea-4428-a12e-bfd5b3b1de58","system_id":"levelo_inurba_marseille","lat":43.293464,"lon":5.401674,"is_reserved":false,"is_disabled":false,"rental_uris":{"android":"levelo://app?vid=9bb27247-52ea-4428-a12e-bfd5b3b1de58","ios":"levelo://app?vid=9bb27247-52ea-4428-a12e-bfd5b3b1de58"},"vehicle_type_id":"4","last_reported":1742371992,"current_range_meters":8000,"station_id":"ce4bhg12rcd13ifvqf60","pricing_plan_id":"cebpf4jnsgd1na2vs0mg"},{"bike_id":"61c41159-7a8b-45ee-a18c-926f56b3edec","system_id":"levelo_inurba_marseille","lat":43.2582,"lon":5.39447,"is_reserved":false,"is_disabled":false,"rental_uris":{"android":"levelo://app?vid=61c41159-7a8b-45ee-a18c-926f56b3edec","ios":"levelo://app?vid=61c41159-7a8b-45ee-a18c-926f56b3edec"},"vehicle_type_id":"4","last_reported":1742371992,"current_range_meters":8000,"station_id":"ce4bhip2rcd13ifvqft0","pricing_plan_id":"cebpf4jnsgd1na2vs0mg"},{"bike_id":"5e25f22e-74e9-43c4-abf0-e375f8c32d4e","system_id":"levelo_inurba_marseille","lat":43.2899,"lon":5.37835,"is_reserved":false,"is_disabled":false,"rental_uris":{"android":"levelo://app?vid=5e25f22e-74e9-43c4-abf0-e375f8c32d4e","ios":"levelo://app?vid=5e25f22e-74e9-43c4-abf0-e375f8c32d4e"},"vehicle_type_id":"4","last_reported":1742371992,"current_range_meters":7200,"station_id":"ce4bh9p2rcd13ifvqed0","pricing_plan_id":"cebpf4jnsgd1na2vs0mg"},{"bike_id":"507548fe-45b7-473a-8973-0944b7d42659","system_id":"levelo_inurba_marseille","lat":43.29554,"lon":5.42289,"is_reserved":false,"is_disabled":true,"rental_uris":{"android":"levelo://app?vid=507548fe-45b7-473a-8973-0944b7d42659","ios":"levelo://app?vid=507548fe-45b7-473a-8973-0944b7d42659"},"vehicle_type_id":"4","last_reported":1742371992,"current_range_meters":8000,"station_id":"ce4bhph2rcd13ifvqhdg","pricing_plan_id":"cebpf4jnsgd1na2vs0mg"},{"bike_id":"b5c041e4-cddb-4cc4-999a-5defeb184dad","system_id":"levelo_inurba_marseille","lat":43.28002,"lon":5.40025,"is_reserved":false,"is_disabled":false,"rental_uris":{"android":"levelo://app?vid=b5c041e4-cddb-4cc4-999a-5defeb184dad","ios":"levelo://app?vid=b5c041e4-cddb-4cc4-999a-5defeb184dad"},"vehicle_type_id":"4","last_reported":1742371992,"current_range_meters":8000,"station_id":"ce4bho92rcd13ifvqh4g","pricing_plan_id":"cebpf4jnsgd1na2vs0mg"},{"bike_id":"2d737c33-2390-42ba-8ef0-d1e5e5f24997","system_id":"levelo_inurba_marseille","lat":43.30148,"lon":5.38081,"is_reserved":false,"is_disabled":false,"rental_uris":{"android":"levelo://app?vid=2d737c33-2390-42ba-8ef0-d1e5e5f24997","ios":"levelo://app?vid=2d737c33-2390-42ba-8ef0-d1e5e5f24997"},"vehicle_type_id":"4","last_reported":1742371992,"current_range_meters":7200,"station_id":"ce4bgjp2rcd13ifvqbh0","pricing_plan_id":"cebpf4jnsgd1na2vs0mg"},{"bike_id":"e4d45dd0-64e1-438b-960f-23bacc6e4e06","system_id":"levelo_inurba_marseille","lat":43.23156,"lon":5.43722,"is_reserved":false,"is_disabled":false,"rental_uris":{"android":"levelo://app?vid=e4d45dd0-64e1-438b-960f-23bacc6e4e06","ios":"levelo://app?vid=e4d45dd0-64e1-438b-960f-23bacc6e4e06"},"vehicle_type_id":"4","last_reported":1742371992,"current_range_meters":8400,"station_id":"ce4bhmp2rcd13ifvqgog","pricing_plan_id":"cebpf4jnsgd1na2vs0mg"},{"bike_id":"33eb9847-6092-46be-8588-371554193324","system_id":"levelo_inurba_marseille","lat":43.30174,"lon":5.36619,"is_reserved":false,"is_disabled":false,"rental_uris":{"android":"levelo://app?vid=33eb9847-6092-46be-8588-371554193324","ios":"levelo://app?vid=33eb9847-6092-46be-8588-371554193324"},"vehicle_type_id":"4","last_reported":1742371992,"current_range_meters":8400,"station_id":"ce4bgrh2rcd13ifvqc8g","pricing_plan_id":"cebpf4jnsgd1na2vs0mg"},{"bike_id":"ca1c0a28-8faf-435f-9d8b-370c3a07ff34","system_id":"levelo_inurba_marseille","lat":43.24171,"lon":5.36404,"is_reserved":false,"is_disabled":false,"rental_uris":{"android":"levelo://app?vid=ca1c0a28-8faf-435f-9d8b-370c3a07ff34","ios":"levelo://app?vid=ca1c0a28-8faf-435f-9d8b-370c3a07ff34"},"vehicle_type_id":"4","last_reported":1742371992,"current_range_meters":8400,"station_id":"cpo36qri1sfpv3e86is0","pricing_plan_id":"cebpf4jnsgd1na2vs0mg"},{"bike_id":"a342afa1-fe1b-4de5-8f98-f3f81167fac6","system_id":"levelo_inurba_marseille","lat":43.22929,"lon":5.35421,"is_reserved":false,"is_disabled":false,"rental_uris":{"android":"levelo://app?vid=a342afa1-fe1b-4de5-8f98-f3f81167fac6","ios":"levelo://app?vid=a342afa1-fe1b-4de5-8f98-f3f81167fac6"},"vehicle_type_id":"4","last_reported":1742371992,"current_range_meters":8400,"station_id":"cpo3532slgdg3j2ikp40","pricing_plan_id":"cebpf4jnsgd1na2vs0mg"},{"bike_id":"539fc8c4-24e6-4af1-852f-0f9aae2257a1","system_id":"levelo_inurba_marseille","lat":43.23193,"lon":5.35563,"is_reserved":false,"is_disabled":false,"rental_uris":{"android":"levelo://app?vid=539fc8c4-24e6-4af1-852f-0f9aae2257a1","ios":"levelo://app?vid=539fc8c4-24e6-4af1-852f-0f9aae2257a1"},"vehicle_type_id":"4","last_reported":1742371992,"current_range_meters":8400,"station_id":"ce4bhu92rcd13ifvqi70","pricing_plan_id":"cebpf4jnsgd1na2vs0mg"},{"bike_id":"1b2b097c-30a0-445c-b086-9bc752348acb","system_id":"levelo_inurba_marseille","lat":43.24076,"lon":5.37769,"is_reserved":false,"is_disabled":false,"rental_uris":{"android":"levelo://app?vid=1b2b097c-30a0-445c-b086-9bc752348acb","ios":"levelo://app?vid=1b2b097c-30a0-445c-b086-9bc752348acb"},"vehicle_type_id":"4","last_reported":1742371992,"current_range_meters":8400,"station_id":"ce4bhnp2rcd13ifvqgvg","pricing_plan_id":"cebpf4jnsgd1na2vs0mg"},{"bike_id":"2e8e2e12-65e7-450a-83a2-d80d023fe506","system_id":"levelo_inurba_marseille","lat":43.31713,"lon":5.40443,"is_reserved":false,"is_disabled":false,"rental_uris":{"android":"levelo://app?vid=2e8e2e12-65e7-450a-83a2-d80d023fe506","ios":"levelo://app?vid=2e8e2e12-65e7-450a-83a2-d80d023fe506"},"vehicle_type_id":"4","last_reported":1742371992,"current_range_meters":8400,"station_id":"ce4bh012rcd13ifvqd00","pricing_plan_id":"cebpf4jnsgd1na2vs0mg"},{"bike_id":"89cb3140-d211-4c4d-97ca-7e01c3c4da90","system_id":"levelo_inurba_marseille","lat":43.23186,"lon":5.35553,"is_reserved":false,"is_disabled":false,"rental_uris":{"android":"levelo://app?vid=89cb3140-d211-4c4d-97ca-7e01c3c4da90","ios":"levelo://app?vid=89cb3140-d211-4c4d-97ca-7e01c3c4da90"},"vehicle_type_id":"4","last_reported":1742371992,"current_range_meters":8400,"station_id":"ce4bhu92rcd13ifvqi70","pricing_plan_id":"cebpf4jnsgd1na2vs0mg"},{"bike_id":"a8c89f12-e7b0-458f-b7a3-09032d50c758","system_id":"levelo_inurba_marseille","lat":43.27835,"lon":5.40735,"is_reserved":false,"is_disabled":false,"rental_uris":{"android":"levelo://app?vid=a8c89f12-e7b0-458f-b7a3-09032d50c758","ios":"levelo://app?vid=a8c89f12-e7b0-458f-b7a3-09032d50c758"},"vehicle_type_id":"4","last_reported":1742371992,"current_range_meters":8400,"station_id":"ce4bhnh2rcd13ifvqgtg","pricing_plan_id":"cebpf4jnsgd1na2vs0mg"},{"bike_id":"e7727825-1550-4ac5-83b8-e36a5d869f96","system_id":"levelo_inurba_marseille","lat":43.2622,"lon":5.40465,"is_reserved":false,"is_disabled":false,"rental_uris":{"android":"levelo://app?vid=e7727825-1550-4ac5-83b8-e36a5d869f96","ios":"levelo://app?vid=e7727825-1550-4ac5-83b8-e36a5d869f96"},"vehicle_type_id":"4","last_reported":1742371992,"current_range_meters":8400,"station_id":"ce4bhmh2rcd13ifvqgmg","pricing_plan_id":"cebpf4jnsgd1na2vs0mg"},{"bike_id":"d00028dc-9b0d-47df-ad9d-778d21fb21b2","system_id":"levelo_inurba_marseille","lat":43.231919,"lon":5.355559,"is_reserved":false,"is_disabled":false,"rental_uris":{"android":"levelo://app?vid=d00028dc-9b0d-47df-ad9d-778d21fb21b2","ios":"levelo://app?vid=d00028dc-9b0d-47df-ad9d-778d21fb21b2"},"vehicle_type_id":"4","last_reported":1742371992,"current_range_meters":8800,"station_id":"ce4bhu92rcd13ifvqi70","pricing_plan_id":"cebpf4jnsgd1na2vs0mg"},{"bike_id":"4b1455e3-a129-4c21-aa44-d1039bebb628","system_id":"levelo_inurba_marseille","lat":43.27859,"lon":5.40764,"is_reserved":false,"is_disabled":false,"rental_uris":{"android":"levelo://app?vid=4b1455e3-a129-4c21-aa44-d1039bebb628","ios":"levelo://app?vid=4b1455e3-a129-4c21-aa44-d1039bebb628"},"vehicle_type_id":"4","last_reported":1742371992,"current_range_meters":8800,"station_id":"","pricing_plan_id":"cebpf4jnsgd1na2vs0mg"},{"bike_id":"5bead0f2-5ada-420f-bea0-acb8d2ad9da4","system_id":"levelo_inurba_marseille","lat":43.23173,"lon":5.40069,"is_reserved":false,"is_disabled":false,"rental_uris":{"android":"levelo://app?vid=5bead0f2-5ada-420f-bea0-acb8d2ad9da4","ios":"levelo://app?vid=5bead0f2-5ada-420f-bea0-acb8d2ad9da4"},"vehicle_type_id":"4","last_reported":1742371992,"current_range_meters":8800,"station_id":"","pricing_plan_id":"cebpf4jnsgd1na2vs0mg"},{"bike_id":"d2ee0df6-a7b5-438c-b09a-365ca5eb0755","system_id":"levelo_inurba_marseille","lat":43.30938,"lon":5.40169,"is_reserved":false,"is_disabled":true,"rental_uris":{"android":"levelo://app?vid=d2ee0df6-a7b5-438c-b09a-365ca5eb0755","ios":"levelo://app?vid=d2ee0df6-a7b5-438c-b09a-365ca5eb0755"},"vehicle_type_id":"4","last_reported":1742371992,"current_range_meters":9200,"station_id":"ce4bgvp2rcd13ifvqct0","pricing_plan_id":"cebpf4jnsgd1na2vs0mg"},{"bike_id":"a222911a-0745-48f4-8afa-382ae2fd2e00","system_id":"levelo_inurba_marseille","lat":43.30543,"lon":5.36549,"is_reserved":false,"is_disabled":false,"rental_uris":{"android":"levelo://app?vid=a222911a-0745-48f4-8afa-382ae2fd2e00","ios":"levelo://app?vid=a222911a-0745-48f4-8afa-382ae2fd2e00"},"vehicle_type_id":"4","last_reported":1742371992,"current_range_meters":8800,"station_id":"ce4bgs12rcd13ifvqcag","pricing_plan_id":"cebpf4jnsgd1na2vs0mg"},{"bike_id":"1cdd4cb0-5174-47d9-b59c-b9aedd3081d4","system_id":"levelo_inurba_marseille","lat":43.33601,"lon":5.41041,"is_reserved":false,"is_disabled":false,"rental_uris":{"android":"levelo://app?vid=1cdd4cb0-5174-47d9-b59c-b9aedd3081d4","ios":"levelo://app?vid=1cdd4cb0-5174-47d9-b59c-b9aedd3081d4"},"vehicle_type_id":"4","last_reported":1742371992,"current_range_meters":8800,"station_id":"ce4bhqh2rcd13ifvqhmg","pricing_plan_id":"cebpf4jnsgd1na2vs0mg"},{"bike_id":"38233fcc-45aa-475d-b774-1f1525a8fb6d","system_id":"levelo_inurba_marseille","lat":43.26047,"lon":5.39407,"is_reserved":false,"is_disabled":false,"rental_uris":{"android":"levelo://app?vid=38233fcc-45aa-475d-b774-1f1525a8fb6d","ios":"levelo://app?vid=38233fcc-45aa-475d-b774-1f1525a8fb6d"},"vehicle_type_id":"4","last_reported":1742371992,"current_range_meters":8800,"station_id":"ce4bhh92rcd13ifvqfj0","pricing_plan_id":"cebpf4jnsgd1na2vs0mg"},{"bike_id":"e94b1f20-3e0e-4dcb-9056-1e4af333e85a","system_id":"levelo_inurba_marseille","lat":43.28934,"lon":5.39722,"is_reserved":false,"is_disabled":false,"rental_uris":{"android":"levelo://app?vid=e94b1f20-3e0e-4dcb-9056-1e4af333e85a","ios":"levelo://app?vid=e94b1f20-3e0e-4dcb-9056-1e4af333e85a"},"vehicle_type_id":"4","last_reported":1742371992,"current_range_meters":8800,"station_id":"","pricing_plan_id":"cebpf4jnsgd1na2vs0mg"},{"bike_id":"6b162ed9-3599-4156-a34b-2df90433ae5c","system_id":"levelo_inurba_marseille","lat":43.24153,"lon":5.39731,"is_reserved":false,"is_disabled":false,"rental_uris":{"android":"levelo://app?vid=6b162ed9-3599-4156-a34b-2df90433ae5c","ios":"levelo://app?vid=6b162ed9-3599-4156-a34b-2df90433ae5c"},"vehicle_type_id":"4","last_reported":1742371992,"current_range_meters":8800,"station_id":"ce4bhn12rcd13ifvqgpg","pricing_plan_id":"cebpf4jnsgd1na2vs0mg"},{"bike_id":"326a7d70-7af8-46ca-ad73-f4851fdea581","system_id":"levelo_inurba_marseille","lat":43.30906,"lon":5.37203,"is_reserved":false,"is_disabled":false,"rental_uris":{"android":"levelo://app?vid=326a7d70-7af8-46ca-ad73-f4851fdea581","ios":"levelo://app?vid=326a7d70-7af8-46ca-ad73-f4851fdea581"},"vehicle_type_id":"4","last_reported":1742371992,"current_range_meters":9200,"station_id":"ce4bguh2rcd13ifvqckg","pricing_plan_id":"cebpf4jnsgd1na2vs0mg"},{"bike_id":"5e244767-2fd5-4cae-9f0c-0a11498d0074","system_id":"levelo_inurba_marseille","lat":43.27512,"lon":5.42454,"is_reserved":false,"is_disabled":false,"rental_uris":{"android":"levelo://app?vid=5e244767-2fd5-4cae-9f0c-0a11498d0074","ios":"levelo://app?vid=5e244767-2fd5-4cae-9f0c-0a11498d0074"},"vehicle_type_id":"4","last_reported":1742371992,"current_range_meters":9200,"station_id":"ce4bhn92rcd13ifvqgrg","pricing_plan_id":"cebpf4jnsgd1na2vs0mg"},{"bike_id":"940e816e-4f07-47f8-8676-f1878d791ee8","system_id":"levelo_inurba_marseille","lat":43.25507,"lon":5.37659,"is_reserved":false,"is_disabled":false,"rental_uris":{"android":"levelo://app?vid=940e816e-4f07-47f8-8676-f1878d791ee8","ios":"levelo://app?vid=940e816e-4f07-47f8-8676-f1878d791ee8"},"vehicle_type_id":"4","last_reported":1742371992,"current_range_meters":9200,"station_id":"ce4bhh12rcd13ifvqff0","pricing_plan_id":"cebpf4jnsgd1na2vs0mg"},{"bike_id":"cb378fb9-ff22-4baa-aa20-925f7511d155","system_id":"levelo_inurba_marseille","lat":43.2936,"lon":5.37848,"is_reserved":false,"is_disabled":false,"rental_uris":{"android":"levelo://app?vid=cb378fb9-ff22-4baa-aa20-925f7511d155","ios":"levelo://app?vid=cb378fb9-ff22-4baa-aa20-925f7511d155"},"vehicle_type_id":"4","last_reported":1742371992,"current_range_meters":9200,"station_id":"ce4bgjh2rcd13ifvqbf0","pricing_plan_id":"cebpf4jnsgd1na2vs0mg"},{"bike_id":"ec31732b-9dfc-48ca-aeba-f8aba544d1d4","system_id":"levelo_inurba_marseille","lat":43.25924,"lon":5.40896,"is_reserved":false,"is_disabled":false,"rental_uris":{"android":"levelo://app?vid=ec31732b-9dfc-48ca-aeba-f8aba544d1d4","ios":"levelo://app?vid=ec31732b-9dfc-48ca-aeba-f8aba544d1d4"},"vehicle_type_id":"4","last_reported":1742371992,"current_range_meters":9200,"station_id":"ce4bhm92rcd13ifvqglg","pricing_plan_id":"cebpf4jnsgd1na2vs0mg"},{"bike_id":"b2ba5630-ad0c-4c8a-9b7e-7297e1119e3d","system_id":"levelo_inurba_marseille","lat":43.23192,"lon":5.4003,"is_reserved":false,"is_disabled":false,"rental_uris":{"android":"levelo://app?vid=b2ba5630-ad0c-4c8a-9b7e-7297e1119e3d","ios":"levelo://app?vid=b2ba5630-ad0c-4c8a-9b7e-7297e1119e3d"},"vehicle_type_id":"4","last_reported":1742371992,"current_range_meters":8800,"station_id":"ce4bhn12rcd13ifvqgqg","pricing_plan_id":"cebpf4jnsgd1na2vs0mg"},{"bike_id":"c6aacee6-1501-427a-a7ff-7861a35462f4","system_id":"levelo_inurba_marseille","lat":43.29316,"lon":5.37182,"is_reserved":false,"is_disabled":false,"rental_uris":{"android":"levelo://app?vid=c6aacee6-1501-427a-a7ff-7861a35462f4","ios":"levelo://app?vid=c6aacee6-1501-427a-a7ff-7861a35462f4"},"vehicle_type_id":"4","last_reported":1742371992,"current_range_meters":9200,"station_id":"ce4bgh92rcd13ifvqb40","pricing_plan_id":"cebpf4jnsgd1na2vs0mg"},{"bike_id":"738b6b57-022f-4cc9-bd1f-ce1c08635c00","system_id":"levelo_inurba_marseille","lat":43.27568,"lon":5.3845,"is_reserved":false,"is_disabled":false,"rental_uris":{"android":"levelo://app?vid=738b6b57-022f-4cc9-bd1f-ce1c08635c00","ios":"levelo://app?vid=738b6b57-022f-4cc9-bd1f-ce1c08635c00"},"vehicle_type_id":"4","last_reported":1742371992,"current_range_meters":9200,"station_id":"ce4bhh92rcd13ifvqfi0","pricing_plan_id":"cebpf4jnsgd1na2vs0mg"},{"bike_id":"eb358409-5b5b-45c2-a54d-54327da52ff6","system_id":"levelo_inurba_marseille","lat":43.27206,"lon":5.39186,"is_reserved":false,"is_disabled":false,"rental_uris":{"android":"levelo://app?vid=eb358409-5b5b-45c2-a54d-54327da52ff6","ios":"levelo://app?vid=eb358409-5b5b-45c2-a54d-54327da52ff6"},"vehicle_type_id":"4","last_reported":1742371992,"current_range_meters":8800,"station_id":"ce4bhhp2rcd13ifvqfm0","pricing_plan_id":"cebpf4jnsgd1na2vs0mg"},{"bike_id":"4ccc3f56-6ae5-4d6a-9eb1-b86c5e38aaee","system_id":"levelo_inurba_marseille","lat":43.27818,"lon":5.4071,"is_reserved":false,"is_disabled":false,"rental_uris":{"android":"levelo://app?vid=4ccc3f56-6ae5-4d6a-9eb1-b86c5e38aaee","ios":"levelo://app?vid=4ccc3f56-6ae5-4d6a-9eb1-b86c5e38aaee"},"vehicle_type_id":"4","last_reported":1742371992,"current_range_meters":9200,"station_id":"ce4bhnh2rcd13ifvqgtg","pricing_plan_id":"cebpf4jnsgd1na2vs0mg"},{"bike_id":"62f9368c-c004-4143-85bf-e9d1e9c4fcb1","system_id":"levelo_inurba_marseille","lat":43.30268,"lon":5.37728,"is_reserved":false,"is_disabled":false,"rental_uris":{"android":"levelo://app?vid=62f9368c-c004-4143-85bf-e9d1e9c4fcb1","ios":"levelo://app?vid=62f9368c-c004-4143-85bf-e9d1e9c4fcb1"},"vehicle_type_id":"4","last_reported":1742371992,"current_range_meters":9600,"station_id":"ce4bguh2rcd13ifvqcj0","pricing_plan_id":"cebpf4jnsgd1na2vs0mg"},{"bike_id":"7b9e2955-f1fb-4861-a73c-5864f2069e89","system_id":"levelo_inurba_marseille","lat":43.265,"lon":5.39541,"is_reserved":false,"is_disabled":false,"rental_uris":{"android":"levelo://app?vid=7b9e2955-f1fb-4861-a73c-5864f2069e89","ios":"levelo://app?vid=7b9e2955-f1fb-4861-a73c-5864f2069e89"},"vehicle_type_id":"4","last_reported":1742371992,"current_range_meters":9600,"station_id":"ce4bhi12rcd13ifvqfq0","pricing_plan_id":"cebpf4jnsgd1na2vs0mg"},{"bike_id":"82fee542-6fe0-4881-abf3-bf76f21162be","system_id":"levelo_inurba_marseille","lat":43.30641,"lon":5.4008,"is_reserved":false,"is_disabled":false,"rental_uris":{"android":"levelo://app?vid=82fee542-6fe0-4881-abf3-bf76f21162be","ios":"levelo://app?vid=82fee542-6fe0-4881-abf3-bf76f21162be"},"vehicle_type_id":"4","last_reported":1742371992,"current_range_meters":9600,"station_id":"ce4bh112rcd13ifvqda0","pricing_plan_id":"cebpf4jnsgd1na2vs0mg"},{"bike_id":"f7851504-3ee5-461f-8e41-628ad3d19a7a","system_id":"levelo_inurba_marseille","lat":43.23962,"lon":5.36635,"is_reserved":false,"is_disabled":false,"rental_uris":{"android":"levelo://app?vid=f7851504-3ee5-461f-8e41-628ad3d19a7a","ios":"levelo://app?vid=f7851504-3ee5-461f-8e41-628ad3d19a7a"},"vehicle_type_id":"4","last_reported":1742371992,"current_range_meters":9200,"station_id":"ce4bhi12rcd13ifvqfp0","pricing_plan_id":"cebpf4jnsgd1na2vs0mg"},{"bike_id":"956e5be9-77f7-418d-94c9-6a35442b2efc","system_id":"levelo_inurba_marseille","lat":43.29908,"lon":5.37483,"is_reserved":false,"is_disabled":false,"rental_uris":{"android":"levelo://app?vid=956e5be9-77f7-418d-94c9-6a35442b2efc","ios":"levelo://app?vid=956e5be9-77f7-418d-94c9-6a35442b2efc"},"vehicle_type_id":"4","last_reported":1742371992,"current_range_meters":9600,"station_id":"ce4bgjh2rcd13ifvqbg0","pricing_plan_id":"cebpf4jnsgd1na2vs0mg"},{"bike_id":"9ddad493-bf98-46a1-b91a-5d79b66fd048","system_id":"levelo_inurba_marseille","lat":43.301821,"lon":5.384679,"is_reserved":false,"is_disabled":false,"rental_uris":{"android":"levelo://app?vid=9ddad493-bf98-46a1-b91a-5d79b66fd048","ios":"levelo://app?vid=9ddad493-bf98-46a1-b91a-5d79b66fd048"},"vehicle_type_id":"4","last_reported":1742371992,"current_range_meters":9200,"station_id":"ce4bgt92rcd13ifvqcf0","pricing_plan_id":"cebpf4jnsgd1na2vs0mg"},{"bike_id":"2312adcb-aec8-4176-9b08-9c8733b32e1a","system_id":"levelo_inurba_marseille","lat":43.31223,"lon":5.36841,"is_reserved":false,"is_disabled":false,"rental_uris":{"android":"levelo://app?vid=2312adcb-aec8-4176-9b08-9c8733b32e1a","ios":"levelo://app?vid=2312adcb-aec8-4176-9b08-9c8733b32e1a"},"vehicle_type_id":"4","last_reported":1742371992,"current_range_meters":9600,"station_id":"ce4bgl92rcd13ifvqbq0","pricing_plan_id":"cebpf4jnsgd1na2vs0mg"},{"bike_id":"a130ced2-686d-4364-9b34-0f9527a0c793","system_id":"levelo_inurba_marseille","lat":43.30444,"lon":5.38904,"is_reserved":false,"is_disabled":false,"rental_uris":{"android":"levelo://app?vid=a130ced2-686d-4364-9b34-0f9527a0c793","ios":"levelo://app?vid=a130ced2-686d-4364-9b34-0f9527a0c793"},"vehicle_type_id":"4","last_reported":1742371992,"current_range_meters":9600,"station_id":"ce4bgk12rcd13ifvqbi0","pricing_plan_id":"cebpf4jnsgd1na2vs0mg"},{"bike_id":"b132483d-1d99-4f2a-9ca2-8544144e934f","system_id":"levelo_inurba_marseille","lat":43.32373,"lon":5.38902,"is_reserved":false,"is_disabled":false,"rental_uris":{"android":"levelo://app?vid=b132483d-1d99-4f2a-9ca2-8544144e934f","ios":"levelo://app?vid=b132483d-1d99-4f2a-9ca2-8544144e934f"},"vehicle_type_id":"4","last_reported":1742371992,"current_range_meters":9600,"station_id":"ce4bhqp2rcd13ifvqhog","pricing_plan_id":"cebpf4jnsgd1na2vs0mg"},{"bike_id":"b98eff8b-8bbd-44cf-94d7-71a6341eecc2","system_id":"levelo_inurba_marseille","lat":43.23164,"lon":5.40048,"is_reserved":false,"is_disabled":false,"rental_uris":{"android":"levelo://app?vid=b98eff8b-8bbd-44cf-94d7-71a6341eecc2","ios":"levelo://app?vid=b98eff8b-8bbd-44cf-94d7-71a6341eecc2"},"vehicle_type_id":"4","last_reported":1742371992,"current_range_meters":9600,"station_id":"ce4bhn12rcd13ifvqgqg","pricing_plan_id":"cebpf4jnsgd1na2vs0mg"},{"bike_id":"46bb371c-22fb-4f4b-b4cd-6276a971bef1","system_id":"levelo_inurba_marseille","lat":43.24078,"lon":5.3778,"is_reserved":false,"is_disabled":false,"rental_uris":{"android":"levelo://app?vid=46bb371c-22fb-4f4b-b4cd-6276a971bef1","ios":"levelo://app?vid=46bb371c-22fb-4f4b-b4cd-6276a971bef1"},"vehicle_type_id":"4","last_reported":1742371992,"current_range_meters":9600,"station_id":"ce4bhnp2rcd13ifvqgvg","pricing_plan_id":"cebpf4jnsgd1na2vs0mg"},{"bike_id":"c76a7a5c-86ff-4a75-9a40-4351db9892f5","system_id":"levelo_inurba_marseille","lat":43.30147,"lon":5.38084,"is_reserved":false,"is_disabled":false,"rental_uris":{"android":"levelo://app?vid=c76a7a5c-86ff-4a75-9a40-4351db9892f5","ios":"levelo://app?vid=c76a7a5c-86ff-4a75-9a40-4351db9892f5"},"vehicle_type_id":"4","last_reported":1742371992,"current_range_meters":9600,"station_id":"ce4bgjh2rcd13ifvqbg0","pricing_plan_id":"cebpf4jnsgd1na2vs0mg"},{"bike_id":"bfa40974-876e-403f-8ee9-98898195442a","system_id":"levelo_inurba_marseille","lat":43.28455,"lon":5.35898,"is_reserved":false,"is_disabled":false,"rental_uris":{"android":"levelo://app?vid=bfa40974-876e-403f-8ee9-98898195442a","ios":"levelo://app?vid=bfa40974-876e-403f-8ee9-98898195442a"},"vehicle_type_id":"4","last_reported":1742371992,"current_range_meters":9600,"station_id":"ce4bhah2rcd13ifvqei0","pricing_plan_id":"cebpf4jnsgd1na2vs0mg"},{"bike_id":"f142dc05-f5d3-4cbc-afe5-c54cd3d760d6","system_id":"levelo_inurba_marseille","lat":43.28084,"lon":5.39665,"is_reserved":false,"is_disabled":false,"rental_uris":{"android":"levelo://app?vid=f142dc05-f5d3-4cbc-afe5-c54cd3d760d6","ios":"levelo://app?vid=f142dc05-f5d3-4cbc-afe5-c54cd3d760d6"},"vehicle_type_id":"4","last_reported":1742371992,"current_range_meters":9600,"station_id":"ce4bho12rcd13ifvqh2g","pricing_plan_id":"cebpf4jnsgd1na2vs0mg"},{"bike_id":"cabc56a7-dd90-4978-a4aa-b0149cec9ec6","system_id":"levelo_inurba_marseille","lat":43.25486,"lon":5.37726,"is_reserved":false,"is_disabled":false,"rental_uris":{"android":"levelo://app?vid=cabc56a7-dd90-4978-a4aa-b0149cec9ec6","ios":"levelo://app?vid=cabc56a7-dd90-4978-a4aa-b0149cec9ec6"},"vehicle_type_id":"4","last_reported":1742371992,"current_range_meters":9600,"station_id":"","pricing_plan_id":"cebpf4jnsgd1na2vs0mg"},{"bike_id":"62f7539b-b047-479e-84e9-11e5c010431d","system_id":"levelo_inurba_marseille","lat":43.30009,"lon":5.40064,"is_reserved":false,"is_disabled":false,"rental_uris":{"android":"levelo://app?vid=62f7539b-b047-479e-84e9-11e5c010431d","ios":"levelo://app?vid=62f7539b-b047-479e-84e9-11e5c010431d"},"vehicle_type_id":"4","last_reported":1742371992,"current_range_meters":9600,"station_id":"","pricing_plan_id":"cebpf4jnsgd1na2vs0mg"},{"bike_id":"1ff4b712-0199-4a94-832d-5142c1180356","system_id":"levelo_inurba_marseille","lat":43.3135,"lon":5.3671,"is_reserved":false,"is_disabled":false,"rental_uris":{"android":"levelo://app?vid=1ff4b712-0199-4a94-832d-5142c1180356","ios":"levelo://app?vid=1ff4b712-0199-4a94-832d-5142c1180356"},"vehicle_type_id":"4","last_reported":1742371992,"current_range_meters":10000,"station_id":"ce4bgr92rcd13ifvqc6g","pricing_plan_id":"cebpf4jnsgd1na2vs0mg"},{"bike_id":"590b4381-3354-45fc-833f-e3c891342347","system_id":"levelo_inurba_marseille","lat":43.29913,"lon":5.37474,"is_reserved":false,"is_disabled":false,"rental_uris":{"android":"levelo://app?vid=590b4381-3354-45fc-833f-e3c891342347","ios":"levelo://app?vid=590b4381-3354-45fc-833f-e3c891342347"},"vehicle_type_id":"4","last_reported":1742371992,"current_range_meters":10000,"station_id":"ce4bgjh2rcd13ifvqbg0","pricing_plan_id":"cebpf4jnsgd1na2vs0mg"},{"bike_id":"2960bfba-50ee-417f-8c79-95e106702b43","system_id":"levelo_inurba_marseille","lat":43.32488,"lon":5.36582,"is_reserved":false,"is_disabled":false,"rental_uris":{"android":"levelo://app?vid=2960bfba-50ee-417f-8c79-95e106702b43","ios":"levelo://app?vid=2960bfba-50ee-417f-8c79-95e106702b43"},"vehicle_type_id":"4","last_reported":1742371992,"current_range_meters":10000,"station_id":"ce4bhs12rcd13ifvqhvg","pricing_plan_id":"cebpf4jnsgd1na2vs0mg"},{"bike_id":"7f61d7be-d227-44df-9b33-b8f4965e514f","system_id":"levelo_inurba_marseille","lat":43.23207,"lon":5.35566,"is_reserved":false,"is_disabled":false,"rental_uris":{"android":"levelo://app?vid=7f61d7be-d227-44df-9b33-b8f4965e514f","ios":"levelo://app?vid=7f61d7be-d227-44df-9b33-b8f4965e514f"},"vehicle_type_id":"4","last_reported":1742371992,"current_range_meters":10000,"station_id":"ce4bhu92rcd13ifvqi70","pricing_plan_id":"cebpf4jnsgd1na2vs0mg"},{"bike_id":"8abf66b0-4c7b-4a5b-9216-254c311cdf06","system_id":"levelo_inurba_marseille","lat":43.25595,"lon":5.38235,"is_reserved":false,"is_disabled":false,"rental_uris":{"android":"levelo://app?vid=8abf66b0-4c7b-4a5b-9216-254c311cdf06","ios":"levelo://app?vid=8abf66b0-4c7b-4a5b-9216-254c311cdf06"},"vehicle_type_id":"4","last_reported":1742371992,"current_range_meters":10000,"station_id":"ce4bhih2rcd13ifvqfs0","pricing_plan_id":"cebpf4jnsgd1na2vs0mg"},{"bike_id":"bd68f678-16cb-4c38-81de-5da19b0ce0d5","system_id":"levelo_inurba_marseille","lat":43.24119,"lon":5.37788,"is_reserved":false,"is_disabled":false,"rental_uris":{"android":"levelo://app?vid=bd68f678-16cb-4c38-81de-5da19b0ce0d5","ios":"levelo://app?vid=bd68f678-16cb-4c38-81de-5da19b0ce0d5"},"vehicle_type_id":"4","last_reported":1742371992,"current_range_meters":10000,"station_id":"","pricing_plan_id":"cebpf4jnsgd1na2vs0mg"},{"bike_id":"eb6ad15b-5d6f-4c9e-aca2-00662fed81a8","system_id":"levelo_inurba_marseille","lat":43.30553,"lon":5.36721,"is_reserved":false,"is_disabled":false,"rental_uris":{"android":"levelo://app?vid=eb6ad15b-5d6f-4c9e-aca2-00662fed81a8","ios":"levelo://app?vid=eb6ad15b-5d6f-4c9e-aca2-00662fed81a8"},"vehicle_type_id":"4","last_reported":1742371992,"current_range_meters":10000,"station_id":"ce4bgrp2rcd13ifvqc9g","pricing_plan_id":"cebpf4jnsgd1na2vs0mg"},{"bike_id":"c2f4da44-a44d-44d2-8be6-51648ee37d7f","system_id":"levelo_inurba_marseille","lat":43.25006,"lon":5.38943,"is_reserved":false,"is_disabled":false,"rental_uris":{"android":"levelo://app?vid=c2f4da44-a44d-44d2-8be6-51648ee37d7f","ios":"levelo://app?vid=c2f4da44-a44d-44d2-8be6-51648ee37d7f"},"vehicle_type_id":"4","last_reported":1742371992,"current_range_meters":10000,"station_id":"ce4bhgp2rcd13ifvqfd0","pricing_plan_id":"cebpf4jnsgd1na2vs0mg"},{"bike_id":"b6516885-6b2a-4c3b-b46a-6df7fec02364","system_id":"levelo_inurba_marseille","lat":43.25938,"lon":5.409,"is_reserved":false,"is_disabled":false,"rental_uris":{"android":"levelo://app?vid=b6516885-6b2a-4c3b-b46a-6df7fec02364","ios":"levelo://app?vid=b6516885-6b2a-4c3b-b46a-6df7fec02364"},"vehicle_type_id":"4","last_reported":1742371992,"current_range_meters":10000,"station_id":"ce4bhm92rcd13ifvqglg","pricing_plan_id":"cebpf4jnsgd1na2vs0mg"},{"bike_id":"6d5a3034-93bc-491b-81de-69c0058f484e","system_id":"levelo_inurba_marseille","lat":43.30805,"lon":5.43556,"is_reserved":false,"is_disabled":true,"rental_uris":{"android":"levelo://app?vid=6d5a3034-93bc-491b-81de-69c0058f484e","ios":"levelo://app?vid=6d5a3034-93bc-491b-81de-69c0058f484e"},"vehicle_type_id":"4","last_reported":1742371992,"current_range_meters":10000,"station_id":"ce4bhph2rcd13ifvqheg","pricing_plan_id":"cebpf4jnsgd1na2vs0mg"},{"bike_id":"fe598ad7-c708-4daa-aca8-2b7154687dcd","system_id":"levelo_inurba_marseille","lat":43.30172,"lon":5.38088,"is_reserved":false,"is_disabled":false,"rental_uris":{"android":"levelo://app?vid=fe598ad7-c708-4daa-aca8-2b7154687dcd","ios":"levelo://app?vid=fe598ad7-c708-4daa-aca8-2b7154687dcd"},"vehicle_type_id":"4","last_reported":1742371992,"current_range_meters":10800,"station_id":"ce4bgjp2rcd13ifvqbh0","pricing_plan_id":"cebpf4jnsgd1na2vs0mg"},{"bike_id":"bb78a1d1-78ba-4f37-81f4-87b10a1775a5","system_id":"levelo_inurba_marseille","lat":43.32109,"lon":5.36777,"is_reserved":false,"is_disabled":false,"rental_uris":{"android":"levelo://app?vid=bb78a1d1-78ba-4f37-81f4-87b10a1775a5","ios":"levelo://app?vid=bb78a1d1-78ba-4f37-81f4-87b10a1775a5"},"vehicle_type_id":"4","last_reported":1742371992,"current_range_meters":10800,"station_id":"ce4bhrh2rcd13ifvqhug","pricing_plan_id":"cebpf4jnsgd1na2vs0mg"},{"bike_id":"44a4af3e-84f5-4f54-943d-83cf9fa4d793","system_id":"levelo_inurba_marseille","lat":43.27826,"lon":5.40734,"is_reserved":false,"is_disabled":false,"rental_uris":{"android":"levelo://app?vid=44a4af3e-84f5-4f54-943d-83cf9fa4d793","ios":"levelo://app?vid=44a4af3e-84f5-4f54-943d-83cf9fa4d793"},"vehicle_type_id":"4","last_reported":1742371992,"current_range_meters":10800,"station_id":"ce4bhnh2rcd13ifvqgtg","pricing_plan_id":"cebpf4jnsgd1na2vs0mg"},{"bike_id":"78c7f344-224f-4ee1-abbd-94f4d94ef023","system_id":"levelo_inurba_marseille","lat":43.23963,"lon":5.36616,"is_reserved":false,"is_disabled":true,"rental_uris":{"android":"levelo://app?vid=78c7f344-224f-4ee1-abbd-94f4d94ef023","ios":"levelo://app?vid=78c7f344-224f-4ee1-abbd-94f4d94ef023"},"vehicle_type_id":"4","last_reported":1742371992,"current_range_meters":10800,"station_id":"ce4bhi12rcd13ifvqfp0","pricing_plan_id":"cebpf4jnsgd1na2vs0mg"},{"bike_id":"6caf04f0-00c3-4fa8-a4f7-14f4ca0be60a","system_id":"levelo_inurba_marseille","lat":43.28571,"lon":5.39497,"is_reserved":false,"is_disabled":false,"rental_uris":{"android":"levelo://app?vid=6caf04f0-00c3-4fa8-a4f7-14f4ca0be60a","ios":"levelo://app?vid=6caf04f0-00c3-4fa8-a4f7-14f4ca0be60a"},"vehicle_type_id":"4","last_reported":1742371992,"current_range_meters":10000,"station_id":"ce4bh292rcd13ifvqdg0","pricing_plan_id":"cebpf4jnsgd1na2vs0mg"},{"bike_id":"782d6569-6eef-4683-93fa-a90e0a47e6c5","system_id":"levelo_inurba_marseille","lat":43.281555,"lon":5.351338,"is_reserved":false,"is_disabled":false,"rental_uris":{"android":"levelo://app?vid=782d6569-6eef-4683-93fa-a90e0a47e6c5","ios":"levelo://app?vid=782d6569-6eef-4683-93fa-a90e0a47e6c5"},"vehicle_type_id":"4","last_reported":1742371992,"current_range_meters":10800,"station_id":"ce4bhbp2rcd13ifvqerg","pricing_plan_id":"cebpf4jnsgd1na2vs0mg"},{"bike_id":"415b868c-7e39-4e5d-b9df-82c794a47c71","system_id":"levelo_inurba_marseille","lat":43.2931,"lon":5.3747,"is_reserved":false,"is_disabled":false,"rental_uris":{"android":"levelo://app?vid=415b868c-7e39-4e5d-b9df-82c794a47c71","ios":"levelo://app?vid=415b868c-7e39-4e5d-b9df-82c794a47c71"},"vehicle_type_id":"4","last_reported":1742371992,"current_range_meters":10800,"station_id":"ce4bgi12rcd13ifvqb70","pricing_plan_id":"cebpf4jnsgd1na2vs0mg"},{"bike_id":"f8fe5832-a089-4581-898a-e8c164fc5d3e","system_id":"levelo_inurba_marseille","lat":43.30475,"lon":5.37906,"is_reserved":false,"is_disabled":false,"rental_uris":{"android":"levelo://app?vid=f8fe5832-a089-4581-898a-e8c164fc5d3e","ios":"levelo://app?vid=f8fe5832-a089-4581-898a-e8c164fc5d3e"},"vehicle_type_id":"4","last_reported":1742371992,"current_range_meters":10800,"station_id":"ce4bgup2rcd13ifvqcn0","pricing_plan_id":"cebpf4jnsgd1na2vs0mg"},{"bike_id":"b054fe02-9589-4af9-9a1b-de9ea2a20bb4","system_id":"levelo_inurba_marseille","lat":43.30653,"lon":5.40101,"is_reserved":false,"is_disabled":false,"rental_uris":{"android":"levelo://app?vid=b054fe02-9589-4af9-9a1b-de9ea2a20bb4","ios":"levelo://app?vid=b054fe02-9589-4af9-9a1b-de9ea2a20bb4"},"vehicle_type_id":"4","last_reported":1742371992,"current_range_meters":10000,"station_id":"ce4bh112rcd13ifvqda0","pricing_plan_id":"cebpf4jnsgd1na2vs0mg"},{"bike_id":"3455258b-4135-46b9-9a26-10bf95160e40","system_id":"levelo_inurba_marseille","lat":43.2319,"lon":5.35545,"is_reserved":false,"is_disabled":false,"rental_uris":{"android":"levelo://app?vid=3455258b-4135-46b9-9a26-10bf95160e40","ios":"levelo://app?vid=3455258b-4135-46b9-9a26-10bf95160e40"},"vehicle_type_id":"4","last_reported":1742371992,"current_range_meters":10800,"station_id":"ce4bhu92rcd13ifvqi70","pricing_plan_id":"cebpf4jnsgd1na2vs0mg"},{"bike_id":"b3ab2806-f410-4cce-8b04-fb1a4b877921","system_id":"levelo_inurba_marseille","lat":43.2418,"lon":5.39738,"is_reserved":false,"is_disabled":false,"rental_uris":{"android":"levelo://app?vid=b3ab2806-f410-4cce-8b04-fb1a4b877921","ios":"levelo://app?vid=b3ab2806-f410-4cce-8b04-fb1a4b877921"},"vehicle_type_id":"4","last_reported":1742371992,"current_range_meters":10800,"station_id":"ce4bhn12rcd13ifvqgpg","pricing_plan_id":"cebpf4jnsgd1na2vs0mg"},{"bike_id":"b88fcb70-1aac-4a9f-957b-6b2f31e07965","system_id":"levelo_inurba_marseille","lat":43.24072,"lon":5.3775,"is_reserved":false,"is_disabled":false,"rental_uris":{"android":"levelo://app?vid=b88fcb70-1aac-4a9f-957b-6b2f31e07965","ios":"levelo://app?vid=b88fcb70-1aac-4a9f-957b-6b2f31e07965"},"vehicle_type_id":"4","last_reported":1742371992,"current_range_meters":10800,"station_id":"ce4bhnp2rcd13ifvqgvg","pricing_plan_id":"cebpf4jnsgd1na2vs0mg"},{"bike_id":"40519983-510e-4b9a-9562-e0995123f6e0","system_id":"levelo_inurba_marseille","lat":43.23206,"lon":5.3555,"is_reserved":false,"is_disabled":false,"rental_uris":{"android":"levelo://app?vid=40519983-510e-4b9a-9562-e0995123f6e0","ios":"levelo://app?vid=40519983-510e-4b9a-9562-e0995123f6e0"},"vehicle_type_id":"4","last_reported":1742371992,"current_range_meters":10800,"station_id":"ce4bhu92rcd13ifvqi70","pricing_plan_id":"cebpf4jnsgd1na2vs0mg"},{"bike_id":"9ed4ee23-75e2-41f4-b0b5-b21a692f1455","system_id":"levelo_inurba_marseille","lat":43.2899,"lon":5.37852,"is_reserved":false,"is_disabled":true,"rental_uris":{"android":"levelo://app?vid=9ed4ee23-75e2-41f4-b0b5-b21a692f1455","ios":"levelo://app?vid=9ed4ee23-75e2-41f4-b0b5-b21a692f1455"},"vehicle_type_id":"4","last_reported":1742371992,"current_range_meters":10800,"station_id":"ce4bh9p2rcd13ifvqed0","pricing_plan_id":"cebpf4jnsgd1na2vs0mg"},{"bike_id":"7de467a4-e7fd-4669-a978-fd2f3e355f45","system_id":"levelo_inurba_marseille","lat":43.24084,"lon":5.37751,"is_reserved":false,"is_disabled":false,"rental_uris":{"android":"levelo://app?vid=7de467a4-e7fd-4669-a978-fd2f3e355f45","ios":"levelo://app?vid=7de467a4-e7fd-4669-a978-fd2f3e355f45"},"vehicle_type_id":"4","last_reported":1742371992,"current_range_meters":10800,"station_id":"ce4bhnp2rcd13ifvqgvg","pricing_plan_id":"cebpf4jnsgd1na2vs0mg"},{"bike_id":"73775d85-d06e-4705-b3d6-611dd3926542","system_id":"levelo_inurba_marseille","lat":43.25932,"lon":5.40908,"is_reserved":false,"is_disabled":false,"rental_uris":{"android":"levelo://app?vid=73775d85-d06e-4705-b3d6-611dd3926542","ios":"levelo://app?vid=73775d85-d06e-4705-b3d6-611dd3926542"},"vehicle_type_id":"4","last_reported":1742371992,"current_range_meters":10800,"station_id":"ce4bhm92rcd13ifvqglg","pricing_plan_id":"cebpf4jnsgd1na2vs0mg"},{"bike_id":"06a6152a-e477-491f-83ed-9b68fd573e32","system_id":"levelo_inurba_marseille","lat":43.25841,"lon":5.39446,"is_reserved":false,"is_disabled":false,"rental_uris":{"android":"levelo://app?vid=06a6152a-e477-491f-83ed-9b68fd573e32","ios":"levelo://app?vid=06a6152a-e477-491f-83ed-9b68fd573e32"},"vehicle_type_id":"4","last_reported":1742371992,"current_range_meters":10800,"station_id":"ce4bhip2rcd13ifvqft0","pricing_plan_id":"cebpf4jnsgd1na2vs0mg"},{"bike_id":"6c991508-3c2b-4303-8e41-9b2c83cbbdff","system_id":"levelo_inurba_marseille","lat":43.261984,"lon":5.379323,"is_reserved":false,"is_disabled":false,"rental_uris":{"android":"levelo://app?vid=6c991508-3c2b-4303-8e41-9b2c83cbbdff","ios":"levelo://app?vid=6c991508-3c2b-4303-8e41-9b2c83cbbdff"},"vehicle_type_id":"4","last_reported":1742371992,"current_range_meters":10800,"station_id":"ce4bhh12rcd13ifvqfg0","pricing_plan_id":"cebpf4jnsgd1na2vs0mg"},{"bike_id":"a3ae58ef-7951-4fce-9005-aaa79f89070c","system_id":"levelo_inurba_marseille","lat":43.31222,"lon":5.36849,"is_reserved":false,"is_disabled":false,"rental_uris":{"android":"levelo://app?vid=a3ae58ef-7951-4fce-9005-aaa79f89070c","ios":"levelo://app?vid=a3ae58ef-7951-4fce-9005-aaa79f89070c"},"vehicle_type_id":"4","last_reported":1742371992,"current_range_meters":10800,"station_id":"ce4bgl92rcd13ifvqbq0","pricing_plan_id":"cebpf4jnsgd1na2vs0mg"},{"bike_id":"609e8c00-5703-40c6-8316-6658d181edc1","system_id":"levelo_inurba_marseille","lat":43.30278,"lon":5.37726,"is_reserved":false,"is_disabled":false,"rental_uris":{"android":"levelo://app?vid=609e8c00-5703-40c6-8316-6658d181edc1","ios":"levelo://app?vid=609e8c00-5703-40c6-8316-6658d181edc1"},"vehicle_type_id":"4","last_reported":1742371992,"current_range_meters":10800,"station_id":"ce4bguh2rcd13ifvqcj0","pricing_plan_id":"cebpf4jnsgd1na2vs0mg"},{"bike_id":"537c08a1-5a53-47eb-a09b-e80f349fd631","system_id":"levelo_inurba_marseille","lat":43.27058,"lon":5.40261,"is_reserved":false,"is_disabled":false,"rental_uris":{"android":"levelo://app?vid=537c08a1-5a53-47eb-a09b-e80f349fd631","ios":"levelo://app?vid=537c08a1-5a53-47eb-a09b-e80f349fd631"},"vehicle_type_id":"4","last_reported":1742371992,"current_range_meters":10800,"station_id":"ce4bhk92rcd13ifvqgc0","pricing_plan_id":"cebpf4jnsgd1na2vs0mg"},{"bike_id":"2f07df44-5720-4d7b-ad03-4c9df1d6ca38","system_id":"levelo_inurba_marseille","lat":43.3059,"lon":5.39362,"is_reserved":false,"is_disabled":false,"rental_uris":{"android":"levelo://app?vid=2f07df44-5720-4d7b-ad03-4c9df1d6ca38","ios":"levelo://app?vid=2f07df44-5720-4d7b-ad03-4c9df1d6ca38"},"vehicle_type_id":"4","last_reported":1742371992,"current_range_meters":11200,"station_id":"ce4bh0p2rcd13ifvqd80","pricing_plan_id":"cebpf4jnsgd1na2vs0mg"},{"bike_id":"e118aacc-23a6-42da-8cab-5e2f10593946","system_id":"levelo_inurba_marseille","lat":43.33605,"lon":5.41039,"is_reserved":false,"is_disabled":false,"rental_uris":{"android":"levelo://app?vid=e118aacc-23a6-42da-8cab-5e2f10593946","ios":"levelo://app?vid=e118aacc-23a6-42da-8cab-5e2f10593946"},"vehicle_type_id":"4","last_reported":1742371992,"current_range_meters":11200,"station_id":"ce4bhqh2rcd13ifvqhmg","pricing_plan_id":"cebpf4jnsgd1na2vs0mg"},{"bike_id":"f4165607-80d2-4e6e-8b9c-c523c42872fb","system_id":"levelo_inurba_marseille","lat":43.24812,"lon":5.37472,"is_reserved":false,"is_disabled":false,"rental_uris":{"android":"levelo://app?vid=f4165607-80d2-4e6e-8b9c-c523c42872fb","ios":"levelo://app?vid=f4165607-80d2-4e6e-8b9c-c523c42872fb"},"vehicle_type_id":"4","last_reported":1742371992,"current_range_meters":11200,"station_id":"ce4bhgh2rcd13ifvqfb0","pricing_plan_id":"cebpf4jnsgd1na2vs0mg"},{"bike_id":"b6cec0a8-8151-4282-95b3-b7e2e2bb4ad7","system_id":"levelo_inurba_marseille","lat":43.29566,"lon":5.37515,"is_reserved":false,"is_disabled":false,"rental_uris":{"android":"levelo://app?vid=b6cec0a8-8151-4282-95b3-b7e2e2bb4ad7","ios":"levelo://app?vid=b6cec0a8-8151-4282-95b3-b7e2e2bb4ad7"},"vehicle_type_id":"4","last_reported":1742371992,"current_range_meters":11200,"station_id":"ce4bgh92rcd13ifvqb50","pricing_plan_id":"cebpf4jnsgd1na2vs0mg"},{"bike_id":"94a19794-5f70-431d-85e7-6963e100af04","system_id":"levelo_inurba_marseille","lat":43.29302,"lon":5.37474,"is_reserved":false,"is_disabled":false,"rental_uris":{"android":"levelo://app?vid=94a19794-5f70-431d-85e7-6963e100af04","ios":"levelo://app?vid=94a19794-5f70-431d-85e7-6963e100af04"},"vehicle_type_id":"4","last_reported":1742371992,"current_range_meters":11200,"station_id":"ce4bgi12rcd13ifvqb70","pricing_plan_id":"cebpf4jnsgd1na2vs0mg"},{"bike_id":"1eb28855-6a0c-4acf-9ce6-09e607480387","system_id":"levelo_inurba_marseille","lat":43.28052,"lon":5.36953,"is_reserved":false,"is_disabled":false,"rental_uris":{"android":"levelo://app?vid=1eb28855-6a0c-4acf-9ce6-09e607480387","ios":"levelo://app?vid=1eb28855-6a0c-4acf-9ce6-09e607480387"},"vehicle_type_id":"4","last_reported":1742371992,"current_range_meters":11200,"station_id":"ce4bha12rcd13ifvqef0","pricing_plan_id":"cebpf4jnsgd1na2vs0mg"},{"bike_id":"bab53481-ee99-4570-8697-2f780131a218","system_id":"levelo_inurba_marseille","lat":43.29045,"lon":5.39952,"is_reserved":false,"is_disabled":false,"rental_uris":{"android":"levelo://app?vid=bab53481-ee99-4570-8697-2f780131a218","ios":"levelo://app?vid=bab53481-ee99-4570-8697-2f780131a218"},"vehicle_type_id":"4","last_reported":1742371992,"current_range_meters":11200,"station_id":"ce4bh392rcd13ifvqdm0","pricing_plan_id":"cebpf4jnsgd1na2vs0mg"},{"bike_id":"6bee3c6c-e2c9-4c22-a36b-0c51b779b449","system_id":"levelo_inurba_marseille","lat":43.3134,"lon":5.36725,"is_reserved":false,"is_disabled":false,"rental_uris":{"android":"levelo://app?vid=6bee3c6c-e2c9-4c22-a36b-0c51b779b449","ios":"levelo://app?vid=6bee3c6c-e2c9-4c22-a36b-0c51b779b449"},"vehicle_type_id":"4","last_reported":1742371992,"current_range_meters":11200,"station_id":"ce4bgr92rcd13ifvqc6g","pricing_plan_id":"cebpf4jnsgd1na2vs0mg"},{"bike_id":"26c3156d-8d38-4b11-92b6-f3f49ed4bf9b","system_id":"levelo_inurba_marseille","lat":43.27908,"lon":5.41221,"is_reserved":false,"is_disabled":false,"rental_uris":{"android":"levelo://app?vid=26c3156d-8d38-4b11-92b6-f3f49ed4bf9b","ios":"levelo://app?vid=26c3156d-8d38-4b11-92b6-f3f49ed4bf9b"},"vehicle_type_id":"4","last_reported":1742371992,"current_range_meters":11200,"station_id":"","pricing_plan_id":"cebpf4jnsgd1na2vs0mg"},{"bike_id":"d8635642-df29-432e-8db2-23e5afb2fafb","system_id":"levelo_inurba_marseille","lat":43.33604,"lon":5.41038,"is_reserved":false,"is_disabled":false,"rental_uris":{"android":"levelo://app?vid=d8635642-df29-432e-8db2-23e5afb2fafb","ios":"levelo://app?vid=d8635642-df29-432e-8db2-23e5afb2fafb"},"vehicle_type_id":"4","last_reported":1742371992,"current_range_meters":11600,"station_id":"ce4bhqh2rcd13ifvqhmg","pricing_plan_id":"cebpf4jnsgd1na2vs0mg"},{"bike_id":"5db2e172-465d-4f44-b453-f91c7095bbdf","system_id":"levelo_inurba_marseille","lat":43.30513,"lon":5.36541,"is_reserved":false,"is_disabled":false,"rental_uris":{"android":"levelo://app?vid=5db2e172-465d-4f44-b453-f91c7095bbdf","ios":"levelo://app?vid=5db2e172-465d-4f44-b453-f91c7095bbdf"},"vehicle_type_id":"4","last_reported":1742371992,"current_range_meters":11600,"station_id":"ce4bgs12rcd13ifvqcag","pricing_plan_id":"cebpf4jnsgd1na2vs0mg"},{"bike_id":"c03bf0bc-bd13-4839-83fb-cde67bd118c3","system_id":"levelo_inurba_marseille","lat":43.27493,"lon":5.42467,"is_reserved":false,"is_disabled":false,"rental_uris":{"android":"levelo://app?vid=c03bf0bc-bd13-4839-83fb-cde67bd118c3","ios":"levelo://app?vid=c03bf0bc-bd13-4839-83fb-cde67bd118c3"},"vehicle_type_id":"4","last_reported":1742371992,"current_range_meters":11600,"station_id":"ce4bhn92rcd13ifvqgrg","pricing_plan_id":"cebpf4jnsgd1na2vs0mg"},{"bike_id":"6138b640-3a79-45fe-b651-9195792b5201","system_id":"levelo_inurba_marseille","lat":43.23967,"lon":5.36639,"is_reserved":false,"is_disabled":false,"rental_uris":{"android":"levelo://app?vid=6138b640-3a79-45fe-b651-9195792b5201","ios":"levelo://app?vid=6138b640-3a79-45fe-b651-9195792b5201"},"vehicle_type_id":"4","last_reported":1742371992,"current_range_meters":11600,"station_id":"ce4bhi12rcd13ifvqfp0","pricing_plan_id":"cebpf4jnsgd1na2vs0mg"},{"bike_id":"3259b682-e4dc-4a27-895a-2ee089a67444","system_id":"levelo_inurba_marseille","lat":43.28634,"lon":5.4129,"is_reserved":false,"is_disabled":false,"rental_uris":{"android":"levelo://app?vid=3259b682-e4dc-4a27-895a-2ee089a67444","ios":"levelo://app?vid=3259b682-e4dc-4a27-895a-2ee089a67444"},"vehicle_type_id":"4","last_reported":1742371992,"current_range_meters":11600,"station_id":"","pricing_plan_id":"cebpf4jnsgd1na2vs0mg"},{"bike_id":"4dd87ef8-8d15-4b6b-ad14-e05b7933df96","system_id":"levelo_inurba_marseille","lat":43.30547,"lon":5.36559,"is_reserved":false,"is_disabled":false,"rental_uris":{"android":"levelo://app?vid=4dd87ef8-8d15-4b6b-ad14-e05b7933df96","ios":"levelo://app?vid=4dd87ef8-8d15-4b6b-ad14-e05b7933df96"},"vehicle_type_id":"4","last_reported":1742371992,"current_range_meters":12000,"station_id":"ce4bgs12rcd13ifvqcag","pricing_plan_id":"cebpf4jnsgd1na2vs0mg"},{"bike_id":"3a93b571-ed30-4cd4-aca9-8a8fdc87a1c6","system_id":"levelo_inurba_marseille","lat":43.23972,"lon":5.36652,"is_reserved":false,"is_disabled":false,"rental_uris":{"android":"levelo://app?vid=3a93b571-ed30-4cd4-aca9-8a8fdc87a1c6","ios":"levelo://app?vid=3a93b571-ed30-4cd4-aca9-8a8fdc87a1c6"},"vehicle_type_id":"4","last_reported":1742371992,"current_range_meters":12000,"station_id":"ce4bhi12rcd13ifvqfp0","pricing_plan_id":"cebpf4jnsgd1na2vs0mg"},{"bike_id":"8f2ce796-5b11-42cc-a98e-cdef8ad67592","system_id":"levelo_inurba_marseille","lat":43.30274,"lon":5.36898,"is_reserved":false,"is_disabled":false,"rental_uris":{"android":"levelo://app?vid=8f2ce796-5b11-42cc-a98e-cdef8ad67592","ios":"levelo://app?vid=8f2ce796-5b11-42cc-a98e-cdef8ad67592"},"vehicle_type_id":"4","last_reported":1742371992,"current_range_meters":12000,"station_id":"ce4bgqh2rcd13ifvqc5g","pricing_plan_id":"cebpf4jnsgd1na2vs0mg"},{"bike_id":"f1dcd5b6-294c-4f9f-a5dc-52ba2710eacb","system_id":"levelo_inurba_marseille","lat":43.23194,"lon":5.39999,"is_reserved":false,"is_disabled":false,"rental_uris":{"android":"levelo://app?vid=f1dcd5b6-294c-4f9f-a5dc-52ba2710eacb","ios":"levelo://app?vid=f1dcd5b6-294c-4f9f-a5dc-52ba2710eacb"},"vehicle_type_id":"4","last_reported":1742371992,"current_range_meters":12000,"station_id":"ce4bhn12rcd13ifvqgqg","pricing_plan_id":"cebpf4jnsgd1na2vs0mg"},{"bike_id":"de927ab0-f176-4ee0-8e8d-94716d237bf6","system_id":"levelo_inurba_marseille","lat":43.30953,"lon":5.39028,"is_reserved":false,"is_disabled":false,"rental_uris":{"android":"levelo://app?vid=de927ab0-f176-4ee0-8e8d-94716d237bf6","ios":"levelo://app?vid=de927ab0-f176-4ee0-8e8d-94716d237bf6"},"vehicle_type_id":"4","last_reported":1742371992,"current_range_meters":12000,"station_id":"ce4bgup2rcd13ifvqco0","pricing_plan_id":"cebpf4jnsgd1na2vs0mg"},{"bike_id":"75e8bee3-0a10-4522-9d7e-72ece2846129","system_id":"levelo_inurba_marseille","lat":43.33038,"lon":5.39027,"is_reserved":false,"is_disabled":false,"rental_uris":{"android":"levelo://app?vid=75e8bee3-0a10-4522-9d7e-72ece2846129","ios":"levelo://app?vid=75e8bee3-0a10-4522-9d7e-72ece2846129"},"vehicle_type_id":"4","last_reported":1742371992,"current_range_meters":12000,"station_id":"ce4bhr92rcd13ifvqhrg","pricing_plan_id":"cebpf4jnsgd1na2vs0mg"},{"bike_id":"2323b4ab-806d-43a7-9c5c-cdb6d94fd749","system_id":"levelo_inurba_marseille","lat":43.32479,"lon":5.36559,"is_reserved":false,"is_disabled":false,"rental_uris":{"android":"levelo://app?vid=2323b4ab-806d-43a7-9c5c-cdb6d94fd749","ios":"levelo://app?vid=2323b4ab-806d-43a7-9c5c-cdb6d94fd749"},"vehicle_type_id":"4","last_reported":1742371992,"current_range_meters":12000,"station_id":"ce4bhs12rcd13ifvqhvg","pricing_plan_id":"cebpf4jnsgd1na2vs0mg"},{"bike_id":"92d8111d-dc94-481c-a128-adb8a5cd5d90","system_id":"levelo_inurba_marseille","lat":43.26233,"lon":5.40567,"is_reserved":false,"is_disabled":false,"rental_uris":{"android":"levelo://app?vid=92d8111d-dc94-481c-a128-adb8a5cd5d90","ios":"levelo://app?vid=92d8111d-dc94-481c-a128-adb8a5cd5d90"},"vehicle_type_id":"4","last_reported":1742371992,"current_range_meters":12000,"station_id":"","pricing_plan_id":"cebpf4jnsgd1na2vs0mg"},{"bike_id":"b4b2c2c3-f8dc-4ba9-99d8-15825522ed6f","system_id":"levelo_inurba_marseille","lat":43.24087,"lon":5.37774,"is_reserved":false,"is_disabled":false,"rental_uris":{"android":"levelo://app?vid=b4b2c2c3-f8dc-4ba9-99d8-15825522ed6f","ios":"levelo://app?vid=b4b2c2c3-f8dc-4ba9-99d8-15825522ed6f"},"vehicle_type_id":"4","last_reported":1742371992,"current_range_meters":12400,"station_id":"ce4bhnp2rcd13ifvqgvg","pricing_plan_id":"cebpf4jnsgd1na2vs0mg"},{"bike_id":"52ebbfb2-4a71-4c78-b963-58396b010127","system_id":"levelo_inurba_marseille","lat":43.28699,"lon":5.39981,"is_reserved":false,"is_disabled":false,"rental_uris":{"android":"levelo://app?vid=52ebbfb2-4a71-4c78-b963-58396b010127","ios":"levelo://app?vid=52ebbfb2-4a71-4c78-b963-58396b010127"},"vehicle_type_id":"4","last_reported":1742371992,"current_range_meters":12400,"station_id":"ce4bho92rcd13ifvqh3g","pricing_plan_id":"cebpf4jnsgd1na2vs0mg"},{"bike_id":"95335876-88d4-4fc9-816f-c9a7c105be3e","system_id":"levelo_inurba_marseille","lat":43.27948,"lon":5.41044,"is_reserved":false,"is_disabled":false,"rental_uris":{"android":"levelo://app?vid=95335876-88d4-4fc9-816f-c9a7c105be3e","ios":"levelo://app?vid=95335876-88d4-4fc9-816f-c9a7c105be3e"},"vehicle_type_id":"4","last_reported":1742371992,"current_range_meters":12400,"station_id":"ce4bhnp2rcd13ifvqh0g","pricing_plan_id":"cebpf4jnsgd1na2vs0mg"},{"bike_id":"114dc30c-343b-4079-bb31-6ac2fa3792b4","system_id":"levelo_inurba_marseille","lat":43.27942,"lon":5.38715,"is_reserved":false,"is_disabled":false,"rental_uris":{"android":"levelo://app?vid=114dc30c-343b-4079-bb31-6ac2fa3792b4","ios":"levelo://app?vid=114dc30c-343b-4079-bb31-6ac2fa3792b4"},"vehicle_type_id":"4","last_reported":1742371992,"current_range_meters":12400,"station_id":"ce4bhg12rcd13ifvqf80","pricing_plan_id":"cebpf4jnsgd1na2vs0mg"},{"bike_id":"4dde40cd-c54a-4170-b746-be61a84c5833","system_id":"levelo_inurba_marseille","lat":43.23181,"lon":5.39991,"is_reserved":false,"is_disabled":false,"rental_uris":{"android":"levelo://app?vid=4dde40cd-c54a-4170-b746-be61a84c5833","ios":"levelo://app?vid=4dde40cd-c54a-4170-b746-be61a84c5833"},"vehicle_type_id":"4","last_reported":1742371992,"current_range_meters":12000,"station_id":"ce4bhn12rcd13ifvqgqg","pricing_plan_id":"cebpf4jnsgd1na2vs0mg"},{"bike_id":"f3f88f2f-a9a9-4d52-b11f-07815f1c010a","system_id":"levelo_inurba_marseille","lat":43.31731,"lon":5.42414,"is_reserved":false,"is_disabled":false,"rental_uris":{"android":"levelo://app?vid=f3f88f2f-a9a9-4d52-b11f-07815f1c010a","ios":"levelo://app?vid=f3f88f2f-a9a9-4d52-b11f-07815f1c010a"},"vehicle_type_id":"4","last_reported":1742371992,"current_range_meters":12000,"station_id":"ce4bhp92rcd13ifvqhbg","pricing_plan_id":"cebpf4jnsgd1na2vs0mg"},{"bike_id":"677df2a6-fec6-4a32-afee-caf135fc91ad","system_id":"levelo_inurba_marseille","lat":43.29609,"lon":5.37735,"is_reserved":false,"is_disabled":false,"rental_uris":{"android":"levelo://app?vid=677df2a6-fec6-4a32-afee-caf135fc91ad","ios":"levelo://app?vid=677df2a6-fec6-4a32-afee-caf135fc91ad"},"vehicle_type_id":"4","last_reported":1742371992,"current_range_meters":12400,"station_id":"ce4bgi92rcd13ifvqb90","pricing_plan_id":"cebpf4jnsgd1na2vs0mg"},{"bike_id":"41e4ea80-37e7-4ec2-a5e4-08f072b0a8c9","system_id":"levelo_inurba_marseille","lat":43.27683,"lon":5.38872,"is_reserved":false,"is_disabled":false,"rental_uris":{"android":"levelo://app?vid=41e4ea80-37e7-4ec2-a5e4-08f072b0a8c9","ios":"levelo://app?vid=41e4ea80-37e7-4ec2-a5e4-08f072b0a8c9"},"vehicle_type_id":"4","last_reported":1742371992,"current_range_meters":12000,"station_id":"ce4bhi12rcd13ifvqfo0","pricing_plan_id":"cebpf4jnsgd1na2vs0mg"},{"bike_id":"058e51a4-3487-4245-ad8a-a3458153d2ed","system_id":"levelo_inurba_marseille","lat":43.30155,"lon":5.38069,"is_reserved":false,"is_disabled":false,"rental_uris":{"android":"levelo://app?vid=058e51a4-3487-4245-ad8a-a3458153d2ed","ios":"levelo://app?vid=058e51a4-3487-4245-ad8a-a3458153d2ed"},"vehicle_type_id":"4","last_reported":1742371992,"current_range_meters":12800,"station_id":"ce4bgjp2rcd13ifvqbh0","pricing_plan_id":"cebpf4jnsgd1na2vs0mg"},{"bike_id":"1fc3d62d-4997-4ac3-a923-df4af1ed6f2c","system_id":"levelo_inurba_marseille","lat":43.30449,"lon":5.37899,"is_reserved":false,"is_disabled":false,"rental_uris":{"android":"levelo://app?vid=1fc3d62d-4997-4ac3-a923-df4af1ed6f2c","ios":"levelo://app?vid=1fc3d62d-4997-4ac3-a923-df4af1ed6f2c"},"vehicle_type_id":"4","last_reported":1742371992,"current_range_meters":12800,"station_id":"ce4bgup2rcd13ifvqcn0","pricing_plan_id":"cebpf4jnsgd1na2vs0mg"},{"bike_id":"d3dbe423-85f4-46cd-bd98-e681ae860059","system_id":"levelo_inurba_marseille","lat":43.33615,"lon":5.4104,"is_reserved":false,"is_disabled":false,"rental_uris":{"android":"levelo://app?vid=d3dbe423-85f4-46cd-bd98-e681ae860059","ios":"levelo://app?vid=d3dbe423-85f4-46cd-bd98-e681ae860059"},"vehicle_type_id":"4","last_reported":1742371992,"current_range_meters":12800,"station_id":"ce4bhqh2rcd13ifvqhmg","pricing_plan_id":"cebpf4jnsgd1na2vs0mg"},{"bike_id":"b872c9c8-415e-4db5-90a9-86fb8d30a182","system_id":"levelo_inurba_marseille","lat":43.24081,"lon":5.37746,"is_reserved":false,"is_disabled":false,"rental_uris":{"android":"levelo://app?vid=b872c9c8-415e-4db5-90a9-86fb8d30a182","ios":"levelo://app?vid=b872c9c8-415e-4db5-90a9-86fb8d30a182"},"vehicle_type_id":"4","last_reported":1742371992,"current_range_meters":12800,"station_id":"ce4bhnp2rcd13ifvqgvg","pricing_plan_id":"cebpf4jnsgd1na2vs0mg"},{"bike_id":"fafe54c8-36e3-4aaa-9db4-54ae00e1c8df","system_id":"levelo_inurba_marseille","lat":43.23965,"lon":5.36635,"is_reserved":false,"is_disabled":false,"rental_uris":{"android":"levelo://app?vid=fafe54c8-36e3-4aaa-9db4-54ae00e1c8df","ios":"levelo://app?vid=fafe54c8-36e3-4aaa-9db4-54ae00e1c8df"},"vehicle_type_id":"4","last_reported":1742371992,"current_range_meters":12800,"station_id":"ce4bhi12rcd13ifvqfp0","pricing_plan_id":"cebpf4jnsgd1na2vs0mg"},{"bike_id":"7b660f94-53f2-4ea2-ac2b-9a7c88505f64","system_id":"levelo_inurba_marseille","lat":43.25931,"lon":5.40913,"is_reserved":false,"is_disabled":false,"rental_uris":{"android":"levelo://app?vid=7b660f94-53f2-4ea2-ac2b-9a7c88505f64","ios":"levelo://app?vid=7b660f94-53f2-4ea2-ac2b-9a7c88505f64"},"vehicle_type_id":"4","last_reported":1742371992,"current_range_meters":12800,"station_id":"ce4bhm92rcd13ifvqglg","pricing_plan_id":"cebpf4jnsgd1na2vs0mg"},{"bike_id":"feb47518-17a3-4ebc-b24a-8f39e0ad3688","system_id":"levelo_inurba_marseille","lat":43.30532,"lon":5.36538,"is_reserved":false,"is_disabled":false,"rental_uris":{"android":"levelo://app?vid=feb47518-17a3-4ebc-b24a-8f39e0ad3688","ios":"levelo://app?vid=feb47518-17a3-4ebc-b24a-8f39e0ad3688"},"vehicle_type_id":"4","last_reported":1742371992,"current_range_meters":12800,"station_id":"ce4bgs12rcd13ifvqcag","pricing_plan_id":"cebpf4jnsgd1na2vs0mg"},{"bike_id":"eb9c78c4-f20d-4ee6-9d11-7d8e71362578","system_id":"levelo_inurba_marseille","lat":43.30899,"lon":5.37212,"is_reserved":false,"is_disabled":false,"rental_uris":{"android":"levelo://app?vid=eb9c78c4-f20d-4ee6-9d11-7d8e71362578","ios":"levelo://app?vid=eb9c78c4-f20d-4ee6-9d11-7d8e71362578"},"vehicle_type_id":"4","last_reported":1742371992,"current_range_meters":13600,"station_id":"ce4bguh2rcd13ifvqckg","pricing_plan_id":"cebpf4jnsgd1na2vs0mg"},{"bike_id":"0a36776e-d923-4f5a-8ca3-dba347817647","system_id":"levelo_inurba_marseille","lat":43.263396,"lon":5.418095,"is_reserved":false,"is_disabled":false,"rental_uris":{"android":"levelo://app?vid=0a36776e-d923-4f5a-8ca3-dba347817647","ios":"levelo://app?vid=0a36776e-d923-4f5a-8ca3-dba347817647"},"vehicle_type_id":"4","last_reported":1742371992,"current_range_meters":12800,"station_id":"ce4bhnh2rcd13ifvqgug","pricing_plan_id":"cebpf4jnsgd1na2vs0mg"},{"bike_id":"4ddcaf93-26d4-4853-95da-46fe44ffec73","system_id":"levelo_inurba_marseille","lat":43.27203,"lon":5.39192,"is_reserved":false,"is_disabled":false,"rental_uris":{"android":"levelo://app?vid=4ddcaf93-26d4-4853-95da-46fe44ffec73","ios":"levelo://app?vid=4ddcaf93-26d4-4853-95da-46fe44ffec73"},