{"last_updated":1706512032,"ttl":30,"version":"2.2","data":{"bikes":[{"bike_id":"dc70a1f4-3d17-4f34-a985-9190b5ad8599","system_id":"levelo_inurba_marseille","lat":43.31341,"lon":5.367098,"is_reserved":false,"is_disabled":false,"rental_uris":{"android":"levelo://app?vid=dc70a1f4-3d17-4f34-a985-9190b5ad8599","ios":"levelo://app?vid=dc70a1f4-3d17-4f34-a985-9190b5ad8599"},"vehicle_type_id":"4","last_reported":1706512032,"current_range_meters":18000,"station_id":"ce4bgr92rcd13ifvqc6g","pricing_plan_id":"free"},{"bike_id":"49a9fdd3-dd37-437f-b053-6badeb071864","system_id":"levelo_inurba_marseille","lat":43.313391,"lon":5.36706,"is_reserved":false,"is_disabled":false,"rental_uris":{"android":"levelo://app?vid=49a9fdd3-dd37-437f-b053-6badeb071864","ios":"levelo://app?vid=49a9fdd3-dd37-437f-b053-6badeb071864"},"vehicle_type_id":"4","last_reported":1706512032,"current_range_meters":27200,"station_id":"ce4bgr92rcd13ifvqc6g","pricing_plan_id":"free"},{"bike_id":"51ff875f-d37b-4a0e-9068-6ea075808548","system_id":"levelo_inurba_marseille","lat":43.313391,"lon":5.36706,"is_reserved":false,"is_disabled":false,"rental_uris":{"android":"levelo://app?vid=51ff875f-d37b-4a0e-9068-6ea075808548","ios":"levelo://app?vid=51ff875f-d37b-4a0e-9068-6ea075808548"},"vehicle_type_id":"4","last_reported":1706512032,"current_range_meters":30000,"station_id":"ce4bgr92rcd13ifvqc6g","pricing_plan_id":"free"},{"bike_id":"96a5caaa-3ac7-4a75-a115-d541957e01d4","system_id":"levelo_inurba_marseille","lat":43.31341,"lon":5.367098,"is_reserved":false,"is_disabled":false,"rental_uris":{"android":"levelo://app?vid=96a5caaa-3ac7-4a75-a115-d541957e01d4","ios":"levelo://app?vid=96a5caaa-3ac7-4a75-a115-d541957e01d4"},"vehicle_type_id":"4","last_reported":1706512032,"current_range_meters":26000,"station_id":"ce4bgr92rcd13ifvqc6g","pricing_plan_id":"free"},{"bike_id":"26eb7c4c-d820-4609-a57f-4739d1caec33","system_id":"levelo_inurba_marseille","lat":43.31341,"lon":5.367098,"is_reserved":false,"is_disabled":false,"rental_uris":{"android":"levelo://app?vid=26eb7c4c-d820-4609-a57f-4739d1caec33","ios":"levelo://app?vid=26eb7c4c-d820-4609-a57f-4739d1caec33"},"vehicle_type_id":"4","last_reported":1706512032,"current_range_meters":27200,"station_id":"ce4bgr92rcd13ifvqc6g","pricing_plan_id":"free"},{"bike_id":"7dd3ff27-4e87-4cff-859a-d94a428d0541","system_id":"levelo_inurba_marseille","lat":43.312271,"lon":5.368624,"is_reserved":false,"is_disabled":false,"rental_uris":{"android":"levelo://app?vid=7dd3ff27-4e87-4cff-859a-d94a428d0541","ios":"levelo://app?vid=7dd3ff27-4e87-4cff-859a-d94a428d0541"},"vehicle_type_id":"4","last_reported":1706512032,"current_range_meters":16800,"station_id":"ce4bgl92rcd13ifvqbq0","pricing_plan_id":"free"},{"bike_id":"bc858ee9-b1f9-43ab-b6e9-452eab3012ae","system_id":"levelo_inurba_marseille","lat":43.309076,"lon":5.368465,"is_reserved":false,"is_disabled":false,"rental_uris":{"android":"levelo://app?vid=bc858ee9-b1f9-43ab-b6e9-452eab3012ae","ios":"levelo://app?vid=bc858ee9-b1f9-43ab-b6e9-452eab3012ae"},"vehicle_type_id":"4","last_reported":1706512032,"current_range_meters":29600,"station_id":"ce4bgn92rcd13ifvqbvg","pricing_plan_id":"free"},{"bike_id":"e7fa1f84-8a5c-40e4-aec7-596f9d6c7e5f","system_id":"levelo_inurba_marseille","lat":43.309076,"lon":5.368465,"is_reserved":false,"is_disabled":false,"rental_uris":{"android":"levelo://app?vid=e7fa1f84-8a5c-40e4-aec7-596f9d6c7e5f","ios":"levelo://app?vid=e7fa1f84-8a5c-40e4-aec7-596f9d6c7e5f"},"vehicle_type_id":"4","last_reported":1706512032,"current_range_meters":30000,"station_id":"ce4bgn92rcd13ifvqbvg","pricing_plan_id":"free"},{"bike_id":"8040038f-ead1-4e1f-af7e-b77da665c6b7","system_id":"levelo_inurba_marseille","lat":43.314881,"lon":5.37313,"is_reserved":false,"is_disabled":false,"rental_uris":{"android":"levelo://app?vid=8040038f-ead1-4e1f-af7e-b77da665c6b7","ios":"levelo://app?vid=8040038f-ead1-4e1f-af7e-b77da665c6b7"},"vehicle_type_id":"4","last_reported":1706512032,"current_range_meters":31200,"station_id":"ce4bgt12rcd13ifvqcd0","pricing_plan_id":"free"},{"bike_id":"1a549aa7-34ae-4ce2-b59d-47641d952cfc","system_id":"levelo_inurba_marseille","lat":43.309039,"lon":5.371797,"is_reserved":false,"is_disabled":false,"rental_uris":{"android":"levelo://app?vid=1a549aa7-34ae-4ce2-b59d-47641d952cfc","ios":"levelo://app?vid=1a549aa7-34ae-4ce2-b59d-47641d952cfc"},"vehicle_type_id":"4","last_reported":1706512032,"current_range_meters":17600,"station_id":"ce4bguh2rcd13ifvqckg","pricing_plan_id":"free"},{"bike_id":"e481f553-cc12-4e92-8685-c5b863a4c34c","system_id":"levelo_inurba_marseille","lat":43.30884,"lon":5.3719,"is_reserved":false,"is_disabled":false,"rental_uris":{"android":"levelo://app?vid=e481f553-cc12-4e92-8685-c5b863a4c34c","ios":"levelo://app?vid=e481f553-cc12-4e92-8685-c5b863a4c34c"},"vehicle_type_id":"4","last_reported":1706512032,"current_range_meters":22800,"station_id":"ce4bguh2rcd13ifvqckg","pricing_plan_id":"free"},{"bike_id":"07cdec90-b36f-4e98-9e33-d9011393e3fa","system_id":"levelo_inurba_marseille","lat":43.309039,"lon":5.371797,"is_reserved":false,"is_disabled":false,"rental_uris":{"android":"levelo://app?vid=07cdec90-b36f-4e98-9e33-d9011393e3fa","ios":"levelo://app?vid=07cdec90-b36f-4e98-9e33-d9011393e3fa"},"vehicle_type_id":"4","last_reported":1706512032,"current_range_meters":19600,"station_id":"ce4bguh2rcd13ifvqckg","pricing_plan_id":"free"},{"bike_id":"bbb1210c-aead-4fc6-882a-d2f01da4a9e7","system_id":"levelo_inurba_marseille","lat":43.309039,"lon":5.371797,"is_reserved":false,"is_disabled":false,"rental_uris":{"android":"levelo://app?vid=bbb1210c-aead-4fc6-882a-d2f01da4a9e7","ios":"levelo://app?vid=bbb1210c-aead-4fc6-882a-d2f01da4a9e7"},"vehicle_type_id":"4","last_reported":1706512032,"current_range_meters":21200,"station_id":"ce4bguh2rcd13ifvqckg","pricing_plan_id":"free"},{"bike_id":"ac42197e-48fe-475e-82a5-998808537a0b","system_id":"levelo_inurba_marseille","lat":43.305368,"lon":5.367343,"is_reserved":false,"is_disabled":false,"rental_uris":{"android":"levelo://app?vid=ac42197e-48fe-475e-82a5-998808537a0b","ios":"levelo://app?vid=ac42197e-48fe-475e-82a5-998808537a0b"},"vehicle_type_id":"4","last_reported":1706512032,"current_range_meters":17200,"station_id":"ce4bgrp2rcd13ifvqc9g","pricing_plan_id":"free"},{"bike_id":"177eec20-d3be-4a77-b9ff-793742d77e3f","system_id":"levelo_inurba_marseille","lat":43.305368,"lon":5.367343,"is_reserved":false,"is_disabled":false,"rental_uris":{"android":"levelo://app?vid=177eec20-d3be-4a77-b9ff-793742d77e3f","ios":"levelo://app?vid=177eec20-d3be-4a77-b9ff-793742d77e3f"},"vehicle_type_id":"4","last_reported":1706512032,"current_range_meters":1200,"station_id":"ce4bgrp2rcd13ifvqc9g","pricing_plan_id":"free"},{"bike_id":"4ce22112-4f6f-4cc6-9400-8103af938620","system_id":"levelo_inurba_marseille","lat":43.305712,"lon":5.365641,"is_reserved":false,"is_disabled":false,"rental_uris":{"android":"levelo://app?vid=4ce22112-4f6f-4cc6-9400-8103af938620","ios":"levelo://app?vid=4ce22112-4f6f-4cc6-9400-8103af938620"},"vehicle_type_id":"4","last_reported":1706512032,"current_range_meters":14000,"station_id":"ce4bgs12rcd13ifvqcag","pricing_plan_id":"free"},{"bike_id":"c2b0ad9e-b796-4c7a-9c1f-420f3cf0949b","system_id":"levelo_inurba_marseille","lat":43.305368,"lon":5.367343,"is_reserved":false,"is_disabled":false,"rental_uris":{"android":"levelo://app?vid=c2b0ad9e-b796-4c7a-9c1f-420f3cf0949b","ios":"levelo://app?vid=c2b0ad9e-b796-4c7a-9c1f-420f3cf0949b"},"vehicle_type_id":"4","last_reported":1706512032,"current_range_meters":27600,"station_id":"ce4bgrp2rcd13ifvqc9g","pricing_plan_id":"free"},{"bike_id":"c9c73b7b-f47b-4fac-a315-69126df4b751","system_id":"levelo_inurba_marseille","lat":43.305706,"lon":5.365654,"is_reserved":false,"is_disabled":false,"rental_uris":{"android":"levelo://app?vid=c9c73b7b-f47b-4fac-a315-69126df4b751","ios":"levelo://app?vid=c9c73b7b-f47b-4fac-a315-69126df4b751"},"vehicle_type_id":"4","last_reported":1706512032,"current_range_meters":14400,"station_id":"ce4bgs12rcd13ifvqcag","pricing_plan_id":"free"},{"bike_id":"bbbd7d74-0b0c-452b-993a-01856960aa3d","system_id":"levelo_inurba_marseille","lat":43.305706,"lon":5.365654,"is_reserved":false,"is_disabled":false,"rental_uris":{"android":"levelo://app?vid=bbbd7d74-0b0c-452b-993a-01856960aa3d","ios":"levelo://app?vid=bbbd7d74-0b0c-452b-993a-01856960aa3d"},"vehicle_type_id":"4","last_reported":1706512032,"current_range_meters":19600,"station_id":"ce4bgs12rcd13ifvqcag","pricing_plan_id":"free"},{"bike_id":"90b3e999-e076-49e8-ab88-8d43bdb30f54","system_id":"levelo_inurba_marseille","lat":43.305706,"lon":5.365654,"is_reserved":false,"is_disabled":false,"rental_uris":{"android":"levelo://app?vid=90b3e999-e076-49e8-ab88-8d43bdb30f54","ios":"levelo://app?vid=90b3e999-e076-49e8-ab88-8d43bdb30f54"},"vehicle_type_id":"4","last_reported":1706512032,"current_range_meters":29600,"station_id":"ce4bgs12rcd13ifvqcag","pricing_plan_id":"free"},{"bike_id":"dfa214a0-b15a-422c-873b-4a40440b8850","system_id":"levelo_inurba_marseille","lat":43.305706,"lon":5.365654,"is_reserved":false,"is_disabled":false,"rental_uris":{"android":"levelo://app?vid=dfa214a0-b15a-422c-873b-4a40440b8850","ios":"levelo://app?vid=dfa214a0-b15a-422c-873b-4a40440b8850"},"vehicle_type_id":"4","last_reported":1706512032,"current_range_meters":21200,"station_id":"ce4bgs12rcd13ifvqcag","pricing_plan_id":"free"},{"bike_id":"ed0018d1-d6a2-474d-a242-9b25c7aecc29","system_id":"levelo_inurba_marseille","lat":43.305989,"lon":5.37225,"is_reserved":false,"is_disabled":false,"rental_uris":{"android":"levelo://app?vid=ed0018d1-d6a2-474d-a242-9b25c7aecc29","ios":"levelo://app?vid=ed0018d1-d6a2-474d-a242-9b25c7aecc29"},"vehicle_type_id":"4","last_reported":1706512032,"current_range_meters":25200,"station_id":"ce4bgqh2rcd13ifvqc4g","pricing_plan_id":"free"},{"bike_id":"4852c294-0395-4a04-844f-07abfb0fcc6b","system_id":"levelo_inurba_marseille","lat":43.305989,"lon":5.37225,"is_reserved":false,"is_disabled":false,"rental_uris":{"android":"levelo://app?vid=4852c294-0395-4a04-844f-07abfb0fcc6b","ios":"levelo://app?vid=4852c294-0395-4a04-844f-07abfb0fcc6b"},"vehicle_type_id":"4","last_reported":1706512032,"current_range_meters":23600,"station_id":"ce4bgqh2rcd13ifvqc4g","pricing_plan_id":"free"},{"bike_id":"4ff1286d-1af9-4ea2-ba65-55c4d50f59d2","system_id":"levelo_inurba_marseille","lat":43.311131,"lon":5.377651,"is_reserved":false,"is_disabled":false,"rental_uris":{"android":"levelo://app?vid=4ff1286d-1af9-4ea2-ba65-55c4d50f59d2","ios":"levelo://app?vid=4ff1286d-1af9-4ea2-ba65-55c4d50f59d2"},"vehicle_type_id":"4","last_reported":1706512032,"current_range_meters":21200,"station_id":"ce4bgt92rcd13ifvqcg0","pricing_plan_id":"free"},{"bike_id":"1f2fd27f-f0fe-486c-9c82-4d84389ae04c","system_id":"levelo_inurba_marseille","lat":43.311131,"lon":5.377651,"is_reserved":false,"is_disabled":false,"rental_uris":{"android":"levelo://app?vid=1f2fd27f-f0fe-486c-9c82-4d84389ae04c","ios":"levelo://app?vid=1f2fd27f-f0fe-486c-9c82-4d84389ae04c"},"vehicle_type_id":"4","last_reported":1706512032,"current_range_meters":6400,"station_id":"ce4bgt92rcd13ifvqcg0","pricing_plan_id":"free"},{"bike_id":"65fcea18-2c9e-4c80-adca-9f94b3ce8427","system_id":"levelo_inurba_marseille","lat":43.311131,"lon":5.377651,"is_reserved":false,"is_disabled":false,"rental_uris":{"android":"levelo://app?vid=65fcea18-2c9e-4c80-adca-9f94b3ce8427","ios":"levelo://app?vid=65fcea18-2c9e-4c80-adca-9f94b3ce8427"},"vehicle_type_id":"4","last_reported":1706512032,"current_range_meters":5200,"station_id":"ce4bgt92rcd13ifvqcg0","pricing_plan_id":"free"},{"bike_id":"8ba9156f-8a2c-4f74-877c-9b3f4dfbf4f3","system_id":"levelo_inurba_marseille","lat":43.317075,"lon":5.377367,"is_reserved":false,"is_disabled":false,"rental_uris":{"android":"levelo://app?vid=8ba9156f-8a2c-4f74-877c-9b3f4dfbf4f3","ios":"levelo://app?vid=8ba9156f-8a2c-4f74-877c-9b3f4dfbf4f3"},"vehicle_type_id":"4","last_reported":1706512032,"current_range_meters":28000,"station_id":"ce4bgth2rcd13ifvqch0","pricing_plan_id":"free"},{"bike_id":"5cfbbe76-9ff6-4072-aef3-9073f8131974","system_id":"levelo_inurba_marseille","lat":43.317075,"lon":5.377367,"is_reserved":false,"is_disabled":false,"rental_uris":{"android":"levelo://app?vid=5cfbbe76-9ff6-4072-aef3-9073f8131974","ios":"levelo://app?vid=5cfbbe76-9ff6-4072-aef3-9073f8131974"},"vehicle_type_id":"4","last_reported":1706512032,"current_range_meters":29600,"station_id":"ce4bgth2rcd13ifvqch0","pricing_plan_id":"free"},{"bike_id":"fecab2d6-e463-450a-af09-db022fb2f608","system_id":"levelo_inurba_marseille","lat":43.317075,"lon":5.377367,"is_reserved":false,"is_disabled":false,"rental_uris":{"android":"levelo://app?vid=fecab2d6-e463-450a-af09-db022fb2f608","ios":"levelo://app?vid=fecab2d6-e463-450a-af09-db022fb2f608"},"vehicle_type_id":"4","last_reported":1706512032,"current_range_meters":27600,"station_id":"ce4bgth2rcd13ifvqch0","pricing_plan_id":"free"},{"bike_id":"a73d90e2-d356-4f45-8c2c-c20caabab39d","system_id":"levelo_inurba_marseille","lat":43.317075,"lon":5.377367,"is_reserved":false,"is_disabled":false,"rental_uris":{"android":"levelo://app?vid=a73d90e2-d356-4f45-8c2c-c20caabab39d","ios":"levelo://app?vid=a73d90e2-d356-4f45-8c2c-c20caabab39d"},"vehicle_type_id":"4","last_reported":1706512032,"current_range_meters":31200,"station_id":"ce4bgth2rcd13ifvqch0","pricing_plan_id":"free"},{"bike_id":"ad69393e-5ad6-4891-afef-0bef48e2b239","system_id":"levelo_inurba_marseille","lat":43.303046,"lon":5.368981,"is_reserved":false,"is_disabled":false,"rental_uris":{"android":"levelo://app?vid=ad69393e-5ad6-4891-afef-0bef48e2b239","ios":"levelo://app?vid=ad69393e-5ad6-4891-afef-0bef48e2b239"},"vehicle_type_id":"4","last_reported":1706512032,"current_range_meters":29200,"station_id":"ce4bgqh2rcd13ifvqc5g","pricing_plan_id":"free"},{"bike_id":"6617cf7a-ab76-4fb4-ba60-7a1c6edbfca3","system_id":"levelo_inurba_marseille","lat":43.303046,"lon":5.368981,"is_reserved":false,"is_disabled":false,"rental_uris":{"android":"levelo://app?vid=6617cf7a-ab76-4fb4-ba60-7a1c6edbfca3","ios":"levelo://app?vid=6617cf7a-ab76-4fb4-ba60-7a1c6edbfca3"},"vehicle_type_id":"4","last_reported":1706512032,"current_range_meters":28800,"station_id":"ce4bgqh2rcd13ifvqc5g","pricing_plan_id":"free"},{"bike_id":"b2776e07-3d55-49f8-b8ba-65da3b1b9ed0","system_id":"levelo_inurba_marseille","lat":43.30304,"lon":5.368987,"is_reserved":false,"is_disabled":false,"rental_uris":{"android":"levelo://app?vid=b2776e07-3d55-49f8-b8ba-65da3b1b9ed0","ios":"levelo://app?vid=b2776e07-3d55-49f8-b8ba-65da3b1b9ed0"},"vehicle_type_id":"4","last_reported":1706512032,"current_range_meters":24000,"station_id":"ce4bgqh2rcd13ifvqc5g","pricing_plan_id":"free"},{"bike_id":"b83daeb9-a39c-4884-86e2-16a37c651f7f","system_id":"levelo_inurba_marseille","lat":43.319994,"lon":5.37628,"is_reserved":false,"is_disabled":false,"rental_uris":{"android":"levelo://app?vid=b83daeb9-a39c-4884-86e2-16a37c651f7f","ios":"levelo://app?vid=b83daeb9-a39c-4884-86e2-16a37c651f7f"},"vehicle_type_id":"4","last_reported":1706512032,"current_range_meters":2400,"station_id":"","pricing_plan_id":"free"},{"bike_id":"756cff0e-6121-4b00-a2dd-c5e2ac9055a8","system_id":"levelo_inurba_marseille","lat":43.315306,"lon":5.380242,"is_reserved":false,"is_disabled":false,"rental_uris":{"android":"levelo://app?vid=756cff0e-6121-4b00-a2dd-c5e2ac9055a8","ios":"levelo://app?vid=756cff0e-6121-4b00-a2dd-c5e2ac9055a8"},"vehicle_type_id":"4","last_reported":1706512032,"current_range_meters":0,"station_id":"ce4bhsp2rcd13ifvqi50","pricing_plan_id":"free"},{"bike_id":"dbbe92d2-890e-477b-b56f-772147ba4556","system_id":"levelo_inurba_marseille","lat":43.31533,"lon":5.38031,"is_reserved":false,"is_disabled":false,"rental_uris":{"android":"levelo://app?vid=dbbe92d2-890e-477b-b56f-772147ba4556","ios":"levelo://app?vid=dbbe92d2-890e-477b-b56f-772147ba4556"},"vehicle_type_id":"4","last_reported":1706512032,"current_range_meters":10000,"station_id":"ce4bhsp2rcd13ifvqi50","pricing_plan_id":"free"},{"bike_id":"8d33dfa5-b21c-4793-abd9-67d093c9b10e","system_id":"levelo_inurba_marseille","lat":43.315314,"lon":5.380339,"is_reserved":false,"is_disabled":false,"rental_uris":{"android":"levelo://app?vid=8d33dfa5-b21c-4793-abd9-67d093c9b10e","ios":"levelo://app?vid=8d33dfa5-b21c-4793-abd9-67d093c9b10e"},"vehicle_type_id":"4","last_reported":1706512032,"current_range_meters":10400,"station_id":"ce4bhsp2rcd13ifvqi50","pricing_plan_id":"free"},{"bike_id":"00cdb401-bab2-4bd1-b0b6-e5f6cfa01af6","system_id":"levelo_inurba_marseille","lat":43.315348,"lon":5.38039,"is_reserved":false,"is_disabled":false,"rental_uris":{"android":"levelo://app?vid=00cdb401-bab2-4bd1-b0b6-e5f6cfa01af6","ios":"levelo://app?vid=00cdb401-bab2-4bd1-b0b6-e5f6cfa01af6"},"vehicle_type_id":"4","last_reported":1706512032,"current_range_meters":3600,"station_id":"ce4bhsp2rcd13ifvqi50","pricing_plan_id":"free"},{"bike_id":"7332b66e-bd3a-49c3-a5da-70b53ddbde1d","system_id":"levelo_inurba_marseille","lat":43.308012,"lon":5.381511,"is_reserved":false,"is_disabled":false,"rental_uris":{"android":"levelo://app?vid=7332b66e-bd3a-49c3-a5da-70b53ddbde1d","ios":"levelo://app?vid=7332b66e-bd3a-49c3-a5da-70b53ddbde1d"},"vehicle_type_id":"4","last_reported":1706512032,"current_range_meters":22000,"station_id":"ce4bgt12rcd13ifvqce0","pricing_plan_id":"free"},{"bike_id":"1e86a286-95c5-4c04-ab4d-c42e64dc9e2f","system_id":"levelo_inurba_marseille","lat":43.304606,"lon":5.379026,"is_reserved":false,"is_disabled":false,"rental_uris":{"android":"levelo://app?vid=1e86a286-95c5-4c04-ab4d-c42e64dc9e2f","ios":"levelo://app?vid=1e86a286-95c5-4c04-ab4d-c42e64dc9e2f"},"vehicle_type_id":"4","last_reported":1706512032,"current_range_meters":4000,"station_id":"ce4bgup2rcd13ifvqcn0","pricing_plan_id":"free"},{"bike_id":"e0cb62fa-62d2-4fd9-ad88-99bc2fb2474e","system_id":"levelo_inurba_marseille","lat":43.30469,"lon":5.37896,"is_reserved":false,"is_disabled":false,"rental_uris":{"android":"levelo://app?vid=e0cb62fa-62d2-4fd9-ad88-99bc2fb2474e","ios":"levelo://app?vid=e0cb62fa-62d2-4fd9-ad88-99bc2fb2474e"},"vehicle_type_id":"4","last_reported":1706512032,"current_range_meters":12000,"station_id":"ce4bgup2rcd13ifvqcn0","pricing_plan_id":"free"},{"bike_id":"eb9395ea-0cfc-4087-a375-916c755232ff","system_id":"levelo_inurba_marseille","lat":43.304606,"lon":5.379026,"is_reserved":false,"is_disabled":false,"rental_uris":{"android":"levelo://app?vid=eb9395ea-0cfc-4087-a375-916c755232ff","ios":"levelo://app?vid=eb9395ea-0cfc-4087-a375-916c755232ff"},"vehicle_type_id":"4","last_reported":1706512032,"current_range_meters":15200,"station_id":"ce4bgup2rcd13ifvqcn0","pricing_plan_id":"free"},{"bike_id":"dd09cbc4-dbac-4f20-adf7-bbd8bbf3622e","system_id":"levelo_inurba_marseille","lat":43.304606,"lon":5.379026,"is_reserved":false,"is_disabled":false,"rental_uris":{"android":"levelo://app?vid=dd09cbc4-dbac-4f20-adf7-bbd8bbf3622e","ios":"levelo://app?vid=dd09cbc4-dbac-4f20-adf7-bbd8bbf3622e"},"vehicle_type_id":"4","last_reported":1706512032,"current_range_meters":12000,"station_id":"ce4bgup2rcd13ifvqcn0","pricing_plan_id":"free"},{"bike_id":"4ae4af21-238a-4106-8d0a-82b2ea6dd5c2","system_id":"levelo_inurba_marseille","lat":43.304606,"lon":5.379026,"is_reserved":false,"is_disabled":false,"rental_uris":{"android":"levelo://app?vid=4ae4af21-238a-4106-8d0a-82b2ea6dd5c2","ios":"levelo://app?vid=4ae4af21-238a-4106-8d0a-82b2ea6dd5c2"},"vehicle_type_id":"4","last_reported":1706512032,"current_range_meters":23200,"station_id":"ce4bgup2rcd13ifvqcn0","pricing_plan_id":"free"},{"bike_id":"0f59a75f-cb84-4186-ba3e-1e304a765cc9","system_id":"levelo_inurba_marseille","lat":43.30468,"lon":5.37899,"is_reserved":false,"is_disabled":false,"rental_uris":{"android":"levelo://app?vid=0f59a75f-cb84-4186-ba3e-1e304a765cc9","ios":"levelo://app?vid=0f59a75f-cb84-4186-ba3e-1e304a765cc9"},"vehicle_type_id":"4","last_reported":1706512032,"current_range_meters":0,"station_id":"ce4bgup2rcd13ifvqcn0","pricing_plan_id":"free"},{"bike_id":"08d9b502-4286-40e6-9d44-131ce61f63aa","system_id":"levelo_inurba_marseille","lat":43.304606,"lon":5.379026,"is_reserved":false,"is_disabled":false,"rental_uris":{"android":"levelo://app?vid=08d9b502-4286-40e6-9d44-131ce61f63aa","ios":"levelo://app?vid=08d9b502-4286-40e6-9d44-131ce61f63aa"},"vehicle_type_id":"4","last_reported":1706512032,"current_range_meters":28400,"station_id":"ce4bgup2rcd13ifvqcn0","pricing_plan_id":"free"},{"bike_id":"26f520ab-f990-4da3-80de-e05e89e25b33","system_id":"levelo_inurba_marseille","lat":43.304613,"lon":5.37894,"is_reserved":false,"is_disabled":false,"rental_uris":{"android":"levelo://app?vid=26f520ab-f990-4da3-80de-e05e89e25b33","ios":"levelo://app?vid=26f520ab-f990-4da3-80de-e05e89e25b33"},"vehicle_type_id":"4","last_reported":1706512032,"current_range_meters":15200,"station_id":"ce4bgup2rcd13ifvqcn0","pricing_plan_id":"free"},{"bike_id":"8b3a9bd8-4050-4148-a716-194cfd6fbb90","system_id":"levelo_inurba_marseille","lat":43.30466,"lon":5.37904,"is_reserved":false,"is_disabled":false,"rental_uris":{"android":"levelo://app?vid=8b3a9bd8-4050-4148-a716-194cfd6fbb90","ios":"levelo://app?vid=8b3a9bd8-4050-4148-a716-194cfd6fbb90"},"vehicle_type_id":"4","last_reported":1706512032,"current_range_meters":20800,"station_id":"ce4bgup2rcd13ifvqcn0","pricing_plan_id":"free"},{"bike_id":"9b89924c-12e1-4097-be27-ec0034c115b6","system_id":"levelo_inurba_marseille","lat":43.304606,"lon":5.379026,"is_reserved":false,"is_disabled":false,"rental_uris":{"android":"levelo://app?vid=9b89924c-12e1-4097-be27-ec0034c115b6","ios":"levelo://app?vid=9b89924c-12e1-4097-be27-ec0034c115b6"},"vehicle_type_id":"4","last_reported":1706512032,"current_range_meters":17200,"station_id":"ce4bgup2rcd13ifvqcn0","pricing_plan_id":"free"},{"bike_id":"2ca30689-d029-4ee8-8c74-8944adb9d8bb","system_id":"levelo_inurba_marseille","lat":43.304606,"lon":5.379026,"is_reserved":false,"is_disabled":false,"rental_uris":{"android":"levelo://app?vid=2ca30689-d029-4ee8-8c74-8944adb9d8bb","ios":"levelo://app?vid=2ca30689-d029-4ee8-8c74-8944adb9d8bb"},"vehicle_type_id":"4","last_reported":1706512032,"current_range_meters":22000,"station_id":"ce4bgup2rcd13ifvqcn0","pricing_plan_id":"free"},{"bike_id":"36212498-f4bd-405d-b3e4-7d9bc1cb1dae","system_id":"levelo_inurba_marseille","lat":43.30462,"lon":5.37905,"is_reserved":false,"is_disabled":false,"rental_uris":{"android":"levelo://app?vid=36212498-f4bd-405d-b3e4-7d9bc1cb1dae","ios":"levelo://app?vid=36212498-f4bd-405d-b3e4-7d9bc1cb1dae"},"vehicle_type_id":"4","last_reported":1706512032,"current_range_meters":24000,"station_id":"ce4bgup2rcd13ifvqcn0","pricing_plan_id":"free"},{"bike_id":"703cd21d-5caf-4ebc-a923-e5a65faec31d","system_id":"levelo_inurba_marseille","lat":43.304606,"lon":5.379026,"is_reserved":false,"is_disabled":false,"rental_uris":{"android":"levelo://app?vid=703cd21d-5caf-4ebc-a923-e5a65faec31d","ios":"levelo://app?vid=703cd21d-5caf-4ebc-a923-e5a65faec31d"},"vehicle_type_id":"4","last_reported":1706512032,"current_range_meters":24800,"station_id":"ce4bgup2rcd13ifvqcn0","pricing_plan_id":"free"},{"bike_id":"9bfefe7b-7eb8-44ef-ab5e-f7e3ca2a40ab","system_id":"levelo_inurba_marseille","lat":43.3046,"lon":5.37904,"is_reserved":false,"is_disabled":false,"rental_uris":{"android":"levelo://app?vid=9bfefe7b-7eb8-44ef-ab5e-f7e3ca2a40ab","ios":"levelo://app?vid=9bfefe7b-7eb8-44ef-ab5e-f7e3ca2a40ab"},"vehicle_type_id":"4","last_reported":1706512032,"current_range_meters":3200,"station_id":"ce4bgup2rcd13ifvqcn0","pricing_plan_id":"free"},{"bike_id":"5550eeae-cccc-4f66-81b0-fad970697963","system_id":"levelo_inurba_marseille","lat":43.304606,"lon":5.379026,"is_reserved":false,"is_disabled":false,"rental_uris":{"android":"levelo://app?vid=5550eeae-cccc-4f66-81b0-fad970697963","ios":"levelo://app?vid=5550eeae-cccc-4f66-81b0-fad970697963"},"vehicle_type_id":"4","last_reported":1706512032,"current_range_meters":21600,"station_id":"ce4bgup2rcd13ifvqcn0","pricing_plan_id":"free"},{"bike_id":"6c2b8dfd-edb6-4ff0-af60-12d10c590370","system_id":"levelo_inurba_marseille","lat":43.336134,"lon":5.410341,"is_reserved":false,"is_disabled":false,"rental_uris":{"android":"levelo://app?vid=6c2b8dfd-edb6-4ff0-af60-12d10c590370","ios":"levelo://app?vid=6c2b8dfd-edb6-4ff0-af60-12d10c590370"},"vehicle_type_id":"4","last_reported":1706512032,"current_range_meters":16000,"station_id":"ce4bhqh2rcd13ifvqhmg","pricing_plan_id":"free"},{"bike_id":"f0d766cd-1f2a-4929-aded-f31c02b7c532","system_id":"levelo_inurba_marseille","lat":43.304606,"lon":5.379026,"is_reserved":false,"is_disabled":false,"rental_uris":{"android":"levelo://app?vid=f0d766cd-1f2a-4929-aded-f31c02b7c532","ios":"levelo://app?vid=f0d766cd-1f2a-4929-aded-f31c02b7c532"},"vehicle_type_id":"4","last_reported":1706512032,"current_range_meters":17600,"station_id":"ce4bgup2rcd13ifvqcn0","pricing_plan_id":"free"},{"bike_id":"dc00bdf8-dc57-4b02-8d44-8ea4906debe3","system_id":"levelo_inurba_marseille","lat":43.324771,"lon":5.36557,"is_reserved":false,"is_disabled":false,"rental_uris":{"android":"levelo://app?vid=dc00bdf8-dc57-4b02-8d44-8ea4906debe3","ios":"levelo://app?vid=dc00bdf8-dc57-4b02-8d44-8ea4906debe3"},"vehicle_type_id":"4","last_reported":1706512032,"current_range_meters":14400,"station_id":"ce4bhs12rcd13ifvqhvg","pricing_plan_id":"free"},{"bike_id":"fdd76884-9fbf-4390-b11e-2632bad4b4af","system_id":"levelo_inurba_marseille","lat":43.324795,"lon":5.3656,"is_reserved":false,"is_disabled":false,"rental_uris":{"android":"levelo://app?vid=fdd76884-9fbf-4390-b11e-2632bad4b4af","ios":"levelo://app?vid=fdd76884-9fbf-4390-b11e-2632bad4b4af"},"vehicle_type_id":"4","last_reported":1706512032,"current_range_meters":16800,"station_id":"ce4bhs12rcd13ifvqhvg","pricing_plan_id":"free"},{"bike_id":"4c1d912b-8425-4b28-bcd4-0691a1724560","system_id":"levelo_inurba_marseille","lat":43.32484,"lon":5.36576,"is_reserved":false,"is_disabled":false,"rental_uris":{"android":"levelo://app?vid=4c1d912b-8425-4b28-bcd4-0691a1724560","ios":"levelo://app?vid=4c1d912b-8425-4b28-bcd4-0691a1724560"},"vehicle_type_id":"4","last_reported":1706512032,"current_range_meters":30000,"station_id":"ce4bhs12rcd13ifvqhvg","pricing_plan_id":"free"},{"bike_id":"29c66d49-19f6-4ddb-8b89-4c6a30dc6570","system_id":"levelo_inurba_marseille","lat":43.324771,"lon":5.36557,"is_reserved":false,"is_disabled":false,"rental_uris":{"android":"levelo://app?vid=29c66d49-19f6-4ddb-8b89-4c6a30dc6570","ios":"levelo://app?vid=29c66d49-19f6-4ddb-8b89-4c6a30dc6570"},"vehicle_type_id":"4","last_reported":1706512032,"current_range_meters":26400,"station_id":"ce4bhs12rcd13ifvqhvg","pricing_plan_id":"free"},{"bike_id":"4c4b8ab9-5ef1-420c-9390-c3e236e87d90","system_id":"levelo_inurba_marseille","lat":43.324771,"lon":5.36557,"is_reserved":false,"is_disabled":false,"rental_uris":{"android":"levelo://app?vid=4c4b8ab9-5ef1-420c-9390-c3e236e87d90","ios":"levelo://app?vid=4c4b8ab9-5ef1-420c-9390-c3e236e87d90"},"vehicle_type_id":"4","last_reported":1706512032,"current_range_meters":2800,"station_id":"ce4bhs12rcd13ifvqhvg","pricing_plan_id":"free"},{"bike_id":"883a1f02-a7bb-4905-a80b-75527bc4c9b2","system_id":"levelo_inurba_marseille","lat":43.30272,"lon":5.37719,"is_reserved":false,"is_disabled":false,"rental_uris":{"android":"levelo://app?vid=883a1f02-a7bb-4905-a80b-75527bc4c9b2","ios":"levelo://app?vid=883a1f02-a7bb-4905-a80b-75527bc4c9b2"},"vehicle_type_id":"4","last_reported":1706512032,"current_range_meters":19600,"station_id":"ce4bguh2rcd13ifvqcj0","pricing_plan_id":"free"},{"bike_id":"3edd02e3-2267-4feb-a083-ac1359224974","system_id":"levelo_inurba_marseille","lat":43.301429,"lon":5.37413,"is_reserved":false,"is_disabled":false,"rental_uris":{"android":"levelo://app?vid=3edd02e3-2267-4feb-a083-ac1359224974","ios":"levelo://app?vid=3edd02e3-2267-4feb-a083-ac1359224974"},"vehicle_type_id":"4","last_reported":1706512032,"current_range_meters":19200,"station_id":"ce4bgs92rcd13ifvqcc0","pricing_plan_id":"free"},{"bike_id":"4e8e7e9f-0e12-415e-9f8a-232c8717aa9d","system_id":"levelo_inurba_marseille","lat":43.32001,"lon":5.38149,"is_reserved":false,"is_disabled":false,"rental_uris":{"android":"levelo://app?vid=4e8e7e9f-0e12-415e-9f8a-232c8717aa9d","ios":"levelo://app?vid=4e8e7e9f-0e12-415e-9f8a-232c8717aa9d"},"vehicle_type_id":"4","last_reported":1706512032,"current_range_meters":19200,"station_id":"ce4bhr12rcd13ifvqhpg","pricing_plan_id":"free"},{"bike_id":"a281e1a5-5d82-4073-b40a-c01a79b602d0","system_id":"levelo_inurba_marseille","lat":43.313571,"lon":5.384829,"is_reserved":false,"is_disabled":false,"rental_uris":{"android":"levelo://app?vid=a281e1a5-5d82-4073-b40a-c01a79b602d0","ios":"levelo://app?vid=a281e1a5-5d82-4073-b40a-c01a79b602d0"},"vehicle_type_id":"4","last_reported":1706512032,"current_range_meters":30800,"station_id":"ce4bgt92rcd13ifvqcf0","pricing_plan_id":"free"},{"bike_id":"9d49521a-fc20-44dd-aad1-ddca3f1bceee","system_id":"levelo_inurba_marseille","lat":43.313571,"lon":5.384829,"is_reserved":false,"is_disabled":false,"rental_uris":{"android":"levelo://app?vid=9d49521a-fc20-44dd-aad1-ddca3f1bceee","ios":"levelo://app?vid=9d49521a-fc20-44dd-aad1-ddca3f1bceee"},"vehicle_type_id":"4","last_reported":1706512032,"current_range_meters":9200,"station_id":"ce4bgt92rcd13ifvqcf0","pricing_plan_id":"free"},{"bike_id":"aeb569eb-9003-46ad-b80d-259362cf5d33","system_id":"levelo_inurba_marseille","lat":43.313654,"lon":5.384956,"is_reserved":false,"is_disabled":false,"rental_uris":{"android":"levelo://app?vid=aeb569eb-9003-46ad-b80d-259362cf5d33","ios":"levelo://app?vid=aeb569eb-9003-46ad-b80d-259362cf5d33"},"vehicle_type_id":"4","last_reported":1706512032,"current_range_meters":0,"station_id":"ce4bgt92rcd13ifvqcf0","pricing_plan_id":"free"},{"bike_id":"3ef7076f-d955-46fc-86b7-7e671ca7e020","system_id":"levelo_inurba_marseille","lat":43.299222,"lon":5.365554,"is_reserved":false,"is_disabled":false,"rental_uris":{"android":"levelo://app?vid=3ef7076f-d955-46fc-86b7-7e671ca7e020","ios":"levelo://app?vid=3ef7076f-d955-46fc-86b7-7e671ca7e020"},"vehicle_type_id":"4","last_reported":1706512032,"current_range_meters":26400,"station_id":"ce4bgm92rcd13ifvqbr0","pricing_plan_id":"free"},{"bike_id":"1c262f4d-18c9-4a50-b081-ed6ae7df66d3","system_id":"levelo_inurba_marseille","lat":43.305364,"lon":5.384119,"is_reserved":false,"is_disabled":false,"rental_uris":{"android":"levelo://app?vid=1c262f4d-18c9-4a50-b081-ed6ae7df66d3","ios":"levelo://app?vid=1c262f4d-18c9-4a50-b081-ed6ae7df66d3"},"vehicle_type_id":"4","last_reported":1706512032,"current_range_meters":0,"station_id":"ce4bgg92rcd13ifvqb30","pricing_plan_id":"free"},{"bike_id":"18789259-e4aa-4daa-b42c-ef44c9e3f066","system_id":"levelo_inurba_marseille","lat":43.305364,"lon":5.384119,"is_reserved":false,"is_disabled":false,"rental_uris":{"android":"levelo://app?vid=18789259-e4aa-4daa-b42c-ef44c9e3f066","ios":"levelo://app?vid=18789259-e4aa-4daa-b42c-ef44c9e3f066"},"vehicle_type_id":"4","last_reported":1706512032,"current_range_meters":21600,"station_id":"ce4bgg92rcd13ifvqb30","pricing_plan_id":"free"},{"bike_id":"d24e151a-5142-4f41-83c9-4071fa49bb55","system_id":"levelo_inurba_marseille","lat":43.298433,"lon":5.362774,"is_reserved":false,"is_disabled":false,"rental_uris":{"android":"levelo://app?vid=d24e151a-5142-4f41-83c9-4071fa49bb55","ios":"levelo://app?vid=d24e151a-5142-4f41-83c9-4071fa49bb55"},"vehicle_type_id":"4","last_reported":1706512032,"current_range_meters":26000,"station_id":"ce4bgpp2rcd13ifvqc3g","pricing_plan_id":"free"},{"bike_id":"ef052ffe-e968-4eb8-b923-680910b4c6c0","system_id":"levelo_inurba_marseille","lat":43.322872,"lon":5.382756,"is_reserved":false,"is_disabled":false,"rental_uris":{"android":"levelo://app?vid=ef052ffe-e968-4eb8-b923-680910b4c6c0","ios":"levelo://app?vid=ef052ffe-e968-4eb8-b923-680910b4c6c0"},"vehicle_type_id":"4","last_reported":1706512032,"current_range_meters":24000,"station_id":"ce4bhr12rcd13ifvqhqg","pricing_plan_id":"free"},{"bike_id":"e1539f0d-02e3-46ca-8fd2-b115fd55a782","system_id":"levelo_inurba_marseille","lat":43.322872,"lon":5.382756,"is_reserved":false,"is_disabled":false,"rental_uris":{"android":"levelo://app?vid=e1539f0d-02e3-46ca-8fd2-b115fd55a782","ios":"levelo://app?vid=e1539f0d-02e3-46ca-8fd2-b115fd55a782"},"vehicle_type_id":"4","last_reported":1706512032,"current_range_meters":21200,"station_id":"ce4bhr12rcd13ifvqhqg","pricing_plan_id":"free"},{"bike_id":"1aba9720-356a-4d23-9769-14be9a649103","system_id":"levelo_inurba_marseille","lat":43.297794,"lon":5.370888,"is_reserved":false,"is_disabled":false,"rental_uris":{"android":"levelo://app?vid=1aba9720-356a-4d23-9769-14be9a649103","ios":"levelo://app?vid=1aba9720-356a-4d23-9769-14be9a649103"},"vehicle_type_id":"4","last_reported":1706512032,"current_range_meters":24400,"station_id":"ce4bgop2rcd13ifvqc1g","pricing_plan_id":"free"},{"bike_id":"da669c02-ed5d-4764-a763-a0425441c3dd","system_id":"levelo_inurba_marseille","lat":43.328371,"lon":5.366909,"is_reserved":false,"is_disabled":false,"rental_uris":{"android":"levelo://app?vid=da669c02-ed5d-4764-a763-a0425441c3dd","ios":"levelo://app?vid=da669c02-ed5d-4764-a763-a0425441c3dd"},"vehicle_type_id":"4","last_reported":1706512032,"current_range_meters":23600,"station_id":"ce4bhs92rcd13ifvqi0g","pricing_plan_id":"free"},{"bike_id":"1c9d37d0-9c22-419e-afa7-1697cb75aab3","system_id":"levelo_inurba_marseille","lat":43.328371,"lon":5.366909,"is_reserved":false,"is_disabled":false,"rental_uris":{"android":"levelo://app?vid=1c9d37d0-9c22-419e-afa7-1697cb75aab3","ios":"levelo://app?vid=1c9d37d0-9c22-419e-afa7-1697cb75aab3"},"vehicle_type_id":"4","last_reported":1706512032,"current_range_meters":19600,"station_id":"ce4bhs92rcd13ifvqi0g","pricing_plan_id":"free"},{"bike_id":"01cd516a-a9ca-47d4-8a25-b0025d63cab9","system_id":"levelo_inurba_marseille","lat":43.32831,"lon":5.36676,"is_reserved":false,"is_disabled":false,"rental_uris":{"android":"levelo://app?vid=01cd516a-a9ca-47d4-8a25-b0025d63cab9","ios":"levelo://app?vid=01cd516a-a9ca-47d4-8a25-b0025d63cab9"},"vehicle_type_id":"4","last_reported":1706512032,"current_range_meters":28800,"station_id":"ce4bhs92rcd13ifvqi0g","pricing_plan_id":"free"},{"bike_id":"12d7300c-7281-4d65-b928-1f4a31310a0c","system_id":"levelo_inurba_marseille","lat":43.328371,"lon":5.366909,"is_reserved":false,"is_disabled":false,"rental_uris":{"android":"levelo://app?vid=12d7300c-7281-4d65-b928-1f4a31310a0c","ios":"levelo://app?vid=12d7300c-7281-4d65-b928-1f4a31310a0c"},"vehicle_type_id":"4","last_reported":1706512032,"current_range_meters":22400,"station_id":"ce4bhs92rcd13ifvqi0g","pricing_plan_id":"free"},{"bike_id":"65803912-b5ee-4b8d-a792-03491ada0ac5","system_id":"levelo_inurba_marseille","lat":43.2968,"lon":5.37291,"is_reserved":false,"is_disabled":false,"rental_uris":{"android":"levelo://app?vid=65803912-b5ee-4b8d-a792-03491ada0ac5","ios":"levelo://app?vid=65803912-b5ee-4b8d-a792-03491ada0ac5"},"vehicle_type_id":"4","last_reported":1706512032,"current_range_meters":28000,"station_id":"ce4bgk12rcd13ifvqbj0","pricing_plan_id":"free"},{"bike_id":"fb14876d-eb50-453e-9f4a-ff264ef21302","system_id":"levelo_inurba_marseille","lat":43.295897,"lon":5.367427,"is_reserved":false,"is_disabled":false,"rental_uris":{"android":"levelo://app?vid=fb14876d-eb50-453e-9f4a-ff264ef21302","ios":"levelo://app?vid=fb14876d-eb50-453e-9f4a-ff264ef21302"},"vehicle_type_id":"4","last_reported":1706512032,"current_range_meters":21200,"station_id":"ce4bgph2rcd13ifvqc2g","pricing_plan_id":"free"},{"bike_id":"726652be-ade4-44d0-96ae-c63416a0b9f3","system_id":"levelo_inurba_marseille","lat":43.296921,"lon":5.376579,"is_reserved":false,"is_disabled":false,"rental_uris":{"android":"levelo://app?vid=726652be-ade4-44d0-96ae-c63416a0b9f3","ios":"levelo://app?vid=726652be-ade4-44d0-96ae-c63416a0b9f3"},"vehicle_type_id":"4","last_reported":1706512032,"current_range_meters":31200,"station_id":"ce4bgkh2rcd13ifvqbl0","pricing_plan_id":"free"},{"bike_id":"71a32b9a-263f-4c68-b3db-be0d6ba7264a","system_id":"levelo_inurba_marseille","lat":43.317557,"lon":5.390173,"is_reserved":false,"is_disabled":false,"rental_uris":{"android":"levelo://app?vid=71a32b9a-263f-4c68-b3db-be0d6ba7264a","ios":"levelo://app?vid=71a32b9a-263f-4c68-b3db-be0d6ba7264a"},"vehicle_type_id":"4","last_reported":1706512032,"current_range_meters":23200,"station_id":"ce4bhqp2rcd13ifvqhng","pricing_plan_id":"free"},{"bike_id":"0be59572-c253-427d-86a5-dbd1868b3586","system_id":"levelo_inurba_marseille","lat":43.298037,"lon":5.381066,"is_reserved":false,"is_disabled":false,"rental_uris":{"android":"levelo://app?vid=0be59572-c253-427d-86a5-dbd1868b3586","ios":"levelo://app?vid=0be59572-c253-427d-86a5-dbd1868b3586"},"vehicle_type_id":"4","last_reported":1706512032,"current_range_meters":24400,"station_id":"ce4bgip2rcd13ifvqbb0","pricing_plan_id":"free"},{"bike_id":"6fdd3ade-fd2e-4d9d-bbc9-7f24914780a7","system_id":"levelo_inurba_marseille","lat":43.304274,"lon":5.388873,"is_reserved":false,"is_disabled":false,"rental_uris":{"android":"levelo://app?vid=6fdd3ade-fd2e-4d9d-bbc9-7f24914780a7","ios":"levelo://app?vid=6fdd3ade-fd2e-4d9d-bbc9-7f24914780a7"},"vehicle_type_id":"4","last_reported":1706512032,"current_range_meters":14000,"station_id":"ce4bgk12rcd13ifvqbi0","pricing_plan_id":"free"},{"bike_id":"f37fbac7-2160-4cd9-9d88-13157e8247b4","system_id":"levelo_inurba_marseille","lat":43.295748,"lon":5.37522,"is_reserved":false,"is_disabled":false,"rental_uris":{"android":"levelo://app?vid=f37fbac7-2160-4cd9-9d88-13157e8247b4","ios":"levelo://app?vid=f37fbac7-2160-4cd9-9d88-13157e8247b4"},"vehicle_type_id":"4","last_reported":1706512032,"current_range_meters":4800,"station_id":"ce4bgh92rcd13ifvqb50","pricing_plan_id":"free"},{"bike_id":"c04118a7-7425-4931-b73a-eb75fc59dd2e","system_id":"levelo_inurba_marseille","lat":43.304274,"lon":5.388873,"is_reserved":false,"is_disabled":false,"rental_uris":{"android":"levelo://app?vid=c04118a7-7425-4931-b73a-eb75fc59dd2e","ios":"levelo://app?vid=c04118a7-7425-4931-b73a-eb75fc59dd2e"},"vehicle_type_id":"4","last_reported":1706512032,"current_range_meters":23200,"station_id":"ce4bgk12rcd13ifvqbi0","pricing_plan_id":"free"},{"bike_id":"da902f5b-0720-489d-a65d-ba3e1c036591","system_id":"levelo_inurba_marseille","lat":43.295748,"lon":5.37522,"is_reserved":false,"is_disabled":false,"rental_uris":{"android":"levelo://app?vid=da902f5b-0720-489d-a65d-ba3e1c036591","ios":"levelo://app?vid=da902f5b-0720-489d-a65d-ba3e1c036591"},"vehicle_type_id":"4","last_reported":1706512032,"current_range_meters":4400,"station_id":"ce4bgh92rcd13ifvqb50","pricing_plan_id":"free"},{"bike_id":"17a57f3b-76de-49fe-919c-b56c481d9ab8","system_id":"levelo_inurba_marseille","lat":43.296277,"lon":5.377108,"is_reserved":false,"is_disabled":false,"rental_uris":{"android":"levelo://app?vid=17a57f3b-76de-49fe-919c-b56c481d9ab8","ios":"levelo://app?vid=17a57f3b-76de-49fe-919c-b56c481d9ab8"},"vehicle_type_id":"4","last_reported":1706512032,"current_range_meters":26800,"station_id":"ce4bgi92rcd13ifvqb90","pricing_plan_id":"free"},{"bike_id":"0171df7e-434f-450a-8b5d-ba9c50616875","system_id":"levelo_inurba_marseille","lat":43.29533,"lon":5.375,"is_reserved":false,"is_disabled":false,"rental_uris":{"android":"levelo://app?vid=0171df7e-434f-450a-8b5d-ba9c50616875","ios":"levelo://app?vid=0171df7e-434f-450a-8b5d-ba9c50616875"},"vehicle_type_id":"4","last_reported":1706512032,"current_range_meters":20000,"station_id":"ce4bgkp2rcd13ifvqbmg","pricing_plan_id":"free"},{"bike_id":"3e2c1116-8ab8-403d-a20b-314dfd32adbf","system_id":"levelo_inurba_marseille","lat":43.299717,"lon":5.384845,"is_reserved":false,"is_disabled":false,"rental_uris":{"android":"levelo://app?vid=3e2c1116-8ab8-403d-a20b-314dfd32adbf","ios":"levelo://app?vid=3e2c1116-8ab8-403d-a20b-314dfd32adbf"},"vehicle_type_id":"4","last_reported":1706512032,"current_range_meters":15600,"station_id":"ce4bgj92rcd13ifvqbd0","pricing_plan_id":"free"},{"bike_id":"6d185b97-1e07-424c-b117-7f3f975908c4","system_id":"levelo_inurba_marseille","lat":43.32367,"lon":5.388836,"is_reserved":false,"is_disabled":false,"rental_uris":{"android":"levelo://app?vid=6d185b97-1e07-424c-b117-7f3f975908c4","ios":"levelo://app?vid=6d185b97-1e07-424c-b117-7f3f975908c4"},"vehicle_type_id":"4","last_reported":1706512032,"current_range_meters":21600,"station_id":"ce4bhqp2rcd13ifvqhog","pricing_plan_id":"free"},{"bike_id":"d68e21e0-f101-4fe4-adad-3edc99116a12","system_id":"levelo_inurba_marseille","lat":43.32367,"lon":5.388836,"is_reserved":false,"is_disabled":false,"rental_uris":{"android":"levelo://app?vid=d68e21e0-f101-4fe4-adad-3edc99116a12","ios":"levelo://app?vid=d68e21e0-f101-4fe4-adad-3edc99116a12"},"vehicle_type_id":"4","last_reported":1706512032,"current_range_meters":16000,"station_id":"ce4bhqp2rcd13ifvqhog","pricing_plan_id":"free"},{"bike_id":"521513b5-ce9a-48ab-8990-ed8ed7a741d0","system_id":"levelo_inurba_marseille","lat":43.32367,"lon":5.388836,"is_reserved":false,"is_disabled":false,"rental_uris":{"android":"levelo://app?vid=521513b5-ce9a-48ab-8990-ed8ed7a741d0","ios":"levelo://app?vid=521513b5-ce9a-48ab-8990-ed8ed7a741d0"},"vehicle_type_id":"4","last_reported":1706512032,"current_range_meters":21600,"station_id":"ce4bhqp2rcd13ifvqhog","pricing_plan_id":"free"},{"bike_id":"bf2c23c9-0ccd-4f00-b3c9-7ff0a3cbe722","system_id":"levelo_inurba_marseille","lat":43.29602,"lon":5.381084,"is_reserved":false,"is_disabled":false,"rental_uris":{"android":"levelo://app?vid=bf2c23c9-0ccd-4f00-b3c9-7ff0a3cbe722","ios":"levelo://app?vid=bf2c23c9-0ccd-4f00-b3c9-7ff0a3cbe722"},"vehicle_type_id":"4","last_reported":1706512032,"current_range_meters":20800,"station_id":"ce4bgl12rcd13ifvqbo0","pricing_plan_id":"free"},{"bike_id":"792b8dfe-9536-45a8-a7b5-53be82283631","system_id":"levelo_inurba_marseille","lat":43.292749,"lon":5.368402,"is_reserved":false,"is_disabled":false,"rental_uris":{"android":"levelo://app?vid=792b8dfe-9536-45a8-a7b5-53be82283631","ios":"levelo://app?vid=792b8dfe-9536-45a8-a7b5-53be82283631"},"vehicle_type_id":"4","last_reported":1706512032,"current_range_meters":26000,"station_id":"ce4bhbp2rcd13ifvqesg","pricing_plan_id":"free"},{"bike_id":"35ed0539-3f3b-421c-976b-78d7a5c63917","system_id":"levelo_inurba_marseille","lat":43.292716,"lon":5.368361,"is_reserved":false,"is_disabled":false,"rental_uris":{"android":"levelo://app?vid=35ed0539-3f3b-421c-976b-78d7a5c63917","ios":"levelo://app?vid=35ed0539-3f3b-421c-976b-78d7a5c63917"},"vehicle_type_id":"4","last_reported":1706512032,"current_range_meters":25600,"station_id":"ce4bhbp2rcd13ifvqesg","pricing_plan_id":"free"},{"bike_id":"447ee258-03f6-4919-ab96-89e6c0b5d9b7","system_id":"levelo_inurba_marseille","lat":43.293009,"lon":5.374584,"is_reserved":false,"is_disabled":false,"rental_uris":{"android":"levelo://app?vid=447ee258-03f6-4919-ab96-89e6c0b5d9b7","ios":"levelo://app?vid=447ee258-03f6-4919-ab96-89e6c0b5d9b7"},"vehicle_type_id":"4","last_reported":1706512032,"current_range_meters":9600,"station_id":"ce4bgi12rcd13ifvqb70","pricing_plan_id":"free"},{"bike_id":"73f604e0-d989-4a37-b925-330afe8b6bcf","system_id":"levelo_inurba_marseille","lat":43.293009,"lon":5.374584,"is_reserved":false,"is_disabled":false,"rental_uris":{"android":"levelo://app?vid=73f604e0-d989-4a37-b925-330afe8b6bcf","ios":"levelo://app?vid=73f604e0-d989-4a37-b925-330afe8b6bcf"},"vehicle_type_id":"4","last_reported":1706512032,"current_range_meters":18400,"station_id":"ce4bgi12rcd13ifvqb70","pricing_plan_id":"free"},{"bike_id":"7c893234-c4c7-42fe-bd81-220e68d5e021","system_id":"levelo_inurba_marseille","lat":43.29372,"lon":5.37835,"is_reserved":false,"is_disabled":false,"rental_uris":{"android":"levelo://app?vid=7c893234-c4c7-42fe-bd81-220e68d5e021","ios":"levelo://app?vid=7c893234-c4c7-42fe-bd81-220e68d5e021"},"vehicle_type_id":"4","last_reported":1706512032,"current_range_meters":5200,"station_id":"ce4bgjh2rcd13ifvqbf0","pricing_plan_id":"free"},{"bike_id":"5f9a866f-fd9b-47b2-9ed5-767fddea305d","system_id":"levelo_inurba_marseille","lat":43.2936,"lon":5.37835,"is_reserved":false,"is_disabled":false,"rental_uris":{"android":"levelo://app?vid=5f9a866f-fd9b-47b2-9ed5-767fddea305d","ios":"levelo://app?vid=5f9a866f-fd9b-47b2-9ed5-767fddea305d"},"vehicle_type_id":"4","last_reported":1706512032,"current_range_meters":5200,"station_id":"ce4bgjh2rcd13ifvqbf0","pricing_plan_id":"free"},{"bike_id":"7b0dcb6d-3920-4a49-9619-a4de95621f90","system_id":"levelo_inurba_marseille","lat":43.2936,"lon":5.37835,"is_reserved":false,"is_disabled":false,"rental_uris":{"android":"levelo://app?vid=7b0dcb6d-3920-4a49-9619-a4de95621f90","ios":"levelo://app?vid=7b0dcb6d-3920-4a49-9619-a4de95621f90"},"vehicle_type_id":"4","last_reported":1706512032,"current_range_meters":26400,"station_id":"ce4bgjh2rcd13ifvqbf0","pricing_plan_id":"free"},{"bike_id":"eace8d53-c32c-415e-9eb1-9ac2e6e60a59","system_id":"levelo_inurba_marseille","lat":43.291675,"lon":5.371583,"is_reserved":false,"is_disabled":false,"rental_uris":{"android":"levelo://app?vid=eace8d53-c32c-415e-9eb1-9ac2e6e60a59","ios":"levelo://app?vid=eace8d53-c32c-415e-9eb1-9ac2e6e60a59"},"vehicle_type_id":"4","last_reported":1706512032,"current_range_meters":17600,"station_id":"ce4bha92rcd13ifvqeh0","pricing_plan_id":"free"},{"bike_id":"a33e974d-dfca-4bba-9445-b600eb319e88","system_id":"levelo_inurba_marseille","lat":43.291675,"lon":5.371583,"is_reserved":false,"is_disabled":false,"rental_uris":{"android":"levelo://app?vid=a33e974d-dfca-4bba-9445-b600eb319e88","ios":"levelo://app?vid=a33e974d-dfca-4bba-9445-b600eb319e88"},"vehicle_type_id":"4","last_reported":1706512032,"current_range_meters":28400,"station_id":"ce4bha92rcd13ifvqeh0","pricing_plan_id":"free"},{"bike_id":"ff81d55c-cfd2-437e-a34c-6c5ef508e161","system_id":"levelo_inurba_marseille","lat":43.291671,"lon":5.371575,"is_reserved":false,"is_disabled":false,"rental_uris":{"android":"levelo://app?vid=ff81d55c-cfd2-437e-a34c-6c5ef508e161","ios":"levelo://app?vid=ff81d55c-cfd2-437e-a34c-6c5ef508e161"},"vehicle_type_id":"4","last_reported":1706512032,"current_range_meters":16000,"station_id":"ce4bha92rcd13ifvqeh0","pricing_plan_id":"free"},{"bike_id":"99438cf0-206e-4183-9062-e79ea1e31eca","system_id":"levelo_inurba_marseille","lat":43.305994,"lon":5.393687,"is_reserved":false,"is_disabled":false,"rental_uris":{"android":"levelo://app?vid=99438cf0-206e-4183-9062-e79ea1e31eca","ios":"levelo://app?vid=99438cf0-206e-4183-9062-e79ea1e31eca"},"vehicle_type_id":"4","last_reported":1706512032,"current_range_meters":31600,"station_id":"ce4bh0p2rcd13ifvqd80","pricing_plan_id":"free"},{"bike_id":"7917b353-8aef-404b-9001-18c94c868c89","system_id":"levelo_inurba_marseille","lat":43.290606,"lon":5.371532,"is_reserved":false,"is_disabled":false,"rental_uris":{"android":"levelo://app?vid=7917b353-8aef-404b-9001-18c94c868c89","ios":"levelo://app?vid=7917b353-8aef-404b-9001-18c94c868c89"},"vehicle_type_id":"4","last_reported":1706512032,"current_range_meters":26800,"station_id":"ce4bh5p2rcd13ifvqe4g","pricing_plan_id":"free"},{"bike_id":"c4822d3a-0209-4b22-8b34-efebf94ebece","system_id":"levelo_inurba_marseille","lat":43.302008,"lon":5.394694,"is_reserved":false,"is_disabled":false,"rental_uris":{"android":"levelo://app?vid=c4822d3a-0209-4b22-8b34-efebf94ebece","ios":"levelo://app?vid=c4822d3a-0209-4b22-8b34-efebf94ebece"},"vehicle_type_id":"4","last_reported":1706512032,"current_range_meters":22000,"station_id":"ce4bh0p2rcd13ifvqd70","pricing_plan_id":"free"},{"bike_id":"0084c07b-b2a8-4199-a8de-ade810962219","system_id":"levelo_inurba_marseille","lat":43.289468,"lon":5.363719,"is_reserved":false,"is_disabled":false,"rental_uris":{"android":"levelo://app?vid=0084c07b-b2a8-4199-a8de-ade810962219","ios":"levelo://app?vid=0084c07b-b2a8-4199-a8de-ade810962219"},"vehicle_type_id":"4","last_reported":1706512032,"current_range_meters":24800,"station_id":"ce4bhc92rcd13ifvqetg","pricing_plan_id":"free"},{"bike_id":"a93d4403-2cd0-47f7-af07-a7b8292fea05","system_id":"levelo_inurba_marseille","lat":43.289184,"lon":5.366408,"is_reserved":false,"is_disabled":false,"rental_uris":{"android":"levelo://app?vid=a93d4403-2cd0-47f7-af07-a7b8292fea05","ios":"levelo://app?vid=a93d4403-2cd0-47f7-af07-a7b8292fea05"},"vehicle_type_id":"4","last_reported":1706512032,"current_range_meters":25600,"station_id":"ce4bhap2rcd13ifvqek0","pricing_plan_id":"free"},{"bike_id":"8f955a1c-39a0-4520-b9d4-185f0850491e","system_id":"levelo_inurba_marseille","lat":43.289184,"lon":5.366408,"is_reserved":false,"is_disabled":false,"rental_uris":{"android":"levelo://app?vid=8f955a1c-39a0-4520-b9d4-185f0850491e","ios":"levelo://app?vid=8f955a1c-39a0-4520-b9d4-185f0850491e"},"vehicle_type_id":"4","last_reported":1706512032,"current_range_meters":10800,"station_id":"ce4bhap2rcd13ifvqek0","pricing_plan_id":"free"},{"bike_id":"8bbf4791-050b-4d00-a856-971b3daec580","system_id":"levelo_inurba_marseille","lat":43.289184,"lon":5.366408,"is_reserved":false,"is_disabled":false,"rental_uris":{"android":"levelo://app?vid=8bbf4791-050b-4d00-a856-971b3daec580","ios":"levelo://app?vid=8bbf4791-050b-4d00-a856-971b3daec580"},"vehicle_type_id":"4","last_reported":1706512032,"current_range_meters":17600,"station_id":"ce4bhap2rcd13ifvqek0","pricing_plan_id":"free"},{"bike_id":"48e9b1a9-438e-477d-b010-71209882d689","system_id":"levelo_inurba_marseille","lat":43.289468,"lon":5.363719,"is_reserved":false,"is_disabled":false,"rental_uris":{"android":"levelo://app?vid=48e9b1a9-438e-477d-b010-71209882d689","ios":"levelo://app?vid=48e9b1a9-438e-477d-b010-71209882d689"},"vehicle_type_id":"4","last_reported":1706512032,"current_range_meters":4800,"station_id":"ce4bhc92rcd13ifvqetg","pricing_plan_id":"free"},{"bike_id":"dd4c056d-bd28-40e0-ba4a-2e5bca3de10e","system_id":"levelo_inurba_marseille","lat":43.289184,"lon":5.366408,"is_reserved":false,"is_disabled":false,"rental_uris":{"android":"levelo://app?vid=dd4c056d-bd28-40e0-ba4a-2e5bca3de10e","ios":"levelo://app?vid=dd4c056d-bd28-40e0-ba4a-2e5bca3de10e"},"vehicle_type_id":"4","last_reported":1706512032,"current_range_meters":15200,"station_id":"ce4bhap2rcd13ifvqek0","pricing_plan_id":"free"},{"bike_id":"cf78b40f-047c-479f-9003-4e46d3b55dde","system_id":"levelo_inurba_marseille","lat":43.289184,"lon":5.366408,"is_reserved":false,"is_disabled":false,"rental_uris":{"android":"levelo://app?vid=cf78b40f-047c-479f-9003-4e46d3b55dde","ios":"levelo://app?vid=cf78b40f-047c-479f-9003-4e46d3b55dde"},"vehicle_type_id":"4","last_reported":1706512032,"current_range_meters":24800,"station_id":"ce4bhap2rcd13ifvqek0","pricing_plan_id":"free"},{"bike_id":"8d1e8680-1ad1-487e-8997-9e0a0739a6cd","system_id":"levelo_inurba_marseille","lat":43.289184,"lon":5.366408,"is_reserved":false,"is_disabled":false,"rental_uris":{"android":"levelo://app?vid=8d1e8680-1ad1-487e-8997-9e0a0739a6cd","ios":"levelo://app?vid=8d1e8680-1ad1-487e-8997-9e0a0739a6cd"},"vehicle_type_id":"4","last_reported":1706512032,"current_range_meters":19200,"station_id":"ce4bhap2rcd13ifvqek0","pricing_plan_id":"free"},{"bike_id":"80036557-7979-422a-a183-ccd03a4e3988","system_id":"levelo_inurba_marseille","lat":43.289184,"lon":5.366408,"is_reserved":false,"is_disabled":false,"rental_uris":{"android":"levelo://app?vid=80036557-7979-422a-a183-ccd03a4e3988","ios":"levelo://app?vid=80036557-7979-422a-a183-ccd03a4e3988"},"vehicle_type_id":"4","last_reported":1706512032,"current_range_meters":16400,"station_id":"ce4bhap2rcd13ifvqek0","pricing_plan_id":"free"},{"bike_id":"e42011e2-64d1-424a-865f-82edbc04c47c","system_id":"levelo_inurba_marseille","lat":43.304296,"lon":5.397513,"is_reserved":false,"is_disabled":false,"rental_uris":{"android":"levelo://app?vid=e42011e2-64d1-424a-865f-82edbc04c47c","ios":"levelo://app?vid=e42011e2-64d1-424a-865f-82edbc04c47c"},"vehicle_type_id":"4","last_reported":1706512032,"current_range_meters":17600,"station_id":"ce4bh092rcd13ifvqd20","pricing_plan_id":"free"},{"bike_id":"24389ced-9927-4a00-acdf-f24883bab82b","system_id":"levelo_inurba_marseille","lat":43.290103,"lon":5.356114,"is_reserved":false,"is_disabled":false,"rental_uris":{"android":"levelo://app?vid=24389ced-9927-4a00-acdf-f24883bab82b","ios":"levelo://app?vid=24389ced-9927-4a00-acdf-f24883bab82b"},"vehicle_type_id":"4","last_reported":1706512032,"current_range_meters":22800,"station_id":"ce4bhb92rcd13ifvqen0","pricing_plan_id":"free"},{"bike_id":"eeae8438-985f-49c5-bc5f-9682432cca99","system_id":"levelo_inurba_marseille","lat":43.29093,"lon":5.38147,"is_reserved":false,"is_disabled":false,"rental_uris":{"android":"levelo://app?vid=eeae8438-985f-49c5-bc5f-9682432cca99","ios":"levelo://app?vid=eeae8438-985f-49c5-bc5f-9682432cca99"},"vehicle_type_id":"4","last_reported":1706512032,"current_range_meters":28400,"station_id":"ce4bh512rcd13ifvqe2g","pricing_plan_id":"free"},{"bike_id":"aeb6f088-4446-47b4-8cbf-e1b53cc4d21a","system_id":"levelo_inurba_marseille","lat":43.2909,"lon":5.38142,"is_reserved":false,"is_disabled":false,"rental_uris":{"android":"levelo://app?vid=aeb6f088-4446-47b4-8cbf-e1b53cc4d21a","ios":"levelo://app?vid=aeb6f088-4446-47b4-8cbf-e1b53cc4d21a"},"vehicle_type_id":"4","last_reported":1706512032,"current_range_meters":29200,"station_id":"ce4bh512rcd13ifvqe2g","pricing_plan_id":"free"},{"bike_id":"00da04d1-2a4c-48bd-bf8a-09e885684f94","system_id":"levelo_inurba_marseille","lat":43.289741,"lon":5.378306,"is_reserved":false,"is_disabled":false,"rental_uris":{"android":"levelo://app?vid=00da04d1-2a4c-48bd-bf8a-09e885684f94","ios":"levelo://app?vid=00da04d1-2a4c-48bd-bf8a-09e885684f94"},"vehicle_type_id":"4","last_reported":1706512032,"current_range_meters":23200,"station_id":"ce4bh9p2rcd13ifvqed0","pricing_plan_id":"free"},{"bike_id":"4add8953-6a4f-4aeb-abdc-78d4a1808eb1","system_id":"levelo_inurba_marseille","lat":43.2901,"lon":5.381269,"is_reserved":false,"is_disabled":false,"rental_uris":{"android":"levelo://app?vid=4add8953-6a4f-4aeb-abdc-78d4a1808eb1","ios":"levelo://app?vid=4add8953-6a4f-4aeb-abdc-78d4a1808eb1"},"vehicle_type_id":"4","last_reported":1706512032,"current_range_meters":6000,"station_id":"ce4bh4p2rcd13ifvqe1g","pricing_plan_id":"free"},{"bike_id":"0f2c1b5b-2255-427d-8e1c-a2e4920df7dd","system_id":"levelo_inurba_marseille","lat":43.337424,"lon":5.374491,"is_reserved":false,"is_disabled":false,"rental_uris":{"android":"levelo://app?vid=0f2c1b5b-2255-427d-8e1c-a2e4920df7dd","ios":"levelo://app?vid=0f2c1b5b-2255-427d-8e1c-a2e4920df7dd"},"vehicle_type_id":"4","last_reported":1706512032,"current_range_meters":27600,"station_id":"","pricing_plan_id":"free"},{"bike_id":"a563cdbf-78b8-441c-8dce-8da1c3325b92","system_id":"levelo_inurba_marseille","lat":43.337495,"lon":5.374514,"is_reserved":false,"is_disabled":false,"rental_uris":{"android":"levelo://app?vid=a563cdbf-78b8-441c-8dce-8da1c3325b92","ios":"levelo://app?vid=a563cdbf-78b8-441c-8dce-8da1c3325b92"},"vehicle_type_id":"4","last_reported":1706512032,"current_range_meters":20400,"station_id":"","pricing_plan_id":"free"},{"bike_id":"b7f12eab-e0a6-499e-87ec-2b4381c4602a","system_id":"levelo_inurba_marseille","lat":43.337544,"lon":5.374554,"is_reserved":false,"is_disabled":false,"rental_uris":{"android":"levelo://app?vid=b7f12eab-e0a6-499e-87ec-2b4381c4602a","ios":"levelo://app?vid=b7f12eab-e0a6-499e-87ec-2b4381c4602a"},"vehicle_type_id":"4","last_reported":1706512032,"current_range_meters":23200,"station_id":"","pricing_plan_id":"free"},{"bike_id":"2fe24097-b1c2-4583-ba1f-cf8501171a4c","system_id":"levelo_inurba_marseille","lat":43.33755,"lon":5.3749,"is_reserved":false,"is_disabled":false,"rental_uris":{"android":"levelo://app?vid=2fe24097-b1c2-4583-ba1f-cf8501171a4c","ios":"levelo://app?vid=2fe24097-b1c2-4583-ba1f-cf8501171a4c"},"vehicle_type_id":"4","last_reported":1706512032,"current_range_meters":8000,"station_id":"","pricing_plan_id":"free"},{"bike_id":"b7d3b81d-d85a-44b5-a0c7-8f9c9f74639e","system_id":"levelo_inurba_marseille","lat":43.33765,"lon":5.374672,"is_reserved":false,"is_disabled":false,"rental_uris":{"android":"levelo://app?vid=b7d3b81d-d85a-44b5-a0c7-8f9c9f74639e","ios":"levelo://app?vid=b7d3b81d-d85a-44b5-a0c7-8f9c9f74639e"},"vehicle_type_id":"4","last_reported":1706512032,"current_range_meters":24000,"station_id":"","pricing_plan_id":"free"},{"bike_id":"1facbbf3-baac-42f8-85eb-cb1e36f3e4b9","system_id":"levelo_inurba_marseille","lat":43.33765,"lon":5.374896,"is_reserved":false,"is_disabled":false,"rental_uris":{"android":"levelo://app?vid=1facbbf3-baac-42f8-85eb-cb1e36f3e4b9","ios":"levelo://app?vid=1facbbf3-baac-42f8-85eb-cb1e36f3e4b9"},"vehicle_type_id":"4","last_reported":1706512032,"current_range_meters":10400,"station_id":"","pricing_plan_id":"free"},{"bike_id":"2142a818-5700-4559-8761-2ac49ae9eafc","system_id":"levelo_inurba_marseille","lat":43.283494,"lon":5.380945,"is_reserved":false,"is_disabled":false,"rental_uris":{"android":"levelo://app?vid=2142a818-5700-4559-8761-2ac49ae9eafc","ios":"levelo://app?vid=2142a818-5700-4559-8761-2ac49ae9eafc"},"vehicle_type_id":"4","last_reported":1706512032,"current_range_meters":30800,"station_id":"ce4bh412rcd13ifvqdr0","pricing_plan_id":"free"},{"bike_id":"522d42eb-9b29-48d8-bd56-5615cefbb5c8","system_id":"levelo_inurba_marseille","lat":43.304643,"lon":5.40063,"is_reserved":false,"is_disabled":false,"rental_uris":{"android":"levelo://app?vid=522d42eb-9b29-48d8-bd56-5615cefbb5c8","ios":"levelo://app?vid=522d42eb-9b29-48d8-bd56-5615cefbb5c8"},"vehicle_type_id":"4","last_reported":1706512032,"current_range_meters":15200,"station_id":"","pricing_plan_id":"free"},{"bike_id":"2f928102-cc97-4ba5-9ced-83f48ad7cead","system_id":"levelo_inurba_marseille","lat":43.302759,"lon":5.400793,"is_reserved":false,"is_disabled":false,"rental_uris":{"android":"levelo://app?vid=2f928102-cc97-4ba5-9ced-83f48ad7cead","ios":"levelo://app?vid=2f928102-cc97-4ba5-9ced-83f48ad7cead"},"vehicle_type_id":"4","last_reported":1706512032,"current_range_meters":24000,"station_id":"ce4bgvh2rcd13ifvqcs0","pricing_plan_id":"free"},{"bike_id":"163d8111-f23f-4978-84cf-3964ebde0468","system_id":"levelo_inurba_marseille","lat":43.290345,"lon":5.38646,"is_reserved":false,"is_disabled":false,"rental_uris":{"android":"levelo://app?vid=163d8111-f23f-4978-84cf-3964ebde0468","ios":"levelo://app?vid=163d8111-f23f-4978-84cf-3964ebde0468"},"vehicle_type_id":"4","last_reported":1706512032,"current_range_meters":17600,"station_id":"ce4bh4p2rcd13ifvqe0g","pricing_plan_id":"free"},{"bike_id":"8072890c-c307-49b7-a322-7e2afc65f0c9","system_id":"levelo_inurba_marseille","lat":43.289307,"lon":5.38406,"is_reserved":false,"is_disabled":false,"rental_uris":{"android":"levelo://app?vid=8072890c-c307-49b7-a322-7e2afc65f0c9","ios":"levelo://app?vid=8072890c-c307-49b7-a322-7e2afc65f0c9"},"vehicle_type_id":"4","last_reported":1706512032,"current_range_meters":26800,"station_id":"ce4bh612rcd13ifvqe6g","pricing_plan_id":"free"},{"bike_id":"183bb1c1-398f-466c-b05d-327ac4efc436","system_id":"levelo_inurba_marseille","lat":43.302511,"lon":5.400653,"is_reserved":false,"is_disabled":false,"rental_uris":{"android":"levelo://app?vid=183bb1c1-398f-466c-b05d-327ac4efc436","ios":"levelo://app?vid=183bb1c1-398f-466c-b05d-327ac4efc436"},"vehicle_type_id":"4","last_reported":1706512032,"current_range_meters":8000,"station_id":"ce4bgth2rcd13ifvqch0","pricing_plan_id":"free"},{"bike_id":"62308f59-b810-448c-81ec-0da18673680e","system_id":"levelo_inurba_marseille","lat":43.302759,"lon":5.400793,"is_reserved":false,"is_disabled":false,"rental_uris":{"android":"levelo://app?vid=62308f59-b810-448c-81ec-0da18673680e","ios":"levelo://app?vid=62308f59-b810-448c-81ec-0da18673680e"},"vehicle_type_id":"4","last_reported":1706512032,"current_range_meters":19200,"station_id":"ce4bgvh2rcd13ifvqcs0","pricing_plan_id":"free"},{"bike_id":"fcb336e1-2f8c-4762-a0d6-a51922a935be","system_id":"levelo_inurba_marseille","lat":43.30205,"lon":5.40048,"is_reserved":false,"is_disabled":false,"rental_uris":{"android":"levelo://app?vid=fcb336e1-2f8c-4762-a0d6-a51922a935be","ios":"levelo://app?vid=fcb336e1-2f8c-4762-a0d6-a51922a935be"},"vehicle_type_id":"4","last_reported":1706512032,"current_range_meters":0,"station_id":"","pricing_plan_id":"free"},{"bike_id":"d2ff0dea-d227-4be0-a77c-0718e680e46f","system_id":"levelo_inurba_marseille","lat":43.287184,"lon":5.37937,"is_reserved":false,"is_disabled":false,"rental_uris":{"android":"levelo://app?vid=d2ff0dea-d227-4be0-a77c-0718e680e46f","ios":"levelo://app?vid=d2ff0dea-d227-4be0-a77c-0718e680e46f"},"vehicle_type_id":"4","last_reported":1706512032,"current_range_meters":22000,"station_id":"ce4bh9p2rcd13ifvqec0","pricing_plan_id":"free"},{"bike_id":"58dc1562-9b3b-47b3-bfc0-92d6b00d776f","system_id":"levelo_inurba_marseille","lat":43.287185,"lon":5.379373,"is_reserved":false,"is_disabled":false,"rental_uris":{"android":"levelo://app?vid=58dc1562-9b3b-47b3-bfc0-92d6b00d776f","ios":"levelo://app?vid=58dc1562-9b3b-47b3-bfc0-92d6b00d776f"},"vehicle_type_id":"4","last_reported":1706512032,"current_range_meters":2000,"station_id":"ce4bh9p2rcd13ifvqec0","pricing_plan_id":"free"},{"bike_id":"ec51dc61-e13a-4c93-9ba2-3af21294e0f8","system_id":"levelo_inurba_marseille","lat":43.287185,"lon":5.379373,"is_reserved":false,"is_disabled":false,"rental_uris":{"android":"levelo://app?vid=ec51dc61-e13a-4c93-9ba2-3af21294e0f8","ios":"levelo://app?vid=ec51dc61-e13a-4c93-9ba2-3af21294e0f8"},"vehicle_type_id":"4","last_reported":1706512032,"current_range_meters":20400,"station_id":"ce4bh9p2rcd13ifvqec0","pricing_plan_id":"free"},{"bike_id":"97b0bde0-bd3d-4e18-b61d-44a138bde320","system_id":"levelo_inurba_marseille","lat":43.29995,"lon":5.40057,"is_reserved":false,"is_disabled":false,"rental_uris":{"android":"levelo://app?vid=97b0bde0-bd3d-4e18-b61d-44a138bde320","ios":"levelo://app?vid=97b0bde0-bd3d-4e18-b61d-44a138bde320"},"vehicle_type_id":"4","last_reported":1706512032,"current_range_meters":29600,"station_id":"","pricing_plan_id":"free"},{"bike_id":"c24a6f57-4310-4f12-8fac-2ab95a8484a4","system_id":"levelo_inurba_marseille","lat":43.31683,"lon":5.40472,"is_reserved":false,"is_disabled":false,"rental_uris":{"android":"levelo://app?vid=c24a6f57-4310-4f12-8fac-2ab95a8484a4","ios":"levelo://app?vid=c24a6f57-4310-4f12-8fac-2ab95a8484a4"},"vehicle_type_id":"4","last_reported":1706512032,"current_range_meters":21600,"station_id":"ce4bh012rcd13ifvqd00","pricing_plan_id":"free"},{"bike_id":"13c2de7b-78cc-467c-ac0b-7bc779d9cb45","system_id":"levelo_inurba_marseille","lat":43.28617,"lon":5.35099,"is_reserved":false,"is_disabled":false,"rental_uris":{"android":"levelo://app?vid=13c2de7b-78cc-467c-ac0b-7bc779d9cb45","ios":"levelo://app?vid=13c2de7b-78cc-467c-ac0b-7bc779d9cb45"},"vehicle_type_id":"4","last_reported":1706512032,"current_range_meters":15600,"station_id":"ce4bhch2rcd13ifvqeug","pricing_plan_id":"free"},{"bike_id":"7575abcb-6cf1-4246-815b-9eaf6ca7b3fd","system_id":"levelo_inurba_marseille","lat":43.283998,"lon":5.375062,"is_reserved":false,"is_disabled":false,"rental_uris":{"android":"levelo://app?vid=7575abcb-6cf1-4246-815b-9eaf6ca7b3fd","ios":"levelo://app?vid=7575abcb-6cf1-4246-815b-9eaf6ca7b3fd"},"vehicle_type_id":"4","last_reported":1706512032,"current_range_meters":25600,"station_id":"ce4bh412rcd13ifvqds0","pricing_plan_id":"free"},{"bike_id":"cdb2e274-bd81-4324-8b06-1c976a452cb4","system_id":"levelo_inurba_marseille","lat":43.283998,"lon":5.375062,"is_reserved":false,"is_disabled":false,"rental_uris":{"android":"levelo://app?vid=cdb2e274-bd81-4324-8b06-1c976a452cb4","ios":"levelo://app?vid=cdb2e274-bd81-4324-8b06-1c976a452cb4"},"vehicle_type_id":"4","last_reported":1706512032,"current_range_meters":18400,"station_id":"ce4bh412rcd13ifvqds0","pricing_plan_id":"free"},{"bike_id":"10c4ac2d-b884-4f1f-8d48-16975487cc0b","system_id":"levelo_inurba_marseille","lat":43.295713,"lon":5.399639,"is_reserved":false,"is_disabled":false,"rental_uris":{"android":"levelo://app?vid=10c4ac2d-b884-4f1f-8d48-16975487cc0b","ios":"levelo://app?vid=10c4ac2d-b884-4f1f-8d48-16975487cc0b"},"vehicle_type_id":"4","last_reported":1706512032,"current_range_meters":23200,"station_id":"ce4bh312rcd13ifvqdj0","pricing_plan_id":"free"},{"bike_id":"58ecb6cb-fa05-453c-93dc-bf1d1c33a10f","system_id":"levelo_inurba_marseille","lat":43.295713,"lon":5.399639,"is_reserved":false,"is_disabled":false,"rental_uris":{"android":"levelo://app?vid=58ecb6cb-fa05-453c-93dc-bf1d1c33a10f","ios":"levelo://app?vid=58ecb6cb-fa05-453c-93dc-bf1d1c33a10f"},"vehicle_type_id":"4","last_reported":1706512032,"current_range_meters":22800,"station_id":"ce4bh312rcd13ifvqdj0","pricing_plan_id":"free"},{"bike_id":"bcf160b8-fedd-4550-ae52-460c5432e615","system_id":"levelo_inurba_marseille","lat":43.319179,"lon":5.407725,"is_reserved":false,"is_disabled":false,"rental_uris":{"android":"levelo://app?vid=bcf160b8-fedd-4550-ae52-460c5432e615","ios":"levelo://app?vid=bcf160b8-fedd-4550-ae52-460c5432e615"},"vehicle_type_id":"4","last_reported":1706512032,"current_range_meters":1600,"station_id":"ce4bhq12rcd13ifvqhig","pricing_plan_id":"free"},{"bike_id":"fd877f8e-fbec-4da8-bc39-6d29f343aba5","system_id":"levelo_inurba_marseille","lat":43.286595,"lon":5.386795,"is_reserved":false,"is_disabled":false,"rental_uris":{"android":"levelo://app?vid=fd877f8e-fbec-4da8-bc39-6d29f343aba5","ios":"levelo://app?vid=fd877f8e-fbec-4da8-bc39-6d29f343aba5"},"vehicle_type_id":"4","last_reported":1706512032,"current_range_meters":28000,"station_id":"ce4bh492rcd13ifvqdug","pricing_plan_id":"free"},{"bike_id":"5141760d-9e16-415a-92fb-60d43870b51d","system_id":"levelo_inurba_marseille","lat":43.28676,"lon":5.38678,"is_reserved":false,"is_disabled":false,"rental_uris":{"android":"levelo://app?vid=5141760d-9e16-415a-92fb-60d43870b51d","ios":"levelo://app?vid=5141760d-9e16-415a-92fb-60d43870b51d"},"vehicle_type_id":"4","last_reported":1706512032,"current_range_meters":26000,"station_id":"ce4bh492rcd13ifvqdug","pricing_plan_id":"free"},{"bike_id":"c16e6939-e44c-4bdd-8ba4-98cd15884b85","system_id":"levelo_inurba_marseille","lat":43.319179,"lon":5.407725,"is_reserved":false,"is_disabled":false,"rental_uris":{"android":"levelo://app?vid=c16e6939-e44c-4bdd-8ba4-98cd15884b85","ios":"levelo://app?vid=c16e6939-e44c-4bdd-8ba4-98cd15884b85"},"vehicle_type_id":"4","last_reported":1706512032,"current_range_meters":16000,"station_id":"ce4bhq12rcd13ifvqhig","pricing_plan_id":"free"},{"bike_id":"50b1af7f-697c-456a-b2c0-aaf507c51a13","system_id":"levelo_inurba_marseille","lat":43.33717,"lon":5.391857,"is_reserved":false,"is_disabled":false,"rental_uris":{"android":"levelo://app?vid=50b1af7f-697c-456a-b2c0-aaf507c51a13","ios":"levelo://app?vid=50b1af7f-697c-456a-b2c0-aaf507c51a13"},"vehicle_type_id":"4","last_reported":1706512032,"current_range_meters":26400,"station_id":"ce4bhr92rcd13ifvqhsg","pricing_plan_id":"free"},{"bike_id":"966dc777-e017-4bae-b924-de46490d2c46","system_id":"levelo_inurba_marseille","lat":43.337168,"lon":5.391825,"is_reserved":false,"is_disabled":false,"rental_uris":{"android":"levelo://app?vid=966dc777-e017-4bae-b924-de46490d2c46","ios":"levelo://app?vid=966dc777-e017-4bae-b924-de46490d2c46"},"vehicle_type_id":"4","last_reported":1706512032,"current_range_meters":28000,"station_id":"ce4bhr92rcd13ifvqhsg","pricing_plan_id":"free"},{"bike_id":"af8c5485-65d3-42d7-ac47-9abb3bf4a6bd","system_id":"levelo_inurba_marseille","lat":43.28491,"lon":5.38424,"is_reserved":false,"is_disabled":false,"rental_uris":{"android":"levelo://app?vid=af8c5485-65d3-42d7-ac47-9abb3bf4a6bd","ios":"levelo://app?vid=af8c5485-65d3-42d7-ac47-9abb3bf4a6bd"},"vehicle_type_id":"4","last_reported":1706512032,"current_range_meters":30400,"station_id":"ce4bh512rcd13ifvqe3g","pricing_plan_id":"free"},{"bike_id":"4cca54e7-e870-4859-b8c6-cee9bf833be3","system_id":"levelo_inurba_marseille","lat":43.28489,"lon":5.38431,"is_reserved":false,"is_disabled":false,"rental_uris":{"android":"levelo://app?vid=4cca54e7-e870-4859-b8c6-cee9bf833be3","ios":"levelo://app?vid=4cca54e7-e870-4859-b8c6-cee9bf833be3"},"vehicle_type_id":"4","last_reported":1706512032,"current_range_meters":29600,"station_id":"ce4bh512rcd13ifvqe3g","pricing_plan_id":"free"},{"bike_id":"8fc53198-51a9-40b0-8b16-139828f2e09a","system_id":"levelo_inurba_marseille","lat":43.284793,"lon":5.384113,"is_reserved":false,"is_disabled":false,"rental_uris":{"android":"levelo://app?vid=8fc53198-51a9-40b0-8b16-139828f2e09a","ios":"levelo://app?vid=8fc53198-51a9-40b0-8b16-139828f2e09a"},"vehicle_type_id":"4","last_reported":1706512032,"current_range_meters":29200,"station_id":"ce4bh512rcd13ifvqe3g","pricing_plan_id":"free"},{"bike_id":"cf6a35d5-b08c-4bfe-bbb0-5f498f4776f9","system_id":"levelo_inurba_marseille","lat":43.284793,"lon":5.384113,"is_reserved":false,"is_disabled":false,"rental_uris":{"android":"levelo://app?vid=cf6a35d5-b08c-4bfe-bbb0-5f498f4776f9","ios":"levelo://app?vid=cf6a35d5-b08c-4bfe-bbb0-5f498f4776f9"},"vehicle_type_id":"4","last_reported":1706512032,"current_range_meters":26400,"station_id":"ce4bh512rcd13ifvqe3g","pricing_plan_id":"free"},{"bike_id":"4ef98346-147e-471b-8549-b09733d43414","system_id":"levelo_inurba_marseille","lat":43.284793,"lon":5.384113,"is_reserved":false,"is_disabled":false,"rental_uris":{"android":"levelo://app?vid=4ef98346-147e-471b-8549-b09733d43414","ios":"levelo://app?vid=4ef98346-147e-471b-8549-b09733d43414"},"vehicle_type_id":"4","last_reported":1706512032,"current_range_meters":14400,"station_id":"ce4bh512rcd13ifvqe3g","pricing_plan_id":"free"},{"bike_id":"8ca539af-eb78-4432-b873-4b39d9f78b5d","system_id":"levelo_inurba_marseille","lat":43.28479,"lon":5.38419,"is_reserved":false,"is_disabled":false,"rental_uris":{"android":"levelo://app?vid=8ca539af-eb78-4432-b873-4b39d9f78b5d","ios":"levelo://app?vid=8ca539af-eb78-4432-b873-4b39d9f78b5d"},"vehicle_type_id":"4","last_reported":1706512032,"current_range_meters":28400,"station_id":"ce4bh512rcd13ifvqe3g","pricing_plan_id":"free"},{"bike_id":"0c9f6633-515f-4ffb-8e03-29b2745e08a2","system_id":"levelo_inurba_marseille","lat":43.284825,"lon":5.384329,"is_reserved":false,"is_disabled":false,"rental_uris":{"android":"levelo://app?vid=0c9f6633-515f-4ffb-8e03-29b2745e08a2","ios":"levelo://app?vid=0c9f6633-515f-4ffb-8e03-29b2745e08a2"},"vehicle_type_id":"4","last_reported":1706512032,"current_range_meters":0,"station_id":"ce4bh512rcd13ifvqe3g","pricing_plan_id":"free"},{"bike_id":"42a114d7-a2cd-4632-97d8-181c1eac1a70","system_id":"levelo_inurba_marseille","lat":43.298048,"lon":5.404115,"is_reserved":false,"is_disabled":false,"rental_uris":{"android":"levelo://app?vid=42a114d7-a2cd-4632-97d8-181c1eac1a70","ios":"levelo://app?vid=42a114d7-a2cd-4632-97d8-181c1eac1a70"},"vehicle_type_id":"4","last_reported":1706512032,"current_range_meters":0,"station_id":"ce4bh112rcd13ifvqd90","pricing_plan_id":"free"},{"bike_id":"582485a5-7e3f-4592-ad13-e829e6912334","system_id":"levelo_inurba_marseille","lat":43.28852,"lon":5.39335,"is_reserved":false,"is_disabled":false,"rental_uris":{"android":"levelo://app?vid=582485a5-7e3f-4592-ad13-e829e6912334","ios":"levelo://app?vid=582485a5-7e3f-4592-ad13-e829e6912334"},"vehicle_type_id":"4","last_reported":1706512032,"current_range_meters":29200,"station_id":"ce4bh2p2rcd13ifvqdi0","pricing_plan_id":"free"},{"bike_id":"d40bef6e-5293-41e7-9177-9e229877e03a","system_id":"levelo_inurba_marseille","lat":43.283494,"lon":5.380945,"is_reserved":false,"is_disabled":false,"rental_uris":{"android":"levelo://app?vid=d40bef6e-5293-41e7-9177-9e229877e03a","ios":"levelo://app?vid=d40bef6e-5293-41e7-9177-9e229877e03a"},"vehicle_type_id":"4","last_reported":1706512032,"current_range_meters":23600,"station_id":"ce4bh412rcd13ifvqdr0","pricing_plan_id":"free"},{"bike_id":"c1a8b41d-877d-4250-8268-d85442dda56b","system_id":"levelo_inurba_marseille","lat":43.283498,"lon":5.380948,"is_reserved":false,"is_disabled":false,"rental_uris":{"android":"levelo://app?vid=c1a8b41d-877d-4250-8268-d85442dda56b","ios":"levelo://app?vid=c1a8b41d-877d-4250-8268-d85442dda56b"},"vehicle_type_id":"4","last_reported":1706512032,"current_range_meters":22000,"station_id":"ce4bh412rcd13ifvqdr0","pricing_plan_id":"free"},{"bike_id":"e01ef5f5-838c-40bf-9ef8-56e3de6a07ea","system_id":"levelo_inurba_marseille","lat":43.283494,"lon":5.380945,"is_reserved":false,"is_disabled":false,"rental_uris":{"android":"levelo://app?vid=e01ef5f5-838c-40bf-9ef8-56e3de6a07ea","ios":"levelo://app?vid=e01ef5f5-838c-40bf-9ef8-56e3de6a07ea"},"vehicle_type_id":"4","last_reported":1706512032,"current_range_meters":22800,"station_id":"ce4bh412rcd13ifvqdr0","pricing_plan_id":"free"},{"bike_id":"4a7f13b7-d6cb-4c02-a5ad-9249a6ae7ce0","system_id":"levelo_inurba_marseille","lat":43.283494,"lon":5.380945,"is_reserved":false,"is_disabled":false,"rental_uris":{"android":"levelo://app?vid=4a7f13b7-d6cb-4c02-a5ad-9249a6ae7ce0","ios":"levelo://app?vid=4a7f13b7-d6cb-4c02-a5ad-9249a6ae7ce0"},"vehicle_type_id":"4","last_reported":1706512032,"current_range_meters":18400,"station_id":"ce4bh412rcd13ifvqdr0","pricing_plan_id":"free"},{"bike_id":"dd3137ee-b574-4e59-be5c-b89271c62efc","system_id":"levelo_inurba_marseille","lat":43.283494,"lon":5.380945,"is_reserved":false,"is_disabled":false,"rental_uris":{"android":"levelo://app?vid=dd3137ee-b574-4e59-be5c-b89271c62efc","ios":"levelo://app?vid=dd3137ee-b574-4e59-be5c-b89271c62efc"},"vehicle_type_id":"4","last_reported":1706512032,"current_range_meters":29600,"station_id":"ce4bh412rcd13ifvqdr0","pricing_plan_id":"free"},{"bike_id":"f9643468-d4e7-4386-b3f7-30b2b3ebd435","system_id":"levelo_inurba_marseille","lat":43.283498,"lon":5.380948,"is_reserved":false,"is_disabled":false,"rental_uris":{"android":"levelo://app?vid=f9643468-d4e7-4386-b3f7-30b2b3ebd435","ios":"levelo://app?vid=f9643468-d4e7-4386-b3f7-30b2b3ebd435"},"vehicle_type_id":"4","last_reported":1706512032,"current_range_meters":24400,"station_id":"ce4bh412rcd13ifvqdr0","pricing_plan_id":"free"},{"bike_id":"202b7303-613b-4ee7-9741-7e2c097a8993","system_id":"levelo_inurba_marseille","lat":43.283502,"lon":5.386471,"is_reserved":false,"is_disabled":false,"rental_uris":{"android":"levelo://app?vid=202b7303-613b-4ee7-9741-7e2c097a8993","ios":"levelo://app?vid=202b7303-613b-4ee7-9741-7e2c097a8993"},"vehicle_type_id":"4","last_reported":1706512032,"current_range_meters":22800,"station_id":"ce4bh492rcd13ifvqdvg","pricing_plan_id":"free"},{"bike_id":"2cdd449e-70cd-44c5-92d1-248b75a245ce","system_id":"levelo_inurba_marseille","lat":43.283494,"lon":5.380945,"is_reserved":false,"is_disabled":false,"rental_uris":{"android":"levelo://app?vid=2cdd449e-70cd-44c5-92d1-248b75a245ce","ios":"levelo://app?vid=2cdd449e-70cd-44c5-92d1-248b75a245ce"},"vehicle_type_id":"4","last_reported":1706512032,"current_range_meters":24000,"station_id":"ce4bh412rcd13ifvqdr0","pricing_plan_id":"free"},{"bike_id":"73cd8cf0-bed9-43b6-a70f-c3f2d03c695c","system_id":"levelo_inurba_marseille","lat":43.289363,"lon":5.396322,"is_reserved":false,"is_disabled":false,"rental_uris":{"android":"levelo://app?vid=73cd8cf0-bed9-43b6-a70f-c3f2d03c695c","ios":"levelo://app?vid=73cd8cf0-bed9-43b6-a70f-c3f2d03c695c"},"vehicle_type_id":"4","last_reported":1706512032,"current_range_meters":31600,"station_id":"ce4bh3h2rcd13ifvqdn0","pricing_plan_id":"free"},{"bike_id":"7b5ff3c6-eeff-493f-adcc-a2b2d0b055e6","system_id":"levelo_inurba_marseille","lat":43.289363,"lon":5.396322,"is_reserved":false,"is_disabled":false,"rental_uris":{"android":"levelo://app?vid=7b5ff3c6-eeff-493f-adcc-a2b2d0b055e6","ios":"levelo://app?vid=7b5ff3c6-eeff-493f-adcc-a2b2d0b055e6"},"vehicle_type_id":"4","last_reported":1706512032,"current_range_meters":0,"station_id":"ce4bh3h2rcd13ifvqdn0","pricing_plan_id":"free"},{"bike_id":"d3f46276-b4d9-42bf-b952-afdf0d1b1865","system_id":"levelo_inurba_marseille","lat":43.289363,"lon":5.396322,"is_reserved":false,"is_disabled":false,"rental_uris":{"android":"levelo://app?vid=d3f46276-b4d9-42bf-b952-afdf0d1b1865","ios":"levelo://app?vid=d3f46276-b4d9-42bf-b952-afdf0d1b1865"},"vehicle_type_id":"4","last_reported":1706512032,"current_range_meters":19600,"station_id":"ce4bh3h2rcd13ifvqdn0","pricing_plan_id":"free"},{"bike_id":"b41bcd76-cb12-4b33-95cd-9444d1e23578","system_id":"levelo_inurba_marseille","lat":43.293556,"lon":5.401561,"is_reserved":false,"is_disabled":false,"rental_uris":{"android":"levelo://app?vid=b41bcd76-cb12-4b33-95cd-9444d1e23578","ios":"levelo://app?vid=b41bcd76-cb12-4b33-95cd-9444d1e23578"},"vehicle_type_id":"4","last_reported":1706512032,"current_range_meters":3200,"station_id":"","pricing_plan_id":"free"},{"bike_id":"2b001387-602f-498f-b6bc-a69fc0e8b007","system_id":"levelo_inurba_marseille","lat":43.292723,"lon":5.401177,"is_reserved":false,"is_disabled":false,"rental_uris":{"android":"levelo://app?vid=2b001387-602f-498f-b6bc-a69fc0e8b007","ios":"levelo://app?vid=2b001387-602f-498f-b6bc-a69fc0e8b007"},"vehicle_type_id":"4","last_reported":1706512032,"current_range_meters":400,"station_id":"ce4bh312rcd13ifvqdk0","pricing_plan_id":"free"},{"bike_id":"5e70a8a5-fe88-4e50-989d-972f2c6469cb","system_id":"levelo_inurba_marseille","lat":43.28037,"lon":5.36939,"is_reserved":false,"is_disabled":false,"rental_uris":{"android":"levelo://app?vid=5e70a8a5-fe88-4e50-989d-972f2c6469cb","ios":"levelo://app?vid=5e70a8a5-fe88-4e50-989d-972f2c6469cb"},"vehicle_type_id":"4","last_reported":1706512032,"current_range_meters":17600,"station_id":"ce4bha12rcd13ifvqef0","pricing_plan_id":"free"},{"bike_id":"bf9ed574-e30d-4a10-8da6-63d6e69cd454","system_id":"levelo_inurba_marseille","lat":43.280338,"lon":5.369457,"is_reserved":false,"is_disabled":false,"rental_uris":{"android":"levelo://app?vid=bf9ed574-e30d-4a10-8da6-63d6e69cd454","ios":"levelo://app?vid=bf9ed574-e30d-4a10-8da6-63d6e69cd454"},"vehicle_type_id":"4","last_reported":1706512032,"current_range_meters":31200,"station_id":"ce4bha12rcd13ifvqef0","pricing_plan_id":"free"},{"bike_id":"ba580e13-95ac-4a12-a607-88164bfb8ad6","system_id":"levelo_inurba_marseille","lat":43.29041,"lon":5.399634,"is_reserved":false,"is_disabled":false,"rental_uris":{"android":"levelo://app?vid=ba580e13-95ac-4a12-a607-88164bfb8ad6","ios":"levelo://app?vid=ba580e13-95ac-4a12-a607-88164bfb8ad6"},"vehicle_type_id":"4","last_reported":1706512032,"current_range_meters":3200,"station_id":"ce4bh392rcd13ifvqdm0","pricing_plan_id":"free"},{"bike_id":"4a3f6249-c795-4dbf-a4fe-4325ed6a64a7","system_id":"levelo_inurba_marseille","lat":43.29041,"lon":5.399634,"is_reserved":false,"is_disabled":false,"rental_uris":{"android":"levelo://app?vid=4a3f6249-c795-4dbf-a4fe-4325ed6a64a7","ios":"levelo://app?vid=4a3f6249-c795-4dbf-a4fe-4325ed6a64a7"},"vehicle_type_id":"4","last_reported":1706512032,"current_range_meters":25200,"station_id":"ce4bh392rcd13ifvqdm0","pricing_plan_id":"free"},{"bike_id":"6b4c8994-afb0-4bb0-8cac-7e019dbea7ba","system_id":"levelo_inurba_marseille","lat":43.29041,"lon":5.399634,"is_reserved":false,"is_disabled":false,"rental_uris":{"android":"levelo://app?vid=6b4c8994-afb0-4bb0-8cac-7e019dbea7ba","ios":"levelo://app?vid=6b4c8994-afb0-4bb0-8cac-7e019dbea7ba"},"vehicle_type_id":"4","last_reported":1706512032,"current_range_meters":24400,"station_id":"ce4bh392rcd13ifvqdm0","pricing_plan_id":"free"},{"bike_id":"2ed569a7-425b-4adb-8bd1-56d97b5848ae","system_id":"levelo_inurba_marseille","lat":43.296263,"lon":5.40601,"is_reserved":false,"is_disabled":false,"rental_uris":{"android":"levelo://app?vid=2ed569a7-425b-4adb-8bd1-56d97b5848ae","ios":"levelo://app?vid=2ed569a7-425b-4adb-8bd1-56d97b5848ae"},"vehicle_type_id":"4","last_reported":1706512032,"current_range_meters":18800,"station_id":"ce4bh0h2rcd13ifvqd60","pricing_plan_id":"free"},{"bike_id":"e67be685-fefa-4358-ab33-e7160893a9f8","system_id":"levelo_inurba_marseille","lat":43.296263,"lon":5.40601,"is_reserved":false,"is_disabled":false,"rental_uris":{"android":"levelo://app?vid=e67be685-fefa-4358-ab33-e7160893a9f8","ios":"levelo://app?vid=e67be685-fefa-4358-ab33-e7160893a9f8"},"vehicle_type_id":"4","last_reported":1706512032,"current_range_meters":25600,"station_id":"ce4bh0h2rcd13ifvqd60","pricing_plan_id":"free"},{"bike_id":"ce359fb6-e3d5-45fc-9e26-757bf9375f27","system_id":"levelo_inurba_marseille","lat":43.326605,"lon":5.409903,"is_reserved":false,"is_disabled":false,"rental_uris":{"android":"levelo://app?vid=ce359fb6-e3d5-45fc-9e26-757bf9375f27","ios":"levelo://app?vid=ce359fb6-e3d5-45fc-9e26-757bf9375f27"},"vehicle_type_id":"4","last_reported":1706512032,"current_range_meters":20400,"station_id":"ce4bhpp2rcd13ifvqhgg","pricing_plan_id":"free"},{"bike_id":"490774a6-4917-468e-ac2f-aabcb381f604","system_id":"levelo_inurba_marseille","lat":43.326605,"lon":5.409903,"is_reserved":false,"is_disabled":false,"rental_uris":{"android":"levelo://app?vid=490774a6-4917-468e-ac2f-aabcb381f604","ios":"levelo://app?vid=490774a6-4917-468e-ac2f-aabcb381f604"},"vehicle_type_id":"4","last_reported":1706512032,"current_range_meters":26800,"station_id":"ce4bhpp2rcd13ifvqhgg","pricing_plan_id":"free"},{"bike_id":"84edcbc8-c947-4ac5-b2a3-fea22b50369d","system_id":"levelo_inurba_marseille","lat":43.30419,"lon":5.41287,"is_reserved":false,"is_disabled":false,"rental_uris":{"android":"levelo://app?vid=84edcbc8-c947-4ac5-b2a3-fea22b50369d","ios":"levelo://app?vid=84edcbc8-c947-4ac5-b2a3-fea22b50369d"},"vehicle_type_id":"4","last_reported":1706512032,"current_range_meters":28400,"station_id":"ce4bhop2rcd13ifvqh8g","pricing_plan_id":"free"},{"bike_id":"a539d426-9e55-4e9c-b7bf-13cd28eecf36","system_id":"levelo_inurba_marseille","lat":43.27819,"lon":5.35483,"is_reserved":false,"is_disabled":false,"rental_uris":{"android":"levelo://app?vid=a539d426-9e55-4e9c-b7bf-13cd28eecf36","ios":"levelo://app?vid=a539d426-9e55-4e9c-b7bf-13cd28eecf36"},"vehicle_type_id":"4","last_reported":1706512032,"current_range_meters":5600,"station_id":"","pricing_plan_id":"free"},{"bike_id":"864d0290-f682-492f-8b20-7c984dae712b","system_id":"levelo_inurba_marseille","lat":43.320045,"lon":5.415046,"is_reserved":false,"is_disabled":false,"rental_uris":{"android":"levelo://app?vid=864d0290-f682-492f-8b20-7c984dae712b","ios":"levelo://app?vid=864d0290-f682-492f-8b20-7c984dae712b"},"vehicle_type_id":"4","last_reported":1706512032,"current_range_meters":21600,"station_id":"ce4bhq92rcd13ifvqhkg","pricing_plan_id":"free"},{"bike_id":"1a0ad5b1-4788-4116-b491-ac06dde38bb3","system_id":"levelo_inurba_marseille","lat":43.320045,"lon":5.415046,"is_reserved":false,"is_disabled":false,"rental_uris":{"android":"levelo://app?vid=1a0ad5b1-4788-4116-b491-ac06dde38bb3","ios":"levelo://app?vid=1a0ad5b1-4788-4116-b491-ac06dde38bb3"},"vehicle_type_id":"4","last_reported":1706512032,"current_range_meters":16800,"station_id":"ce4bhq92rcd13ifvqhkg","pricing_plan_id":"free"},{"bike_id":"2dbda497-a658-4302-82b6-bc061651cb93","system_id":"levelo_inurba_marseille","lat":43.299579,"lon":5.413255,"is_reserved":false,"is_disabled":false,"rental_uris":{"android":"levelo://app?vid=2dbda497-a658-4302-82b6-bc061651cb93","ios":"levelo://app?vid=2dbda497-a658-4302-82b6-bc061651cb93"},"vehicle_type_id":"4","last_reported":1706512032,"current_range_meters":26400,"station_id":"ce4bhp12rcd13ifvqh9g","pricing_plan_id":"free"},{"bike_id":"9f628796-67be-4f7f-8564-e6b8ba48053b","system_id":"levelo_inurba_marseille","lat":43.279742,"lon":5.38744,"is_reserved":false,"is_disabled":false,"rental_uris":{"android":"levelo://app?vid=9f628796-67be-4f7f-8564-e6b8ba48053b","ios":"levelo://app?vid=9f628796-67be-4f7f-8564-e6b8ba48053b"},"vehicle_type_id":"4","last_reported":1706512032,"current_range_meters":10800,"station_id":"ce4bhg12rcd13ifvqf80","pricing_plan_id":"free"},{"bike_id":"34310c03-7bbe-49af-9068-f07636b29a36","system_id":"levelo_inurba_marseille","lat":43.325233,"lon":5.414318,"is_reserved":false,"is_disabled":false,"rental_uris":{"android":"levelo://app?vid=34310c03-7bbe-49af-9068-f07636b29a36","ios":"levelo://app?vid=34310c03-7bbe-49af-9068-f07636b29a36"},"vehicle_type_id":"4","last_reported":1706512032,"current_range_meters":11200,"station_id":"ce4bhq12rcd13ifvqhhg","pricing_plan_id":"free"},{"bike_id":"64abc9bc-b1fa-42ec-96dd-8217558f8ebd","system_id":"levelo_inurba_marseille","lat":43.325233,"lon":5.414318,"is_reserved":false,"is_disabled":false,"rental_uris":{"android":"levelo://app?vid=64abc9bc-b1fa-42ec-96dd-8217558f8ebd","ios":"levelo://app?vid=64abc9bc-b1fa-42ec-96dd-8217558f8ebd"},"vehicle_type_id":"4","last_reported":1706512032,"current_range_meters":21200,"station_id":"ce4bhq12rcd13ifvqhhg","pricing_plan_id":"free"},{"bike_id":"a41ae808-4eee-4985-bc8a-d09a9154c012","system_id":"levelo_inurba_marseille","lat":43.325233,"lon":5.414318,"is_reserved":false,"is_disabled":false,"rental_uris":{"android":"levelo://app?vid=a41ae808-4eee-4985-bc8a-d09a9154c012","ios":"levelo://app?vid=a41ae808-4eee-4985-bc8a-d09a9154c012"},"vehicle_type_id":"4","last_reported":1706512032,"current_range_meters":30400,"station_id":"ce4bhq12rcd13ifvqhhg","pricing_plan_id":"free"},{"bike_id":"78a99cd4-cffd-4116-936a-8c70dffa5450","system_id":"levelo_inurba_marseille","lat":43.325233,"lon":5.414318,"is_reserved":false,"is_disabled":false,"rental_uris":{"android":"levelo://app?vid=78a99cd4-cffd-4116-936a-8c70dffa5450","ios":"levelo://app?vid=78a99cd4-cffd-4116-936a-8c70dffa5450"},"vehicle_type_id":"4","last_reported":1706512032,"current_range_meters":22800,"station_id":"ce4bhq12rcd13ifvqhhg","pricing_plan_id":"free"},{"bike_id":"447b3785-12b0-46da-a297-728b04251308","system_id":"levelo_inurba_marseille","lat":43.273609,"lon":5.362708,"is_reserved":false,"is_disabled":false,"rental_uris":{"android":"levelo://app?vid=447b3785-12b0-46da-a297-728b04251308","ios":"levelo://app?vid=447b3785-12b0-46da-a297-728b04251308"},"vehicle_type_id":"4","last_reported":1706512032,"current_range_meters":30400,"station_id":"ce4bhbh2rcd13ifvqeo0","pricing_plan_id":"free"},{"bike_id":"ddac5cfb-b0bf-4958-b753-ac44d49803a7","system_id":"levelo_inurba_marseille","lat":43.336134,"lon":5.410341,"is_reserved":false,"is_disabled":false,"rental_uris":{"android":"levelo://app?vid=ddac5cfb-b0bf-4958-b753-ac44d49803a7","ios":"levelo://app?vid=ddac5cfb-b0bf-4958-b753-ac44d49803a7"},"vehicle_type_id":"4","last_reported":1706512032,"current_range_meters":31200,"station_id":"ce4bhqh2rcd13ifvqhmg","pricing_plan_id":"free"},{"bike_id":"a21ba42d-6d86-4b50-a826-fe88e9fd009d","system_id":"levelo_inurba_marseille","lat":43.273609,"lon":5.362708,"is_reserved":false,"is_disabled":false,"rental_uris":{"android":"levelo://app?vid=a21ba42d-6d86-4b50-a826-fe88e9fd009d","ios":"levelo://app?vid=a21ba42d-6d86-4b50-a826-fe88e9fd009d"},"vehicle_type_id":"4","last_reported":1706512032,"current_range_meters":24000,"station_id":"ce4bhbh2rcd13ifvqeo0","pricing_plan_id":"free"},{"bike_id":"c7d2d080-3162-4142-81f3-e3c05300aeb2","system_id":"levelo_inurba_marseille","lat":43.336148,"lon":5.410349,"is_reserved":false,"is_disabled":false,"rental_uris":{"android":"levelo://app?vid=c7d2d080-3162-4142-81f3-e3c05300aeb2","ios":"levelo://app?vid=c7d2d080-3162-4142-81f3-e3c05300aeb2"},"vehicle_type_id":"4","last_reported":1706512032,"current_range_meters":27200,"station_id":"ce4bhqh2rcd13ifvqhmg","pricing_plan_id":"free"},{"bike_id":"cfde2b63-8d5a-44f6-a9fc-1ce3f5cb9e91","system_id":"levelo_inurba_marseille","lat":43.335957,"lon":5.4104,"is_reserved":false,"is_disabled":false,"rental_uris":{"android":"levelo://app?vid=cfde2b63-8d5a-44f6-a9fc-1ce3f5cb9e91","ios":"levelo://app?vid=cfde2b63-8d5a-44f6-a9fc-1ce3f5cb9e91"},"vehicle_type_id":"4","last_reported":1706512032,"current_range_meters":0,"station_id":"ce4bhqh2rcd13ifvqhmg","pricing_plan_id":"free"},{"bike_id":"f6b23bc3-1a76-4992-a0ca-da24604791b9","system_id":"levelo_inurba_marseille","lat":43.336134,"lon":5.410341,"is_reserved":false,"is_disabled":false,"rental_uris":{"android":"levelo://app?vid=f6b23bc3-1a76-4992-a0ca-da24604791b9","ios":"levelo://app?vid=f6b23bc3-1a76-4992-a0ca-da24604791b9"},"vehicle_type_id":"4","last_reported":1706512032,"current_range_meters":30400,"station_id":"ce4bhqh2rcd13ifvqhmg","pricing_plan_id":"free"},{"bike_id":"80ccbd06-e0f1-4d23-972e-56c115a69788","system_id":"levelo_inurba_marseille","lat":43.276771,"lon":5.388799,"is_reserved":false,"is_disabled":false,"rental_uris":{"android":"levelo://app?vid=80ccbd06-e0f1-4d23-972e-56c115a69788","ios":"levelo://app?vid=80ccbd06-e0f1-4d23-972e-56c115a69788"},"vehicle_type_id":"4","last_reported":1706512032,"current_range_meters":20000,"station_id":"ce4bhi12rcd13ifvqfo0","pricing_plan_id":"free"},{"bike_id":"4b82696a-7b33-404e-9c06-004e0dceb386","system_id":"levelo_inurba_marseille","lat":43.276771,"lon":5.388799,"is_reserved":false,"is_disabled":false,"rental_uris":{"android":"levelo://app?vid=4b82696a-7b33-404e-9c06-004e0dceb386","ios":"levelo://app?vid=4b82696a-7b33-404e-9c06-004e0dceb386"},"vehicle_type_id":"4","last_reported":1706512032,"current_range_meters":27200,"station_id":"ce4bhi12rcd13ifvqfo0","pricing_plan_id":"free"},{"bike_id":"6f46a34b-d5d1-4592-8607-98eec5146735","system_id":"levelo_inurba_marseille","lat":43.283753,"lon":5.407091,"is_reserved":false,"is_disabled":false,"rental_uris":{"android":"levelo://app?vid=6f46a34b-d5d1-4592-8607-98eec5146735","ios":"levelo://app?vid=6f46a34b-d5d1-4592-8607-98eec5146735"},"vehicle_type_id":"4","last_reported":1706512032,"current_range_meters":0,"station_id":"","pricing_plan_id":"free"},{"bike_id":"de994ca2-6a4e-45a1-a1d8-5826b8cc855b","system_id":"levelo_inurba_marseille","lat":43.340804,"lon":5.410219,"is_reserved":false,"is_disabled":false,"rental_uris":{"android":"levelo://app?vid=de994ca2-6a4e-45a1-a1d8-5826b8cc855b","ios":"levelo://app?vid=de994ca2-6a4e-45a1-a1d8-5826b8cc855b"},"vehicle_type_id":"4","last_reported":1706512032,"current_range_meters":22000,"station_id":"ce4bhqh2rcd13ifvqhlg","pricing_plan_id":"free"},{"bike_id":"b6c96a5d-15b7-4c49-bac1-283c7e872cb9","system_id":"levelo_inurba_marseille","lat":43.340804,"lon":5.410219,"is_reserved":false,"is_disabled":false,"rental_uris":{"android":"levelo://app?vid=b6c96a5d-15b7-4c49-bac1-283c7e872cb9","ios":"levelo://app?vid=b6c96a5d-15b7-4c49-bac1-283c7e872cb9"},"vehicle_type_id":"4","last_reported":1706512032,"current_range_meters":24800,"station_id":"ce4bhqh2rcd13ifvqhlg","pricing_plan_id":"free"},{"bike_id":"29caaa5e-af6d-4893-8d5b-f2eb34c0d565","system_id":"levelo_inurba_marseille","lat":43.340804,"lon":5.410219,"is_reserved":false,"is_disabled":false,"rental_uris":{"android":"levelo://app?vid=29caaa5e-af6d-4893-8d5b-f2eb34c0d565","ios":"levelo://app?vid=29caaa5e-af6d-4893-8d5b-f2eb34c0d565"},"vehicle_type_id":"4","last_reported":1706512032,"current_range_meters":30000,"station_id":"ce4bhqh2rcd13ifvqhlg","pricing_plan_id":"free"},{"bike_id":"87c998a4-b27c-4b57-8568-42f4629803bf","system_id":"levelo_inurba_marseille","lat":43.27606,"lon":5.39499,"is_reserved":false,"is_disabled":false,"rental_uris":{"android":"levelo://app?vid=87c998a4-b27c-4b57-8568-42f4629803bf","ios":"levelo://app?vid=87c998a4-b27c-4b57-8568-42f4629803bf"},"vehicle_type_id":"4","last_reported":1706512032,"current_range_meters":6800,"station_id":"","pricing_plan_id":"free"},{"bike_id":"f5f0733b-5941-4dbd-ae0d-2d60f8ff04d8","system_id":"levelo_inurba_marseille","lat":43.273129,"lon":5.390725,"is_reserved":false,"is_disabled":false,"rental_uris":{"android":"levelo://app?vid=f5f0733b-5941-4dbd-ae0d-2d60f8ff04d8","ios":"levelo://app?vid=f5f0733b-5941-4dbd-ae0d-2d60f8ff04d8"},"vehicle_type_id":"4","last_reported":1706512032,"current_range_meters":17200,"station_id":"ce4bhgp2rcd13ifvqfe0","pricing_plan_id":"free"},{"bike_id":"3c92d435-4ed7-47e8-837b-043851c88501","system_id":"levelo_inurba_marseille","lat":43.273129,"lon":5.390725,"is_reserved":false,"is_disabled":false,"rental_uris":{"android":"levelo://app?vid=3c92d435-4ed7-47e8-837b-043851c88501","ios":"levelo://app?vid=3c92d435-4ed7-47e8-837b-043851c88501"},"vehicle_type_id":"4","last_reported":1706512032,"current_range_meters":20800,"station_id":"ce4bhgp2rcd13ifvqfe0","pricing_plan_id":"free"},{"bike_id":"d9e79d90-84b3-4292-874f-cc5eabe54206","system_id":"levelo_inurba_marseille","lat":43.274099,"lon":5.394019,"is_reserved":false,"is_disabled":false,"rental_uris":{"android":"levelo://app?vid=d9e79d90-84b3-4292-874f-cc5eabe54206","ios":"levelo://app?vid=d9e79d90-84b3-4292-874f-cc5eabe54206"},"vehicle_type_id":"4","last_reported":1706512032,"current_range_meters":22400,"station_id":"ce4bhdp2rcd13ifvqf20","pricing_plan_id":"free"},{"bike_id":"2753c47e-6089-44c4-b68c-898ad82fe18b","system_id":"levelo_inurba_marseille","lat":43.304096,"lon":5.425385,"is_reserved":false,"is_disabled":false,"rental_uris":{"android":"levelo://app?vid=2753c47e-6089-44c4-b68c-898ad82fe18b","ios":"levelo://app?vid=2753c47e-6089-44c4-b68c-898ad82fe18b"},"vehicle_type_id":"4","last_reported":1706512032,"current_range_meters":17200,"station_id":"ce4bhoh2rcd13ifvqh6g","pricing_plan_id":"free"},{"bike_id":"28237519-aa12-4ce3-a39c-8ef9e5fd6eaa","system_id":"levelo_inurba_marseille","lat":43.304096,"lon":5.425385,"is_reserved":false,"is_disabled":false,"rental_uris":{"android":"levelo://app?vid=28237519-aa12-4ce3-a39c-8ef9e5fd6eaa","ios":"levelo://app?vid=28237519-aa12-4ce3-a39c-8ef9e5fd6eaa"},"vehicle_type_id":"4","last_reported":1706512032,"current_range_meters":21200,"station_id":"ce4bhoh2rcd13ifvqh6g","pricing_plan_id":"free"},{"bike_id":"ad9fe88e-1586-4f2b-9a05-6dedf2a125ad","system_id":"levelo_inurba_marseille","lat":43.29557,"lon":5.42282,"is_reserved":false,"is_disabled":false,"rental_uris":{"android":"levelo://app?vid=ad9fe88e-1586-4f2b-9a05-6dedf2a125ad","ios":"levelo://app?vid=ad9fe88e-1586-4f2b-9a05-6dedf2a125ad"},"vehicle_type_id":"4","last_reported":1706512032,"current_range_meters":17200,"station_id":"ce4bhph2rcd13ifvqhdg","pricing_plan_id":"free"},{"bike_id":"2c1dbbc5-9434-40ec-b6a7-210d08a19857","system_id":"levelo_inurba_marseille","lat":43.295523,"lon":5.422926,"is_reserved":false,"is_disabled":false,"rental_uris":{"android":"levelo://app?vid=2c1dbbc5-9434-40ec-b6a7-210d08a19857","ios":"levelo://app?vid=2c1dbbc5-9434-40ec-b6a7-210d08a19857"},"vehicle_type_id":"4","last_reported":1706512032,"current_range_meters":0,"station_id":"ce4bhph2rcd13ifvqhdg","pricing_plan_id":"free"},{"bike_id":"a7c6a86b-2372-46be-9885-9b752ccfc45c","system_id":"levelo_inurba_marseille","lat":43.295523,"lon":5.422926,"is_reserved":false,"is_disabled":false,"rental_uris":{"android":"levelo://app?vid=a7c6a86b-2372-46be-9885-9b752ccfc45c","ios":"levelo://app?vid=a7c6a86b-2372-46be-9885-9b752ccfc45c"},"vehicle_type_id":"4","last_reported":1706512032,"current_range_meters":800,"station_id":"ce4bhph2rcd13ifvqhdg","pricing_plan_id":"free"},{"bike_id":"6fe4555c-13a8-443a-bc04-01ca818a618f","system_id":"levelo_inurba_marseille","lat":43.295388,"lon":5.423081,"is_reserved":false,"is_disabled":false,"rental_uris":{"android":"levelo://app?vid=6fe4555c-13a8-443a-bc04-01ca818a618f","ios":"levelo://app?vid=6fe4555c-13a8-443a-bc04-01ca818a618f"},"vehicle_type_id":"4","last_reported":1706512032,"current_range_meters":18000,"station_id":"ce4bhph2rcd13ifvqhdg","pricing_plan_id":"free"},{"bike_id":"eb30c045-7808-4ff3-a9ef-ffb025a0cb5b","system_id":"levelo_inurba_marseille","lat":43.278128,"lon":5.407195,"is_reserved":false,"is_disabled":false,"rental_uris":{"android":"levelo://app?vid=eb30c045-7808-4ff3-a9ef-ffb025a0cb5b","ios":"levelo://app?vid=eb30c045-7808-4ff3-a9ef-ffb025a0cb5b"},"vehicle_type_id":"4","last_reported":1706512032,"current_range_meters":0,"station_id":"ce4bhnh2rcd13ifvqgtg","pricing_plan_id":"free"},{"bike_id":"914464d5-a387-45eb-83da-3ffb8a60f0d7","system_id":"levelo_inurba_marseille","lat":43.278128,"lon":5.407195,"is_reserved":false,"is_disabled":false,"rental_uris":{"android":"levelo://app?vid=914464d5-a387-45eb-83da-3ffb8a60f0d7","ios":"levelo://app?vid=914464d5-a387-45eb-83da-3ffb8a60f0d7"},"vehicle_type_id":"4","last_reported":1706512032,"current_range_meters":14000,"station_id":"ce4bhnh2rcd13ifvqgtg","pricing_plan_id":"free"},{"bike_id":"252f36a9-5fae-41c6-8336-f6aaa89227f2","system_id":"levelo_inurba_marseille","lat":43.2781,"lon":5.4071,"is_reserved":false,"is_disabled":false,"rental_uris":{"android":"levelo://app?vid=252f36a9-5fae-41c6-8336-f6aaa89227f2","ios":"levelo://app?vid=252f36a9-5fae-41c6-8336-f6aaa89227f2"},"vehicle_type_id":"4","last_reported":1706512032,"current_range_meters":31200,"station_id":"","pricing_plan_id":"free"},{"bike_id":"af941994-837b-4bd1-9347-c6fab556d54d","system_id":"levelo_inurba_marseille","lat":43.269467,"lon":5.386439,"is_reserved":false,"is_disabled":false,"rental_uris":{"android":"levelo://app?vid=af941994-837b-4bd1-9347-c6fab556d54d","ios":"levelo://app?vid=af941994-837b-4bd1-9347-c6fab556d54d"},"vehicle_type_id":"4","last_reported":1706512032,"current_range_meters":24000,"station_id":"ce4bhh92rcd13ifvqfh0","pricing_plan_id":"free"},{"bike_id":"8dff8d70-5cf9-488b-9b61-3a63a622283b","system_id":"levelo_inurba_marseille","lat":43.269467,"lon":5.386439,"is_reserved":false,"is_disabled":false,"rental_uris":{"android":"levelo://app?vid=8dff8d70-5cf9-488b-9b61-3a63a622283b","ios":"levelo://app?vid=8dff8d70-5cf9-488b-9b61-3a63a622283b"},"vehicle_type_id":"4","last_reported":1706512032,"current_range_meters":20000,"station_id":"ce4bhh92rcd13ifvqfh0","pricing_plan_id":"free"},{"bike_id":"7efbbe2f-b0a9-430f-8bd9-45789c9ed86f","system_id":"levelo_inurba_marseille","lat":43.269467,"lon":5.386439,"is_reserved":false,"is_disabled":false,"rental_uris":{"android":"levelo://app?vid=7efbbe2f-b0a9-430f-8bd9-45789c9ed86f","ios":"levelo://app?vid=7efbbe2f-b0a9-430f-8bd9-45789c9ed86f"},"vehicle_type_id":"4","last_reported":1706512032,"current_range_meters":16800,"station_id":"ce4bhh92rcd13ifvqfh0","pricing_plan_id":"free"},{"bike_id":"67afd68a-fae1-4845-9880-a9aef032e99d","system_id":"levelo_inurba_marseille","lat":43.269467,"lon":5.386439,"is_reserved":false,"is_disabled":false,"rental_uris":{"android":"levelo://app?vid=67afd68a-fae1-4845-9880-a9aef032e99d","ios":"levelo://app?vid=67afd68a-fae1-4845-9880-a9aef032e99d"},"vehicle_type_id":"4","last_reported":1706512032,"current_range_meters":18000,"station_id":"ce4bhh92rcd13ifvqfh0","pricing_plan_id":"free"},{"bike_id":"b2b7bd76-e113-4878-85c6-2638d377559d","system_id":"levelo_inurba_marseille","lat":43.269467,"lon":5.386439,"is_reserved":false,"is_disabled":false,"rental_uris":{"android":"levelo://app?vid=b2b7bd76-e113-4878-85c6-2638d377559d","ios":"levelo://app?vid=b2b7bd76-e113-4878-85c6-2638d377559d"},"vehicle_type_id":"4","last_reported":1706512032,"current_range_meters":1600,"station_id":"ce4bhh92rcd13ifvqfh0","pricing_plan_id":"free"},{"bike_id":"9510ec21-9b17-497a-a8df-70ff60932f81","system_id":"levelo_inurba_marseille","lat":43.269467,"lon":5.386439,"is_reserved":false,"is_disabled":false,"rental_uris":{"android":"levelo://app?vid=9510ec21-9b17-497a-a8df-70ff60932f81","ios":"levelo://app?vid=9510ec21-9b17-497a-a8df-70ff60932f81"},"vehicle_type_id":"4","last_reported":1706512032,"current_range_meters":0,"station_id":"ce4bhh92rcd13ifvqfh0","pricing_plan_id":"free"},{"bike_id":"0582b064-12e0-4864-8783-8384f08bd9e7","system_id":"levelo_inurba_marseille","lat":43.26681,"lon":5.382694,"is_reserved":false,"is_disabled":false,"rental_uris":{"android":"levelo://app?vid=0582b064-12e0-4864-8783-8384f08bd9e7","ios":"levelo://app?vid=0582b064-12e0-4864-8783-8384f08bd9e7"},"vehicle_type_id":"4","last_reported":1706512032,"current_range_meters":22800,"station_id":"ce4bhg92rcd13ifvqf90","pricing_plan_id":"free"},{"bike_id":"7ade221e-e384-4822-8441-bc2bb6ef88a8","system_id":"levelo_inurba_marseille","lat":43.27996,"lon":5.416624,"is_reserved":false,"is_disabled":false,"rental_uris":{"android":"levelo://app?vid=7ade221e-e384-4822-8441-bc2bb6ef88a8","ios":"levelo://app?vid=7ade221e-e384-4822-8441-bc2bb6ef88a8"},"vehicle_type_id":"4","last_reported":1706512032,"current_range_meters":26800,"station_id":"ce4bho12rcd13ifvqh1g","pricing_plan_id":"free"},{"bike_id":"6270fb9b-3277-4f18-8499-4591e1dda462","system_id":"levelo_inurba_marseille","lat":43.27996,"lon":5.416624,"is_reserved":false,"is_disabled":false,"rental_uris":{"android":"levelo://app?vid=6270fb9b-3277-4f18-8499-4591e1dda462","ios":"levelo://app?vid=6270fb9b-3277-4f18-8499-4591e1dda462"},