{"last_updated":1761571516,"ttl":60,"version":"2.2","data":{"bikes":[{"bike_id":"04c2689d-f990-4457-b220-2b39e031ef7c","system_id":"levelo_inurba_marseille","lat":43.32354,"lon":5.36738,"is_reserved":false,"is_disabled":false,"rental_uris":{"android":"levelo://app?vid=04c2689d-f990-4457-b220-2b39e031ef7c","ios":"levelo://app?vid=04c2689d-f990-4457-b220-2b39e031ef7c"},"vehicle_type_id":"4","last_reported":1761571516,"current_range_meters":2800,"station_id":"ce4bhsh2rcd13ifvqi2g","pricing_plan_id":"cebpf4jnsgd1na2vs0mg"},{"bike_id":"dab36927-4328-48fa-bffb-145a737de07e","system_id":"levelo_inurba_marseille","lat":43.30799,"lon":5.43532,"is_reserved":false,"is_disabled":false,"rental_uris":{"android":"levelo://app?vid=dab36927-4328-48fa-bffb-145a737de07e","ios":"levelo://app?vid=dab36927-4328-48fa-bffb-145a737de07e"},"vehicle_type_id":"4","last_reported":1761571516,"current_range_meters":2800,"station_id":"ce4bhph2rcd13ifvqheg","pricing_plan_id":"cebpf4jnsgd1na2vs0mg"},{"bike_id":"23dc81a5-7a43-4651-90bb-2e616b746464","system_id":"levelo_inurba_marseille","lat":43.28458,"lon":5.35886,"is_reserved":false,"is_disabled":false,"rental_uris":{"android":"levelo://app?vid=23dc81a5-7a43-4651-90bb-2e616b746464","ios":"levelo://app?vid=23dc81a5-7a43-4651-90bb-2e616b746464"},"vehicle_type_id":"4","last_reported":1761571516,"current_range_meters":3200,"station_id":"ce4bhah2rcd13ifvqei0","pricing_plan_id":"cebpf4jnsgd1na2vs0mg"},{"bike_id":"007c905e-fd39-4b06-857c-994f45d16d72","system_id":"levelo_inurba_marseille","lat":43.27928,"lon":5.38761,"is_reserved":false,"is_disabled":false,"rental_uris":{"android":"levelo://app?vid=007c905e-fd39-4b06-857c-994f45d16d72","ios":"levelo://app?vid=007c905e-fd39-4b06-857c-994f45d16d72"},"vehicle_type_id":"4","last_reported":1761571516,"current_range_meters":3200,"station_id":"","pricing_plan_id":"cebpf4jnsgd1na2vs0mg"},{"bike_id":"8be6a47c-9542-4fed-8109-f6d91a0f2b3f","system_id":"levelo_inurba_marseille","lat":43.29174,"lon":5.37161,"is_reserved":false,"is_disabled":false,"rental_uris":{"android":"levelo://app?vid=8be6a47c-9542-4fed-8109-f6d91a0f2b3f","ios":"levelo://app?vid=8be6a47c-9542-4fed-8109-f6d91a0f2b3f"},"vehicle_type_id":"4","last_reported":1761571516,"current_range_meters":3600,"station_id":"ce4bha92rcd13ifvqeh0","pricing_plan_id":"cebpf4jnsgd1na2vs0mg"},{"bike_id":"2d305dc6-e68d-4fc0-af3c-18b4adb6047b","system_id":"levelo_inurba_marseille","lat":43.225311,"lon":5.34837,"is_reserved":false,"is_disabled":false,"rental_uris":{"android":"levelo://app?vid=2d305dc6-e68d-4fc0-af3c-18b4adb6047b","ios":"levelo://app?vid=2d305dc6-e68d-4fc0-af3c-18b4adb6047b"},"vehicle_type_id":"4","last_reported":1761571516,"current_range_meters":3600,"station_id":"","pricing_plan_id":"cebpf4jnsgd1na2vs0mg"},{"bike_id":"732fb6ad-d560-45d7-89e0-7cabf4536ca4","system_id":"levelo_inurba_marseille","lat":43.3042,"lon":5.41283,"is_reserved":false,"is_disabled":false,"rental_uris":{"android":"levelo://app?vid=732fb6ad-d560-45d7-89e0-7cabf4536ca4","ios":"levelo://app?vid=732fb6ad-d560-45d7-89e0-7cabf4536ca4"},"vehicle_type_id":"4","last_reported":1761571516,"current_range_meters":4000,"station_id":"ce4bhop2rcd13ifvqh8g","pricing_plan_id":"cebpf4jnsgd1na2vs0mg"},{"bike_id":"e3bf4460-a7c9-40ce-b0f7-7a9bf8e27cd2","system_id":"levelo_inurba_marseille","lat":43.26491,"lon":5.39539,"is_reserved":false,"is_disabled":false,"rental_uris":{"android":"levelo://app?vid=e3bf4460-a7c9-40ce-b0f7-7a9bf8e27cd2","ios":"levelo://app?vid=e3bf4460-a7c9-40ce-b0f7-7a9bf8e27cd2"},"vehicle_type_id":"4","last_reported":1761571516,"current_range_meters":4000,"station_id":"ce4bhi12rcd13ifvqfq0","pricing_plan_id":"cebpf4jnsgd1na2vs0mg"},{"bike_id":"e4d24b97-7b17-4da6-8674-bf2c1f581ba9","system_id":"levelo_inurba_marseille","lat":43.21175,"lon":5.35084,"is_reserved":false,"is_disabled":false,"rental_uris":{"android":"levelo://app?vid=e4d24b97-7b17-4da6-8674-bf2c1f581ba9","ios":"levelo://app?vid=e4d24b97-7b17-4da6-8674-bf2c1f581ba9"},"vehicle_type_id":"4","last_reported":1761571516,"current_range_meters":4800,"station_id":"","pricing_plan_id":"cebpf4jnsgd1na2vs0mg"},{"bike_id":"69880247-38f2-48e7-ab49-326f3d5eca30","system_id":"levelo_inurba_marseille","lat":43.21188,"lon":5.35082,"is_reserved":false,"is_disabled":false,"rental_uris":{"android":"levelo://app?vid=69880247-38f2-48e7-ab49-326f3d5eca30","ios":"levelo://app?vid=69880247-38f2-48e7-ab49-326f3d5eca30"},"vehicle_type_id":"4","last_reported":1761571516,"current_range_meters":4800,"station_id":"","pricing_plan_id":"cebpf4jnsgd1na2vs0mg"},{"bike_id":"c99ae753-bd0b-4ccb-88a1-41a87df8ad87","system_id":"levelo_inurba_marseille","lat":43.24657,"lon":5.38158,"is_reserved":false,"is_disabled":false,"rental_uris":{"android":"levelo://app?vid=c99ae753-bd0b-4ccb-88a1-41a87df8ad87","ios":"levelo://app?vid=c99ae753-bd0b-4ccb-88a1-41a87df8ad87"},"vehicle_type_id":"4","last_reported":1761571516,"current_range_meters":4800,"station_id":"ce4bhih2rcd13ifvqfr0","pricing_plan_id":"cebpf4jnsgd1na2vs0mg"},{"bike_id":"f9e18ee5-d0be-419a-be17-71f6b55ddba8","system_id":"levelo_inurba_marseille","lat":43.28725,"lon":5.36085,"is_reserved":false,"is_disabled":false,"rental_uris":{"android":"levelo://app?vid=f9e18ee5-d0be-419a-be17-71f6b55ddba8","ios":"levelo://app?vid=f9e18ee5-d0be-419a-be17-71f6b55ddba8"},"vehicle_type_id":"4","last_reported":1761571516,"current_range_meters":4800,"station_id":"cki0cbj6b192h4jlfktg","pricing_plan_id":"cebpf4jnsgd1na2vs0mg"},{"bike_id":"ecc2a654-ef40-420c-9c33-a03084b0430d","system_id":"levelo_inurba_marseille","lat":43.28257,"lon":5.35054,"is_reserved":false,"is_disabled":false,"rental_uris":{"android":"levelo://app?vid=ecc2a654-ef40-420c-9c33-a03084b0430d","ios":"levelo://app?vid=ecc2a654-ef40-420c-9c33-a03084b0430d"},"vehicle_type_id":"4","last_reported":1761571516,"current_range_meters":5600,"station_id":"ce4bhbp2rcd13ifvqerg","pricing_plan_id":"cebpf4jnsgd1na2vs0mg"},{"bike_id":"3f267a32-e1a8-4689-956e-3f9fdcca580b","system_id":"levelo_inurba_marseille","lat":43.289307,"lon":5.366423,"is_reserved":false,"is_disabled":false,"rental_uris":{"android":"levelo://app?vid=3f267a32-e1a8-4689-956e-3f9fdcca580b","ios":"levelo://app?vid=3f267a32-e1a8-4689-956e-3f9fdcca580b"},"vehicle_type_id":"4","last_reported":1761571516,"current_range_meters":5600,"station_id":"ce4bhap2rcd13ifvqek0","pricing_plan_id":"cebpf4jnsgd1na2vs0mg"},{"bike_id":"06166c92-463a-44f7-b1d4-c4efdf9f8f9c","system_id":"levelo_inurba_marseille","lat":43.29444,"lon":5.39747,"is_reserved":false,"is_disabled":false,"rental_uris":{"android":"levelo://app?vid=06166c92-463a-44f7-b1d4-c4efdf9f8f9c","ios":"levelo://app?vid=06166c92-463a-44f7-b1d4-c4efdf9f8f9c"},"vehicle_type_id":"4","last_reported":1761571516,"current_range_meters":5600,"station_id":"ce4bh3h2rcd13ifvqdo0","pricing_plan_id":"cebpf4jnsgd1na2vs0mg"},{"bike_id":"11ed3229-da96-464f-bee1-15ff06dff35a","system_id":"levelo_inurba_marseille","lat":43.21183,"lon":5.35074,"is_reserved":false,"is_disabled":false,"rental_uris":{"android":"levelo://app?vid=11ed3229-da96-464f-bee1-15ff06dff35a","ios":"levelo://app?vid=11ed3229-da96-464f-bee1-15ff06dff35a"},"vehicle_type_id":"4","last_reported":1761571516,"current_range_meters":6000,"station_id":"","pricing_plan_id":"cebpf4jnsgd1na2vs0mg"},{"bike_id":"9d943b33-e12f-4684-b457-eab990b642ab","system_id":"levelo_inurba_marseille","lat":43.21187,"lon":5.35093,"is_reserved":false,"is_disabled":false,"rental_uris":{"android":"levelo://app?vid=9d943b33-e12f-4684-b457-eab990b642ab","ios":"levelo://app?vid=9d943b33-e12f-4684-b457-eab990b642ab"},"vehicle_type_id":"4","last_reported":1761571516,"current_range_meters":6000,"station_id":"st_cvj6sg6p6f1abm77japg","pricing_plan_id":"cebpf4jnsgd1na2vs0mg"},{"bike_id":"8b035d2f-5cc0-42ec-a69c-3799adbc1d08","system_id":"levelo_inurba_marseille","lat":43.297062,"lon":5.376897,"is_reserved":false,"is_disabled":false,"rental_uris":{"android":"levelo://app?vid=8b035d2f-5cc0-42ec-a69c-3799adbc1d08","ios":"levelo://app?vid=8b035d2f-5cc0-42ec-a69c-3799adbc1d08"},"vehicle_type_id":"4","last_reported":1761571516,"current_range_meters":6000,"station_id":"ce4bgkh2rcd13ifvqbl0","pricing_plan_id":"cebpf4jnsgd1na2vs0mg"},{"bike_id":"59dd633f-dd7c-45be-a48b-38f13b526564","system_id":"levelo_inurba_marseille","lat":43.27916,"lon":5.39577,"is_reserved":false,"is_disabled":false,"rental_uris":{"android":"levelo://app?vid=59dd633f-dd7c-45be-a48b-38f13b526564","ios":"levelo://app?vid=59dd633f-dd7c-45be-a48b-38f13b526564"},"vehicle_type_id":"4","last_reported":1761571516,"current_range_meters":6000,"station_id":"ce4bhf92rcd13ifvqf40","pricing_plan_id":"cebpf4jnsgd1na2vs0mg"},{"bike_id":"13f12d24-3fc3-4202-88f0-68cc1be473cc","system_id":"levelo_inurba_marseille","lat":43.28509,"lon":5.44103,"is_reserved":false,"is_disabled":false,"rental_uris":{"android":"levelo://app?vid=13f12d24-3fc3-4202-88f0-68cc1be473cc","ios":"levelo://app?vid=13f12d24-3fc3-4202-88f0-68cc1be473cc"},"vehicle_type_id":"4","last_reported":1761571516,"current_range_meters":6400,"station_id":"st_d3j3df2ikq2c7380ej80","pricing_plan_id":"cebpf4jnsgd1na2vs0mg"},{"bike_id":"cefc6edf-256e-45ef-9d01-c5855b77467f","system_id":"levelo_inurba_marseille","lat":43.26937,"lon":5.38908,"is_reserved":false,"is_disabled":false,"rental_uris":{"android":"levelo://app?vid=cefc6edf-256e-45ef-9d01-c5855b77467f","ios":"levelo://app?vid=cefc6edf-256e-45ef-9d01-c5855b77467f"},"vehicle_type_id":"4","last_reported":1761571516,"current_range_meters":6800,"station_id":"ce4bhhh2rcd13ifvqfl0","pricing_plan_id":"cebpf4jnsgd1na2vs0mg"},{"bike_id":"6ee611b3-bf13-495e-a0dc-dfd1a8718271","system_id":"levelo_inurba_marseille","lat":43.29818,"lon":5.44075,"is_reserved":false,"is_disabled":false,"rental_uris":{"android":"levelo://app?vid=6ee611b3-bf13-495e-a0dc-dfd1a8718271","ios":"levelo://app?vid=6ee611b3-bf13-495e-a0dc-dfd1a8718271"},"vehicle_type_id":"4","last_reported":1761571516,"current_range_meters":6800,"station_id":"st_d3jp68qikq2c7381ktn0","pricing_plan_id":"cebpf4jnsgd1na2vs0mg"},{"bike_id":"0e9eb858-d09c-4e17-a085-9c4252698794","system_id":"levelo_inurba_marseille","lat":43.26948,"lon":5.38635,"is_reserved":false,"is_disabled":false,"rental_uris":{"android":"levelo://app?vid=0e9eb858-d09c-4e17-a085-9c4252698794","ios":"levelo://app?vid=0e9eb858-d09c-4e17-a085-9c4252698794"},"vehicle_type_id":"4","last_reported":1761571516,"current_range_meters":6800,"station_id":"ce4bhh92rcd13ifvqfh0","pricing_plan_id":"cebpf4jnsgd1na2vs0mg"},{"bike_id":"4ade9d83-f2d5-4d19-a54e-74fbd9ec2b53","system_id":"levelo_inurba_marseille","lat":43.32364,"lon":5.38884,"is_reserved":false,"is_disabled":false,"rental_uris":{"android":"levelo://app?vid=4ade9d83-f2d5-4d19-a54e-74fbd9ec2b53","ios":"levelo://app?vid=4ade9d83-f2d5-4d19-a54e-74fbd9ec2b53"},"vehicle_type_id":"4","last_reported":1761571516,"current_range_meters":6800,"station_id":"ce4bhqp2rcd13ifvqhog","pricing_plan_id":"cebpf4jnsgd1na2vs0mg"},{"bike_id":"e1aa20f8-799a-4567-bfd0-31e71eee617f","system_id":"levelo_inurba_marseille","lat":43.31437,"lon":5.38885,"is_reserved":false,"is_disabled":false,"rental_uris":{"android":"levelo://app?vid=e1aa20f8-799a-4567-bfd0-31e71eee617f","ios":"levelo://app?vid=e1aa20f8-799a-4567-bfd0-31e71eee617f"},"vehicle_type_id":"4","last_reported":1761571516,"current_range_meters":7200,"station_id":"","pricing_plan_id":"cebpf4jnsgd1na2vs0mg"},{"bike_id":"7f54a469-36a3-4431-8a9a-b07c3329af14","system_id":"levelo_inurba_marseille","lat":43.28409,"lon":5.37518,"is_reserved":false,"is_disabled":false,"rental_uris":{"android":"levelo://app?vid=7f54a469-36a3-4431-8a9a-b07c3329af14","ios":"levelo://app?vid=7f54a469-36a3-4431-8a9a-b07c3329af14"},"vehicle_type_id":"4","last_reported":1761571516,"current_range_meters":7200,"station_id":"ce4bh412rcd13ifvqds0","pricing_plan_id":"cebpf4jnsgd1na2vs0mg"},{"bike_id":"e272099a-410c-4d81-b1a2-b1486972a05d","system_id":"levelo_inurba_marseille","lat":43.27317,"lon":5.39098,"is_reserved":false,"is_disabled":false,"rental_uris":{"android":"levelo://app?vid=e272099a-410c-4d81-b1a2-b1486972a05d","ios":"levelo://app?vid=e272099a-410c-4d81-b1a2-b1486972a05d"},"vehicle_type_id":"4","last_reported":1761571516,"current_range_meters":7200,"station_id":"ce4bhgp2rcd13ifvqfe0","pricing_plan_id":"cebpf4jnsgd1na2vs0mg"},{"bike_id":"3ec3b237-0337-45dd-a8a3-b21d546dba40","system_id":"levelo_inurba_marseille","lat":43.24807,"lon":5.37456,"is_reserved":false,"is_disabled":false,"rental_uris":{"android":"levelo://app?vid=3ec3b237-0337-45dd-a8a3-b21d546dba40","ios":"levelo://app?vid=3ec3b237-0337-45dd-a8a3-b21d546dba40"},"vehicle_type_id":"4","last_reported":1761571516,"current_range_meters":7200,"station_id":"ce4bhgh2rcd13ifvqfb0","pricing_plan_id":"cebpf4jnsgd1na2vs0mg"},{"bike_id":"4ebfc9c9-75aa-4d2a-b7b8-7db1ded305e6","system_id":"levelo_inurba_marseille","lat":43.21197,"lon":5.35082,"is_reserved":false,"is_disabled":false,"rental_uris":{"android":"levelo://app?vid=4ebfc9c9-75aa-4d2a-b7b8-7db1ded305e6","ios":"levelo://app?vid=4ebfc9c9-75aa-4d2a-b7b8-7db1ded305e6"},"vehicle_type_id":"4","last_reported":1761571516,"current_range_meters":8400,"station_id":"","pricing_plan_id":"cebpf4jnsgd1na2vs0mg"},{"bike_id":"68d8a4ed-aaa3-4964-bb8d-19a7432c988d","system_id":"levelo_inurba_marseille","lat":43.32111,"lon":5.36791,"is_reserved":false,"is_disabled":false,"rental_uris":{"android":"levelo://app?vid=68d8a4ed-aaa3-4964-bb8d-19a7432c988d","ios":"levelo://app?vid=68d8a4ed-aaa3-4964-bb8d-19a7432c988d"},"vehicle_type_id":"4","last_reported":1761571516,"current_range_meters":8400,"station_id":"ce4bhrh2rcd13ifvqhug","pricing_plan_id":"cebpf4jnsgd1na2vs0mg"},{"bike_id":"2ff820dd-4701-4c44-978c-027d1723e1a8","system_id":"levelo_inurba_marseille","lat":43.2174,"lon":5.34639,"is_reserved":false,"is_disabled":false,"rental_uris":{"android":"levelo://app?vid=2ff820dd-4701-4c44-978c-027d1723e1a8","ios":"levelo://app?vid=2ff820dd-4701-4c44-978c-027d1723e1a8"},"vehicle_type_id":"4","last_reported":1761571516,"current_range_meters":8400,"station_id":"st_cvj6r9ubvosntc0bgbag","pricing_plan_id":"cebpf4jnsgd1na2vs0mg"},{"bike_id":"5947034f-19ea-4d71-bc4b-92db934cd50e","system_id":"levelo_inurba_marseille","lat":43.21191,"lon":5.3509,"is_reserved":false,"is_disabled":true,"rental_uris":{"android":"levelo://app?vid=5947034f-19ea-4d71-bc4b-92db934cd50e","ios":"levelo://app?vid=5947034f-19ea-4d71-bc4b-92db934cd50e"},"vehicle_type_id":"4","last_reported":1761571516,"current_range_meters":8400,"station_id":"st_cvj6sg6p6f1abm77japg","pricing_plan_id":"cebpf4jnsgd1na2vs0mg"},{"bike_id":"05a701db-a487-4abe-89cd-cd4a9360bd8d","system_id":"levelo_inurba_marseille","lat":43.2928,"lon":5.40113,"is_reserved":false,"is_disabled":false,"rental_uris":{"android":"levelo://app?vid=05a701db-a487-4abe-89cd-cd4a9360bd8d","ios":"levelo://app?vid=05a701db-a487-4abe-89cd-cd4a9360bd8d"},"vehicle_type_id":"4","last_reported":1761571516,"current_range_meters":8400,"station_id":"ce4bh312rcd13ifvqdk0","pricing_plan_id":"cebpf4jnsgd1na2vs0mg"},{"bike_id":"4821f22b-01c1-4803-a690-ee78cd33b063","system_id":"levelo_inurba_marseille","lat":43.29288,"lon":5.37425,"is_reserved":false,"is_disabled":false,"rental_uris":{"android":"levelo://app?vid=4821f22b-01c1-4803-a690-ee78cd33b063","ios":"levelo://app?vid=4821f22b-01c1-4803-a690-ee78cd33b063"},"vehicle_type_id":"4","last_reported":1761571516,"current_range_meters":8400,"station_id":"ce4bgi12rcd13ifvqb70","pricing_plan_id":"cebpf4jnsgd1na2vs0mg"},{"bike_id":"54a26065-ae65-4d07-947d-498eda9ead61","system_id":"levelo_inurba_marseille","lat":43.266806,"lon":5.382713,"is_reserved":false,"is_disabled":false,"rental_uris":{"android":"levelo://app?vid=54a26065-ae65-4d07-947d-498eda9ead61","ios":"levelo://app?vid=54a26065-ae65-4d07-947d-498eda9ead61"},"vehicle_type_id":"4","last_reported":1761571516,"current_range_meters":8800,"station_id":"ce4bhg92rcd13ifvqf90","pricing_plan_id":"cebpf4jnsgd1na2vs0mg"},{"bike_id":"c0b81f28-bbba-4247-a74b-c55a34b31846","system_id":"levelo_inurba_marseille","lat":43.33258,"lon":5.41086,"is_reserved":false,"is_disabled":false,"rental_uris":{"android":"levelo://app?vid=c0b81f28-bbba-4247-a74b-c55a34b31846","ios":"levelo://app?vid=c0b81f28-bbba-4247-a74b-c55a34b31846"},"vehicle_type_id":"4","last_reported":1761571516,"current_range_meters":8800,"station_id":"","pricing_plan_id":"cebpf4jnsgd1na2vs0mg"},{"bike_id":"376f37db-9367-433a-9ac4-7f57991dd845","system_id":"levelo_inurba_marseille","lat":43.32097,"lon":5.36777,"is_reserved":false,"is_disabled":false,"rental_uris":{"android":"levelo://app?vid=376f37db-9367-433a-9ac4-7f57991dd845","ios":"levelo://app?vid=376f37db-9367-433a-9ac4-7f57991dd845"},"vehicle_type_id":"4","last_reported":1761571516,"current_range_meters":8800,"station_id":"ce4bhrh2rcd13ifvqhug","pricing_plan_id":"cebpf4jnsgd1na2vs0mg"},{"bike_id":"41d45b45-3a52-4b5a-b2b3-1e62d5490ada","system_id":"levelo_inurba_marseille","lat":43.285392,"lon":5.440928,"is_reserved":false,"is_disabled":false,"rental_uris":{"android":"levelo://app?vid=41d45b45-3a52-4b5a-b2b3-1e62d5490ada","ios":"levelo://app?vid=41d45b45-3a52-4b5a-b2b3-1e62d5490ada"},"vehicle_type_id":"4","last_reported":1761571516,"current_range_meters":8800,"station_id":"st_d3j3df2ikq2c7380ej80","pricing_plan_id":"cebpf4jnsgd1na2vs0mg"},{"bike_id":"011d8fef-7a9a-416f-9b40-93ab2721768d","system_id":"levelo_inurba_marseille","lat":43.28268,"lon":5.35065,"is_reserved":false,"is_disabled":false,"rental_uris":{"android":"levelo://app?vid=011d8fef-7a9a-416f-9b40-93ab2721768d","ios":"levelo://app?vid=011d8fef-7a9a-416f-9b40-93ab2721768d"},"vehicle_type_id":"4","last_reported":1761571516,"current_range_meters":8800,"station_id":"ce4bhbp2rcd13ifvqerg","pricing_plan_id":"cebpf4jnsgd1na2vs0mg"},{"bike_id":"61e35669-bebb-443d-8601-985c12c6d9ec","system_id":"levelo_inurba_marseille","lat":43.324596,"lon":5.365517,"is_reserved":false,"is_disabled":false,"rental_uris":{"android":"levelo://app?vid=61e35669-bebb-443d-8601-985c12c6d9ec","ios":"levelo://app?vid=61e35669-bebb-443d-8601-985c12c6d9ec"},"vehicle_type_id":"4","last_reported":1761571516,"current_range_meters":8800,"station_id":"ce4bhs12rcd13ifvqhvg","pricing_plan_id":"cebpf4jnsgd1na2vs0mg"},{"bike_id":"67f8857f-0853-46d2-b9ef-96c5ce2639bc","system_id":"levelo_inurba_marseille","lat":43.230516,"lon":5.354931,"is_reserved":false,"is_disabled":false,"rental_uris":{"android":"levelo://app?vid=67f8857f-0853-46d2-b9ef-96c5ce2639bc","ios":"levelo://app?vid=67f8857f-0853-46d2-b9ef-96c5ce2639bc"},"vehicle_type_id":"4","last_reported":1761571516,"current_range_meters":8800,"station_id":"cpo3342slgdg3j2ifvpg","pricing_plan_id":"cebpf4jnsgd1na2vs0mg"},{"bike_id":"97bac470-9868-440d-8dcc-5261e8a2b70f","system_id":"levelo_inurba_marseille","lat":43.2679,"lon":5.39418,"is_reserved":false,"is_disabled":false,"rental_uris":{"android":"levelo://app?vid=97bac470-9868-440d-8dcc-5261e8a2b70f","ios":"levelo://app?vid=97bac470-9868-440d-8dcc-5261e8a2b70f"},"vehicle_type_id":"4","last_reported":1761571516,"current_range_meters":8800,"station_id":"ce4bhh12rcd13ifvqfg0","pricing_plan_id":"cebpf4jnsgd1na2vs0mg"},{"bike_id":"e80257ad-078d-4372-925c-fb433f33b9c1","system_id":"levelo_inurba_marseille","lat":43.29933,"lon":5.36549,"is_reserved":false,"is_disabled":false,"rental_uris":{"android":"levelo://app?vid=e80257ad-078d-4372-925c-fb433f33b9c1","ios":"levelo://app?vid=e80257ad-078d-4372-925c-fb433f33b9c1"},"vehicle_type_id":"4","last_reported":1761571516,"current_range_meters":8800,"station_id":"ce4bgm92rcd13ifvqbr0","pricing_plan_id":"cebpf4jnsgd1na2vs0mg"},{"bike_id":"af01d055-b0f4-4e21-ab26-45fb6440de15","system_id":"levelo_inurba_marseille","lat":43.29913,"lon":5.43655,"is_reserved":false,"is_disabled":false,"rental_uris":{"android":"levelo://app?vid=af01d055-b0f4-4e21-ab26-45fb6440de15","ios":"levelo://app?vid=af01d055-b0f4-4e21-ab26-45fb6440de15"},"vehicle_type_id":"4","last_reported":1761571516,"current_range_meters":8800,"station_id":"ce4bhpp2rcd13ifvqhfg","pricing_plan_id":"cebpf4jnsgd1na2vs0mg"},{"bike_id":"3424fce5-94a3-458b-b662-b3e84ffd197a","system_id":"levelo_inurba_marseille","lat":43.314923,"lon":5.373082,"is_reserved":false,"is_disabled":false,"rental_uris":{"android":"levelo://app?vid=3424fce5-94a3-458b-b662-b3e84ffd197a","ios":"levelo://app?vid=3424fce5-94a3-458b-b662-b3e84ffd197a"},"vehicle_type_id":"4","last_reported":1761571516,"current_range_meters":8800,"station_id":"ce4bgt12rcd13ifvqcd0","pricing_plan_id":"cebpf4jnsgd1na2vs0mg"},{"bike_id":"a51311be-d80c-4019-98d6-36109d7feaaf","system_id":"levelo_inurba_marseille","lat":43.284593,"lon":5.392073,"is_reserved":false,"is_disabled":false,"rental_uris":{"android":"levelo://app?vid=a51311be-d80c-4019-98d6-36109d7feaaf","ios":"levelo://app?vid=a51311be-d80c-4019-98d6-36109d7feaaf"},"vehicle_type_id":"4","last_reported":1761571516,"current_range_meters":9200,"station_id":"ce4bhoh2rcd13ifvqh5g","pricing_plan_id":"cebpf4jnsgd1na2vs0mg"},{"bike_id":"22b0c938-d6c3-4350-bc88-7ca45dd95686","system_id":"levelo_inurba_marseille","lat":43.29034,"lon":5.39968,"is_reserved":false,"is_disabled":false,"rental_uris":{"android":"levelo://app?vid=22b0c938-d6c3-4350-bc88-7ca45dd95686","ios":"levelo://app?vid=22b0c938-d6c3-4350-bc88-7ca45dd95686"},"vehicle_type_id":"4","last_reported":1761571516,"current_range_meters":9200,"station_id":"ce4bh392rcd13ifvqdm0","pricing_plan_id":"cebpf4jnsgd1na2vs0mg"},{"bike_id":"64b75b4a-3497-4861-8cc2-90dd62cd9f5e","system_id":"levelo_inurba_marseille","lat":43.293033,"lon":5.434456,"is_reserved":false,"is_disabled":false,"rental_uris":{"android":"levelo://app?vid=64b75b4a-3497-4861-8cc2-90dd62cd9f5e","ios":"levelo://app?vid=64b75b4a-3497-4861-8cc2-90dd62cd9f5e"},"vehicle_type_id":"4","last_reported":1761571516,"current_range_meters":9200,"station_id":"","pricing_plan_id":"cebpf4jnsgd1na2vs0mg"},{"bike_id":"6822357f-ef96-4552-9301-425075f3e3af","system_id":"levelo_inurba_marseille","lat":43.29572,"lon":5.39966,"is_reserved":false,"is_disabled":false,"rental_uris":{"android":"levelo://app?vid=6822357f-ef96-4552-9301-425075f3e3af","ios":"levelo://app?vid=6822357f-ef96-4552-9301-425075f3e3af"},"vehicle_type_id":"4","last_reported":1761571516,"current_range_meters":9200,"station_id":"ce4bh312rcd13ifvqdj0","pricing_plan_id":"cebpf4jnsgd1na2vs0mg"},{"bike_id":"e4ccce50-4824-4895-aa8c-033835526f23","system_id":"levelo_inurba_marseille","lat":43.318812,"lon":5.399784,"is_reserved":false,"is_disabled":false,"rental_uris":{"android":"levelo://app?vid=e4ccce50-4824-4895-aa8c-033835526f23","ios":"levelo://app?vid=e4ccce50-4824-4895-aa8c-033835526f23"},"vehicle_type_id":"4","last_reported":1761571516,"current_range_meters":9200,"station_id":"","pricing_plan_id":"cebpf4jnsgd1na2vs0mg"},{"bike_id":"de5cece4-6186-4ccb-b70e-a25e8bd3fc86","system_id":"levelo_inurba_marseille","lat":43.337444,"lon":5.374475,"is_reserved":false,"is_disabled":false,"rental_uris":{"android":"levelo://app?vid=de5cece4-6186-4ccb-b70e-a25e8bd3fc86","ios":"levelo://app?vid=de5cece4-6186-4ccb-b70e-a25e8bd3fc86"},"vehicle_type_id":"4","last_reported":1761571516,"current_range_meters":9200,"station_id":"","pricing_plan_id":"cebpf4jnsgd1na2vs0mg"},{"bike_id":"8847af5d-c1ad-4d8d-a5c1-273c3b41c105","system_id":"levelo_inurba_marseille","lat":43.322459,"lon":5.419618,"is_reserved":false,"is_disabled":false,"rental_uris":{"android":"levelo://app?vid=8847af5d-c1ad-4d8d-a5c1-273c3b41c105","ios":"levelo://app?vid=8847af5d-c1ad-4d8d-a5c1-273c3b41c105"},"vehicle_type_id":"4","last_reported":1761571516,"current_range_meters":9600,"station_id":"","pricing_plan_id":"cebpf4jnsgd1na2vs0mg"},{"bike_id":"de0ca7a8-116a-46c8-8c50-6b445a473423","system_id":"levelo_inurba_marseille","lat":43.288661,"lon":5.425113,"is_reserved":false,"is_disabled":false,"rental_uris":{"android":"levelo://app?vid=de0ca7a8-116a-46c8-8c50-6b445a473423","ios":"levelo://app?vid=de0ca7a8-116a-46c8-8c50-6b445a473423"},"vehicle_type_id":"4","last_reported":1761571516,"current_range_meters":9600,"station_id":"st_d3b462108ojc7389ooeg","pricing_plan_id":"cebpf4jnsgd1na2vs0mg"},{"bike_id":"b02621a3-04e8-4901-95b9-19eeb9e0667e","system_id":"levelo_inurba_marseille","lat":43.27918,"lon":5.39575,"is_reserved":false,"is_disabled":false,"rental_uris":{"android":"levelo://app?vid=b02621a3-04e8-4901-95b9-19eeb9e0667e","ios":"levelo://app?vid=b02621a3-04e8-4901-95b9-19eeb9e0667e"},"vehicle_type_id":"4","last_reported":1761571516,"current_range_meters":9600,"station_id":"ce4bhf92rcd13ifvqf40","pricing_plan_id":"cebpf4jnsgd1na2vs0mg"},{"bike_id":"6d869614-3604-49bd-a725-40ab1f26375d","system_id":"levelo_inurba_marseille","lat":43.30198,"lon":5.367551,"is_reserved":false,"is_disabled":false,"rental_uris":{"android":"levelo://app?vid=6d869614-3604-49bd-a725-40ab1f26375d","ios":"levelo://app?vid=6d869614-3604-49bd-a725-40ab1f26375d"},"vehicle_type_id":"4","last_reported":1761571516,"current_range_meters":9600,"station_id":"ce4bgrh2rcd13ifvqc8g","pricing_plan_id":"cebpf4jnsgd1na2vs0mg"},{"bike_id":"375b3fa6-4f19-4ffb-8f5d-26c47e160841","system_id":"levelo_inurba_marseille","lat":43.2175,"lon":5.34613,"is_reserved":false,"is_disabled":false,"rental_uris":{"android":"levelo://app?vid=375b3fa6-4f19-4ffb-8f5d-26c47e160841","ios":"levelo://app?vid=375b3fa6-4f19-4ffb-8f5d-26c47e160841"},"vehicle_type_id":"4","last_reported":1761571516,"current_range_meters":9600,"station_id":"","pricing_plan_id":"cebpf4jnsgd1na2vs0mg"},{"bike_id":"37bb548b-569b-423c-98db-d3196f763e5e","system_id":"levelo_inurba_marseille","lat":43.30918,"lon":5.40144,"is_reserved":false,"is_disabled":false,"rental_uris":{"android":"levelo://app?vid=37bb548b-569b-423c-98db-d3196f763e5e","ios":"levelo://app?vid=37bb548b-569b-423c-98db-d3196f763e5e"},"vehicle_type_id":"4","last_reported":1761571516,"current_range_meters":9600,"station_id":"ce4bgvp2rcd13ifvqct0","pricing_plan_id":"cebpf4jnsgd1na2vs0mg"},{"bike_id":"5ee15ca1-5c2c-433c-b44a-ff7c132f98b8","system_id":"levelo_inurba_marseille","lat":43.30949,"lon":5.39027,"is_reserved":false,"is_disabled":false,"rental_uris":{"android":"levelo://app?vid=5ee15ca1-5c2c-433c-b44a-ff7c132f98b8","ios":"levelo://app?vid=5ee15ca1-5c2c-433c-b44a-ff7c132f98b8"},"vehicle_type_id":"4","last_reported":1761571516,"current_range_meters":9600,"station_id":"ce4bgup2rcd13ifvqco0","pricing_plan_id":"cebpf4jnsgd1na2vs0mg"},{"bike_id":"6874060c-b03e-4d5e-95fe-78f50e66c087","system_id":"levelo_inurba_marseille","lat":43.27949,"lon":5.38701,"is_reserved":false,"is_disabled":false,"rental_uris":{"android":"levelo://app?vid=6874060c-b03e-4d5e-95fe-78f50e66c087","ios":"levelo://app?vid=6874060c-b03e-4d5e-95fe-78f50e66c087"},"vehicle_type_id":"4","last_reported":1761571516,"current_range_meters":10000,"station_id":"ce4bhg12rcd13ifvqf80","pricing_plan_id":"cebpf4jnsgd1na2vs0mg"},{"bike_id":"be4d2d06-17c8-4324-a0d4-486637fb6ddb","system_id":"levelo_inurba_marseille","lat":43.337228,"lon":5.391825,"is_reserved":false,"is_disabled":false,"rental_uris":{"android":"levelo://app?vid=be4d2d06-17c8-4324-a0d4-486637fb6ddb","ios":"levelo://app?vid=be4d2d06-17c8-4324-a0d4-486637fb6ddb"},"vehicle_type_id":"4","last_reported":1761571516,"current_range_meters":10000,"station_id":"ce4bhr92rcd13ifvqhsg","pricing_plan_id":"cebpf4jnsgd1na2vs0mg"},{"bike_id":"109eb898-c171-4330-adea-84bd1cfd3c1e","system_id":"levelo_inurba_marseille","lat":43.24809,"lon":5.37469,"is_reserved":false,"is_disabled":false,"rental_uris":{"android":"levelo://app?vid=109eb898-c171-4330-adea-84bd1cfd3c1e","ios":"levelo://app?vid=109eb898-c171-4330-adea-84bd1cfd3c1e"},"vehicle_type_id":"4","last_reported":1761571516,"current_range_meters":10000,"station_id":"ce4bhgh2rcd13ifvqfb0","pricing_plan_id":"cebpf4jnsgd1na2vs0mg"},{"bike_id":"7d05ab8a-a0b5-49bd-b15c-a8532de2f884","system_id":"levelo_inurba_marseille","lat":43.29967,"lon":5.38494,"is_reserved":false,"is_disabled":false,"rental_uris":{"android":"levelo://app?vid=7d05ab8a-a0b5-49bd-b15c-a8532de2f884","ios":"levelo://app?vid=7d05ab8a-a0b5-49bd-b15c-a8532de2f884"},"vehicle_type_id":"4","last_reported":1761571516,"current_range_meters":10800,"station_id":"ce4bgj92rcd13ifvqbd0","pricing_plan_id":"cebpf4jnsgd1na2vs0mg"},{"bike_id":"08b89487-7647-4a54-9c05-2a9b71119650","system_id":"levelo_inurba_marseille","lat":43.32498,"lon":5.36583,"is_reserved":false,"is_disabled":false,"rental_uris":{"android":"levelo://app?vid=08b89487-7647-4a54-9c05-2a9b71119650","ios":"levelo://app?vid=08b89487-7647-4a54-9c05-2a9b71119650"},"vehicle_type_id":"4","last_reported":1761571516,"current_range_meters":10800,"station_id":"ce4bhs12rcd13ifvqhvg","pricing_plan_id":"cebpf4jnsgd1na2vs0mg"},{"bike_id":"86b1e600-d976-4828-89ac-daae60b33dbe","system_id":"levelo_inurba_marseille","lat":43.27917,"lon":5.39598,"is_reserved":false,"is_disabled":false,"rental_uris":{"android":"levelo://app?vid=86b1e600-d976-4828-89ac-daae60b33dbe","ios":"levelo://app?vid=86b1e600-d976-4828-89ac-daae60b33dbe"},"vehicle_type_id":"4","last_reported":1761571516,"current_range_meters":10800,"station_id":"ce4bhf92rcd13ifvqf40","pricing_plan_id":"cebpf4jnsgd1na2vs0mg"},{"bike_id":"d9bb607d-1ecc-49cc-9f82-e52383a3bc84","system_id":"levelo_inurba_marseille","lat":43.29319,"lon":5.41162,"is_reserved":false,"is_disabled":false,"rental_uris":{"android":"levelo://app?vid=d9bb607d-1ecc-49cc-9f82-e52383a3bc84","ios":"levelo://app?vid=d9bb607d-1ecc-49cc-9f82-e52383a3bc84"},"vehicle_type_id":"4","last_reported":1761571516,"current_range_meters":10800,"station_id":"","pricing_plan_id":"cebpf4jnsgd1na2vs0mg"},{"bike_id":"81a1b6fb-1f88-4713-82cd-8758a38cffd9","system_id":"levelo_inurba_marseille","lat":43.211902,"lon":5.350728,"is_reserved":false,"is_disabled":false,"rental_uris":{"android":"levelo://app?vid=81a1b6fb-1f88-4713-82cd-8758a38cffd9","ios":"levelo://app?vid=81a1b6fb-1f88-4713-82cd-8758a38cffd9"},"vehicle_type_id":"4","last_reported":1761571516,"current_range_meters":10800,"station_id":"","pricing_plan_id":"cebpf4jnsgd1na2vs0mg"},{"bike_id":"d49cc5b5-d223-4671-b0f3-70fc877e09aa","system_id":"levelo_inurba_marseille","lat":43.243916,"lon":5.370721,"is_reserved":false,"is_disabled":false,"rental_uris":{"android":"levelo://app?vid=d49cc5b5-d223-4671-b0f3-70fc877e09aa","ios":"levelo://app?vid=d49cc5b5-d223-4671-b0f3-70fc877e09aa"},"vehicle_type_id":"4","last_reported":1761571516,"current_range_meters":10800,"station_id":"ce4bhhh2rcd13ifvqfk0","pricing_plan_id":"cebpf4jnsgd1na2vs0mg"},{"bike_id":"7348219f-62a2-4f61-9dc3-4c6ae6e126f0","system_id":"levelo_inurba_marseille","lat":43.33742,"lon":5.3747,"is_reserved":false,"is_disabled":false,"rental_uris":{"android":"levelo://app?vid=7348219f-62a2-4f61-9dc3-4c6ae6e126f0","ios":"levelo://app?vid=7348219f-62a2-4f61-9dc3-4c6ae6e126f0"},"vehicle_type_id":"4","last_reported":1761571516,"current_range_meters":11200,"station_id":"","pricing_plan_id":"cebpf4jnsgd1na2vs0mg"},{"bike_id":"75029131-1ad5-4d65-b62f-c7846ade473e","system_id":"levelo_inurba_marseille","lat":43.27998,"lon":5.41668,"is_reserved":false,"is_disabled":false,"rental_uris":{"android":"levelo://app?vid=75029131-1ad5-4d65-b62f-c7846ade473e","ios":"levelo://app?vid=75029131-1ad5-4d65-b62f-c7846ade473e"},"vehicle_type_id":"4","last_reported":1761571516,"current_range_meters":11200,"station_id":"ce4bho12rcd13ifvqh1g","pricing_plan_id":"cebpf4jnsgd1na2vs0mg"},{"bike_id":"074e93a8-2e56-4cef-ad9f-1f9c569d5487","system_id":"levelo_inurba_marseille","lat":43.29378,"lon":5.37847,"is_reserved":false,"is_disabled":false,"rental_uris":{"android":"levelo://app?vid=074e93a8-2e56-4cef-ad9f-1f9c569d5487","ios":"levelo://app?vid=074e93a8-2e56-4cef-ad9f-1f9c569d5487"},"vehicle_type_id":"4","last_reported":1761571516,"current_range_meters":11200,"station_id":"ce4bgjh2rcd13ifvqbf0","pricing_plan_id":"cebpf4jnsgd1na2vs0mg"},{"bike_id":"ce15d64c-7bd4-4017-a01a-0dc353c2995b","system_id":"levelo_inurba_marseille","lat":43.28139,"lon":5.35014,"is_reserved":false,"is_disabled":false,"rental_uris":{"android":"levelo://app?vid=ce15d64c-7bd4-4017-a01a-0dc353c2995b","ios":"levelo://app?vid=ce15d64c-7bd4-4017-a01a-0dc353c2995b"},"vehicle_type_id":"4","last_reported":1761571516,"current_range_meters":11200,"station_id":"","pricing_plan_id":"cebpf4jnsgd1na2vs0mg"},{"bike_id":"7ebed296-9c39-4448-8c31-14084ae11589","system_id":"levelo_inurba_marseille","lat":43.29594,"lon":5.38108,"is_reserved":false,"is_disabled":false,"rental_uris":{"android":"levelo://app?vid=7ebed296-9c39-4448-8c31-14084ae11589","ios":"levelo://app?vid=7ebed296-9c39-4448-8c31-14084ae11589"},"vehicle_type_id":"4","last_reported":1761571516,"current_range_meters":11600,"station_id":"ce4bgl12rcd13ifvqbo0","pricing_plan_id":"cebpf4jnsgd1na2vs0mg"},{"bike_id":"f3abec1d-9dd2-4b01-a9c2-3ab8313841fb","system_id":"levelo_inurba_marseille","lat":43.25581,"lon":5.38229,"is_reserved":false,"is_disabled":false,"rental_uris":{"android":"levelo://app?vid=f3abec1d-9dd2-4b01-a9c2-3ab8313841fb","ios":"levelo://app?vid=f3abec1d-9dd2-4b01-a9c2-3ab8313841fb"},"vehicle_type_id":"4","last_reported":1761571516,"current_range_meters":11600,"station_id":"ce4bhih2rcd13ifvqfs0","pricing_plan_id":"cebpf4jnsgd1na2vs0mg"},{"bike_id":"52cce6dd-966c-47b6-bd4f-5b01c560499c","system_id":"levelo_inurba_marseille","lat":43.30208,"lon":5.39465,"is_reserved":false,"is_disabled":false,"rental_uris":{"android":"levelo://app?vid=52cce6dd-966c-47b6-bd4f-5b01c560499c","ios":"levelo://app?vid=52cce6dd-966c-47b6-bd4f-5b01c560499c"},"vehicle_type_id":"4","last_reported":1761571516,"current_range_meters":12000,"station_id":"ce4bh0p2rcd13ifvqd70","pricing_plan_id":"cebpf4jnsgd1na2vs0mg"},{"bike_id":"6732d00e-aee4-4e74-86a8-102e9e82d502","system_id":"levelo_inurba_marseille","lat":43.26223,"lon":5.4045,"is_reserved":false,"is_disabled":false,"rental_uris":{"android":"levelo://app?vid=6732d00e-aee4-4e74-86a8-102e9e82d502","ios":"levelo://app?vid=6732d00e-aee4-4e74-86a8-102e9e82d502"},"vehicle_type_id":"4","last_reported":1761571516,"current_range_meters":12000,"station_id":"ce4bhmh2rcd13ifvqgmg","pricing_plan_id":"cebpf4jnsgd1na2vs0mg"},{"bike_id":"ee857c03-8d49-4905-b945-01a4149c21ad","system_id":"levelo_inurba_marseille","lat":43.28711,"lon":5.37933,"is_reserved":false,"is_disabled":false,"rental_uris":{"android":"levelo://app?vid=ee857c03-8d49-4905-b945-01a4149c21ad","ios":"levelo://app?vid=ee857c03-8d49-4905-b945-01a4149c21ad"},"vehicle_type_id":"4","last_reported":1761571516,"current_range_meters":12000,"station_id":"ce4bh9p2rcd13ifvqec0","pricing_plan_id":"cebpf4jnsgd1na2vs0mg"},{"bike_id":"ea3cd05b-a99e-443f-bfaf-420cbf57ca77","system_id":"levelo_inurba_marseille","lat":43.28496,"lon":5.38553,"is_reserved":false,"is_disabled":false,"rental_uris":{"android":"levelo://app?vid=ea3cd05b-a99e-443f-bfaf-420cbf57ca77","ios":"levelo://app?vid=ea3cd05b-a99e-443f-bfaf-420cbf57ca77"},"vehicle_type_id":"4","last_reported":1761571516,"current_range_meters":12400,"station_id":"ce4bh8p2rcd13ifvqeb0","pricing_plan_id":"cebpf4jnsgd1na2vs0mg"},{"bike_id":"a6c00af8-5e5f-43c9-b30c-69e1c8a8a70d","system_id":"levelo_inurba_marseille","lat":43.24067,"lon":5.37765,"is_reserved":false,"is_disabled":false,"rental_uris":{"android":"levelo://app?vid=a6c00af8-5e5f-43c9-b30c-69e1c8a8a70d","ios":"levelo://app?vid=a6c00af8-5e5f-43c9-b30c-69e1c8a8a70d"},"vehicle_type_id":"4","last_reported":1761571516,"current_range_meters":12400,"station_id":"ce4bhnp2rcd13ifvqgvg","pricing_plan_id":"cebpf4jnsgd1na2vs0mg"},{"bike_id":"71fe0d6a-f99e-45a0-9c75-e294b78524b2","system_id":"levelo_inurba_marseille","lat":43.21193,"lon":5.35081,"is_reserved":false,"is_disabled":false,"rental_uris":{"android":"levelo://app?vid=71fe0d6a-f99e-45a0-9c75-e294b78524b2","ios":"levelo://app?vid=71fe0d6a-f99e-45a0-9c75-e294b78524b2"},"vehicle_type_id":"4","last_reported":1761571516,"current_range_meters":12800,"station_id":"","pricing_plan_id":"cebpf4jnsgd1na2vs0mg"},{"bike_id":"d23bf304-8579-4071-b2a4-61dc68f83575","system_id":"levelo_inurba_marseille","lat":43.21195,"lon":5.35078,"is_reserved":false,"is_disabled":false,"rental_uris":{"android":"levelo://app?vid=d23bf304-8579-4071-b2a4-61dc68f83575","ios":"levelo://app?vid=d23bf304-8579-4071-b2a4-61dc68f83575"},"vehicle_type_id":"4","last_reported":1761571516,"current_range_meters":12800,"station_id":"","pricing_plan_id":"cebpf4jnsgd1na2vs0mg"},{"bike_id":"8ce4acf9-3cce-4a2c-80a0-2e9ba0bb1c6c","system_id":"levelo_inurba_marseille","lat":43.241806,"lon":5.397203,"is_reserved":false,"is_disabled":false,"rental_uris":{"android":"levelo://app?vid=8ce4acf9-3cce-4a2c-80a0-2e9ba0bb1c6c","ios":"levelo://app?vid=8ce4acf9-3cce-4a2c-80a0-2e9ba0bb1c6c"},"vehicle_type_id":"4","last_reported":1761571516,"current_range_meters":12800,"station_id":"ce4bhn12rcd13ifvqgpg","pricing_plan_id":"cebpf4jnsgd1na2vs0mg"},{"bike_id":"f6f41915-49e3-4fb8-8c5c-96d42e084e15","system_id":"levelo_inurba_marseille","lat":43.32028,"lon":5.37129,"is_reserved":false,"is_disabled":false,"rental_uris":{"android":"levelo://app?vid=f6f41915-49e3-4fb8-8c5c-96d42e084e15","ios":"levelo://app?vid=f6f41915-49e3-4fb8-8c5c-96d42e084e15"},"vehicle_type_id":"4","last_reported":1761571516,"current_range_meters":12800,"station_id":"","pricing_plan_id":"cebpf4jnsgd1na2vs0mg"},{"bike_id":"7178ce8c-8ec3-4fa9-a81d-cb6c24bb693b","system_id":"levelo_inurba_marseille","lat":43.29516,"lon":5.38525,"is_reserved":false,"is_disabled":false,"rental_uris":{"android":"levelo://app?vid=7178ce8c-8ec3-4fa9-a81d-cb6c24bb693b","ios":"levelo://app?vid=7178ce8c-8ec3-4fa9-a81d-cb6c24bb693b"},"vehicle_type_id":"4","last_reported":1761571516,"current_range_meters":13600,"station_id":"ce4bgih2rcd13ifvqba0","pricing_plan_id":"cebpf4jnsgd1na2vs0mg"},{"bike_id":"83106217-f024-4381-9607-50194d3370ce","system_id":"levelo_inurba_marseille","lat":43.24162,"lon":5.36387,"is_reserved":false,"is_disabled":false,"rental_uris":{"android":"levelo://app?vid=83106217-f024-4381-9607-50194d3370ce","ios":"levelo://app?vid=83106217-f024-4381-9607-50194d3370ce"},"vehicle_type_id":"4","last_reported":1761571516,"current_range_meters":13600,"station_id":"cpo36qri1sfpv3e86is0","pricing_plan_id":"cebpf4jnsgd1na2vs0mg"},{"bike_id":"a4f07943-0446-4c9f-b805-0a8fa1679b79","system_id":"levelo_inurba_marseille","lat":43.31117,"lon":5.37761,"is_reserved":false,"is_disabled":false,"rental_uris":{"android":"levelo://app?vid=a4f07943-0446-4c9f-b805-0a8fa1679b79","ios":"levelo://app?vid=a4f07943-0446-4c9f-b805-0a8fa1679b79"},"vehicle_type_id":"4","last_reported":1761571516,"current_range_meters":13600,"station_id":"ce4bgt92rcd13ifvqcg0","pricing_plan_id":"cebpf4jnsgd1na2vs0mg"},{"bike_id":"f3673a60-efd2-465f-aa18-cb0baaf105f7","system_id":"levelo_inurba_marseille","lat":43.32369,"lon":5.38883,"is_reserved":false,"is_disabled":false,"rental_uris":{"android":"levelo://app?vid=f3673a60-efd2-465f-aa18-cb0baaf105f7","ios":"levelo://app?vid=f3673a60-efd2-465f-aa18-cb0baaf105f7"},"vehicle_type_id":"4","last_reported":1761571516,"current_range_meters":13600,"station_id":"ce4bhqp2rcd13ifvqhog","pricing_plan_id":"cebpf4jnsgd1na2vs0mg"},{"bike_id":"dbbb35ab-b268-46c0-a37c-3ad17684ab3e","system_id":"levelo_inurba_marseille","lat":43.22932,"lon":5.35373,"is_reserved":false,"is_disabled":false,"rental_uris":{"android":"levelo://app?vid=dbbb35ab-b268-46c0-a37c-3ad17684ab3e","ios":"levelo://app?vid=dbbb35ab-b268-46c0-a37c-3ad17684ab3e"},"vehicle_type_id":"4","last_reported":1761571516,"current_range_meters":13600,"station_id":"cpo3532slgdg3j2ikp40","pricing_plan_id":"cebpf4jnsgd1na2vs0mg"},{"bike_id":"423e556f-17c4-4408-a1f1-7c1e84f1b6f8","system_id":"levelo_inurba_marseille","lat":43.23146,"lon":5.4372,"is_reserved":false,"is_disabled":false,"rental_uris":{"android":"levelo://app?vid=423e556f-17c4-4408-a1f1-7c1e84f1b6f8","ios":"levelo://app?vid=423e556f-17c4-4408-a1f1-7c1e84f1b6f8"},"vehicle_type_id":"4","last_reported":1761571516,"current_range_meters":13600,"station_id":"ce4bhmp2rcd13ifvqgog","pricing_plan_id":"cebpf4jnsgd1na2vs0mg"},{"bike_id":"02dd205b-e97c-4104-9683-066d2523fd3f","system_id":"levelo_inurba_marseille","lat":43.21192,"lon":5.3508,"is_reserved":false,"is_disabled":false,"rental_uris":{"android":"levelo://app?vid=02dd205b-e97c-4104-9683-066d2523fd3f","ios":"levelo://app?vid=02dd205b-e97c-4104-9683-066d2523fd3f"},"vehicle_type_id":"4","last_reported":1761571516,"current_range_meters":13600,"station_id":"","pricing_plan_id":"cebpf4jnsgd1na2vs0mg"},{"bike_id":"99604b58-d182-4334-99ee-a0cd33dddfef","system_id":"levelo_inurba_marseille","lat":43.294671,"lon":5.385812,"is_reserved":false,"is_disabled":false,"rental_uris":{"android":"levelo://app?vid=99604b58-d182-4334-99ee-a0cd33dddfef","ios":"levelo://app?vid=99604b58-d182-4334-99ee-a0cd33dddfef"},"vehicle_type_id":"4","last_reported":1761571516,"current_range_meters":13600,"station_id":"","pricing_plan_id":"cebpf4jnsgd1na2vs0mg"},{"bike_id":"d0c081ad-3486-48c9-8966-70405df77a5b","system_id":"levelo_inurba_marseille","lat":43.22934,"lon":5.353772,"is_reserved":false,"is_disabled":false,"rental_uris":{"android":"levelo://app?vid=d0c081ad-3486-48c9-8966-70405df77a5b","ios":"levelo://app?vid=d0c081ad-3486-48c9-8966-70405df77a5b"},"vehicle_type_id":"4","last_reported":1761571516,"current_range_meters":14000,"station_id":"cpo3532slgdg3j2ikp40","pricing_plan_id":"cebpf4jnsgd1na2vs0mg"},{"bike_id":"bbbf3dbb-fbe2-4b7e-bfad-c027ca4e1c25","system_id":"levelo_inurba_marseille","lat":43.284827,"lon":5.483887,"is_reserved":false,"is_disabled":false,"rental_uris":{"android":"levelo://app?vid=bbbf3dbb-fbe2-4b7e-bfad-c027ca4e1c25","ios":"levelo://app?vid=bbbf3dbb-fbe2-4b7e-bfad-c027ca4e1c25"},"vehicle_type_id":"4","last_reported":1761571516,"current_range_meters":14000,"station_id":"st_d3svhcjqgbts73a3dn0g","pricing_plan_id":"cebpf4jnsgd1na2vs0mg"},{"bike_id":"bc29db85-b8f7-430e-bb96-6bd4c1d7276b","system_id":"levelo_inurba_marseille","lat":43.29603,"lon":5.38097,"is_reserved":false,"is_disabled":false,"rental_uris":{"android":"levelo://app?vid=bc29db85-b8f7-430e-bb96-6bd4c1d7276b","ios":"levelo://app?vid=bc29db85-b8f7-430e-bb96-6bd4c1d7276b"},"vehicle_type_id":"4","last_reported":1761571516,"current_range_meters":14000,"station_id":"ce4bgl12rcd13ifvqbo0","pricing_plan_id":"cebpf4jnsgd1na2vs0mg"},{"bike_id":"b83891d3-7971-45ae-9af3-651a6e6209e2","system_id":"levelo_inurba_marseille","lat":43.23185,"lon":5.35574,"is_reserved":false,"is_disabled":true,"rental_uris":{"android":"levelo://app?vid=b83891d3-7971-45ae-9af3-651a6e6209e2","ios":"levelo://app?vid=b83891d3-7971-45ae-9af3-651a6e6209e2"},"vehicle_type_id":"4","last_reported":1761571516,"current_range_meters":14400,"station_id":"ce4bhu92rcd13ifvqi70","pricing_plan_id":"cebpf4jnsgd1na2vs0mg"},{"bike_id":"d24fde74-b7d1-4628-96c2-ff79b62e1cce","system_id":"levelo_inurba_marseille","lat":43.29808,"lon":5.38076,"is_reserved":false,"is_disabled":false,"rental_uris":{"android":"levelo://app?vid=d24fde74-b7d1-4628-96c2-ff79b62e1cce","ios":"levelo://app?vid=d24fde74-b7d1-4628-96c2-ff79b62e1cce"},"vehicle_type_id":"4","last_reported":1761571516,"current_range_meters":14400,"station_id":"ce4bgip2rcd13ifvqbb0","pricing_plan_id":"cebpf4jnsgd1na2vs0mg"},{"bike_id":"e92a5181-3093-4535-adde-2230374de0aa","system_id":"levelo_inurba_marseille","lat":43.313369,"lon":5.376761,"is_reserved":false,"is_disabled":false,"rental_uris":{"android":"levelo://app?vid=e92a5181-3093-4535-adde-2230374de0aa","ios":"levelo://app?vid=e92a5181-3093-4535-adde-2230374de0aa"},"vehicle_type_id":"4","last_reported":1761571516,"current_range_meters":14400,"station_id":"","pricing_plan_id":"cebpf4jnsgd1na2vs0mg"},{"bike_id":"1b7829fd-c993-41fc-94f6-0cddf3da8a25","system_id":"levelo_inurba_marseille","lat":43.248065,"lon":5.374636,"is_reserved":false,"is_disabled":false,"rental_uris":{"android":"levelo://app?vid=1b7829fd-c993-41fc-94f6-0cddf3da8a25","ios":"levelo://app?vid=1b7829fd-c993-41fc-94f6-0cddf3da8a25"},"vehicle_type_id":"4","last_reported":1761571516,"current_range_meters":14400,"station_id":"ce4bhgh2rcd13ifvqfb0","pricing_plan_id":"cebpf4jnsgd1na2vs0mg"},{"bike_id":"6b27b53b-ade4-4e59-9555-b40b30fb2fb2","system_id":"levelo_inurba_marseille","lat":43.25331,"lon":5.42176,"is_reserved":false,"is_disabled":false,"rental_uris":{"android":"levelo://app?vid=6b27b53b-ade4-4e59-9555-b40b30fb2fb2","ios":"levelo://app?vid=6b27b53b-ade4-4e59-9555-b40b30fb2fb2"},"vehicle_type_id":"4","last_reported":1761571516,"current_range_meters":14400,"station_id":"st_d2m65c5bi1j21697t3ng","pricing_plan_id":"cebpf4jnsgd1na2vs0mg"},{"bike_id":"1880ebb9-7edb-463e-976b-226e958b9ebe","system_id":"levelo_inurba_marseille","lat":43.31097,"lon":5.37487,"is_reserved":false,"is_disabled":false,"rental_uris":{"android":"levelo://app?vid=1880ebb9-7edb-463e-976b-226e958b9ebe","ios":"levelo://app?vid=1880ebb9-7edb-463e-976b-226e958b9ebe"},"vehicle_type_id":"4","last_reported":1761571516,"current_range_meters":14800,"station_id":"ce4bgt12rcd13ifvqce0","pricing_plan_id":"cebpf4jnsgd1na2vs0mg"},{"bike_id":"2319520a-fc10-4ea5-a5ca-d3a4702f6c7b","system_id":"levelo_inurba_marseille","lat":43.29891,"lon":5.43652,"is_reserved":false,"is_disabled":true,"rental_uris":{"android":"levelo://app?vid=2319520a-fc10-4ea5-a5ca-d3a4702f6c7b","ios":"levelo://app?vid=2319520a-fc10-4ea5-a5ca-d3a4702f6c7b"},"vehicle_type_id":"4","last_reported":1761571516,"current_range_meters":14800,"station_id":"ce4bhpp2rcd13ifvqhfg","pricing_plan_id":"cebpf4jnsgd1na2vs0mg"},{"bike_id":"c7415a86-5ec7-4a6b-972b-794e17f96f80","system_id":"levelo_inurba_marseille","lat":43.25114,"lon":5.4032,"is_reserved":false,"is_disabled":false,"rental_uris":{"android":"levelo://app?vid=c7415a86-5ec7-4a6b-972b-794e17f96f80","ios":"levelo://app?vid=c7415a86-5ec7-4a6b-972b-794e17f96f80"},"vehicle_type_id":"4","last_reported":1761571516,"current_range_meters":14800,"station_id":"ce4bhlh2rcd13ifvqgig","pricing_plan_id":"cebpf4jnsgd1na2vs0mg"},{"bike_id":"ee61bd0d-b678-4042-b727-ee6f292b98fd","system_id":"levelo_inurba_marseille","lat":43.27977,"lon":5.38736,"is_reserved":false,"is_disabled":false,"rental_uris":{"android":"levelo://app?vid=ee61bd0d-b678-4042-b727-ee6f292b98fd","ios":"levelo://app?vid=ee61bd0d-b678-4042-b727-ee6f292b98fd"},"vehicle_type_id":"4","last_reported":1761571516,"current_range_meters":14800,"station_id":"ce4bhg12rcd13ifvqf80","pricing_plan_id":"cebpf4jnsgd1na2vs0mg"},{"bike_id":"59c5b5f6-4dce-4263-8284-9f158e62d22f","system_id":"levelo_inurba_marseille","lat":43.257557,"lon":5.393373,"is_reserved":false,"is_disabled":false,"rental_uris":{"android":"levelo://app?vid=59c5b5f6-4dce-4263-8284-9f158e62d22f","ios":"levelo://app?vid=59c5b5f6-4dce-4263-8284-9f158e62d22f"},"vehicle_type_id":"4","last_reported":1761571516,"current_range_meters":14800,"station_id":"ce4bhip2rcd13ifvqft0","pricing_plan_id":"cebpf4jnsgd1na2vs0mg"},{"bike_id":"fdc43030-5704-454e-ad42-cd94061c06a1","system_id":"levelo_inurba_marseille","lat":43.321,"lon":5.36784,"is_reserved":false,"is_disabled":false,"rental_uris":{"android":"levelo://app?vid=fdc43030-5704-454e-ad42-cd94061c06a1","ios":"levelo://app?vid=fdc43030-5704-454e-ad42-cd94061c06a1"},"vehicle_type_id":"4","last_reported":1761571516,"current_range_meters":14800,"station_id":"ce4bhrh2rcd13ifvqhug","pricing_plan_id":"cebpf4jnsgd1na2vs0mg"},{"bike_id":"93ef566c-0909-48d1-8deb-d11c9c5aea5b","system_id":"levelo_inurba_marseille","lat":43.32332,"lon":5.36711,"is_reserved":false,"is_disabled":false,"rental_uris":{"android":"levelo://app?vid=93ef566c-0909-48d1-8deb-d11c9c5aea5b","ios":"levelo://app?vid=93ef566c-0909-48d1-8deb-d11c9c5aea5b"},"vehicle_type_id":"4","last_reported":1761571516,"current_range_meters":15200,"station_id":"ce4bhsh2rcd13ifvqi2g","pricing_plan_id":"cebpf4jnsgd1na2vs0mg"},{"bike_id":"b435c3eb-ac69-4665-bed8-d8c98496674c","system_id":"levelo_inurba_marseille","lat":43.231889,"lon":5.400135,"is_reserved":false,"is_disabled":false,"rental_uris":{"android":"levelo://app?vid=b435c3eb-ac69-4665-bed8-d8c98496674c","ios":"levelo://app?vid=b435c3eb-ac69-4665-bed8-d8c98496674c"},"vehicle_type_id":"4","last_reported":1761571516,"current_range_meters":15200,"station_id":"ce4bhn12rcd13ifvqgqg","pricing_plan_id":"cebpf4jnsgd1na2vs0mg"},{"bike_id":"72692e77-b537-477c-ba7d-fdff69794bfb","system_id":"levelo_inurba_marseille","lat":43.25342,"lon":5.42152,"is_reserved":false,"is_disabled":false,"rental_uris":{"android":"levelo://app?vid=72692e77-b537-477c-ba7d-fdff69794bfb","ios":"levelo://app?vid=72692e77-b537-477c-ba7d-fdff69794bfb"},"vehicle_type_id":"4","last_reported":1761571516,"current_range_meters":15200,"station_id":"st_d2m65c5bi1j21697t3ng","pricing_plan_id":"cebpf4jnsgd1na2vs0mg"},{"bike_id":"8f4138f1-129f-4dc2-a705-abd002b7d710","system_id":"levelo_inurba_marseille","lat":43.25581,"lon":5.38261,"is_reserved":false,"is_disabled":false,"rental_uris":{"android":"levelo://app?vid=8f4138f1-129f-4dc2-a705-abd002b7d710","ios":"levelo://app?vid=8f4138f1-129f-4dc2-a705-abd002b7d710"},"vehicle_type_id":"4","last_reported":1761571516,"current_range_meters":16000,"station_id":"ce4bhih2rcd13ifvqfs0","pricing_plan_id":"cebpf4jnsgd1na2vs0mg"},{"bike_id":"8e419f9d-51a8-4789-a256-555975ff55f9","system_id":"levelo_inurba_marseille","lat":43.304628,"lon":5.379069,"is_reserved":false,"is_disabled":false,"rental_uris":{"android":"levelo://app?vid=8e419f9d-51a8-4789-a256-555975ff55f9","ios":"levelo://app?vid=8e419f9d-51a8-4789-a256-555975ff55f9"},"vehicle_type_id":"4","last_reported":1761571516,"current_range_meters":16000,"station_id":"ce4bgup2rcd13ifvqcn0","pricing_plan_id":"cebpf4jnsgd1na2vs0mg"},{"bike_id":"a507e789-f440-40a8-85cf-09841d81676c","system_id":"levelo_inurba_marseille","lat":43.22527,"lon":5.3485,"is_reserved":false,"is_disabled":false,"rental_uris":{"android":"levelo://app?vid=a507e789-f440-40a8-85cf-09841d81676c","ios":"levelo://app?vid=a507e789-f440-40a8-85cf-09841d81676c"},"vehicle_type_id":"4","last_reported":1761571516,"current_range_meters":16000,"station_id":"","pricing_plan_id":"cebpf4jnsgd1na2vs0mg"},{"bike_id":"a3100ff0-76ab-498b-bebf-b9c52f3d2538","system_id":"levelo_inurba_marseille","lat":43.28477,"lon":5.484,"is_reserved":false,"is_disabled":false,"rental_uris":{"android":"levelo://app?vid=a3100ff0-76ab-498b-bebf-b9c52f3d2538","ios":"levelo://app?vid=a3100ff0-76ab-498b-bebf-b9c52f3d2538"},"vehicle_type_id":"4","last_reported":1761571516,"current_range_meters":16000,"station_id":"","pricing_plan_id":"cebpf4jnsgd1na2vs0mg"},{"bike_id":"4018917b-063a-443f-b00c-5121f423f29d","system_id":"levelo_inurba_marseille","lat":43.293224,"lon":5.375654,"is_reserved":false,"is_disabled":false,"rental_uris":{"android":"levelo://app?vid=4018917b-063a-443f-b00c-5121f423f29d","ios":"levelo://app?vid=4018917b-063a-443f-b00c-5121f423f29d"},"vehicle_type_id":"4","last_reported":1761571516,"current_range_meters":16000,"station_id":"ce4bgi12rcd13ifvqb70","pricing_plan_id":"cebpf4jnsgd1na2vs0mg"},{"bike_id":"4e9f2aab-f886-46f1-ae71-2d9553abaeb7","system_id":"levelo_inurba_marseille","lat":43.24377,"lon":5.37056,"is_reserved":false,"is_disabled":false,"rental_uris":{"android":"levelo://app?vid=4e9f2aab-f886-46f1-ae71-2d9553abaeb7","ios":"levelo://app?vid=4e9f2aab-f886-46f1-ae71-2d9553abaeb7"},"vehicle_type_id":"4","last_reported":1761571516,"current_range_meters":16000,"station_id":"ce4bhhh2rcd13ifvqfk0","pricing_plan_id":"cebpf4jnsgd1na2vs0mg"},{"bike_id":"b4f483e5-3aef-4504-8a58-16d4924c4fbe","system_id":"levelo_inurba_marseille","lat":43.29844,"lon":5.36271,"is_reserved":false,"is_disabled":false,"rental_uris":{"android":"levelo://app?vid=b4f483e5-3aef-4504-8a58-16d4924c4fbe","ios":"levelo://app?vid=b4f483e5-3aef-4504-8a58-16d4924c4fbe"},"vehicle_type_id":"4","last_reported":1761571516,"current_range_meters":16000,"station_id":"ce4bgpp2rcd13ifvqc3g","pricing_plan_id":"cebpf4jnsgd1na2vs0mg"},{"bike_id":"2086ffd5-71a4-454d-9729-5111dd9f045c","system_id":"levelo_inurba_marseille","lat":43.29721,"lon":5.36616,"is_reserved":false,"is_disabled":false,"rental_uris":{"android":"levelo://app?vid=2086ffd5-71a4-454d-9729-5111dd9f045c","ios":"levelo://app?vid=2086ffd5-71a4-454d-9729-5111dd9f045c"},"vehicle_type_id":"4","last_reported":1761571516,"current_range_meters":16400,"station_id":"ce4bgn12rcd13ifvqbt0","pricing_plan_id":"cebpf4jnsgd1na2vs0mg"},{"bike_id":"596e07e5-ee28-4f19-90c1-99ddc246077a","system_id":"levelo_inurba_marseille","lat":43.29757,"lon":5.42785,"is_reserved":false,"is_disabled":false,"rental_uris":{"android":"levelo://app?vid=596e07e5-ee28-4f19-90c1-99ddc246077a","ios":"levelo://app?vid=596e07e5-ee28-4f19-90c1-99ddc246077a"},"vehicle_type_id":"4","last_reported":1761571516,"current_range_meters":16400,"station_id":"st_d3md5207bmas73dh9klg","pricing_plan_id":"cebpf4jnsgd1na2vs0mg"},{"bike_id":"eea3c3c3-734f-4fd3-8061-ed84cfe47b38","system_id":"levelo_inurba_marseille","lat":43.32549,"lon":5.39148,"is_reserved":false,"is_disabled":false,"rental_uris":{"android":"levelo://app?vid=eea3c3c3-734f-4fd3-8061-ed84cfe47b38","ios":"levelo://app?vid=eea3c3c3-734f-4fd3-8061-ed84cfe47b38"},"vehicle_type_id":"4","last_reported":1761571516,"current_range_meters":16400,"station_id":"","pricing_plan_id":"cebpf4jnsgd1na2vs0mg"},{"bike_id":"04f05742-34e4-4285-9012-d64d097608c7","system_id":"levelo_inurba_marseille","lat":43.25866,"lon":5.39905,"is_reserved":false,"is_disabled":false,"rental_uris":{"android":"levelo://app?vid=04f05742-34e4-4285-9012-d64d097608c7","ios":"levelo://app?vid=04f05742-34e4-4285-9012-d64d097608c7"},"vehicle_type_id":"4","last_reported":1761571516,"current_range_meters":16400,"station_id":"ce4bhl92rcd13ifvqghg","pricing_plan_id":"cebpf4jnsgd1na2vs0mg"},{"bike_id":"f41a6845-02a5-45fd-8f67-03fd68d78092","system_id":"levelo_inurba_marseille","lat":43.297528,"lon":5.427817,"is_reserved":false,"is_disabled":false,"rental_uris":{"android":"levelo://app?vid=f41a6845-02a5-45fd-8f67-03fd68d78092","ios":"levelo://app?vid=f41a6845-02a5-45fd-8f67-03fd68d78092"},"vehicle_type_id":"4","last_reported":1761571516,"current_range_meters":16400,"station_id":"st_d3md5207bmas73dh9klg","pricing_plan_id":"cebpf4jnsgd1na2vs0mg"},{"bike_id":"2fc1f180-acee-43e1-8d09-beee254fde53","system_id":"levelo_inurba_marseille","lat":43.31078,"lon":5.42437,"is_reserved":false,"is_disabled":false,"rental_uris":{"android":"levelo://app?vid=2fc1f180-acee-43e1-8d09-beee254fde53","ios":"levelo://app?vid=2fc1f180-acee-43e1-8d09-beee254fde53"},"vehicle_type_id":"4","last_reported":1761571516,"current_range_meters":16400,"station_id":"ce4bhp92rcd13ifvqhag","pricing_plan_id":"cebpf4jnsgd1na2vs0mg"},{"bike_id":"21dbf7f2-eb19-4663-b1c0-879822879492","system_id":"levelo_inurba_marseille","lat":43.337631,"lon":5.374577,"is_reserved":false,"is_disabled":false,"rental_uris":{"android":"levelo://app?vid=21dbf7f2-eb19-4663-b1c0-879822879492","ios":"levelo://app?vid=21dbf7f2-eb19-4663-b1c0-879822879492"},"vehicle_type_id":"4","last_reported":1761571516,"current_range_meters":16400,"station_id":"","pricing_plan_id":"cebpf4jnsgd1na2vs0mg"},{"bike_id":"308b83e5-7cab-40fd-bf77-4ff48e75c52b","system_id":"levelo_inurba_marseille","lat":43.32536,"lon":5.41452,"is_reserved":false,"is_disabled":false,"rental_uris":{"android":"levelo://app?vid=308b83e5-7cab-40fd-bf77-4ff48e75c52b","ios":"levelo://app?vid=308b83e5-7cab-40fd-bf77-4ff48e75c52b"},"vehicle_type_id":"4","last_reported":1761571516,"current_range_meters":16800,"station_id":"ce4bhq12rcd13ifvqhhg","pricing_plan_id":"cebpf4jnsgd1na2vs0mg"},{"bike_id":"6a1d2475-9b76-4fee-b2c9-3a1f0ed26a05","system_id":"levelo_inurba_marseille","lat":43.24193,"lon":5.39732,"is_reserved":false,"is_disabled":false,"rental_uris":{"android":"levelo://app?vid=6a1d2475-9b76-4fee-b2c9-3a1f0ed26a05","ios":"levelo://app?vid=6a1d2475-9b76-4fee-b2c9-3a1f0ed26a05"},"vehicle_type_id":"4","last_reported":1761571516,"current_range_meters":16800,"station_id":"ce4bhn12rcd13ifvqgpg","pricing_plan_id":"cebpf4jnsgd1na2vs0mg"},{"bike_id":"7a2db725-bbd2-4faf-ad2b-6cbc12302a78","system_id":"levelo_inurba_marseille","lat":43.31239,"lon":5.36882,"is_reserved":false,"is_disabled":false,"rental_uris":{"android":"levelo://app?vid=7a2db725-bbd2-4faf-ad2b-6cbc12302a78","ios":"levelo://app?vid=7a2db725-bbd2-4faf-ad2b-6cbc12302a78"},"vehicle_type_id":"4","last_reported":1761571516,"current_range_meters":16800,"station_id":"ce4bgl92rcd13ifvqbq0","pricing_plan_id":"cebpf4jnsgd1na2vs0mg"},{"bike_id":"6707e9ca-92a2-4e95-8654-3b145595537a","system_id":"levelo_inurba_marseille","lat":43.29839,"lon":5.36258,"is_reserved":false,"is_disabled":false,"rental_uris":{"android":"levelo://app?vid=6707e9ca-92a2-4e95-8654-3b145595537a","ios":"levelo://app?vid=6707e9ca-92a2-4e95-8654-3b145595537a"},"vehicle_type_id":"4","last_reported":1761571516,"current_range_meters":16800,"station_id":"ce4bgpp2rcd13ifvqc3g","pricing_plan_id":"cebpf4jnsgd1na2vs0mg"},{"bike_id":"8d2992fb-f4e0-4592-8dd5-3f18a4027db6","system_id":"levelo_inurba_marseille","lat":43.25335,"lon":5.42169,"is_reserved":false,"is_disabled":false,"rental_uris":{"android":"levelo://app?vid=8d2992fb-f4e0-4592-8dd5-3f18a4027db6","ios":"levelo://app?vid=8d2992fb-f4e0-4592-8dd5-3f18a4027db6"},"vehicle_type_id":"4","last_reported":1761571516,"current_range_meters":16800,"station_id":"st_d2m65c5bi1j21697t3ng","pricing_plan_id":"cebpf4jnsgd1na2vs0mg"},{"bike_id":"b689a5bf-875d-4ab1-9212-a71e85899faa","system_id":"levelo_inurba_marseille","lat":43.29756,"lon":5.42784,"is_reserved":false,"is_disabled":false,"rental_uris":{"android":"levelo://app?vid=b689a5bf-875d-4ab1-9212-a71e85899faa","ios":"levelo://app?vid=b689a5bf-875d-4ab1-9212-a71e85899faa"},"vehicle_type_id":"4","last_reported":1761571516,"current_range_meters":17200,"station_id":"st_d3md5207bmas73dh9klg","pricing_plan_id":"cebpf4jnsgd1na2vs0mg"},{"bike_id":"0bbc239a-da27-4714-a802-1c546dd89778","system_id":"levelo_inurba_marseille","lat":43.23137,"lon":5.43726,"is_reserved":false,"is_disabled":false,"rental_uris":{"android":"levelo://app?vid=0bbc239a-da27-4714-a802-1c546dd89778","ios":"levelo://app?vid=0bbc239a-da27-4714-a802-1c546dd89778"},"vehicle_type_id":"4","last_reported":1761571516,"current_range_meters":17200,"station_id":"ce4bhmp2rcd13ifvqgog","pricing_plan_id":"cebpf4jnsgd1na2vs0mg"},{"bike_id":"6a1a55ad-c77c-45d1-8484-96b357459efb","system_id":"levelo_inurba_marseille","lat":43.2572,"lon":5.41113,"is_reserved":false,"is_disabled":false,"rental_uris":{"android":"levelo://app?vid=6a1a55ad-c77c-45d1-8484-96b357459efb","ios":"levelo://app?vid=6a1a55ad-c77c-45d1-8484-96b357459efb"},"vehicle_type_id":"4","last_reported":1761571516,"current_range_meters":17600,"station_id":"ce4bhkp2rcd13ifvqgd0","pricing_plan_id":"cebpf4jnsgd1na2vs0mg"},{"bike_id":"f686f749-a715-4c0d-a8c1-9ecfd52d7f7d","system_id":"levelo_inurba_marseille","lat":43.29963,"lon":5.38501,"is_reserved":false,"is_disabled":false,"rental_uris":{"android":"levelo://app?vid=f686f749-a715-4c0d-a8c1-9ecfd52d7f7d","ios":"levelo://app?vid=f686f749-a715-4c0d-a8c1-9ecfd52d7f7d"},"vehicle_type_id":"4","last_reported":1761571516,"current_range_meters":17600,"station_id":"ce4bgj92rcd13ifvqbd0","pricing_plan_id":"cebpf4jnsgd1na2vs0mg"},{"bike_id":"d7b556e6-ac3d-4fe4-b136-c7cd05c756e3","system_id":"levelo_inurba_marseille","lat":43.21203,"lon":5.35084,"is_reserved":false,"is_disabled":false,"rental_uris":{"android":"levelo://app?vid=d7b556e6-ac3d-4fe4-b136-c7cd05c756e3","ios":"levelo://app?vid=d7b556e6-ac3d-4fe4-b136-c7cd05c756e3"},"vehicle_type_id":"4","last_reported":1761571516,"current_range_meters":17600,"station_id":"","pricing_plan_id":"cebpf4jnsgd1na2vs0mg"},{"bike_id":"0709da96-3569-4b3f-9bc8-3bb4680af42a","system_id":"levelo_inurba_marseille","lat":43.31518,"lon":5.37342,"is_reserved":false,"is_disabled":false,"rental_uris":{"android":"levelo://app?vid=0709da96-3569-4b3f-9bc8-3bb4680af42a","ios":"levelo://app?vid=0709da96-3569-4b3f-9bc8-3bb4680af42a"},"vehicle_type_id":"4","last_reported":1761571516,"current_range_meters":17600,"station_id":"ce4bgt12rcd13ifvqcd0","pricing_plan_id":"cebpf4jnsgd1na2vs0mg"},{"bike_id":"d5ca831f-8041-403e-ada8-7b4196c3d5be","system_id":"levelo_inurba_marseille","lat":43.293714,"lon":5.379385,"is_reserved":false,"is_disabled":false,"rental_uris":{"android":"levelo://app?vid=d5ca831f-8041-403e-ada8-7b4196c3d5be","ios":"levelo://app?vid=d5ca831f-8041-403e-ada8-7b4196c3d5be"},"vehicle_type_id":"4","last_reported":1761571516,"current_range_meters":17600,"station_id":"","pricing_plan_id":"cebpf4jnsgd1na2vs0mg"},{"bike_id":"99fa14d4-29ae-41ae-b6a1-973c3ac28e67","system_id":"levelo_inurba_marseille","lat":43.26785,"lon":5.39427,"is_reserved":false,"is_disabled":false,"rental_uris":{"android":"levelo://app?vid=99fa14d4-29ae-41ae-b6a1-973c3ac28e67","ios":"levelo://app?vid=99fa14d4-29ae-41ae-b6a1-973c3ac28e67"},"vehicle_type_id":"4","last_reported":1761571516,"current_range_meters":17600,"station_id":"ce4bhh12rcd13ifvqfg0","pricing_plan_id":"cebpf4jnsgd1na2vs0mg"},{"bike_id":"584373b2-7857-4514-ba1b-a8cbf8f807e7","system_id":"levelo_inurba_marseille","lat":43.29862,"lon":5.36283,"is_reserved":false,"is_disabled":false,"rental_uris":{"android":"levelo://app?vid=584373b2-7857-4514-ba1b-a8cbf8f807e7","ios":"levelo://app?vid=584373b2-7857-4514-ba1b-a8cbf8f807e7"},"vehicle_type_id":"4","last_reported":1761571516,"current_range_meters":18000,"station_id":"ce4bgpp2rcd13ifvqc3g","pricing_plan_id":"cebpf4jnsgd1na2vs0mg"},{"bike_id":"3e08389d-ca7a-4fac-9b52-30bf1c70bb2e","system_id":"levelo_inurba_marseille","lat":43.29025,"lon":5.35915,"is_reserved":false,"is_disabled":false,"rental_uris":{"android":"levelo://app?vid=3e08389d-ca7a-4fac-9b52-30bf1c70bb2e","ios":"levelo://app?vid=3e08389d-ca7a-4fac-9b52-30bf1c70bb2e"},"vehicle_type_id":"4","last_reported":1761571516,"current_range_meters":18000,"station_id":"ce4bha92rcd13ifvqeg0","pricing_plan_id":"cebpf4jnsgd1na2vs0mg"},{"bike_id":"72ff869f-50e0-4045-a920-3ad975f90c2e","system_id":"levelo_inurba_marseille","lat":43.323719,"lon":5.367638,"is_reserved":false,"is_disabled":false,"rental_uris":{"android":"levelo://app?vid=72ff869f-50e0-4045-a920-3ad975f90c2e","ios":"levelo://app?vid=72ff869f-50e0-4045-a920-3ad975f90c2e"},"vehicle_type_id":"4","last_reported":1761571516,"current_range_meters":18000,"station_id":"ce4bhsh2rcd13ifvqi2g","pricing_plan_id":"cebpf4jnsgd1na2vs0mg"},{"bike_id":"bff7a602-9b8d-4ed2-8903-f931dec6a0c0","system_id":"levelo_inurba_marseille","lat":43.28718,"lon":5.37954,"is_reserved":false,"is_disabled":false,"rental_uris":{"android":"levelo://app?vid=bff7a602-9b8d-4ed2-8903-f931dec6a0c0","ios":"levelo://app?vid=bff7a602-9b8d-4ed2-8903-f931dec6a0c0"},"vehicle_type_id":"4","last_reported":1761571516,"current_range_meters":18000,"station_id":"ce4bh9p2rcd13ifvqec0","pricing_plan_id":"cebpf4jnsgd1na2vs0mg"},{"bike_id":"a630ed88-3f05-4926-bbab-8387ab6b6a28","system_id":"levelo_inurba_marseille","lat":43.23161,"lon":5.43714,"is_reserved":false,"is_disabled":true,"rental_uris":{"android":"levelo://app?vid=a630ed88-3f05-4926-bbab-8387ab6b6a28","ios":"levelo://app?vid=a630ed88-3f05-4926-bbab-8387ab6b6a28"},"vehicle_type_id":"4","last_reported":1761571516,"current_range_meters":18000,"station_id":"ce4bhmp2rcd13ifvqgog","pricing_plan_id":"cebpf4jnsgd1na2vs0mg"},{"bike_id":"09ae951d-1c9a-4fd0-aedf-ecb87f9a390f","system_id":"levelo_inurba_marseille","lat":43.29267,"lon":5.38436,"is_reserved":false,"is_disabled":false,"rental_uris":{"android":"levelo://app?vid=09ae951d-1c9a-4fd0-aedf-ecb87f9a390f","ios":"levelo://app?vid=09ae951d-1c9a-4fd0-aedf-ecb87f9a390f"},"vehicle_type_id":"4","last_reported":1761571516,"current_range_meters":18000,"station_id":"ce4bh692rcd13ifvqea0","pricing_plan_id":"cebpf4jnsgd1na2vs0mg"},{"bike_id":"6259f55b-2b03-426c-926a-c8a432bd1482","system_id":"levelo_inurba_marseille","lat":43.217508,"lon":5.346022,"is_reserved":false,"is_disabled":false,"rental_uris":{"android":"levelo://app?vid=6259f55b-2b03-426c-926a-c8a432bd1482","ios":"levelo://app?vid=6259f55b-2b03-426c-926a-c8a432bd1482"},"vehicle_type_id":"4","last_reported":1761571516,"current_range_meters":18000,"station_id":"","pricing_plan_id":"cebpf4jnsgd1na2vs0mg"},{"bike_id":"9d6ebb60-55e6-46a9-ba31-95a0cf5357d6","system_id":"levelo_inurba_marseille","lat":43.30321,"lon":5.40436,"is_reserved":false,"is_disabled":false,"rental_uris":{"android":"levelo://app?vid=9d6ebb60-55e6-46a9-ba31-95a0cf5357d6","ios":"levelo://app?vid=9d6ebb60-55e6-46a9-ba31-95a0cf5357d6"},"vehicle_type_id":"4","last_reported":1761571516,"current_range_meters":18000,"station_id":"ce4bh012rcd13ifvqd10","pricing_plan_id":"cebpf4jnsgd1na2vs0mg"},{"bike_id":"edf5f0fb-0959-44c0-b6b3-9db9d272d2c0","system_id":"levelo_inurba_marseille","lat":43.2418,"lon":5.39739,"is_reserved":false,"is_disabled":false,"rental_uris":{"android":"levelo://app?vid=edf5f0fb-0959-44c0-b6b3-9db9d272d2c0","ios":"levelo://app?vid=edf5f0fb-0959-44c0-b6b3-9db9d272d2c0"},"vehicle_type_id":"4","last_reported":1761571516,"current_range_meters":18800,"station_id":"ce4bhn12rcd13ifvqgpg","pricing_plan_id":"cebpf4jnsgd1na2vs0mg"},{"bike_id":"2484d73d-0ed9-4aeb-b08e-8d8cbd56d7f7","system_id":"levelo_inurba_marseille","lat":43.312379,"lon":5.368484,"is_reserved":false,"is_disabled":false,"rental_uris":{"android":"levelo://app?vid=2484d73d-0ed9-4aeb-b08e-8d8cbd56d7f7","ios":"levelo://app?vid=2484d73d-0ed9-4aeb-b08e-8d8cbd56d7f7"},"vehicle_type_id":"4","last_reported":1761571516,"current_range_meters":18800,"station_id":"ce4bgr92rcd13ifvqc6g","pricing_plan_id":"cebpf4jnsgd1na2vs0mg"},{"bike_id":"34c10aaa-7627-4124-af3d-822f6353dea1","system_id":"levelo_inurba_marseille","lat":43.30523,"lon":5.36693,"is_reserved":false,"is_disabled":false,"rental_uris":{"android":"levelo://app?vid=34c10aaa-7627-4124-af3d-822f6353dea1","ios":"levelo://app?vid=34c10aaa-7627-4124-af3d-822f6353dea1"},"vehicle_type_id":"4","last_reported":1761571516,"current_range_meters":18800,"station_id":"ce4bgrp2rcd13ifvqc9g","pricing_plan_id":"cebpf4jnsgd1na2vs0mg"},{"bike_id":"f7cbe814-07dc-4154-b268-c6992232000f","system_id":"levelo_inurba_marseille","lat":43.28923,"lon":5.3841,"is_reserved":false,"is_disabled":false,"rental_uris":{"android":"levelo://app?vid=f7cbe814-07dc-4154-b268-c6992232000f","ios":"levelo://app?vid=f7cbe814-07dc-4154-b268-c6992232000f"},"vehicle_type_id":"4","last_reported":1761571516,"current_range_meters":18800,"station_id":"ce4bh612rcd13ifvqe6g","pricing_plan_id":"cebpf4jnsgd1na2vs0mg"},{"bike_id":"c077a0d8-f2c1-408f-87f9-a50aade9ee98","system_id":"levelo_inurba_marseille","lat":43.2927,"lon":5.37632,"is_reserved":false,"is_disabled":false,"rental_uris":{"android":"levelo://app?vid=c077a0d8-f2c1-408f-87f9-a50aade9ee98","ios":"levelo://app?vid=c077a0d8-f2c1-408f-87f9-a50aade9ee98"},"vehicle_type_id":"4","last_reported":1761571516,"current_range_meters":18800,"station_id":"ce4bgi12rcd13ifvqb80","pricing_plan_id":"cebpf4jnsgd1na2vs0mg"},{"bike_id":"61830560-5fe4-40b5-af07-6f953e4f955b","system_id":"levelo_inurba_marseille","lat":43.262085,"lon":5.374418,"is_reserved":false,"is_disabled":false,"rental_uris":{"android":"levelo://app?vid=61830560-5fe4-40b5-af07-6f953e4f955b","ios":"levelo://app?vid=61830560-5fe4-40b5-af07-6f953e4f955b"},"vehicle_type_id":"4","last_reported":1761571516,"current_range_meters":18800,"station_id":"ce4bhgp2rcd13ifvqfc0","pricing_plan_id":"cebpf4jnsgd1na2vs0mg"},{"bike_id":"d51aa6bf-6c84-4720-948c-0744988e5bfa","system_id":"levelo_inurba_marseille","lat":43.29625,"lon":5.37724,"is_reserved":false,"is_disabled":false,"rental_uris":{"android":"levelo://app?vid=d51aa6bf-6c84-4720-948c-0744988e5bfa","ios":"levelo://app?vid=d51aa6bf-6c84-4720-948c-0744988e5bfa"},"vehicle_type_id":"4","last_reported":1761571516,"current_range_meters":18800,"station_id":"ce4bgi92rcd13ifvqb90","pricing_plan_id":"cebpf4jnsgd1na2vs0mg"},{"bike_id":"e1ca1064-3ac1-495e-b8d2-df8047d11b2e","system_id":"levelo_inurba_marseille","lat":43.28465,"lon":5.48398,"is_reserved":false,"is_disabled":false,"rental_uris":{"android":"levelo://app?vid=e1ca1064-3ac1-495e-b8d2-df8047d11b2e","ios":"levelo://app?vid=e1ca1064-3ac1-495e-b8d2-df8047d11b2e"},"vehicle_type_id":"4","last_reported":1761571516,"current_range_meters":18800,"station_id":"st_d3svhcjqgbts73a3dn0g","pricing_plan_id":"cebpf4jnsgd1na2vs0mg"},{"bike_id":"df94896d-c58b-459d-81e3-39f98a9915b5","system_id":"levelo_inurba_marseille","lat":43.28271,"lon":5.35066,"is_reserved":false,"is_disabled":false,"rental_uris":{"android":"levelo://app?vid=df94896d-c58b-459d-81e3-39f98a9915b5","ios":"levelo://app?vid=df94896d-c58b-459d-81e3-39f98a9915b5"},"vehicle_type_id":"4","last_reported":1761571516,"current_range_meters":18800,"station_id":"ce4bhbp2rcd13ifvqerg","pricing_plan_id":"cebpf4jnsgd1na2vs0mg"},{"bike_id":"9becea6c-3dbc-416d-84a9-62109d07760c","system_id":"levelo_inurba_marseille","lat":43.29276,"lon":5.4011,"is_reserved":false,"is_disabled":false,"rental_uris":{"android":"levelo://app?vid=9becea6c-3dbc-416d-84a9-62109d07760c","ios":"levelo://app?vid=9becea6c-3dbc-416d-84a9-62109d07760c"},"vehicle_type_id":"4","last_reported":1761571516,"current_range_meters":19200,"station_id":"ce4bh312rcd13ifvqdk0","pricing_plan_id":"cebpf4jnsgd1na2vs0mg"},{"bike_id":"310e927d-d5b8-4a6f-82be-2d623690659d","system_id":"levelo_inurba_marseille","lat":43.31289,"lon":5.37765,"is_reserved":false,"is_disabled":false,"rental_uris":{"android":"levelo://app?vid=310e927d-d5b8-4a6f-82be-2d623690659d","ios":"levelo://app?vid=310e927d-d5b8-4a6f-82be-2d623690659d"},"vehicle_type_id":"4","last_reported":1761571516,"current_range_meters":19200,"station_id":"","pricing_plan_id":"cebpf4jnsgd1na2vs0mg"},{"bike_id":"d5a49dbd-284f-44d1-bf21-988be425a5e5","system_id":"levelo_inurba_marseille","lat":43.25577,"lon":5.38235,"is_reserved":false,"is_disabled":true,"rental_uris":{"android":"levelo://app?vid=d5a49dbd-284f-44d1-bf21-988be425a5e5","ios":"levelo://app?vid=d5a49dbd-284f-44d1-bf21-988be425a5e5"},"vehicle_type_id":"4","last_reported":1761571516,"current_range_meters":19200,"station_id":"ce4bhih2rcd13ifvqfs0","pricing_plan_id":"cebpf4jnsgd1na2vs0mg"},{"bike_id":"66600bac-5e47-4d8f-9a26-73fd711ed683","system_id":"levelo_inurba_marseille","lat":43.30523,"lon":5.36692,"is_reserved":false,"is_disabled":false,"rental_uris":{"android":"levelo://app?vid=66600bac-5e47-4d8f-9a26-73fd711ed683","ios":"levelo://app?vid=66600bac-5e47-4d8f-9a26-73fd711ed683"},"vehicle_type_id":"4","last_reported":1761571516,"current_range_meters":19200,"station_id":"ce4bgrp2rcd13ifvqc9g","pricing_plan_id":"cebpf4jnsgd1na2vs0mg"},{"bike_id":"2a667dcd-47ec-49a8-8204-3d19e70b3d65","system_id":"levelo_inurba_marseille","lat":43.30533,"lon":5.36545,"is_reserved":false,"is_disabled":false,"rental_uris":{"android":"levelo://app?vid=2a667dcd-47ec-49a8-8204-3d19e70b3d65","ios":"levelo://app?vid=2a667dcd-47ec-49a8-8204-3d19e70b3d65"},"vehicle_type_id":"4","last_reported":1761571516,"current_range_meters":19200,"station_id":"ce4bgs12rcd13ifvqcag","pricing_plan_id":"cebpf4jnsgd1na2vs0mg"},{"bike_id":"b970408e-fba3-4935-bd82-60e480d5034a","system_id":"levelo_inurba_marseille","lat":43.299042,"lon":5.381556,"is_reserved":false,"is_disabled":false,"rental_uris":{"android":"levelo://app?vid=b970408e-fba3-4935-bd82-60e480d5034a","ios":"levelo://app?vid=b970408e-fba3-4935-bd82-60e480d5034a"},"vehicle_type_id":"4","last_reported":1761571516,"current_range_meters":19200,"station_id":"ce4bgj12rcd13ifvqbc0","pricing_plan_id":"cebpf4jnsgd1na2vs0mg"},{"bike_id":"16b2586f-072f-49e0-be90-bc6a7f318969","system_id":"levelo_inurba_marseille","lat":43.30193,"lon":5.36608,"is_reserved":false,"is_disabled":false,"rental_uris":{"android":"levelo://app?vid=16b2586f-072f-49e0-be90-bc6a7f318969","ios":"levelo://app?vid=16b2586f-072f-49e0-be90-bc6a7f318969"},"vehicle_type_id":"4","last_reported":1761571516,"current_range_meters":19200,"station_id":"ce4bgrh2rcd13ifvqc8g","pricing_plan_id":"cebpf4jnsgd1na2vs0mg"},{"bike_id":"ede0b86c-290d-402b-9134-7562484cb157","system_id":"levelo_inurba_marseille","lat":43.28616,"lon":5.37063,"is_reserved":false,"is_disabled":false,"rental_uris":{"android":"levelo://app?vid=ede0b86c-290d-402b-9134-7562484cb157","ios":"levelo://app?vid=ede0b86c-290d-402b-9134-7562484cb157"},"vehicle_type_id":"4","last_reported":1761571516,"current_range_meters":19200,"station_id":"ce4bht12rcd13ifvqi60","pricing_plan_id":"cebpf4jnsgd1na2vs0mg"},{"bike_id":"58c4dbde-6a7d-4645-959d-588177b9dc81","system_id":"levelo_inurba_marseille","lat":43.25942,"lon":5.40888,"is_reserved":false,"is_disabled":false,"rental_uris":{"android":"levelo://app?vid=58c4dbde-6a7d-4645-959d-588177b9dc81","ios":"levelo://app?vid=58c4dbde-6a7d-4645-959d-588177b9dc81"},"vehicle_type_id":"4","last_reported":1761571516,"current_range_meters":19600,"station_id":"ce4bhm92rcd13ifvqglg","pricing_plan_id":"cebpf4jnsgd1na2vs0mg"},{"bike_id":"316ded5d-28c9-4663-be5c-04dc90d5b34c","system_id":"levelo_inurba_marseille","lat":43.28405,"lon":5.3875,"is_reserved":false,"is_disabled":false,"rental_uris":{"android":"levelo://app?vid=316ded5d-28c9-4663-be5c-04dc90d5b34c","ios":"levelo://app?vid=316ded5d-28c9-4663-be5c-04dc90d5b34c"},"vehicle_type_id":"4","last_reported":1761571516,"current_range_meters":19600,"station_id":"","pricing_plan_id":"cebpf4jnsgd1na2vs0mg"},{"bike_id":"dccef0b1-edb3-49b5-866c-43e10e5763cc","system_id":"levelo_inurba_marseille","lat":43.28809,"lon":5.43843,"is_reserved":false,"is_disabled":false,"rental_uris":{"android":"levelo://app?vid=dccef0b1-edb3-49b5-866c-43e10e5763cc","ios":"levelo://app?vid=dccef0b1-edb3-49b5-866c-43e10e5763cc"},"vehicle_type_id":"4","last_reported":1761571516,"current_range_meters":19600,"station_id":"","pricing_plan_id":"cebpf4jnsgd1na2vs0mg"},{"bike_id":"5b695131-e4d3-42de-92db-42fa233a5063","system_id":"levelo_inurba_marseille","lat":43.29374,"lon":5.37861,"is_reserved":false,"is_disabled":false,"rental_uris":{"android":"levelo://app?vid=5b695131-e4d3-42de-92db-42fa233a5063","ios":"levelo://app?vid=5b695131-e4d3-42de-92db-42fa233a5063"},"vehicle_type_id":"4","last_reported":1761571516,"current_range_meters":19600,"station_id":"ce4bgjh2rcd13ifvqbf0","pricing_plan_id":"cebpf4jnsgd1na2vs0mg"},{"bike_id":"2be3bf9b-39f4-4c37-8c01-9e9bcabe1c53","system_id":"levelo_inurba_marseille","lat":43.33741,"lon":5.37444,"is_reserved":false,"is_disabled":false,"rental_uris":{"android":"levelo://app?vid=2be3bf9b-39f4-4c37-8c01-9e9bcabe1c53","ios":"levelo://app?vid=2be3bf9b-39f4-4c37-8c01-9e9bcabe1c53"},"vehicle_type_id":"4","last_reported":1761571516,"current_range_meters":19600,"station_id":"","pricing_plan_id":"cebpf4jnsgd1na2vs0mg"},{"bike_id":"dc7e1cdf-6dea-42a2-b567-3d0e8cdf5650","system_id":"levelo_inurba_marseille","lat":43.29977,"lon":5.37179,"is_reserved":false,"is_disabled":false,"rental_uris":{"android":"levelo://app?vid=dc7e1cdf-6dea-42a2-b567-3d0e8cdf5650","ios":"levelo://app?vid=dc7e1cdf-6dea-42a2-b567-3d0e8cdf5650"},"vehicle_type_id":"4","last_reported":1761571516,"current_range_meters":19600,"station_id":"ce4bgr92rcd13ifvqc7g","pricing_plan_id":"cebpf4jnsgd1na2vs0mg"},{"bike_id":"8c71c05b-dd29-470b-8b05-4159f459865a","system_id":"levelo_inurba_marseille","lat":43.276617,"lon":5.388937,"is_reserved":false,"is_disabled":false,"rental_uris":{"android":"levelo://app?vid=8c71c05b-dd29-470b-8b05-4159f459865a","ios":"levelo://app?vid=8c71c05b-dd29-470b-8b05-4159f459865a"},"vehicle_type_id":"4","last_reported":1761571516,"current_range_meters":19600,"station_id":"ce4bhi12rcd13ifvqfo0","pricing_plan_id":"cebpf4jnsgd1na2vs0mg"},{"bike_id":"e4b23cc0-3a3e-4d8d-9568-f1ce4eb46ede","system_id":"levelo_inurba_marseille","lat":43.26791,"lon":5.3941,"is_reserved":false,"is_disabled":false,"rental_uris":{"android":"levelo://app?vid=e4b23cc0-3a3e-4d8d-9568-f1ce4eb46ede","ios":"levelo://app?vid=e4b23cc0-3a3e-4d8d-9568-f1ce4eb46ede"},"vehicle_type_id":"4","last_reported":1761571516,"current_range_meters":19600,"station_id":"ce4bhh12rcd13ifvqfg0","pricing_plan_id":"cebpf4jnsgd1na2vs0mg"},{"bike_id":"af1099fc-451f-4695-8d42-b836f1ff607b","system_id":"levelo_inurba_marseille","lat":43.299475,"lon":5.371674,"is_reserved":false,"is_disabled":false,"rental_uris":{"android":"levelo://app?vid=af1099fc-451f-4695-8d42-b836f1ff607b","ios":"levelo://app?vid=af1099fc-451f-4695-8d42-b836f1ff607b"},"vehicle_type_id":"4","last_reported":1761571516,"current_range_meters":19600,"station_id":"ce4bgr92rcd13ifvqc7g","pricing_plan_id":"cebpf4jnsgd1na2vs0mg"},{"bike_id":"e9fdae25-932b-406e-b103-12fcd6b61d27","system_id":"levelo_inurba_marseille","lat":43.30914,"lon":5.36837,"is_reserved":false,"is_disabled":false,"rental_uris":{"android":"levelo://app?vid=e9fdae25-932b-406e-b103-12fcd6b61d27","ios":"levelo://app?vid=e9fdae25-932b-406e-b103-12fcd6b61d27"},"vehicle_type_id":"4","last_reported":1761571516,"current_range_meters":19600,"station_id":"ce4bgn92rcd13ifvqbvg","pricing_plan_id":"cebpf4jnsgd1na2vs0mg"},{"bike_id":"ae8ebe94-fc0f-4409-8f77-39eb5c613a67","system_id":"levelo_inurba_marseille","lat":43.337444,"lon":5.374475,"is_reserved":false,"is_disabled":false,"rental_uris":{"android":"levelo://app?vid=ae8ebe94-fc0f-4409-8f77-39eb5c613a67","ios":"levelo://app?vid=ae8ebe94-fc0f-4409-8f77-39eb5c613a67"},"vehicle_type_id":"4","last_reported":1761571516,"current_range_meters":20000,"station_id":"","pricing_plan_id":"cebpf4jnsgd1na2vs0mg"},{"bike_id":"c2323435-b9b1-41fd-8a0e-175e4f465257","system_id":"levelo_inurba_marseille","lat":43.311676,"lon":5.387172,"is_reserved":false,"is_disabled":false,"rental_uris":{"android":"levelo://app?vid=c2323435-b9b1-41fd-8a0e-175e4f465257","ios":"levelo://app?vid=c2323435-b9b1-41fd-8a0e-175e4f465257"},"vehicle_type_id":"4","last_reported":1761571516,"current_range_meters":20000,"station_id":"ce4bgv12rcd13ifvqcp0","pricing_plan_id":"cebpf4jnsgd1na2vs0mg"},{"bike_id":"52944b99-aa1e-426b-9ae3-e8c0bc615427","system_id":"levelo_inurba_marseille","lat":43.297629,"lon":5.42777,"is_reserved":false,"is_disabled":false,"rental_uris":{"android":"levelo://app?vid=52944b99-aa1e-426b-9ae3-e8c0bc615427","ios":"levelo://app?vid=52944b99-aa1e-426b-9ae3-e8c0bc615427"},"vehicle_type_id":"4","last_reported":1761571516,"current_range_meters":20000,"station_id":"st_d3md5207bmas73dh9klg","pricing_plan_id":"cebpf4jnsgd1na2vs0mg"},{"bike_id":"f313f841-1669-4058-b257-1436f87f12f4","system_id":"levelo_inurba_marseille","lat":43.296917,"lon":5.363375,"is_reserved":false,"is_disabled":false,"rental_uris":{"android":"levelo://app?vid=f313f841-1669-4058-b257-1436f87f12f4","ios":"levelo://app?vid=f313f841-1669-4058-b257-1436f87f12f4"},"vehicle_type_id":"4","last_reported":1761571516,"current_range_meters":20000,"station_id":"ce4bgpp2rcd13ifvqc3g","pricing_plan_id":"cebpf4jnsgd1na2vs0mg"},{"bike_id":"6e3a7e6e-71b5-40f8-a9af-3d340e6706cc","system_id":"levelo_inurba_marseille","lat":43.296782,"lon":5.378637,"is_reserved":false,"is_disabled":false,"rental_uris":{"android":"levelo://app?vid=6e3a7e6e-71b5-40f8-a9af-3d340e6706cc","ios":"levelo://app?vid=6e3a7e6e-71b5-40f8-a9af-3d340e6706cc"},"vehicle_type_id":"4","last_reported":1761571516,"current_range_meters":20000,"station_id":"","pricing_plan_id":"cebpf4jnsgd1na2vs0mg"},{"bike_id":"dced2bcc-e95f-44ce-b7d8-7bb47def612a","system_id":"levelo_inurba_marseille","lat":43.21194,"lon":5.35078,"is_reserved":false,"is_disabled":false,"rental_uris":{"android":"levelo://app?vid=dced2bcc-e95f-44ce-b7d8-7bb47def612a","ios":"levelo://app?vid=dced2bcc-e95f-44ce-b7d8-7bb47def612a"},"vehicle_type_id":"4","last_reported":1761571516,"current_range_meters":20000,"station_id":"","pricing_plan_id":"cebpf4jnsgd1na2vs0mg"},{"bike_id":"985cf2a5-6560-4622-9131-59ec4174ede8","system_id":"levelo_inurba_marseille","lat":43.29579,"lon":5.36732,"is_reserved":false,"is_disabled":false,"rental_uris":{"android":"levelo://app?vid=985cf2a5-6560-4622-9131-59ec4174ede8","ios":"levelo://app?vid=985cf2a5-6560-4622-9131-59ec4174ede8"},"vehicle_type_id":"4","last_reported":1761571516,"current_range_meters":20000,"station_id":"ce4bgph2rcd13ifvqc2g","pricing_plan_id":"cebpf4jnsgd1na2vs0mg"},{"bike_id":"cb878473-5366-4cb6-bbc7-98917a922c16","system_id":"levelo_inurba_marseille","lat":43.28267,"lon":5.35094,"is_reserved":false,"is_disabled":false,"rental_uris":{"android":"levelo://app?vid=cb878473-5366-4cb6-bbc7-98917a922c16","ios":"levelo://app?vid=cb878473-5366-4cb6-bbc7-98917a922c16"},"vehicle_type_id":"4","last_reported":1761571516,"current_range_meters":20000,"station_id":"ce4bhbp2rcd13ifvqerg","pricing_plan_id":"cebpf4jnsgd1na2vs0mg"},{"bike_id":"f568391f-b71f-4807-9099-53eb6b0dc22d","system_id":"levelo_inurba_marseille","lat":43.29768,"lon":5.38162,"is_reserved":false,"is_disabled":false,"rental_uris":{"android":"levelo://app?vid=f568391f-b71f-4807-9099-53eb6b0dc22d","ios":"levelo://app?vid=f568391f-b71f-4807-9099-53eb6b0dc22d"},"vehicle_type_id":"4","last_reported":1761571516,"current_range_meters":20000,"station_id":"","pricing_plan_id":"cebpf4jnsgd1na2vs0mg"},{"bike_id":"5dc2cf3f-3f11-4404-b771-c14a2e7e15a2","system_id":"levelo_inurba_marseille","lat":43.29382,"lon":5.37836,"is_reserved":false,"is_disabled":false,"rental_uris":{"android":"levelo://app?vid=5dc2cf3f-3f11-4404-b771-c14a2e7e15a2","ios":"levelo://app?vid=5dc2cf3f-3f11-4404-b771-c14a2e7e15a2"},"vehicle_type_id":"4","last_reported":1761571516,"current_range_meters":20000,"station_id":"ce4bgjh2rcd13ifvqbf0","pricing_plan_id":"cebpf4jnsgd1na2vs0mg"},{"bike_id":"97d64e7a-40ce-4e0c-adf8-9a823ea518ce","system_id":"levelo_inurba_marseille","lat":43.231543,"lon":5.437051,"is_reserved":false,"is_disabled":false,"rental_uris":{"android":"levelo://app?vid=97d64e7a-40ce-4e0c-adf8-9a823ea518ce","ios":"levelo://app?vid=97d64e7a-40ce-4e0c-adf8-9a823ea518ce"},"vehicle_type_id":"4","last_reported":1761571516,"current_range_meters":20000,"station_id":"ce4bhmp2rcd13ifvqgog","pricing_plan_id":"cebpf4jnsgd1na2vs0mg"},{"bike_id":"a9d6f84c-7daf-4c59-adfe-f1faabb86893","system_id":"levelo_inurba_marseille","lat":43.323533,"lon":5.367571,"is_reserved":false,"is_disabled":false,"rental_uris":{"android":"levelo://app?vid=a9d6f84c-7daf-4c59-adfe-f1faabb86893","ios":"levelo://app?vid=a9d6f84c-7daf-4c59-adfe-f1faabb86893"},"vehicle_type_id":"4","last_reported":1761571516,"current_range_meters":20000,"station_id":"ce4bhsh2rcd13ifvqi2g","pricing_plan_id":"cebpf4jnsgd1na2vs0mg"},{"bike_id":"46292dbd-4a2f-46bb-964b-a4a3d10786f9","system_id":"levelo_inurba_marseille","lat":43.24798,"lon":5.37465,"is_reserved":false,"is_disabled":false,"rental_uris":{"android":"levelo://app?vid=46292dbd-4a2f-46bb-964b-a4a3d10786f9","ios":"levelo://app?vid=46292dbd-4a2f-46bb-964b-a4a3d10786f9"},"vehicle_type_id":"4","last_reported":1761571516,"current_range_meters":20400,"station_id":"ce4bhgh2rcd13ifvqfb0","pricing_plan_id":"cebpf4jnsgd1na2vs0mg"},{"bike_id":"af96d0e3-d801-42d7-a0dc-15b2fdf2eb9e","system_id":"levelo_inurba_marseille","lat":43.26222,"lon":5.40467,"is_reserved":false,"is_disabled":false,"rental_uris":{"android":"levelo://app?vid=af96d0e3-d801-42d7-a0dc-15b2fdf2eb9e","ios":"levelo://app?vid=af96d0e3-d801-42d7-a0dc-15b2fdf2eb9e"},"vehicle_type_id":"4","last_reported":1761571516,"current_range_meters":20400,"station_id":"ce4bhmh2rcd13ifvqgmg","pricing_plan_id":"cebpf4jnsgd1na2vs0mg"},{"bike_id":"32d7653e-b033-4183-b4c0-f44169bb9067","system_id":"levelo_inurba_marseille","lat":43.327,"lon":5.39206,"is_reserved":false,"is_disabled":false,"rental_uris":{"android":"levelo://app?vid=32d7653e-b033-4183-b4c0-f44169bb9067","ios":"levelo://app?vid=32d7653e-b033-4183-b4c0-f44169bb9067"},"vehicle_type_id":"4","last_reported":1761571516,"current_range_meters":20400,"station_id":"","pricing_plan_id":"cebpf4jnsgd1na2vs0mg"},{"bike_id":"4f221918-84b5-4b9e-a22d-a70ce4456717","system_id":"levelo_inurba_marseille","lat":43.21752,"lon":5.34615,"is_reserved":false,"is_disabled":false,"rental_uris":{"android":"levelo://app?vid=4f221918-84b5-4b9e-a22d-a70ce4456717","ios":"levelo://app?vid=4f221918-84b5-4b9e-a22d-a70ce4456717"},"vehicle_type_id":"4","last_reported":1761571516,"current_range_meters":20400,"station_id":"","pricing_plan_id":"cebpf4jnsgd1na2vs0mg"},{"bike_id":"5c46e03a-6fb9-4f68-9da4-965e57d77493","system_id":"levelo_inurba_marseille","lat":43.30186,"lon":5.36626,"is_reserved":false,"is_disabled":false,"rental_uris":{"android":"levelo://app?vid=5c46e03a-6fb9-4f68-9da4-965e57d77493","ios":"levelo://app?vid=5c46e03a-6fb9-4f68-9da4-965e57d77493"},"vehicle_type_id":"4","last_reported":1761571516,"current_range_meters":20400,"station_id":"ce4bgrh2rcd13ifvqc8g","pricing_plan_id":"cebpf4jnsgd1na2vs0mg"},{"bike_id":"6aa9a1ee-9778-4d45-859f-f81494315a8d","system_id":"levelo_inurba_marseille","lat":43.211926,"lon":5.350734,"is_reserved":false,"is_disabled":false,"rental_uris":{"android":"levelo://app?vid=6aa9a1ee-9778-4d45-859f-f81494315a8d","ios":"levelo://app?vid=6aa9a1ee-9778-4d45-859f-f81494315a8d"},"vehicle_type_id":"4","last_reported":1761571516,"current_range_meters":20400,"station_id":"","pricing_plan_id":"cebpf4jnsgd1na2vs0mg"},{"bike_id":"0b79f1cd-6cf7-4d8e-b061-47d742430920","system_id":"levelo_inurba_marseille","lat":43.2828,"lon":5.35091,"is_reserved":false,"is_disabled":false,"rental_uris":{"android":"levelo://app?vid=0b79f1cd-6cf7-4d8e-b061-47d742430920","ios":"levelo://app?vid=0b79f1cd-6cf7-4d8e-b061-47d742430920"},"vehicle_type_id":"4","last_reported":1761571516,"current_range_meters":20800,"station_id":"ce4bhbp2rcd13ifvqerg","pricing_plan_id":"cebpf4jnsgd1na2vs0mg"},{"bike_id":"5bac8c2a-12e9-4858-a30d-932120e79d9f","system_id":"levelo_inurba_marseille","lat":43.24405,"lon":5.37058,"is_reserved":false,"is_disabled":false,"rental_uris":{"android":"levelo://app?vid=5bac8c2a-12e9-4858-a30d-932120e79d9f","ios":"levelo://app?vid=5bac8c2a-12e9-4858-a30d-932120e79d9f"},"vehicle_type_id":"4","last_reported":1761571516,"current_range_meters":20800,"station_id":"ce4bhhh2rcd13ifvqfk0","pricing_plan_id":"cebpf4jnsgd1na2vs0mg"},{"bike_id":"9728e540-e569-48f1-bd08-2f5128ee94a5","system_id":"levelo_inurba_marseille","lat":43.304618,"lon":5.379033,"is_reserved":false,"is_disabled":false,"rental_uris":{"android":"levelo://app?vid=9728e540-e569-48f1-bd08-2f5128ee94a5","ios":"levelo://app?vid=9728e540-e569-48f1-bd08-2f5128ee94a5"},"vehicle_type_id":"4","last_reported":1761571516,"current_range_meters":20800,"station_id":"ce4bgup2rcd13ifvqcn0","pricing_plan_id":"cebpf4jnsgd1na2vs0mg"},{"bike_id":"7d281405-72ae-4fff-9662-d8f59a7e945b","system_id":"levelo_inurba_marseille","lat":43.30467,"lon":5.379,"is_reserved":false,"is_disabled":false,"rental_uris":{"android":"levelo://app?vid=7d281405-72ae-4fff-9662-d8f59a7e945b","ios":"levelo://app?vid=7d281405-72ae-4fff-9662-d8f59a7e945b"},"vehicle_type_id":"4","last_reported":1761571516,"current_range_meters":20800,"station_id":"ce4bgup2rcd13ifvqcn0","pricing_plan_id":"cebpf4jnsgd1na2vs0mg"},{"bike_id":"dc8929ba-a503-4409-89bb-f2c68f67a198","system_id":"levelo_inurba_marseille","lat":43.26965,"lon":5.38921,"is_reserved":false,"is_disabled":false,"rental_uris":{"android":"levelo://app?vid=dc8929ba-a503-4409-89bb-f2c68f67a198","ios":"levelo://app?vid=dc8929ba-a503-4409-89bb-f2c68f67a198"},"vehicle_type_id":"4","last_reported":1761571516,"current_range_meters":20800,"station_id":"ce4bhhh2rcd13ifvqfl0","pricing_plan_id":"cebpf4jnsgd1na2vs0mg"},{"bike_id":"6f60b159-83c5-40f3-a1b0-7b6a6268dfa5","system_id":"levelo_inurba_marseille","lat":43.29176,"lon":5.35612,"is_reserved":false,"is_disabled":false,"rental_uris":{"android":"levelo://app?vid=6f60b159-83c5-40f3-a1b0-7b6a6268dfa5","ios":"levelo://app?vid=6f60b159-83c5-40f3-a1b0-7b6a6268dfa5"},"vehicle_type_id":"4","last_reported":1761571516,"current_range_meters":20800,"station_id":"","pricing_plan_id":"cebpf4jnsgd1na2vs0mg"},{"bike_id":"b64eb432-196b-4d7f-9fa2-3b27f036bc7c","system_id":"levelo_inurba_marseille","lat":43.31114,"lon":5.37778,"is_reserved":false,"is_disabled":false,"rental_uris":{"android":"levelo://app?vid=b64eb432-196b-4d7f-9fa2-3b27f036bc7c","ios":"levelo://app?vid=b64eb432-196b-4d7f-9fa2-3b27f036bc7c"},"vehicle_type_id":"4","last_reported":1761571516,"current_range_meters":20800,"station_id":"ce4bgt92rcd13ifvqcg0","pricing_plan_id":"cebpf4jnsgd1na2vs0mg"},{"bike_id":"979822cf-56f6-44e7-8388-b5caf88ac3e5","system_id":"levelo_inurba_marseille","lat":43.29913,"lon":5.36539,"is_reserved":false,"is_disabled":false,"rental_uris":{"android":"levelo://app?vid=979822cf-56f6-44e7-8388-b5caf88ac3e5","ios":"levelo://app?vid=979822cf-56f6-44e7-8388-b5caf88ac3e5"},"vehicle_type_id":"4","last_reported":1761571516,"current_range_meters":20800,"station_id":"ce4bgm92rcd13ifvqbr0","pricing_plan_id":"cebpf4jnsgd1na2vs0mg"},{"bike_id":"ad315ea3-1ff1-468a-9a73-8d1005d1707f","system_id":"levelo_inurba_marseille","lat":43.29528,"lon":5.37516,"is_reserved":false,"is_disabled":true,"rental_uris":{"android":"levelo://app?vid=ad315ea3-1ff1-468a-9a73-8d1005d1707f","ios":"levelo://app?vid=ad315ea3-1ff1-468a-9a73-8d1005d1707f"},"vehicle_type_id":"4","last_reported":1761571516,"current_range_meters":20800,"station_id":"ce4bgkp2rcd13ifvqbmg","pricing_plan_id":"cebpf4jnsgd1na2vs0mg"},{"bike_id":"d91cfbe0-118f-4805-9bd2-37014145cfad","system_id":"levelo_inurba_marseille","lat":43.302533,"lon":5.369728,"is_reserved":false,"is_disabled":false,"rental_uris":{"android":"levelo://app?vid=d91cfbe0-118f-4805-9bd2-37014145cfad","ios":"levelo://app?vid=d91cfbe0-118f-4805-9bd2-37014145cfad"},"vehicle_type_id":"4","last_reported":1761571516,"current_range_meters":20800,"station_id":"ce4bgqh2rcd13ifvqc5g","pricing_plan_id":"cebpf4jnsgd1na2vs0mg"},{"bike_id":"9d447215-7097-463a-ab01-ffec67831b86","system_id":"levelo_inurba_marseille","lat":43.32357,"lon":5.36724,"is_reserved":false,"is_disabled":false,"rental_uris":{"android":"levelo://app?vid=9d447215-7097-463a-ab01-ffec67831b86","ios":"levelo://app?vid=9d447215-7097-463a-ab01-ffec67831b86"},"vehicle_type_id":"4","last_reported":1761571516,"current_range_meters":20800,"station_id":"ce4bhsh2rcd13ifvqi2g","pricing_plan_id":"cebpf4jnsgd1na2vs0mg"},{"bike_id":"d5d744bc-1e5d-4657-b38b-3a76833d6d31","system_id":"levelo_inurba_marseille","lat":43.23115,"lon":5.43717,"is_reserved":false,"is_disabled":false,"rental_uris":{"android":"levelo://app?vid=d5d744bc-1e5d-4657-b38b-3a76833d6d31","ios":"levelo://app?vid=d5d744bc-1e5d-4657-b38b-3a76833d6d31"},"vehicle_type_id":"4","last_reported":1761571516,"current_range_meters":20800,"station_id":"ce4bhmp2rcd13ifvqgog","pricing_plan_id":"cebpf4jnsgd1na2vs0mg"},{"bike_id":"b67e4d89-eb40-4705-8e55-320922c7b91b","system_id":"levelo_inurba_marseille","lat":43.22568,"lon":5.41632,"is_reserved":false,"is_disabled":false,"rental_uris":{"android":"levelo://app?vid=b67e4d89-eb40-4705-8e55-320922c7b91b","ios":"levelo://app?vid=b67e4d89-eb40-4705-8e55-320922c7b91b"},"vehicle_type_id":"4","last_reported":1761571516,"current_range_meters":21600,"station_id":"st_d2o4gvlbi1j2169b742g","pricing_plan_id":"cebpf4jnsgd1na2vs0mg"},{"bike_id":"a0c158af-5e96-42f3-b202-cb100be258ea","system_id":"levelo_inurba_marseille","lat":43.29623,"lon":5.37718,"is_reserved":false,"is_disabled":false,"rental_uris":{"android":"levelo://app?vid=a0c158af-5e96-42f3-b202-cb100be258ea","ios":"levelo://app?vid=a0c158af-5e96-42f3-b202-cb100be258ea"},"vehicle_type_id":"4","last_reported":1761571516,"current_range_meters":21600,"station_id":"ce4bgi92rcd13ifvqb90","pricing_plan_id":"cebpf4jnsgd1na2vs0mg"},{"bike_id":"6742a2c8-ec35-4b90-a373-230c4c291c17","system_id":"levelo_inurba_marseille","lat":43.30486,"lon":5.37905,"is_reserved":false,"is_disabled":false,"rental_uris":{"android":"levelo://app?vid=6742a2c8-ec35-4b90-a373-230c4c291c17","ios":"levelo://app?vid=6742a2c8-ec35-4b90-a373-230c4c291c17"},"vehicle_type_id":"4","last_reported":1761571516,"current_range_meters":21600,"station_id":"ce4bgup2rcd13ifvqcn0","pricing_plan_id":"cebpf4jnsgd1na2vs0mg"},{"bike_id":"1bc2622d-696a-4731-8aca-e68e58800b49","system_id":"levelo_inurba_marseille","lat":43.29841,"lon":5.36276,"is_reserved":false,"is_disabled":false,"rental_uris":{"android":"levelo://app?vid=1bc2622d-696a-4731-8aca-e68e58800b49","ios":"levelo://app?vid=1bc2622d-696a-4731-8aca-e68e58800b49"},"vehicle_type_id":"4","last_reported":1761571516,"current_range_meters":21600,"station_id":"ce4bgpp2rcd13ifvqc3g","pricing_plan_id":"cebpf4jnsgd1na2vs0mg"},{"bike_id":"a45afcb8-dce8-4f3d-8c34-e07d53545177","system_id":"levelo_inurba_marseille","lat":43.295757,"lon":5.367427,"is_reserved":false,"is_disabled":false,"rental_uris":{"android":"levelo://app?vid=a45afcb8-dce8-4f3d-8c34-e07d53545177","ios":"levelo://app?vid=a45afcb8-dce8-4f3d-8c34-e07d53545177"},"vehicle_type_id":"4","last_reported":1761571516,"current_range_meters":22000,"station_id":"ce4bgph2rcd13ifvqc2g","pricing_plan_id":"cebpf4jnsgd1na2vs0mg"},{"bike_id":"51a7e268-9562-4b96-8e84-f568b0acc7b7","system_id":"levelo_inurba_marseille","lat":43.247969,"lon":5.37456,"is_reserved":false,"is_disabled":false,"rental_uris":{"android":"levelo://app?vid=51a7e268-9562-4b96-8e84-f568b0acc7b7","ios":"levelo://app?vid=51a7e268-9562-4b96-8e84-f568b0acc7b7"},"vehicle_type_id":"4","last_reported":1761571516,"current_range_meters":22000,"station_id":"","pricing_plan_id":"cebpf4jnsgd1na2vs0mg"},{"bike_id":"5f6c4fea-ada2-453b-9aa3-59bf116cef02","system_id":"levelo_inurba_marseille","lat":43.225341,"lon":5.348319,"is_reserved":false,"is_disabled":false,"rental_uris":{"android":"levelo://app?vid=5f6c4fea-ada2-453b-9aa3-59bf116cef02","ios":"levelo://app?vid=5f6c4fea-ada2-453b-9aa3-59bf116cef02"},"vehicle_type_id":"4","last_reported":1761571516,"current_range_meters":22000,"station_id":"","pricing_plan_id":"cebpf4jnsgd1na2vs0mg"},{"bike_id":"dabac309-dc56-40f7-839c-f2b49491674a","system_id":"levelo_inurba_marseille","lat":43.30476,"lon":5.37923,"is_reserved":false,"is_disabled":false,"rental_uris":{"android":"levelo://app?vid=dabac309-dc56-40f7-839c-f2b49491674a","ios":"levelo://app?vid=dabac309-dc56-40f7-839c-f2b49491674a"},"vehicle_type_id":"4","last_reported":1761571516,"current_range_meters":22000,"station_id":"ce4bgup2rcd13ifvqcn0","pricing_plan_id":"cebpf4jnsgd1na2vs0mg"},{"bike_id":"57185adc-6152-4762-b3ab-836c5f2dcef3","system_id":"levelo_inurba_marseille","lat":43.23138,"lon":5.43732,"is_reserved":false,"is_disabled":false,"rental_uris":{"android":"levelo://app?vid=57185adc-6152-4762-b3ab-836c5f2dcef3","ios":"levelo://app?vid=57185adc-6152-4762-b3ab-836c5f2dcef3"},"vehicle_type_id":"4","last_reported":1761571516,"current_range_meters":22000,"station_id":"ce4bhmp2rcd13ifvqgog","pricing_plan_id":"cebpf4jnsgd1na2vs0mg"},{"bike_id":"49ed0d39-51fe-4cd4-8527-50556baa8749","system_id":"levelo_inurba_marseille","lat":43.225318,"lon":5.348308,"is_reserved":false,"is_disabled":false,"rental_uris":{"android":"levelo://app?vid=49ed0d39-51fe-4cd4-8527-50556baa8749","ios":"levelo://app?vid=49ed0d39-51fe-4cd4-8527-50556baa8749"},"vehicle_type_id":"4","last_reported":1761571516,"current_range_meters":22000,"station_id":"","pricing_plan_id":"cebpf4jnsgd1na2vs0mg"},{"bike_id":"dd3d3c35-bcc1-4a5f-a779-d39715cf3947","system_id":"levelo_inurba_marseille","lat":43.282786,"lon":5.350754,"is_reserved":false,"is_disabled":false,"rental_uris":{"android":"levelo://app?vid=dd3d3c35-bcc1-4a5f-a779-d39715cf3947","ios":"levelo://app?vid=dd3d3c35-bcc1-4a5f-a779-d39715cf3947"},"vehicle_type_id":"4","last_reported":1761571516,"current_range_meters":22400,"station_id":"ce4bhbp2rcd13ifvqerg","pricing_plan_id":"cebpf4jnsgd1na2vs0mg"},{"bike_id":"72c04cb0-6a0f-41e8-bd6a-4bd029b9823e","system_id":"levelo_inurba_marseille","lat":43.3254,"lon":5.41438,"is_reserved":false,"is_disabled":false,"rental_uris":{"android":"levelo://app?vid=72c04cb0-6a0f-41e8-bd6a-4bd029b9823e","ios":"levelo://app?vid=72c04cb0-6a0f-41e8-bd6a-4bd029b9823e"},"vehicle_type_id":"4","last_reported":1761571516,"current_range_meters":22400,"station_id":"ce4bhq12rcd13ifvqhhg","pricing_plan_id":"cebpf4jnsgd1na2vs0mg"},{"bike_id":"aa90b5b8-f694-41cf-a6c8-5922fbf4a5cd","system_id":"levelo_inurba_marseille","lat":43.26206,"lon":5.37931,"is_reserved":false,"is_disabled":false,"rental_uris":{"android":"levelo://app?vid=aa90b5b8-f694-41cf-a6c8-5922fbf4a5cd","ios":"levelo://app?vid=aa90b5b8-f694-41cf-a6c8-5922fbf4a5cd"},"vehicle_type_id":"4","last_reported":1761571516,"current_range_meters":22400,"station_id":"ce4bhjp2rcd13ifvqg90","pricing_plan_id":"cebpf4jnsgd1na2vs0mg"},{"bike_id":"0c897b7a-fda3-462a-956d-8a7449db89ce","system_id":"levelo_inurba_marseille","lat":43.26664,"lon":5.38271,"is_reserved":false,"is_disabled":false,"rental_uris":{"android":"levelo://app?vid=0c897b7a-fda3-462a-956d-8a7449db89ce","ios":"levelo://app?vid=0c897b7a-fda3-462a-956d-8a7449db89ce"},"vehicle_type_id":"4","last_reported":1761571516,"current_range_meters":22400,"station_id":"ce4bhg92rcd13ifvqf90","pricing_plan_id":"cebpf4jnsgd1na2vs0mg"},{"bike_id":"db28e9ca-f3ae-41d6-bd4c-eed3441bd596","system_id":"levelo_inurba_marseille","lat":43.32343,"lon":5.36737,"is_reserved":false,"is_disabled":false,"rental_uris":{"android":"levelo://app?vid=db28e9ca-f3ae-41d6-bd4c-eed3441bd596","ios":"levelo://app?vid=db28e9ca-f3ae-41d6-bd4c-eed3441bd596"},"vehicle_type_id":"4","last_reported":1761571516,"current_range_meters":22400,"station_id":"ce4bhsh2rcd13ifvqi2g","pricing_plan_id":"cebpf4jnsgd1na2vs0mg"},{"bike_id":"41c3f575-a336-400d-bf5e-3eb0bec4ba45","system_id":"levelo_inurba_marseille","lat":43.30537,"lon":5.36561,"is_reserved":false,"is_disabled":false,"rental_uris":{"android":"levelo://app?vid=41c3f575-a336-400d-bf5e-3eb0bec4ba45","ios":"levelo://app?vid=41c3f575-a336-400d-bf5e-3eb0bec4ba45"},"vehicle_type_id":"4","last_reported":1761571516,"current_range_meters":22400,"station_id":"ce4bgs12rcd13ifvqcag","pricing_plan_id":"cebpf4jnsgd1na2vs0mg"},{"bike_id":"6cb0b2d4-d2f8-4865-acb3-257f814ffbaf","system_id":"levelo_inurba_marseille","lat":43.31081,"lon":5.42427,"is_reserved":false,"is_disabled":false,"rental_uris":{"android":"levelo://app?vid=6cb0b2d4-d2f8-4865-acb3-257f814ffbaf","ios":"levelo://app?vid=6cb0b2d4-d2f8-4865-acb3-257f814ffbaf"},"vehicle_type_id":"4","last_reported":1761571516,"current_range_meters":22400,"station_id":"ce4bhp92rcd13ifvqhag","pricing_plan_id":"cebpf4jnsgd1na2vs0mg"},{"bike_id":"6daca031-efb5-4517-911c-f1bf58b277b7","system_id":"levelo_inurba_marseille","lat":43.21192,"lon":5.35073,"is_reserved":false,"is_disabled":false,"rental_uris":{"android":"levelo://app?vid=6daca031-efb5-4517-911c-f1bf58b277b7","ios":"levelo://app?vid=6daca031-efb5-4517-911c-f1bf58b277b7"},"vehicle_type_id":"4","last_reported":1761571516,"current_range_meters":22800,"station_id":"","pricing_plan_id":"cebpf4jnsgd1na2vs0mg"},{"bike_id":"b1e81361-2b17-4ef1-8a58-6def5753471b","system_id":"levelo_inurba_marseille","lat":43.337474,"lon":5.374712,"is_reserved":false,"is_disabled":false,"rental_uris":{"android":"levelo://app?vid=b1e81361-2b17-4ef1-8a58-6def5753471b","ios":"levelo://app?vid=b1e81361-2b17-4ef1-8a58-6def5753471b"},"vehicle_type_id":"4","last_reported":1761571516,"current_range_meters":22800,"station_id":"","pricing_plan_id":"cebpf4jnsgd1na2vs0mg"},{"bike_id":"6d22b5e0-1d40-4118-a25a-d15474b510cd","system_id":"levelo_inurba_marseille","lat":43.26553,"lon":5.37286,"is_reserved":false,"is_disabled":false,"rental_uris":{"android":"levelo://app?vid=6d22b5e0-1d40-4118-a25a-d15474b510cd","ios":"levelo://app?vid=6d22b5e0-1d40-4118-a25a-d15474b510cd"},"vehicle_type_id":"4","last_reported":1761571516,"current_range_meters":22800,"station_id":"ce4bhg12rcd13ifvqf70","pricing_plan_id":"cebpf4jnsgd1na2vs0mg"},{"bike_id":"e1138902-3e9c-4dbd-a886-51539f49fca5","system_id":"levelo_inurba_marseille","lat":43.31315,"lon":5.36811,"is_reserved":false,"is_disabled":false,"rental_uris":{"android":"levelo://app?vid=e1138902-3e9c-4dbd-a886-51539f49fca5","ios":"levelo://app?vid=e1138902-3e9c-4dbd-a886-51539f49fca5"},"vehicle_type_id":"4","last_reported":1761571516,"current_range_meters":22800,"station_id":"","pricing_plan_id":"cebpf4jnsgd1na2vs0mg"},