{"last_updated":1717351805,"ttl":30,"version":"2.2","data":{"bikes":[{"bike_id":"e4597787-47a2-4741-a8f0-595a1df80c41","system_id":"levelo_inurba_marseille","lat":43.312239,"lon":5.368562,"is_reserved":false,"is_disabled":false,"rental_uris":{"android":"levelo://app?vid=e4597787-47a2-4741-a8f0-595a1df80c41","ios":"levelo://app?vid=e4597787-47a2-4741-a8f0-595a1df80c41"},"vehicle_type_id":"4","last_reported":1717351805,"current_range_meters":18400,"station_id":"ce4bgl92rcd13ifvqbq0","pricing_plan_id":"cebpf4jnsgd1na2vs0mg"},{"bike_id":"08b6829e-fc9a-4011-a53c-0ec2db70189e","system_id":"levelo_inurba_marseille","lat":43.312239,"lon":5.368562,"is_reserved":false,"is_disabled":false,"rental_uris":{"android":"levelo://app?vid=08b6829e-fc9a-4011-a53c-0ec2db70189e","ios":"levelo://app?vid=08b6829e-fc9a-4011-a53c-0ec2db70189e"},"vehicle_type_id":"4","last_reported":1717351805,"current_range_meters":2000,"station_id":"ce4bgl92rcd13ifvqbq0","pricing_plan_id":"cebpf4jnsgd1na2vs0mg"},{"bike_id":"2fa2bedf-09d2-4869-8d9b-78a32876e883","system_id":"levelo_inurba_marseille","lat":43.314811,"lon":5.373103,"is_reserved":false,"is_disabled":false,"rental_uris":{"android":"levelo://app?vid=2fa2bedf-09d2-4869-8d9b-78a32876e883","ios":"levelo://app?vid=2fa2bedf-09d2-4869-8d9b-78a32876e883"},"vehicle_type_id":"4","last_reported":1717351805,"current_range_meters":4400,"station_id":"ce4bgt12rcd13ifvqcd0","pricing_plan_id":"cebpf4jnsgd1na2vs0mg"},{"bike_id":"1d43277d-0750-43f9-9f7a-2137d72ffff3","system_id":"levelo_inurba_marseille","lat":43.309034,"lon":5.371783,"is_reserved":false,"is_disabled":false,"rental_uris":{"android":"levelo://app?vid=1d43277d-0750-43f9-9f7a-2137d72ffff3","ios":"levelo://app?vid=1d43277d-0750-43f9-9f7a-2137d72ffff3"},"vehicle_type_id":"4","last_reported":1717351805,"current_range_meters":5600,"station_id":"ce4bguh2rcd13ifvqckg","pricing_plan_id":"cebpf4jnsgd1na2vs0mg"},{"bike_id":"0d9c71ca-ba59-40fd-b97f-046ce312796e","system_id":"levelo_inurba_marseille","lat":43.309034,"lon":5.371783,"is_reserved":false,"is_disabled":false,"rental_uris":{"android":"levelo://app?vid=0d9c71ca-ba59-40fd-b97f-046ce312796e","ios":"levelo://app?vid=0d9c71ca-ba59-40fd-b97f-046ce312796e"},"vehicle_type_id":"4","last_reported":1717351805,"current_range_meters":31200,"station_id":"ce4bguh2rcd13ifvqckg","pricing_plan_id":"cebpf4jnsgd1na2vs0mg"},{"bike_id":"c55be7da-dfca-4527-8434-82b0caa49e87","system_id":"levelo_inurba_marseille","lat":43.309034,"lon":5.371783,"is_reserved":false,"is_disabled":false,"rental_uris":{"android":"levelo://app?vid=c55be7da-dfca-4527-8434-82b0caa49e87","ios":"levelo://app?vid=c55be7da-dfca-4527-8434-82b0caa49e87"},"vehicle_type_id":"4","last_reported":1717351805,"current_range_meters":27200,"station_id":"ce4bguh2rcd13ifvqckg","pricing_plan_id":"cebpf4jnsgd1na2vs0mg"},{"bike_id":"107431bd-8216-4e63-bc8f-5456de9c9ed6","system_id":"levelo_inurba_marseille","lat":43.309039,"lon":5.371797,"is_reserved":false,"is_disabled":false,"rental_uris":{"android":"levelo://app?vid=107431bd-8216-4e63-bc8f-5456de9c9ed6","ios":"levelo://app?vid=107431bd-8216-4e63-bc8f-5456de9c9ed6"},"vehicle_type_id":"4","last_reported":1717351805,"current_range_meters":3200,"station_id":"ce4bguh2rcd13ifvqckg","pricing_plan_id":"cebpf4jnsgd1na2vs0mg"},{"bike_id":"f1f5d3f3-b9dd-4094-bfad-c05754c17104","system_id":"levelo_inurba_marseille","lat":43.305989,"lon":5.37225,"is_reserved":false,"is_disabled":false,"rental_uris":{"android":"levelo://app?vid=f1f5d3f3-b9dd-4094-bfad-c05754c17104","ios":"levelo://app?vid=f1f5d3f3-b9dd-4094-bfad-c05754c17104"},"vehicle_type_id":"4","last_reported":1717351805,"current_range_meters":23200,"station_id":"ce4bgqh2rcd13ifvqc4g","pricing_plan_id":"cebpf4jnsgd1na2vs0mg"},{"bike_id":"b3828212-1bbb-4f10-8d5c-c8c8113b85d2","system_id":"levelo_inurba_marseille","lat":43.305989,"lon":5.37225,"is_reserved":false,"is_disabled":false,"rental_uris":{"android":"levelo://app?vid=b3828212-1bbb-4f10-8d5c-c8c8113b85d2","ios":"levelo://app?vid=b3828212-1bbb-4f10-8d5c-c8c8113b85d2"},"vehicle_type_id":"4","last_reported":1717351805,"current_range_meters":16800,"station_id":"ce4bgqh2rcd13ifvqc4g","pricing_plan_id":"cebpf4jnsgd1na2vs0mg"},{"bike_id":"50d80437-177a-470d-a397-2444e0ed5214","system_id":"levelo_inurba_marseille","lat":43.311131,"lon":5.377651,"is_reserved":false,"is_disabled":false,"rental_uris":{"android":"levelo://app?vid=50d80437-177a-470d-a397-2444e0ed5214","ios":"levelo://app?vid=50d80437-177a-470d-a397-2444e0ed5214"},"vehicle_type_id":"4","last_reported":1717351805,"current_range_meters":4400,"station_id":"ce4bgt92rcd13ifvqcg0","pricing_plan_id":"cebpf4jnsgd1na2vs0mg"},{"bike_id":"8966cd8c-9080-40d3-ae02-4ef9c1ef63b8","system_id":"levelo_inurba_marseille","lat":43.317054,"lon":5.377388,"is_reserved":false,"is_disabled":false,"rental_uris":{"android":"levelo://app?vid=8966cd8c-9080-40d3-ae02-4ef9c1ef63b8","ios":"levelo://app?vid=8966cd8c-9080-40d3-ae02-4ef9c1ef63b8"},"vehicle_type_id":"4","last_reported":1717351805,"current_range_meters":0,"station_id":"ce4bgt92rcd13ifvqcf0","pricing_plan_id":"cebpf4jnsgd1na2vs0mg"},{"bike_id":"1acc8b4a-9e17-4ac6-aa77-cac24366d8b7","system_id":"levelo_inurba_marseille","lat":43.315293,"lon":5.380349,"is_reserved":false,"is_disabled":false,"rental_uris":{"android":"levelo://app?vid=1acc8b4a-9e17-4ac6-aa77-cac24366d8b7","ios":"levelo://app?vid=1acc8b4a-9e17-4ac6-aa77-cac24366d8b7"},"vehicle_type_id":"4","last_reported":1717351805,"current_range_meters":16800,"station_id":"ce4bhsp2rcd13ifvqi50","pricing_plan_id":"cebpf4jnsgd1na2vs0mg"},{"bike_id":"61ce56f3-8c27-423d-bbf1-b00ccc6cf763","system_id":"levelo_inurba_marseille","lat":43.315293,"lon":5.380349,"is_reserved":false,"is_disabled":false,"rental_uris":{"android":"levelo://app?vid=61ce56f3-8c27-423d-bbf1-b00ccc6cf763","ios":"levelo://app?vid=61ce56f3-8c27-423d-bbf1-b00ccc6cf763"},"vehicle_type_id":"4","last_reported":1717351805,"current_range_meters":0,"station_id":"ce4bhsp2rcd13ifvqi50","pricing_plan_id":"cebpf4jnsgd1na2vs0mg"},{"bike_id":"8c2214db-d643-46a8-992f-d7311598519f","system_id":"levelo_inurba_marseille","lat":43.31534,"lon":5.38044,"is_reserved":false,"is_disabled":false,"rental_uris":{"android":"levelo://app?vid=8c2214db-d643-46a8-992f-d7311598519f","ios":"levelo://app?vid=8c2214db-d643-46a8-992f-d7311598519f"},"vehicle_type_id":"4","last_reported":1717351805,"current_range_meters":6800,"station_id":"ce4bhsp2rcd13ifvqi50","pricing_plan_id":"cebpf4jnsgd1na2vs0mg"},{"bike_id":"91d845d2-aa1e-41ba-bcbc-de2d69413551","system_id":"levelo_inurba_marseille","lat":43.301939,"lon":5.366286,"is_reserved":false,"is_disabled":false,"rental_uris":{"android":"levelo://app?vid=91d845d2-aa1e-41ba-bcbc-de2d69413551","ios":"levelo://app?vid=91d845d2-aa1e-41ba-bcbc-de2d69413551"},"vehicle_type_id":"4","last_reported":1717351805,"current_range_meters":14800,"station_id":"ce4bgrh2rcd13ifvqc8g","pricing_plan_id":"cebpf4jnsgd1na2vs0mg"},{"bike_id":"2dfa2601-113b-4a9c-bc79-a2e20f3ab4f5","system_id":"levelo_inurba_marseille","lat":43.308012,"lon":5.381511,"is_reserved":false,"is_disabled":false,"rental_uris":{"android":"levelo://app?vid=2dfa2601-113b-4a9c-bc79-a2e20f3ab4f5","ios":"levelo://app?vid=2dfa2601-113b-4a9c-bc79-a2e20f3ab4f5"},"vehicle_type_id":"4","last_reported":1717351805,"current_range_meters":0,"station_id":"ce4bgt12rcd13ifvqce0","pricing_plan_id":"cebpf4jnsgd1na2vs0mg"},{"bike_id":"a806bf74-62f3-446e-b048-335731c16b4f","system_id":"levelo_inurba_marseille","lat":43.304606,"lon":5.379026,"is_reserved":false,"is_disabled":false,"rental_uris":{"android":"levelo://app?vid=a806bf74-62f3-446e-b048-335731c16b4f","ios":"levelo://app?vid=a806bf74-62f3-446e-b048-335731c16b4f"},"vehicle_type_id":"4","last_reported":1717351805,"current_range_meters":6000,"station_id":"ce4bgup2rcd13ifvqcn0","pricing_plan_id":"cebpf4jnsgd1na2vs0mg"},{"bike_id":"fe369345-263d-4e4e-8dd5-46ec186bbc15","system_id":"levelo_inurba_marseille","lat":43.304606,"lon":5.379026,"is_reserved":false,"is_disabled":false,"rental_uris":{"android":"levelo://app?vid=fe369345-263d-4e4e-8dd5-46ec186bbc15","ios":"levelo://app?vid=fe369345-263d-4e4e-8dd5-46ec186bbc15"},"vehicle_type_id":"4","last_reported":1717351805,"current_range_meters":5200,"station_id":"ce4bgup2rcd13ifvqcn0","pricing_plan_id":"cebpf4jnsgd1na2vs0mg"},{"bike_id":"ed93326e-04b1-4caa-a812-b531a03c7dba","system_id":"levelo_inurba_marseille","lat":43.304606,"lon":5.379026,"is_reserved":false,"is_disabled":false,"rental_uris":{"android":"levelo://app?vid=ed93326e-04b1-4caa-a812-b531a03c7dba","ios":"levelo://app?vid=ed93326e-04b1-4caa-a812-b531a03c7dba"},"vehicle_type_id":"4","last_reported":1717351805,"current_range_meters":12800,"station_id":"ce4bgup2rcd13ifvqcn0","pricing_plan_id":"cebpf4jnsgd1na2vs0mg"},{"bike_id":"63c1602d-df7b-41e4-a7ad-f6b2d7096ebd","system_id":"levelo_inurba_marseille","lat":43.304606,"lon":5.379026,"is_reserved":false,"is_disabled":false,"rental_uris":{"android":"levelo://app?vid=63c1602d-df7b-41e4-a7ad-f6b2d7096ebd","ios":"levelo://app?vid=63c1602d-df7b-41e4-a7ad-f6b2d7096ebd"},"vehicle_type_id":"4","last_reported":1717351805,"current_range_meters":21200,"station_id":"ce4bgup2rcd13ifvqcn0","pricing_plan_id":"cebpf4jnsgd1na2vs0mg"},{"bike_id":"92ec211f-0b53-4f34-b1e9-036fd0d768f7","system_id":"levelo_inurba_marseille","lat":43.324771,"lon":5.36557,"is_reserved":false,"is_disabled":false,"rental_uris":{"android":"levelo://app?vid=92ec211f-0b53-4f34-b1e9-036fd0d768f7","ios":"levelo://app?vid=92ec211f-0b53-4f34-b1e9-036fd0d768f7"},"vehicle_type_id":"4","last_reported":1717351805,"current_range_meters":800,"station_id":"ce4bhs12rcd13ifvqhvg","pricing_plan_id":"cebpf4jnsgd1na2vs0mg"},{"bike_id":"41f71f28-89c0-47d5-84d1-4c186c285185","system_id":"levelo_inurba_marseille","lat":43.31067,"lon":5.38356,"is_reserved":false,"is_disabled":false,"rental_uris":{"android":"levelo://app?vid=41f71f28-89c0-47d5-84d1-4c186c285185","ios":"levelo://app?vid=41f71f28-89c0-47d5-84d1-4c186c285185"},"vehicle_type_id":"4","last_reported":1717351805,"current_range_meters":11200,"station_id":"ce4bgv92rcd13ifvqcr0","pricing_plan_id":"cebpf4jnsgd1na2vs0mg"},{"bike_id":"06e74fda-51c3-47b1-bf48-5518e3e6f632","system_id":"levelo_inurba_marseille","lat":43.302784,"lon":5.377158,"is_reserved":false,"is_disabled":false,"rental_uris":{"android":"levelo://app?vid=06e74fda-51c3-47b1-bf48-5518e3e6f632","ios":"levelo://app?vid=06e74fda-51c3-47b1-bf48-5518e3e6f632"},"vehicle_type_id":"4","last_reported":1717351805,"current_range_meters":6400,"station_id":"ce4bguh2rcd13ifvqcj0","pricing_plan_id":"cebpf4jnsgd1na2vs0mg"},{"bike_id":"51519756-7b34-4814-a985-a902e86e1d1d","system_id":"levelo_inurba_marseille","lat":43.302784,"lon":5.377158,"is_reserved":false,"is_disabled":false,"rental_uris":{"android":"levelo://app?vid=51519756-7b34-4814-a985-a902e86e1d1d","ios":"levelo://app?vid=51519756-7b34-4814-a985-a902e86e1d1d"},"vehicle_type_id":"4","last_reported":1717351805,"current_range_meters":9200,"station_id":"ce4bguh2rcd13ifvqcj0","pricing_plan_id":"cebpf4jnsgd1na2vs0mg"},{"bike_id":"0dc21595-c68a-447a-9906-494c1cdb0091","system_id":"levelo_inurba_marseille","lat":43.310804,"lon":5.38359,"is_reserved":false,"is_disabled":false,"rental_uris":{"android":"levelo://app?vid=0dc21595-c68a-447a-9906-494c1cdb0091","ios":"levelo://app?vid=0dc21595-c68a-447a-9906-494c1cdb0091"},"vehicle_type_id":"4","last_reported":1717351805,"current_range_meters":8000,"station_id":"ce4bgv92rcd13ifvqcr0","pricing_plan_id":"cebpf4jnsgd1na2vs0mg"},{"bike_id":"4f93abd6-7a18-4a0a-91db-b4e9cd9989b8","system_id":"levelo_inurba_marseille","lat":43.30143,"lon":5.37413,"is_reserved":false,"is_disabled":false,"rental_uris":{"android":"levelo://app?vid=4f93abd6-7a18-4a0a-91db-b4e9cd9989b8","ios":"levelo://app?vid=4f93abd6-7a18-4a0a-91db-b4e9cd9989b8"},"vehicle_type_id":"4","last_reported":1717351805,"current_range_meters":24400,"station_id":"ce4bgs92rcd13ifvqcc0","pricing_plan_id":"cebpf4jnsgd1na2vs0mg"},{"bike_id":"0e7f4bcc-4806-4add-b595-fd726b6d2e52","system_id":"levelo_inurba_marseille","lat":43.319935,"lon":5.381699,"is_reserved":false,"is_disabled":false,"rental_uris":{"android":"levelo://app?vid=0e7f4bcc-4806-4add-b595-fd726b6d2e52","ios":"levelo://app?vid=0e7f4bcc-4806-4add-b595-fd726b6d2e52"},"vehicle_type_id":"4","last_reported":1717351805,"current_range_meters":12000,"station_id":"ce4bhr12rcd13ifvqhpg","pricing_plan_id":"cebpf4jnsgd1na2vs0mg"},{"bike_id":"d3eed2ec-2953-425d-9025-4e6eb0c42748","system_id":"levelo_inurba_marseille","lat":43.319935,"lon":5.381699,"is_reserved":false,"is_disabled":false,"rental_uris":{"android":"levelo://app?vid=d3eed2ec-2953-425d-9025-4e6eb0c42748","ios":"levelo://app?vid=d3eed2ec-2953-425d-9025-4e6eb0c42748"},"vehicle_type_id":"4","last_reported":1717351805,"current_range_meters":15600,"station_id":"ce4bhr12rcd13ifvqhpg","pricing_plan_id":"cebpf4jnsgd1na2vs0mg"},{"bike_id":"9b93a1d8-853a-479d-b3b8-795cae429c8f","system_id":"levelo_inurba_marseille","lat":43.319935,"lon":5.381699,"is_reserved":false,"is_disabled":false,"rental_uris":{"android":"levelo://app?vid=9b93a1d8-853a-479d-b3b8-795cae429c8f","ios":"levelo://app?vid=9b93a1d8-853a-479d-b3b8-795cae429c8f"},"vehicle_type_id":"4","last_reported":1717351805,"current_range_meters":26000,"station_id":"ce4bhr12rcd13ifvqhpg","pricing_plan_id":"cebpf4jnsgd1na2vs0mg"},{"bike_id":"a1b324c3-4672-4178-8f46-8f15d360dea8","system_id":"levelo_inurba_marseille","lat":43.303287,"lon":5.379301,"is_reserved":false,"is_disabled":false,"rental_uris":{"android":"levelo://app?vid=a1b324c3-4672-4178-8f46-8f15d360dea8","ios":"levelo://app?vid=a1b324c3-4672-4178-8f46-8f15d360dea8"},"vehicle_type_id":"4","last_reported":1717351805,"current_range_meters":16000,"station_id":"","pricing_plan_id":"cebpf4jnsgd1na2vs0mg"},{"bike_id":"11cc3aa7-731b-4122-88cc-9115ecf93666","system_id":"levelo_inurba_marseille","lat":43.313571,"lon":5.384829,"is_reserved":false,"is_disabled":false,"rental_uris":{"android":"levelo://app?vid=11cc3aa7-731b-4122-88cc-9115ecf93666","ios":"levelo://app?vid=11cc3aa7-731b-4122-88cc-9115ecf93666"},"vehicle_type_id":"4","last_reported":1717351805,"current_range_meters":21200,"station_id":"ce4bgt92rcd13ifvqcf0","pricing_plan_id":"cebpf4jnsgd1na2vs0mg"},{"bike_id":"a7b3861a-8826-4c56-9553-e8bf7fa0d3d2","system_id":"levelo_inurba_marseille","lat":43.313571,"lon":5.384829,"is_reserved":false,"is_disabled":false,"rental_uris":{"android":"levelo://app?vid=a7b3861a-8826-4c56-9553-e8bf7fa0d3d2","ios":"levelo://app?vid=a7b3861a-8826-4c56-9553-e8bf7fa0d3d2"},"vehicle_type_id":"4","last_reported":1717351805,"current_range_meters":2400,"station_id":"ce4bgt92rcd13ifvqcf0","pricing_plan_id":"cebpf4jnsgd1na2vs0mg"},{"bike_id":"365ba7b2-59d6-4ba7-8c9f-c061b6f48be0","system_id":"levelo_inurba_marseille","lat":43.313571,"lon":5.384829,"is_reserved":false,"is_disabled":false,"rental_uris":{"android":"levelo://app?vid=365ba7b2-59d6-4ba7-8c9f-c061b6f48be0","ios":"levelo://app?vid=365ba7b2-59d6-4ba7-8c9f-c061b6f48be0"},"vehicle_type_id":"4","last_reported":1717351805,"current_range_meters":31600,"station_id":"ce4bgt92rcd13ifvqcf0","pricing_plan_id":"cebpf4jnsgd1na2vs0mg"},{"bike_id":"def84737-7c83-4712-a103-897501d2dfce","system_id":"levelo_inurba_marseille","lat":43.313571,"lon":5.384829,"is_reserved":false,"is_disabled":false,"rental_uris":{"android":"levelo://app?vid=def84737-7c83-4712-a103-897501d2dfce","ios":"levelo://app?vid=def84737-7c83-4712-a103-897501d2dfce"},"vehicle_type_id":"4","last_reported":1717351805,"current_range_meters":11600,"station_id":"ce4bgt92rcd13ifvqcf0","pricing_plan_id":"cebpf4jnsgd1na2vs0mg"},{"bike_id":"c335231d-c5dc-419a-9b77-10fdd688c3ec","system_id":"levelo_inurba_marseille","lat":43.313571,"lon":5.384829,"is_reserved":false,"is_disabled":false,"rental_uris":{"android":"levelo://app?vid=c335231d-c5dc-419a-9b77-10fdd688c3ec","ios":"levelo://app?vid=c335231d-c5dc-419a-9b77-10fdd688c3ec"},"vehicle_type_id":"4","last_reported":1717351805,"current_range_meters":20400,"station_id":"ce4bgt92rcd13ifvqcf0","pricing_plan_id":"cebpf4jnsgd1na2vs0mg"},{"bike_id":"efc82b18-9a31-4385-8dd0-1144310ee52c","system_id":"levelo_inurba_marseille","lat":43.313571,"lon":5.384829,"is_reserved":false,"is_disabled":false,"rental_uris":{"android":"levelo://app?vid=efc82b18-9a31-4385-8dd0-1144310ee52c","ios":"levelo://app?vid=efc82b18-9a31-4385-8dd0-1144310ee52c"},"vehicle_type_id":"4","last_reported":1717351805,"current_range_meters":9600,"station_id":"ce4bgt92rcd13ifvqcf0","pricing_plan_id":"cebpf4jnsgd1na2vs0mg"},{"bike_id":"7dec1f05-7322-443c-b385-e6514e3f00b1","system_id":"levelo_inurba_marseille","lat":43.313571,"lon":5.384829,"is_reserved":false,"is_disabled":false,"rental_uris":{"android":"levelo://app?vid=7dec1f05-7322-443c-b385-e6514e3f00b1","ios":"levelo://app?vid=7dec1f05-7322-443c-b385-e6514e3f00b1"},"vehicle_type_id":"4","last_reported":1717351805,"current_range_meters":31600,"station_id":"ce4bgt92rcd13ifvqcf0","pricing_plan_id":"cebpf4jnsgd1na2vs0mg"},{"bike_id":"ac0a4aa0-719c-45fc-aa3e-52039776d9fe","system_id":"levelo_inurba_marseille","lat":43.313571,"lon":5.384829,"is_reserved":false,"is_disabled":false,"rental_uris":{"android":"levelo://app?vid=ac0a4aa0-719c-45fc-aa3e-52039776d9fe","ios":"levelo://app?vid=ac0a4aa0-719c-45fc-aa3e-52039776d9fe"},"vehicle_type_id":"4","last_reported":1717351805,"current_range_meters":4000,"station_id":"ce4bgt92rcd13ifvqcf0","pricing_plan_id":"cebpf4jnsgd1na2vs0mg"},{"bike_id":"82143a67-7f4a-4c59-9685-8d94999e81ab","system_id":"levelo_inurba_marseille","lat":43.313571,"lon":5.384829,"is_reserved":false,"is_disabled":false,"rental_uris":{"android":"levelo://app?vid=82143a67-7f4a-4c59-9685-8d94999e81ab","ios":"levelo://app?vid=82143a67-7f4a-4c59-9685-8d94999e81ab"},"vehicle_type_id":"4","last_reported":1717351805,"current_range_meters":16000,"station_id":"ce4bgt92rcd13ifvqcf0","pricing_plan_id":"cebpf4jnsgd1na2vs0mg"},{"bike_id":"d486d1b7-40b4-41d0-ae81-0141f0773635","system_id":"levelo_inurba_marseille","lat":43.313571,"lon":5.384829,"is_reserved":false,"is_disabled":false,"rental_uris":{"android":"levelo://app?vid=d486d1b7-40b4-41d0-ae81-0141f0773635","ios":"levelo://app?vid=d486d1b7-40b4-41d0-ae81-0141f0773635"},"vehicle_type_id":"4","last_reported":1717351805,"current_range_meters":23200,"station_id":"ce4bgt92rcd13ifvqcf0","pricing_plan_id":"cebpf4jnsgd1na2vs0mg"},{"bike_id":"ec8302c8-ada0-43e3-99bb-edaa45f8e26e","system_id":"levelo_inurba_marseille","lat":43.313571,"lon":5.384829,"is_reserved":false,"is_disabled":false,"rental_uris":{"android":"levelo://app?vid=ec8302c8-ada0-43e3-99bb-edaa45f8e26e","ios":"levelo://app?vid=ec8302c8-ada0-43e3-99bb-edaa45f8e26e"},"vehicle_type_id":"4","last_reported":1717351805,"current_range_meters":31600,"station_id":"ce4bgt92rcd13ifvqcf0","pricing_plan_id":"cebpf4jnsgd1na2vs0mg"},{"bike_id":"db29b910-35a8-475a-b8e2-2ee849807de8","system_id":"levelo_inurba_marseille","lat":43.297163,"lon":5.365866,"is_reserved":false,"is_disabled":false,"rental_uris":{"android":"levelo://app?vid=db29b910-35a8-475a-b8e2-2ee849807de8","ios":"levelo://app?vid=db29b910-35a8-475a-b8e2-2ee849807de8"},"vehicle_type_id":"4","last_reported":1717351805,"current_range_meters":24800,"station_id":"ce4bgn12rcd13ifvqbt0","pricing_plan_id":"cebpf4jnsgd1na2vs0mg"},{"bike_id":"e2fb77af-80d6-4b67-91ac-c1c188117835","system_id":"levelo_inurba_marseille","lat":43.305364,"lon":5.384119,"is_reserved":false,"is_disabled":false,"rental_uris":{"android":"levelo://app?vid=e2fb77af-80d6-4b67-91ac-c1c188117835","ios":"levelo://app?vid=e2fb77af-80d6-4b67-91ac-c1c188117835"},"vehicle_type_id":"4","last_reported":1717351805,"current_range_meters":24800,"station_id":"ce4bgg92rcd13ifvqb30","pricing_plan_id":"cebpf4jnsgd1na2vs0mg"},{"bike_id":"ba58a536-638a-4f6f-ac06-49f81556d892","system_id":"levelo_inurba_marseille","lat":43.298433,"lon":5.362774,"is_reserved":false,"is_disabled":false,"rental_uris":{"android":"levelo://app?vid=ba58a536-638a-4f6f-ac06-49f81556d892","ios":"levelo://app?vid=ba58a536-638a-4f6f-ac06-49f81556d892"},"vehicle_type_id":"4","last_reported":1717351805,"current_range_meters":400,"station_id":"ce4bgpp2rcd13ifvqc3g","pricing_plan_id":"cebpf4jnsgd1na2vs0mg"},{"bike_id":"7c0279c4-785e-41cc-9875-11b1aa5697b0","system_id":"levelo_inurba_marseille","lat":43.298433,"lon":5.362774,"is_reserved":false,"is_disabled":false,"rental_uris":{"android":"levelo://app?vid=7c0279c4-785e-41cc-9875-11b1aa5697b0","ios":"levelo://app?vid=7c0279c4-785e-41cc-9875-11b1aa5697b0"},"vehicle_type_id":"4","last_reported":1717351805,"current_range_meters":29200,"station_id":"ce4bgpp2rcd13ifvqc3g","pricing_plan_id":"cebpf4jnsgd1na2vs0mg"},{"bike_id":"cb4f6d06-d550-45f1-99c8-4a6711854121","system_id":"levelo_inurba_marseille","lat":43.305364,"lon":5.384119,"is_reserved":false,"is_disabled":false,"rental_uris":{"android":"levelo://app?vid=cb4f6d06-d550-45f1-99c8-4a6711854121","ios":"levelo://app?vid=cb4f6d06-d550-45f1-99c8-4a6711854121"},"vehicle_type_id":"4","last_reported":1717351805,"current_range_meters":6400,"station_id":"ce4bgg92rcd13ifvqb30","pricing_plan_id":"cebpf4jnsgd1na2vs0mg"},{"bike_id":"0870cf45-a72b-4979-966a-121161adf9d2","system_id":"levelo_inurba_marseille","lat":43.311722,"lon":5.387247,"is_reserved":false,"is_disabled":false,"rental_uris":{"android":"levelo://app?vid=0870cf45-a72b-4979-966a-121161adf9d2","ios":"levelo://app?vid=0870cf45-a72b-4979-966a-121161adf9d2"},"vehicle_type_id":"4","last_reported":1717351805,"current_range_meters":27600,"station_id":"ce4bgv12rcd13ifvqcp0","pricing_plan_id":"cebpf4jnsgd1na2vs0mg"},{"bike_id":"ff98c408-a087-490b-90b5-c375aa7c421b","system_id":"levelo_inurba_marseille","lat":43.311722,"lon":5.387247,"is_reserved":false,"is_disabled":false,"rental_uris":{"android":"levelo://app?vid=ff98c408-a087-490b-90b5-c375aa7c421b","ios":"levelo://app?vid=ff98c408-a087-490b-90b5-c375aa7c421b"},"vehicle_type_id":"4","last_reported":1717351805,"current_range_meters":12400,"station_id":"ce4bgv12rcd13ifvqcp0","pricing_plan_id":"cebpf4jnsgd1na2vs0mg"},{"bike_id":"e2d26072-bc84-4448-b9c2-391e4cd5e6d1","system_id":"levelo_inurba_marseille","lat":43.311722,"lon":5.387247,"is_reserved":false,"is_disabled":false,"rental_uris":{"android":"levelo://app?vid=e2d26072-bc84-4448-b9c2-391e4cd5e6d1","ios":"levelo://app?vid=e2d26072-bc84-4448-b9c2-391e4cd5e6d1"},"vehicle_type_id":"4","last_reported":1717351805,"current_range_meters":11600,"station_id":"ce4bgv12rcd13ifvqcp0","pricing_plan_id":"cebpf4jnsgd1na2vs0mg"},{"bike_id":"97ccab9f-cc67-4abb-b7db-c564a91a4f0c","system_id":"levelo_inurba_marseille","lat":43.297966,"lon":5.365717,"is_reserved":false,"is_disabled":false,"rental_uris":{"android":"levelo://app?vid=97ccab9f-cc67-4abb-b7db-c564a91a4f0c","ios":"levelo://app?vid=97ccab9f-cc67-4abb-b7db-c564a91a4f0c"},"vehicle_type_id":"4","last_reported":1717351805,"current_range_meters":0,"station_id":"","pricing_plan_id":"cebpf4jnsgd1na2vs0mg"},{"bike_id":"c93ff8e1-3067-49a6-b1c1-b68040fea8fd","system_id":"levelo_inurba_marseille","lat":43.297774,"lon":5.370875,"is_reserved":false,"is_disabled":false,"rental_uris":{"android":"levelo://app?vid=c93ff8e1-3067-49a6-b1c1-b68040fea8fd","ios":"levelo://app?vid=c93ff8e1-3067-49a6-b1c1-b68040fea8fd"},"vehicle_type_id":"4","last_reported":1717351805,"current_range_meters":18800,"station_id":"ce4bgop2rcd13ifvqc1g","pricing_plan_id":"cebpf4jnsgd1na2vs0mg"},{"bike_id":"86ee1a76-b440-4583-80a3-8de6c6610b32","system_id":"levelo_inurba_marseille","lat":43.297774,"lon":5.370875,"is_reserved":false,"is_disabled":false,"rental_uris":{"android":"levelo://app?vid=86ee1a76-b440-4583-80a3-8de6c6610b32","ios":"levelo://app?vid=86ee1a76-b440-4583-80a3-8de6c6610b32"},"vehicle_type_id":"4","last_reported":1717351805,"current_range_meters":31200,"station_id":"ce4bgop2rcd13ifvqc1g","pricing_plan_id":"cebpf4jnsgd1na2vs0mg"},{"bike_id":"10fb4334-c940-4455-979b-d3f1ca32e262","system_id":"levelo_inurba_marseille","lat":43.297774,"lon":5.370875,"is_reserved":false,"is_disabled":false,"rental_uris":{"android":"levelo://app?vid=10fb4334-c940-4455-979b-d3f1ca32e262","ios":"levelo://app?vid=10fb4334-c940-4455-979b-d3f1ca32e262"},"vehicle_type_id":"4","last_reported":1717351805,"current_range_meters":29600,"station_id":"ce4bgop2rcd13ifvqc1g","pricing_plan_id":"cebpf4jnsgd1na2vs0mg"},{"bike_id":"1141c4de-4e73-48d1-b340-160e9f972353","system_id":"levelo_inurba_marseille","lat":43.297794,"lon":5.370888,"is_reserved":false,"is_disabled":false,"rental_uris":{"android":"levelo://app?vid=1141c4de-4e73-48d1-b340-160e9f972353","ios":"levelo://app?vid=1141c4de-4e73-48d1-b340-160e9f972353"},"vehicle_type_id":"4","last_reported":1717351805,"current_range_meters":5200,"station_id":"ce4bgop2rcd13ifvqc1g","pricing_plan_id":"cebpf4jnsgd1na2vs0mg"},{"bike_id":"1659ce0c-fafb-47a0-b4bf-e6264ebd5cf0","system_id":"levelo_inurba_marseille","lat":43.32292,"lon":5.38282,"is_reserved":false,"is_disabled":false,"rental_uris":{"android":"levelo://app?vid=1659ce0c-fafb-47a0-b4bf-e6264ebd5cf0","ios":"levelo://app?vid=1659ce0c-fafb-47a0-b4bf-e6264ebd5cf0"},"vehicle_type_id":"4","last_reported":1717351805,"current_range_meters":10400,"station_id":"ce4bhr12rcd13ifvqhqg","pricing_plan_id":"cebpf4jnsgd1na2vs0mg"},{"bike_id":"0a4c99dc-2692-4cf0-ae25-5e268eb9ef53","system_id":"levelo_inurba_marseille","lat":43.2968,"lon":5.37291,"is_reserved":false,"is_disabled":false,"rental_uris":{"android":"levelo://app?vid=0a4c99dc-2692-4cf0-ae25-5e268eb9ef53","ios":"levelo://app?vid=0a4c99dc-2692-4cf0-ae25-5e268eb9ef53"},"vehicle_type_id":"4","last_reported":1717351805,"current_range_meters":15200,"station_id":"ce4bgk12rcd13ifvqbj0","pricing_plan_id":"cebpf4jnsgd1na2vs0mg"},{"bike_id":"f1054e5d-1020-4f6e-b433-4ffcc057beac","system_id":"levelo_inurba_marseille","lat":43.29573,"lon":5.367355,"is_reserved":false,"is_disabled":false,"rental_uris":{"android":"levelo://app?vid=f1054e5d-1020-4f6e-b433-4ffcc057beac","ios":"levelo://app?vid=f1054e5d-1020-4f6e-b433-4ffcc057beac"},"vehicle_type_id":"4","last_reported":1717351805,"current_range_meters":13200,"station_id":"ce4bgph2rcd13ifvqc2g","pricing_plan_id":"cebpf4jnsgd1na2vs0mg"},{"bike_id":"d83175f0-7f70-4025-a962-a6648cf2743a","system_id":"levelo_inurba_marseille","lat":43.296935,"lon":5.376544,"is_reserved":false,"is_disabled":false,"rental_uris":{"android":"levelo://app?vid=d83175f0-7f70-4025-a962-a6648cf2743a","ios":"levelo://app?vid=d83175f0-7f70-4025-a962-a6648cf2743a"},"vehicle_type_id":"4","last_reported":1717351805,"current_range_meters":18000,"station_id":"ce4bgkh2rcd13ifvqbl0","pricing_plan_id":"cebpf4jnsgd1na2vs0mg"},{"bike_id":"2c4f850f-1202-4276-afbc-c3c6a87d21ec","system_id":"levelo_inurba_marseille","lat":43.299028,"lon":5.381509,"is_reserved":false,"is_disabled":false,"rental_uris":{"android":"levelo://app?vid=2c4f850f-1202-4276-afbc-c3c6a87d21ec","ios":"levelo://app?vid=2c4f850f-1202-4276-afbc-c3c6a87d21ec"},"vehicle_type_id":"4","last_reported":1717351805,"current_range_meters":19200,"station_id":"ce4bgj12rcd13ifvqbc0","pricing_plan_id":"cebpf4jnsgd1na2vs0mg"},{"bike_id":"ee517178-d3bf-49c8-b4e4-9b75d4d44adf","system_id":"levelo_inurba_marseille","lat":43.29914,"lon":5.38145,"is_reserved":false,"is_disabled":false,"rental_uris":{"android":"levelo://app?vid=ee517178-d3bf-49c8-b4e4-9b75d4d44adf","ios":"levelo://app?vid=ee517178-d3bf-49c8-b4e4-9b75d4d44adf"},"vehicle_type_id":"4","last_reported":1717351805,"current_range_meters":21200,"station_id":"ce4bgj12rcd13ifvqbc0","pricing_plan_id":"cebpf4jnsgd1na2vs0mg"},{"bike_id":"e10c0c80-e56c-4958-93fc-cab49844cf6d","system_id":"levelo_inurba_marseille","lat":43.309589,"lon":5.390258,"is_reserved":false,"is_disabled":false,"rental_uris":{"android":"levelo://app?vid=e10c0c80-e56c-4958-93fc-cab49844cf6d","ios":"levelo://app?vid=e10c0c80-e56c-4958-93fc-cab49844cf6d"},"vehicle_type_id":"4","last_reported":1717351805,"current_range_meters":400,"station_id":"ce4bgup2rcd13ifvqco0","pricing_plan_id":"cebpf4jnsgd1na2vs0mg"},{"bike_id":"33940f40-01fb-4d60-9999-ad8131536993","system_id":"levelo_inurba_marseille","lat":43.299064,"lon":5.3814,"is_reserved":false,"is_disabled":false,"rental_uris":{"android":"levelo://app?vid=33940f40-01fb-4d60-9999-ad8131536993","ios":"levelo://app?vid=33940f40-01fb-4d60-9999-ad8131536993"},"vehicle_type_id":"4","last_reported":1717351805,"current_range_meters":22400,"station_id":"ce4bgj12rcd13ifvqbc0","pricing_plan_id":"cebpf4jnsgd1na2vs0mg"},{"bike_id":"d1733db9-5089-4c7a-962d-d809cdcecd7b","system_id":"levelo_inurba_marseille","lat":43.309589,"lon":5.390258,"is_reserved":false,"is_disabled":false,"rental_uris":{"android":"levelo://app?vid=d1733db9-5089-4c7a-962d-d809cdcecd7b","ios":"levelo://app?vid=d1733db9-5089-4c7a-962d-d809cdcecd7b"},"vehicle_type_id":"4","last_reported":1717351805,"current_range_meters":0,"station_id":"ce4bgup2rcd13ifvqco0","pricing_plan_id":"cebpf4jnsgd1na2vs0mg"},{"bike_id":"2762165f-24ab-4f8d-8d3e-30ab6b2e59a1","system_id":"levelo_inurba_marseille","lat":43.30945,"lon":5.39039,"is_reserved":false,"is_disabled":false,"rental_uris":{"android":"levelo://app?vid=2762165f-24ab-4f8d-8d3e-30ab6b2e59a1","ios":"levelo://app?vid=2762165f-24ab-4f8d-8d3e-30ab6b2e59a1"},"vehicle_type_id":"4","last_reported":1717351805,"current_range_meters":0,"station_id":"ce4bgup2rcd13ifvqco0","pricing_plan_id":"cebpf4jnsgd1na2vs0mg"},{"bike_id":"2277df84-a4a3-47e1-8aa2-4a6a4c954d74","system_id":"levelo_inurba_marseille","lat":43.296935,"lon":5.376544,"is_reserved":false,"is_disabled":false,"rental_uris":{"android":"levelo://app?vid=2277df84-a4a3-47e1-8aa2-4a6a4c954d74","ios":"levelo://app?vid=2277df84-a4a3-47e1-8aa2-4a6a4c954d74"},"vehicle_type_id":"4","last_reported":1717351805,"current_range_meters":31200,"station_id":"ce4bgkh2rcd13ifvqbl0","pricing_plan_id":"cebpf4jnsgd1na2vs0mg"},{"bike_id":"5cef5523-3c0b-4ad2-a048-4bb3abe2abb9","system_id":"levelo_inurba_marseille","lat":43.3095,"lon":5.39044,"is_reserved":false,"is_disabled":false,"rental_uris":{"android":"levelo://app?vid=5cef5523-3c0b-4ad2-a048-4bb3abe2abb9","ios":"levelo://app?vid=5cef5523-3c0b-4ad2-a048-4bb3abe2abb9"},"vehicle_type_id":"4","last_reported":1717351805,"current_range_meters":28000,"station_id":"ce4bgup2rcd13ifvqco0","pricing_plan_id":"cebpf4jnsgd1na2vs0mg"},{"bike_id":"b5c27c2c-448c-4462-be9b-c34523af710b","system_id":"levelo_inurba_marseille","lat":43.296921,"lon":5.376579,"is_reserved":false,"is_disabled":false,"rental_uris":{"android":"levelo://app?vid=b5c27c2c-448c-4462-be9b-c34523af710b","ios":"levelo://app?vid=b5c27c2c-448c-4462-be9b-c34523af710b"},"vehicle_type_id":"4","last_reported":1717351805,"current_range_meters":29600,"station_id":"ce4bgkh2rcd13ifvqbl0","pricing_plan_id":"cebpf4jnsgd1na2vs0mg"},{"bike_id":"264d5031-f029-42ba-8ab9-221c2f94c49b","system_id":"levelo_inurba_marseille","lat":43.317557,"lon":5.390173,"is_reserved":false,"is_disabled":false,"rental_uris":{"android":"levelo://app?vid=264d5031-f029-42ba-8ab9-221c2f94c49b","ios":"levelo://app?vid=264d5031-f029-42ba-8ab9-221c2f94c49b"},"vehicle_type_id":"4","last_reported":1717351805,"current_range_meters":11200,"station_id":"ce4bhqp2rcd13ifvqhng","pricing_plan_id":"cebpf4jnsgd1na2vs0mg"},{"bike_id":"942f2b45-0cb8-4c9c-860f-419664ab2557","system_id":"levelo_inurba_marseille","lat":43.317557,"lon":5.390173,"is_reserved":false,"is_disabled":false,"rental_uris":{"android":"levelo://app?vid=942f2b45-0cb8-4c9c-860f-419664ab2557","ios":"levelo://app?vid=942f2b45-0cb8-4c9c-860f-419664ab2557"},"vehicle_type_id":"4","last_reported":1717351805,"current_range_meters":6800,"station_id":"ce4bhqp2rcd13ifvqhng","pricing_plan_id":"cebpf4jnsgd1na2vs0mg"},{"bike_id":"fd7dd085-8c30-4d40-9c88-5849344cbde7","system_id":"levelo_inurba_marseille","lat":43.317557,"lon":5.390173,"is_reserved":false,"is_disabled":false,"rental_uris":{"android":"levelo://app?vid=fd7dd085-8c30-4d40-9c88-5849344cbde7","ios":"levelo://app?vid=fd7dd085-8c30-4d40-9c88-5849344cbde7"},"vehicle_type_id":"4","last_reported":1717351805,"current_range_meters":5600,"station_id":"ce4bhqp2rcd13ifvqhng","pricing_plan_id":"cebpf4jnsgd1na2vs0mg"},{"bike_id":"0dc92469-42ed-4ca0-b961-d9d138e3d953","system_id":"levelo_inurba_marseille","lat":43.317557,"lon":5.390173,"is_reserved":false,"is_disabled":false,"rental_uris":{"android":"levelo://app?vid=0dc92469-42ed-4ca0-b961-d9d138e3d953","ios":"levelo://app?vid=0dc92469-42ed-4ca0-b961-d9d138e3d953"},"vehicle_type_id":"4","last_reported":1717351805,"current_range_meters":13200,"station_id":"ce4bhqp2rcd13ifvqhng","pricing_plan_id":"cebpf4jnsgd1na2vs0mg"},{"bike_id":"a3a2aa9b-3bf8-4a82-93b8-4e8c95fa38ba","system_id":"levelo_inurba_marseille","lat":43.317557,"lon":5.390173,"is_reserved":false,"is_disabled":false,"rental_uris":{"android":"levelo://app?vid=a3a2aa9b-3bf8-4a82-93b8-4e8c95fa38ba","ios":"levelo://app?vid=a3a2aa9b-3bf8-4a82-93b8-4e8c95fa38ba"},"vehicle_type_id":"4","last_reported":1717351805,"current_range_meters":16400,"station_id":"ce4bhqp2rcd13ifvqhng","pricing_plan_id":"cebpf4jnsgd1na2vs0mg"},{"bike_id":"44ced391-987d-4eaa-9fa4-5b2d3dec0f5d","system_id":"levelo_inurba_marseille","lat":43.298037,"lon":5.381066,"is_reserved":false,"is_disabled":false,"rental_uris":{"android":"levelo://app?vid=44ced391-987d-4eaa-9fa4-5b2d3dec0f5d","ios":"levelo://app?vid=44ced391-987d-4eaa-9fa4-5b2d3dec0f5d"},"vehicle_type_id":"4","last_reported":1717351805,"current_range_meters":15600,"station_id":"ce4bgip2rcd13ifvqbb0","pricing_plan_id":"cebpf4jnsgd1na2vs0mg"},{"bike_id":"c7a4513b-a250-4974-836e-341796c7a07c","system_id":"levelo_inurba_marseille","lat":43.300552,"lon":5.385588,"is_reserved":false,"is_disabled":false,"rental_uris":{"android":"levelo://app?vid=c7a4513b-a250-4974-836e-341796c7a07c","ios":"levelo://app?vid=c7a4513b-a250-4974-836e-341796c7a07c"},"vehicle_type_id":"4","last_reported":1717351805,"current_range_meters":19600,"station_id":"","pricing_plan_id":"cebpf4jnsgd1na2vs0mg"},{"bike_id":"5597c839-a1ad-45d0-865f-f9f0e0c25a1d","system_id":"levelo_inurba_marseille","lat":43.296263,"lon":5.377094,"is_reserved":false,"is_disabled":false,"rental_uris":{"android":"levelo://app?vid=5597c839-a1ad-45d0-865f-f9f0e0c25a1d","ios":"levelo://app?vid=5597c839-a1ad-45d0-865f-f9f0e0c25a1d"},"vehicle_type_id":"4","last_reported":1717351805,"current_range_meters":22800,"station_id":"ce4bgi92rcd13ifvqb90","pricing_plan_id":"cebpf4jnsgd1na2vs0mg"},{"bike_id":"ef4fd1a9-7314-48c3-ac15-129d651a32c9","system_id":"levelo_inurba_marseille","lat":43.295279,"lon":5.375048,"is_reserved":false,"is_disabled":false,"rental_uris":{"android":"levelo://app?vid=ef4fd1a9-7314-48c3-ac15-129d651a32c9","ios":"levelo://app?vid=ef4fd1a9-7314-48c3-ac15-129d651a32c9"},"vehicle_type_id":"4","last_reported":1717351805,"current_range_meters":10000,"station_id":"ce4bgkp2rcd13ifvqbmg","pricing_plan_id":"cebpf4jnsgd1na2vs0mg"},{"bike_id":"0a9d974e-4b47-46f9-9798-df650974a33f","system_id":"levelo_inurba_marseille","lat":43.29974,"lon":5.38497,"is_reserved":false,"is_disabled":false,"rental_uris":{"android":"levelo://app?vid=0a9d974e-4b47-46f9-9798-df650974a33f","ios":"levelo://app?vid=0a9d974e-4b47-46f9-9798-df650974a33f"},"vehicle_type_id":"4","last_reported":1717351805,"current_range_meters":4400,"station_id":"ce4bgj92rcd13ifvqbd0","pricing_plan_id":"cebpf4jnsgd1na2vs0mg"},{"bike_id":"1b463e33-ce10-4e03-bddd-414d7fe54958","system_id":"levelo_inurba_marseille","lat":43.29495,"lon":5.358,"is_reserved":false,"is_disabled":false,"rental_uris":{"android":"levelo://app?vid=1b463e33-ce10-4e03-bddd-414d7fe54958","ios":"levelo://app?vid=1b463e33-ce10-4e03-bddd-414d7fe54958"},"vehicle_type_id":"4","last_reported":1717351805,"current_range_meters":1200,"station_id":"","pricing_plan_id":"cebpf4jnsgd1na2vs0mg"},{"bike_id":"075a7260-73ae-4dec-b73f-09b0fc702793","system_id":"levelo_inurba_marseille","lat":43.32367,"lon":5.388836,"is_reserved":false,"is_disabled":false,"rental_uris":{"android":"levelo://app?vid=075a7260-73ae-4dec-b73f-09b0fc702793","ios":"levelo://app?vid=075a7260-73ae-4dec-b73f-09b0fc702793"},"vehicle_type_id":"4","last_reported":1717351805,"current_range_meters":800,"station_id":"ce4bhqp2rcd13ifvqhog","pricing_plan_id":"cebpf4jnsgd1na2vs0mg"},{"bike_id":"9acb491e-1894-4897-a5ff-a493317cbe92","system_id":"levelo_inurba_marseille","lat":43.32368,"lon":5.38871,"is_reserved":false,"is_disabled":false,"rental_uris":{"android":"levelo://app?vid=9acb491e-1894-4897-a5ff-a493317cbe92","ios":"levelo://app?vid=9acb491e-1894-4897-a5ff-a493317cbe92"},"vehicle_type_id":"4","last_reported":1717351805,"current_range_meters":0,"station_id":"ce4bhqp2rcd13ifvqhog","pricing_plan_id":"cebpf4jnsgd1na2vs0mg"},{"bike_id":"eed0def8-4714-47e5-bfe5-ad90e9f95b7b","system_id":"levelo_inurba_marseille","lat":43.32367,"lon":5.388836,"is_reserved":false,"is_disabled":false,"rental_uris":{"android":"levelo://app?vid=eed0def8-4714-47e5-bfe5-ad90e9f95b7b","ios":"levelo://app?vid=eed0def8-4714-47e5-bfe5-ad90e9f95b7b"},"vehicle_type_id":"4","last_reported":1717351805,"current_range_meters":3600,"station_id":"ce4bhqp2rcd13ifvqhog","pricing_plan_id":"cebpf4jnsgd1na2vs0mg"},{"bike_id":"e3eec531-8697-49f6-aee0-9ab34809c9bf","system_id":"levelo_inurba_marseille","lat":43.323678,"lon":5.388825,"is_reserved":false,"is_disabled":false,"rental_uris":{"android":"levelo://app?vid=e3eec531-8697-49f6-aee0-9ab34809c9bf","ios":"levelo://app?vid=e3eec531-8697-49f6-aee0-9ab34809c9bf"},"vehicle_type_id":"4","last_reported":1717351805,"current_range_meters":4400,"station_id":"ce4bhqp2rcd13ifvqhog","pricing_plan_id":"cebpf4jnsgd1na2vs0mg"},{"bike_id":"d3385109-24d3-437f-9ac6-34cda17517e8","system_id":"levelo_inurba_marseille","lat":43.32367,"lon":5.388836,"is_reserved":false,"is_disabled":false,"rental_uris":{"android":"levelo://app?vid=d3385109-24d3-437f-9ac6-34cda17517e8","ios":"levelo://app?vid=d3385109-24d3-437f-9ac6-34cda17517e8"},"vehicle_type_id":"4","last_reported":1717351805,"current_range_meters":0,"station_id":"ce4bhqp2rcd13ifvqhog","pricing_plan_id":"cebpf4jnsgd1na2vs0mg"},{"bike_id":"d0e60592-95e7-4143-a582-7ed29d0071c3","system_id":"levelo_inurba_marseille","lat":43.323679,"lon":5.388838,"is_reserved":false,"is_disabled":false,"rental_uris":{"android":"levelo://app?vid=d0e60592-95e7-4143-a582-7ed29d0071c3","ios":"levelo://app?vid=d0e60592-95e7-4143-a582-7ed29d0071c3"},"vehicle_type_id":"4","last_reported":1717351805,"current_range_meters":17600,"station_id":"ce4bhqp2rcd13ifvqhog","pricing_plan_id":"cebpf4jnsgd1na2vs0mg"},{"bike_id":"db4d735f-51f5-4b4c-b20b-9eb328645722","system_id":"levelo_inurba_marseille","lat":43.30185,"lon":5.38941,"is_reserved":false,"is_disabled":false,"rental_uris":{"android":"levelo://app?vid=db4d735f-51f5-4b4c-b20b-9eb328645722","ios":"levelo://app?vid=db4d735f-51f5-4b4c-b20b-9eb328645722"},"vehicle_type_id":"4","last_reported":1717351805,"current_range_meters":9200,"station_id":"","pricing_plan_id":"cebpf4jnsgd1na2vs0mg"},{"bike_id":"c9820db2-79aa-42dc-80cd-4fb1a1a5bc01","system_id":"levelo_inurba_marseille","lat":43.29601,"lon":5.381084,"is_reserved":false,"is_disabled":false,"rental_uris":{"android":"levelo://app?vid=c9820db2-79aa-42dc-80cd-4fb1a1a5bc01","ios":"levelo://app?vid=c9820db2-79aa-42dc-80cd-4fb1a1a5bc01"},"vehicle_type_id":"4","last_reported":1717351805,"current_range_meters":12000,"station_id":"ce4bgl12rcd13ifvqbo0","pricing_plan_id":"cebpf4jnsgd1na2vs0mg"},{"bike_id":"58559c12-4fb5-4bc0-9c05-b75bebb759c6","system_id":"levelo_inurba_marseille","lat":43.29304,"lon":5.36368,"is_reserved":false,"is_disabled":false,"rental_uris":{"android":"levelo://app?vid=58559c12-4fb5-4bc0-9c05-b75bebb759c6","ios":"levelo://app?vid=58559c12-4fb5-4bc0-9c05-b75bebb759c6"},"vehicle_type_id":"4","last_reported":1717351805,"current_range_meters":16400,"station_id":"","pricing_plan_id":"cebpf4jnsgd1na2vs0mg"},{"bike_id":"c1d207e3-7ce1-44f7-8b06-24839abe5995","system_id":"levelo_inurba_marseille","lat":43.293163,"lon":5.37172,"is_reserved":false,"is_disabled":false,"rental_uris":{"android":"levelo://app?vid=c1d207e3-7ce1-44f7-8b06-24839abe5995","ios":"levelo://app?vid=c1d207e3-7ce1-44f7-8b06-24839abe5995"},"vehicle_type_id":"4","last_reported":1717351805,"current_range_meters":26800,"station_id":"ce4bgh92rcd13ifvqb40","pricing_plan_id":"cebpf4jnsgd1na2vs0mg"},{"bike_id":"0d8c9027-42aa-4c93-8e05-1f7050b37c9d","system_id":"levelo_inurba_marseille","lat":43.293249,"lon":5.371578,"is_reserved":false,"is_disabled":false,"rental_uris":{"android":"levelo://app?vid=0d8c9027-42aa-4c93-8e05-1f7050b37c9d","ios":"levelo://app?vid=0d8c9027-42aa-4c93-8e05-1f7050b37c9d"},"vehicle_type_id":"4","last_reported":1717351805,"current_range_meters":25200,"station_id":"ce4bgh92rcd13ifvqb40","pricing_plan_id":"cebpf4jnsgd1na2vs0mg"},{"bike_id":"b4ceb19e-daf2-4da3-aef2-5c77271182f2","system_id":"levelo_inurba_marseille","lat":43.293259,"lon":5.371586,"is_reserved":false,"is_disabled":false,"rental_uris":{"android":"levelo://app?vid=b4ceb19e-daf2-4da3-aef2-5c77271182f2","ios":"levelo://app?vid=b4ceb19e-daf2-4da3-aef2-5c77271182f2"},"vehicle_type_id":"4","last_reported":1717351805,"current_range_meters":16800,"station_id":"ce4bgh92rcd13ifvqb40","pricing_plan_id":"cebpf4jnsgd1na2vs0mg"},{"bike_id":"dfede4a8-8ab6-4a84-9bf8-b1c8942bae0b","system_id":"levelo_inurba_marseille","lat":43.293259,"lon":5.371586,"is_reserved":false,"is_disabled":false,"rental_uris":{"android":"levelo://app?vid=dfede4a8-8ab6-4a84-9bf8-b1c8942bae0b","ios":"levelo://app?vid=dfede4a8-8ab6-4a84-9bf8-b1c8942bae0b"},"vehicle_type_id":"4","last_reported":1717351805,"current_range_meters":21200,"station_id":"ce4bgh92rcd13ifvqb40","pricing_plan_id":"cebpf4jnsgd1na2vs0mg"},{"bike_id":"3b073fe4-7f28-4dc4-96e6-ec1343ca67b5","system_id":"levelo_inurba_marseille","lat":43.292749,"lon":5.368398,"is_reserved":false,"is_disabled":false,"rental_uris":{"android":"levelo://app?vid=3b073fe4-7f28-4dc4-96e6-ec1343ca67b5","ios":"levelo://app?vid=3b073fe4-7f28-4dc4-96e6-ec1343ca67b5"},"vehicle_type_id":"4","last_reported":1717351805,"current_range_meters":7600,"station_id":"ce4bhbp2rcd13ifvqesg","pricing_plan_id":"cebpf4jnsgd1na2vs0mg"},{"bike_id":"7e2fde9a-3c2b-4c43-90f1-fc70af0df436","system_id":"levelo_inurba_marseille","lat":43.293259,"lon":5.371586,"is_reserved":false,"is_disabled":false,"rental_uris":{"android":"levelo://app?vid=7e2fde9a-3c2b-4c43-90f1-fc70af0df436","ios":"levelo://app?vid=7e2fde9a-3c2b-4c43-90f1-fc70af0df436"},"vehicle_type_id":"4","last_reported":1717351805,"current_range_meters":18000,"station_id":"ce4bgh92rcd13ifvqb40","pricing_plan_id":"cebpf4jnsgd1na2vs0mg"},{"bike_id":"3add6894-d418-47d6-ba19-4596ac7583c2","system_id":"levelo_inurba_marseille","lat":43.29258,"lon":5.3685,"is_reserved":false,"is_disabled":false,"rental_uris":{"android":"levelo://app?vid=3add6894-d418-47d6-ba19-4596ac7583c2","ios":"levelo://app?vid=3add6894-d418-47d6-ba19-4596ac7583c2"},"vehicle_type_id":"4","last_reported":1717351805,"current_range_meters":12400,"station_id":"","pricing_plan_id":"cebpf4jnsgd1na2vs0mg"},{"bike_id":"babb3e73-19ba-4dc1-85b6-21bbe3734247","system_id":"levelo_inurba_marseille","lat":43.305994,"lon":5.393687,"is_reserved":false,"is_disabled":false,"rental_uris":{"android":"levelo://app?vid=babb3e73-19ba-4dc1-85b6-21bbe3734247","ios":"levelo://app?vid=babb3e73-19ba-4dc1-85b6-21bbe3734247"},"vehicle_type_id":"4","last_reported":1717351805,"current_range_meters":4400,"station_id":"ce4bh0p2rcd13ifvqd80","pricing_plan_id":"cebpf4jnsgd1na2vs0mg"},{"bike_id":"78a98263-7092-4ae1-993c-ef7b0d4196c7","system_id":"levelo_inurba_marseille","lat":43.305994,"lon":5.393687,"is_reserved":false,"is_disabled":false,"rental_uris":{"android":"levelo://app?vid=78a98263-7092-4ae1-993c-ef7b0d4196c7","ios":"levelo://app?vid=78a98263-7092-4ae1-993c-ef7b0d4196c7"},"vehicle_type_id":"4","last_reported":1717351805,"current_range_meters":4000,"station_id":"ce4bh0p2rcd13ifvqd80","pricing_plan_id":"cebpf4jnsgd1na2vs0mg"},{"bike_id":"b6dd5244-9f14-42e6-bcc2-e29524908c3c","system_id":"levelo_inurba_marseille","lat":43.303002,"lon":5.392142,"is_reserved":false,"is_disabled":false,"rental_uris":{"android":"levelo://app?vid=b6dd5244-9f14-42e6-bcc2-e29524908c3c","ios":"levelo://app?vid=b6dd5244-9f14-42e6-bcc2-e29524908c3c"},"vehicle_type_id":"4","last_reported":1717351805,"current_range_meters":4000,"station_id":"ce4bgkh2rcd13ifvqbk0","pricing_plan_id":"cebpf4jnsgd1na2vs0mg"},{"bike_id":"732dd8a9-22ac-46f7-862d-424b7c7e02ee","system_id":"levelo_inurba_marseille","lat":43.293009,"lon":5.374584,"is_reserved":false,"is_disabled":false,"rental_uris":{"android":"levelo://app?vid=732dd8a9-22ac-46f7-862d-424b7c7e02ee","ios":"levelo://app?vid=732dd8a9-22ac-46f7-862d-424b7c7e02ee"},"vehicle_type_id":"4","last_reported":1717351805,"current_range_meters":0,"station_id":"ce4bgi12rcd13ifvqb70","pricing_plan_id":"cebpf4jnsgd1na2vs0mg"},{"bike_id":"87ea4b76-bca2-4e4c-810d-20490c59a87a","system_id":"levelo_inurba_marseille","lat":43.29602,"lon":5.381084,"is_reserved":false,"is_disabled":false,"rental_uris":{"android":"levelo://app?vid=87ea4b76-bca2-4e4c-810d-20490c59a87a","ios":"levelo://app?vid=87ea4b76-bca2-4e4c-810d-20490c59a87a"},"vehicle_type_id":"4","last_reported":1717351805,"current_range_meters":14800,"station_id":"ce4bgl12rcd13ifvqbo0","pricing_plan_id":"cebpf4jnsgd1na2vs0mg"},{"bike_id":"87049e67-75a2-47c2-bcc9-6412f1ad1ef5","system_id":"levelo_inurba_marseille","lat":43.302992,"lon":5.392136,"is_reserved":false,"is_disabled":false,"rental_uris":{"android":"levelo://app?vid=87049e67-75a2-47c2-bcc9-6412f1ad1ef5","ios":"levelo://app?vid=87049e67-75a2-47c2-bcc9-6412f1ad1ef5"},"vehicle_type_id":"4","last_reported":1717351805,"current_range_meters":0,"station_id":"ce4bgkh2rcd13ifvqbk0","pricing_plan_id":"cebpf4jnsgd1na2vs0mg"},{"bike_id":"4f7bf997-60ee-428b-8001-d7e8d8015702","system_id":"levelo_inurba_marseille","lat":43.29368,"lon":5.37839,"is_reserved":false,"is_disabled":false,"rental_uris":{"android":"levelo://app?vid=4f7bf997-60ee-428b-8001-d7e8d8015702","ios":"levelo://app?vid=4f7bf997-60ee-428b-8001-d7e8d8015702"},"vehicle_type_id":"4","last_reported":1717351805,"current_range_meters":0,"station_id":"ce4bgjh2rcd13ifvqbf0","pricing_plan_id":"cebpf4jnsgd1na2vs0mg"},{"bike_id":"5605ab2c-8988-4c14-ad14-47c49d270763","system_id":"levelo_inurba_marseille","lat":43.302992,"lon":5.392136,"is_reserved":false,"is_disabled":false,"rental_uris":{"android":"levelo://app?vid=5605ab2c-8988-4c14-ad14-47c49d270763","ios":"levelo://app?vid=5605ab2c-8988-4c14-ad14-47c49d270763"},"vehicle_type_id":"4","last_reported":1717351805,"current_range_meters":8000,"station_id":"ce4bgkh2rcd13ifvqbk0","pricing_plan_id":"cebpf4jnsgd1na2vs0mg"},{"bike_id":"af4db114-f6f5-4edc-9a01-c09c4f503dca","system_id":"levelo_inurba_marseille","lat":43.293601,"lon":5.378472,"is_reserved":false,"is_disabled":false,"rental_uris":{"android":"levelo://app?vid=af4db114-f6f5-4edc-9a01-c09c4f503dca","ios":"levelo://app?vid=af4db114-f6f5-4edc-9a01-c09c4f503dca"},"vehicle_type_id":"4","last_reported":1717351805,"current_range_meters":15600,"station_id":"ce4bgjh2rcd13ifvqbf0","pricing_plan_id":"cebpf4jnsgd1na2vs0mg"},{"bike_id":"e53b31de-2a7c-45e8-8bdf-969b1ce506b5","system_id":"levelo_inurba_marseille","lat":43.293009,"lon":5.374584,"is_reserved":false,"is_disabled":false,"rental_uris":{"android":"levelo://app?vid=e53b31de-2a7c-45e8-8bdf-969b1ce506b5","ios":"levelo://app?vid=e53b31de-2a7c-45e8-8bdf-969b1ce506b5"},"vehicle_type_id":"4","last_reported":1717351805,"current_range_meters":19200,"station_id":"ce4bgi12rcd13ifvqb70","pricing_plan_id":"cebpf4jnsgd1na2vs0mg"},{"bike_id":"1d3bb2cf-6fce-44a2-b019-6d91e56ed07f","system_id":"levelo_inurba_marseille","lat":43.291675,"lon":5.371583,"is_reserved":false,"is_disabled":false,"rental_uris":{"android":"levelo://app?vid=1d3bb2cf-6fce-44a2-b019-6d91e56ed07f","ios":"levelo://app?vid=1d3bb2cf-6fce-44a2-b019-6d91e56ed07f"},"vehicle_type_id":"4","last_reported":1717351805,"current_range_meters":10400,"station_id":"ce4bha92rcd13ifvqeh0","pricing_plan_id":"cebpf4jnsgd1na2vs0mg"},{"bike_id":"eb06b156-3a15-4564-85a1-dbab686d5aaf","system_id":"levelo_inurba_marseille","lat":43.291675,"lon":5.371583,"is_reserved":false,"is_disabled":false,"rental_uris":{"android":"levelo://app?vid=eb06b156-3a15-4564-85a1-dbab686d5aaf","ios":"levelo://app?vid=eb06b156-3a15-4564-85a1-dbab686d5aaf"},"vehicle_type_id":"4","last_reported":1717351805,"current_range_meters":9200,"station_id":"ce4bha92rcd13ifvqeh0","pricing_plan_id":"cebpf4jnsgd1na2vs0mg"},{"bike_id":"a26d5823-790a-4305-8571-774b2bbe2832","system_id":"levelo_inurba_marseille","lat":43.291671,"lon":5.371575,"is_reserved":false,"is_disabled":false,"rental_uris":{"android":"levelo://app?vid=a26d5823-790a-4305-8571-774b2bbe2832","ios":"levelo://app?vid=a26d5823-790a-4305-8571-774b2bbe2832"},"vehicle_type_id":"4","last_reported":1717351805,"current_range_meters":19200,"station_id":"ce4bha92rcd13ifvqeh0","pricing_plan_id":"cebpf4jnsgd1na2vs0mg"},{"bike_id":"88d85188-9462-4941-8600-f60d2bfd0bdf","system_id":"levelo_inurba_marseille","lat":43.3132,"lon":5.39688,"is_reserved":false,"is_disabled":false,"rental_uris":{"android":"levelo://app?vid=88d85188-9462-4941-8600-f60d2bfd0bdf","ios":"levelo://app?vid=88d85188-9462-4941-8600-f60d2bfd0bdf"},"vehicle_type_id":"4","last_reported":1717351805,"current_range_meters":18000,"station_id":"","pricing_plan_id":"cebpf4jnsgd1na2vs0mg"},{"bike_id":"b3edb4f0-963b-46ba-a79f-776b8f50b991","system_id":"levelo_inurba_marseille","lat":43.313291,"lon":5.396838,"is_reserved":false,"is_disabled":false,"rental_uris":{"android":"levelo://app?vid=b3edb4f0-963b-46ba-a79f-776b8f50b991","ios":"levelo://app?vid=b3edb4f0-963b-46ba-a79f-776b8f50b991"},"vehicle_type_id":"4","last_reported":1717351805,"current_range_meters":24000,"station_id":"ce4bgvp2rcd13ifvqcu0","pricing_plan_id":"cebpf4jnsgd1na2vs0mg"},{"bike_id":"31c2d018-42e7-461f-823c-3366ad68faab","system_id":"levelo_inurba_marseille","lat":43.29529,"lon":5.385581,"is_reserved":false,"is_disabled":false,"rental_uris":{"android":"levelo://app?vid=31c2d018-42e7-461f-823c-3366ad68faab","ios":"levelo://app?vid=31c2d018-42e7-461f-823c-3366ad68faab"},"vehicle_type_id":"4","last_reported":1717351805,"current_range_meters":800,"station_id":"ce4bgih2rcd13ifvqba0","pricing_plan_id":"cebpf4jnsgd1na2vs0mg"},{"bike_id":"ad7958aa-4007-48b1-a1c8-a44759453cfd","system_id":"levelo_inurba_marseille","lat":43.313291,"lon":5.396838,"is_reserved":false,"is_disabled":false,"rental_uris":{"android":"levelo://app?vid=ad7958aa-4007-48b1-a1c8-a44759453cfd","ios":"levelo://app?vid=ad7958aa-4007-48b1-a1c8-a44759453cfd"},"vehicle_type_id":"4","last_reported":1717351805,"current_range_meters":6400,"station_id":"ce4bgvp2rcd13ifvqcu0","pricing_plan_id":"cebpf4jnsgd1na2vs0mg"},{"bike_id":"7a619e24-770b-40cb-950f-f6703f3ae0c1","system_id":"levelo_inurba_marseille","lat":43.309047,"lon":5.396551,"is_reserved":false,"is_disabled":false,"rental_uris":{"android":"levelo://app?vid=7a619e24-770b-40cb-950f-f6703f3ae0c1","ios":"levelo://app?vid=7a619e24-770b-40cb-950f-f6703f3ae0c1"},"vehicle_type_id":"4","last_reported":1717351805,"current_range_meters":20400,"station_id":"ce4bh012rcd13ifvqcv0","pricing_plan_id":"cebpf4jnsgd1na2vs0mg"},{"bike_id":"e95f64ff-ef69-4862-a469-dc94b635597a","system_id":"levelo_inurba_marseille","lat":43.31328,"lon":5.39694,"is_reserved":false,"is_disabled":false,"rental_uris":{"android":"levelo://app?vid=e95f64ff-ef69-4862-a469-dc94b635597a","ios":"levelo://app?vid=e95f64ff-ef69-4862-a469-dc94b635597a"},"vehicle_type_id":"4","last_reported":1717351805,"current_range_meters":26800,"station_id":"ce4bgvp2rcd13ifvqcu0","pricing_plan_id":"cebpf4jnsgd1na2vs0mg"},{"bike_id":"4d3c82a3-c6c6-4d5c-a61a-301f82f9bcdc","system_id":"levelo_inurba_marseille","lat":43.31328,"lon":5.39702,"is_reserved":false,"is_disabled":false,"rental_uris":{"android":"levelo://app?vid=4d3c82a3-c6c6-4d5c-a61a-301f82f9bcdc","ios":"levelo://app?vid=4d3c82a3-c6c6-4d5c-a61a-301f82f9bcdc"},"vehicle_type_id":"4","last_reported":1717351805,"current_range_meters":27200,"station_id":"ce4bgvp2rcd13ifvqcu0","pricing_plan_id":"cebpf4jnsgd1na2vs0mg"},{"bike_id":"5c49fed4-5274-4457-b368-4a3792eec1c6","system_id":"levelo_inurba_marseille","lat":43.309038,"lon":5.396546,"is_reserved":false,"is_disabled":false,"rental_uris":{"android":"levelo://app?vid=5c49fed4-5274-4457-b368-4a3792eec1c6","ios":"levelo://app?vid=5c49fed4-5274-4457-b368-4a3792eec1c6"},"vehicle_type_id":"4","last_reported":1717351805,"current_range_meters":12000,"station_id":"ce4bh012rcd13ifvqcv0","pricing_plan_id":"cebpf4jnsgd1na2vs0mg"},{"bike_id":"bc2249c3-a5a8-4fb5-82ee-a58b63b45641","system_id":"levelo_inurba_marseille","lat":43.31323,"lon":5.39704,"is_reserved":false,"is_disabled":false,"rental_uris":{"android":"levelo://app?vid=bc2249c3-a5a8-4fb5-82ee-a58b63b45641","ios":"levelo://app?vid=bc2249c3-a5a8-4fb5-82ee-a58b63b45641"},"vehicle_type_id":"4","last_reported":1717351805,"current_range_meters":7200,"station_id":"ce4bgvp2rcd13ifvqcu0","pricing_plan_id":"cebpf4jnsgd1na2vs0mg"},{"bike_id":"029d0ff3-b1f9-46e8-8220-f87c9c7344ba","system_id":"levelo_inurba_marseille","lat":43.309047,"lon":5.396551,"is_reserved":false,"is_disabled":false,"rental_uris":{"android":"levelo://app?vid=029d0ff3-b1f9-46e8-8220-f87c9c7344ba","ios":"levelo://app?vid=029d0ff3-b1f9-46e8-8220-f87c9c7344ba"},"vehicle_type_id":"4","last_reported":1717351805,"current_range_meters":0,"station_id":"ce4bh012rcd13ifvqcv0","pricing_plan_id":"cebpf4jnsgd1na2vs0mg"},{"bike_id":"477a0995-a4fa-47e2-be4b-f8cf276c3319","system_id":"levelo_inurba_marseille","lat":43.295286,"lon":5.385226,"is_reserved":false,"is_disabled":false,"rental_uris":{"android":"levelo://app?vid=477a0995-a4fa-47e2-be4b-f8cf276c3319","ios":"levelo://app?vid=477a0995-a4fa-47e2-be4b-f8cf276c3319"},"vehicle_type_id":"4","last_reported":1717351805,"current_range_meters":24400,"station_id":"ce4bgip2rcd13ifvqbb0","pricing_plan_id":"cebpf4jnsgd1na2vs0mg"},{"bike_id":"e6b851dc-68b6-47b8-9f3a-3ec80018f39b","system_id":"levelo_inurba_marseille","lat":43.29529,"lon":5.385581,"is_reserved":false,"is_disabled":false,"rental_uris":{"android":"levelo://app?vid=e6b851dc-68b6-47b8-9f3a-3ec80018f39b","ios":"levelo://app?vid=e6b851dc-68b6-47b8-9f3a-3ec80018f39b"},"vehicle_type_id":"4","last_reported":1717351805,"current_range_meters":17200,"station_id":"ce4bgih2rcd13ifvqba0","pricing_plan_id":"cebpf4jnsgd1na2vs0mg"},{"bike_id":"fa05695c-be87-48cc-8a7a-fdc70cf56f08","system_id":"levelo_inurba_marseille","lat":43.29529,"lon":5.385581,"is_reserved":false,"is_disabled":false,"rental_uris":{"android":"levelo://app?vid=fa05695c-be87-48cc-8a7a-fdc70cf56f08","ios":"levelo://app?vid=fa05695c-be87-48cc-8a7a-fdc70cf56f08"},"vehicle_type_id":"4","last_reported":1717351805,"current_range_meters":16800,"station_id":"ce4bgih2rcd13ifvqba0","pricing_plan_id":"cebpf4jnsgd1na2vs0mg"},{"bike_id":"93df4ab7-311c-4047-82d0-266fedec7cb7","system_id":"levelo_inurba_marseille","lat":43.29535,"lon":5.38542,"is_reserved":false,"is_disabled":false,"rental_uris":{"android":"levelo://app?vid=93df4ab7-311c-4047-82d0-266fedec7cb7","ios":"levelo://app?vid=93df4ab7-311c-4047-82d0-266fedec7cb7"},"vehicle_type_id":"4","last_reported":1717351805,"current_range_meters":14400,"station_id":"ce4bgih2rcd13ifvqba0","pricing_plan_id":"cebpf4jnsgd1na2vs0mg"},{"bike_id":"417f76a2-f404-4d3c-95c0-c05996d23091","system_id":"levelo_inurba_marseille","lat":43.295354,"lon":5.385453,"is_reserved":false,"is_disabled":false,"rental_uris":{"android":"levelo://app?vid=417f76a2-f404-4d3c-95c0-c05996d23091","ios":"levelo://app?vid=417f76a2-f404-4d3c-95c0-c05996d23091"},"vehicle_type_id":"4","last_reported":1717351805,"current_range_meters":24800,"station_id":"ce4bgih2rcd13ifvqba0","pricing_plan_id":"cebpf4jnsgd1na2vs0mg"},{"bike_id":"9cf0532b-98a1-42da-b52d-971459a8efc2","system_id":"levelo_inurba_marseille","lat":43.29529,"lon":5.385581,"is_reserved":false,"is_disabled":false,"rental_uris":{"android":"levelo://app?vid=9cf0532b-98a1-42da-b52d-971459a8efc2","ios":"levelo://app?vid=9cf0532b-98a1-42da-b52d-971459a8efc2"},"vehicle_type_id":"4","last_reported":1717351805,"current_range_meters":19200,"station_id":"ce4bgih2rcd13ifvqba0","pricing_plan_id":"cebpf4jnsgd1na2vs0mg"},{"bike_id":"7c2d68a2-c7e7-40cb-9476-92951bee70e3","system_id":"levelo_inurba_marseille","lat":43.29529,"lon":5.385581,"is_reserved":false,"is_disabled":false,"rental_uris":{"android":"levelo://app?vid=7c2d68a2-c7e7-40cb-9476-92951bee70e3","ios":"levelo://app?vid=7c2d68a2-c7e7-40cb-9476-92951bee70e3"},"vehicle_type_id":"4","last_reported":1717351805,"current_range_meters":12000,"station_id":"ce4bgih2rcd13ifvqba0","pricing_plan_id":"cebpf4jnsgd1na2vs0mg"},{"bike_id":"d0df3d28-3331-4e0a-a7f8-26e1c54c67a5","system_id":"levelo_inurba_marseille","lat":43.29529,"lon":5.385581,"is_reserved":false,"is_disabled":false,"rental_uris":{"android":"levelo://app?vid=d0df3d28-3331-4e0a-a7f8-26e1c54c67a5","ios":"levelo://app?vid=d0df3d28-3331-4e0a-a7f8-26e1c54c67a5"},"vehicle_type_id":"4","last_reported":1717351805,"current_range_meters":20000,"station_id":"ce4bgih2rcd13ifvqba0","pricing_plan_id":"cebpf4jnsgd1na2vs0mg"},{"bike_id":"41be1cd5-ee19-4ea4-8569-f3ebe41ae9d3","system_id":"levelo_inurba_marseille","lat":43.29531,"lon":5.38552,"is_reserved":false,"is_disabled":false,"rental_uris":{"android":"levelo://app?vid=41be1cd5-ee19-4ea4-8569-f3ebe41ae9d3","ios":"levelo://app?vid=41be1cd5-ee19-4ea4-8569-f3ebe41ae9d3"},"vehicle_type_id":"4","last_reported":1717351805,"current_range_meters":15600,"station_id":"ce4bgih2rcd13ifvqba0","pricing_plan_id":"cebpf4jnsgd1na2vs0mg"},{"bike_id":"7c1f33bd-31bb-43d3-9065-d7c8d171ebdd","system_id":"levelo_inurba_marseille","lat":43.29529,"lon":5.385581,"is_reserved":false,"is_disabled":false,"rental_uris":{"android":"levelo://app?vid=7c1f33bd-31bb-43d3-9065-d7c8d171ebdd","ios":"levelo://app?vid=7c1f33bd-31bb-43d3-9065-d7c8d171ebdd"},"vehicle_type_id":"4","last_reported":1717351805,"current_range_meters":19200,"station_id":"ce4bgih2rcd13ifvqba0","pricing_plan_id":"cebpf4jnsgd1na2vs0mg"},{"bike_id":"a0ffdf8b-b486-4fd1-bdd2-950d318d02cb","system_id":"levelo_inurba_marseille","lat":43.295194,"lon":5.39397,"is_reserved":false,"is_disabled":false,"rental_uris":{"android":"levelo://app?vid=a0ffdf8b-b486-4fd1-bdd2-950d318d02cb","ios":"levelo://app?vid=a0ffdf8b-b486-4fd1-bdd2-950d318d02cb"},"vehicle_type_id":"4","last_reported":1717351805,"current_range_meters":26400,"station_id":"ce4bh292rcd13ifvqdf0","pricing_plan_id":"cebpf4jnsgd1na2vs0mg"},{"bike_id":"325b22e2-b869-4623-a552-721f30cdbd92","system_id":"levelo_inurba_marseille","lat":43.290772,"lon":5.371596,"is_reserved":false,"is_disabled":false,"rental_uris":{"android":"levelo://app?vid=325b22e2-b869-4623-a552-721f30cdbd92","ios":"levelo://app?vid=325b22e2-b869-4623-a552-721f30cdbd92"},"vehicle_type_id":"4","last_reported":1717351805,"current_range_meters":12400,"station_id":"ce4bh5p2rcd13ifvqe4g","pricing_plan_id":"cebpf4jnsgd1na2vs0mg"},{"bike_id":"e30efe1c-ad20-40cf-bd89-f726863dd1bd","system_id":"levelo_inurba_marseille","lat":43.29529,"lon":5.385581,"is_reserved":false,"is_disabled":false,"rental_uris":{"android":"levelo://app?vid=e30efe1c-ad20-40cf-bd89-f726863dd1bd","ios":"levelo://app?vid=e30efe1c-ad20-40cf-bd89-f726863dd1bd"},"vehicle_type_id":"4","last_reported":1717351805,"current_range_meters":4400,"station_id":"ce4bgih2rcd13ifvqba0","pricing_plan_id":"cebpf4jnsgd1na2vs0mg"},{"bike_id":"bf8c5cfe-dad7-4bd0-87c7-0d9a28857baa","system_id":"levelo_inurba_marseille","lat":43.29529,"lon":5.385581,"is_reserved":false,"is_disabled":false,"rental_uris":{"android":"levelo://app?vid=bf8c5cfe-dad7-4bd0-87c7-0d9a28857baa","ios":"levelo://app?vid=bf8c5cfe-dad7-4bd0-87c7-0d9a28857baa"},"vehicle_type_id":"4","last_reported":1717351805,"current_range_meters":15200,"station_id":"ce4bgih2rcd13ifvqba0","pricing_plan_id":"cebpf4jnsgd1na2vs0mg"},{"bike_id":"c38b3fbc-3727-4f8b-890a-e896803272b8","system_id":"levelo_inurba_marseille","lat":43.290779,"lon":5.371482,"is_reserved":false,"is_disabled":false,"rental_uris":{"android":"levelo://app?vid=c38b3fbc-3727-4f8b-890a-e896803272b8","ios":"levelo://app?vid=c38b3fbc-3727-4f8b-890a-e896803272b8"},"vehicle_type_id":"4","last_reported":1717351805,"current_range_meters":14000,"station_id":"ce4bh5p2rcd13ifvqe4g","pricing_plan_id":"cebpf4jnsgd1na2vs0mg"},{"bike_id":"7044abe3-3eee-46b5-b922-47c86091d15a","system_id":"levelo_inurba_marseille","lat":43.29529,"lon":5.385581,"is_reserved":false,"is_disabled":false,"rental_uris":{"android":"levelo://app?vid=7044abe3-3eee-46b5-b922-47c86091d15a","ios":"levelo://app?vid=7044abe3-3eee-46b5-b922-47c86091d15a"},"vehicle_type_id":"4","last_reported":1717351805,"current_range_meters":15200,"station_id":"ce4bgih2rcd13ifvqba0","pricing_plan_id":"cebpf4jnsgd1na2vs0mg"},{"bike_id":"ad529d20-5fe3-4ea6-81a5-0174e5336665","system_id":"levelo_inurba_marseille","lat":43.29529,"lon":5.385581,"is_reserved":false,"is_disabled":false,"rental_uris":{"android":"levelo://app?vid=ad529d20-5fe3-4ea6-81a5-0174e5336665","ios":"levelo://app?vid=ad529d20-5fe3-4ea6-81a5-0174e5336665"},"vehicle_type_id":"4","last_reported":1717351805,"current_range_meters":23200,"station_id":"ce4bgih2rcd13ifvqba0","pricing_plan_id":"cebpf4jnsgd1na2vs0mg"},{"bike_id":"7903890b-5304-4deb-b548-fa3c238c2215","system_id":"levelo_inurba_marseille","lat":43.302008,"lon":5.394694,"is_reserved":false,"is_disabled":false,"rental_uris":{"android":"levelo://app?vid=7903890b-5304-4deb-b548-fa3c238c2215","ios":"levelo://app?vid=7903890b-5304-4deb-b548-fa3c238c2215"},"vehicle_type_id":"4","last_reported":1717351805,"current_range_meters":13600,"station_id":"ce4bh0p2rcd13ifvqd70","pricing_plan_id":"cebpf4jnsgd1na2vs0mg"},{"bike_id":"d394c498-5fb5-4a35-a821-90d53fa34c1b","system_id":"levelo_inurba_marseille","lat":43.298681,"lon":5.397225,"is_reserved":false,"is_disabled":false,"rental_uris":{"android":"levelo://app?vid=d394c498-5fb5-4a35-a821-90d53fa34c1b","ios":"levelo://app?vid=d394c498-5fb5-4a35-a821-90d53fa34c1b"},"vehicle_type_id":"4","last_reported":1717351805,"current_range_meters":4000,"station_id":"ce4bh0h2rcd13ifvqd50","pricing_plan_id":"cebpf4jnsgd1na2vs0mg"},{"bike_id":"dbc73ec8-3d03-4bae-9bec-4c699451e840","system_id":"levelo_inurba_marseille","lat":43.294241,"lon":5.386171,"is_reserved":false,"is_disabled":false,"rental_uris":{"android":"levelo://app?vid=dbc73ec8-3d03-4bae-9bec-4c699451e840","ios":"levelo://app?vid=dbc73ec8-3d03-4bae-9bec-4c699451e840"},"vehicle_type_id":"4","last_reported":1717351805,"current_range_meters":11600,"station_id":"ce4bh2h2rcd13ifvqdh0","pricing_plan_id":"cebpf4jnsgd1na2vs0mg"},{"bike_id":"8bb58b07-73d1-4197-a8bb-dff6dea40111","system_id":"levelo_inurba_marseille","lat":43.29424,"lon":5.3862,"is_reserved":false,"is_disabled":false,"rental_uris":{"android":"levelo://app?vid=8bb58b07-73d1-4197-a8bb-dff6dea40111","ios":"levelo://app?vid=8bb58b07-73d1-4197-a8bb-dff6dea40111"},"vehicle_type_id":"4","last_reported":1717351805,"current_range_meters":24400,"station_id":"ce4bh2h2rcd13ifvqdh0","pricing_plan_id":"cebpf4jnsgd1na2vs0mg"},{"bike_id":"6e183e2e-d758-4791-bcb8-4bea6ac1acfc","system_id":"levelo_inurba_marseille","lat":43.29423,"lon":5.38622,"is_reserved":false,"is_disabled":false,"rental_uris":{"android":"levelo://app?vid=6e183e2e-d758-4791-bcb8-4bea6ac1acfc","ios":"levelo://app?vid=6e183e2e-d758-4791-bcb8-4bea6ac1acfc"},"vehicle_type_id":"4","last_reported":1717351805,"current_range_meters":15200,"station_id":"ce4bh2h2rcd13ifvqdh0","pricing_plan_id":"cebpf4jnsgd1na2vs0mg"},{"bike_id":"0d9d9748-4e05-49ab-a69c-0aefe10e4a42","system_id":"levelo_inurba_marseille","lat":43.29416,"lon":5.38613,"is_reserved":false,"is_disabled":false,"rental_uris":{"android":"levelo://app?vid=0d9d9748-4e05-49ab-a69c-0aefe10e4a42","ios":"levelo://app?vid=0d9d9748-4e05-49ab-a69c-0aefe10e4a42"},"vehicle_type_id":"4","last_reported":1717351805,"current_range_meters":19200,"station_id":"ce4bh2h2rcd13ifvqdh0","pricing_plan_id":"cebpf4jnsgd1na2vs0mg"},{"bike_id":"35857bb1-5ce9-447b-8bc6-5b103310042a","system_id":"levelo_inurba_marseille","lat":43.29418,"lon":5.38617,"is_reserved":false,"is_disabled":false,"rental_uris":{"android":"levelo://app?vid=35857bb1-5ce9-447b-8bc6-5b103310042a","ios":"levelo://app?vid=35857bb1-5ce9-447b-8bc6-5b103310042a"},"vehicle_type_id":"4","last_reported":1717351805,"current_range_meters":0,"station_id":"ce4bh2h2rcd13ifvqdh0","pricing_plan_id":"cebpf4jnsgd1na2vs0mg"},{"bike_id":"b90a3235-fba4-4c56-a508-e81d02db0cdf","system_id":"levelo_inurba_marseille","lat":43.294162,"lon":5.386292,"is_reserved":false,"is_disabled":false,"rental_uris":{"android":"levelo://app?vid=b90a3235-fba4-4c56-a508-e81d02db0cdf","ios":"levelo://app?vid=b90a3235-fba4-4c56-a508-e81d02db0cdf"},"vehicle_type_id":"4","last_reported":1717351805,"current_range_meters":8000,"station_id":"ce4bh2h2rcd13ifvqdh0","pricing_plan_id":"cebpf4jnsgd1na2vs0mg"},{"bike_id":"bd83b6cd-d578-495b-a2c2-f8cf4065df6c","system_id":"levelo_inurba_marseille","lat":43.29421,"lon":5.38624,"is_reserved":false,"is_disabled":false,"rental_uris":{"android":"levelo://app?vid=bd83b6cd-d578-495b-a2c2-f8cf4065df6c","ios":"levelo://app?vid=bd83b6cd-d578-495b-a2c2-f8cf4065df6c"},"vehicle_type_id":"4","last_reported":1717351805,"current_range_meters":0,"station_id":"ce4bh2h2rcd13ifvqdh0","pricing_plan_id":"cebpf4jnsgd1na2vs0mg"},{"bike_id":"03b66644-eccf-409a-970a-661e62c086c2","system_id":"levelo_inurba_marseille","lat":43.294162,"lon":5.386292,"is_reserved":false,"is_disabled":false,"rental_uris":{"android":"levelo://app?vid=03b66644-eccf-409a-970a-661e62c086c2","ios":"levelo://app?vid=03b66644-eccf-409a-970a-661e62c086c2"},"vehicle_type_id":"4","last_reported":1717351805,"current_range_meters":4400,"station_id":"ce4bh2h2rcd13ifvqdh0","pricing_plan_id":"cebpf4jnsgd1na2vs0mg"},{"bike_id":"580131cd-1088-4958-aefc-a7594e72a11e","system_id":"levelo_inurba_marseille","lat":43.29419,"lon":5.38621,"is_reserved":false,"is_disabled":false,"rental_uris":{"android":"levelo://app?vid=580131cd-1088-4958-aefc-a7594e72a11e","ios":"levelo://app?vid=580131cd-1088-4958-aefc-a7594e72a11e"},"vehicle_type_id":"4","last_reported":1717351805,"current_range_meters":2400,"station_id":"ce4bh2h2rcd13ifvqdh0","pricing_plan_id":"cebpf4jnsgd1na2vs0mg"},{"bike_id":"e707befa-dd33-42bf-a88f-522143f119b8","system_id":"levelo_inurba_marseille","lat":43.2942,"lon":5.38623,"is_reserved":false,"is_disabled":false,"rental_uris":{"android":"levelo://app?vid=e707befa-dd33-42bf-a88f-522143f119b8","ios":"levelo://app?vid=e707befa-dd33-42bf-a88f-522143f119b8"},"vehicle_type_id":"4","last_reported":1717351805,"current_range_meters":24000,"station_id":"ce4bh2h2rcd13ifvqdh0","pricing_plan_id":"cebpf4jnsgd1na2vs0mg"},{"bike_id":"50429305-a8b4-4a70-ad84-8ed472a98a3d","system_id":"levelo_inurba_marseille","lat":43.294248,"lon":5.386328,"is_reserved":false,"is_disabled":false,"rental_uris":{"android":"levelo://app?vid=50429305-a8b4-4a70-ad84-8ed472a98a3d","ios":"levelo://app?vid=50429305-a8b4-4a70-ad84-8ed472a98a3d"},"vehicle_type_id":"4","last_reported":1717351805,"current_range_meters":800,"station_id":"ce4bh2h2rcd13ifvqdh0","pricing_plan_id":"cebpf4jnsgd1na2vs0mg"},{"bike_id":"2299be20-4019-4bd8-bed8-5e2b18c97c89","system_id":"levelo_inurba_marseille","lat":43.29422,"lon":5.38628,"is_reserved":false,"is_disabled":false,"rental_uris":{"android":"levelo://app?vid=2299be20-4019-4bd8-bed8-5e2b18c97c89","ios":"levelo://app?vid=2299be20-4019-4bd8-bed8-5e2b18c97c89"},"vehicle_type_id":"4","last_reported":1717351805,"current_range_meters":23600,"station_id":"ce4bh2h2rcd13ifvqdh0","pricing_plan_id":"cebpf4jnsgd1na2vs0mg"},{"bike_id":"6837cf0b-d0d3-4bd8-8a92-69d4efc759df","system_id":"levelo_inurba_marseille","lat":43.2942,"lon":5.38626,"is_reserved":false,"is_disabled":false,"rental_uris":{"android":"levelo://app?vid=6837cf0b-d0d3-4bd8-8a92-69d4efc759df","ios":"levelo://app?vid=6837cf0b-d0d3-4bd8-8a92-69d4efc759df"},"vehicle_type_id":"4","last_reported":1717351805,"current_range_meters":18400,"station_id":"ce4bh2h2rcd13ifvqdh0","pricing_plan_id":"cebpf4jnsgd1na2vs0mg"},{"bike_id":"bf02669d-85ce-41cb-ba48-36082a1c2fb4","system_id":"levelo_inurba_marseille","lat":43.29418,"lon":5.38623,"is_reserved":false,"is_disabled":false,"rental_uris":{"android":"levelo://app?vid=bf02669d-85ce-41cb-ba48-36082a1c2fb4","ios":"levelo://app?vid=bf02669d-85ce-41cb-ba48-36082a1c2fb4"},"vehicle_type_id":"4","last_reported":1717351805,"current_range_meters":10400,"station_id":"ce4bh2h2rcd13ifvqdh0","pricing_plan_id":"cebpf4jnsgd1na2vs0mg"},{"bike_id":"910c4fef-5224-498f-98f5-26dd6d7e987a","system_id":"levelo_inurba_marseille","lat":43.294162,"lon":5.386292,"is_reserved":false,"is_disabled":false,"rental_uris":{"android":"levelo://app?vid=910c4fef-5224-498f-98f5-26dd6d7e987a","ios":"levelo://app?vid=910c4fef-5224-498f-98f5-26dd6d7e987a"},"vehicle_type_id":"4","last_reported":1717351805,"current_range_meters":12000,"station_id":"ce4bh2h2rcd13ifvqdh0","pricing_plan_id":"cebpf4jnsgd1na2vs0mg"},{"bike_id":"7094beeb-db06-40bc-b4d9-696e93ea4431","system_id":"levelo_inurba_marseille","lat":43.29418,"lon":5.38624,"is_reserved":false,"is_disabled":false,"rental_uris":{"android":"levelo://app?vid=7094beeb-db06-40bc-b4d9-696e93ea4431","ios":"levelo://app?vid=7094beeb-db06-40bc-b4d9-696e93ea4431"},"vehicle_type_id":"4","last_reported":1717351805,"current_range_meters":11600,"station_id":"ce4bh2h2rcd13ifvqdh0","pricing_plan_id":"cebpf4jnsgd1na2vs0mg"},{"bike_id":"1f559de1-384a-4ba6-acc8-c3b80a0aa8f7","system_id":"levelo_inurba_marseille","lat":43.29418,"lon":5.38624,"is_reserved":false,"is_disabled":false,"rental_uris":{"android":"levelo://app?vid=1f559de1-384a-4ba6-acc8-c3b80a0aa8f7","ios":"levelo://app?vid=1f559de1-384a-4ba6-acc8-c3b80a0aa8f7"},"vehicle_type_id":"4","last_reported":1717351805,"current_range_meters":4800,"station_id":"ce4bh2h2rcd13ifvqdh0","pricing_plan_id":"cebpf4jnsgd1na2vs0mg"},{"bike_id":"e6c0422f-49fe-4fc9-a83d-0b2f4029bf62","system_id":"levelo_inurba_marseille","lat":43.29418,"lon":5.38625,"is_reserved":false,"is_disabled":false,"rental_uris":{"android":"levelo://app?vid=e6c0422f-49fe-4fc9-a83d-0b2f4029bf62","ios":"levelo://app?vid=e6c0422f-49fe-4fc9-a83d-0b2f4029bf62"},"vehicle_type_id":"4","last_reported":1717351805,"current_range_meters":8000,"station_id":"ce4bh2h2rcd13ifvqdh0","pricing_plan_id":"cebpf4jnsgd1na2vs0mg"},{"bike_id":"674ac3a0-dbff-4c70-9695-1886f9141007","system_id":"levelo_inurba_marseille","lat":43.29417,"lon":5.38624,"is_reserved":false,"is_disabled":false,"rental_uris":{"android":"levelo://app?vid=674ac3a0-dbff-4c70-9695-1886f9141007","ios":"levelo://app?vid=674ac3a0-dbff-4c70-9695-1886f9141007"},"vehicle_type_id":"4","last_reported":1717351805,"current_range_meters":17600,"station_id":"ce4bh2h2rcd13ifvqdh0","pricing_plan_id":"cebpf4jnsgd1na2vs0mg"},{"bike_id":"6ea4c548-8a6e-4c25-bfbe-151e744026f5","system_id":"levelo_inurba_marseille","lat":43.294162,"lon":5.386292,"is_reserved":false,"is_disabled":false,"rental_uris":{"android":"levelo://app?vid=6ea4c548-8a6e-4c25-bfbe-151e744026f5","ios":"levelo://app?vid=6ea4c548-8a6e-4c25-bfbe-151e744026f5"},"vehicle_type_id":"4","last_reported":1717351805,"current_range_meters":14000,"station_id":"ce4bh2h2rcd13ifvqdh0","pricing_plan_id":"cebpf4jnsgd1na2vs0mg"},{"bike_id":"ba86959e-8981-426c-be8a-44b761c34add","system_id":"levelo_inurba_marseille","lat":43.29423,"lon":5.386387,"is_reserved":false,"is_disabled":false,"rental_uris":{"android":"levelo://app?vid=ba86959e-8981-426c-be8a-44b761c34add","ios":"levelo://app?vid=ba86959e-8981-426c-be8a-44b761c34add"},"vehicle_type_id":"4","last_reported":1717351805,"current_range_meters":19600,"station_id":"ce4bh2h2rcd13ifvqdh0","pricing_plan_id":"cebpf4jnsgd1na2vs0mg"},{"bike_id":"94734056-c8e8-4e69-bb09-c9a42d04ad8f","system_id":"levelo_inurba_marseille","lat":43.294162,"lon":5.386292,"is_reserved":false,"is_disabled":false,"rental_uris":{"android":"levelo://app?vid=94734056-c8e8-4e69-bb09-c9a42d04ad8f","ios":"levelo://app?vid=94734056-c8e8-4e69-bb09-c9a42d04ad8f"},"vehicle_type_id":"4","last_reported":1717351805,"current_range_meters":23600,"station_id":"ce4bh2h2rcd13ifvqdh0","pricing_plan_id":"cebpf4jnsgd1na2vs0mg"},{"bike_id":"81506049-d5e7-42de-9466-ebdccc6822dc","system_id":"levelo_inurba_marseille","lat":43.294162,"lon":5.386292,"is_reserved":false,"is_disabled":false,"rental_uris":{"android":"levelo://app?vid=81506049-d5e7-42de-9466-ebdccc6822dc","ios":"levelo://app?vid=81506049-d5e7-42de-9466-ebdccc6822dc"},"vehicle_type_id":"4","last_reported":1717351805,"current_range_meters":17200,"station_id":"ce4bh2h2rcd13ifvqdh0","pricing_plan_id":"cebpf4jnsgd1na2vs0mg"},{"bike_id":"bab87342-2e5e-4e91-bed8-ab2ee894d3d3","system_id":"levelo_inurba_marseille","lat":43.294162,"lon":5.386292,"is_reserved":false,"is_disabled":false,"rental_uris":{"android":"levelo://app?vid=bab87342-2e5e-4e91-bed8-ab2ee894d3d3","ios":"levelo://app?vid=bab87342-2e5e-4e91-bed8-ab2ee894d3d3"},"vehicle_type_id":"4","last_reported":1717351805,"current_range_meters":18800,"station_id":"ce4bh2h2rcd13ifvqdh0","pricing_plan_id":"cebpf4jnsgd1na2vs0mg"},{"bike_id":"847292f1-6e84-4a64-a5f6-71f26086a2d2","system_id":"levelo_inurba_marseille","lat":43.294162,"lon":5.386292,"is_reserved":false,"is_disabled":false,"rental_uris":{"android":"levelo://app?vid=847292f1-6e84-4a64-a5f6-71f26086a2d2","ios":"levelo://app?vid=847292f1-6e84-4a64-a5f6-71f26086a2d2"},"vehicle_type_id":"4","last_reported":1717351805,"current_range_meters":3200,"station_id":"ce4bh2h2rcd13ifvqdh0","pricing_plan_id":"cebpf4jnsgd1na2vs0mg"},{"bike_id":"d9b6859c-da92-403c-ae0f-ddeaa7fdc29c","system_id":"levelo_inurba_marseille","lat":43.28941,"lon":5.366288,"is_reserved":false,"is_disabled":false,"rental_uris":{"android":"levelo://app?vid=d9b6859c-da92-403c-ae0f-ddeaa7fdc29c","ios":"levelo://app?vid=d9b6859c-da92-403c-ae0f-ddeaa7fdc29c"},"vehicle_type_id":"4","last_reported":1717351805,"current_range_meters":23600,"station_id":"ce4bhap2rcd13ifvqek0","pricing_plan_id":"cebpf4jnsgd1na2vs0mg"},{"bike_id":"d7b6ed03-4dfe-496c-8e10-d669067fec07","system_id":"levelo_inurba_marseille","lat":43.29418,"lon":5.38639,"is_reserved":false,"is_disabled":false,"rental_uris":{"android":"levelo://app?vid=d7b6ed03-4dfe-496c-8e10-d669067fec07","ios":"levelo://app?vid=d7b6ed03-4dfe-496c-8e10-d669067fec07"},"vehicle_type_id":"4","last_reported":1717351805,"current_range_meters":7200,"station_id":"ce4bh2h2rcd13ifvqdh0","pricing_plan_id":"cebpf4jnsgd1na2vs0mg"},{"bike_id":"21d68d82-689c-453d-8247-73c603975f64","system_id":"levelo_inurba_marseille","lat":43.28938,"lon":5.363943,"is_reserved":false,"is_disabled":false,"rental_uris":{"android":"levelo://app?vid=21d68d82-689c-453d-8247-73c603975f64","ios":"levelo://app?vid=21d68d82-689c-453d-8247-73c603975f64"},"vehicle_type_id":"4","last_reported":1717351805,"current_range_meters":0,"station_id":"ce4bhc92rcd13ifvqetg","pricing_plan_id":"cebpf4jnsgd1na2vs0mg"},{"bike_id":"2affae84-5fb5-4251-bc93-25fdca921632","system_id":"levelo_inurba_marseille","lat":43.290631,"lon":5.359244,"is_reserved":false,"is_disabled":false,"rental_uris":{"android":"levelo://app?vid=2affae84-5fb5-4251-bc93-25fdca921632","ios":"levelo://app?vid=2affae84-5fb5-4251-bc93-25fdca921632"},"vehicle_type_id":"4","last_reported":1717351805,"current_range_meters":21600,"station_id":"ce4bha92rcd13ifvqeg0","pricing_plan_id":"cebpf4jnsgd1na2vs0mg"},{"bike_id":"176378c3-be77-4034-b313-a2e4b3333319","system_id":"levelo_inurba_marseille","lat":43.292644,"lon":5.384257,"is_reserved":false,"is_disabled":false,"rental_uris":{"android":"levelo://app?vid=176378c3-be77-4034-b313-a2e4b3333319","ios":"levelo://app?vid=176378c3-be77-4034-b313-a2e4b3333319"},"vehicle_type_id":"4","last_reported":1717351805,"current_range_meters":16000,"station_id":"ce4bh692rcd13ifvqea0","pricing_plan_id":"cebpf4jnsgd1na2vs0mg"},{"bike_id":"2f78d754-72d7-4645-9f91-1472105dcad4","system_id":"levelo_inurba_marseille","lat":43.292882,"lon":5.384744,"is_reserved":false,"is_disabled":false,"rental_uris":{"android":"levelo://app?vid=2f78d754-72d7-4645-9f91-1472105dcad4","ios":"levelo://app?vid=2f78d754-72d7-4645-9f91-1472105dcad4"},"vehicle_type_id":"4","last_reported":1717351805,"current_range_meters":7600,"station_id":"","pricing_plan_id":"cebpf4jnsgd1na2vs0mg"},{"bike_id":"ccc84bb7-e804-49f5-9e98-e97ba3348a47","system_id":"levelo_inurba_marseille","lat":43.304274,"lon":5.397513,"is_reserved":false,"is_disabled":false,"rental_uris":{"android":"levelo://app?vid=ccc84bb7-e804-49f5-9e98-e97ba3348a47","ios":"levelo://app?vid=ccc84bb7-e804-49f5-9e98-e97ba3348a47"},"vehicle_type_id":"4","last_reported":1717351805,"current_range_meters":1200,"station_id":"ce4bh092rcd13ifvqd20","pricing_plan_id":"cebpf4jnsgd1na2vs0mg"},{"bike_id":"99901629-a8bf-4062-8d1b-3361a9385396","system_id":"levelo_inurba_marseille","lat":43.292644,"lon":5.384257,"is_reserved":false,"is_disabled":false,"rental_uris":{"android":"levelo://app?vid=99901629-a8bf-4062-8d1b-3361a9385396","ios":"levelo://app?vid=99901629-a8bf-4062-8d1b-3361a9385396"},"vehicle_type_id":"4","last_reported":1717351805,"current_range_meters":27200,"station_id":"ce4bh692rcd13ifvqea0","pricing_plan_id":"cebpf4jnsgd1na2vs0mg"},{"bike_id":"b76ba1aa-1b86-42ef-8004-3f1edddbbe99","system_id":"levelo_inurba_marseille","lat":43.29265,"lon":5.38433,"is_reserved":false,"is_disabled":false,"rental_uris":{"android":"levelo://app?vid=b76ba1aa-1b86-42ef-8004-3f1edddbbe99","ios":"levelo://app?vid=b76ba1aa-1b86-42ef-8004-3f1edddbbe99"},"vehicle_type_id":"4","last_reported":1717351805,"current_range_meters":0,"station_id":"ce4bh692rcd13ifvqea0","pricing_plan_id":"cebpf4jnsgd1na2vs0mg"},{"bike_id":"f9c45c5d-5b8a-4b5c-9ab9-d5c983690928","system_id":"levelo_inurba_marseille","lat":43.292644,"lon":5.384257,"is_reserved":false,"is_disabled":false,"rental_uris":{"android":"levelo://app?vid=f9c45c5d-5b8a-4b5c-9ab9-d5c983690928","ios":"levelo://app?vid=f9c45c5d-5b8a-4b5c-9ab9-d5c983690928"},"vehicle_type_id":"4","last_reported":1717351805,"current_range_meters":14400,"station_id":"ce4bh692rcd13ifvqea0","pricing_plan_id":"cebpf4jnsgd1na2vs0mg"},{"bike_id":"808fac07-a66b-4b2b-839c-6765ed6dcc4a","system_id":"levelo_inurba_marseille","lat":43.292642,"lon":5.384254,"is_reserved":false,"is_disabled":false,"rental_uris":{"android":"levelo://app?vid=808fac07-a66b-4b2b-839c-6765ed6dcc4a","ios":"levelo://app?vid=808fac07-a66b-4b2b-839c-6765ed6dcc4a"},"vehicle_type_id":"4","last_reported":1717351805,"current_range_meters":8800,"station_id":"ce4bh692rcd13ifvqea0","pricing_plan_id":"cebpf4jnsgd1na2vs0mg"},{"bike_id":"f4099601-98f4-4e49-b39e-3c713535b0f3","system_id":"levelo_inurba_marseille","lat":43.292644,"lon":5.384257,"is_reserved":false,"is_disabled":false,"rental_uris":{"android":"levelo://app?vid=f4099601-98f4-4e49-b39e-3c713535b0f3","ios":"levelo://app?vid=f4099601-98f4-4e49-b39e-3c713535b0f3"},"vehicle_type_id":"4","last_reported":1717351805,"current_range_meters":20400,"station_id":"ce4bh692rcd13ifvqea0","pricing_plan_id":"cebpf4jnsgd1na2vs0mg"},{"bike_id":"74c4cbde-32e8-4064-aaf9-b1805d3f0db4","system_id":"levelo_inurba_marseille","lat":43.292644,"lon":5.384257,"is_reserved":false,"is_disabled":false,"rental_uris":{"android":"levelo://app?vid=74c4cbde-32e8-4064-aaf9-b1805d3f0db4","ios":"levelo://app?vid=74c4cbde-32e8-4064-aaf9-b1805d3f0db4"},"vehicle_type_id":"4","last_reported":1717351805,"current_range_meters":24400,"station_id":"ce4bh692rcd13ifvqea0","pricing_plan_id":"cebpf4jnsgd1na2vs0mg"},{"bike_id":"20699664-75f3-4998-b225-43349b501b5d","system_id":"levelo_inurba_marseille","lat":43.292644,"lon":5.384257,"is_reserved":false,"is_disabled":false,"rental_uris":{"android":"levelo://app?vid=20699664-75f3-4998-b225-43349b501b5d","ios":"levelo://app?vid=20699664-75f3-4998-b225-43349b501b5d"},"vehicle_type_id":"4","last_reported":1717351805,"current_range_meters":0,"station_id":"ce4bh692rcd13ifvqea0","pricing_plan_id":"cebpf4jnsgd1na2vs0mg"},{"bike_id":"93d2c50e-c1c7-4cd0-992e-4674d94f76e9","system_id":"levelo_inurba_marseille","lat":43.29264,"lon":5.38438,"is_reserved":false,"is_disabled":false,"rental_uris":{"android":"levelo://app?vid=93d2c50e-c1c7-4cd0-992e-4674d94f76e9","ios":"levelo://app?vid=93d2c50e-c1c7-4cd0-992e-4674d94f76e9"},"vehicle_type_id":"4","last_reported":1717351805,"current_range_meters":24400,"station_id":"ce4bh692rcd13ifvqea0","pricing_plan_id":"cebpf4jnsgd1na2vs0mg"},{"bike_id":"06dcef17-7e22-479b-8082-a98fd29caec5","system_id":"levelo_inurba_marseille","lat":43.292638,"lon":5.38438,"is_reserved":false,"is_disabled":false,"rental_uris":{"android":"levelo://app?vid=06dcef17-7e22-479b-8082-a98fd29caec5","ios":"levelo://app?vid=06dcef17-7e22-479b-8082-a98fd29caec5"},"vehicle_type_id":"4","last_reported":1717351805,"current_range_meters":0,"station_id":"ce4bh692rcd13ifvqea0","pricing_plan_id":"cebpf4jnsgd1na2vs0mg"},{"bike_id":"27dcb9e8-7417-4b0c-a0cd-13bcdb938fe1","system_id":"levelo_inurba_marseille","lat":43.292644,"lon":5.384257,"is_reserved":false,"is_disabled":false,"rental_uris":{"android":"levelo://app?vid=27dcb9e8-7417-4b0c-a0cd-13bcdb938fe1","ios":"levelo://app?vid=27dcb9e8-7417-4b0c-a0cd-13bcdb938fe1"},"vehicle_type_id":"4","last_reported":1717351805,"current_range_meters":17200,"station_id":"ce4bh692rcd13ifvqea0","pricing_plan_id":"cebpf4jnsgd1na2vs0mg"},{"bike_id":"ededcf98-a8d9-4422-8c5f-5f6fdc42af9e","system_id":"levelo_inurba_marseille","lat":43.292642,"lon":5.384254,"is_reserved":false,"is_disabled":false,"rental_uris":{"android":"levelo://app?vid=ededcf98-a8d9-4422-8c5f-5f6fdc42af9e","ios":"levelo://app?vid=ededcf98-a8d9-4422-8c5f-5f6fdc42af9e"},"vehicle_type_id":"4","last_reported":1717351805,"current_range_meters":22000,"station_id":"ce4bh692rcd13ifvqea0","pricing_plan_id":"cebpf4jnsgd1na2vs0mg"},{"bike_id":"79481c53-2194-4aaf-b0a4-3b3b1778e12d","system_id":"levelo_inurba_marseille","lat":43.292642,"lon":5.384254,"is_reserved":false,"is_disabled":false,"rental_uris":{"android":"levelo://app?vid=79481c53-2194-4aaf-b0a4-3b3b1778e12d","ios":"levelo://app?vid=79481c53-2194-4aaf-b0a4-3b3b1778e12d"},"vehicle_type_id":"4","last_reported":1717351805,"current_range_meters":0,"station_id":"ce4bh692rcd13ifvqea0","pricing_plan_id":"cebpf4jnsgd1na2vs0mg"},{"bike_id":"667e1632-0f56-4360-81c0-1d6cedf5bf15","system_id":"levelo_inurba_marseille","lat":43.292642,"lon":5.384254,"is_reserved":false,"is_disabled":false,"rental_uris":{"android":"levelo://app?vid=667e1632-0f56-4360-81c0-1d6cedf5bf15","ios":"levelo://app?vid=667e1632-0f56-4360-81c0-1d6cedf5bf15"},"vehicle_type_id":"4","last_reported":1717351805,"current_range_meters":4400,"station_id":"ce4bh692rcd13ifvqea0","pricing_plan_id":"cebpf4jnsgd1na2vs0mg"},{"bike_id":"22a5aeec-0430-4a57-ad25-fa67dcbf564a","system_id":"levelo_inurba_marseille","lat":43.29263,"lon":5.3844,"is_reserved":false,"is_disabled":false,"rental_uris":{"android":"levelo://app?vid=22a5aeec-0430-4a57-ad25-fa67dcbf564a","ios":"levelo://app?vid=22a5aeec-0430-4a57-ad25-fa67dcbf564a"},"vehicle_type_id":"4","last_reported":1717351805,"current_range_meters":0,"station_id":"ce4bh692rcd13ifvqea0","pricing_plan_id":"cebpf4jnsgd1na2vs0mg"},{"bike_id":"0170cd19-8fe5-4dfe-9513-8ad1bcd115f9","system_id":"levelo_inurba_marseille","lat":43.29265,"lon":5.38445,"is_reserved":false,"is_disabled":false,"rental_uris":{"android":"levelo://app?vid=0170cd19-8fe5-4dfe-9513-8ad1bcd115f9","ios":"levelo://app?vid=0170cd19-8fe5-4dfe-9513-8ad1bcd115f9"},"vehicle_type_id":"4","last_reported":1717351805,"current_range_meters":0,"station_id":"ce4bh692rcd13ifvqea0","pricing_plan_id":"cebpf4jnsgd1na2vs0mg"},{"bike_id":"ccf8b2fc-ec2f-4568-9ef0-01f307ee0ada","system_id":"levelo_inurba_marseille","lat":43.292644,"lon":5.384257,"is_reserved":false,"is_disabled":false,"rental_uris":{"android":"levelo://app?vid=ccf8b2fc-ec2f-4568-9ef0-01f307ee0ada","ios":"levelo://app?vid=ccf8b2fc-ec2f-4568-9ef0-01f307ee0ada"},"vehicle_type_id":"4","last_reported":1717351805,"current_range_meters":400,"station_id":"ce4bh692rcd13ifvqea0","pricing_plan_id":"cebpf4jnsgd1na2vs0mg"},{"bike_id":"c7339a13-d1e6-4c09-85a7-2c580bdad0d8","system_id":"levelo_inurba_marseille","lat":43.292644,"lon":5.384257,"is_reserved":false,"is_disabled":false,"rental_uris":{"android":"levelo://app?vid=c7339a13-d1e6-4c09-85a7-2c580bdad0d8","ios":"levelo://app?vid=c7339a13-d1e6-4c09-85a7-2c580bdad0d8"},"vehicle_type_id":"4","last_reported":1717351805,"current_range_meters":31600,"station_id":"ce4bh692rcd13ifvqea0","pricing_plan_id":"cebpf4jnsgd1na2vs0mg"},{"bike_id":"22303c61-902b-49ba-811c-9fc24009bbee","system_id":"levelo_inurba_marseille","lat":43.292642,"lon":5.384254,"is_reserved":false,"is_disabled":false,"rental_uris":{"android":"levelo://app?vid=22303c61-902b-49ba-811c-9fc24009bbee","ios":"levelo://app?vid=22303c61-902b-49ba-811c-9fc24009bbee"},"vehicle_type_id":"4","last_reported":1717351805,"current_range_meters":0,"station_id":"ce4bh692rcd13ifvqea0","pricing_plan_id":"cebpf4jnsgd1na2vs0mg"},{"bike_id":"eda1e853-73f0-48c8-b51e-161a2e3952a9","system_id":"levelo_inurba_marseille","lat":43.29264,"lon":5.38444,"is_reserved":false,"is_disabled":false,"rental_uris":{"android":"levelo://app?vid=eda1e853-73f0-48c8-b51e-161a2e3952a9","ios":"levelo://app?vid=eda1e853-73f0-48c8-b51e-161a2e3952a9"},"vehicle_type_id":"4","last_reported":1717351805,"current_range_meters":0,"station_id":"ce4bh692rcd13ifvqea0","pricing_plan_id":"cebpf4jnsgd1na2vs0mg"},{"bike_id":"e46fe1b3-01b3-4d78-a897-ca4ca4c63ac1","system_id":"levelo_inurba_marseille","lat":43.292644,"lon":5.384257,"is_reserved":false,"is_disabled":false,"rental_uris":{"android":"levelo://app?vid=e46fe1b3-01b3-4d78-a897-ca4ca4c63ac1","ios":"levelo://app?vid=e46fe1b3-01b3-4d78-a897-ca4ca4c63ac1"},"vehicle_type_id":"4","last_reported":1717351805,"current_range_meters":5600,"station_id":"ce4bh692rcd13ifvqea0","pricing_plan_id":"cebpf4jnsgd1na2vs0mg"},{"bike_id":"c63f4dc0-ded8-49b4-b961-340af751fe4a","system_id":"levelo_inurba_marseille","lat":43.292642,"lon":5.384254,"is_reserved":false,"is_disabled":false,"rental_uris":{"android":"levelo://app?vid=c63f4dc0-ded8-49b4-b961-340af751fe4a","ios":"levelo://app?vid=c63f4dc0-ded8-49b4-b961-340af751fe4a"},"vehicle_type_id":"4","last_reported":1717351805,"current_range_meters":800,"station_id":"ce4bh692rcd13ifvqea0","pricing_plan_id":"cebpf4jnsgd1na2vs0mg"},{"bike_id":"5045fc6f-cd5c-4f5d-b6ec-f4447e762c42","system_id":"levelo_inurba_marseille","lat":43.292642,"lon":5.384254,"is_reserved":false,"is_disabled":false,"rental_uris":{"android":"levelo://app?vid=5045fc6f-cd5c-4f5d-b6ec-f4447e762c42","ios":"levelo://app?vid=5045fc6f-cd5c-4f5d-b6ec-f4447e762c42"},"vehicle_type_id":"4","last_reported":1717351805,"current_range_meters":8800,"station_id":"ce4bh692rcd13ifvqea0","pricing_plan_id":"cebpf4jnsgd1na2vs0mg"},{"bike_id":"e79ad575-3595-48da-bcab-012aa410bf2e","system_id":"levelo_inurba_marseille","lat":43.292644,"lon":5.384257,"is_reserved":false,"is_disabled":false,"rental_uris":{"android":"levelo://app?vid=e79ad575-3595-48da-bcab-012aa410bf2e","ios":"levelo://app?vid=e79ad575-3595-48da-bcab-012aa410bf2e"},"vehicle_type_id":"4","last_reported":1717351805,"current_range_meters":0,"station_id":"ce4bh692rcd13ifvqea0","pricing_plan_id":"cebpf4jnsgd1na2vs0mg"},{"bike_id":"30d18ddc-6999-4ca3-a394-15b86dff87a0","system_id":"levelo_inurba_marseille","lat":43.2926,"lon":5.38441,"is_reserved":false,"is_disabled":false,"rental_uris":{"android":"levelo://app?vid=30d18ddc-6999-4ca3-a394-15b86dff87a0","ios":"levelo://app?vid=30d18ddc-6999-4ca3-a394-15b86dff87a0"},"vehicle_type_id":"4","last_reported":1717351805,"current_range_meters":2000,"station_id":"ce4bh692rcd13ifvqea0","pricing_plan_id":"cebpf4jnsgd1na2vs0mg"},{"bike_id":"b8be38b3-1539-400f-9152-db2ba964d557","system_id":"levelo_inurba_marseille","lat":43.292488,"lon":5.384183,"is_reserved":false,"is_disabled":false,"rental_uris":{"android":"levelo://app?vid=b8be38b3-1539-400f-9152-db2ba964d557","ios":"levelo://app?vid=b8be38b3-1539-400f-9152-db2ba964d557"},"vehicle_type_id":"4","last_reported":1717351805,"current_range_meters":15600,"station_id":"ce4bh692rcd13ifvqea0","pricing_plan_id":"cebpf4jnsgd1na2vs0mg"},{"bike_id":"c3c2f8ba-252c-47c5-9ede-b4b7903a4291","system_id":"levelo_inurba_marseille","lat":43.292644,"lon":5.384257,"is_reserved":false,"is_disabled":false,"rental_uris":{"android":"levelo://app?vid=c3c2f8ba-252c-47c5-9ede-b4b7903a4291","ios":"levelo://app?vid=c3c2f8ba-252c-47c5-9ede-b4b7903a4291"},"vehicle_type_id":"4","last_reported":1717351805,"current_range_meters":27200,"station_id":"ce4bh692rcd13ifvqea0","pricing_plan_id":"cebpf4jnsgd1na2vs0mg"},{"bike_id":"73deb6fc-bd89-48be-a878-8b6bdfc15614","system_id":"levelo_inurba_marseille","lat":43.292642,"lon":5.384254,"is_reserved":false,"is_disabled":false,"rental_uris":{"android":"levelo://app?vid=73deb6fc-bd89-48be-a878-8b6bdfc15614","ios":"levelo://app?vid=73deb6fc-bd89-48be-a878-8b6bdfc15614"},"vehicle_type_id":"4","last_reported":1717351805,"current_range_meters":15600,"station_id":"ce4bh692rcd13ifvqea0","pricing_plan_id":"cebpf4jnsgd1na2vs0mg"},{"bike_id":"06e139c7-c799-46d7-8226-d5424817296f","system_id":"levelo_inurba_marseille","lat":43.290104,"lon":5.356111,"is_reserved":false,"is_disabled":false,"rental_uris":{"android":"levelo://app?vid=06e139c7-c799-46d7-8226-d5424817296f","ios":"levelo://app?vid=06e139c7-c799-46d7-8226-d5424817296f"},"vehicle_type_id":"4","last_reported":1717351805,"current_range_meters":0,"station_id":"ce4bhb92rcd13ifvqen0","pricing_plan_id":"cebpf4jnsgd1na2vs0mg"},{"bike_id":"9db0a60c-e86b-42ec-93a4-0bc1a565fece","system_id":"levelo_inurba_marseille","lat":43.292644,"lon":5.384257,"is_reserved":false,"is_disabled":false,"rental_uris":{"android":"levelo://app?vid=9db0a60c-e86b-42ec-93a4-0bc1a565fece","ios":"levelo://app?vid=9db0a60c-e86b-42ec-93a4-0bc1a565fece"},"vehicle_type_id":"4","last_reported":1717351805,"current_range_meters":22400,"station_id":"ce4bh692rcd13ifvqea0","pricing_plan_id":"cebpf4jnsgd1na2vs0mg"},{"bike_id":"9024f1a1-7a7d-480f-8613-5ce49bb0b7fe","system_id":"levelo_inurba_marseille","lat":43.292644,"lon":5.384257,"is_reserved":false,"is_disabled":false,"rental_uris":{"android":"levelo://app?vid=9024f1a1-7a7d-480f-8613-5ce49bb0b7fe","ios":"levelo://app?vid=9024f1a1-7a7d-480f-8613-5ce49bb0b7fe"},"vehicle_type_id":"4","last_reported":1717351805,"current_range_meters":1200,"station_id":"ce4bh692rcd13ifvqea0","pricing_plan_id":"cebpf4jnsgd1na2vs0mg"},{"bike_id":"ba9814c0-beaf-4122-adcc-e42620ce0fd7","system_id":"levelo_inurba_marseille","lat":43.29007,"lon":5.35604,"is_reserved":false,"is_disabled":false,"rental_uris":{"android":"levelo://app?vid=ba9814c0-beaf-4122-adcc-e42620ce0fd7","ios":"levelo://app?vid=ba9814c0-beaf-4122-adcc-e42620ce0fd7"},"vehicle_type_id":"4","last_reported":1717351805,"current_range_meters":0,"station_id":"ce4bhb92rcd13ifvqen0","pricing_plan_id":"cebpf4jnsgd1na2vs0mg"},{"bike_id":"2d562e81-f1e0-47a3-b054-e6a8be8a5099","system_id":"levelo_inurba_marseille","lat":43.290103,"lon":5.356114,"is_reserved":false,"is_disabled":false,"rental_uris":{"android":"levelo://app?vid=2d562e81-f1e0-47a3-b054-e6a8be8a5099","ios":"levelo://app?vid=2d562e81-f1e0-47a3-b054-e6a8be8a5099"},"vehicle_type_id":"4","last_reported":1717351805,"current_range_meters":7200,"station_id":"ce4bhb92rcd13ifvqen0","pricing_plan_id":"cebpf4jnsgd1na2vs0mg"},{"bike_id":"ff9eb5d1-4d5a-4b42-b88f-6181696cd1c9","system_id":"levelo_inurba_marseille","lat":43.292642,"lon":5.384254,"is_reserved":false,"is_disabled":false,"rental_uris":{"android":"levelo://app?vid=ff9eb5d1-4d5a-4b42-b88f-6181696cd1c9","ios":"levelo://app?vid=ff9eb5d1-4d5a-4b42-b88f-6181696cd1c9"},"vehicle_type_id":"4","last_reported":1717351805,"current_range_meters":22000,"station_id":"ce4bh692rcd13ifvqea0","pricing_plan_id":"cebpf4jnsgd1na2vs0mg"},{"bike_id":"11d40c83-f750-4bd5-ada8-53a69e1951e6","system_id":"levelo_inurba_marseille","lat":43.316828,"lon":5.404723,"is_reserved":false,"is_disabled":false,"rental_uris":{"android":"levelo://app?vid=11d40c83-f750-4bd5-ada8-53a69e1951e6","ios":"levelo://app?vid=11d40c83-f750-4bd5-ada8-53a69e1951e6"},"vehicle_type_id":"4","last_reported":1717351805,"current_range_meters":0,"station_id":"ce4bh012rcd13ifvqd00","pricing_plan_id":"cebpf4jnsgd1na2vs0mg"},{"bike_id":"e3aa5d4a-76f8-4220-8d75-41b375939463","system_id":"levelo_inurba_marseille","lat":43.290995,"lon":5.381361,"is_reserved":false,"is_disabled":false,"rental_uris":{"android":"levelo://app?vid=e3aa5d4a-76f8-4220-8d75-41b375939463","ios":"levelo://app?vid=e3aa5d4a-76f8-4220-8d75-41b375939463"},"vehicle_type_id":"4","last_reported":1717351805,"current_range_meters":0,"station_id":"ce4bh512rcd13ifvqe2g","pricing_plan_id":"cebpf4jnsgd1na2vs0mg"},{"bike_id":"1ede3c4f-aa8c-4022-bce9-315df7d711f3","system_id":"levelo_inurba_marseille","lat":43.290995,"lon":5.381361,"is_reserved":false,"is_disabled":false,"rental_uris":{"android":"levelo://app?vid=1ede3c4f-aa8c-4022-bce9-315df7d711f3","ios":"levelo://app?vid=1ede3c4f-aa8c-4022-bce9-315df7d711f3"},"vehicle_type_id":"4","last_reported":1717351805,"current_range_meters":0,"station_id":"ce4bh512rcd13ifvqe2g","pricing_plan_id":"cebpf4jnsgd1na2vs0mg"},{"bike_id":"829ecd08-0fc2-45b1-9419-fa57e9fe9e68","system_id":"levelo_inurba_marseille","lat":43.330442,"lon":5.389148,"is_reserved":false,"is_disabled":false,"rental_uris":{"android":"levelo://app?vid=829ecd08-0fc2-45b1-9419-fa57e9fe9e68","ios":"levelo://app?vid=829ecd08-0fc2-45b1-9419-fa57e9fe9e68"},"vehicle_type_id":"4","last_reported":1717351805,"current_range_meters":0,"station_id":"ce4bhr92rcd13ifvqhrg","pricing_plan_id":"cebpf4jnsgd1na2vs0mg"},{"bike_id":"d49b5aa0-fd82-4c8f-bd37-20d9d2cd60a0","system_id":"levelo_inurba_marseille","lat":43.292642,"lon":5.384254,"is_reserved":false,"is_disabled":false,"rental_uris":{"android":"levelo://app?vid=d49b5aa0-fd82-4c8f-bd37-20d9d2cd60a0","ios":"levelo://app?vid=d49b5aa0-fd82-4c8f-bd37-20d9d2cd60a0"},"vehicle_type_id":"4","last_reported":1717351805,"current_range_meters":16800,"station_id":"ce4bh692rcd13ifvqea0","pricing_plan_id":"cebpf4jnsgd1na2vs0mg"},{"bike_id":"6d7dbcea-0bb9-4868-b97f-2e6a8aa3d6c7","system_id":"levelo_inurba_marseille","lat":43.297815,"lon":5.393548,"is_reserved":false,"is_disabled":false,"rental_uris":{"android":"levelo://app?vid=6d7dbcea-0bb9-4868-b97f-2e6a8aa3d6c7","ios":"levelo://app?vid=6d7dbcea-0bb9-4868-b97f-2e6a8aa3d6c7"},"vehicle_type_id":"4","last_reported":1717351805,"current_range_meters":28800,"station_id":"chh1huq6cuj3fo74tm60","pricing_plan_id":"cebpf4jnsgd1na2vs0mg"},{"bike_id":"222ffc8a-aedd-489b-86a3-f57f1a1effae","system_id":"levelo_inurba_marseille","lat":43.29795,"lon":5.39357,"is_reserved":false,"is_disabled":false,"rental_uris":{"android":"levelo://app?vid=222ffc8a-aedd-489b-86a3-f57f1a1effae","ios":"levelo://app?vid=222ffc8a-aedd-489b-86a3-f57f1a1effae"},"vehicle_type_id":"4","last_reported":1717351805,"current_range_meters":31200,"station_id":"chh1huq6cuj3fo74tm60","pricing_plan_id":"cebpf4jnsgd1na2vs0mg"},{"bike_id":"37d341e0-fc6f-461d-8702-ee4d5ee3a13b","system_id":"levelo_inurba_marseille","lat":43.33024,"lon":5.39041,"is_reserved":false,"is_disabled":false,"rental_uris":{"android":"levelo://app?vid=37d341e0-fc6f-461d-8702-ee4d5ee3a13b","ios":"levelo://app?vid=37d341e0-fc6f-461d-8702-ee4d5ee3a13b"},"vehicle_type_id":"4","last_reported":1717351805,"current_range_meters":1200,"station_id":"ce4bhr92rcd13ifvqhrg","pricing_plan_id":"cebpf4jnsgd1na2vs0mg"},{"bike_id":"4b20a9e3-8f71-4f0b-8df8-334bee5694af","system_id":"levelo_inurba_marseille","lat":43.330442,"lon":5.389148,"is_reserved":false,"is_disabled":false,"rental_uris":{"android":"levelo://app?vid=4b20a9e3-8f71-4f0b-8df8-334bee5694af","ios":"levelo://app?vid=4b20a9e3-8f71-4f0b-8df8-334bee5694af"},"vehicle_type_id":"4","last_reported":1717351805,"current_range_meters":23600,"station_id":"ce4bhr92rcd13ifvqhrg","pricing_plan_id":"cebpf4jnsgd1na2vs0mg"},{"bike_id":"f4376190-9311-48dd-bac9-821bba6975c5","system_id":"levelo_inurba_marseille","lat":43.330442,"lon":5.389148,"is_reserved":false,"is_disabled":false,"rental_uris":{"android":"levelo://app?vid=f4376190-9311-48dd-bac9-821bba6975c5","ios":"levelo://app?vid=f4376190-9311-48dd-bac9-821bba6975c5"},"vehicle_type_id":"4","last_reported":1717351805,"current_range_meters":11200,"station_id":"ce4bhr92rcd13ifvqhrg","pricing_plan_id":"cebpf4jnsgd1na2vs0mg"},{"bike_id":"b7c040a2-d6ce-4548-a0e9-f7c2789f6860","system_id":"levelo_inurba_marseille","lat":43.330442,"lon":5.389148,"is_reserved":false,"is_disabled":false,"rental_uris":{"android":"levelo://app?vid=b7c040a2-d6ce-4548-a0e9-f7c2789f6860","ios":"levelo://app?vid=b7c040a2-d6ce-4548-a0e9-f7c2789f6860"},"vehicle_type_id":"4","last_reported":1717351805,"current_range_meters":14800,"station_id":"ce4bhr92rcd13ifvqhrg","pricing_plan_id":"cebpf4jnsgd1na2vs0mg"},{"bike_id":"0d71140d-1f6b-4638-8eee-e4dd19ca4f9e","system_id":"levelo_inurba_marseille","lat":43.295169,"lon":5.390426,"is_reserved":false,"is_disabled":false,"rental_uris":{"android":"levelo://app?vid=0d71140d-1f6b-4638-8eee-e4dd19ca4f9e","ios":"levelo://app?vid=0d71140d-1f6b-4638-8eee-e4dd19ca4f9e"},"vehicle_type_id":"4","last_reported":1717351805,"current_range_meters":7600,"station_id":"ce4bh3p2rcd13ifvqdp0","pricing_plan_id":"cebpf4jnsgd1na2vs0mg"},{"bike_id":"9551d3b2-f9bc-4b81-bd31-3e5a24691ef7","system_id":"levelo_inurba_marseille","lat":43.289743,"lon":5.378304,"is_reserved":false,"is_disabled":false,"rental_uris":{"android":"levelo://app?vid=9551d3b2-f9bc-4b81-bd31-3e5a24691ef7","ios":"levelo://app?vid=9551d3b2-f9bc-4b81-bd31-3e5a24691ef7"},"vehicle_type_id":"4","last_reported":1717351805,"current_range_meters":2400,"station_id":"ce4bh9p2rcd13ifvqed0","pricing_plan_id":"cebpf4jnsgd1na2vs0mg"},{"bike_id":"99fcf847-8816-4bf7-a511-0a5575c6cdce","system_id":"levelo_inurba_marseille","lat":43.29026,"lon":5.381383,"is_reserved":false,"is_disabled":false,"rental_uris":{"android":"levelo://app?vid=99fcf847-8816-4bf7-a511-0a5575c6cdce","ios":"levelo://app?vid=99fcf847-8816-4bf7-a511-0a5575c6cdce"},"vehicle_type_id":"4","last_reported":1717351805,"current_range_meters":30000,"station_id":"ce4bh4p2rcd13ifvqe1g","pricing_plan_id":"cebpf4jnsgd1na2vs0mg"},{"bike_id":"06e79f9b-d687-478c-afc9-bc4c74802778","system_id":"levelo_inurba_marseille","lat":43.290202,"lon":5.381269,"is_reserved":false,"is_disabled":false,"rental_uris":{"android":"levelo://app?vid=06e79f9b-d687-478c-afc9-bc4c74802778","ios":"levelo://app?vid=06e79f9b-d687-478c-afc9-bc4c74802778"},"vehicle_type_id":"4","last_reported":1717351805,"current_range_meters":400,"station_id":"ce4bh4p2rcd13ifvqe1g","pricing_plan_id":"cebpf4jnsgd1na2vs0mg"},{"bike_id":"f94634d8-9875-4778-80dd-06ebf3e566ec","system_id":"levelo_inurba_marseille","lat":43.29017,"lon":5.38141,"is_reserved":false,"is_disabled":false,"rental_uris":{"android":"levelo://app?vid=f94634d8-9875-4778-80dd-06ebf3e566ec","ios":"levelo://app?vid=f94634d8-9875-4778-80dd-06ebf3e566ec"},"vehicle_type_id":"4","last_reported":1717351805,"current_range_meters":0,"station_id":"ce4bh4p2rcd13ifvqe1g","pricing_plan_id":"cebpf4jnsgd1na2vs0mg"},{"bike_id":"f5164d7f-a145-45ad-bdf4-3e360894c025","system_id":"levelo_inurba_marseille","lat":43.28856,"lon":5.358371,"is_reserved":false,"is_disabled":false,"rental_uris":{"android":"levelo://app?vid=f5164d7f-a145-45ad-bdf4-3e360894c025","ios":"levelo://app?vid=f5164d7f-a145-45ad-bdf4-3e360894c025"},"vehicle_type_id":"4","last_reported":1717351805,"current_range_meters":0,"station_id":"ce4bhb12rcd13ifvqem0","pricing_plan_id":"cebpf4jnsgd1na2vs0mg"},{"bike_id":"18465449-fac5-4e23-8b86-d7c847de669f","system_id":"levelo_inurba_marseille","lat":43.288637,"lon":5.357866,"is_reserved":false,"is_disabled":false,"rental_uris":{"android":"levelo://app?vid=18465449-fac5-4e23-8b86-d7c847de669f","ios":"levelo://app?vid=18465449-fac5-4e23-8b86-d7c847de669f"},