{"last_updated":1701014871,"ttl":30,"version":"2.2","data":{"bikes":[{"bike_id":"87f466b1-e647-45fd-b895-14f67f927dd4","system_id":"levelo_inurba_marseille","lat":43.31341,"lon":5.367098,"is_reserved":false,"is_disabled":false,"rental_uris":{"android":"levelo://app?vid=87f466b1-e647-45fd-b895-14f67f927dd4","ios":"levelo://app?vid=87f466b1-e647-45fd-b895-14f67f927dd4"},"vehicle_type_id":"4","last_reported":1701014872,"current_range_meters":0,"station_id":"ce4bgr92rcd13ifvqc6g","pricing_plan_id":"free"},{"bike_id":"28518db6-37b2-4abe-a872-a3d37a43e0bd","system_id":"levelo_inurba_marseille","lat":43.313391,"lon":5.36706,"is_reserved":false,"is_disabled":false,"rental_uris":{"android":"levelo://app?vid=28518db6-37b2-4abe-a872-a3d37a43e0bd","ios":"levelo://app?vid=28518db6-37b2-4abe-a872-a3d37a43e0bd"},"vehicle_type_id":"4","last_reported":1701014872,"current_range_meters":3600,"station_id":"ce4bgr92rcd13ifvqc6g","pricing_plan_id":"free"},{"bike_id":"e615c761-a1f4-4bea-a305-d06b2875d4b5","system_id":"levelo_inurba_marseille","lat":43.31499,"lon":5.37311,"is_reserved":false,"is_disabled":false,"rental_uris":{"android":"levelo://app?vid=e615c761-a1f4-4bea-a305-d06b2875d4b5","ios":"levelo://app?vid=e615c761-a1f4-4bea-a305-d06b2875d4b5"},"vehicle_type_id":"4","last_reported":1701014872,"current_range_meters":6800,"station_id":"ce4bgt12rcd13ifvqcd0","pricing_plan_id":"free"},{"bike_id":"2bb83feb-43a9-405d-b92c-e4e0aed73082","system_id":"levelo_inurba_marseille","lat":43.305368,"lon":5.367343,"is_reserved":false,"is_disabled":false,"rental_uris":{"android":"levelo://app?vid=2bb83feb-43a9-405d-b92c-e4e0aed73082","ios":"levelo://app?vid=2bb83feb-43a9-405d-b92c-e4e0aed73082"},"vehicle_type_id":"4","last_reported":1701014872,"current_range_meters":6000,"station_id":"ce4bgrp2rcd13ifvqc9g","pricing_plan_id":"free"},{"bike_id":"2d1d2f58-3fbd-446c-af6c-24a44c327b96","system_id":"levelo_inurba_marseille","lat":43.305989,"lon":5.37225,"is_reserved":false,"is_disabled":false,"rental_uris":{"android":"levelo://app?vid=2d1d2f58-3fbd-446c-af6c-24a44c327b96","ios":"levelo://app?vid=2d1d2f58-3fbd-446c-af6c-24a44c327b96"},"vehicle_type_id":"4","last_reported":1701014872,"current_range_meters":0,"station_id":"ce4bgqh2rcd13ifvqc4g","pricing_plan_id":"free"},{"bike_id":"a6362618-5938-423f-9e0f-6e625801e529","system_id":"levelo_inurba_marseille","lat":43.31121,"lon":5.37767,"is_reserved":false,"is_disabled":false,"rental_uris":{"android":"levelo://app?vid=a6362618-5938-423f-9e0f-6e625801e529","ios":"levelo://app?vid=a6362618-5938-423f-9e0f-6e625801e529"},"vehicle_type_id":"4","last_reported":1701014872,"current_range_meters":13600,"station_id":"ce4bgt92rcd13ifvqcg0","pricing_plan_id":"free"},{"bike_id":"c3224250-0358-4700-9094-9f6a306e64ed","system_id":"levelo_inurba_marseille","lat":43.311131,"lon":5.377651,"is_reserved":false,"is_disabled":false,"rental_uris":{"android":"levelo://app?vid=c3224250-0358-4700-9094-9f6a306e64ed","ios":"levelo://app?vid=c3224250-0358-4700-9094-9f6a306e64ed"},"vehicle_type_id":"4","last_reported":1701014872,"current_range_meters":18800,"station_id":"ce4bgt92rcd13ifvqcg0","pricing_plan_id":"free"},{"bike_id":"573a870a-b6c4-429d-8587-8103772b84bc","system_id":"levelo_inurba_marseille","lat":43.308207,"lon":5.376598,"is_reserved":false,"is_disabled":false,"rental_uris":{"android":"levelo://app?vid=573a870a-b6c4-429d-8587-8103772b84bc","ios":"levelo://app?vid=573a870a-b6c4-429d-8587-8103772b84bc"},"vehicle_type_id":"4","last_reported":1701014872,"current_range_meters":0,"station_id":"ce4bgv92rcd13ifvqcq0","pricing_plan_id":"free"},{"bike_id":"f427a2c3-6e4a-446b-ae2f-9be8aa7f4122","system_id":"levelo_inurba_marseille","lat":43.31719,"lon":5.376813,"is_reserved":false,"is_disabled":false,"rental_uris":{"android":"levelo://app?vid=f427a2c3-6e4a-446b-ae2f-9be8aa7f4122","ios":"levelo://app?vid=f427a2c3-6e4a-446b-ae2f-9be8aa7f4122"},"vehicle_type_id":"4","last_reported":1701014872,"current_range_meters":20400,"station_id":"ce4bgth2rcd13ifvqch0","pricing_plan_id":"free"},{"bike_id":"b898b018-f57d-4901-bab2-fdd15d391de9","system_id":"levelo_inurba_marseille","lat":43.317168,"lon":5.376883,"is_reserved":false,"is_disabled":false,"rental_uris":{"android":"levelo://app?vid=b898b018-f57d-4901-bab2-fdd15d391de9","ios":"levelo://app?vid=b898b018-f57d-4901-bab2-fdd15d391de9"},"vehicle_type_id":"4","last_reported":1701014872,"current_range_meters":22800,"station_id":"ce4bgth2rcd13ifvqch0","pricing_plan_id":"free"},{"bike_id":"cc74bdf2-2fdf-46ff-869f-86b81105968d","system_id":"levelo_inurba_marseille","lat":43.317075,"lon":5.377367,"is_reserved":false,"is_disabled":false,"rental_uris":{"android":"levelo://app?vid=cc74bdf2-2fdf-46ff-869f-86b81105968d","ios":"levelo://app?vid=cc74bdf2-2fdf-46ff-869f-86b81105968d"},"vehicle_type_id":"4","last_reported":1701014872,"current_range_meters":15200,"station_id":"ce4bgth2rcd13ifvqch0","pricing_plan_id":"free"},{"bike_id":"9dd512cb-1da4-425d-942e-c20474143127","system_id":"levelo_inurba_marseille","lat":43.32183,"lon":5.37495,"is_reserved":false,"is_disabled":false,"rental_uris":{"android":"levelo://app?vid=9dd512cb-1da4-425d-942e-c20474143127","ios":"levelo://app?vid=9dd512cb-1da4-425d-942e-c20474143127"},"vehicle_type_id":"4","last_reported":1701014872,"current_range_meters":22400,"station_id":"","pricing_plan_id":"free"},{"bike_id":"8ef87ac3-8a0d-4ac6-80c0-266e2621bf7f","system_id":"levelo_inurba_marseille","lat":43.32187,"lon":5.37494,"is_reserved":false,"is_disabled":false,"rental_uris":{"android":"levelo://app?vid=8ef87ac3-8a0d-4ac6-80c0-266e2621bf7f","ios":"levelo://app?vid=8ef87ac3-8a0d-4ac6-80c0-266e2621bf7f"},"vehicle_type_id":"4","last_reported":1701014872,"current_range_meters":31200,"station_id":"","pricing_plan_id":"free"},{"bike_id":"6e960c11-472c-4426-a141-d7e5cf397a61","system_id":"levelo_inurba_marseille","lat":43.308343,"lon":5.38131,"is_reserved":false,"is_disabled":false,"rental_uris":{"android":"levelo://app?vid=6e960c11-472c-4426-a141-d7e5cf397a61","ios":"levelo://app?vid=6e960c11-472c-4426-a141-d7e5cf397a61"},"vehicle_type_id":"4","last_reported":1701014872,"current_range_meters":4800,"station_id":"","pricing_plan_id":"free"},{"bike_id":"4d83d02d-f232-4759-b223-baf00ac11ceb","system_id":"levelo_inurba_marseille","lat":43.308012,"lon":5.381511,"is_reserved":false,"is_disabled":false,"rental_uris":{"android":"levelo://app?vid=4d83d02d-f232-4759-b223-baf00ac11ceb","ios":"levelo://app?vid=4d83d02d-f232-4759-b223-baf00ac11ceb"},"vehicle_type_id":"4","last_reported":1701014872,"current_range_meters":5600,"station_id":"ce4bgt12rcd13ifvqce0","pricing_plan_id":"free"},{"bike_id":"14985295-d2f6-4052-b387-f135f1adfdfb","system_id":"levelo_inurba_marseille","lat":43.308012,"lon":5.381511,"is_reserved":false,"is_disabled":false,"rental_uris":{"android":"levelo://app?vid=14985295-d2f6-4052-b387-f135f1adfdfb","ios":"levelo://app?vid=14985295-d2f6-4052-b387-f135f1adfdfb"},"vehicle_type_id":"4","last_reported":1701014872,"current_range_meters":24000,"station_id":"ce4bgt12rcd13ifvqce0","pricing_plan_id":"free"},{"bike_id":"802b7028-386b-4b21-9c98-757cdec867ac","system_id":"levelo_inurba_marseille","lat":43.304606,"lon":5.379026,"is_reserved":false,"is_disabled":false,"rental_uris":{"android":"levelo://app?vid=802b7028-386b-4b21-9c98-757cdec867ac","ios":"levelo://app?vid=802b7028-386b-4b21-9c98-757cdec867ac"},"vehicle_type_id":"4","last_reported":1701014872,"current_range_meters":17200,"station_id":"ce4bgup2rcd13ifvqcn0","pricing_plan_id":"free"},{"bike_id":"d5f1b55a-61be-461a-8804-3a2f5cb667f7","system_id":"levelo_inurba_marseille","lat":43.29946,"lon":5.36561,"is_reserved":false,"is_disabled":false,"rental_uris":{"android":"levelo://app?vid=d5f1b55a-61be-461a-8804-3a2f5cb667f7","ios":"levelo://app?vid=d5f1b55a-61be-461a-8804-3a2f5cb667f7"},"vehicle_type_id":"4","last_reported":1701014872,"current_range_meters":6000,"station_id":"ce4bgm92rcd13ifvqbr0","pricing_plan_id":"free"},{"bike_id":"911392f0-ea59-4064-ad24-ad4b805a756d","system_id":"levelo_inurba_marseille","lat":43.29937,"lon":5.36571,"is_reserved":false,"is_disabled":false,"rental_uris":{"android":"levelo://app?vid=911392f0-ea59-4064-ad24-ad4b805a756d","ios":"levelo://app?vid=911392f0-ea59-4064-ad24-ad4b805a756d"},"vehicle_type_id":"4","last_reported":1701014872,"current_range_meters":10000,"station_id":"ce4bgm92rcd13ifvqbr0","pricing_plan_id":"free"},{"bike_id":"5227625d-63f5-4d74-aac0-78e7392290ac","system_id":"levelo_inurba_marseille","lat":43.29933,"lon":5.36556,"is_reserved":false,"is_disabled":false,"rental_uris":{"android":"levelo://app?vid=5227625d-63f5-4d74-aac0-78e7392290ac","ios":"levelo://app?vid=5227625d-63f5-4d74-aac0-78e7392290ac"},"vehicle_type_id":"4","last_reported":1701014872,"current_range_meters":19200,"station_id":"ce4bgm92rcd13ifvqbr0","pricing_plan_id":"free"},{"bike_id":"0f228817-0f6a-4b6a-b1b2-d2639a0f01af","system_id":"levelo_inurba_marseille","lat":43.305364,"lon":5.384119,"is_reserved":false,"is_disabled":false,"rental_uris":{"android":"levelo://app?vid=0f228817-0f6a-4b6a-b1b2-d2639a0f01af","ios":"levelo://app?vid=0f228817-0f6a-4b6a-b1b2-d2639a0f01af"},"vehicle_type_id":"4","last_reported":1701014872,"current_range_meters":22000,"station_id":"ce4bgg92rcd13ifvqb30","pricing_plan_id":"free"},{"bike_id":"ddfaa399-e385-4745-9a04-7d9c3a38e489","system_id":"levelo_inurba_marseille","lat":43.298433,"lon":5.362774,"is_reserved":false,"is_disabled":false,"rental_uris":{"android":"levelo://app?vid=ddfaa399-e385-4745-9a04-7d9c3a38e489","ios":"levelo://app?vid=ddfaa399-e385-4745-9a04-7d9c3a38e489"},"vehicle_type_id":"4","last_reported":1701014872,"current_range_meters":3200,"station_id":"ce4bgpp2rcd13ifvqc3g","pricing_plan_id":"free"},{"bike_id":"56ceae33-7c91-4058-945a-27037ed22215","system_id":"levelo_inurba_marseille","lat":43.299243,"lon":5.374807,"is_reserved":false,"is_disabled":false,"rental_uris":{"android":"levelo://app?vid=56ceae33-7c91-4058-945a-27037ed22215","ios":"levelo://app?vid=56ceae33-7c91-4058-945a-27037ed22215"},"vehicle_type_id":"4","last_reported":1701014872,"current_range_meters":4000,"station_id":"ce4bgjh2rcd13ifvqbg0","pricing_plan_id":"free"},{"bike_id":"7db2f809-9cb6-4c34-82df-5bcf393b97dd","system_id":"levelo_inurba_marseille","lat":43.299243,"lon":5.374807,"is_reserved":false,"is_disabled":false,"rental_uris":{"android":"levelo://app?vid=7db2f809-9cb6-4c34-82df-5bcf393b97dd","ios":"levelo://app?vid=7db2f809-9cb6-4c34-82df-5bcf393b97dd"},"vehicle_type_id":"4","last_reported":1701014872,"current_range_meters":2400,"station_id":"ce4bgjh2rcd13ifvqbg0","pricing_plan_id":"free"},{"bike_id":"7a1cb907-5cf0-4fdd-9a97-7a6d045ce264","system_id":"levelo_inurba_marseille","lat":43.311722,"lon":5.387247,"is_reserved":false,"is_disabled":false,"rental_uris":{"android":"levelo://app?vid=7a1cb907-5cf0-4fdd-9a97-7a6d045ce264","ios":"levelo://app?vid=7a1cb907-5cf0-4fdd-9a97-7a6d045ce264"},"vehicle_type_id":"4","last_reported":1701014872,"current_range_meters":6400,"station_id":"ce4bgv12rcd13ifvqcp0","pricing_plan_id":"free"},{"bike_id":"95553aa8-c7f6-4f2a-a549-8e20097217b3","system_id":"levelo_inurba_marseille","lat":43.2968,"lon":5.37291,"is_reserved":false,"is_disabled":false,"rental_uris":{"android":"levelo://app?vid=95553aa8-c7f6-4f2a-a549-8e20097217b3","ios":"levelo://app?vid=95553aa8-c7f6-4f2a-a549-8e20097217b3"},"vehicle_type_id":"4","last_reported":1701014872,"current_range_meters":0,"station_id":"ce4bgk12rcd13ifvqbj0","pricing_plan_id":"free"},{"bike_id":"9a1520d3-542b-4eda-9f3f-45338ce93f2f","system_id":"levelo_inurba_marseille","lat":43.296935,"lon":5.376544,"is_reserved":false,"is_disabled":false,"rental_uris":{"android":"levelo://app?vid=9a1520d3-542b-4eda-9f3f-45338ce93f2f","ios":"levelo://app?vid=9a1520d3-542b-4eda-9f3f-45338ce93f2f"},"vehicle_type_id":"4","last_reported":1701014872,"current_range_meters":17200,"station_id":"ce4bgkh2rcd13ifvqbl0","pricing_plan_id":"free"},{"bike_id":"0637a2b1-9912-45c5-a925-a44680135bfd","system_id":"levelo_inurba_marseille","lat":43.298037,"lon":5.381066,"is_reserved":false,"is_disabled":false,"rental_uris":{"android":"levelo://app?vid=0637a2b1-9912-45c5-a925-a44680135bfd","ios":"levelo://app?vid=0637a2b1-9912-45c5-a925-a44680135bfd"},"vehicle_type_id":"4","last_reported":1701014872,"current_range_meters":14400,"station_id":"ce4bgip2rcd13ifvqbb0","pricing_plan_id":"free"},{"bike_id":"eb53530e-3aeb-40e1-b80e-c8a89a281a77","system_id":"levelo_inurba_marseille","lat":43.304274,"lon":5.388873,"is_reserved":false,"is_disabled":false,"rental_uris":{"android":"levelo://app?vid=eb53530e-3aeb-40e1-b80e-c8a89a281a77","ios":"levelo://app?vid=eb53530e-3aeb-40e1-b80e-c8a89a281a77"},"vehicle_type_id":"4","last_reported":1701014872,"current_range_meters":18800,"station_id":"ce4bgk12rcd13ifvqbi0","pricing_plan_id":"free"},{"bike_id":"bcaea8af-eb5b-4c60-8e1d-f2a8af9389cd","system_id":"levelo_inurba_marseille","lat":43.298037,"lon":5.381066,"is_reserved":false,"is_disabled":false,"rental_uris":{"android":"levelo://app?vid=bcaea8af-eb5b-4c60-8e1d-f2a8af9389cd","ios":"levelo://app?vid=bcaea8af-eb5b-4c60-8e1d-f2a8af9389cd"},"vehicle_type_id":"4","last_reported":1701014872,"current_range_meters":0,"station_id":"ce4bgip2rcd13ifvqbb0","pricing_plan_id":"free"},{"bike_id":"6b621983-5e9e-42f7-990d-ad5a093820d2","system_id":"levelo_inurba_marseille","lat":43.293801,"lon":5.363066,"is_reserved":false,"is_disabled":false,"rental_uris":{"android":"levelo://app?vid=6b621983-5e9e-42f7-990d-ad5a093820d2","ios":"levelo://app?vid=6b621983-5e9e-42f7-990d-ad5a093820d2"},"vehicle_type_id":"4","last_reported":1701014872,"current_range_meters":0,"station_id":"","pricing_plan_id":"free"},{"bike_id":"963d08e7-0c6b-4154-8977-073d329a6b99","system_id":"levelo_inurba_marseille","lat":43.32369,"lon":5.38891,"is_reserved":false,"is_disabled":false,"rental_uris":{"android":"levelo://app?vid=963d08e7-0c6b-4154-8977-073d329a6b99","ios":"levelo://app?vid=963d08e7-0c6b-4154-8977-073d329a6b99"},"vehicle_type_id":"4","last_reported":1701014872,"current_range_meters":6000,"station_id":"ce4bhqp2rcd13ifvqhog","pricing_plan_id":"free"},{"bike_id":"c91caa24-ccd9-44a0-a7dc-ef3dd0691d85","system_id":"levelo_inurba_marseille","lat":43.295318,"lon":5.37901,"is_reserved":false,"is_disabled":false,"rental_uris":{"android":"levelo://app?vid=c91caa24-ccd9-44a0-a7dc-ef3dd0691d85","ios":"levelo://app?vid=c91caa24-ccd9-44a0-a7dc-ef3dd0691d85"},"vehicle_type_id":"4","last_reported":1701014872,"current_range_meters":15600,"station_id":"","pricing_plan_id":"free"},{"bike_id":"c16b4721-0ec2-4a31-a5ce-3c3cc4d061b9","system_id":"levelo_inurba_marseille","lat":43.292749,"lon":5.368402,"is_reserved":false,"is_disabled":false,"rental_uris":{"android":"levelo://app?vid=c16b4721-0ec2-4a31-a5ce-3c3cc4d061b9","ios":"levelo://app?vid=c16b4721-0ec2-4a31-a5ce-3c3cc4d061b9"},"vehicle_type_id":"4","last_reported":1701014872,"current_range_meters":14800,"station_id":"ce4bhbp2rcd13ifvqesg","pricing_plan_id":"free"},{"bike_id":"f658fb1d-3e39-4964-b624-f7c0c0cf619b","system_id":"levelo_inurba_marseille","lat":43.293006,"lon":5.37469,"is_reserved":false,"is_disabled":false,"rental_uris":{"android":"levelo://app?vid=f658fb1d-3e39-4964-b624-f7c0c0cf619b","ios":"levelo://app?vid=f658fb1d-3e39-4964-b624-f7c0c0cf619b"},"vehicle_type_id":"4","last_reported":1701014872,"current_range_meters":0,"station_id":"","pricing_plan_id":"free"},{"bike_id":"9ce7b8a5-9f86-42b1-bfd3-6538ab5514cd","system_id":"levelo_inurba_marseille","lat":43.300852,"lon":5.390859,"is_reserved":false,"is_disabled":false,"rental_uris":{"android":"levelo://app?vid=9ce7b8a5-9f86-42b1-bfd3-6538ab5514cd","ios":"levelo://app?vid=9ce7b8a5-9f86-42b1-bfd3-6538ab5514cd"},"vehicle_type_id":"4","last_reported":1701014872,"current_range_meters":11600,"station_id":"ce4bh192rcd13ifvqdb0","pricing_plan_id":"free"},{"bike_id":"185248b6-ae71-4566-8887-970d9949f2f0","system_id":"levelo_inurba_marseille","lat":43.300852,"lon":5.390859,"is_reserved":false,"is_disabled":false,"rental_uris":{"android":"levelo://app?vid=185248b6-ae71-4566-8887-970d9949f2f0","ios":"levelo://app?vid=185248b6-ae71-4566-8887-970d9949f2f0"},"vehicle_type_id":"4","last_reported":1701014872,"current_range_meters":21600,"station_id":"ce4bh192rcd13ifvqdb0","pricing_plan_id":"free"},{"bike_id":"871decaa-3ac5-4cc4-9ca6-26eb3f3fd886","system_id":"levelo_inurba_marseille","lat":43.298764,"lon":5.388973,"is_reserved":false,"is_disabled":false,"rental_uris":{"android":"levelo://app?vid=871decaa-3ac5-4cc4-9ca6-26eb3f3fd886","ios":"levelo://app?vid=871decaa-3ac5-4cc4-9ca6-26eb3f3fd886"},"vehicle_type_id":"4","last_reported":1701014872,"current_range_meters":24000,"station_id":"ce4bh392rcd13ifvqdl0","pricing_plan_id":"free"},{"bike_id":"19a87c99-3d0d-426b-92b7-bd00e8979439","system_id":"levelo_inurba_marseille","lat":43.313291,"lon":5.396838,"is_reserved":false,"is_disabled":false,"rental_uris":{"android":"levelo://app?vid=19a87c99-3d0d-426b-92b7-bd00e8979439","ios":"levelo://app?vid=19a87c99-3d0d-426b-92b7-bd00e8979439"},"vehicle_type_id":"4","last_reported":1701014872,"current_range_meters":8800,"station_id":"ce4bgvp2rcd13ifvqcu0","pricing_plan_id":"free"},{"bike_id":"78ab4ace-44cf-4cd5-ab17-875f3074223c","system_id":"levelo_inurba_marseille","lat":43.313291,"lon":5.396838,"is_reserved":false,"is_disabled":false,"rental_uris":{"android":"levelo://app?vid=78ab4ace-44cf-4cd5-ab17-875f3074223c","ios":"levelo://app?vid=78ab4ace-44cf-4cd5-ab17-875f3074223c"},"vehicle_type_id":"4","last_reported":1701014872,"current_range_meters":13600,"station_id":"ce4bgvp2rcd13ifvqcu0","pricing_plan_id":"free"},{"bike_id":"9ab030ef-2ec1-4c7d-846d-084665a94010","system_id":"levelo_inurba_marseille","lat":43.313291,"lon":5.396838,"is_reserved":false,"is_disabled":false,"rental_uris":{"android":"levelo://app?vid=9ab030ef-2ec1-4c7d-846d-084665a94010","ios":"levelo://app?vid=9ab030ef-2ec1-4c7d-846d-084665a94010"},"vehicle_type_id":"4","last_reported":1701014872,"current_range_meters":4400,"station_id":"ce4bgvp2rcd13ifvqcu0","pricing_plan_id":"free"},{"bike_id":"4960cd84-5f51-4fcb-bf4f-043f77c0faa0","system_id":"levelo_inurba_marseille","lat":43.313291,"lon":5.396838,"is_reserved":false,"is_disabled":false,"rental_uris":{"android":"levelo://app?vid=4960cd84-5f51-4fcb-bf4f-043f77c0faa0","ios":"levelo://app?vid=4960cd84-5f51-4fcb-bf4f-043f77c0faa0"},"vehicle_type_id":"4","last_reported":1701014872,"current_range_meters":17200,"station_id":"ce4bgvp2rcd13ifvqcu0","pricing_plan_id":"free"},{"bike_id":"05592ac5-aef4-4723-a512-92b69312bca3","system_id":"levelo_inurba_marseille","lat":43.309038,"lon":5.396546,"is_reserved":false,"is_disabled":false,"rental_uris":{"android":"levelo://app?vid=05592ac5-aef4-4723-a512-92b69312bca3","ios":"levelo://app?vid=05592ac5-aef4-4723-a512-92b69312bca3"},"vehicle_type_id":"4","last_reported":1701014872,"current_range_meters":800,"station_id":"ce4bh012rcd13ifvqcv0","pricing_plan_id":"free"},{"bike_id":"095e251a-32ce-4dfb-922c-63c1b69cee92","system_id":"levelo_inurba_marseille","lat":43.302008,"lon":5.394694,"is_reserved":false,"is_disabled":false,"rental_uris":{"android":"levelo://app?vid=095e251a-32ce-4dfb-922c-63c1b69cee92","ios":"levelo://app?vid=095e251a-32ce-4dfb-922c-63c1b69cee92"},"vehicle_type_id":"4","last_reported":1701014872,"current_range_meters":25600,"station_id":"ce4bh0p2rcd13ifvqd70","pricing_plan_id":"free"},{"bike_id":"5de528af-73bc-491e-9ef9-7e42f43c9ba1","system_id":"levelo_inurba_marseille","lat":43.289184,"lon":5.366408,"is_reserved":false,"is_disabled":false,"rental_uris":{"android":"levelo://app?vid=5de528af-73bc-491e-9ef9-7e42f43c9ba1","ios":"levelo://app?vid=5de528af-73bc-491e-9ef9-7e42f43c9ba1"},"vehicle_type_id":"4","last_reported":1701014872,"current_range_meters":17600,"station_id":"ce4bhap2rcd13ifvqek0","pricing_plan_id":"free"},{"bike_id":"08085c82-ac5f-4aa4-ba65-e735130b401d","system_id":"levelo_inurba_marseille","lat":43.289184,"lon":5.366408,"is_reserved":false,"is_disabled":false,"rental_uris":{"android":"levelo://app?vid=08085c82-ac5f-4aa4-ba65-e735130b401d","ios":"levelo://app?vid=08085c82-ac5f-4aa4-ba65-e735130b401d"},"vehicle_type_id":"4","last_reported":1701014872,"current_range_meters":20800,"station_id":"ce4bhap2rcd13ifvqek0","pricing_plan_id":"free"},{"bike_id":"b1eef249-4927-420e-a0ee-8de1f0c67bdf","system_id":"levelo_inurba_marseille","lat":43.289184,"lon":5.366408,"is_reserved":false,"is_disabled":false,"rental_uris":{"android":"levelo://app?vid=b1eef249-4927-420e-a0ee-8de1f0c67bdf","ios":"levelo://app?vid=b1eef249-4927-420e-a0ee-8de1f0c67bdf"},"vehicle_type_id":"4","last_reported":1701014872,"current_range_meters":30400,"station_id":"ce4bhap2rcd13ifvqek0","pricing_plan_id":"free"},{"bike_id":"a6fc4707-c777-4cbd-b1ec-c01290c5636a","system_id":"levelo_inurba_marseille","lat":43.292644,"lon":5.384257,"is_reserved":false,"is_disabled":false,"rental_uris":{"android":"levelo://app?vid=a6fc4707-c777-4cbd-b1ec-c01290c5636a","ios":"levelo://app?vid=a6fc4707-c777-4cbd-b1ec-c01290c5636a"},"vehicle_type_id":"4","last_reported":1701014872,"current_range_meters":2000,"station_id":"ce4bh692rcd13ifvqea0","pricing_plan_id":"free"},{"bike_id":"601a5cf3-3fed-4b89-964e-0b65a80a8239","system_id":"levelo_inurba_marseille","lat":43.290103,"lon":5.356114,"is_reserved":false,"is_disabled":false,"rental_uris":{"android":"levelo://app?vid=601a5cf3-3fed-4b89-964e-0b65a80a8239","ios":"levelo://app?vid=601a5cf3-3fed-4b89-964e-0b65a80a8239"},"vehicle_type_id":"4","last_reported":1701014872,"current_range_meters":19600,"station_id":"ce4bhb92rcd13ifvqen0","pricing_plan_id":"free"},{"bike_id":"97560fbc-aec8-4f6d-819e-9d4def094d43","system_id":"levelo_inurba_marseille","lat":43.297924,"lon":5.393419,"is_reserved":false,"is_disabled":false,"rental_uris":{"android":"levelo://app?vid=97560fbc-aec8-4f6d-819e-9d4def094d43","ios":"levelo://app?vid=97560fbc-aec8-4f6d-819e-9d4def094d43"},"vehicle_type_id":"4","last_reported":1701014872,"current_range_meters":8400,"station_id":"","pricing_plan_id":"free"},{"bike_id":"ec2d57d6-bbf2-4600-8c73-cfbfaa1a14d6","system_id":"levelo_inurba_marseille","lat":43.289741,"lon":5.378306,"is_reserved":false,"is_disabled":false,"rental_uris":{"android":"levelo://app?vid=ec2d57d6-bbf2-4600-8c73-cfbfaa1a14d6","ios":"levelo://app?vid=ec2d57d6-bbf2-4600-8c73-cfbfaa1a14d6"},"vehicle_type_id":"4","last_reported":1701014872,"current_range_meters":30400,"station_id":"ce4bh9p2rcd13ifvqed0","pricing_plan_id":"free"},{"bike_id":"2e0d4a27-3593-4749-8889-2706922ee57c","system_id":"levelo_inurba_marseille","lat":43.28856,"lon":5.358371,"is_reserved":false,"is_disabled":false,"rental_uris":{"android":"levelo://app?vid=2e0d4a27-3593-4749-8889-2706922ee57c","ios":"levelo://app?vid=2e0d4a27-3593-4749-8889-2706922ee57c"},"vehicle_type_id":"4","last_reported":1701014872,"current_range_meters":11600,"station_id":"ce4bhb12rcd13ifvqem0","pricing_plan_id":"free"},{"bike_id":"948c6127-d9e1-4752-b07c-6dc65ac6adfe","system_id":"levelo_inurba_marseille","lat":43.30124,"lon":5.39849,"is_reserved":false,"is_disabled":false,"rental_uris":{"android":"levelo://app?vid=948c6127-d9e1-4752-b07c-6dc65ac6adfe","ios":"levelo://app?vid=948c6127-d9e1-4752-b07c-6dc65ac6adfe"},"vehicle_type_id":"4","last_reported":1701014872,"current_range_meters":6400,"station_id":"ce4bh0h2rcd13ifvqd40","pricing_plan_id":"free"},{"bike_id":"005cef03-fec6-40c0-afab-8c6d02b40e9e","system_id":"levelo_inurba_marseille","lat":43.286961,"lon":5.373785,"is_reserved":false,"is_disabled":false,"rental_uris":{"android":"levelo://app?vid=005cef03-fec6-40c0-afab-8c6d02b40e9e","ios":"levelo://app?vid=005cef03-fec6-40c0-afab-8c6d02b40e9e"},"vehicle_type_id":"4","last_reported":1701014872,"current_range_meters":19200,"station_id":"ce4bh3p2rcd13ifvqdq0","pricing_plan_id":"free"},{"bike_id":"50e7640b-aaa7-4331-befd-ef7b7ab9400c","system_id":"levelo_inurba_marseille","lat":43.28698,"lon":5.37391,"is_reserved":false,"is_disabled":false,"rental_uris":{"android":"levelo://app?vid=50e7640b-aaa7-4331-befd-ef7b7ab9400c","ios":"levelo://app?vid=50e7640b-aaa7-4331-befd-ef7b7ab9400c"},"vehicle_type_id":"4","last_reported":1701014872,"current_range_meters":0,"station_id":"ce4bh3p2rcd13ifvqdq0","pricing_plan_id":"free"},{"bike_id":"d28db71d-7dd4-46fe-bfef-2883ba1d2498","system_id":"levelo_inurba_marseille","lat":43.295194,"lon":5.39397,"is_reserved":false,"is_disabled":false,"rental_uris":{"android":"levelo://app?vid=d28db71d-7dd4-46fe-bfef-2883ba1d2498","ios":"levelo://app?vid=d28db71d-7dd4-46fe-bfef-2883ba1d2498"},"vehicle_type_id":"4","last_reported":1701014872,"current_range_meters":4000,"station_id":"ce4bh292rcd13ifvqdf0","pricing_plan_id":"free"},{"bike_id":"ff36b2ef-eef4-4970-887b-ac8e197aad8d","system_id":"levelo_inurba_marseille","lat":43.29037,"lon":5.3863,"is_reserved":false,"is_disabled":false,"rental_uris":{"android":"levelo://app?vid=ff36b2ef-eef4-4970-887b-ac8e197aad8d","ios":"levelo://app?vid=ff36b2ef-eef4-4970-887b-ac8e197aad8d"},"vehicle_type_id":"4","last_reported":1701014872,"current_range_meters":20000,"station_id":"","pricing_plan_id":"free"},{"bike_id":"5a89fe57-4929-4c13-a0e3-11e9ba835597","system_id":"levelo_inurba_marseille","lat":43.29034,"lon":5.3863,"is_reserved":false,"is_disabled":false,"rental_uris":{"android":"levelo://app?vid=5a89fe57-4929-4c13-a0e3-11e9ba835597","ios":"levelo://app?vid=5a89fe57-4929-4c13-a0e3-11e9ba835597"},"vehicle_type_id":"4","last_reported":1701014872,"current_range_meters":6000,"station_id":"ce4bh4p2rcd13ifvqe0g","pricing_plan_id":"free"},{"bike_id":"2cc4de2f-9e72-4e69-994c-c24cf5d22bcf","system_id":"levelo_inurba_marseille","lat":43.286152,"lon":5.370634,"is_reserved":false,"is_disabled":false,"rental_uris":{"android":"levelo://app?vid=2cc4de2f-9e72-4e69-994c-c24cf5d22bcf","ios":"levelo://app?vid=2cc4de2f-9e72-4e69-994c-c24cf5d22bcf"},"vehicle_type_id":"4","last_reported":1701014872,"current_range_meters":6800,"station_id":"","pricing_plan_id":"free"},{"bike_id":"5b5f61b4-b77b-4311-9d47-e2336d8cfbd3","system_id":"levelo_inurba_marseille","lat":43.286039,"lon":5.370679,"is_reserved":false,"is_disabled":false,"rental_uris":{"android":"levelo://app?vid=5b5f61b4-b77b-4311-9d47-e2336d8cfbd3","ios":"levelo://app?vid=5b5f61b4-b77b-4311-9d47-e2336d8cfbd3"},"vehicle_type_id":"4","last_reported":1701014872,"current_range_meters":28000,"station_id":"ce4bht12rcd13ifvqi60","pricing_plan_id":"free"},{"bike_id":"0256ff5d-12f5-44a1-b7ef-0eb21d90dd49","system_id":"levelo_inurba_marseille","lat":43.2861,"lon":5.37069,"is_reserved":false,"is_disabled":false,"rental_uris":{"android":"levelo://app?vid=0256ff5d-12f5-44a1-b7ef-0eb21d90dd49","ios":"levelo://app?vid=0256ff5d-12f5-44a1-b7ef-0eb21d90dd49"},"vehicle_type_id":"4","last_reported":1701014872,"current_range_meters":25200,"station_id":"ce4bht12rcd13ifvqi60","pricing_plan_id":"free"},{"bike_id":"5148b248-024f-4237-8991-91cbfb8f7cfc","system_id":"levelo_inurba_marseille","lat":43.285856,"lon":5.350771,"is_reserved":false,"is_disabled":false,"rental_uris":{"android":"levelo://app?vid=5148b248-024f-4237-8991-91cbfb8f7cfc","ios":"levelo://app?vid=5148b248-024f-4237-8991-91cbfb8f7cfc"},"vehicle_type_id":"4","last_reported":1701014872,"current_range_meters":20000,"station_id":"ce4bhch2rcd13ifvqeug","pricing_plan_id":"free"},{"bike_id":"bfc2cf6f-ca06-47a3-bb5e-571ecca5a8a2","system_id":"levelo_inurba_marseille","lat":43.283998,"lon":5.375062,"is_reserved":false,"is_disabled":false,"rental_uris":{"android":"levelo://app?vid=bfc2cf6f-ca06-47a3-bb5e-571ecca5a8a2","ios":"levelo://app?vid=bfc2cf6f-ca06-47a3-bb5e-571ecca5a8a2"},"vehicle_type_id":"4","last_reported":1701014872,"current_range_meters":18000,"station_id":"ce4bh412rcd13ifvqds0","pricing_plan_id":"free"},{"bike_id":"41d0cdbb-3c49-4e73-871b-fb969f7d9d61","system_id":"levelo_inurba_marseille","lat":43.295713,"lon":5.399639,"is_reserved":false,"is_disabled":false,"rental_uris":{"android":"levelo://app?vid=41d0cdbb-3c49-4e73-871b-fb969f7d9d61","ios":"levelo://app?vid=41d0cdbb-3c49-4e73-871b-fb969f7d9d61"},"vehicle_type_id":"4","last_reported":1701014872,"current_range_meters":0,"station_id":"ce4bh312rcd13ifvqdj0","pricing_plan_id":"free"},{"bike_id":"dfbe7ccb-60b5-4ede-8244-bb94470c5d84","system_id":"levelo_inurba_marseille","lat":43.28619,"lon":5.38388,"is_reserved":false,"is_disabled":false,"rental_uris":{"android":"levelo://app?vid=dfbe7ccb-60b5-4ede-8244-bb94470c5d84","ios":"levelo://app?vid=dfbe7ccb-60b5-4ede-8244-bb94470c5d84"},"vehicle_type_id":"4","last_reported":1701014872,"current_range_meters":29600,"station_id":"","pricing_plan_id":"free"},{"bike_id":"3101ca75-c1d8-42b8-8f85-c5889861544f","system_id":"levelo_inurba_marseille","lat":43.294153,"lon":5.386305,"is_reserved":false,"is_disabled":false,"rental_uris":{"android":"levelo://app?vid=3101ca75-c1d8-42b8-8f85-c5889861544f","ios":"levelo://app?vid=3101ca75-c1d8-42b8-8f85-c5889861544f"},"vehicle_type_id":"4","last_reported":1701014872,"current_range_meters":16800,"station_id":"ce4bh2h2rcd13ifvqdh0","pricing_plan_id":"free"},{"bike_id":"d7291cda-b47c-4b21-ad1d-adea30d670c7","system_id":"levelo_inurba_marseille","lat":43.319179,"lon":5.407725,"is_reserved":false,"is_disabled":false,"rental_uris":{"android":"levelo://app?vid=d7291cda-b47c-4b21-ad1d-adea30d670c7","ios":"levelo://app?vid=d7291cda-b47c-4b21-ad1d-adea30d670c7"},"vehicle_type_id":"4","last_reported":1701014872,"current_range_meters":31600,"station_id":"ce4bhq12rcd13ifvqhig","pricing_plan_id":"free"},{"bike_id":"01247603-b87b-461c-8091-179e4b5fc283","system_id":"levelo_inurba_marseille","lat":43.337168,"lon":5.391825,"is_reserved":false,"is_disabled":false,"rental_uris":{"android":"levelo://app?vid=01247603-b87b-461c-8091-179e4b5fc283","ios":"levelo://app?vid=01247603-b87b-461c-8091-179e4b5fc283"},"vehicle_type_id":"4","last_reported":1701014872,"current_range_meters":12000,"station_id":"ce4bhr92rcd13ifvqhsg","pricing_plan_id":"free"},{"bike_id":"5b3bb01f-e6fd-486d-94d5-0af0ba6741fa","system_id":"levelo_inurba_marseille","lat":43.323464,"lon":5.406297,"is_reserved":false,"is_disabled":false,"rental_uris":{"android":"levelo://app?vid=5b3bb01f-e6fd-486d-94d5-0af0ba6741fa","ios":"levelo://app?vid=5b3bb01f-e6fd-486d-94d5-0af0ba6741fa"},"vehicle_type_id":"4","last_reported":1701014872,"current_range_meters":17600,"station_id":"ce4bhq92rcd13ifvqhjg","pricing_plan_id":"free"},{"bike_id":"d09e4f7e-48b7-4f2f-8f12-4f46fa0d34a1","system_id":"levelo_inurba_marseille","lat":43.28488,"lon":5.38414,"is_reserved":false,"is_disabled":false,"rental_uris":{"android":"levelo://app?vid=d09e4f7e-48b7-4f2f-8f12-4f46fa0d34a1","ios":"levelo://app?vid=d09e4f7e-48b7-4f2f-8f12-4f46fa0d34a1"},"vehicle_type_id":"4","last_reported":1701014872,"current_range_meters":22400,"station_id":"ce4bh512rcd13ifvqe3g","pricing_plan_id":"free"},{"bike_id":"ec086bbf-3576-4b38-9369-dbac110cb0bb","system_id":"levelo_inurba_marseille","lat":43.284817,"lon":5.38417,"is_reserved":false,"is_disabled":false,"rental_uris":{"android":"levelo://app?vid=ec086bbf-3576-4b38-9369-dbac110cb0bb","ios":"levelo://app?vid=ec086bbf-3576-4b38-9369-dbac110cb0bb"},"vehicle_type_id":"4","last_reported":1701014872,"current_range_meters":2400,"station_id":"ce4bh512rcd13ifvqe3g","pricing_plan_id":"free"},{"bike_id":"d1da7e90-f78a-418d-8022-42a468ab44e4","system_id":"levelo_inurba_marseille","lat":43.28479,"lon":5.38416,"is_reserved":false,"is_disabled":false,"rental_uris":{"android":"levelo://app?vid=d1da7e90-f78a-418d-8022-42a468ab44e4","ios":"levelo://app?vid=d1da7e90-f78a-418d-8022-42a468ab44e4"},"vehicle_type_id":"4","last_reported":1701014872,"current_range_meters":9200,"station_id":"ce4bh512rcd13ifvqe3g","pricing_plan_id":"free"},{"bike_id":"f73f20dc-1b05-42fa-ad47-ce8d5069f409","system_id":"levelo_inurba_marseille","lat":43.284787,"lon":5.384116,"is_reserved":false,"is_disabled":false,"rental_uris":{"android":"levelo://app?vid=f73f20dc-1b05-42fa-ad47-ce8d5069f409","ios":"levelo://app?vid=f73f20dc-1b05-42fa-ad47-ce8d5069f409"},"vehicle_type_id":"4","last_reported":1701014872,"current_range_meters":2800,"station_id":"ce4bh512rcd13ifvqe3g","pricing_plan_id":"free"},{"bike_id":"c27827db-a517-427a-9bb5-6bd2d92cb49c","system_id":"levelo_inurba_marseille","lat":43.28471,"lon":5.38421,"is_reserved":false,"is_disabled":false,"rental_uris":{"android":"levelo://app?vid=c27827db-a517-427a-9bb5-6bd2d92cb49c","ios":"levelo://app?vid=c27827db-a517-427a-9bb5-6bd2d92cb49c"},"vehicle_type_id":"4","last_reported":1701014872,"current_range_meters":15600,"station_id":"ce4bh512rcd13ifvqe3g","pricing_plan_id":"free"},{"bike_id":"13b66e02-90d6-437d-93fc-7b8148636c25","system_id":"levelo_inurba_marseille","lat":43.284787,"lon":5.384116,"is_reserved":false,"is_disabled":false,"rental_uris":{"android":"levelo://app?vid=13b66e02-90d6-437d-93fc-7b8148636c25","ios":"levelo://app?vid=13b66e02-90d6-437d-93fc-7b8148636c25"},"vehicle_type_id":"4","last_reported":1701014872,"current_range_meters":12000,"station_id":"ce4bh512rcd13ifvqe3g","pricing_plan_id":"free"},{"bike_id":"3ec0fbb4-3285-4976-b427-1396166ac89b","system_id":"levelo_inurba_marseille","lat":43.288501,"lon":5.393087,"is_reserved":false,"is_disabled":false,"rental_uris":{"android":"levelo://app?vid=3ec0fbb4-3285-4976-b427-1396166ac89b","ios":"levelo://app?vid=3ec0fbb4-3285-4976-b427-1396166ac89b"},"vehicle_type_id":"4","last_reported":1701014872,"current_range_meters":16800,"station_id":"ce4bh2p2rcd13ifvqdi0","pricing_plan_id":"free"},{"bike_id":"eb50100e-61e1-4858-ba95-e2879fe71648","system_id":"levelo_inurba_marseille","lat":43.284217,"lon":5.349697,"is_reserved":false,"is_disabled":false,"rental_uris":{"android":"levelo://app?vid=eb50100e-61e1-4858-ba95-e2879fe71648","ios":"levelo://app?vid=eb50100e-61e1-4858-ba95-e2879fe71648"},"vehicle_type_id":"4","last_reported":1701014872,"current_range_meters":29200,"station_id":"ce4bhbh2rcd13ifvqepg","pricing_plan_id":"free"},{"bike_id":"e2284003-4e46-4e0a-93e7-73d05c3666d9","system_id":"levelo_inurba_marseille","lat":43.33508,"lon":5.397755,"is_reserved":false,"is_disabled":false,"rental_uris":{"android":"levelo://app?vid=e2284003-4e46-4e0a-93e7-73d05c3666d9","ios":"levelo://app?vid=e2284003-4e46-4e0a-93e7-73d05c3666d9"},"vehicle_type_id":"4","last_reported":1701014872,"current_range_meters":18400,"station_id":"","pricing_plan_id":"free"},{"bike_id":"669d81e2-f209-4ef2-bc17-f57407c3fab0","system_id":"levelo_inurba_marseille","lat":43.292724,"lon":5.401131,"is_reserved":false,"is_disabled":false,"rental_uris":{"android":"levelo://app?vid=669d81e2-f209-4ef2-bc17-f57407c3fab0","ios":"levelo://app?vid=669d81e2-f209-4ef2-bc17-f57407c3fab0"},"vehicle_type_id":"4","last_reported":1701014872,"current_range_meters":5200,"station_id":"ce4bh312rcd13ifvqdk0","pricing_plan_id":"free"},{"bike_id":"0c1fd3c2-fe31-4d7c-8c7a-cdbe760e5bbe","system_id":"levelo_inurba_marseille","lat":43.283502,"lon":5.386471,"is_reserved":false,"is_disabled":false,"rental_uris":{"android":"levelo://app?vid=0c1fd3c2-fe31-4d7c-8c7a-cdbe760e5bbe","ios":"levelo://app?vid=0c1fd3c2-fe31-4d7c-8c7a-cdbe760e5bbe"},"vehicle_type_id":"4","last_reported":1701014872,"current_range_meters":20800,"station_id":"ce4bh492rcd13ifvqdvg","pricing_plan_id":"free"},{"bike_id":"fe2f453a-70f1-4ca0-bc5a-567db365f789","system_id":"levelo_inurba_marseille","lat":43.283502,"lon":5.386471,"is_reserved":false,"is_disabled":false,"rental_uris":{"android":"levelo://app?vid=fe2f453a-70f1-4ca0-bc5a-567db365f789","ios":"levelo://app?vid=fe2f453a-70f1-4ca0-bc5a-567db365f789"},"vehicle_type_id":"4","last_reported":1701014872,"current_range_meters":26800,"station_id":"ce4bh492rcd13ifvqdvg","pricing_plan_id":"free"},{"bike_id":"bcd500b3-23bc-4e91-bb16-1c1d37a048b8","system_id":"levelo_inurba_marseille","lat":43.280382,"lon":5.369291,"is_reserved":false,"is_disabled":false,"rental_uris":{"android":"levelo://app?vid=bcd500b3-23bc-4e91-bb16-1c1d37a048b8","ios":"levelo://app?vid=bcd500b3-23bc-4e91-bb16-1c1d37a048b8"},"vehicle_type_id":"4","last_reported":1701014872,"current_range_meters":17200,"station_id":"ce4bha12rcd13ifvqef0","pricing_plan_id":"free"},{"bike_id":"beec9e69-a63f-4ac8-972f-8ba6eeac4fc7","system_id":"levelo_inurba_marseille","lat":43.296263,"lon":5.40601,"is_reserved":false,"is_disabled":false,"rental_uris":{"android":"levelo://app?vid=beec9e69-a63f-4ac8-972f-8ba6eeac4fc7","ios":"levelo://app?vid=beec9e69-a63f-4ac8-972f-8ba6eeac4fc7"},"vehicle_type_id":"4","last_reported":1701014872,"current_range_meters":0,"station_id":"ce4bh0h2rcd13ifvqd60","pricing_plan_id":"free"},{"bike_id":"0a091674-0083-44fe-8226-8cfd39dea2d0","system_id":"levelo_inurba_marseille","lat":43.281044,"lon":5.378308,"is_reserved":false,"is_disabled":false,"rental_uris":{"android":"levelo://app?vid=0a091674-0083-44fe-8226-8cfd39dea2d0","ios":"levelo://app?vid=0a091674-0083-44fe-8226-8cfd39dea2d0"},"vehicle_type_id":"4","last_reported":1701014872,"current_range_meters":28000,"station_id":"ce4bha12rcd13ifvqee0","pricing_plan_id":"free"},{"bike_id":"b9ff903f-2d6c-4b4e-a04a-f55de6ba0251","system_id":"levelo_inurba_marseille","lat":43.296263,"lon":5.40601,"is_reserved":false,"is_disabled":false,"rental_uris":{"android":"levelo://app?vid=b9ff903f-2d6c-4b4e-a04a-f55de6ba0251","ios":"levelo://app?vid=b9ff903f-2d6c-4b4e-a04a-f55de6ba0251"},"vehicle_type_id":"4","last_reported":1701014872,"current_range_meters":14000,"station_id":"ce4bh0h2rcd13ifvqd60","pricing_plan_id":"free"},{"bike_id":"ae449a73-cdb1-48d4-b3b8-2f41bf963dd2","system_id":"levelo_inurba_marseille","lat":43.284462,"lon":5.392121,"is_reserved":false,"is_disabled":false,"rental_uris":{"android":"levelo://app?vid=ae449a73-cdb1-48d4-b3b8-2f41bf963dd2","ios":"levelo://app?vid=ae449a73-cdb1-48d4-b3b8-2f41bf963dd2"},"vehicle_type_id":"4","last_reported":1701014872,"current_range_meters":22000,"station_id":"ce4bhoh2rcd13ifvqh5g","pricing_plan_id":"free"},{"bike_id":"9e37376e-8d1f-4c3c-a9a7-330ec05191c4","system_id":"levelo_inurba_marseille","lat":43.284462,"lon":5.392121,"is_reserved":false,"is_disabled":false,"rental_uris":{"android":"levelo://app?vid=9e37376e-8d1f-4c3c-a9a7-330ec05191c4","ios":"levelo://app?vid=9e37376e-8d1f-4c3c-a9a7-330ec05191c4"},"vehicle_type_id":"4","last_reported":1701014872,"current_range_meters":19200,"station_id":"ce4bhoh2rcd13ifvqh5g","pricing_plan_id":"free"},{"bike_id":"33414aa8-9040-44a5-89ce-d066ae351ed3","system_id":"levelo_inurba_marseille","lat":43.28573,"lon":5.394992,"is_reserved":false,"is_disabled":false,"rental_uris":{"android":"levelo://app?vid=33414aa8-9040-44a5-89ce-d066ae351ed3","ios":"levelo://app?vid=33414aa8-9040-44a5-89ce-d066ae351ed3"},"vehicle_type_id":"4","last_reported":1701014872,"current_range_meters":20800,"station_id":"ce4bh292rcd13ifvqdg0","pricing_plan_id":"free"},{"bike_id":"b1ee2de0-1f23-4a5b-a061-1dccb76aaad4","system_id":"levelo_inurba_marseille","lat":43.2871,"lon":5.39997,"is_reserved":false,"is_disabled":false,"rental_uris":{"android":"levelo://app?vid=b1ee2de0-1f23-4a5b-a061-1dccb76aaad4","ios":"levelo://app?vid=b1ee2de0-1f23-4a5b-a061-1dccb76aaad4"},"vehicle_type_id":"4","last_reported":1701014872,"current_range_meters":26800,"station_id":"ce4bho92rcd13ifvqh3g","pricing_plan_id":"free"},{"bike_id":"ec709759-ec2e-49fa-b4a4-81c9fd62effb","system_id":"levelo_inurba_marseille","lat":43.287154,"lon":5.399979,"is_reserved":false,"is_disabled":false,"rental_uris":{"android":"levelo://app?vid=ec709759-ec2e-49fa-b4a4-81c9fd62effb","ios":"levelo://app?vid=ec709759-ec2e-49fa-b4a4-81c9fd62effb"},"vehicle_type_id":"4","last_reported":1701014872,"current_range_meters":26800,"station_id":"ce4bho92rcd13ifvqh3g","pricing_plan_id":"free"},{"bike_id":"6526cad1-2f4b-4db1-8d6b-ce04bc407b31","system_id":"levelo_inurba_marseille","lat":43.34883,"lon":5.37501,"is_reserved":false,"is_disabled":false,"rental_uris":{"android":"levelo://app?vid=6526cad1-2f4b-4db1-8d6b-ce04bc407b31","ios":"levelo://app?vid=6526cad1-2f4b-4db1-8d6b-ce04bc407b31"},"vehicle_type_id":"4","last_reported":1701014872,"current_range_meters":0,"station_id":"","pricing_plan_id":"free"},{"bike_id":"9a8d4aa1-f1c0-4607-bf96-bde080e3f59a","system_id":"levelo_inurba_marseille","lat":43.292571,"lon":5.409107,"is_reserved":false,"is_disabled":false,"rental_uris":{"android":"levelo://app?vid=9a8d4aa1-f1c0-4607-bf96-bde080e3f59a","ios":"levelo://app?vid=9a8d4aa1-f1c0-4607-bf96-bde080e3f59a"},"vehicle_type_id":"4","last_reported":1701014872,"current_range_meters":1200,"station_id":"ce4bh192rcd13ifvqdc0","pricing_plan_id":"free"},{"bike_id":"72ada52b-df59-4cf8-8731-337d1eed0205","system_id":"levelo_inurba_marseille","lat":43.2762,"lon":5.3611,"is_reserved":false,"is_disabled":false,"rental_uris":{"android":"levelo://app?vid=72ada52b-df59-4cf8-8731-337d1eed0205","ios":"levelo://app?vid=72ada52b-df59-4cf8-8731-337d1eed0205"},"vehicle_type_id":"4","last_reported":1701014872,"current_range_meters":31200,"station_id":"ce4bgj92rcd13ifvqbe0","pricing_plan_id":"free"},{"bike_id":"b5338767-b784-437a-8eca-a869323394dd","system_id":"levelo_inurba_marseille","lat":43.276196,"lon":5.361065,"is_reserved":false,"is_disabled":false,"rental_uris":{"android":"levelo://app?vid=b5338767-b784-437a-8eca-a869323394dd","ios":"levelo://app?vid=b5338767-b784-437a-8eca-a869323394dd"},"vehicle_type_id":"4","last_reported":1701014872,"current_range_meters":26400,"station_id":"","pricing_plan_id":"free"},{"bike_id":"1044aa87-d71d-4dc9-906b-bd12abb6a78c","system_id":"levelo_inurba_marseille","lat":43.27614,"lon":5.36107,"is_reserved":false,"is_disabled":false,"rental_uris":{"android":"levelo://app?vid=1044aa87-d71d-4dc9-906b-bd12abb6a78c","ios":"levelo://app?vid=1044aa87-d71d-4dc9-906b-bd12abb6a78c"},"vehicle_type_id":"4","last_reported":1701014872,"current_range_meters":31200,"station_id":"ce4bgj92rcd13ifvqbe0","pricing_plan_id":"free"},{"bike_id":"eefa7589-d3e6-464e-b4c4-314d8d4000b6","system_id":"levelo_inurba_marseille","lat":43.276179,"lon":5.361009,"is_reserved":false,"is_disabled":false,"rental_uris":{"android":"levelo://app?vid=eefa7589-d3e6-464e-b4c4-314d8d4000b6","ios":"levelo://app?vid=eefa7589-d3e6-464e-b4c4-314d8d4000b6"},"vehicle_type_id":"4","last_reported":1701014872,"current_range_meters":30400,"station_id":"ce4bgj92rcd13ifvqbe0","pricing_plan_id":"free"},{"bike_id":"ac3d8094-d574-4977-a55e-fe03064085e0","system_id":"levelo_inurba_marseille","lat":43.276122,"lon":5.361131,"is_reserved":false,"is_disabled":false,"rental_uris":{"android":"levelo://app?vid=ac3d8094-d574-4977-a55e-fe03064085e0","ios":"levelo://app?vid=ac3d8094-d574-4977-a55e-fe03064085e0"},"vehicle_type_id":"4","last_reported":1701014872,"current_range_meters":26000,"station_id":"ce4bgj92rcd13ifvqbe0","pricing_plan_id":"free"},{"bike_id":"45b45894-9395-4d70-b395-44e17a8b3bd7","system_id":"levelo_inurba_marseille","lat":43.27612,"lon":5.36112,"is_reserved":false,"is_disabled":false,"rental_uris":{"android":"levelo://app?vid=45b45894-9395-4d70-b395-44e17a8b3bd7","ios":"levelo://app?vid=45b45894-9395-4d70-b395-44e17a8b3bd7"},"vehicle_type_id":"4","last_reported":1701014872,"current_range_meters":22800,"station_id":"ce4bgj92rcd13ifvqbe0","pricing_plan_id":"free"},{"bike_id":"c25ea147-e804-4786-9d25-91f61a8ed59a","system_id":"levelo_inurba_marseille","lat":43.293651,"lon":5.41268,"is_reserved":false,"is_disabled":false,"rental_uris":{"android":"levelo://app?vid=c25ea147-e804-4786-9d25-91f61a8ed59a","ios":"levelo://app?vid=c25ea147-e804-4786-9d25-91f61a8ed59a"},"vehicle_type_id":"4","last_reported":1701014872,"current_range_meters":0,"station_id":"","pricing_plan_id":"free"},{"bike_id":"5ee57155-df57-4962-9544-56ad6c09b1e3","system_id":"levelo_inurba_marseille","lat":43.303493,"lon":5.418763,"is_reserved":false,"is_disabled":false,"rental_uris":{"android":"levelo://app?vid=5ee57155-df57-4962-9544-56ad6c09b1e3","ios":"levelo://app?vid=5ee57155-df57-4962-9544-56ad6c09b1e3"},"vehicle_type_id":"4","last_reported":1701014872,"current_range_meters":26800,"station_id":"ce4bhop2rcd13ifvqh7g","pricing_plan_id":"free"},{"bike_id":"320ec9ba-aaf9-4921-ae04-77b5f2811607","system_id":"levelo_inurba_marseille","lat":43.30348,"lon":5.41881,"is_reserved":false,"is_disabled":false,"rental_uris":{"android":"levelo://app?vid=320ec9ba-aaf9-4921-ae04-77b5f2811607","ios":"levelo://app?vid=320ec9ba-aaf9-4921-ae04-77b5f2811607"},"vehicle_type_id":"4","last_reported":1701014872,"current_range_meters":22800,"station_id":"ce4bhop2rcd13ifvqh7g","pricing_plan_id":"free"},{"bike_id":"d7d5ad38-a706-46bf-a9f7-837653392e36","system_id":"levelo_inurba_marseille","lat":43.303469,"lon":5.418818,"is_reserved":false,"is_disabled":false,"rental_uris":{"android":"levelo://app?vid=d7d5ad38-a706-46bf-a9f7-837653392e36","ios":"levelo://app?vid=d7d5ad38-a706-46bf-a9f7-837653392e36"},"vehicle_type_id":"4","last_reported":1701014872,"current_range_meters":16000,"station_id":"ce4bhop2rcd13ifvqh7g","pricing_plan_id":"free"},{"bike_id":"b0ed4a91-f4d2-43e8-b684-e4e09d3127b8","system_id":"levelo_inurba_marseille","lat":43.30354,"lon":5.41885,"is_reserved":false,"is_disabled":false,"rental_uris":{"android":"levelo://app?vid=b0ed4a91-f4d2-43e8-b684-e4e09d3127b8","ios":"levelo://app?vid=b0ed4a91-f4d2-43e8-b684-e4e09d3127b8"},"vehicle_type_id":"4","last_reported":1701014872,"current_range_meters":10000,"station_id":"ce4bhop2rcd13ifvqh7g","pricing_plan_id":"free"},{"bike_id":"ef49d841-47a6-4588-92be-d7065b67488e","system_id":"levelo_inurba_marseille","lat":43.273613,"lon":5.362705,"is_reserved":false,"is_disabled":false,"rental_uris":{"android":"levelo://app?vid=ef49d841-47a6-4588-92be-d7065b67488e","ios":"levelo://app?vid=ef49d841-47a6-4588-92be-d7065b67488e"},"vehicle_type_id":"4","last_reported":1701014872,"current_range_meters":24000,"station_id":"ce4bhbh2rcd13ifvqeo0","pricing_plan_id":"free"},{"bike_id":"12898eb4-4874-47bf-875a-52c2bc03bf82","system_id":"levelo_inurba_marseille","lat":43.273613,"lon":5.362705,"is_reserved":false,"is_disabled":false,"rental_uris":{"android":"levelo://app?vid=12898eb4-4874-47bf-875a-52c2bc03bf82","ios":"levelo://app?vid=12898eb4-4874-47bf-875a-52c2bc03bf82"},"vehicle_type_id":"4","last_reported":1701014872,"current_range_meters":28000,"station_id":"ce4bhbh2rcd13ifvqeo0","pricing_plan_id":"free"},{"bike_id":"44658593-dcf1-4d53-9dc5-e585a9d5c984","system_id":"levelo_inurba_marseille","lat":43.276771,"lon":5.388799,"is_reserved":false,"is_disabled":false,"rental_uris":{"android":"levelo://app?vid=44658593-dcf1-4d53-9dc5-e585a9d5c984","ios":"levelo://app?vid=44658593-dcf1-4d53-9dc5-e585a9d5c984"},"vehicle_type_id":"4","last_reported":1701014872,"current_range_meters":3200,"station_id":"ce4bhi12rcd13ifvqfo0","pricing_plan_id":"free"},{"bike_id":"effb185b-90d2-4d52-8928-7a1f2044aea7","system_id":"levelo_inurba_marseille","lat":43.27996,"lon":5.4001,"is_reserved":false,"is_disabled":false,"rental_uris":{"android":"levelo://app?vid=effb185b-90d2-4d52-8928-7a1f2044aea7","ios":"levelo://app?vid=effb185b-90d2-4d52-8928-7a1f2044aea7"},"vehicle_type_id":"4","last_reported":1701014872,"current_range_meters":22800,"station_id":"ce4bho92rcd13ifvqh4g","pricing_plan_id":"free"},{"bike_id":"46a9bdfe-37a7-41d3-8b8f-b314d1641952","system_id":"levelo_inurba_marseille","lat":43.27997,"lon":5.40014,"is_reserved":false,"is_disabled":false,"rental_uris":{"android":"levelo://app?vid=46a9bdfe-37a7-41d3-8b8f-b314d1641952","ios":"levelo://app?vid=46a9bdfe-37a7-41d3-8b8f-b314d1641952"},"vehicle_type_id":"4","last_reported":1701014872,"current_range_meters":18000,"station_id":"ce4bho92rcd13ifvqh4g","pricing_plan_id":"free"},{"bike_id":"2bac63be-2248-4f83-9913-6fa6e719b914","system_id":"levelo_inurba_marseille","lat":43.31082,"lon":5.42427,"is_reserved":false,"is_disabled":false,"rental_uris":{"android":"levelo://app?vid=2bac63be-2248-4f83-9913-6fa6e719b914","ios":"levelo://app?vid=2bac63be-2248-4f83-9913-6fa6e719b914"},"vehicle_type_id":"4","last_reported":1701014872,"current_range_meters":12400,"station_id":"ce4bhp92rcd13ifvqhag","pricing_plan_id":"free"},{"bike_id":"7424a429-0fb8-48ee-b6d6-d90c89061a07","system_id":"levelo_inurba_marseille","lat":43.310785,"lon":5.424305,"is_reserved":false,"is_disabled":false,"rental_uris":{"android":"levelo://app?vid=7424a429-0fb8-48ee-b6d6-d90c89061a07","ios":"levelo://app?vid=7424a429-0fb8-48ee-b6d6-d90c89061a07"},"vehicle_type_id":"4","last_reported":1701014872,"current_range_meters":27600,"station_id":"ce4bhp92rcd13ifvqhag","pricing_plan_id":"free"},{"bike_id":"8eb5bdb0-5c9b-4999-93c3-a1a499ccf536","system_id":"levelo_inurba_marseille","lat":43.310785,"lon":5.424305,"is_reserved":false,"is_disabled":false,"rental_uris":{"android":"levelo://app?vid=8eb5bdb0-5c9b-4999-93c3-a1a499ccf536","ios":"levelo://app?vid=8eb5bdb0-5c9b-4999-93c3-a1a499ccf536"},"vehicle_type_id":"4","last_reported":1701014872,"current_range_meters":30400,"station_id":"ce4bhp92rcd13ifvqhag","pricing_plan_id":"free"},{"bike_id":"82525aed-6ed7-4af7-bae4-cc2dde36fc15","system_id":"levelo_inurba_marseille","lat":43.340804,"lon":5.410219,"is_reserved":false,"is_disabled":false,"rental_uris":{"android":"levelo://app?vid=82525aed-6ed7-4af7-bae4-cc2dde36fc15","ios":"levelo://app?vid=82525aed-6ed7-4af7-bae4-cc2dde36fc15"},"vehicle_type_id":"4","last_reported":1701014872,"current_range_meters":26000,"station_id":"ce4bhqh2rcd13ifvqhlg","pricing_plan_id":"free"},{"bike_id":"d53f32a6-814f-4f07-94f0-385ab9644adc","system_id":"levelo_inurba_marseille","lat":43.273979,"lon":5.390596,"is_reserved":false,"is_disabled":false,"rental_uris":{"android":"levelo://app?vid=d53f32a6-814f-4f07-94f0-385ab9644adc","ios":"levelo://app?vid=d53f32a6-814f-4f07-94f0-385ab9644adc"},"vehicle_type_id":"4","last_reported":1701014872,"current_range_meters":22000,"station_id":"","pricing_plan_id":"free"},{"bike_id":"a8aba4d7-b388-4431-8812-f9cc3a6d59c7","system_id":"levelo_inurba_marseille","lat":43.274103,"lon":5.394016,"is_reserved":false,"is_disabled":false,"rental_uris":{"android":"levelo://app?vid=a8aba4d7-b388-4431-8812-f9cc3a6d59c7","ios":"levelo://app?vid=a8aba4d7-b388-4431-8812-f9cc3a6d59c7"},"vehicle_type_id":"4","last_reported":1701014872,"current_range_meters":24000,"station_id":"ce4bhdp2rcd13ifvqf20","pricing_plan_id":"free"},{"bike_id":"4a840da3-fdbc-4633-9cc0-12e811d835c6","system_id":"levelo_inurba_marseille","lat":43.304082,"lon":5.425479,"is_reserved":false,"is_disabled":false,"rental_uris":{"android":"levelo://app?vid=4a840da3-fdbc-4633-9cc0-12e811d835c6","ios":"levelo://app?vid=4a840da3-fdbc-4633-9cc0-12e811d835c6"},"vehicle_type_id":"4","last_reported":1701014872,"current_range_meters":19600,"station_id":"ce4bhoh2rcd13ifvqh6g","pricing_plan_id":"free"},{"bike_id":"ce9f8bef-be75-42a4-a53c-1be64df297ab","system_id":"levelo_inurba_marseille","lat":43.30412,"lon":5.42549,"is_reserved":false,"is_disabled":false,"rental_uris":{"android":"levelo://app?vid=ce9f8bef-be75-42a4-a53c-1be64df297ab","ios":"levelo://app?vid=ce9f8bef-be75-42a4-a53c-1be64df297ab"},"vehicle_type_id":"4","last_reported":1701014872,"current_range_meters":12000,"station_id":"ce4bhoh2rcd13ifvqh6g","pricing_plan_id":"free"},{"bike_id":"70360c44-7f15-4d73-a1b4-78f1f432b724","system_id":"levelo_inurba_marseille","lat":43.295523,"lon":5.422926,"is_reserved":false,"is_disabled":false,"rental_uris":{"android":"levelo://app?vid=70360c44-7f15-4d73-a1b4-78f1f432b724","ios":"levelo://app?vid=70360c44-7f15-4d73-a1b4-78f1f432b724"},"vehicle_type_id":"4","last_reported":1701014872,"current_range_meters":30000,"station_id":"ce4bhph2rcd13ifvqhdg","pricing_plan_id":"free"},{"bike_id":"11c530ef-3a1e-4341-9786-f43509d01bc1","system_id":"levelo_inurba_marseille","lat":43.2993,"lon":5.42567,"is_reserved":false,"is_disabled":false,"rental_uris":{"android":"levelo://app?vid=11c530ef-3a1e-4341-9786-f43509d01bc1","ios":"levelo://app?vid=11c530ef-3a1e-4341-9786-f43509d01bc1"},"vehicle_type_id":"4","last_reported":1701014872,"current_range_meters":0,"station_id":"","pricing_plan_id":"free"},{"bike_id":"de95b577-4104-4eb8-842b-55187766749d","system_id":"levelo_inurba_marseille","lat":43.278128,"lon":5.407195,"is_reserved":false,"is_disabled":false,"rental_uris":{"android":"levelo://app?vid=de95b577-4104-4eb8-842b-55187766749d","ios":"levelo://app?vid=de95b577-4104-4eb8-842b-55187766749d"},"vehicle_type_id":"4","last_reported":1701014872,"current_range_meters":27600,"station_id":"ce4bhnh2rcd13ifvqgtg","pricing_plan_id":"free"},{"bike_id":"0e4a89fa-3280-4e99-af97-9e5277c0a7b5","system_id":"levelo_inurba_marseille","lat":43.269467,"lon":5.386439,"is_reserved":false,"is_disabled":false,"rental_uris":{"android":"levelo://app?vid=0e4a89fa-3280-4e99-af97-9e5277c0a7b5","ios":"levelo://app?vid=0e4a89fa-3280-4e99-af97-9e5277c0a7b5"},"vehicle_type_id":"4","last_reported":1701014872,"current_range_meters":0,"station_id":"ce4bhh92rcd13ifvqfh0","pricing_plan_id":"free"},{"bike_id":"d23d8ee0-3ba7-4665-a810-b71d112e7529","system_id":"levelo_inurba_marseille","lat":43.27948,"lon":5.41058,"is_reserved":false,"is_disabled":false,"rental_uris":{"android":"levelo://app?vid=d23d8ee0-3ba7-4665-a810-b71d112e7529","ios":"levelo://app?vid=d23d8ee0-3ba7-4665-a810-b71d112e7529"},"vehicle_type_id":"4","last_reported":1701014872,"current_range_meters":4800,"station_id":"ce4bhnp2rcd13ifvqh0g","pricing_plan_id":"free"},{"bike_id":"11f50684-cdb6-4017-a7a1-bfad0f905ea9","system_id":"levelo_inurba_marseille","lat":43.269319,"lon":5.389397,"is_reserved":false,"is_disabled":false,"rental_uris":{"android":"levelo://app?vid=11f50684-cdb6-4017-a7a1-bfad0f905ea9","ios":"levelo://app?vid=11f50684-cdb6-4017-a7a1-bfad0f905ea9"},"vehicle_type_id":"4","last_reported":1701014872,"current_range_meters":12800,"station_id":"ce4bhhh2rcd13ifvqfl0","pricing_plan_id":"free"},{"bike_id":"fbec2c0a-21fc-4a84-9053-c81b3d187f0a","system_id":"levelo_inurba_marseille","lat":43.26681,"lon":5.382694,"is_reserved":false,"is_disabled":false,"rental_uris":{"android":"levelo://app?vid=fbec2c0a-21fc-4a84-9053-c81b3d187f0a","ios":"levelo://app?vid=fbec2c0a-21fc-4a84-9053-c81b3d187f0a"},"vehicle_type_id":"4","last_reported":1701014872,"current_range_meters":8000,"station_id":"ce4bhg92rcd13ifvqf90","pricing_plan_id":"free"},{"bike_id":"9401a35b-87ae-44ba-9749-d4056ed441e3","system_id":"levelo_inurba_marseille","lat":43.26555,"lon":5.37285,"is_reserved":false,"is_disabled":false,"rental_uris":{"android":"levelo://app?vid=9401a35b-87ae-44ba-9749-d4056ed441e3","ios":"levelo://app?vid=9401a35b-87ae-44ba-9749-d4056ed441e3"},"vehicle_type_id":"4","last_reported":1701014872,"current_range_meters":400,"station_id":"ce4bhg12rcd13ifvqf70","pricing_plan_id":"free"},{"bike_id":"5957321d-71b9-4235-a56d-61abc2488688","system_id":"levelo_inurba_marseille","lat":43.26555,"lon":5.37286,"is_reserved":false,"is_disabled":false,"rental_uris":{"android":"levelo://app?vid=5957321d-71b9-4235-a56d-61abc2488688","ios":"levelo://app?vid=5957321d-71b9-4235-a56d-61abc2488688"},"vehicle_type_id":"4","last_reported":1701014872,"current_range_meters":16400,"station_id":"ce4bhg12rcd13ifvqf70","pricing_plan_id":"free"},{"bike_id":"5b5978bf-2363-43fe-bfe7-ce9f16735adc","system_id":"levelo_inurba_marseille","lat":43.265714,"lon":5.372891,"is_reserved":false,"is_disabled":false,"rental_uris":{"android":"levelo://app?vid=5b5978bf-2363-43fe-bfe7-ce9f16735adc","ios":"levelo://app?vid=5b5978bf-2363-43fe-bfe7-ce9f16735adc"},"vehicle_type_id":"4","last_reported":1701014872,"current_range_meters":13600,"station_id":"ce4bhg12rcd13ifvqf70","pricing_plan_id":"free"},{"bike_id":"1fc924b3-a3c3-4a91-9551-47f09ea5a04a","system_id":"levelo_inurba_marseille","lat":43.265714,"lon":5.372891,"is_reserved":false,"is_disabled":false,"rental_uris":{"android":"levelo://app?vid=1fc924b3-a3c3-4a91-9551-47f09ea5a04a","ios":"levelo://app?vid=1fc924b3-a3c3-4a91-9551-47f09ea5a04a"},"vehicle_type_id":"4","last_reported":1701014872,"current_range_meters":10800,"station_id":"ce4bhg12rcd13ifvqf70","pricing_plan_id":"free"},{"bike_id":"956d23ad-05a7-4e8c-b2fa-74354cc1fd48","system_id":"levelo_inurba_marseille","lat":43.2607,"lon":5.393983,"is_reserved":false,"is_disabled":false,"rental_uris":{"android":"levelo://app?vid=956d23ad-05a7-4e8c-b2fa-74354cc1fd48","ios":"levelo://app?vid=956d23ad-05a7-4e8c-b2fa-74354cc1fd48"},"vehicle_type_id":"4","last_reported":1701014872,"current_range_meters":28000,"station_id":"ce4bhh92rcd13ifvqfj0","pricing_plan_id":"free"},{"bike_id":"f23d8119-b478-4639-98c5-6883279f9f84","system_id":"levelo_inurba_marseille","lat":43.32592,"lon":5.43067,"is_reserved":false,"is_disabled":false,"rental_uris":{"android":"levelo://app?vid=f23d8119-b478-4639-98c5-6883279f9f84","ios":"levelo://app?vid=f23d8119-b478-4639-98c5-6883279f9f84"},"vehicle_type_id":"4","last_reported":1701014872,"current_range_meters":22400,"station_id":"","pricing_plan_id":"free"},{"bike_id":"ed30d6a1-b23a-49e5-9c83-5546be72a734","system_id":"levelo_inurba_marseille","lat":43.3259,"lon":5.43075,"is_reserved":false,"is_disabled":false,"rental_uris":{"android":"levelo://app?vid=ed30d6a1-b23a-49e5-9c83-5546be72a734","ios":"levelo://app?vid=ed30d6a1-b23a-49e5-9c83-5546be72a734"},"vehicle_type_id":"4","last_reported":1701014872,"current_range_meters":17200,"station_id":"","pricing_plan_id":"free"},{"bike_id":"d67469ee-5362-4610-a163-fe05ae3cf4f7","system_id":"levelo_inurba_marseille","lat":43.32604,"lon":5.430817,"is_reserved":false,"is_disabled":false,"rental_uris":{"android":"levelo://app?vid=d67469ee-5362-4610-a163-fe05ae3cf4f7","ios":"levelo://app?vid=d67469ee-5362-4610-a163-fe05ae3cf4f7"},"vehicle_type_id":"4","last_reported":1701014872,"current_range_meters":5600,"station_id":"","pricing_plan_id":"free"},{"bike_id":"bbfcd2e3-0225-418b-b426-52e91ae6a9b1","system_id":"levelo_inurba_marseille","lat":43.27996,"lon":5.416624,"is_reserved":false,"is_disabled":false,"rental_uris":{"android":"levelo://app?vid=bbfcd2e3-0225-418b-b426-52e91ae6a9b1","ios":"levelo://app?vid=bbfcd2e3-0225-418b-b426-52e91ae6a9b1"},"vehicle_type_id":"4","last_reported":1701014872,"current_range_meters":29600,"station_id":"ce4bho12rcd13ifvqh1g","pricing_plan_id":"free"},{"bike_id":"3c201c87-5807-42b1-acc1-bb2635631804","system_id":"levelo_inurba_marseille","lat":43.27991,"lon":5.41661,"is_reserved":false,"is_disabled":false,"rental_uris":{"android":"levelo://app?vid=3c201c87-5807-42b1-acc1-bb2635631804","ios":"levelo://app?vid=3c201c87-5807-42b1-acc1-bb2635631804"},"vehicle_type_id":"4","last_reported":1701014872,"current_range_meters":0,"station_id":"ce4bho12rcd13ifvqh1g","pricing_plan_id":"free"},{"bike_id":"ba8bb63d-105e-4b2c-9c00-c3ef45d88fd0","system_id":"levelo_inurba_marseille","lat":43.265714,"lon":5.372891,"is_reserved":false,"is_disabled":false,"rental_uris":{"android":"levelo://app?vid=ba8bb63d-105e-4b2c-9c00-c3ef45d88fd0","ios":"levelo://app?vid=ba8bb63d-105e-4b2c-9c00-c3ef45d88fd0"},"vehicle_type_id":"4","last_reported":1701014872,"current_range_meters":8400,"station_id":"ce4bhg12rcd13ifvqf70","pricing_plan_id":"free"},{"bike_id":"0e69ea73-18c4-44d7-8d58-d077b5e7074e","system_id":"levelo_inurba_marseille","lat":43.267966,"lon":5.393976,"is_reserved":false,"is_disabled":false,"rental_uris":{"android":"levelo://app?vid=0e69ea73-18c4-44d7-8d58-d077b5e7074e","ios":"levelo://app?vid=0e69ea73-18c4-44d7-8d58-d077b5e7074e"},"vehicle_type_id":"4","last_reported":1701014872,"current_range_meters":12800,"station_id":"ce4bhh12rcd13ifvqfg0","pricing_plan_id":"free"},{"bike_id":"e2041e21-f3be-4b21-ab53-e5c05523ee05","system_id":"levelo_inurba_marseille","lat":43.267966,"lon":5.393976,"is_reserved":false,"is_disabled":false,"rental_uris":{"android":"levelo://app?vid=e2041e21-f3be-4b21-ab53-e5c05523ee05","ios":"levelo://app?vid=e2041e21-f3be-4b21-ab53-e5c05523ee05"},"vehicle_type_id":"4","last_reported":1701014872,"current_range_meters":6000,"station_id":"ce4bhh12rcd13ifvqfg0","pricing_plan_id":"free"},{"bike_id":"83056715-5b6a-4355-88be-e8d09fc71f6f","system_id":"levelo_inurba_marseille","lat":43.265714,"lon":5.372891,"is_reserved":false,"is_disabled":false,"rental_uris":{"android":"levelo://app?vid=83056715-5b6a-4355-88be-e8d09fc71f6f","ios":"levelo://app?vid=83056715-5b6a-4355-88be-e8d09fc71f6f"},"vehicle_type_id":"4","last_reported":1701014872,"current_range_meters":21600,"station_id":"ce4bhg12rcd13ifvqf70","pricing_plan_id":"free"},{"bike_id":"6137230b-c09b-4e57-8e82-72d898478fdf","system_id":"levelo_inurba_marseille","lat":43.267966,"lon":5.393976,"is_reserved":false,"is_disabled":false,"rental_uris":{"android":"levelo://app?vid=6137230b-c09b-4e57-8e82-72d898478fdf","ios":"levelo://app?vid=6137230b-c09b-4e57-8e82-72d898478fdf"},"vehicle_type_id":"4","last_reported":1701014872,"current_range_meters":25600,"station_id":"ce4bhh12rcd13ifvqfg0","pricing_plan_id":"free"},{"bike_id":"2b5f0b27-ae58-4e9e-bd76-c585f78e8a73","system_id":"levelo_inurba_marseille","lat":43.26386,"lon":5.37454,"is_reserved":false,"is_disabled":false,"rental_uris":{"android":"levelo://app?vid=2b5f0b27-ae58-4e9e-bd76-c585f78e8a73","ios":"levelo://app?vid=2b5f0b27-ae58-4e9e-bd76-c585f78e8a73"},"vehicle_type_id":"4","last_reported":1701014872,"current_range_meters":6400,"station_id":"","pricing_plan_id":"free"},{"bike_id":"162f78f3-4832-405e-83f3-79c871b4c8e8","system_id":"levelo_inurba_marseille","lat":43.265569,"lon":5.390047,"is_reserved":false,"is_disabled":false,"rental_uris":{"android":"levelo://app?vid=162f78f3-4832-405e-83f3-79c871b4c8e8","ios":"levelo://app?vid=162f78f3-4832-405e-83f3-79c871b4c8e8"},"vehicle_type_id":"4","last_reported":1701014872,"current_range_meters":12800,"station_id":"ce4bhe12rcd13ifvqf30","pricing_plan_id":"free"},{"bike_id":"b9df46b2-0c6d-41be-9e7c-e4671371584e","system_id":"levelo_inurba_marseille","lat":43.265569,"lon":5.390047,"is_reserved":false,"is_disabled":false,"rental_uris":{"android":"levelo://app?vid=b9df46b2-0c6d-41be-9e7c-e4671371584e","ios":"levelo://app?vid=b9df46b2-0c6d-41be-9e7c-e4671371584e"},"vehicle_type_id":"4","last_reported":1701014872,"current_range_meters":24800,"station_id":"ce4bhe12rcd13ifvqf30","pricing_plan_id":"free"},{"bike_id":"4e51360c-c0f2-4ec8-9cc6-e51aefb6dc54","system_id":"levelo_inurba_marseille","lat":43.26542,"lon":5.39007,"is_reserved":false,"is_disabled":false,"rental_uris":{"android":"levelo://app?vid=4e51360c-c0f2-4ec8-9cc6-e51aefb6dc54","ios":"levelo://app?vid=4e51360c-c0f2-4ec8-9cc6-e51aefb6dc54"},"vehicle_type_id":"4","last_reported":1701014872,"current_range_meters":12400,"station_id":"ce4bhe12rcd13ifvqf30","pricing_plan_id":"free"},{"bike_id":"81417be7-c0f3-482c-a0f1-9cf2b55f2dfc","system_id":"levelo_inurba_marseille","lat":43.26543,"lon":5.39011,"is_reserved":false,"is_disabled":false,"rental_uris":{"android":"levelo://app?vid=81417be7-c0f3-482c-a0f1-9cf2b55f2dfc","ios":"levelo://app?vid=81417be7-c0f3-482c-a0f1-9cf2b55f2dfc"},"vehicle_type_id":"4","last_reported":1701014872,"current_range_meters":26000,"station_id":"ce4bhe12rcd13ifvqf30","pricing_plan_id":"free"},{"bike_id":"1047efd3-ecd6-4080-a877-88bad6c35dc2","system_id":"levelo_inurba_marseille","lat":43.261782,"lon":5.374515,"is_reserved":false,"is_disabled":false,"rental_uris":{"android":"levelo://app?vid=1047efd3-ecd6-4080-a877-88bad6c35dc2","ios":"levelo://app?vid=1047efd3-ecd6-4080-a877-88bad6c35dc2"},"vehicle_type_id":"4","last_reported":1701014872,"current_range_meters":23600,"station_id":"ce4bhgp2rcd13ifvqfc0","pricing_plan_id":"free"},{"bike_id":"b8602f07-7a5c-4d00-95d4-961eb1bc1b97","system_id":"levelo_inurba_marseille","lat":43.26185,"lon":5.37448,"is_reserved":false,"is_disabled":false,"rental_uris":{"android":"levelo://app?vid=b8602f07-7a5c-4d00-95d4-961eb1bc1b97","ios":"levelo://app?vid=b8602f07-7a5c-4d00-95d4-961eb1bc1b97"},"vehicle_type_id":"4","last_reported":1701014872,"current_range_meters":20400,"station_id":"ce4bhgp2rcd13ifvqfc0","pricing_plan_id":"free"},{"bike_id":"ec593df7-85d2-4a7c-a892-75fec147bf75","system_id":"levelo_inurba_marseille","lat":43.31708,"lon":5.43707,"is_reserved":false,"is_disabled":false,"rental_uris":{"android":"levelo://app?vid=ec593df7-85d2-4a7c-a892-75fec147bf75","ios":"levelo://app?vid=ec593df7-85d2-4a7c-a892-75fec147bf75"},"vehicle_type_id":"4","last_reported":1701014872,"current_range_meters":31200,"station_id":"ce4bhp92rcd13ifvqhcg","pricing_plan_id":"free"},{"bike_id":"34e9d94a-a716-4b0c-93f4-cd00b136e1d7","system_id":"levelo_inurba_marseille","lat":43.3171,"lon":5.43709,"is_reserved":false,"is_disabled":false,"rental_uris":{"android":"levelo://app?vid=34e9d94a-a716-4b0c-93f4-cd00b136e1d7","ios":"levelo://app?vid=34e9d94a-a716-4b0c-93f4-cd00b136e1d7"},"vehicle_type_id":"4","last_reported":1701014872,"current_range_meters":0,"station_id":"ce4bhp92rcd13ifvqhcg","pricing_plan_id":"free"},{"bike_id":"aa24d884-66b4-4d7c-b80d-ed389b33442f","system_id":"levelo_inurba_marseille","lat":43.31711,"lon":5.43712,"is_reserved":false,"is_disabled":false,"rental_uris":{"android":"levelo://app?vid=aa24d884-66b4-4d7c-b80d-ed389b33442f","ios":"levelo://app?vid=aa24d884-66b4-4d7c-b80d-ed389b33442f"},"vehicle_type_id":"4","last_reported":1701014872,"current_range_meters":18400,"station_id":"ce4bhp92rcd13ifvqhcg","pricing_plan_id":"free"},{"bike_id":"43986ccf-7a86-42c4-acce-333efc4b451e","system_id":"levelo_inurba_marseille","lat":43.262087,"lon":5.379284,"is_reserved":false,"is_disabled":false,"rental_uris":{"android":"levelo://app?vid=43986ccf-7a86-42c4-acce-333efc4b451e","ios":"levelo://app?vid=43986ccf-7a86-42c4-acce-333efc4b451e"},"vehicle_type_id":"4","last_reported":1701014872,"current_range_meters":21600,"station_id":"ce4bhjp2rcd13ifvqg90","pricing_plan_id":"free"},{"bike_id":"04db3deb-9893-4f6e-8af0-9f0961859954","system_id":"levelo_inurba_marseille","lat":43.26202,"lon":5.379299,"is_reserved":false,"is_disabled":false,"rental_uris":{"android":"levelo://app?vid=04db3deb-9893-4f6e-8af0-9f0961859954","ios":"levelo://app?vid=04db3deb-9893-4f6e-8af0-9f0961859954"},"vehicle_type_id":"4","last_reported":1701014872,"current_range_meters":24000,"station_id":"ce4bhjp2rcd13ifvqg90","pricing_plan_id":"free"},{"bike_id":"474a86a4-7d6e-4733-960e-977f7ccf3211","system_id":"levelo_inurba_marseille","lat":43.267959,"lon":5.402685,"is_reserved":false,"is_disabled":false,"rental_uris":{"android":"levelo://app?vid=474a86a4-7d6e-4733-960e-977f7ccf3211","ios":"levelo://app?vid=474a86a4-7d6e-4733-960e-977f7ccf3211"},"vehicle_type_id":"4","last_reported":1701014872,"current_range_meters":1200,"station_id":"ce501612rcd8frsf0b60","pricing_plan_id":"free"},{"bike_id":"3b0d8a85-757d-4e5a-8804-f98915973b25","system_id":"levelo_inurba_marseille","lat":43.267959,"lon":5.402687,"is_reserved":false,"is_disabled":false,"rental_uris":{"android":"levelo://app?vid=3b0d8a85-757d-4e5a-8804-f98915973b25","ios":"levelo://app?vid=3b0d8a85-757d-4e5a-8804-f98915973b25"},"vehicle_type_id":"4","last_reported":1701014872,"current_range_meters":29200,"station_id":"ce501612rcd8frsf0b60","pricing_plan_id":"free"},{"bike_id":"13d1dd68-e34a-4bf9-aef0-3927ed9dc5b8","system_id":"levelo_inurba_marseille","lat":43.267959,"lon":5.402687,"is_reserved":false,"is_disabled":false,"rental_uris":{"android":"levelo://app?vid=13d1dd68-e34a-4bf9-aef0-3927ed9dc5b8","ios":"levelo://app?vid=13d1dd68-e34a-4bf9-aef0-3927ed9dc5b8"},"vehicle_type_id":"4","last_reported":1701014872,"current_range_meters":16000,"station_id":"ce501612rcd8frsf0b60","pricing_plan_id":"free"},{"bike_id":"cdf2c497-f033-4c0f-80f4-b4e51e4970c2","system_id":"levelo_inurba_marseille","lat":43.2716,"lon":5.41006,"is_reserved":false,"is_disabled":false,"rental_uris":{"android":"levelo://app?vid=cdf2c497-f033-4c0f-80f4-b4e51e4970c2","ios":"levelo://app?vid=cdf2c497-f033-4c0f-80f4-b4e51e4970c2"},"vehicle_type_id":"4","last_reported":1701014872,"current_range_meters":22800,"station_id":"ce4bhl12rcd13ifvqgf0","pricing_plan_id":"free"},{"bike_id":"13efbc1c-d5e6-4098-8f82-49cd483b6f29","system_id":"levelo_inurba_marseille","lat":43.267959,"lon":5.402687,"is_reserved":false,"is_disabled":false,"rental_uris":{"android":"levelo://app?vid=13efbc1c-d5e6-4098-8f82-49cd483b6f29","ios":"levelo://app?vid=13efbc1c-d5e6-4098-8f82-49cd483b6f29"},"vehicle_type_id":"4","last_reported":1701014872,"current_range_meters":29600,"station_id":"ce501612rcd8frsf0b60","pricing_plan_id":"free"},{"bike_id":"f4f2e1d5-dafa-412d-9b3a-3611814786ce","system_id":"levelo_inurba_marseille","lat":43.298768,"lon":5.43643,"is_reserved":false,"is_disabled":false,"rental_uris":{"android":"levelo://app?vid=f4f2e1d5-dafa-412d-9b3a-3611814786ce","ios":"levelo://app?vid=f4f2e1d5-dafa-412d-9b3a-3611814786ce"},"vehicle_type_id":"4","last_reported":1701014872,"current_range_meters":31600,"station_id":"ce4bhpp2rcd13ifvqhfg","pricing_plan_id":"free"},{"bike_id":"7c5a83ac-336c-4b91-a5ea-82b3c6d6127d","system_id":"levelo_inurba_marseille","lat":43.298768,"lon":5.43643,"is_reserved":false,"is_disabled":false,"rental_uris":{"android":"levelo://app?vid=7c5a83ac-336c-4b91-a5ea-82b3c6d6127d","ios":"levelo://app?vid=7c5a83ac-336c-4b91-a5ea-82b3c6d6127d"},"vehicle_type_id":"4","last_reported":1701014872,"current_range_meters":31600,"station_id":"ce4bhpp2rcd13ifvqhfg","pricing_plan_id":"free"},{"bike_id":"9a5ca6f0-6f31-4d5e-bf3e-7f028d92f2c5","system_id":"levelo_inurba_marseille","lat":43.298768,"lon":5.43643,"is_reserved":false,"is_disabled":false,"rental_uris":{"android":"levelo://app?vid=9a5ca6f0-6f31-4d5e-bf3e-7f028d92f2c5","ios":"levelo://app?vid=9a5ca6f0-6f31-4d5e-bf3e-7f028d92f2c5"},"vehicle_type_id":"4","last_reported":1701014872,"current_range_meters":14800,"station_id":"ce4bhpp2rcd13ifvqhfg","pricing_plan_id":"free"},{"bike_id":"fa37cadb-92e3-4dcc-9949-3e5f9eac2d2b","system_id":"levelo_inurba_marseille","lat":43.26027,"lon":5.37553,"is_reserved":false,"is_disabled":false,"rental_uris":{"android":"levelo://app?vid=fa37cadb-92e3-4dcc-9949-3e5f9eac2d2b","ios":"levelo://app?vid=fa37cadb-92e3-4dcc-9949-3e5f9eac2d2b"},"vehicle_type_id":"4","last_reported":1701014872,"current_range_meters":30400,"station_id":"ce4bhgh2rcd13ifvqfa0","pricing_plan_id":"free"},{"bike_id":"47f4f29e-d916-4492-8f8d-c58eba9e9c12","system_id":"levelo_inurba_marseille","lat":43.2607,"lon":5.393983,"is_reserved":false,"is_disabled":false,"rental_uris":{"android":"levelo://app?vid=47f4f29e-d916-4492-8f8d-c58eba9e9c12","ios":"levelo://app?vid=47f4f29e-d916-4492-8f8d-c58eba9e9c12"},"vehicle_type_id":"4","last_reported":1701014872,"current_range_meters":29200,"station_id":"ce4bhh92rcd13ifvqfj0","pricing_plan_id":"free"},{"bike_id":"c39b15e8-5fe0-4247-9ca1-31fbca4e2b1d","system_id":"levelo_inurba_marseille","lat":43.26093,"lon":5.397635,"is_reserved":false,"is_disabled":false,"rental_uris":{"android":"levelo://app?vid=c39b15e8-5fe0-4247-9ca1-31fbca4e2b1d","ios":"levelo://app?vid=c39b15e8-5fe0-4247-9ca1-31fbca4e2b1d"},"vehicle_type_id":"4","last_reported":1701014872,"current_range_meters":17200,"station_id":"ce4bhi12rcd13ifvqfq0","pricing_plan_id":"free"},{"bike_id":"c85f7616-3a9e-47a4-ae16-28a03e51ab4f","system_id":"levelo_inurba_marseille","lat":43.28929,"lon":5.438754,"is_reserved":false,"is_disabled":false,"rental_uris":{"android":"levelo://app?vid=c85f7616-3a9e-47a4-ae16-28a03e51ab4f","ios":"levelo://app?vid=c85f7616-3a9e-47a4-ae16-28a03e51ab4f"},"vehicle_type_id":"4","last_reported":1701014872,"current_range_meters":8800,"station_id":"","pricing_plan_id":"free"},{"bike_id":"edd010db-7cf5-4bc0-bc7e-fc43e018d236","system_id":"levelo_inurba_marseille","lat":43.25823,"lon":5.39437,"is_reserved":false,"is_disabled":false,"rental_uris":{"android":"levelo://app?vid=edd010db-7cf5-4bc0-bc7e-fc43e018d236","ios":"levelo://app?vid=edd010db-7cf5-4bc0-bc7e-fc43e018d236"},"vehicle_type_id":"4","last_reported":1701014872,"current_range_meters":4800,"station_id":"ce4bhip2rcd13ifvqft0","pricing_plan_id":"free"},{"bike_id":"38ab8632-c0e9-42e3-8e2d-7ccdee0d1f97","system_id":"levelo_inurba_marseille","lat":43.255756,"lon":5.382303,"is_reserved":false,"is_disabled":false,"rental_uris":{"android":"levelo://app?vid=38ab8632-c0e9-42e3-8e2d-7ccdee0d1f97","ios":"levelo://app?vid=38ab8632-c0e9-42e3-8e2d-7ccdee0d1f97"},"vehicle_type_id":"4","last_reported":1701014872,"current_range_meters":0,"station_id":"ce4bhih2rcd13ifvqfs0","pricing_plan_id":"free"},{"bike_id":"bb03d128-ef00-4706-a798-f82ccd3fae64","system_id":"levelo_inurba_marseille","lat":43.255756,"lon":5.382303,"is_reserved":false,"is_disabled":false,"rental_uris":{"android":"levelo://app?vid=bb03d128-ef00-4706-a798-f82ccd3fae64","ios":"levelo://app?vid=bb03d128-ef00-4706-a798-f82ccd3fae64"},"vehicle_type_id":"4","last_reported":1701014872,"current_range_meters":2000,"station_id":"ce4bhih2rcd13ifvqfs0","pricing_plan_id":"free"},{"bike_id":"e370ecfe-b52b-40ca-84ab-ce6a2f66f965","system_id":"levelo_inurba_marseille","lat":43.258224,"lon":5.394369,"is_reserved":false,"is_disabled":false,"rental_uris":{"android":"levelo://app?vid=e370ecfe-b52b-40ca-84ab-ce6a2f66f965","ios":"levelo://app?vid=e370ecfe-b52b-40ca-84ab-ce6a2f66f965"},"vehicle_type_id":"4","last_reported":1701014872,"current_range_meters":13200,"station_id":"ce4bhip2rcd13ifvqft0","pricing_plan_id":"free"},{"bike_id":"3e66232c-16ab-4763-93ec-6f34fa6dc56b","system_id":"levelo_inurba_marseille","lat":43.258224,"lon":5.394369,"is_reserved":false,"is_disabled":false,"rental_uris":{"android":"levelo://app?vid=3e66232c-16ab-4763-93ec-6f34fa6dc56b","ios":"levelo://app?vid=3e66232c-16ab-4763-93ec-6f34fa6dc56b"},"vehicle_type_id":"4","last_reported":1701014872,"current_range_meters":22800,"station_id":"ce4bhip2rcd13ifvqft0","pricing_plan_id":"free"},{"bike_id":"abc628a8-a829-42dd-b48a-b842424a3b57","system_id":"levelo_inurba_marseille","lat":43.258224,"lon":5.394369,"is_reserved":false,"is_disabled":false,"rental_uris":{"android":"levelo://app?vid=abc628a8-a829-42dd-b48a-b842424a3b57","ios":"levelo://app?vid=abc628a8-a829-42dd-b48a-b842424a3b57"},"vehicle_type_id":"4","last_reported":1701014872,"current_range_meters":28400,"station_id":"ce4bhip2rcd13ifvqft0","pricing_plan_id":"free"},{"bike_id":"7b82a8bb-62d6-4a8f-982c-ee5594946af1","system_id":"levelo_inurba_marseille","lat":43.25817,"lon":5.39441,"is_reserved":false,"is_disabled":false,"rental_uris":{"android":"levelo://app?vid=7b82a8bb-62d6-4a8f-982c-ee5594946af1","ios":"levelo://app?vid=7b82a8bb-62d6-4a8f-982c-ee5594946af1"},"vehicle_type_id":"4","last_reported":1701014872,"current_range_meters":8000,"station_id":"ce4bhip2rcd13ifvqft0","pricing_plan_id":"free"},{"bike_id":"fa94e1b3-924d-484c-aa3a-070aacbdbbfd","system_id":"levelo_inurba_marseille","lat":43.27066,"lon":5.42272,"is_reserved":false,"is_disabled":false,"rental_uris":{"android":"levelo://app?vid=fa94e1b3-924d-484c-aa3a-070aacbdbbfd","ios":"levelo://app?vid=fa94e1b3-924d-484c-aa3a-070aacbdbbfd"},"vehicle_type_id":"4","last_reported":1701014872,"current_range_meters":28800,"station_id":"ce4bhk92rcd13ifvqgb0","pricing_plan_id":"free"},{"bike_id":"3764d48b-8e61-4222-bf2f-e0a7f6536aa8","system_id":"levelo_inurba_marseille","lat":43.27064,"lon":5.42274,"is_reserved":false,"is_disabled":false,"rental_uris":{"android":"levelo://app?vid=3764d48b-8e61-4222-bf2f-e0a7f6536aa8","ios":"levelo://app?vid=3764d48b-8e61-4222-bf2f-e0a7f6536aa8"},"vehicle_type_id":"4","last_reported":1701014872,"current_range_meters":29600,"station_id":"ce4bhk92rcd13ifvqgb0","pricing_plan_id":"free"},{"bike_id":"2fe108bb-34ec-4d55-a017-f8b460872c4b","system_id":"levelo_inurba_marseille","lat":43.270721,"lon":5.422764,"is_reserved":false,"is_disabled":false,"rental_uris":{"android":"levelo://app?vid=2fe108bb-34ec-4d55-a017-f8b460872c4b","ios":"levelo://app?vid=2fe108bb-34ec-4d55-a017-f8b460872c4b"},"vehicle_type_id":"4","last_reported":1701014872,"current_range_meters":26400,"station_id":"ce4bhk92rcd13ifvqgb0","pricing_plan_id":"free"},{"bike_id":"cfc2fb54-bb25-484b-bb20-120b85c7d01d","system_id":"levelo_inurba_marseille","lat":43.255756,"lon":5.382303,"is_reserved":false,"is_disabled":false,"rental_uris":{"android":"levelo://app?vid=cfc2fb54-bb25-484b-bb20-120b85c7d01d","ios":"levelo://app?vid=cfc2fb54-bb25-484b-bb20-120b85c7d01d"},"vehicle_type_id":"4","last_reported":1701014872,"current_range_meters":31200,"station_id":"ce4bhih2rcd13ifvqfs0","pricing_plan_id":"free"},{"bike_id":"23688042-04a3-41ce-8402-7680d754251a","system_id":"levelo_inurba_marseille","lat":43.259013,"lon":5.409301,"is_reserved":false,"is_disabled":false,"rental_uris":{"android":"levelo://app?vid=23688042-04a3-41ce-8402-7680d754251a","ios":"levelo://app?vid=23688042-04a3-41ce-8402-7680d754251a"},"vehicle_type_id":"4","last_reported":1701014872,"current_range_meters":7600,"station_id":"ce4bhm92rcd13ifvqglg","pricing_plan_id":"free"},{"bike_id":"e9b6a1d5-c740-405d-a6f8-282eec5a3660","system_id":"levelo_inurba_marseille","lat":43.25729,"lon":5.41106,"is_reserved":false,"is_disabled":false,"rental_uris":{"android":"levelo://app?vid=e9b6a1d5-c740-405d-a6f8-282eec5a3660","ios":"levelo://app?vid=e9b6a1d5-c740-405d-a6f8-282eec5a3660"},"vehicle_type_id":"4","last_reported":1701014872,"current_range_meters":16000,"station_id":"ce4bhkp2rcd13ifvqgd0","pricing_plan_id":"free"},{"bike_id":"fc870209-5aff-4dd1-ae31-9b5847a2d23c","system_id":"levelo_inurba_marseille","lat":43.257079,"lon":5.411051,"is_reserved":false,"is_disabled":false,"rental_uris":{"android":"levelo://app?vid=fc870209-5aff-4dd1-ae31-9b5847a2d23c","ios":"levelo://app?vid=fc870209-5aff-4dd1-ae31-9b5847a2d23c"},"vehicle_type_id":"4","last_reported":1701014872,"current_range_meters":18800,"station_id":"ce4bhkp2rcd13ifvqgd0","pricing_plan_id":"free"},{"bike_id":"543aa29a-345d-44be-9327-080150278834","system_id":"levelo_inurba_marseille","lat":43.257079,"lon":5.411051,"is_reserved":false,"is_disabled":false,"rental_uris":{"android":"levelo://app?vid=543aa29a-345d-44be-9327-080150278834","ios":"levelo://app?vid=543aa29a-345d-44be-9327-080150278834"},"vehicle_type_id":"4","last_reported":1701014872,"current_range_meters":31200,"station_id":"ce4bhkp2rcd13ifvqgd0","pricing_plan_id":"free"},{"bike_id":"7d07d8f8-2525-4618-9974-5a4e19894521","system_id":"levelo_inurba_marseille","lat":43.257079,"lon":5.411051,"is_reserved":false,"is_disabled":false,"rental_uris":{"android":"levelo://app?vid=7d07d8f8-2525-4618-9974-5a4e19894521","ios":"levelo://app?vid=7d07d8f8-2525-4618-9974-5a4e19894521"},"vehicle_type_id":"4","last_reported":1701014872,"current_range_meters":29200,"station_id":"ce4bhkp2rcd13ifvqgd0","pricing_plan_id":"free"},{"bike_id":"21e75d00-8156-4063-a5a2-0428cfc125a8","system_id":"levelo_inurba_marseille","lat":43.24811,"lon":5.37459,"is_reserved":false,"is_disabled":false,"rental_uris":{"android":"levelo://app?vid=21e75d00-8156-4063-a5a2-0428cfc125a8","ios":"levelo://app?vid=21e75d00-8156-4063-a5a2-0428cfc125a8"},"vehicle_type_id":"4","last_reported":1701014872,"current_range_meters":30800,"station_id":"ce4bhgh2rcd13ifvqfb0","pricing_plan_id":"free"},{"bike_id":"f2d86774-4763-40c0-8bf4-3eb874793c19","system_id":"levelo_inurba_marseille","lat":43.2479,"lon":5.374457,"is_reserved":false,"is_disabled":false,"rental_uris":{"android":"levelo://app?vid=f2d86774-4763-40c0-8bf4-3eb874793c19","ios":"levelo://app?vid=f2d86774-4763-40c0-8bf4-3eb874793c19"},"vehicle_type_id":"4","last_reported":1701014872,"current_range_meters":30800,"station_id":"ce4bhgh2rcd13ifvqfb0","pricing_plan_id":"free"},{"bike_id":"79a5ae71-c76c-4399-b25d-fe09e3864c72","system_id":"levelo_inurba_marseille","lat":43.24805,"lon":5.37456,"is_reserved":false,"is_disabled":false,"rental_uris":{"android":"levelo://app?vid=79a5ae71-c76c-4399-b25d-fe09e3864c72","ios":"levelo://app?vid=79a5ae71-c76c-4399-b25d-fe09e3864c72"},"vehicle_type_id":"4","last_reported":1701014872,"current_range_meters":15200,"station_id":"ce4bhgh2rcd13ifvqfb0","pricing_plan_id":"free"},{"bike_id":"1f0c50d3-0be5-4fcd-b12e-29cf21c31d91","system_id":"levelo_inurba_marseille","lat":43.2479,"lon":5.374457,"is_reserved":false,"is_disabled":false,"rental_uris":{"android":"levelo://app?vid=1f0c50d3-0be5-4fcd-b12e-29cf21c31d91","ios":"levelo://app?vid=1f0c50d3-0be5-4fcd-b12e-29cf21c31d91"},"vehicle_type_id":"4","last_reported":1701014872,"current_range_meters":30800,"station_id":"ce4bhgh2rcd13ifvqfb0","pricing_plan_id":"free"},{"bike_id":"42fc01c7-6e6b-4678-840b-b63a0487e44d","system_id":"levelo_inurba_marseille","lat":43.2479,"lon":5.374457,"is_reserved":false,"is_disabled":false,"rental_uris":{"android":"levelo://app?vid=42fc01c7-6e6b-4678-840b-b63a0487e44d","ios":"levelo://app?vid=42fc01c7-6e6b-4678-840b-b63a0487e44d"},"vehicle_type_id":"4","last_reported":1701014872,"current_range_meters":10800,"station_id":"ce4bhgh2rcd13ifvqfb0","pricing_plan_id":"free"},{"bike_id":"4f0efb12-87f5-4d11-ad98-fe64cc7903d6","system_id":"levelo_inurba_marseille","lat":43.24805,"lon":5.37465,"is_reserved":false,"is_disabled":false,"rental_uris":{"android":"levelo://app?vid=4f0efb12-87f5-4d11-ad98-fe64cc7903d6","ios":"levelo://app?vid=4f0efb12-87f5-4d11-ad98-fe64cc7903d6"},"vehicle_type_id":"4","last_reported":1701014872,"current_range_meters":30400,"station_id":"ce4bhgh2rcd13ifvqfb0","pricing_plan_id":"free"},{"bike_id":"c98b5d95-31ff-44d5-888b-053d002d6be5","system_id":"levelo_inurba_marseille","lat":43.2479,"lon":5.374457,"is_reserved":false,"is_disabled":false,"rental_uris":{"android":"levelo://app?vid=c98b5d95-31ff-44d5-888b-053d002d6be5","ios":"levelo://app?vid=c98b5d95-31ff-44d5-888b-053d002d6be5"},"vehicle_type_id":"4","last_reported":1701014872,"current_range_meters":19600,"station_id":"ce4bhgh2rcd13ifvqfb0","pricing_plan_id":"free"},{"bike_id":"96bb326b-124f-44cf-9432-bb794dbf3c91","system_id":"levelo_inurba_marseille","lat":43.24803,"lon":5.374584,"is_reserved":false,"is_disabled":false,"rental_uris":{"android":"levelo://app?vid=96bb326b-124f-44cf-9432-bb794dbf3c91","ios":"levelo://app?vid=96bb326b-124f-44cf-9432-bb794dbf3c91"},"vehicle_type_id":"4","last_reported":1701014872,"current_range_meters":31200,"station_id":"ce4bhgh2rcd13ifvqfb0","pricing_plan_id":"free"},{"bike_id":"976642f9-07a6-42c1-98ea-3112272ce277","system_id":"levelo_inurba_marseille","lat":43.2479,"lon":5.374457,"is_reserved":false,"is_disabled":false,"rental_uris":{"android":"levelo://app?vid=976642f9-07a6-42c1-98ea-3112272ce277","ios":"levelo://app?vid=976642f9-07a6-42c1-98ea-3112272ce277"},"vehicle_type_id":"4","last_reported":1701014872,"current_range_meters":28400,"station_id":"ce4bhgh2rcd13ifvqfb0","pricing_plan_id":"free"},{"bike_id":"66739f60-8921-490b-8824-d05cf89b1172","system_id":"levelo_inurba_marseille","lat":43.250897,"lon":5.395161,"is_reserved":false,"is_disabled":false,"rental_uris":{"android":"levelo://app?vid=66739f60-8921-490b-8824-d05cf89b1172","ios":"levelo://app?vid=66739f60-8921-490b-8824-d05cf89b1172"},"vehicle_type_id":"4","last_reported":1701014872,"current_range_meters":23600,"station_id":"ce4bhm12rcd13ifvqgkg","pricing_plan_id":"free"},{"bike_id":"7ccb2047-6b20-4b9a-bcba-935fca6273b7","system_id":"levelo_inurba_marseille","lat":43.250966,"lon":5.395186,"is_reserved":false,"is_disabled":false,"rental_uris":{"android":"levelo://app?vid=7ccb2047-6b20-4b9a-bcba-935fca6273b7","ios":"levelo://app?vid=7ccb2047-6b20-4b9a-bcba-935fca6273b7"},"vehicle_type_id":"4","last_reported":1701014872,"current_range_meters":15200,"station_id":"ce4bhm12rcd13ifvqgkg","pricing_plan_id":"free"},{"bike_id":"3643499a-993b-4e15-b4b9-f571e6c950ca","system_id":"levelo_inurba_marseille","lat":43.24693,"lon":5.382096,"is_reserved":false,"is_disabled":false,"rental_uris":{"android":"levelo://app?vid=3643499a-993b-4e15-b4b9-f571e6c950ca","ios":"levelo://app?vid=3643499a-993b-4e15-b4b9-f571e6c950ca"},"vehicle_type_id":"4","last_reported":1701014872,"current_range_meters":14000,"station_id":"ce4bhih2rcd13ifvqfr0","pricing_plan_id":"free"},{"bike_id":"276d9051-e93b-4d06-8206-ed06027ffe72","system_id":"levelo_inurba_marseille","lat":43.24662,"lon":5.38161,"is_reserved":false,"is_disabled":false,"rental_uris":{"android":"levelo://app?vid=276d9051-e93b-4d06-8206-ed06027ffe72","ios":"levelo://app?vid=276d9051-e93b-4d06-8206-ed06027ffe72"},"vehicle_type_id":"4","last_reported":1701014872,"current_range_meters":23600,"station_id":"ce4bhih2rcd13ifvqfr0","pricing_plan_id":"free"},{"bike_id":"190da73c-a06a-4a47-9763-efe11c5345c5","system_id":"levelo_inurba_marseille","lat":43.25102,"lon":5.403214,"is_reserved":false,"is_disabled":false,"rental_uris":{"android":"levelo://app?vid=190da73c-a06a-4a47-9763-efe11c5345c5","ios":"levelo://app?vid=190da73c-a06a-4a47-9763-efe11c5345c5"},"vehicle_type_id":"4","last_reported":1701014872,"current_range_meters":27200,"station_id":"ce4bhlh2rcd13ifvqgig","pricing_plan_id":"free"},{"bike_id":"d3a9c5fd-5ed4-48a1-8f31-57aae68e27bc","system_id":"levelo_inurba_marseille","lat":43.246467,"lon":5.388984,"is_reserved":false,"is_disabled":false,"rental_uris":{"android":"levelo://app?vid=d3a9c5fd-5ed4-48a1-8f31-57aae68e27bc","ios":"levelo://app?vid=d3a9c5fd-5ed4-48a1-8f31-57aae68e27bc"},"vehicle_type_id":"4","last_reported":1701014872,"current_range_meters":20000,"station_id":"ce4bhg12rcd13ifvqf60","pricing_plan_id":"free"},{"bike_id":"618531b3-e404-4c3d-ab62-6fff3fa203fd","system_id":"levelo_inurba_marseille","lat":43.24391,"lon":5.37064,"is_reserved":false,"is_disabled":false,"rental_uris":{"android":"levelo://app?vid=618531b3-e404-4c3d-ab62-6fff3fa203fd","ios":"levelo://app?vid=618531b3-e404-4c3d-ab62-6fff3fa203fd"},"vehicle_type_id":"4","last_reported":1701014872,"current_range_meters":23200,"station_id":"ce4bhhh2rcd13ifvqfk0","pricing_plan_id":"free"},{"bike_id":"029e286e-0690-49e4-bf3f-15b5501874cb","system_id":"levelo_inurba_marseille","lat":43.245581,"lon":5.395069,"is_reserved":false,"is_disabled":false,"rental_uris":{"android":"levelo://app?vid=029e286e-0690-49e4-bf3f-15b5501874cb","ios":"levelo://app?vid=029e286e-0690-49e4-bf3f-15b5501874cb"},"vehicle_type_id":"4","last_reported":1701014872,"current_range_meters":18400,"station_id":"ce4bhlp2rcd13ifvqgjg","pricing_plan_id":"free"},{"bike_id":"b29dfda8-f720-4aab-afc1-f634e6d91320","system_id":"levelo_inurba_marseille","lat":43.245581,"lon":5.395069,"is_reserved":false,"is_disabled":false,"rental_uris":{"android":"levelo://app?vid=b29dfda8-f720-4aab-afc1-f634e6d91320","ios":"levelo://app?vid=b29dfda8-f720-4aab-afc1-f634e6d91320"},"vehicle_type_id":"4","last_reported":1701014872,"current_range_meters":31200,"station_id":"ce4bhlp2rcd13ifvqgjg","pricing_plan_id":"free"},{"bike_id":"ec6975e5-b4ef-4645-a84b-f878cf082c25","system_id":"levelo_inurba_marseille","lat":43.24075,"lon":5.37757,"is_reserved":false,"is_disabled":false,"rental_uris":{"android":"levelo://app?vid=ec6975e5-b4ef-4645-a84b-f878cf082c25","ios":"levelo://app?vid=ec6975e5-b4ef-4645-a84b-f878cf082c25"},"vehicle_type_id":"4","last_reported":1701014872,"current_range_meters":6400,"station_id":"ce4bhnp2rcd13ifvqgvg","pricing_plan_id":"free"},{"bike_id":"4b4badd5-ff1b-41fe-aa76-845a72303b71","system_id":"levelo_inurba_marseille","lat":43.239588,"lon":5.366238,"is_reserved":false,"is_disabled":false,"rental_uris":{"android":"levelo://app?vid=4b4badd5-ff1b-41fe-aa76-845a72303b71","ios":"levelo://app?vid=4b4badd5-ff1b-41fe-aa76-845a72303b71"},"vehicle_type_id":"4","last_reported":1701014872,"current_range_meters":5200,"station_id":"ce4bhi12rcd13ifvqfp0","pricing_plan_id":"free"},{"bike_id":"a27aa8ca-f8bf-40d0-a0ec-a5a93ed0d294","system_id":"levelo_inurba_marseille","lat":43.239588,"lon":5.366238,"is_reserved":false,"is_disabled":false,"rental_uris":{"android":"levelo://app?vid=a27aa8ca-f8bf-40d0-a0ec-a5a93ed0d294","ios":"levelo://app?vid=a27aa8ca-f8bf-40d0-a0ec-a5a93ed0d294"},"vehicle_type_id":"4","last_reported":1701014872,"current_range_meters":1600,"station_id":"ce4bhi12rcd13ifvqfp0","pricing_plan_id":"free"},{"bike_id":"3f4b0526-0f17-40c1-81c2-2d457704372e","system_id":"levelo_inurba_marseille","lat":43.241782,"lon":5.397264,"is_reserved":false,"is_disabled":false,"rental_uris":{"android":"levelo://app?vid=3f4b0526-0f17-40c1-81c2-2d457704372e","ios":"levelo://app?vid=3f4b0526-0f17-40c1-81c2-2d457704372e"},"vehicle_type_id":"4","last_reported":1701014872,"current_range_meters":30400,"station_id":"ce4bhn12rcd13ifvqgpg","pricing_plan_id":"free"},{"bike_id":"40f2500b-9afe-4632-9168-89dc8772014f","system_id":"levelo_inurba_marseille","lat":43.241782,"lon":5.397261,"is_reserved":false,"is_disabled":false,"rental_uris":{"android":"levelo://app?vid=40f2500b-9afe-4632-9168-89dc8772014f","ios":"levelo://app?vid=40f2500b-9afe-4632-9168-89dc8772014f"},"vehicle_type_id":"4","last_reported":1701014872,"current_range_meters":31200,"station_id":"ce4bhn12rcd13ifvqgpg","pricing_plan_id":"free"},{"bike_id":"b03204fb-1ac1-4923-ba56-22eaa833dad5","system_id":"levelo_inurba_marseille","lat":43.241782,"lon":5.397264,"is_reserved":false,"is_disabled":false,"rental_uris":{"android":"levelo://app?vid=b03204fb-1ac1-4923-ba56-22eaa833dad5","ios":"levelo://app?vid=b03204fb-1ac1-4923-ba56-22eaa833dad5"},"vehicle_type_id":"4","last_reported":1701014872,"current_range_meters":22400,"station_id":"ce4bhn12rcd13ifvqgpg","pricing_plan_id":"free"},{"bike_id":"c47d956b-b9b9-42b5-8054-37b6df0f7b75","system_id":"levelo_inurba_marseille","lat":43.23187,"lon":5.3556,"is_reserved":false,"is_disabled":false,"rental_uris":{"android":"levelo://app?vid=c47d956b-b9b9-42b5-8054-37b6df0f7b75","ios":"levelo://app?vid=c47d956b-b9b9-42b5-8054-37b6df0f7b75"},"vehicle_type_id":"4","last_reported":1701014872,"current_range_meters":20000,"station_id":"ce4bhu92rcd13ifvqi70","pricing_plan_id":"free"},{"bike_id":"11257d2d-ead9-4af5-91a2-0ab2c7427312","system_id":"levelo_inurba_marseille","lat":43.231794,"lon":5.400052,"is_reserved":false,"is_disabled":false,"rental_uris":{"android":"levelo://app?vid=11257d2d-ead9-4af5-91a2-0ab2c7427312","ios":"levelo://app?vid=11257d2d-ead9-4af5-91a2-0ab2c7427312"},"vehicle_type_id":"4","last_reported":1701014872,"current_range_meters":26400,"station_id":"ce4bhn12rcd13ifvqgqg","pricing_plan_id":"free"},{"bike_id":"65b7ec81-6a3a-4ed8-958c-32f8556e89ad","system_id":"levelo_inurba_marseille","lat":43.231793,"lon":5.400044,"is_reserved":false,"is_disabled":false,"rental_uris":{"android":"levelo://app?vid=65b7ec81-6a3a-4ed8-958c-32f8556e89ad","ios":"levelo://app?vid=65b7ec81-6a3a-4ed8-958c-32f8556e89ad"},"vehicle_type_id":"4","last_reported":1701014872,"current_range_meters":20800,"station_id":"ce4bhn12rcd13ifvqgqg","pricing_plan_id":"free"},{"bike_id":"10da9d0a-99ef-4087-a609-3c157a4f6e5d","system_id":"levelo_inurba_marseille","lat":43.23155,"lon":5.43708,"is_reserved":false,"is_disabled":false,"rental_uris":{"android":"levelo://app?vid=10da9d0a-99ef-4087-a609-3c157a4f6e5d","ios":"levelo://app?vid=10da9d0a-99ef-4087-a609-3c157a4f6e5d"},"vehicle_type_id":"4","last_reported":1701014872,"current_range_meters":23200,"station_id":"ce4bhmp2rcd13ifvqgog","pricing_plan_id":"free"},{"bike_id":"1619d54a-6458-4542-9d9b-231c0824f58f","system_id":"levelo_inurba_marseille","lat":43.231562,"lon":5.436933,"is_reserved":false,"is_disabled":false,"rental_uris":{"android":"levelo://app?vid=1619d54a-6458-4542-9d9b-231c0824f58f","ios":"levelo://app?vid=1619d54a-6458-4542-9d9b-231c0824f58f"},"vehicle_type_id":"4","last_reported":1701014872,"current_range_meters":27600,"station_id":"ce4bhmp2rcd13ifvqgog","pricing_plan_id":"free"},{"bike_id":"561ed5e3-1b73-4a38-a394-31b2ff2846b5","system_id":"levelo_inurba_marseille","lat":43.231562,"lon":5.436933,"is_reserved":false,"is_disabled":false,"rental_uris":{"android":"levelo://app?vid=561ed5e3-1b73-4a38-a394-31b2ff2846b5","ios":"levelo://app?vid=561ed5e3-1b73-4a38-a394-31b2ff2846b5"},"vehicle_type_id":"4","last_reported":1701014872,"current_range_meters":30000,"station_id":"ce4bhmp2rcd13ifvqgog","pricing_plan_id":"free"}]}}