{"last_updated":1743354478,"ttl":60,"version":"2.2","data":{"bikes":[{"bike_id":"cbbd62f9-725f-42d1-9ba3-0698ca1abcda","system_id":"levelo_inurba_marseille","lat":43.290227,"lon":5.381333,"is_reserved":false,"is_disabled":false,"rental_uris":{"android":"levelo://app?vid=cbbd62f9-725f-42d1-9ba3-0698ca1abcda","ios":"levelo://app?vid=cbbd62f9-725f-42d1-9ba3-0698ca1abcda"},"vehicle_type_id":"4","last_reported":1743354478,"current_range_meters":2800,"station_id":"ce4bgh92rcd13ifvqb40","pricing_plan_id":"cebpf4jnsgd1na2vs0mg"},{"bike_id":"07980fd2-b205-411e-a9cc-fc73c2966486","system_id":"levelo_inurba_marseille","lat":43.25586,"lon":5.38229,"is_reserved":false,"is_disabled":false,"rental_uris":{"android":"levelo://app?vid=07980fd2-b205-411e-a9cc-fc73c2966486","ios":"levelo://app?vid=07980fd2-b205-411e-a9cc-fc73c2966486"},"vehicle_type_id":"4","last_reported":1743354478,"current_range_meters":2000,"station_id":"ce4bhih2rcd13ifvqfs0","pricing_plan_id":"cebpf4jnsgd1na2vs0mg"},{"bike_id":"4777850e-a840-44f2-a6a5-fd44a1ac41d3","system_id":"levelo_inurba_marseille","lat":43.28731,"lon":5.40018,"is_reserved":false,"is_disabled":true,"rental_uris":{"android":"levelo://app?vid=4777850e-a840-44f2-a6a5-fd44a1ac41d3","ios":"levelo://app?vid=4777850e-a840-44f2-a6a5-fd44a1ac41d3"},"vehicle_type_id":"4","last_reported":1743354478,"current_range_meters":2800,"station_id":"ce4bho92rcd13ifvqh3g","pricing_plan_id":"cebpf4jnsgd1na2vs0mg"},{"bike_id":"0a257f1b-b138-4c06-a941-ccde7d5925a5","system_id":"levelo_inurba_marseille","lat":43.29196,"lon":5.39326,"is_reserved":false,"is_disabled":false,"rental_uris":{"android":"levelo://app?vid=0a257f1b-b138-4c06-a941-ccde7d5925a5","ios":"levelo://app?vid=0a257f1b-b138-4c06-a941-ccde7d5925a5"},"vehicle_type_id":"4","last_reported":1743354478,"current_range_meters":2000,"station_id":"ce4bh192rcd13ifvqdd0","pricing_plan_id":"cebpf4jnsgd1na2vs0mg"},{"bike_id":"b6e27bb0-bbef-4958-8fdd-4a5b85ab80be","system_id":"levelo_inurba_marseille","lat":43.29528,"lon":5.38543,"is_reserved":false,"is_disabled":false,"rental_uris":{"android":"levelo://app?vid=b6e27bb0-bbef-4958-8fdd-4a5b85ab80be","ios":"levelo://app?vid=b6e27bb0-bbef-4958-8fdd-4a5b85ab80be"},"vehicle_type_id":"4","last_reported":1743354478,"current_range_meters":2800,"station_id":"ce4bgih2rcd13ifvqba0","pricing_plan_id":"cebpf4jnsgd1na2vs0mg"},{"bike_id":"9c35970d-cc1c-43da-b4a4-6f753ea66067","system_id":"levelo_inurba_marseille","lat":43.28947,"lon":5.36644,"is_reserved":false,"is_disabled":false,"rental_uris":{"android":"levelo://app?vid=9c35970d-cc1c-43da-b4a4-6f753ea66067","ios":"levelo://app?vid=9c35970d-cc1c-43da-b4a4-6f753ea66067"},"vehicle_type_id":"4","last_reported":1743354478,"current_range_meters":2800,"station_id":"ce4bhap2rcd13ifvqek0","pricing_plan_id":"cebpf4jnsgd1na2vs0mg"},{"bike_id":"31c12056-8fa4-4f34-82f8-16f6a83a9f1b","system_id":"levelo_inurba_marseille","lat":43.27209,"lon":5.39182,"is_reserved":false,"is_disabled":false,"rental_uris":{"android":"levelo://app?vid=31c12056-8fa4-4f34-82f8-16f6a83a9f1b","ios":"levelo://app?vid=31c12056-8fa4-4f34-82f8-16f6a83a9f1b"},"vehicle_type_id":"4","last_reported":1743354478,"current_range_meters":4000,"station_id":"ce4bhhp2rcd13ifvqfm0","pricing_plan_id":"cebpf4jnsgd1na2vs0mg"},{"bike_id":"7fe392e9-7e8b-4f65-842c-ef02e8322ece","system_id":"levelo_inurba_marseille","lat":43.27205,"lon":5.4102,"is_reserved":false,"is_disabled":false,"rental_uris":{"android":"levelo://app?vid=7fe392e9-7e8b-4f65-842c-ef02e8322ece","ios":"levelo://app?vid=7fe392e9-7e8b-4f65-842c-ef02e8322ece"},"vehicle_type_id":"4","last_reported":1743354478,"current_range_meters":2800,"station_id":"ce4bhl12rcd13ifvqgf0","pricing_plan_id":"cebpf4jnsgd1na2vs0mg"},{"bike_id":"04c1467a-325a-41b3-b244-c22d7bb663ad","system_id":"levelo_inurba_marseille","lat":43.28365,"lon":5.38625,"is_reserved":false,"is_disabled":false,"rental_uris":{"android":"levelo://app?vid=04c1467a-325a-41b3-b244-c22d7bb663ad","ios":"levelo://app?vid=04c1467a-325a-41b3-b244-c22d7bb663ad"},"vehicle_type_id":"4","last_reported":1743354478,"current_range_meters":2800,"station_id":"ce4bh492rcd13ifvqdvg","pricing_plan_id":"cebpf4jnsgd1na2vs0mg"},{"bike_id":"e6d93dd5-c934-4475-93e4-4624b2fda775","system_id":"levelo_inurba_marseille","lat":43.29531,"lon":5.37491,"is_reserved":false,"is_disabled":false,"rental_uris":{"android":"levelo://app?vid=e6d93dd5-c934-4475-93e4-4624b2fda775","ios":"levelo://app?vid=e6d93dd5-c934-4475-93e4-4624b2fda775"},"vehicle_type_id":"4","last_reported":1743354478,"current_range_meters":3200,"station_id":"ce4bgkp2rcd13ifvqbmg","pricing_plan_id":"cebpf4jnsgd1na2vs0mg"},{"bike_id":"4b056236-f056-4ad8-87c7-450bfee52604","system_id":"levelo_inurba_marseille","lat":43.28484,"lon":5.38428,"is_reserved":false,"is_disabled":false,"rental_uris":{"android":"levelo://app?vid=4b056236-f056-4ad8-87c7-450bfee52604","ios":"levelo://app?vid=4b056236-f056-4ad8-87c7-450bfee52604"},"vehicle_type_id":"4","last_reported":1743354478,"current_range_meters":3200,"station_id":"ce4bh512rcd13ifvqe3g","pricing_plan_id":"cebpf4jnsgd1na2vs0mg"},{"bike_id":"6836a695-3a9e-4407-92d9-f0573d07ae7e","system_id":"levelo_inurba_marseille","lat":43.2847,"lon":5.38556,"is_reserved":false,"is_disabled":false,"rental_uris":{"android":"levelo://app?vid=6836a695-3a9e-4407-92d9-f0573d07ae7e","ios":"levelo://app?vid=6836a695-3a9e-4407-92d9-f0573d07ae7e"},"vehicle_type_id":"4","last_reported":1743354478,"current_range_meters":3200,"station_id":"ce4bh8p2rcd13ifvqeb0","pricing_plan_id":"cebpf4jnsgd1na2vs0mg"},{"bike_id":"ca61c053-b807-43ca-8137-c035fc4e2ca7","system_id":"levelo_inurba_marseille","lat":43.276639,"lon":5.388776,"is_reserved":false,"is_disabled":false,"rental_uris":{"android":"levelo://app?vid=ca61c053-b807-43ca-8137-c035fc4e2ca7","ios":"levelo://app?vid=ca61c053-b807-43ca-8137-c035fc4e2ca7"},"vehicle_type_id":"4","last_reported":1743354478,"current_range_meters":2800,"station_id":"ce4bhi12rcd13ifvqfo0","pricing_plan_id":"cebpf4jnsgd1na2vs0mg"},{"bike_id":"6b9bd8ae-8ee9-4269-b2bd-6c3d8c883a71","system_id":"levelo_inurba_marseille","lat":43.29785,"lon":5.39358,"is_reserved":false,"is_disabled":false,"rental_uris":{"android":"levelo://app?vid=6b9bd8ae-8ee9-4269-b2bd-6c3d8c883a71","ios":"levelo://app?vid=6b9bd8ae-8ee9-4269-b2bd-6c3d8c883a71"},"vehicle_type_id":"4","last_reported":1743354478,"current_range_meters":3200,"station_id":"chh1huq6cuj3fo74tm60","pricing_plan_id":"cebpf4jnsgd1na2vs0mg"},{"bike_id":"d0b12979-a027-442f-97b2-e2e696d0b330","system_id":"levelo_inurba_marseille","lat":43.23197,"lon":5.35551,"is_reserved":false,"is_disabled":false,"rental_uris":{"android":"levelo://app?vid=d0b12979-a027-442f-97b2-e2e696d0b330","ios":"levelo://app?vid=d0b12979-a027-442f-97b2-e2e696d0b330"},"vehicle_type_id":"4","last_reported":1743354478,"current_range_meters":3200,"station_id":"ce4bhu92rcd13ifvqi70","pricing_plan_id":"cebpf4jnsgd1na2vs0mg"},{"bike_id":"96346192-eb4c-49ec-b89c-46e37d5d1fab","system_id":"levelo_inurba_marseille","lat":43.29557,"lon":5.42296,"is_reserved":false,"is_disabled":false,"rental_uris":{"android":"levelo://app?vid=96346192-eb4c-49ec-b89c-46e37d5d1fab","ios":"levelo://app?vid=96346192-eb4c-49ec-b89c-46e37d5d1fab"},"vehicle_type_id":"4","last_reported":1743354478,"current_range_meters":6400,"station_id":"ce4bhph2rcd13ifvqhdg","pricing_plan_id":"cebpf4jnsgd1na2vs0mg"},{"bike_id":"8d6abdef-27aa-4d1b-9448-656a6296f19d","system_id":"levelo_inurba_marseille","lat":43.24212,"lon":5.39708,"is_reserved":false,"is_disabled":false,"rental_uris":{"android":"levelo://app?vid=8d6abdef-27aa-4d1b-9448-656a6296f19d","ios":"levelo://app?vid=8d6abdef-27aa-4d1b-9448-656a6296f19d"},"vehicle_type_id":"4","last_reported":1743354478,"current_range_meters":3600,"station_id":"ce4bhn12rcd13ifvqgpg","pricing_plan_id":"cebpf4jnsgd1na2vs0mg"},{"bike_id":"d914e9a8-b762-426b-bdb3-0e28d4da883c","system_id":"levelo_inurba_marseille","lat":43.30886,"lon":5.39642,"is_reserved":false,"is_disabled":false,"rental_uris":{"android":"levelo://app?vid=d914e9a8-b762-426b-bdb3-0e28d4da883c","ios":"levelo://app?vid=d914e9a8-b762-426b-bdb3-0e28d4da883c"},"vehicle_type_id":"4","last_reported":1743354478,"current_range_meters":3600,"station_id":"ce4bh012rcd13ifvqcv0","pricing_plan_id":"cebpf4jnsgd1na2vs0mg"},{"bike_id":"ec8cfec2-91ad-4c32-8ae4-512594894048","system_id":"levelo_inurba_marseille","lat":43.29185,"lon":5.35788,"is_reserved":false,"is_disabled":false,"rental_uris":{"android":"levelo://app?vid=ec8cfec2-91ad-4c32-8ae4-512594894048","ios":"levelo://app?vid=ec8cfec2-91ad-4c32-8ae4-512594894048"},"vehicle_type_id":"4","last_reported":1743354478,"current_range_meters":3600,"station_id":"ce4bhb12rcd13ifvqel0","pricing_plan_id":"cebpf4jnsgd1na2vs0mg"},{"bike_id":"64abfa05-deb4-43b5-b78b-b6b653fe1bbb","system_id":"levelo_inurba_marseille","lat":43.29411,"lon":5.38619,"is_reserved":false,"is_disabled":false,"rental_uris":{"android":"levelo://app?vid=64abfa05-deb4-43b5-b78b-b6b653fe1bbb","ios":"levelo://app?vid=64abfa05-deb4-43b5-b78b-b6b653fe1bbb"},"vehicle_type_id":"4","last_reported":1743354478,"current_range_meters":3600,"station_id":"ce4bh2h2rcd13ifvqdh0","pricing_plan_id":"cebpf4jnsgd1na2vs0mg"},{"bike_id":"8d88d281-8091-4c2c-b62d-9ea7549f6d95","system_id":"levelo_inurba_marseille","lat":43.30136,"lon":5.38066,"is_reserved":false,"is_disabled":false,"rental_uris":{"android":"levelo://app?vid=8d88d281-8091-4c2c-b62d-9ea7549f6d95","ios":"levelo://app?vid=8d88d281-8091-4c2c-b62d-9ea7549f6d95"},"vehicle_type_id":"4","last_reported":1743354478,"current_range_meters":4400,"station_id":"ce4bgjp2rcd13ifvqbh0","pricing_plan_id":"cebpf4jnsgd1na2vs0mg"},{"bike_id":"360d9955-ff3f-47af-ab0b-5ac80505515c","system_id":"levelo_inurba_marseille","lat":43.24666,"lon":5.381606,"is_reserved":false,"is_disabled":false,"rental_uris":{"android":"levelo://app?vid=360d9955-ff3f-47af-ab0b-5ac80505515c","ios":"levelo://app?vid=360d9955-ff3f-47af-ab0b-5ac80505515c"},"vehicle_type_id":"4","last_reported":1743354478,"current_range_meters":4000,"station_id":"ce4bhih2rcd13ifvqfr0","pricing_plan_id":"cebpf4jnsgd1na2vs0mg"},{"bike_id":"b90a7853-2240-4bda-84d5-336d0471e593","system_id":"levelo_inurba_marseille","lat":43.28457,"lon":5.35894,"is_reserved":false,"is_disabled":false,"rental_uris":{"android":"levelo://app?vid=b90a7853-2240-4bda-84d5-336d0471e593","ios":"levelo://app?vid=b90a7853-2240-4bda-84d5-336d0471e593"},"vehicle_type_id":"4","last_reported":1743354478,"current_range_meters":4000,"station_id":"ce4bhah2rcd13ifvqei0","pricing_plan_id":"cebpf4jnsgd1na2vs0mg"},{"bike_id":"6b1bb9ca-ce05-4fe1-851a-7931547f5102","system_id":"levelo_inurba_marseille","lat":43.2796,"lon":5.38711,"is_reserved":false,"is_disabled":false,"rental_uris":{"android":"levelo://app?vid=6b1bb9ca-ce05-4fe1-851a-7931547f5102","ios":"levelo://app?vid=6b1bb9ca-ce05-4fe1-851a-7931547f5102"},"vehicle_type_id":"4","last_reported":1743354478,"current_range_meters":4000,"station_id":"ce4bhg12rcd13ifvqf80","pricing_plan_id":"cebpf4jnsgd1na2vs0mg"},{"bike_id":"9cee0be8-7696-4db0-a353-7cc986d16540","system_id":"levelo_inurba_marseille","lat":43.295715,"lon":5.375243,"is_reserved":false,"is_disabled":false,"rental_uris":{"android":"levelo://app?vid=9cee0be8-7696-4db0-a353-7cc986d16540","ios":"levelo://app?vid=9cee0be8-7696-4db0-a353-7cc986d16540"},"vehicle_type_id":"4","last_reported":1743354478,"current_range_meters":4000,"station_id":"ce4bgh92rcd13ifvqb50","pricing_plan_id":"cebpf4jnsgd1na2vs0mg"},{"bike_id":"645d94ae-feea-4e1f-b038-7ac522a9dbf2","system_id":"levelo_inurba_marseille","lat":43.24389,"lon":5.3706,"is_reserved":false,"is_disabled":false,"rental_uris":{"android":"levelo://app?vid=645d94ae-feea-4e1f-b038-7ac522a9dbf2","ios":"levelo://app?vid=645d94ae-feea-4e1f-b038-7ac522a9dbf2"},"vehicle_type_id":"4","last_reported":1743354478,"current_range_meters":5600,"station_id":"ce4bhhh2rcd13ifvqfk0","pricing_plan_id":"cebpf4jnsgd1na2vs0mg"},{"bike_id":"6e1b44c8-3bb4-43f9-b383-901037359c5a","system_id":"levelo_inurba_marseille","lat":43.282644,"lon":5.350594,"is_reserved":false,"is_disabled":false,"rental_uris":{"android":"levelo://app?vid=6e1b44c8-3bb4-43f9-b383-901037359c5a","ios":"levelo://app?vid=6e1b44c8-3bb4-43f9-b383-901037359c5a"},"vehicle_type_id":"4","last_reported":1743354478,"current_range_meters":4000,"station_id":"ce4bhbp2rcd13ifvqerg","pricing_plan_id":"cebpf4jnsgd1na2vs0mg"},{"bike_id":"bf36c0a8-c927-4ba0-97b6-42b624ea06d7","system_id":"levelo_inurba_marseille","lat":43.24388,"lon":5.37055,"is_reserved":false,"is_disabled":false,"rental_uris":{"android":"levelo://app?vid=bf36c0a8-c927-4ba0-97b6-42b624ea06d7","ios":"levelo://app?vid=bf36c0a8-c927-4ba0-97b6-42b624ea06d7"},"vehicle_type_id":"4","last_reported":1743354478,"current_range_meters":4000,"station_id":"ce4bhhh2rcd13ifvqfk0","pricing_plan_id":"cebpf4jnsgd1na2vs0mg"},{"bike_id":"5fa76be9-4f44-42b2-9369-ca86f6bbce5c","system_id":"levelo_inurba_marseille","lat":43.2655,"lon":5.37285,"is_reserved":false,"is_disabled":true,"rental_uris":{"android":"levelo://app?vid=5fa76be9-4f44-42b2-9369-ca86f6bbce5c","ios":"levelo://app?vid=5fa76be9-4f44-42b2-9369-ca86f6bbce5c"},"vehicle_type_id":"4","last_reported":1743354478,"current_range_meters":4400,"station_id":"ce4bhg12rcd13ifvqf70","pricing_plan_id":"cebpf4jnsgd1na2vs0mg"},{"bike_id":"b0a11a5b-36dc-42e4-bb9f-45f54c02d8b3","system_id":"levelo_inurba_marseille","lat":43.286704,"lon":5.386654,"is_reserved":false,"is_disabled":false,"rental_uris":{"android":"levelo://app?vid=b0a11a5b-36dc-42e4-bb9f-45f54c02d8b3","ios":"levelo://app?vid=b0a11a5b-36dc-42e4-bb9f-45f54c02d8b3"},"vehicle_type_id":"4","last_reported":1743354478,"current_range_meters":4400,"station_id":"ce4bh492rcd13ifvqdug","pricing_plan_id":"cebpf4jnsgd1na2vs0mg"},{"bike_id":"6e0aace4-e27f-4f19-8dc2-63866f958473","system_id":"levelo_inurba_marseille","lat":43.276001,"lon":5.360864,"is_reserved":false,"is_disabled":false,"rental_uris":{"android":"levelo://app?vid=6e0aace4-e27f-4f19-8dc2-63866f958473","ios":"levelo://app?vid=6e0aace4-e27f-4f19-8dc2-63866f958473"},"vehicle_type_id":"4","last_reported":1743354478,"current_range_meters":4400,"station_id":"ce4bh2h2rcd13ifvqdh0","pricing_plan_id":"cebpf4jnsgd1na2vs0mg"},{"bike_id":"76f6e21f-7b2a-4cd8-b183-f773a6fd5ae9","system_id":"levelo_inurba_marseille","lat":43.30435,"lon":5.38899,"is_reserved":false,"is_disabled":false,"rental_uris":{"android":"levelo://app?vid=76f6e21f-7b2a-4cd8-b183-f773a6fd5ae9","ios":"levelo://app?vid=76f6e21f-7b2a-4cd8-b183-f773a6fd5ae9"},"vehicle_type_id":"4","last_reported":1743354478,"current_range_meters":6000,"station_id":"ce4bgk12rcd13ifvqbi0","pricing_plan_id":"cebpf4jnsgd1na2vs0mg"},{"bike_id":"329c8552-947e-4e8f-98c3-63db892ef124","system_id":"levelo_inurba_marseille","lat":43.32367,"lon":5.38885,"is_reserved":false,"is_disabled":false,"rental_uris":{"android":"levelo://app?vid=329c8552-947e-4e8f-98c3-63db892ef124","ios":"levelo://app?vid=329c8552-947e-4e8f-98c3-63db892ef124"},"vehicle_type_id":"4","last_reported":1743354478,"current_range_meters":4400,"station_id":"ce4bhqp2rcd13ifvqhog","pricing_plan_id":"cebpf4jnsgd1na2vs0mg"},{"bike_id":"79f87324-3ef1-43c2-be43-578268bc072c","system_id":"levelo_inurba_marseille","lat":43.3014,"lon":5.39836,"is_reserved":false,"is_disabled":false,"rental_uris":{"android":"levelo://app?vid=79f87324-3ef1-43c2-be43-578268bc072c","ios":"levelo://app?vid=79f87324-3ef1-43c2-be43-578268bc072c"},"vehicle_type_id":"4","last_reported":1743354478,"current_range_meters":4400,"station_id":"ce4bh0h2rcd13ifvqd40","pricing_plan_id":"cebpf4jnsgd1na2vs0mg"},{"bike_id":"b5ace6c6-32e3-486d-9744-efb1ce0dfa9d","system_id":"levelo_inurba_marseille","lat":43.28922,"lon":5.36646,"is_reserved":false,"is_disabled":true,"rental_uris":{"android":"levelo://app?vid=b5ace6c6-32e3-486d-9744-efb1ce0dfa9d","ios":"levelo://app?vid=b5ace6c6-32e3-486d-9744-efb1ce0dfa9d"},"vehicle_type_id":"4","last_reported":1743354478,"current_range_meters":4400,"station_id":"ce4bhap2rcd13ifvqek0","pricing_plan_id":"cebpf4jnsgd1na2vs0mg"},{"bike_id":"c3175718-7f01-4121-a54d-262406a83846","system_id":"levelo_inurba_marseille","lat":43.23187,"lon":5.35556,"is_reserved":false,"is_disabled":false,"rental_uris":{"android":"levelo://app?vid=c3175718-7f01-4121-a54d-262406a83846","ios":"levelo://app?vid=c3175718-7f01-4121-a54d-262406a83846"},"vehicle_type_id":"4","last_reported":1743354478,"current_range_meters":4400,"station_id":"ce4bhu92rcd13ifvqi70","pricing_plan_id":"cebpf4jnsgd1na2vs0mg"},{"bike_id":"8e69e7f9-76b5-4d0a-8b34-45d50fc637f3","system_id":"levelo_inurba_marseille","lat":43.24588,"lon":5.38048,"is_reserved":false,"is_disabled":false,"rental_uris":{"android":"levelo://app?vid=8e69e7f9-76b5-4d0a-8b34-45d50fc637f3","ios":"levelo://app?vid=8e69e7f9-76b5-4d0a-8b34-45d50fc637f3"},"vehicle_type_id":"4","last_reported":1743354478,"current_range_meters":4800,"station_id":"","pricing_plan_id":"cebpf4jnsgd1na2vs0mg"},{"bike_id":"4ff56952-f806-4952-be52-8022622ea364","system_id":"levelo_inurba_marseille","lat":43.24169,"lon":5.36402,"is_reserved":false,"is_disabled":false,"rental_uris":{"android":"levelo://app?vid=4ff56952-f806-4952-be52-8022622ea364","ios":"levelo://app?vid=4ff56952-f806-4952-be52-8022622ea364"},"vehicle_type_id":"4","last_reported":1743354478,"current_range_meters":4800,"station_id":"cpo36qri1sfpv3e86is0","pricing_plan_id":"cebpf4jnsgd1na2vs0mg"},{"bike_id":"6d5e62ed-1da4-460a-9946-fe728fe233f3","system_id":"levelo_inurba_marseille","lat":43.28041,"lon":5.36951,"is_reserved":false,"is_disabled":false,"rental_uris":{"android":"levelo://app?vid=6d5e62ed-1da4-460a-9946-fe728fe233f3","ios":"levelo://app?vid=6d5e62ed-1da4-460a-9946-fe728fe233f3"},"vehicle_type_id":"4","last_reported":1743354478,"current_range_meters":4800,"station_id":"ce4bha12rcd13ifvqef0","pricing_plan_id":"cebpf4jnsgd1na2vs0mg"},{"bike_id":"d2e86420-bc35-4c2d-9ec1-a31ddee1a441","system_id":"levelo_inurba_marseille","lat":43.28983,"lon":5.383166,"is_reserved":false,"is_disabled":false,"rental_uris":{"android":"levelo://app?vid=d2e86420-bc35-4c2d-9ec1-a31ddee1a441","ios":"levelo://app?vid=d2e86420-bc35-4c2d-9ec1-a31ddee1a441"},"vehicle_type_id":"4","last_reported":1743354478,"current_range_meters":4800,"station_id":"ce4bh612rcd13ifvqe6g","pricing_plan_id":"cebpf4jnsgd1na2vs0mg"},{"bike_id":"80507833-57fc-4199-a0f8-32eca269665b","system_id":"levelo_inurba_marseille","lat":43.2416,"lon":5.36423,"is_reserved":false,"is_disabled":false,"rental_uris":{"android":"levelo://app?vid=80507833-57fc-4199-a0f8-32eca269665b","ios":"levelo://app?vid=80507833-57fc-4199-a0f8-32eca269665b"},"vehicle_type_id":"4","last_reported":1743354478,"current_range_meters":4800,"station_id":"cpo36qri1sfpv3e86is0","pricing_plan_id":"cebpf4jnsgd1na2vs0mg"},{"bike_id":"387ff9ce-9e25-45df-a322-e9c50dc946ee","system_id":"levelo_inurba_marseille","lat":43.26578,"lon":5.39023,"is_reserved":false,"is_disabled":false,"rental_uris":{"android":"levelo://app?vid=387ff9ce-9e25-45df-a322-e9c50dc946ee","ios":"levelo://app?vid=387ff9ce-9e25-45df-a322-e9c50dc946ee"},"vehicle_type_id":"4","last_reported":1743354478,"current_range_meters":4800,"station_id":"ce4bhe12rcd13ifvqf30","pricing_plan_id":"cebpf4jnsgd1na2vs0mg"},{"bike_id":"a4c6538b-619e-4d07-a605-a0fcb5383598","system_id":"levelo_inurba_marseille","lat":43.29415,"lon":5.38624,"is_reserved":false,"is_disabled":false,"rental_uris":{"android":"levelo://app?vid=a4c6538b-619e-4d07-a605-a0fcb5383598","ios":"levelo://app?vid=a4c6538b-619e-4d07-a605-a0fcb5383598"},"vehicle_type_id":"4","last_reported":1743354478,"current_range_meters":4800,"station_id":"ce4bh2h2rcd13ifvqdh0","pricing_plan_id":"cebpf4jnsgd1na2vs0mg"},{"bike_id":"08217332-3b4e-4911-be21-1a9355385440","system_id":"levelo_inurba_marseille","lat":43.29786,"lon":5.38111,"is_reserved":false,"is_disabled":false,"rental_uris":{"android":"levelo://app?vid=08217332-3b4e-4911-be21-1a9355385440","ios":"levelo://app?vid=08217332-3b4e-4911-be21-1a9355385440"},"vehicle_type_id":"4","last_reported":1743354478,"current_range_meters":4800,"station_id":"ce4bgip2rcd13ifvqbb0","pricing_plan_id":"cebpf4jnsgd1na2vs0mg"},{"bike_id":"74ece209-cd6d-41d1-aadc-7d97c5f84152","system_id":"levelo_inurba_marseille","lat":43.29422,"lon":5.38624,"is_reserved":false,"is_disabled":false,"rental_uris":{"android":"levelo://app?vid=74ece209-cd6d-41d1-aadc-7d97c5f84152","ios":"levelo://app?vid=74ece209-cd6d-41d1-aadc-7d97c5f84152"},"vehicle_type_id":"4","last_reported":1743354478,"current_range_meters":5600,"station_id":"ce4bh2h2rcd13ifvqdh0","pricing_plan_id":"cebpf4jnsgd1na2vs0mg"},{"bike_id":"5c0a1fd8-e8d8-46b0-b59b-e1254855ec6a","system_id":"levelo_inurba_marseille","lat":43.30326,"lon":5.40431,"is_reserved":false,"is_disabled":false,"rental_uris":{"android":"levelo://app?vid=5c0a1fd8-e8d8-46b0-b59b-e1254855ec6a","ios":"levelo://app?vid=5c0a1fd8-e8d8-46b0-b59b-e1254855ec6a"},"vehicle_type_id":"4","last_reported":1743354478,"current_range_meters":4800,"station_id":"ce4bh012rcd13ifvqd10","pricing_plan_id":"cebpf4jnsgd1na2vs0mg"},{"bike_id":"42e2b83a-7a61-4284-8fc4-57c9f8b4cc16","system_id":"levelo_inurba_marseille","lat":43.28606,"lon":5.37068,"is_reserved":false,"is_disabled":false,"rental_uris":{"android":"levelo://app?vid=42e2b83a-7a61-4284-8fc4-57c9f8b4cc16","ios":"levelo://app?vid=42e2b83a-7a61-4284-8fc4-57c9f8b4cc16"},"vehicle_type_id":"4","last_reported":1743354478,"current_range_meters":4800,"station_id":"ce4bht12rcd13ifvqi60","pricing_plan_id":"cebpf4jnsgd1na2vs0mg"},{"bike_id":"0f09eaf3-a334-4804-a7cd-2643bee6e30b","system_id":"levelo_inurba_marseille","lat":43.3016,"lon":5.38104,"is_reserved":false,"is_disabled":false,"rental_uris":{"android":"levelo://app?vid=0f09eaf3-a334-4804-a7cd-2643bee6e30b","ios":"levelo://app?vid=0f09eaf3-a334-4804-a7cd-2643bee6e30b"},"vehicle_type_id":"4","last_reported":1743354478,"current_range_meters":4800,"station_id":"ce4bgjp2rcd13ifvqbh0","pricing_plan_id":"cebpf4jnsgd1na2vs0mg"},{"bike_id":"712d5ede-33be-42f9-8c96-605bf078fa59","system_id":"levelo_inurba_marseille","lat":43.24173,"lon":5.36398,"is_reserved":false,"is_disabled":false,"rental_uris":{"android":"levelo://app?vid=712d5ede-33be-42f9-8c96-605bf078fa59","ios":"levelo://app?vid=712d5ede-33be-42f9-8c96-605bf078fa59"},"vehicle_type_id":"4","last_reported":1743354478,"current_range_meters":5600,"station_id":"cpo36qri1sfpv3e86is0","pricing_plan_id":"cebpf4jnsgd1na2vs0mg"},{"bike_id":"603d50f9-1fa9-441c-a467-8f0460aecc04","system_id":"levelo_inurba_marseille","lat":43.29021,"lon":5.38644,"is_reserved":false,"is_disabled":false,"rental_uris":{"android":"levelo://app?vid=603d50f9-1fa9-441c-a467-8f0460aecc04","ios":"levelo://app?vid=603d50f9-1fa9-441c-a467-8f0460aecc04"},"vehicle_type_id":"4","last_reported":1743354478,"current_range_meters":5600,"station_id":"ce4bh4p2rcd13ifvqe0g","pricing_plan_id":"cebpf4jnsgd1na2vs0mg"},{"bike_id":"be651f99-a89c-46d4-bfb5-3e44c4a81872","system_id":"levelo_inurba_marseille","lat":43.29201,"lon":5.35806,"is_reserved":false,"is_disabled":false,"rental_uris":{"android":"levelo://app?vid=be651f99-a89c-46d4-bfb5-3e44c4a81872","ios":"levelo://app?vid=be651f99-a89c-46d4-bfb5-3e44c4a81872"},"vehicle_type_id":"4","last_reported":1743354478,"current_range_meters":5600,"station_id":"ce4bhb12rcd13ifvqel0","pricing_plan_id":"cebpf4jnsgd1na2vs0mg"},{"bike_id":"2d869b97-2fb7-4a6f-a29f-d1a9bfb0f899","system_id":"levelo_inurba_marseille","lat":43.284608,"lon":5.358801,"is_reserved":false,"is_disabled":false,"rental_uris":{"android":"levelo://app?vid=2d869b97-2fb7-4a6f-a29f-d1a9bfb0f899","ios":"levelo://app?vid=2d869b97-2fb7-4a6f-a29f-d1a9bfb0f899"},"vehicle_type_id":"4","last_reported":1743354478,"current_range_meters":5600,"station_id":"ce4bhah2rcd13ifvqei0","pricing_plan_id":"cebpf4jnsgd1na2vs0mg"},{"bike_id":"96fa1290-e699-40b9-9109-379d3b77c6fb","system_id":"levelo_inurba_marseille","lat":43.33728,"lon":5.3919,"is_reserved":false,"is_disabled":false,"rental_uris":{"android":"levelo://app?vid=96fa1290-e699-40b9-9109-379d3b77c6fb","ios":"levelo://app?vid=96fa1290-e699-40b9-9109-379d3b77c6fb"},"vehicle_type_id":"4","last_reported":1743354478,"current_range_meters":6000,"station_id":"ce4bhr92rcd13ifvqhsg","pricing_plan_id":"cebpf4jnsgd1na2vs0mg"},{"bike_id":"bf7fbe64-89fa-4028-9a18-1edcf561fda4","system_id":"levelo_inurba_marseille","lat":43.276685,"lon":5.388799,"is_reserved":false,"is_disabled":false,"rental_uris":{"android":"levelo://app?vid=bf7fbe64-89fa-4028-9a18-1edcf561fda4","ios":"levelo://app?vid=bf7fbe64-89fa-4028-9a18-1edcf561fda4"},"vehicle_type_id":"4","last_reported":1743354478,"current_range_meters":6000,"station_id":"","pricing_plan_id":"cebpf4jnsgd1na2vs0mg"},{"bike_id":"56bab4b8-903a-41b0-a5ed-76e5fa801ca1","system_id":"levelo_inurba_marseille","lat":43.298733,"lon":5.397343,"is_reserved":false,"is_disabled":false,"rental_uris":{"android":"levelo://app?vid=56bab4b8-903a-41b0-a5ed-76e5fa801ca1","ios":"levelo://app?vid=56bab4b8-903a-41b0-a5ed-76e5fa801ca1"},"vehicle_type_id":"4","last_reported":1743354478,"current_range_meters":7200,"station_id":"ce4bgk12rcd13ifvqbi0","pricing_plan_id":"cebpf4jnsgd1na2vs0mg"},{"bike_id":"fde64934-75cc-40cb-a2a5-e1d4c9f4683f","system_id":"levelo_inurba_marseille","lat":43.28472,"lon":5.38411,"is_reserved":false,"is_disabled":false,"rental_uris":{"android":"levelo://app?vid=fde64934-75cc-40cb-a2a5-e1d4c9f4683f","ios":"levelo://app?vid=fde64934-75cc-40cb-a2a5-e1d4c9f4683f"},"vehicle_type_id":"4","last_reported":1743354478,"current_range_meters":6000,"station_id":"ce4bh512rcd13ifvqe3g","pricing_plan_id":"cebpf4jnsgd1na2vs0mg"},{"bike_id":"57b8eff0-7be4-4a50-9fcd-50c9425d0b76","system_id":"levelo_inurba_marseille","lat":43.29261,"lon":5.40911,"is_reserved":false,"is_disabled":false,"rental_uris":{"android":"levelo://app?vid=57b8eff0-7be4-4a50-9fcd-50c9425d0b76","ios":"levelo://app?vid=57b8eff0-7be4-4a50-9fcd-50c9425d0b76"},"vehicle_type_id":"4","last_reported":1743354478,"current_range_meters":6400,"station_id":"ce4bh192rcd13ifvqdc0","pricing_plan_id":"cebpf4jnsgd1na2vs0mg"},{"bike_id":"51d40481-50ad-4398-904f-91066bdcb5df","system_id":"levelo_inurba_marseille","lat":43.29374,"lon":5.37866,"is_reserved":false,"is_disabled":false,"rental_uris":{"android":"levelo://app?vid=51d40481-50ad-4398-904f-91066bdcb5df","ios":"levelo://app?vid=51d40481-50ad-4398-904f-91066bdcb5df"},"vehicle_type_id":"4","last_reported":1743354478,"current_range_meters":6000,"station_id":"ce4bgjh2rcd13ifvqbf0","pricing_plan_id":"cebpf4jnsgd1na2vs0mg"},{"bike_id":"cfd70d70-c581-45d8-a50b-d61421bbe23f","system_id":"levelo_inurba_marseille","lat":43.23194,"lon":5.35551,"is_reserved":false,"is_disabled":false,"rental_uris":{"android":"levelo://app?vid=cfd70d70-c581-45d8-a50b-d61421bbe23f","ios":"levelo://app?vid=cfd70d70-c581-45d8-a50b-d61421bbe23f"},"vehicle_type_id":"4","last_reported":1743354478,"current_range_meters":6400,"station_id":"ce4bhu92rcd13ifvqi70","pricing_plan_id":"cebpf4jnsgd1na2vs0mg"},{"bike_id":"2a8d2633-c7b3-42e7-b12e-ae52471bca0d","system_id":"levelo_inurba_marseille","lat":43.26226,"lon":5.40455,"is_reserved":false,"is_disabled":false,"rental_uris":{"android":"levelo://app?vid=2a8d2633-c7b3-42e7-b12e-ae52471bca0d","ios":"levelo://app?vid=2a8d2633-c7b3-42e7-b12e-ae52471bca0d"},"vehicle_type_id":"4","last_reported":1743354478,"current_range_meters":6400,"station_id":"ce4bhmh2rcd13ifvqgmg","pricing_plan_id":"cebpf4jnsgd1na2vs0mg"},{"bike_id":"f3c0e0d9-0006-4db9-916f-a226b84c1430","system_id":"levelo_inurba_marseille","lat":43.304367,"lon":5.367379,"is_reserved":false,"is_disabled":false,"rental_uris":{"android":"levelo://app?vid=f3c0e0d9-0006-4db9-916f-a226b84c1430","ios":"levelo://app?vid=f3c0e0d9-0006-4db9-916f-a226b84c1430"},"vehicle_type_id":"4","last_reported":1743354478,"current_range_meters":6400,"station_id":"ce4bgrp2rcd13ifvqc9g","pricing_plan_id":"cebpf4jnsgd1na2vs0mg"},{"bike_id":"5cacda67-0697-43bb-acaa-494ee37c6cde","system_id":"levelo_inurba_marseille","lat":43.23187,"lon":5.35569,"is_reserved":false,"is_disabled":false,"rental_uris":{"android":"levelo://app?vid=5cacda67-0697-43bb-acaa-494ee37c6cde","ios":"levelo://app?vid=5cacda67-0697-43bb-acaa-494ee37c6cde"},"vehicle_type_id":"4","last_reported":1743354478,"current_range_meters":6800,"station_id":"ce4bhu92rcd13ifvqi70","pricing_plan_id":"cebpf4jnsgd1na2vs0mg"},{"bike_id":"8293047b-1758-4050-aff2-3751428f9d52","system_id":"levelo_inurba_marseille","lat":43.30215,"lon":5.39469,"is_reserved":false,"is_disabled":false,"rental_uris":{"android":"levelo://app?vid=8293047b-1758-4050-aff2-3751428f9d52","ios":"levelo://app?vid=8293047b-1758-4050-aff2-3751428f9d52"},"vehicle_type_id":"4","last_reported":1743354478,"current_range_meters":6400,"station_id":"ce4bh0p2rcd13ifvqd70","pricing_plan_id":"cebpf4jnsgd1na2vs0mg"},{"bike_id":"714a4f0b-a43c-4b60-9965-f459a37a3489","system_id":"levelo_inurba_marseille","lat":43.33141,"lon":5.3862,"is_reserved":false,"is_disabled":false,"rental_uris":{"android":"levelo://app?vid=714a4f0b-a43c-4b60-9965-f459a37a3489","ios":"levelo://app?vid=714a4f0b-a43c-4b60-9965-f459a37a3489"},"vehicle_type_id":"4","last_reported":1743354478,"current_range_meters":6400,"station_id":"","pricing_plan_id":"cebpf4jnsgd1na2vs0mg"},{"bike_id":"3b9e2dbb-dda4-4ed5-8aef-7e67e6437f0d","system_id":"levelo_inurba_marseille","lat":43.33343,"lon":5.40175,"is_reserved":false,"is_disabled":false,"rental_uris":{"android":"levelo://app?vid=3b9e2dbb-dda4-4ed5-8aef-7e67e6437f0d","ios":"levelo://app?vid=3b9e2dbb-dda4-4ed5-8aef-7e67e6437f0d"},"vehicle_type_id":"4","last_reported":1743354478,"current_range_meters":6400,"station_id":"","pricing_plan_id":"cebpf4jnsgd1na2vs0mg"},{"bike_id":"4243a2b0-ae2b-4413-86a0-dc166b8594bc","system_id":"levelo_inurba_marseille","lat":43.24658,"lon":5.38184,"is_reserved":false,"is_disabled":false,"rental_uris":{"android":"levelo://app?vid=4243a2b0-ae2b-4413-86a0-dc166b8594bc","ios":"levelo://app?vid=4243a2b0-ae2b-4413-86a0-dc166b8594bc"},"vehicle_type_id":"4","last_reported":1743354478,"current_range_meters":6800,"station_id":"ce4bhih2rcd13ifvqfr0","pricing_plan_id":"cebpf4jnsgd1na2vs0mg"},{"bike_id":"47f32667-8841-4776-a5a0-148b575a85c2","system_id":"levelo_inurba_marseille","lat":43.29934,"lon":5.36545,"is_reserved":false,"is_disabled":false,"rental_uris":{"android":"levelo://app?vid=47f32667-8841-4776-a5a0-148b575a85c2","ios":"levelo://app?vid=47f32667-8841-4776-a5a0-148b575a85c2"},"vehicle_type_id":"4","last_reported":1743354478,"current_range_meters":6800,"station_id":"ce4bh292rcd13ifvqdf0","pricing_plan_id":"cebpf4jnsgd1na2vs0mg"},{"bike_id":"30ef76c6-7ff6-461d-b4b2-d9417d769abe","system_id":"levelo_inurba_marseille","lat":43.28472,"lon":5.3841,"is_reserved":false,"is_disabled":false,"rental_uris":{"android":"levelo://app?vid=30ef76c6-7ff6-461d-b4b2-d9417d769abe","ios":"levelo://app?vid=30ef76c6-7ff6-461d-b4b2-d9417d769abe"},"vehicle_type_id":"4","last_reported":1743354478,"current_range_meters":6800,"station_id":"ce4bh512rcd13ifvqe3g","pricing_plan_id":"cebpf4jnsgd1na2vs0mg"},{"bike_id":"7c0e2e74-427a-48ab-900f-1e2522e07905","system_id":"levelo_inurba_marseille","lat":43.2846,"lon":5.35885,"is_reserved":false,"is_disabled":false,"rental_uris":{"android":"levelo://app?vid=7c0e2e74-427a-48ab-900f-1e2522e07905","ios":"levelo://app?vid=7c0e2e74-427a-48ab-900f-1e2522e07905"},"vehicle_type_id":"4","last_reported":1743354478,"current_range_meters":6800,"station_id":"ce4bhah2rcd13ifvqei0","pricing_plan_id":"cebpf4jnsgd1na2vs0mg"},{"bike_id":"5a8fa100-f479-4baa-8be7-e435adf8c494","system_id":"levelo_inurba_marseille","lat":43.292701,"lon":5.368395,"is_reserved":false,"is_disabled":false,"rental_uris":{"android":"levelo://app?vid=5a8fa100-f479-4baa-8be7-e435adf8c494","ios":"levelo://app?vid=5a8fa100-f479-4baa-8be7-e435adf8c494"},"vehicle_type_id":"4","last_reported":1743354478,"current_range_meters":6800,"station_id":"ce4bhbp2rcd13ifvqesg","pricing_plan_id":"cebpf4jnsgd1na2vs0mg"},{"bike_id":"1883c27e-144c-41ce-ab4f-aa27cd372bb9","system_id":"levelo_inurba_marseille","lat":43.28041,"lon":5.36937,"is_reserved":false,"is_disabled":false,"rental_uris":{"android":"levelo://app?vid=1883c27e-144c-41ce-ab4f-aa27cd372bb9","ios":"levelo://app?vid=1883c27e-144c-41ce-ab4f-aa27cd372bb9"},"vehicle_type_id":"4","last_reported":1743354478,"current_range_meters":6800,"station_id":"ce4bha12rcd13ifvqef0","pricing_plan_id":"cebpf4jnsgd1na2vs0mg"},{"bike_id":"155b8090-08a6-4dcc-aa90-27ac46e0c1bd","system_id":"levelo_inurba_marseille","lat":43.29876,"lon":5.38909,"is_reserved":false,"is_disabled":false,"rental_uris":{"android":"levelo://app?vid=155b8090-08a6-4dcc-aa90-27ac46e0c1bd","ios":"levelo://app?vid=155b8090-08a6-4dcc-aa90-27ac46e0c1bd"},"vehicle_type_id":"4","last_reported":1743354478,"current_range_meters":6800,"station_id":"ce4bh392rcd13ifvqdl0","pricing_plan_id":"cebpf4jnsgd1na2vs0mg"},{"bike_id":"eedcb583-fa83-46b9-8b75-20ab861af81f","system_id":"levelo_inurba_marseille","lat":43.29923,"lon":5.36543,"is_reserved":false,"is_disabled":false,"rental_uris":{"android":"levelo://app?vid=eedcb583-fa83-46b9-8b75-20ab861af81f","ios":"levelo://app?vid=eedcb583-fa83-46b9-8b75-20ab861af81f"},"vehicle_type_id":"4","last_reported":1743354478,"current_range_meters":6800,"station_id":"ce4bgm92rcd13ifvqbr0","pricing_plan_id":"cebpf4jnsgd1na2vs0mg"},{"bike_id":"5a3307a6-54ca-44bc-a5fd-ab80751e6464","system_id":"levelo_inurba_marseille","lat":43.23195,"lon":5.39988,"is_reserved":false,"is_disabled":true,"rental_uris":{"android":"levelo://app?vid=5a3307a6-54ca-44bc-a5fd-ab80751e6464","ios":"levelo://app?vid=5a3307a6-54ca-44bc-a5fd-ab80751e6464"},"vehicle_type_id":"4","last_reported":1743354478,"current_range_meters":6800,"station_id":"ce4bhn12rcd13ifvqgqg","pricing_plan_id":"cebpf4jnsgd1na2vs0mg"},{"bike_id":"f4514236-06e3-48aa-92bb-49d186118376","system_id":"levelo_inurba_marseille","lat":43.24164,"lon":5.36406,"is_reserved":false,"is_disabled":false,"rental_uris":{"android":"levelo://app?vid=f4514236-06e3-48aa-92bb-49d186118376","ios":"levelo://app?vid=f4514236-06e3-48aa-92bb-49d186118376"},"vehicle_type_id":"4","last_reported":1743354478,"current_range_meters":6800,"station_id":"cpo36qri1sfpv3e86is0","pricing_plan_id":"cebpf4jnsgd1na2vs0mg"},{"bike_id":"1ee3ce0e-dd2d-47f9-9e65-0b791d57c83d","system_id":"levelo_inurba_marseille","lat":43.24172,"lon":5.36418,"is_reserved":false,"is_disabled":false,"rental_uris":{"android":"levelo://app?vid=1ee3ce0e-dd2d-47f9-9e65-0b791d57c83d","ios":"levelo://app?vid=1ee3ce0e-dd2d-47f9-9e65-0b791d57c83d"},"vehicle_type_id":"4","last_reported":1743354478,"current_range_meters":7200,"station_id":"cpo36qri1sfpv3e86is0","pricing_plan_id":"cebpf4jnsgd1na2vs0mg"},{"bike_id":"b2e6e5f9-815c-46ac-bebd-de4e22a8e049","system_id":"levelo_inurba_marseille","lat":43.33199,"lon":5.39596,"is_reserved":false,"is_disabled":false,"rental_uris":{"android":"levelo://app?vid=b2e6e5f9-815c-46ac-bebd-de4e22a8e049","ios":"levelo://app?vid=b2e6e5f9-815c-46ac-bebd-de4e22a8e049"},"vehicle_type_id":"4","last_reported":1743354478,"current_range_meters":7200,"station_id":"","pricing_plan_id":"cebpf4jnsgd1na2vs0mg"},{"bike_id":"96ac20e8-5840-4579-b371-184ec6253952","system_id":"levelo_inurba_marseille","lat":43.27517,"lon":5.41196,"is_reserved":false,"is_disabled":false,"rental_uris":{"android":"levelo://app?vid=96ac20e8-5840-4579-b371-184ec6253952","ios":"levelo://app?vid=96ac20e8-5840-4579-b371-184ec6253952"},"vehicle_type_id":"4","last_reported":1743354478,"current_range_meters":7200,"station_id":"","pricing_plan_id":"cebpf4jnsgd1na2vs0mg"},{"bike_id":"861fba4a-9c12-463c-8a39-b4a694ea5d40","system_id":"levelo_inurba_marseille","lat":43.23951,"lon":5.3663,"is_reserved":false,"is_disabled":true,"rental_uris":{"android":"levelo://app?vid=861fba4a-9c12-463c-8a39-b4a694ea5d40","ios":"levelo://app?vid=861fba4a-9c12-463c-8a39-b4a694ea5d40"},"vehicle_type_id":"4","last_reported":1743354478,"current_range_meters":7200,"station_id":"ce4bhi12rcd13ifvqfp0","pricing_plan_id":"cebpf4jnsgd1na2vs0mg"},{"bike_id":"667d382b-1ac6-476e-9481-d1ff5f32e249","system_id":"levelo_inurba_marseille","lat":43.24803,"lon":5.37453,"is_reserved":false,"is_disabled":false,"rental_uris":{"android":"levelo://app?vid=667d382b-1ac6-476e-9481-d1ff5f32e249","ios":"levelo://app?vid=667d382b-1ac6-476e-9481-d1ff5f32e249"},"vehicle_type_id":"4","last_reported":1743354478,"current_range_meters":7200,"station_id":"ce4bhgh2rcd13ifvqfb0","pricing_plan_id":"cebpf4jnsgd1na2vs0mg"},{"bike_id":"6c29b2ef-075f-4daf-8a1a-8da6b3ff1e62","system_id":"levelo_inurba_marseille","lat":43.28154,"lon":5.42644,"is_reserved":false,"is_disabled":false,"rental_uris":{"android":"levelo://app?vid=6c29b2ef-075f-4daf-8a1a-8da6b3ff1e62","ios":"levelo://app?vid=6c29b2ef-075f-4daf-8a1a-8da6b3ff1e62"},"vehicle_type_id":"4","last_reported":1743354478,"current_range_meters":7200,"station_id":"ce4bhnh2rcd13ifvqgug","pricing_plan_id":"cebpf4jnsgd1na2vs0mg"},{"bike_id":"2b516f74-291f-405c-85d2-3a367e47cdd5","system_id":"levelo_inurba_marseille","lat":43.29162,"lon":5.37161,"is_reserved":false,"is_disabled":false,"rental_uris":{"android":"levelo://app?vid=2b516f74-291f-405c-85d2-3a367e47cdd5","ios":"levelo://app?vid=2b516f74-291f-405c-85d2-3a367e47cdd5"},"vehicle_type_id":"4","last_reported":1743354478,"current_range_meters":7200,"station_id":"ce4bha92rcd13ifvqeh0","pricing_plan_id":"cebpf4jnsgd1na2vs0mg"},{"bike_id":"f4f43b3a-6344-4ad3-904a-139a61c7bd90","system_id":"levelo_inurba_marseille","lat":43.284748,"lon":5.384432,"is_reserved":false,"is_disabled":false,"rental_uris":{"android":"levelo://app?vid=f4f43b3a-6344-4ad3-904a-139a61c7bd90","ios":"levelo://app?vid=f4f43b3a-6344-4ad3-904a-139a61c7bd90"},"vehicle_type_id":"4","last_reported":1743354478,"current_range_meters":7200,"station_id":"ce4bhoh2rcd13ifvqh5g","pricing_plan_id":"cebpf4jnsgd1na2vs0mg"},{"bike_id":"e6b237ea-6a2c-4ba7-8b42-e284823c64e6","system_id":"levelo_inurba_marseille","lat":43.29833,"lon":5.36296,"is_reserved":false,"is_disabled":true,"rental_uris":{"android":"levelo://app?vid=e6b237ea-6a2c-4ba7-8b42-e284823c64e6","ios":"levelo://app?vid=e6b237ea-6a2c-4ba7-8b42-e284823c64e6"},"vehicle_type_id":"4","last_reported":1743354478,"current_range_meters":7200,"station_id":"ce4bgpp2rcd13ifvqc3g","pricing_plan_id":"cebpf4jnsgd1na2vs0mg"},{"bike_id":"a1b5a514-f0ef-42eb-b1a4-22dd30a86324","system_id":"levelo_inurba_marseille","lat":43.31766,"lon":5.39035,"is_reserved":false,"is_disabled":false,"rental_uris":{"android":"levelo://app?vid=a1b5a514-f0ef-42eb-b1a4-22dd30a86324","ios":"levelo://app?vid=a1b5a514-f0ef-42eb-b1a4-22dd30a86324"},"vehicle_type_id":"4","last_reported":1743354478,"current_range_meters":7200,"station_id":"ce4bhqp2rcd13ifvqhng","pricing_plan_id":"cebpf4jnsgd1na2vs0mg"},{"bike_id":"f49e450c-ed7a-4446-9db4-14af6c6595dd","system_id":"levelo_inurba_marseille","lat":43.29038,"lon":5.37559,"is_reserved":false,"is_disabled":false,"rental_uris":{"android":"levelo://app?vid=f49e450c-ed7a-4446-9db4-14af6c6595dd","ios":"levelo://app?vid=f49e450c-ed7a-4446-9db4-14af6c6595dd"},"vehicle_type_id":"4","last_reported":1743354478,"current_range_meters":8000,"station_id":"ce4bh692rcd13ifvqe90","pricing_plan_id":"cebpf4jnsgd1na2vs0mg"},{"bike_id":"d0ed36b4-3c5a-4da6-8fb4-955c321dd03a","system_id":"levelo_inurba_marseille","lat":43.27511,"lon":5.41033,"is_reserved":false,"is_disabled":false,"rental_uris":{"android":"levelo://app?vid=d0ed36b4-3c5a-4da6-8fb4-955c321dd03a","ios":"levelo://app?vid=d0ed36b4-3c5a-4da6-8fb4-955c321dd03a"},"vehicle_type_id":"4","last_reported":1743354478,"current_range_meters":8000,"station_id":"","pricing_plan_id":"cebpf4jnsgd1na2vs0mg"},{"bike_id":"42bc7b23-0e2f-4d72-b583-40bcdabb28c7","system_id":"levelo_inurba_marseille","lat":43.29543,"lon":5.3738,"is_reserved":false,"is_disabled":false,"rental_uris":{"android":"levelo://app?vid=42bc7b23-0e2f-4d72-b583-40bcdabb28c7","ios":"levelo://app?vid=42bc7b23-0e2f-4d72-b583-40bcdabb28c7"},"vehicle_type_id":"4","last_reported":1743354478,"current_range_meters":8000,"station_id":"","pricing_plan_id":"cebpf4jnsgd1na2vs0mg"},{"bike_id":"eb226d76-5212-4ab9-ae35-4c2db734cd53","system_id":"levelo_inurba_marseille","lat":43.31104,"lon":5.42438,"is_reserved":false,"is_disabled":false,"rental_uris":{"android":"levelo://app?vid=eb226d76-5212-4ab9-ae35-4c2db734cd53","ios":"levelo://app?vid=eb226d76-5212-4ab9-ae35-4c2db734cd53"},"vehicle_type_id":"4","last_reported":1743354478,"current_range_meters":8000,"station_id":"ce4bhp92rcd13ifvqhag","pricing_plan_id":"cebpf4jnsgd1na2vs0mg"},{"bike_id":"488767ae-a52a-41d7-8f9a-e947164469f3","system_id":"levelo_inurba_marseille","lat":43.31624,"lon":5.41652,"is_reserved":false,"is_disabled":true,"rental_uris":{"android":"levelo://app?vid=488767ae-a52a-41d7-8f9a-e947164469f3","ios":"levelo://app?vid=488767ae-a52a-41d7-8f9a-e947164469f3"},"vehicle_type_id":"4","last_reported":1743354478,"current_range_meters":8000,"station_id":"","pricing_plan_id":"cebpf4jnsgd1na2vs0mg"},{"bike_id":"747d2bc2-6706-42d9-8381-8fcc8fac62bd","system_id":"levelo_inurba_marseille","lat":43.2901,"lon":5.37162,"is_reserved":false,"is_disabled":true,"rental_uris":{"android":"levelo://app?vid=747d2bc2-6706-42d9-8381-8fcc8fac62bd","ios":"levelo://app?vid=747d2bc2-6706-42d9-8381-8fcc8fac62bd"},"vehicle_type_id":"4","last_reported":1743354478,"current_range_meters":8000,"station_id":"","pricing_plan_id":"cebpf4jnsgd1na2vs0mg"},{"bike_id":"bc379bb2-dffc-425d-862e-4d8ac6a8e063","system_id":"levelo_inurba_marseille","lat":43.24806,"lon":5.37454,"is_reserved":false,"is_disabled":false,"rental_uris":{"android":"levelo://app?vid=bc379bb2-dffc-425d-862e-4d8ac6a8e063","ios":"levelo://app?vid=bc379bb2-dffc-425d-862e-4d8ac6a8e063"},"vehicle_type_id":"4","last_reported":1743354478,"current_range_meters":8000,"station_id":"ce4bhgh2rcd13ifvqfb0","pricing_plan_id":"cebpf4jnsgd1na2vs0mg"},{"bike_id":"99864047-3ac3-45c4-a913-53ee9cea7446","system_id":"levelo_inurba_marseille","lat":43.28715,"lon":5.37432,"is_reserved":false,"is_disabled":true,"rental_uris":{"android":"levelo://app?vid=99864047-3ac3-45c4-a913-53ee9cea7446","ios":"levelo://app?vid=99864047-3ac3-45c4-a913-53ee9cea7446"},"vehicle_type_id":"4","last_reported":1743354478,"current_range_meters":8000,"station_id":"ce4bh3p2rcd13ifvqdq0","pricing_plan_id":"cebpf4jnsgd1na2vs0mg"},{"bike_id":"37f41d5f-3983-4db2-8781-c345307ed7b9","system_id":"levelo_inurba_marseille","lat":43.275,"lon":5.4245,"is_reserved":false,"is_disabled":false,"rental_uris":{"android":"levelo://app?vid=37f41d5f-3983-4db2-8781-c345307ed7b9","ios":"levelo://app?vid=37f41d5f-3983-4db2-8781-c345307ed7b9"},"vehicle_type_id":"4","last_reported":1743354478,"current_range_meters":8000,"station_id":"ce4bhn92rcd13ifvqgrg","pricing_plan_id":"cebpf4jnsgd1na2vs0mg"},{"bike_id":"c160f136-9cd7-4eb8-ae97-eb78a2220415","system_id":"levelo_inurba_marseille","lat":43.27673,"lon":5.38876,"is_reserved":false,"is_disabled":false,"rental_uris":{"android":"levelo://app?vid=c160f136-9cd7-4eb8-ae97-eb78a2220415","ios":"levelo://app?vid=c160f136-9cd7-4eb8-ae97-eb78a2220415"},"vehicle_type_id":"4","last_reported":1743354478,"current_range_meters":8000,"station_id":"ce4bhi12rcd13ifvqfo0","pricing_plan_id":"cebpf4jnsgd1na2vs0mg"},{"bike_id":"bfee39d2-75cd-4077-a114-2508c8c21cde","system_id":"levelo_inurba_marseille","lat":43.288905,"lon":5.359406,"is_reserved":false,"is_disabled":false,"rental_uris":{"android":"levelo://app?vid=bfee39d2-75cd-4077-a114-2508c8c21cde","ios":"levelo://app?vid=bfee39d2-75cd-4077-a114-2508c8c21cde"},"vehicle_type_id":"4","last_reported":1743354478,"current_range_meters":8000,"station_id":"cki0cbj6b192h4jlfktg","pricing_plan_id":"cebpf4jnsgd1na2vs0mg"},{"bike_id":"daab60b7-c8cb-4cca-ba15-a9ddd3f6d114","system_id":"levelo_inurba_marseille","lat":43.29251,"lon":5.38437,"is_reserved":false,"is_disabled":false,"rental_uris":{"android":"levelo://app?vid=daab60b7-c8cb-4cca-ba15-a9ddd3f6d114","ios":"levelo://app?vid=daab60b7-c8cb-4cca-ba15-a9ddd3f6d114"},"vehicle_type_id":"4","last_reported":1743354478,"current_range_meters":8400,"station_id":"ce4bh692rcd13ifvqea0","pricing_plan_id":"cebpf4jnsgd1na2vs0mg"},{"bike_id":"25bb5fbc-8229-4010-b703-31f5ee6ac141","system_id":"levelo_inurba_marseille","lat":43.30648,"lon":5.36598,"is_reserved":false,"is_disabled":false,"rental_uris":{"android":"levelo://app?vid=25bb5fbc-8229-4010-b703-31f5ee6ac141","ios":"levelo://app?vid=25bb5fbc-8229-4010-b703-31f5ee6ac141"},"vehicle_type_id":"4","last_reported":1743354478,"current_range_meters":8400,"station_id":"","pricing_plan_id":"cebpf4jnsgd1na2vs0mg"},{"bike_id":"05554e5f-4ad5-422d-b19e-4fe0f3f66f25","system_id":"levelo_inurba_marseille","lat":43.28456,"lon":5.35885,"is_reserved":false,"is_disabled":false,"rental_uris":{"android":"levelo://app?vid=05554e5f-4ad5-422d-b19e-4fe0f3f66f25","ios":"levelo://app?vid=05554e5f-4ad5-422d-b19e-4fe0f3f66f25"},"vehicle_type_id":"4","last_reported":1743354478,"current_range_meters":8400,"station_id":"ce4bhah2rcd13ifvqei0","pricing_plan_id":"cebpf4jnsgd1na2vs0mg"},{"bike_id":"52622037-145b-47a5-b8eb-ce295b86f798","system_id":"levelo_inurba_marseille","lat":43.296053,"lon":5.37645,"is_reserved":false,"is_disabled":false,"rental_uris":{"android":"levelo://app?vid=52622037-145b-47a5-b8eb-ce295b86f798","ios":"levelo://app?vid=52622037-145b-47a5-b8eb-ce295b86f798"},"vehicle_type_id":"4","last_reported":1743354478,"current_range_meters":8400,"station_id":"ce4bhb12rcd13ifvqem0","pricing_plan_id":"cebpf4jnsgd1na2vs0mg"},{"bike_id":"45162874-0b2f-49a7-90ad-78bab0970119","system_id":"levelo_inurba_marseille","lat":43.29799,"lon":5.38101,"is_reserved":false,"is_disabled":false,"rental_uris":{"android":"levelo://app?vid=45162874-0b2f-49a7-90ad-78bab0970119","ios":"levelo://app?vid=45162874-0b2f-49a7-90ad-78bab0970119"},"vehicle_type_id":"4","last_reported":1743354478,"current_range_meters":8400,"station_id":"ce4bgip2rcd13ifvqbb0","pricing_plan_id":"cebpf4jnsgd1na2vs0mg"},{"bike_id":"cb9007d3-2ce2-45f8-a380-cf8de9bc9025","system_id":"levelo_inurba_marseille","lat":43.30168,"lon":5.39834,"is_reserved":false,"is_disabled":false,"rental_uris":{"android":"levelo://app?vid=cb9007d3-2ce2-45f8-a380-cf8de9bc9025","ios":"levelo://app?vid=cb9007d3-2ce2-45f8-a380-cf8de9bc9025"},"vehicle_type_id":"4","last_reported":1743354478,"current_range_meters":8400,"station_id":"ce4bh0h2rcd13ifvqd40","pricing_plan_id":"cebpf4jnsgd1na2vs0mg"},{"bike_id":"915f875a-1d86-4319-b636-2c4274059607","system_id":"levelo_inurba_marseille","lat":43.24172,"lon":5.3642,"is_reserved":false,"is_disabled":false,"rental_uris":{"android":"levelo://app?vid=915f875a-1d86-4319-b636-2c4274059607","ios":"levelo://app?vid=915f875a-1d86-4319-b636-2c4274059607"},"vehicle_type_id":"4","last_reported":1743354478,"current_range_meters":8400,"station_id":"cpo36qri1sfpv3e86is0","pricing_plan_id":"cebpf4jnsgd1na2vs0mg"},{"bike_id":"5aaa0134-1beb-4a38-b59d-bc6555127d1a","system_id":"levelo_inurba_marseille","lat":43.29473,"lon":5.38682,"is_reserved":false,"is_disabled":true,"rental_uris":{"android":"levelo://app?vid=5aaa0134-1beb-4a38-b59d-bc6555127d1a","ios":"levelo://app?vid=5aaa0134-1beb-4a38-b59d-bc6555127d1a"},"vehicle_type_id":"4","last_reported":1743354478,"current_range_meters":8800,"station_id":"","pricing_plan_id":"cebpf4jnsgd1na2vs0mg"},{"bike_id":"f1f937ef-3e56-40c0-91fd-d5a532c01480","system_id":"levelo_inurba_marseille","lat":43.24667,"lon":5.38181,"is_reserved":false,"is_disabled":true,"rental_uris":{"android":"levelo://app?vid=f1f937ef-3e56-40c0-91fd-d5a532c01480","ios":"levelo://app?vid=f1f937ef-3e56-40c0-91fd-d5a532c01480"},"vehicle_type_id":"4","last_reported":1743354478,"current_range_meters":8400,"station_id":"ce4bhih2rcd13ifvqfr0","pricing_plan_id":"cebpf4jnsgd1na2vs0mg"},{"bike_id":"3e3ca1a1-762a-4b2e-b807-703ec515ea41","system_id":"levelo_inurba_marseille","lat":43.29035,"lon":5.38654,"is_reserved":false,"is_disabled":false,"rental_uris":{"android":"levelo://app?vid=3e3ca1a1-762a-4b2e-b807-703ec515ea41","ios":"levelo://app?vid=3e3ca1a1-762a-4b2e-b807-703ec515ea41"},"vehicle_type_id":"4","last_reported":1743354478,"current_range_meters":8400,"station_id":"ce4bh4p2rcd13ifvqe0g","pricing_plan_id":"cebpf4jnsgd1na2vs0mg"},{"bike_id":"2eaeeda0-abf2-43aa-b5a7-77c16ec56c03","system_id":"levelo_inurba_marseille","lat":43.29166,"lon":5.35799,"is_reserved":false,"is_disabled":false,"rental_uris":{"android":"levelo://app?vid=2eaeeda0-abf2-43aa-b5a7-77c16ec56c03","ios":"levelo://app?vid=2eaeeda0-abf2-43aa-b5a7-77c16ec56c03"},"vehicle_type_id":"4","last_reported":1743354478,"current_range_meters":8400,"station_id":"ce4bhb12rcd13ifvqel0","pricing_plan_id":"cebpf4jnsgd1na2vs0mg"},{"bike_id":"4576df33-62a6-4a82-9ad2-6633066a7f89","system_id":"levelo_inurba_marseille","lat":43.30802,"lon":5.38177,"is_reserved":false,"is_disabled":false,"rental_uris":{"android":"levelo://app?vid=4576df33-62a6-4a82-9ad2-6633066a7f89","ios":"levelo://app?vid=4576df33-62a6-4a82-9ad2-6633066a7f89"},"vehicle_type_id":"4","last_reported":1743354478,"current_range_meters":8400,"station_id":"ce4bgt12rcd13ifvqce0","pricing_plan_id":"cebpf4jnsgd1na2vs0mg"},{"bike_id":"3bcf1578-ed77-4bd8-8679-b4db5efc75b8","system_id":"levelo_inurba_marseille","lat":43.2926,"lon":5.38438,"is_reserved":false,"is_disabled":false,"rental_uris":{"android":"levelo://app?vid=3bcf1578-ed77-4bd8-8679-b4db5efc75b8","ios":"levelo://app?vid=3bcf1578-ed77-4bd8-8679-b4db5efc75b8"},"vehicle_type_id":"4","last_reported":1743354478,"current_range_meters":8800,"station_id":"ce4bh692rcd13ifvqea0","pricing_plan_id":"cebpf4jnsgd1na2vs0mg"},{"bike_id":"76d4ed16-8625-4a14-a5f1-d28ac2574c13","system_id":"levelo_inurba_marseille","lat":43.24548,"lon":5.39521,"is_reserved":false,"is_disabled":false,"rental_uris":{"android":"levelo://app?vid=76d4ed16-8625-4a14-a5f1-d28ac2574c13","ios":"levelo://app?vid=76d4ed16-8625-4a14-a5f1-d28ac2574c13"},"vehicle_type_id":"4","last_reported":1743354478,"current_range_meters":8800,"station_id":"ce4bhlp2rcd13ifvqgjg","pricing_plan_id":"cebpf4jnsgd1na2vs0mg"},{"bike_id":"7b3996bd-8489-4d30-b4c0-fc05c60d1cc7","system_id":"levelo_inurba_marseille","lat":43.27918,"lon":5.39583,"is_reserved":false,"is_disabled":false,"rental_uris":{"android":"levelo://app?vid=7b3996bd-8489-4d30-b4c0-fc05c60d1cc7","ios":"levelo://app?vid=7b3996bd-8489-4d30-b4c0-fc05c60d1cc7"},"vehicle_type_id":"4","last_reported":1743354478,"current_range_meters":8800,"station_id":"ce4bhf92rcd13ifvqf40","pricing_plan_id":"cebpf4jnsgd1na2vs0mg"},{"bike_id":"7527d46a-bb4a-4da9-a5fa-cf50bc73ed31","system_id":"levelo_inurba_marseille","lat":43.3014,"lon":5.37422,"is_reserved":false,"is_disabled":false,"rental_uris":{"android":"levelo://app?vid=7527d46a-bb4a-4da9-a5fa-cf50bc73ed31","ios":"levelo://app?vid=7527d46a-bb4a-4da9-a5fa-cf50bc73ed31"},"vehicle_type_id":"4","last_reported":1743354478,"current_range_meters":8800,"station_id":"ce4bgs92rcd13ifvqcc0","pricing_plan_id":"cebpf4jnsgd1na2vs0mg"},{"bike_id":"73484ef5-38ac-45ee-8637-95752d42965e","system_id":"levelo_inurba_marseille","lat":43.30976,"lon":5.37962,"is_reserved":false,"is_disabled":true,"rental_uris":{"android":"levelo://app?vid=73484ef5-38ac-45ee-8637-95752d42965e","ios":"levelo://app?vid=73484ef5-38ac-45ee-8637-95752d42965e"},"vehicle_type_id":"4","last_reported":1743354478,"current_range_meters":8800,"station_id":"","pricing_plan_id":"cebpf4jnsgd1na2vs0mg"},{"bike_id":"19e5b8ed-85f2-479c-a734-555d5bea6989","system_id":"levelo_inurba_marseille","lat":43.23058,"lon":5.35509,"is_reserved":false,"is_disabled":false,"rental_uris":{"android":"levelo://app?vid=19e5b8ed-85f2-479c-a734-555d5bea6989","ios":"levelo://app?vid=19e5b8ed-85f2-479c-a734-555d5bea6989"},"vehicle_type_id":"4","last_reported":1743354478,"current_range_meters":8800,"station_id":"cpo3342slgdg3j2ifvpg","pricing_plan_id":"cebpf4jnsgd1na2vs0mg"},{"bike_id":"0dd895b9-182c-4137-b598-97fe8d790d26","system_id":"levelo_inurba_marseille","lat":43.3064,"lon":5.40089,"is_reserved":false,"is_disabled":false,"rental_uris":{"android":"levelo://app?vid=0dd895b9-182c-4137-b598-97fe8d790d26","ios":"levelo://app?vid=0dd895b9-182c-4137-b598-97fe8d790d26"},"vehicle_type_id":"4","last_reported":1743354478,"current_range_meters":8800,"station_id":"ce4bh112rcd13ifvqda0","pricing_plan_id":"cebpf4jnsgd1na2vs0mg"},{"bike_id":"5ce81545-ad27-4e27-bdfe-1c386f1be178","system_id":"levelo_inurba_marseille","lat":43.29421,"lon":5.38626,"is_reserved":false,"is_disabled":false,"rental_uris":{"android":"levelo://app?vid=5ce81545-ad27-4e27-bdfe-1c386f1be178","ios":"levelo://app?vid=5ce81545-ad27-4e27-bdfe-1c386f1be178"},"vehicle_type_id":"4","last_reported":1743354478,"current_range_meters":8800,"station_id":"ce4bh2h2rcd13ifvqdh0","pricing_plan_id":"cebpf4jnsgd1na2vs0mg"},{"bike_id":"723b1a65-ef43-4231-b1b3-26747433b839","system_id":"levelo_inurba_marseille","lat":43.24991,"lon":5.38929,"is_reserved":false,"is_disabled":false,"rental_uris":{"android":"levelo://app?vid=723b1a65-ef43-4231-b1b3-26747433b839","ios":"levelo://app?vid=723b1a65-ef43-4231-b1b3-26747433b839"},"vehicle_type_id":"4","last_reported":1743354478,"current_range_meters":8800,"station_id":"ce4bhgp2rcd13ifvqfd0","pricing_plan_id":"cebpf4jnsgd1na2vs0mg"},{"bike_id":"bc1ef0c2-17d8-427e-a10c-9b9658a85853","system_id":"levelo_inurba_marseille","lat":43.24181,"lon":5.39722,"is_reserved":false,"is_disabled":true,"rental_uris":{"android":"levelo://app?vid=bc1ef0c2-17d8-427e-a10c-9b9658a85853","ios":"levelo://app?vid=bc1ef0c2-17d8-427e-a10c-9b9658a85853"},"vehicle_type_id":"4","last_reported":1743354478,"current_range_meters":8800,"station_id":"ce4bhn12rcd13ifvqgpg","pricing_plan_id":"cebpf4jnsgd1na2vs0mg"},{"bike_id":"bf95de27-84e4-49a8-aa4f-7464c4155541","system_id":"levelo_inurba_marseille","lat":43.30553,"lon":5.36551,"is_reserved":false,"is_disabled":false,"rental_uris":{"android":"levelo://app?vid=bf95de27-84e4-49a8-aa4f-7464c4155541","ios":"levelo://app?vid=bf95de27-84e4-49a8-aa4f-7464c4155541"},"vehicle_type_id":"4","last_reported":1743354478,"current_range_meters":8800,"station_id":"ce4bgs12rcd13ifvqcag","pricing_plan_id":"cebpf4jnsgd1na2vs0mg"},{"bike_id":"6e0070ac-08e6-4d0f-812e-392071a82d03","system_id":"levelo_inurba_marseille","lat":43.29324,"lon":5.38543,"is_reserved":false,"is_disabled":false,"rental_uris":{"android":"levelo://app?vid=6e0070ac-08e6-4d0f-812e-392071a82d03","ios":"levelo://app?vid=6e0070ac-08e6-4d0f-812e-392071a82d03"},"vehicle_type_id":"4","last_reported":1743354478,"current_range_meters":9200,"station_id":"","pricing_plan_id":"cebpf4jnsgd1na2vs0mg"},{"bike_id":"f43cccf4-7cd2-4fa6-9fbb-fb74d7164516","system_id":"levelo_inurba_marseille","lat":43.24072,"lon":5.37762,"is_reserved":false,"is_disabled":false,"rental_uris":{"android":"levelo://app?vid=f43cccf4-7cd2-4fa6-9fbb-fb74d7164516","ios":"levelo://app?vid=f43cccf4-7cd2-4fa6-9fbb-fb74d7164516"},"vehicle_type_id":"4","last_reported":1743354478,"current_range_meters":9200,"station_id":"ce4bhnp2rcd13ifvqgvg","pricing_plan_id":"cebpf4jnsgd1na2vs0mg"},{"bike_id":"bef5fed9-fcd2-40e4-89d8-30fe95ac5e83","system_id":"levelo_inurba_marseille","lat":43.2942,"lon":5.38622,"is_reserved":false,"is_disabled":false,"rental_uris":{"android":"levelo://app?vid=bef5fed9-fcd2-40e4-89d8-30fe95ac5e83","ios":"levelo://app?vid=bef5fed9-fcd2-40e4-89d8-30fe95ac5e83"},"vehicle_type_id":"4","last_reported":1743354478,"current_range_meters":9200,"station_id":"ce4bh2h2rcd13ifvqdh0","pricing_plan_id":"cebpf4jnsgd1na2vs0mg"},{"bike_id":"d98db583-6efa-4388-a817-3bfe6aab8c8d","system_id":"levelo_inurba_marseille","lat":43.30548,"lon":5.36555,"is_reserved":false,"is_disabled":false,"rental_uris":{"android":"levelo://app?vid=d98db583-6efa-4388-a817-3bfe6aab8c8d","ios":"levelo://app?vid=d98db583-6efa-4388-a817-3bfe6aab8c8d"},"vehicle_type_id":"4","last_reported":1743354478,"current_range_meters":9200,"station_id":"ce4bgs12rcd13ifvqcag","pricing_plan_id":"cebpf4jnsgd1na2vs0mg"},{"bike_id":"d74acfe5-b0c0-45c9-82d2-a0bfb7a5b118","system_id":"levelo_inurba_marseille","lat":43.28731,"lon":5.37949,"is_reserved":false,"is_disabled":false,"rental_uris":{"android":"levelo://app?vid=d74acfe5-b0c0-45c9-82d2-a0bfb7a5b118","ios":"levelo://app?vid=d74acfe5-b0c0-45c9-82d2-a0bfb7a5b118"},"vehicle_type_id":"4","last_reported":1743354478,"current_range_meters":9200,"station_id":"ce4bh9p2rcd13ifvqec0","pricing_plan_id":"cebpf4jnsgd1na2vs0mg"},{"bike_id":"51cdce4b-e7da-459e-8ee4-1f907fb64061","system_id":"levelo_inurba_marseille","lat":43.29416,"lon":5.38628,"is_reserved":false,"is_disabled":false,"rental_uris":{"android":"levelo://app?vid=51cdce4b-e7da-459e-8ee4-1f907fb64061","ios":"levelo://app?vid=51cdce4b-e7da-459e-8ee4-1f907fb64061"},"vehicle_type_id":"4","last_reported":1743354478,"current_range_meters":9200,"station_id":"ce4bh2h2rcd13ifvqdh0","pricing_plan_id":"cebpf4jnsgd1na2vs0mg"},{"bike_id":"5b749b21-d858-4c1c-939d-4015c1fcc46d","system_id":"levelo_inurba_marseille","lat":43.29196,"lon":5.358,"is_reserved":false,"is_disabled":false,"rental_uris":{"android":"levelo://app?vid=5b749b21-d858-4c1c-939d-4015c1fcc46d","ios":"levelo://app?vid=5b749b21-d858-4c1c-939d-4015c1fcc46d"},"vehicle_type_id":"4","last_reported":1743354478,"current_range_meters":9200,"station_id":"ce4bhb12rcd13ifvqel0","pricing_plan_id":"cebpf4jnsgd1na2vs0mg"},{"bike_id":"fb5a3640-c2bd-4d5a-a532-631ac7449c3d","system_id":"levelo_inurba_marseille","lat":43.28013,"lon":5.40943,"is_reserved":false,"is_disabled":false,"rental_uris":{"android":"levelo://app?vid=fb5a3640-c2bd-4d5a-a532-631ac7449c3d","ios":"levelo://app?vid=fb5a3640-c2bd-4d5a-a532-631ac7449c3d"},"vehicle_type_id":"4","last_reported":1743354478,"current_range_meters":9200,"station_id":"","pricing_plan_id":"cebpf4jnsgd1na2vs0mg"},{"bike_id":"653ea6de-a177-4007-9cfa-5f3f77e975f6","system_id":"levelo_inurba_marseille","lat":43.24821,"lon":5.37461,"is_reserved":false,"is_disabled":false,"rental_uris":{"android":"levelo://app?vid=653ea6de-a177-4007-9cfa-5f3f77e975f6","ios":"levelo://app?vid=653ea6de-a177-4007-9cfa-5f3f77e975f6"},"vehicle_type_id":"4","last_reported":1743354478,"current_range_meters":9200,"station_id":"ce4bhgh2rcd13ifvqfb0","pricing_plan_id":"cebpf4jnsgd1na2vs0mg"},{"bike_id":"61d10b35-a5b4-45d0-84eb-ac131db01d4a","system_id":"levelo_inurba_marseille","lat":43.29921,"lon":5.37452,"is_reserved":false,"is_disabled":false,"rental_uris":{"android":"levelo://app?vid=61d10b35-a5b4-45d0-84eb-ac131db01d4a","ios":"levelo://app?vid=61d10b35-a5b4-45d0-84eb-ac131db01d4a"},"vehicle_type_id":"4","last_reported":1743354478,"current_range_meters":9200,"station_id":"ce4bgjh2rcd13ifvqbg0","pricing_plan_id":"cebpf4jnsgd1na2vs0mg"},{"bike_id":"ab8c2341-8c17-46d6-bb76-5bd0b55e39c9","system_id":"levelo_inurba_marseille","lat":43.24994,"lon":5.38938,"is_reserved":false,"is_disabled":false,"rental_uris":{"android":"levelo://app?vid=ab8c2341-8c17-46d6-bb76-5bd0b55e39c9","ios":"levelo://app?vid=ab8c2341-8c17-46d6-bb76-5bd0b55e39c9"},"vehicle_type_id":"4","last_reported":1743354478,"current_range_meters":8800,"station_id":"ce4bhgp2rcd13ifvqfd0","pricing_plan_id":"cebpf4jnsgd1na2vs0mg"},{"bike_id":"2826a014-46a8-4ce1-9aa3-9809edb0e507","system_id":"levelo_inurba_marseille","lat":43.2902,"lon":5.37561,"is_reserved":false,"is_disabled":false,"rental_uris":{"android":"levelo://app?vid=2826a014-46a8-4ce1-9aa3-9809edb0e507","ios":"levelo://app?vid=2826a014-46a8-4ce1-9aa3-9809edb0e507"},"vehicle_type_id":"4","last_reported":1743354478,"current_range_meters":9200,"station_id":"ce4bh692rcd13ifvqe90","pricing_plan_id":"cebpf4jnsgd1na2vs0mg"},{"bike_id":"2a31e726-71fb-4d61-a25b-925b2f5c1be2","system_id":"levelo_inurba_marseille","lat":43.25706,"lon":5.41128,"is_reserved":false,"is_disabled":false,"rental_uris":{"android":"levelo://app?vid=2a31e726-71fb-4d61-a25b-925b2f5c1be2","ios":"levelo://app?vid=2a31e726-71fb-4d61-a25b-925b2f5c1be2"},"vehicle_type_id":"4","last_reported":1743354478,"current_range_meters":9200,"station_id":"ce4bhkp2rcd13ifvqgd0","pricing_plan_id":"cebpf4jnsgd1na2vs0mg"},{"bike_id":"1d521185-72a0-434d-966c-14202d1200b5","system_id":"levelo_inurba_marseille","lat":43.31248,"lon":5.36739,"is_reserved":false,"is_disabled":false,"rental_uris":{"android":"levelo://app?vid=1d521185-72a0-434d-966c-14202d1200b5","ios":"levelo://app?vid=1d521185-72a0-434d-966c-14202d1200b5"},"vehicle_type_id":"4","last_reported":1743354478,"current_range_meters":9200,"station_id":"","pricing_plan_id":"cebpf4jnsgd1na2vs0mg"},{"bike_id":"82d8e203-da64-466b-9b1d-e9f0a9bfebfe","system_id":"levelo_inurba_marseille","lat":43.32534,"lon":5.4144,"is_reserved":false,"is_disabled":true,"rental_uris":{"android":"levelo://app?vid=82d8e203-da64-466b-9b1d-e9f0a9bfebfe","ios":"levelo://app?vid=82d8e203-da64-466b-9b1d-e9f0a9bfebfe"},"vehicle_type_id":"4","last_reported":1743354478,"current_range_meters":9600,"station_id":"ce4bhq12rcd13ifvqhhg","pricing_plan_id":"cebpf4jnsgd1na2vs0mg"},{"bike_id":"7b9d9c17-c4e3-4286-b986-9fa38ace3f6e","system_id":"levelo_inurba_marseille","lat":43.23197,"lon":5.40003,"is_reserved":false,"is_disabled":false,"rental_uris":{"android":"levelo://app?vid=7b9d9c17-c4e3-4286-b986-9fa38ace3f6e","ios":"levelo://app?vid=7b9d9c17-c4e3-4286-b986-9fa38ace3f6e"},"vehicle_type_id":"4","last_reported":1743354478,"current_range_meters":9200,"station_id":"ce4bhn12rcd13ifvqgqg","pricing_plan_id":"cebpf4jnsgd1na2vs0mg"},{"bike_id":"c60da09b-ade8-4e77-9a8d-456f14e560cf","system_id":"levelo_inurba_marseille","lat":43.29796,"lon":5.39344,"is_reserved":false,"is_disabled":false,"rental_uris":{"android":"levelo://app?vid=c60da09b-ade8-4e77-9a8d-456f14e560cf","ios":"levelo://app?vid=c60da09b-ade8-4e77-9a8d-456f14e560cf"},"vehicle_type_id":"4","last_reported":1743354478,"current_range_meters":9600,"station_id":"chh1huq6cuj3fo74tm60","pricing_plan_id":"cebpf4jnsgd1na2vs0mg"},{"bike_id":"5fc8b285-2871-4c39-b555-a8b102f78865","system_id":"levelo_inurba_marseille","lat":43.22942,"lon":5.35374,"is_reserved":false,"is_disabled":false,"rental_uris":{"android":"levelo://app?vid=5fc8b285-2871-4c39-b555-a8b102f78865","ios":"levelo://app?vid=5fc8b285-2871-4c39-b555-a8b102f78865"},"vehicle_type_id":"4","last_reported":1743354478,"current_range_meters":9600,"station_id":"cpo3532slgdg3j2ikp40","pricing_plan_id":"cebpf4jnsgd1na2vs0mg"},{"bike_id":"db5be766-7b29-4674-bb19-60136e2eef35","system_id":"levelo_inurba_marseille","lat":43.28723,"lon":5.36101,"is_reserved":false,"is_disabled":false,"rental_uris":{"android":"levelo://app?vid=db5be766-7b29-4674-bb19-60136e2eef35","ios":"levelo://app?vid=db5be766-7b29-4674-bb19-60136e2eef35"},"vehicle_type_id":"4","last_reported":1743354478,"current_range_meters":9600,"station_id":"cki0cbj6b192h4jlfktg","pricing_plan_id":"cebpf4jnsgd1na2vs0mg"},{"bike_id":"05efaa05-8990-492c-82c7-bff5394357df","system_id":"levelo_inurba_marseille","lat":43.28948,"lon":5.36644,"is_reserved":false,"is_disabled":false,"rental_uris":{"android":"levelo://app?vid=05efaa05-8990-492c-82c7-bff5394357df","ios":"levelo://app?vid=05efaa05-8990-492c-82c7-bff5394357df"},"vehicle_type_id":"4","last_reported":1743354478,"current_range_meters":9600,"station_id":"ce4bhap2rcd13ifvqek0","pricing_plan_id":"cebpf4jnsgd1na2vs0mg"},{"bike_id":"a036da72-503a-4093-bd60-ae5a2f78e055","system_id":"levelo_inurba_marseille","lat":43.2318,"lon":5.3999,"is_reserved":false,"is_disabled":false,"rental_uris":{"android":"levelo://app?vid=a036da72-503a-4093-bd60-ae5a2f78e055","ios":"levelo://app?vid=a036da72-503a-4093-bd60-ae5a2f78e055"},"vehicle_type_id":"4","last_reported":1743354478,"current_range_meters":9600,"station_id":"ce4bhn12rcd13ifvqgqg","pricing_plan_id":"cebpf4jnsgd1na2vs0mg"},{"bike_id":"86f139b9-ffd3-4a79-86e8-d22d017328ee","system_id":"levelo_inurba_marseille","lat":43.34742,"lon":5.38161,"is_reserved":false,"is_disabled":false,"rental_uris":{"android":"levelo://app?vid=86f139b9-ffd3-4a79-86e8-d22d017328ee","ios":"levelo://app?vid=86f139b9-ffd3-4a79-86e8-d22d017328ee"},"vehicle_type_id":"4","last_reported":1743354478,"current_range_meters":9600,"station_id":"","pricing_plan_id":"cebpf4jnsgd1na2vs0mg"},{"bike_id":"fbdbf30e-fccd-4c38-bbff-feb18e729671","system_id":"levelo_inurba_marseille","lat":43.29263,"lon":5.38442,"is_reserved":false,"is_disabled":false,"rental_uris":{"android":"levelo://app?vid=fbdbf30e-fccd-4c38-bbff-feb18e729671","ios":"levelo://app?vid=fbdbf30e-fccd-4c38-bbff-feb18e729671"},"vehicle_type_id":"4","last_reported":1743354478,"current_range_meters":9200,"station_id":"ce4bh692rcd13ifvqea0","pricing_plan_id":"cebpf4jnsgd1na2vs0mg"},{"bike_id":"4d6ad7ee-4946-4b97-9263-f8a8cebe7a07","system_id":"levelo_inurba_marseille","lat":43.27961,"lon":5.39587,"is_reserved":false,"is_disabled":false,"rental_uris":{"android":"levelo://app?vid=4d6ad7ee-4946-4b97-9263-f8a8cebe7a07","ios":"levelo://app?vid=4d6ad7ee-4946-4b97-9263-f8a8cebe7a07"},"vehicle_type_id":"4","last_reported":1743354478,"current_range_meters":10000,"station_id":"ce4bhf92rcd13ifvqf40","pricing_plan_id":"cebpf4jnsgd1na2vs0mg"},{"bike_id":"bec24054-6ad4-405b-8867-1237a6230216","system_id":"levelo_inurba_marseille","lat":43.292629,"lon":5.384446,"is_reserved":false,"is_disabled":false,"rental_uris":{"android":"levelo://app?vid=bec24054-6ad4-405b-8867-1237a6230216","ios":"levelo://app?vid=bec24054-6ad4-405b-8867-1237a6230216"},"vehicle_type_id":"4","last_reported":1743354478,"current_range_meters":10000,"station_id":"ce4bh692rcd13ifvqea0","pricing_plan_id":"cebpf4jnsgd1na2vs0mg"},{"bike_id":"5c49fc8b-b573-44cd-9da2-767f8f7a765b","system_id":"levelo_inurba_marseille","lat":43.31763,"lon":5.39028,"is_reserved":false,"is_disabled":false,"rental_uris":{"android":"levelo://app?vid=5c49fc8b-b573-44cd-9da2-767f8f7a765b","ios":"levelo://app?vid=5c49fc8b-b573-44cd-9da2-767f8f7a765b"},"vehicle_type_id":"4","last_reported":1743354478,"current_range_meters":10000,"station_id":"ce4bhqp2rcd13ifvqhng","pricing_plan_id":"cebpf4jnsgd1na2vs0mg"},{"bike_id":"1db49edd-6de7-48f9-b18a-23a07e8ebd2c","system_id":"levelo_inurba_marseille","lat":43.232013,"lon":5.35556,"is_reserved":false,"is_disabled":false,"rental_uris":{"android":"levelo://app?vid=1db49edd-6de7-48f9-b18a-23a07e8ebd2c","ios":"levelo://app?vid=1db49edd-6de7-48f9-b18a-23a07e8ebd2c"},"vehicle_type_id":"4","last_reported":1743354478,"current_range_meters":10000,"station_id":"ce4bhu92rcd13ifvqi70","pricing_plan_id":"cebpf4jnsgd1na2vs0mg"},{"bike_id":"5c17b3c3-ab1c-4fd4-b56a-142155ecec2e","system_id":"levelo_inurba_marseille","lat":43.29701,"lon":5.37711,"is_reserved":false,"is_disabled":false,"rental_uris":{"android":"levelo://app?vid=5c17b3c3-ab1c-4fd4-b56a-142155ecec2e","ios":"levelo://app?vid=5c17b3c3-ab1c-4fd4-b56a-142155ecec2e"},"vehicle_type_id":"4","last_reported":1743354478,"current_range_meters":10000,"station_id":"ce4bgkh2rcd13ifvqbl0","pricing_plan_id":"cebpf4jnsgd1na2vs0mg"},{"bike_id":"755e11fb-2b28-4d7d-a913-4ffc17ecc83f","system_id":"levelo_inurba_marseille","lat":43.29269,"lon":5.38449,"is_reserved":false,"is_disabled":false,"rental_uris":{"android":"levelo://app?vid=755e11fb-2b28-4d7d-a913-4ffc17ecc83f","ios":"levelo://app?vid=755e11fb-2b28-4d7d-a913-4ffc17ecc83f"},"vehicle_type_id":"4","last_reported":1743354478,"current_range_meters":10000,"station_id":"ce4bh692rcd13ifvqea0","pricing_plan_id":"cebpf4jnsgd1na2vs0mg"},{"bike_id":"bfcad82b-6acc-493c-b418-93ec0bae17e4","system_id":"levelo_inurba_marseille","lat":43.32115,"lon":5.36805,"is_reserved":false,"is_disabled":false,"rental_uris":{"android":"levelo://app?vid=bfcad82b-6acc-493c-b418-93ec0bae17e4","ios":"levelo://app?vid=bfcad82b-6acc-493c-b418-93ec0bae17e4"},"vehicle_type_id":"4","last_reported":1743354478,"current_range_meters":10000,"station_id":"ce4bhrh2rcd13ifvqhug","pricing_plan_id":"cebpf4jnsgd1na2vs0mg"},{"bike_id":"f150450a-749a-4373-a4fa-76425248e702","system_id":"levelo_inurba_marseille","lat":43.28109,"lon":5.37839,"is_reserved":false,"is_disabled":false,"rental_uris":{"android":"levelo://app?vid=f150450a-749a-4373-a4fa-76425248e702","ios":"levelo://app?vid=f150450a-749a-4373-a4fa-76425248e702"},"vehicle_type_id":"4","last_reported":1743354478,"current_range_meters":10000,"station_id":"ce4bha12rcd13ifvqee0","pricing_plan_id":"cebpf4jnsgd1na2vs0mg"},{"bike_id":"047afdf3-33f9-4fa4-b186-25c1f95989ef","system_id":"levelo_inurba_marseille","lat":43.29616,"lon":5.37719,"is_reserved":false,"is_disabled":false,"rental_uris":{"android":"levelo://app?vid=047afdf3-33f9-4fa4-b186-25c1f95989ef","ios":"levelo://app?vid=047afdf3-33f9-4fa4-b186-25c1f95989ef"},"vehicle_type_id":"4","last_reported":1743354478,"current_range_meters":10000,"station_id":"ce4bgi92rcd13ifvqb90","pricing_plan_id":"cebpf4jnsgd1na2vs0mg"},{"bike_id":"39a7825e-9255-46ff-b950-a6bb7beebc0f","system_id":"levelo_inurba_marseille","lat":43.286645,"lon":5.386759,"is_reserved":false,"is_disabled":false,"rental_uris":{"android":"levelo://app?vid=39a7825e-9255-46ff-b950-a6bb7beebc0f","ios":"levelo://app?vid=39a7825e-9255-46ff-b950-a6bb7beebc0f"},"vehicle_type_id":"4","last_reported":1743354478,"current_range_meters":9200,"station_id":"ce4bh492rcd13ifvqdug","pricing_plan_id":"cebpf4jnsgd1na2vs0mg"},{"bike_id":"8dac133e-0685-4845-9df8-22657becd3e3","system_id":"levelo_inurba_marseille","lat":43.28849,"lon":5.39317,"is_reserved":false,"is_disabled":false,"rental_uris":{"android":"levelo://app?vid=8dac133e-0685-4845-9df8-22657becd3e3","ios":"levelo://app?vid=8dac133e-0685-4845-9df8-22657becd3e3"},"vehicle_type_id":"4","last_reported":1743354478,"current_range_meters":10000,"station_id":"ce4bh2p2rcd13ifvqdi0","pricing_plan_id":"cebpf4jnsgd1na2vs0mg"},{"bike_id":"a82f1a84-6421-4152-8204-8934c8757acb","system_id":"levelo_inurba_marseille","lat":43.29415,"lon":5.38627,"is_reserved":false,"is_disabled":false,"rental_uris":{"android":"levelo://app?vid=a82f1a84-6421-4152-8204-8934c8757acb","ios":"levelo://app?vid=a82f1a84-6421-4152-8204-8934c8757acb"},"vehicle_type_id":"4","last_reported":1743354478,"current_range_meters":10000,"station_id":"ce4bh2h2rcd13ifvqdh0","pricing_plan_id":"cebpf4jnsgd1na2vs0mg"},{"bike_id":"cb8c9ca5-9083-4e86-9e9f-2bc245af5095","system_id":"levelo_inurba_marseille","lat":43.28412,"lon":5.37547,"is_reserved":false,"is_disabled":true,"rental_uris":{"android":"levelo://app?vid=cb8c9ca5-9083-4e86-9e9f-2bc245af5095","ios":"levelo://app?vid=cb8c9ca5-9083-4e86-9e9f-2bc245af5095"},"vehicle_type_id":"4","last_reported":1743354478,"current_range_meters":10000,"station_id":"ce4bh412rcd13ifvqds0","pricing_plan_id":"cebpf4jnsgd1na2vs0mg"},{"bike_id":"7a038292-0ee0-44fd-91f6-cd16be90d9ad","system_id":"levelo_inurba_marseille","lat":43.29246,"lon":5.38494,"is_reserved":false,"is_disabled":false,"rental_uris":{"android":"levelo://app?vid=7a038292-0ee0-44fd-91f6-cd16be90d9ad","ios":"levelo://app?vid=7a038292-0ee0-44fd-91f6-cd16be90d9ad"},"vehicle_type_id":"4","last_reported":1743354478,"current_range_meters":10000,"station_id":"","pricing_plan_id":"cebpf4jnsgd1na2vs0mg"},{"bike_id":"e605d5ca-3ea9-420f-a248-9496269c809e","system_id":"levelo_inurba_marseille","lat":43.32099,"lon":5.36771,"is_reserved":false,"is_disabled":false,"rental_uris":{"android":"levelo://app?vid=e605d5ca-3ea9-420f-a248-9496269c809e","ios":"levelo://app?vid=e605d5ca-3ea9-420f-a248-9496269c809e"},"vehicle_type_id":"4","last_reported":1743354478,"current_range_meters":10000,"station_id":"ce4bhrh2rcd13ifvqhug","pricing_plan_id":"cebpf4jnsgd1na2vs0mg"},{"bike_id":"871f3035-10bb-4a28-afa0-18619600e1a6","system_id":"levelo_inurba_marseille","lat":43.29987,"lon":5.36579,"is_reserved":false,"is_disabled":true,"rental_uris":{"android":"levelo://app?vid=871f3035-10bb-4a28-afa0-18619600e1a6","ios":"levelo://app?vid=871f3035-10bb-4a28-afa0-18619600e1a6"},"vehicle_type_id":"4","last_reported":1743354478,"current_range_meters":10800,"station_id":"ce4bgm92rcd13ifvqbr0","pricing_plan_id":"cebpf4jnsgd1na2vs0mg"},{"bike_id":"72f6528a-01fb-40db-85d0-9e22ab75f40e","system_id":"levelo_inurba_marseille","lat":43.29922,"lon":5.38147,"is_reserved":false,"is_disabled":false,"rental_uris":{"android":"levelo://app?vid=72f6528a-01fb-40db-85d0-9e22ab75f40e","ios":"levelo://app?vid=72f6528a-01fb-40db-85d0-9e22ab75f40e"},"vehicle_type_id":"4","last_reported":1743354478,"current_range_meters":10800,"station_id":"ce4bgj12rcd13ifvqbc0","pricing_plan_id":"cebpf4jnsgd1na2vs0mg"},{"bike_id":"75076714-fb89-4ceb-9b3e-74cda32c31ef","system_id":"levelo_inurba_marseille","lat":43.28933,"lon":5.36647,"is_reserved":false,"is_disabled":false,"rental_uris":{"android":"levelo://app?vid=75076714-fb89-4ceb-9b3e-74cda32c31ef","ios":"levelo://app?vid=75076714-fb89-4ceb-9b3e-74cda32c31ef"},"vehicle_type_id":"4","last_reported":1743354478,"current_range_meters":10800,"station_id":"ce4bhap2rcd13ifvqek0","pricing_plan_id":"cebpf4jnsgd1na2vs0mg"},{"bike_id":"7e46e322-27d9-4f9d-b1ce-11741eb7c78f","system_id":"levelo_inurba_marseille","lat":43.31743,"lon":5.39053,"is_reserved":false,"is_disabled":false,"rental_uris":{"android":"levelo://app?vid=7e46e322-27d9-4f9d-b1ce-11741eb7c78f","ios":"levelo://app?vid=7e46e322-27d9-4f9d-b1ce-11741eb7c78f"},"vehicle_type_id":"4","last_reported":1743354478,"current_range_meters":10800,"station_id":"ce4bhqp2rcd13ifvqhng","pricing_plan_id":"cebpf4jnsgd1na2vs0mg"},{"bike_id":"5a4bd2b9-e138-4602-b86d-0de180b82c69","system_id":"levelo_inurba_marseille","lat":43.27949,"lon":5.41041,"is_reserved":false,"is_disabled":false,"rental_uris":{"android":"levelo://app?vid=5a4bd2b9-e138-4602-b86d-0de180b82c69","ios":"levelo://app?vid=5a4bd2b9-e138-4602-b86d-0de180b82c69"},"vehicle_type_id":"4","last_reported":1743354478,"current_range_meters":10800,"station_id":"ce4bhnp2rcd13ifvqh0g","pricing_plan_id":"cebpf4jnsgd1na2vs0mg"},{"bike_id":"e9a2a445-241d-4d76-ae7f-242ac1e603b1","system_id":"levelo_inurba_marseille","lat":43.23185,"lon":5.35557,"is_reserved":false,"is_disabled":false,"rental_uris":{"android":"levelo://app?vid=e9a2a445-241d-4d76-ae7f-242ac1e603b1","ios":"levelo://app?vid=e9a2a445-241d-4d76-ae7f-242ac1e603b1"},"vehicle_type_id":"4","last_reported":1743354478,"current_range_meters":10800,"station_id":"ce4bhu92rcd13ifvqi70","pricing_plan_id":"cebpf4jnsgd1na2vs0mg"},{"bike_id":"452ee7ed-aed5-4f3a-80c1-b63ab3953967","system_id":"levelo_inurba_marseille","lat":43.27946,"lon":5.41052,"is_reserved":false,"is_disabled":false,"rental_uris":{"android":"levelo://app?vid=452ee7ed-aed5-4f3a-80c1-b63ab3953967","ios":"levelo://app?vid=452ee7ed-aed5-4f3a-80c1-b63ab3953967"},"vehicle_type_id":"4","last_reported":1743354478,"current_range_meters":10800,"station_id":"ce4bhnp2rcd13ifvqh0g","pricing_plan_id":"cebpf4jnsgd1na2vs0mg"},{"bike_id":"44b5eaea-a39a-4cd6-94b8-fdc332dd313d","system_id":"levelo_inurba_marseille","lat":43.29525,"lon":5.39041,"is_reserved":false,"is_disabled":false,"rental_uris":{"android":"levelo://app?vid=44b5eaea-a39a-4cd6-94b8-fdc332dd313d","ios":"levelo://app?vid=44b5eaea-a39a-4cd6-94b8-fdc332dd313d"},"vehicle_type_id":"4","last_reported":1743354478,"current_range_meters":10800,"station_id":"ce4bh3p2rcd13ifvqdp0","pricing_plan_id":"cebpf4jnsgd1na2vs0mg"},{"bike_id":"039d6195-a4ab-472f-929f-b9ba7e67e0d4","system_id":"levelo_inurba_marseille","lat":43.2865,"lon":5.35113,"is_reserved":false,"is_disabled":false,"rental_uris":{"android":"levelo://app?vid=039d6195-a4ab-472f-929f-b9ba7e67e0d4","ios":"levelo://app?vid=039d6195-a4ab-472f-929f-b9ba7e67e0d4"},"vehicle_type_id":"4","last_reported":1743354478,"current_range_meters":10800,"station_id":"ce4bhch2rcd13ifvqeug","pricing_plan_id":"cebpf4jnsgd1na2vs0mg"},{"bike_id":"f45644b2-38f8-43a3-9823-b077f770450c","system_id":"levelo_inurba_marseille","lat":43.30416,"lon":5.39746,"is_reserved":false,"is_disabled":false,"rental_uris":{"android":"levelo://app?vid=f45644b2-38f8-43a3-9823-b077f770450c","ios":"levelo://app?vid=f45644b2-38f8-43a3-9823-b077f770450c"},"vehicle_type_id":"4","last_reported":1743354478,"current_range_meters":10800,"station_id":"ce4bh092rcd13ifvqd20","pricing_plan_id":"cebpf4jnsgd1na2vs0mg"},{"bike_id":"9ad8c113-79a7-44f3-b09e-52a209742b20","system_id":"levelo_inurba_marseille","lat":43.29902,"lon":5.38143,"is_reserved":false,"is_disabled":false,"rental_uris":{"android":"levelo://app?vid=9ad8c113-79a7-44f3-b09e-52a209742b20","ios":"levelo://app?vid=9ad8c113-79a7-44f3-b09e-52a209742b20"},"vehicle_type_id":"4","last_reported":1743354478,"current_range_meters":10800,"station_id":"ce4bgj12rcd13ifvqbc0","pricing_plan_id":"cebpf4jnsgd1na2vs0mg"},{"bike_id":"1a09ad93-3d91-4423-9534-3f85a3a85bd7","system_id":"levelo_inurba_marseille","lat":43.29248,"lon":5.38489,"is_reserved":false,"is_disabled":false,"rental_uris":{"android":"levelo://app?vid=1a09ad93-3d91-4423-9534-3f85a3a85bd7","ios":"levelo://app?vid=1a09ad93-3d91-4423-9534-3f85a3a85bd7"},"vehicle_type_id":"4","last_reported":1743354478,"current_range_meters":11200,"station_id":"","pricing_plan_id":"cebpf4jnsgd1na2vs0mg"},{"bike_id":"f79cae55-9774-4a5c-bb3b-4e6b1c0fb348","system_id":"levelo_inurba_marseille","lat":43.291029,"lon":5.381278,"is_reserved":false,"is_disabled":false,"rental_uris":{"android":"levelo://app?vid=f79cae55-9774-4a5c-bb3b-4e6b1c0fb348","ios":"levelo://app?vid=f79cae55-9774-4a5c-bb3b-4e6b1c0fb348"},"vehicle_type_id":"4","last_reported":1743354478,"current_range_meters":11200,"station_id":"ce4bh512rcd13ifvqe2g","pricing_plan_id":"cebpf4jnsgd1na2vs0mg"},{"bike_id":"2403089b-07d2-4817-842f-5393e534470e","system_id":"levelo_inurba_marseille","lat":43.27991,"lon":5.41668,"is_reserved":false,"is_disabled":false,"rental_uris":{"android":"levelo://app?vid=2403089b-07d2-4817-842f-5393e534470e","ios":"levelo://app?vid=2403089b-07d2-4817-842f-5393e534470e"},"vehicle_type_id":"4","last_reported":1743354478,"current_range_meters":11200,"station_id":"ce4bho12rcd13ifvqh1g","pricing_plan_id":"cebpf4jnsgd1na2vs0mg"},{"bike_id":"0c5c2169-5467-4c61-8999-66034910eeb5","system_id":"levelo_inurba_marseille","lat":43.28445,"lon":5.39179,"is_reserved":false,"is_disabled":false,"rental_uris":{"android":"levelo://app?vid=0c5c2169-5467-4c61-8999-66034910eeb5","ios":"levelo://app?vid=0c5c2169-5467-4c61-8999-66034910eeb5"},"vehicle_type_id":"4","last_reported":1743354478,"current_range_meters":11200,"station_id":"ce4bhoh2rcd13ifvqh5g","pricing_plan_id":"cebpf4jnsgd1na2vs0mg"},{"bike_id":"9a715eeb-4905-4e15-8101-1a8af2759b50","system_id":"levelo_inurba_marseille","lat":43.29419,"lon":5.38619,"is_reserved":false,"is_disabled":false,"rental_uris":{"android":"levelo://app?vid=9a715eeb-4905-4e15-8101-1a8af2759b50","ios":"levelo://app?vid=9a715eeb-4905-4e15-8101-1a8af2759b50"},"vehicle_type_id":"4","last_reported":1743354478,"current_range_meters":11200,"station_id":"ce4bh2h2rcd13ifvqdh0","pricing_plan_id":"cebpf4jnsgd1na2vs0mg"},{"bike_id":"32471ba9-fd17-40c0-ab4f-200aab707b9b","system_id":"levelo_inurba_marseille","lat":43.23063,"lon":5.35486,"is_reserved":false,"is_disabled":false,"rental_uris":{"android":"levelo://app?vid=32471ba9-fd17-40c0-ab4f-200aab707b9b","ios":"levelo://app?vid=32471ba9-fd17-40c0-ab4f-200aab707b9b"},"vehicle_type_id":"4","last_reported":1743354478,"current_range_meters":11200,"station_id":"cpo3342slgdg3j2ifvpg","pricing_plan_id":"cebpf4jnsgd1na2vs0mg"},{"bike_id":"cb96e516-9400-49a2-9926-7247ab255f2e","system_id":"levelo_inurba_marseille","lat":43.275012,"lon":5.424532,"is_reserved":false,"is_disabled":false,"rental_uris":{"android":"levelo://app?vid=cb96e516-9400-49a2-9926-7247ab255f2e","ios":"levelo://app?vid=cb96e516-9400-49a2-9926-7247ab255f2e"},"vehicle_type_id":"4","last_reported":1743354478,"current_range_meters":10800,"station_id":"ce4bhn92rcd13ifvqgrg","pricing_plan_id":"cebpf4jnsgd1na2vs0mg"},{"bike_id":"44cc7268-d690-4261-b5d4-96128bcf3be5","system_id":"levelo_inurba_marseille","lat":43.29262,"lon":5.38452,"is_reserved":false,"is_disabled":false,"rental_uris":{"android":"levelo://app?vid=44cc7268-d690-4261-b5d4-96128bcf3be5","ios":"levelo://app?vid=44cc7268-d690-4261-b5d4-96128bcf3be5"},"vehicle_type_id":"4","last_reported":1743354478,"current_range_meters":11200,"station_id":"ce4bh692rcd13ifvqea0","pricing_plan_id":"cebpf4jnsgd1na2vs0mg"},{"bike_id":"bca07f9b-560f-4e3d-b318-1f8a15a00ff5","system_id":"levelo_inurba_marseille","lat":43.29419,"lon":5.38625,"is_reserved":false,"is_disabled":false,"rental_uris":{"android":"levelo://app?vid=bca07f9b-560f-4e3d-b318-1f8a15a00ff5","ios":"levelo://app?vid=bca07f9b-560f-4e3d-b318-1f8a15a00ff5"},"vehicle_type_id":"4","last_reported":1743354478,"current_range_meters":11200,"station_id":"ce4bh2h2rcd13ifvqdh0","pricing_plan_id":"cebpf4jnsgd1na2vs0mg"},{"bike_id":"f0bd5f01-48f5-4bed-99e1-04d4725ac079","system_id":"levelo_inurba_marseille","lat":43.28006,"lon":5.40977,"is_reserved":false,"is_disabled":false,"rental_uris":{"android":"levelo://app?vid=f0bd5f01-48f5-4bed-99e1-04d4725ac079","ios":"levelo://app?vid=f0bd5f01-48f5-4bed-99e1-04d4725ac079"},"vehicle_type_id":"4","last_reported":1743354478,"current_range_meters":11200,"station_id":"ce4bhnp2rcd13ifvqh0g","pricing_plan_id":"cebpf4jnsgd1na2vs0mg"},{"bike_id":"60733891-ab54-4cca-934d-b53f01f4921f","system_id":"levelo_inurba_marseille","lat":43.277466,"lon":5.361938,"is_reserved":false,"is_disabled":false,"rental_uris":{"android":"levelo://app?vid=60733891-ab54-4cca-934d-b53f01f4921f","ios":"levelo://app?vid=60733891-ab54-4cca-934d-b53f01f4921f"},"vehicle_type_id":"4","last_reported":1743354478,"current_range_meters":11600,"station_id":"ce4bhh92rcd13ifvqfh0","pricing_plan_id":"cebpf4jnsgd1na2vs0mg"},{"bike_id":"54ea7980-f48a-44d1-99d3-c12562fb8122","system_id":"levelo_inurba_marseille","lat":43.29866,"lon":5.38168,"is_reserved":false,"is_disabled":false,"rental_uris":{"android":"levelo://app?vid=54ea7980-f48a-44d1-99d3-c12562fb8122","ios":"levelo://app?vid=54ea7980-f48a-44d1-99d3-c12562fb8122"},"vehicle_type_id":"4","last_reported":1743354478,"current_range_meters":11600,"station_id":"ce4bgj12rcd13ifvqbc0","pricing_plan_id":"cebpf4jnsgd1na2vs0mg"},{"bike_id":"a42a58f8-11bf-4017-ab44-0ba6dcfb477f","system_id":"levelo_inurba_marseille","lat":43.29308,"lon":5.37463,"is_reserved":false,"is_disabled":false,"rental_uris":{"android":"levelo://app?vid=a42a58f8-11bf-4017-ab44-0ba6dcfb477f","ios":"levelo://app?vid=a42a58f8-11bf-4017-ab44-0ba6dcfb477f"},"vehicle_type_id":"4","last_reported":1743354478,"current_range_meters":11200,"station_id":"ce4bgi12rcd13ifvqb70","pricing_plan_id":"cebpf4jnsgd1na2vs0mg"},{"bike_id":"76859129-4009-4843-90a4-dc4d2b65271a","system_id":"levelo_inurba_marseille","lat":43.24146,"lon":5.36427,"is_reserved":false,"is_disabled":false,"rental_uris":{"android":"levelo://app?vid=76859129-4009-4843-90a4-dc4d2b65271a","ios":"levelo://app?vid=76859129-4009-4843-90a4-dc4d2b65271a"},"vehicle_type_id":"4","last_reported":1743354478,"current_range_meters":12000,"station_id":"cpo36qri1sfpv3e86is0","pricing_plan_id":"cebpf4jnsgd1na2vs0mg"},{"bike_id":"d5fd952a-daa3-4d2e-9b95-032b62cc1667","system_id":"levelo_inurba_marseille","lat":43.29615,"lon":5.37159,"is_reserved":false,"is_disabled":false,"rental_uris":{"android":"levelo://app?vid=d5fd952a-daa3-4d2e-9b95-032b62cc1667","ios":"levelo://app?vid=d5fd952a-daa3-4d2e-9b95-032b62cc1667"},"vehicle_type_id":"4","last_reported":1743354478,"current_range_meters":11600,"station_id":"ce4bgnh2rcd13ifvqc0g","pricing_plan_id":"cebpf4jnsgd1na2vs0mg"},{"bike_id":"54cf86f5-7a1c-4ad6-91ea-29af66cc40b4","system_id":"levelo_inurba_marseille","lat":43.29274,"lon":5.36839,"is_reserved":false,"is_disabled":false,"rental_uris":{"android":"levelo://app?vid=54cf86f5-7a1c-4ad6-91ea-29af66cc40b4","ios":"levelo://app?vid=54cf86f5-7a1c-4ad6-91ea-29af66cc40b4"},"vehicle_type_id":"4","last_reported":1743354478,"current_range_meters":11600,"station_id":"ce4bhbp2rcd13ifvqesg","pricing_plan_id":"cebpf4jnsgd1na2vs0mg"},{"bike_id":"6165c5e1-15f4-4779-ba2f-91df8ba3f8c0","system_id":"levelo_inurba_marseille","lat":43.28938,"lon":5.42954,"is_reserved":false,"is_disabled":false,"rental_uris":{"android":"levelo://app?vid=6165c5e1-15f4-4779-ba2f-91df8ba3f8c0","ios":"levelo://app?vid=6165c5e1-15f4-4779-ba2f-91df8ba3f8c0"},"vehicle_type_id":"4","last_reported":1743354478,"current_range_meters":11600,"station_id":"","pricing_plan_id":"cebpf4jnsgd1na2vs0mg"},{"bike_id":"313be0fd-8dab-4765-ae2a-0a45c76191ed","system_id":"levelo_inurba_marseille","lat":43.29511,"lon":5.39402,"is_reserved":false,"is_disabled":false,"rental_uris":{"android":"levelo://app?vid=313be0fd-8dab-4765-ae2a-0a45c76191ed","ios":"levelo://app?vid=313be0fd-8dab-4765-ae2a-0a45c76191ed"},"vehicle_type_id":"4","last_reported":1743354478,"current_range_meters":11600,"station_id":"ce4bh292rcd13ifvqdf0","pricing_plan_id":"cebpf4jnsgd1na2vs0mg"},{"bike_id":"8c3ce736-3e79-4c07-978f-c2984e9e31fd","system_id":"levelo_inurba_marseille","lat":43.29417,"lon":5.38628,"is_reserved":false,"is_disabled":false,"rental_uris":{"android":"levelo://app?vid=8c3ce736-3e79-4c07-978f-c2984e9e31fd","ios":"levelo://app?vid=8c3ce736-3e79-4c07-978f-c2984e9e31fd"},"vehicle_type_id":"4","last_reported":1743354478,"current_range_meters":11600,"station_id":"ce4bh2h2rcd13ifvqdh0","pricing_plan_id":"cebpf4jnsgd1na2vs0mg"},{"bike_id":"7f81968a-5ba0-459f-9b5b-fe2cf53fe23e","system_id":"levelo_inurba_marseille","lat":43.27974,"lon":5.38741,"is_reserved":false,"is_disabled":false,"rental_uris":{"android":"levelo://app?vid=7f81968a-5ba0-459f-9b5b-fe2cf53fe23e","ios":"levelo://app?vid=7f81968a-5ba0-459f-9b5b-fe2cf53fe23e"},"vehicle_type_id":"4","last_reported":1743354478,"current_range_meters":11600,"station_id":"ce4bhg12rcd13ifvqf80","pricing_plan_id":"cebpf4jnsgd1na2vs0mg"},{"bike_id":"86da9d8d-5cd5-4fc2-a2ae-a2299fca34d9","system_id":"levelo_inurba_marseille","lat":43.29941,"lon":5.37484,"is_reserved":false,"is_disabled":false,"rental_uris":{"android":"levelo://app?vid=86da9d8d-5cd5-4fc2-a2ae-a2299fca34d9","ios":"levelo://app?vid=86da9d8d-5cd5-4fc2-a2ae-a2299fca34d9"},"vehicle_type_id":"4","last_reported":1743354478,"current_range_meters":11600,"station_id":"ce4bgjh2rcd13ifvqbg0","pricing_plan_id":"cebpf4jnsgd1na2vs0mg"},{"bike_id":"07ec0419-41dd-4756-91b5-f9e4802c50a1","system_id":"levelo_inurba_marseille","lat":43.29521,"lon":5.39408,"is_reserved":false,"is_disabled":false,"rental_uris":{"android":"levelo://app?vid=07ec0419-41dd-4756-91b5-f9e4802c50a1","ios":"levelo://app?vid=07ec0419-41dd-4756-91b5-f9e4802c50a1"},"vehicle_type_id":"4","last_reported":1743354478,"current_range_meters":11600,"station_id":"ce4bh292rcd13ifvqdf0","pricing_plan_id":"cebpf4jnsgd1na2vs0mg"},{"bike_id":"5c6c9878-00b2-4487-9acf-8d6795ad66f4","system_id":"levelo_inurba_marseille","lat":43.25121,"lon":5.40314,"is_reserved":false,"is_disabled":false,"rental_uris":{"android":"levelo://app?vid=5c6c9878-00b2-4487-9acf-8d6795ad66f4","ios":"levelo://app?vid=5c6c9878-00b2-4487-9acf-8d6795ad66f4"},"vehicle_type_id":"4","last_reported":1743354478,"current_range_meters":17200,"station_id":"ce4bhlh2rcd13ifvqgig","pricing_plan_id":"cebpf4jnsgd1na2vs0mg"},{"bike_id":"7ca6f145-aad1-46a9-862f-db9fe95e22ed","system_id":"levelo_inurba_marseille","lat":43.32149,"lon":5.36784,"is_reserved":false,"is_disabled":false,"rental_uris":{"android":"levelo://app?vid=7ca6f145-aad1-46a9-862f-db9fe95e22ed","ios":"levelo://app?vid=7ca6f145-aad1-46a9-862f-db9fe95e22ed"},"vehicle_type_id":"4","last_reported":1743354478,"current_range_meters":12000,"station_id":"ce4bhrh2rcd13ifvqhug","pricing_plan_id":"cebpf4jnsgd1na2vs0mg"},{"bike_id":"f0ef1484-82a0-4811-8cd3-f4f89046c821","system_id":"levelo_inurba_marseille","lat":43.2907,"lon":5.37558,"is_reserved":false,"is_disabled":false,"rental_uris":{"android":"levelo://app?vid=f0ef1484-82a0-4811-8cd3-f4f89046c821","ios":"levelo://app?vid=f0ef1484-82a0-4811-8cd3-f4f89046c821"},"vehicle_type_id":"4","last_reported":1743354478,"current_range_meters":12000,"station_id":"ce4bh692rcd13ifvqe90","pricing_plan_id":"cebpf4jnsgd1na2vs0mg"},{"bike_id":"37819b3a-6d14-48db-838e-fb9c4c789ace","system_id":"levelo_inurba_marseille","lat":43.29925,"lon":5.37488,"is_reserved":false,"is_disabled":false,"rental_uris":{"android":"levelo://app?vid=37819b3a-6d14-48db-838e-fb9c4c789ace","ios":"levelo://app?vid=37819b3a-6d14-48db-838e-fb9c4c789ace"},"vehicle_type_id":"4","last_reported":1743354478,"current_range_meters":12000,"station_id":"ce4bgjh2rcd13ifvqbg0","pricing_plan_id":"cebpf4jnsgd1na2vs0mg"},{"bike_id":"12cd2614-5759-4501-9c23-d3351a7cc7df","system_id":"levelo_inurba_marseille","lat":43.30541,"lon":5.3842,"is_reserved":false,"is_disabled":true,"rental_uris":{"android":"levelo://app?vid=12cd2614-5759-4501-9c23-d3351a7cc7df","ios":"levelo://app?vid=12cd2614-5759-4501-9c23-d3351a7cc7df"},"vehicle_type_id":"4","last_reported":1743354478,"current_range_meters":12400,"station_id":"ce4bgg92rcd13ifvqb30","pricing_plan_id":"cebpf4jnsgd1na2vs0mg"},{"bike_id":"7d0af035-a43a-4fbc-bc09-86cf313d4f55","system_id":"levelo_inurba_marseille","lat":43.2736,"lon":5.36238,"is_reserved":false,"is_disabled":false,"rental_uris":{"android":"levelo://app?vid=7d0af035-a43a-4fbc-bc09-86cf313d4f55","ios":"levelo://app?vid=7d0af035-a43a-4fbc-bc09-86cf313d4f55"},"vehicle_type_id":"4","last_reported":1743354478,"current_range_meters":12000,"station_id":"ce4bhnh2rcd13ifvqgug","pricing_plan_id":"cebpf4jnsgd1na2vs0mg"},{"bike_id":"80e68d46-030b-436e-aece-90783cccba7c","system_id":"levelo_inurba_marseille","lat":43.241633,"lon":5.364061,"is_reserved":false,"is_disabled":false,"rental_uris":{"android":"levelo://app?vid=80e68d46-030b-436e-aece-90783cccba7c","ios":"levelo://app?vid=80e68d46-030b-436e-aece-90783cccba7c"},"vehicle_type_id":"4","last_reported":1743354478,"current_range_meters":12000,"station_id":"cpo36qri1sfpv3e86is0","pricing_plan_id":"cebpf4jnsgd1na2vs0mg"},{"bike_id":"0b60b6cc-65bb-4e73-8958-1b351c6fdd96","system_id":"levelo_inurba_marseille","lat":43.32094,"lon":5.36835,"is_reserved":false,"is_disabled":false,"rental_uris":{"android":"levelo://app?vid=0b60b6cc-65bb-4e73-8958-1b351c6fdd96","ios":"levelo://app?vid=0b60b6cc-65bb-4e73-8958-1b351c6fdd96"},"vehicle_type_id":"4","last_reported":1743354478,"current_range_meters":12000,"station_id":"","pricing_plan_id":"cebpf4jnsgd1na2vs0mg"},{"bike_id":"78edf300-7db3-4c93-9631-38797c9b1771","system_id":"levelo_inurba_marseille","lat":43.290852,"lon":5.371726,"is_reserved":false,"is_disabled":true,"rental_uris":{"android":"levelo://app?vid=78edf300-7db3-4c93-9631-38797c9b1771","ios":"levelo://app?vid=78edf300-7db3-4c93-9631-38797c9b1771"},"vehicle_type_id":"4","last_reported":1743354478,"current_range_meters":12000,"station_id":"ce4bh5p2rcd13ifvqe4g","pricing_plan_id":"cebpf4jnsgd1na2vs0mg"},{"bike_id":"db9511e9-f15e-4cd8-8101-b778662e0a12","system_id":"levelo_inurba_marseille","lat":43.295868,"lon":5.42372,"is_reserved":false,"is_disabled":false,"rental_uris":{"android":"levelo://app?vid=db9511e9-f15e-4cd8-8101-b778662e0a12","ios":"levelo://app?vid=db9511e9-f15e-4cd8-8101-b778662e0a12"},"vehicle_type_id":"4","last_reported":1743354478,"current_range_meters":12000,"station_id":"ce4bgih2rcd13ifvqba0","pricing_plan_id":"cebpf4jnsgd1na2vs0mg"},{"bike_id":"3f4d058d-1b0b-44cd-a30f-5956b4ef54ea","system_id":"levelo_inurba_marseille","lat":43.28699,"lon":5.37395,"is_reserved":false,"is_disabled":false,"rental_uris":{"android":"levelo://app?vid=3f4d058d-1b0b-44cd-a30f-5956b4ef54ea","ios":"levelo://app?vid=3f4d058d-1b0b-44cd-a30f-5956b4ef54ea"},"vehicle_type_id":"4","last_reported":1743354478,"current_range_meters":12000,"station_id":"ce4bh3p2rcd13ifvqdq0","pricing_plan_id":"cebpf4jnsgd1na2vs0mg"},{"bike_id":"eb3b8c3a-2906-478f-a91b-00dc11fd4223","system_id":"levelo_inurba_marseille","lat":43.30137,"lon":5.37416,"is_reserved":false,"is_disabled":false,"rental_uris":{"android":"levelo://app?vid=eb3b8c3a-2906-478f-a91b-00dc11fd4223","ios":"levelo://app?vid=eb3b8c3a-2906-478f-a91b-00dc11fd4223"},"vehicle_type_id":"4","last_reported":1743354478,"current_range_meters":12400,"station_id":"ce4bgs92rcd13ifvqcc0","pricing_plan_id":"cebpf4jnsgd1na2vs0mg"},{"bike_id":"0aa5d244-d05c-4693-b730-cb7287eaecdf","system_id":"levelo_inurba_marseille","lat":43.28611,"lon":5.35107,"is_reserved":false,"is_disabled":true,"rental_uris":{"android":"levelo://app?vid=0aa5d244-d05c-4693-b730-cb7287eaecdf","ios":"levelo://app?vid=0aa5d244-d05c-4693-b730-cb7287eaecdf"},"vehicle_type_id":"4","last_reported":1743354478,"current_range_meters":12400,"station_id":"ce4bhch2rcd13ifvqeug","pricing_plan_id":"cebpf4jnsgd1na2vs0mg"},{"bike_id":"2f7fe1dd-a0a3-4b2d-9499-822909aca6f5","system_id":"levelo_inurba_marseille","lat":43.30596,"lon":5.39361,"is_reserved":false,"is_disabled":false,"rental_uris":{"android":"levelo://app?vid=2f7fe1dd-a0a3-4b2d-9499-822909aca6f5","ios":"levelo://app?vid=2f7fe1dd-a0a3-4b2d-9499-822909aca6f5"},"vehicle_type_id":"4","last_reported":1743354478,"current_range_meters":12400,"station_id":"ce4bh0p2rcd13ifvqd80","pricing_plan_id":"cebpf4jnsgd1na2vs0mg"},{"bike_id":"17b2ab2e-2067-43af-94eb-0eed220bf47d","system_id":"levelo_inurba_marseille","lat":43.28341,"lon":5.381,"is_reserved":false,"is_disabled":false,"rental_uris":{"android":"levelo://app?vid=17b2ab2e-2067-43af-94eb-0eed220bf47d","ios":"levelo://app?vid=17b2ab2e-2067-43af-94eb-0eed220bf47d"},"vehicle_type_id":"4","last_reported":1743354478,"current_range_meters":12000,"station_id":"ce4bh412rcd13ifvqdr0","pricing_plan_id":"cebpf4jnsgd1na2vs0mg"},{"bike_id":"61beaa8e-11f9-4ed7-bd1c-1213c4e438a9","system_id":"levelo_inurba_marseille","lat":43.29616,"lon":5.371663,"is_reserved":false,"is_disabled":false,"rental_uris":{"android":"levelo://app?vid=61beaa8e-11f9-4ed7-bd1c-1213c4e438a9","ios":"levelo://app?vid=61beaa8e-11f9-4ed7-bd1c-1213c4e438a9"},"vehicle_type_id":"4","last_reported":1743354478,"current_range_meters":12400,"station_id":"ce4bgnh2rcd13ifvqc0g","pricing_plan_id":"cebpf4jnsgd1na2vs0mg"},{"bike_id":"9939ee9a-68ef-494c-83f2-e27ac9e16471","system_id":"levelo_inurba_marseille","lat":43.29965,"lon":5.38497,"is_reserved":false,"is_disabled":false,"rental_uris":{"android":"levelo://app?vid=9939ee9a-68ef-494c-83f2-e27ac9e16471","ios":"levelo://app?vid=9939ee9a-68ef-494c-83f2-e27ac9e16471"},"vehicle_type_id":"4","last_reported":1743354478,"current_range_meters":12400,"station_id":"ce4bgj92rcd13ifvqbd0","pricing_plan_id":"cebpf4jnsgd1na2vs0mg"},{"bike_id":"ba1107aa-9b1f-4710-bb75-05314e757fc6","system_id":"levelo_inurba_marseille","lat":43.31665,"lon":5.37278,"is_reserved":false,"is_disabled":false,"rental_uris":{"android":"levelo://app?vid=ba1107aa-9b1f-4710-bb75-05314e757fc6","ios":"levelo://app?vid=ba1107aa-9b1f-4710-bb75-05314e757fc6"},"vehicle_type_id":"4","last_reported":1743354478,"current_range_meters":12400,"station_id":"","pricing_plan_id":"cebpf4jnsgd1na2vs0mg"},{"bike_id":"bd01baa8-cb0e-49db-b47a-3d1ffa8fcf9d","system_id":"levelo_inurba_marseille","lat":43.29538,"lon":5.38549,"is_reserved":false,"is_disabled":false,"rental_uris":{"android":"levelo://app?vid=bd01baa8-cb0e-49db-b47a-3d1ffa8fcf9d","ios":"levelo://app?vid=bd01baa8-cb0e-49db-b47a-3d1ffa8fcf9d"},"vehicle_type_id":"4","last_reported":1743354478,"current_range_meters":12400,"station_id":"ce4bgih2rcd13ifvqba0","pricing_plan_id":"cebpf4jnsgd1na2vs0mg"},{"bike_id":"949da213-293f-41ba-ad5c-3e26764e7552","system_id":"levelo_inurba_marseille","lat":43.2937,"lon":5.37844,"is_reserved":false,"is_disabled":false,"rental_uris":{"android":"levelo://app?vid=949da213-293f-41ba-ad5c-3e26764e7552","ios":"levelo://app?vid=949da213-293f-41ba-ad5c-3e26764e7552"},"vehicle_type_id":"4","last_reported":1743354478,"current_range_meters":12400,"station_id":"ce4bgjh2rcd13ifvqbf0","pricing_plan_id":"cebpf4jnsgd1na2vs0mg"},{"bike_id":"f0d1a177-272b-4b40-9047-5d442acb245c","system_id":"levelo_inurba_marseille","lat":43.28413,"lon":5.37501,"is_reserved":false,"is_disabled":false,"rental_uris":{"android":"levelo://app?vid=f0d1a177-272b-4b40-9047-5d442acb245c","ios":"levelo://app?vid=f0d1a177-272b-4b40-9047-5d442acb245c"},"vehicle_type_id":"4","last_reported":1743354478,"current_range_meters":12800,"station_id":"ce4bh412rcd13ifvqds0","pricing_plan_id":"cebpf4jnsgd1na2vs0mg"},{"bike_id":"b3e97410-c1b2-4369-b878-0aa5bbd817bc","system_id":"levelo_inurba_marseille","lat":43.28464,"lon":5.35884,"is_reserved":false,"is_disabled":true,"rental_uris":{"android":"levelo://app?vid=b3e97410-c1b2-4369-b878-0aa5bbd817bc","ios":"levelo://app?vid=b3e97410-c1b2-4369-b878-0aa5bbd817bc"},"vehicle_type_id":"4","last_reported":1743354478,"current_range_meters":12800,"station_id":"ce4bhah2rcd13ifvqei0","pricing_plan_id":"cebpf4jnsgd1na2vs0mg"},{"bike_id":"fd077727-cac9-4da1-be78-e3859541690a","system_id":"levelo_inurba_marseille","lat":43.30544,"lon":5.38442,"is_reserved":false,"is_disabled":true,"rental_uris":{"android":"levelo://app?vid=fd077727-cac9-4da1-be78-e3859541690a","ios":"levelo://app?vid=fd077727-cac9-4da1-be78-e3859541690a"},"vehicle_type_id":"4","last_reported":1743354478,"current_range_meters":12800,"station_id":"ce4bgg92rcd13ifvqb30","pricing_plan_id":"cebpf4jnsgd1na2vs0mg"},{"bike_id":"9c258916-bc80-4ae1-b870-ee14d9c59010","system_id":"levelo_inurba_marseille","lat":43.27959,"lon":5.38743,"is_reserved":false,"is_disabled":false,"rental_uris":{"android":"levelo://app?vid=9c258916-bc80-4ae1-b870-ee14d9c59010","ios":"levelo://app?vid=9c258916-bc80-4ae1-b870-ee14d9c59010"},"vehicle_type_id":"4","last_reported":1743354478,"current_range_meters":12800,"station_id":"ce4bhg12rcd13ifvqf80","pricing_plan_id":"cebpf4jnsgd1na2vs0mg"},{"bike_id":"8800990b-0588-4701-9f9b-d00ff201f1bf","system_id":"levelo_inurba_marseille","lat":43.31751,"lon":5.39013,"is_reserved":false,"is_disabled":false,"rental_uris":{"android":"levelo://app?vid=8800990b-0588-4701-9f9b-d00ff201f1bf","ios":"levelo://app?vid=8800990b-0588-4701-9f9b-d00ff201f1bf"},"vehicle_type_id":"4","last_reported":1743354478,"current_range_meters":12800,"station_id":"ce4bhqp2rcd13ifvqhng","pricing_plan_id":"cebpf4jnsgd1na2vs0mg"},{"bike_id":"fb0e2782-64d8-47c2-8a78-bad86b5dcc20","system_id":"levelo_inurba_marseille","lat":43.32113,"lon":5.3683,"is_reserved":false,"is_disabled":false,"rental_uris":{"android":"levelo://app?vid=fb0e2782-64d8-47c2-8a78-bad86b5dcc20","ios":"levelo://app?vid=fb0e2782-64d8-47c2-8a78-bad86b5dcc20"},"vehicle_type_id":"4","last_reported":1743354478,"current_range_meters":12800,"station_id":"","pricing_plan_id":"cebpf4jnsgd1na2vs0mg"},{"bike_id":"e9825e03-226b-4b49-aae4-320cde6616a6","system_id":"levelo_inurba_marseille","lat":43.26062,"lon":5.39397,"is_reserved":false,"is_disabled":false,"rental_uris":{"android":"levelo://app?vid=e9825e03-226b-4b49-aae4-320cde6616a6","ios":"levelo://app?vid=e9825e03-226b-4b49-aae4-320cde6616a6"},"vehicle_type_id":"4","last_reported":1743354478,"current_range_meters":12400,"station_id":"ce4bhh92rcd13ifvqfj0","pricing_plan_id":"cebpf4jnsgd1na2vs0mg"},{"bike_id":"121010d1-d0ea-475b-97a6-f9054736109c","system_id":"levelo_inurba_marseille","lat":43.23183,"lon":5.39982,"is_reserved":false,"is_disabled":false,"rental_uris":{"android":"levelo://app?vid=121010d1-d0ea-475b-97a6-f9054736109c","ios":"levelo://app?vid=121010d1-d0ea-475b-97a6-f9054736109c"},"vehicle_type_id":"4","last_reported":1743354478,"current_range_meters":13600,"station_id":"ce4bhn12rcd13ifvqgqg","pricing_plan_id":"cebpf4jnsgd1na2vs0mg"},{"bike_id":"90f9aeab-f519-4593-9c23-9914a34ab33d","system_id":"levelo_inurba_marseille","lat":43.30931,"lon":5.40137,"is_reserved":false,"is_disabled":false,"rental_uris":{"android":"levelo://app?vid=90f9aeab-f519-4593-9c23-9914a34ab33d","ios":"levelo://app?vid=90f9aeab-f519-4593-9c23-9914a34ab33d"},"vehicle_type_id":"4","last_reported":1743354478,"current_range_meters":16000,"station_id":"ce4bgvp2rcd13ifvqct0","pricing_plan_id":"cebpf4jnsgd1na2vs0mg"},{"bike_id":"2f974a77-a450-4212-9930-633941c4a310","system_id":"levelo_inurba_marseille","lat":43.29964,"lon":5.38496,"is_reserved":false,"is_disabled":false,"rental_uris":{"android":"levelo://app?vid=2f974a77-a450-4212-9930-633941c4a310","ios":"levelo://app?vid=2f974a77-a450-4212-9930-633941c4a310"},"vehicle_type_id":"4","last_reported":1743354478,"current_range_meters":12800,"station_id":"ce4bgj92rcd13ifvqbd0","pricing_plan_id":"cebpf4jnsgd1na2vs0mg"},