{"last_updated":1770806333,"ttl":60,"version":"2.2","data":{"bikes":[{"bike_id":"02e9af11-2912-44f7-be5c-e2ae093265ba","system_id":"levelo_inurba_marseille","lat":43.26682,"lon":5.38262,"is_reserved":false,"is_disabled":false,"rental_uris":{"android":"levelo://app?vid=02e9af11-2912-44f7-be5c-e2ae093265ba","ios":"levelo://app?vid=02e9af11-2912-44f7-be5c-e2ae093265ba"},"vehicle_type_id":"4","last_reported":1770806334,"current_range_meters":2800,"station_id":"ce4bhg92rcd13ifvqf90","pricing_plan_id":"cebpf4jnsgd1na2vs0mg"},{"bike_id":"62639614-ff78-4e62-87c6-eade8f138be9","system_id":"levelo_inurba_marseille","lat":43.21755,"lon":5.34604,"is_reserved":false,"is_disabled":false,"rental_uris":{"android":"levelo://app?vid=62639614-ff78-4e62-87c6-eade8f138be9","ios":"levelo://app?vid=62639614-ff78-4e62-87c6-eade8f138be9"},"vehicle_type_id":"4","last_reported":1770806334,"current_range_meters":2800,"station_id":"","pricing_plan_id":"cebpf4jnsgd1na2vs0mg"},{"bike_id":"05abb5d5-7a0f-4692-a6b6-119f614f1bb6","system_id":"levelo_inurba_marseille","lat":43.27057,"lon":5.38309,"is_reserved":false,"is_disabled":false,"rental_uris":{"android":"levelo://app?vid=05abb5d5-7a0f-4692-a6b6-119f614f1bb6","ios":"levelo://app?vid=05abb5d5-7a0f-4692-a6b6-119f614f1bb6"},"vehicle_type_id":"4","last_reported":1770806334,"current_range_meters":2800,"station_id":"st_d3n2fo6cfp8s73cte1j0","pricing_plan_id":"cebpf4jnsgd1na2vs0mg"},{"bike_id":"c419d6ff-2dec-4007-bfa6-b30a8ffe9253","system_id":"levelo_inurba_marseille","lat":43.22935,"lon":5.35378,"is_reserved":false,"is_disabled":false,"rental_uris":{"android":"levelo://app?vid=c419d6ff-2dec-4007-bfa6-b30a8ffe9253","ios":"levelo://app?vid=c419d6ff-2dec-4007-bfa6-b30a8ffe9253"},"vehicle_type_id":"4","last_reported":1770806334,"current_range_meters":2800,"station_id":"cpo3532slgdg3j2ikp40","pricing_plan_id":"cebpf4jnsgd1na2vs0mg"},{"bike_id":"508af785-032d-4df0-b8fe-11d0a1bf5f67","system_id":"levelo_inurba_marseille","lat":43.301,"lon":5.43113,"is_reserved":false,"is_disabled":false,"rental_uris":{"android":"levelo://app?vid=508af785-032d-4df0-b8fe-11d0a1bf5f67","ios":"levelo://app?vid=508af785-032d-4df0-b8fe-11d0a1bf5f67"},"vehicle_type_id":"4","last_reported":1770806334,"current_range_meters":2800,"station_id":"st_d3js3co5814s73ftftug","pricing_plan_id":"cebpf4jnsgd1na2vs0mg"},{"bike_id":"c84f98ff-c4b0-498e-bd41-7b5647869b42","system_id":"levelo_inurba_marseille","lat":43.23379,"lon":5.41226,"is_reserved":false,"is_disabled":false,"rental_uris":{"android":"levelo://app?vid=c84f98ff-c4b0-498e-bd41-7b5647869b42","ios":"levelo://app?vid=c84f98ff-c4b0-498e-bd41-7b5647869b42"},"vehicle_type_id":"4","last_reported":1770806334,"current_range_meters":2800,"station_id":"","pricing_plan_id":"cebpf4jnsgd1na2vs0mg"},{"bike_id":"6a0aefdf-e907-4435-b426-3ce2a0909cd4","system_id":"levelo_inurba_marseille","lat":43.26216,"lon":5.37455,"is_reserved":false,"is_disabled":false,"rental_uris":{"android":"levelo://app?vid=6a0aefdf-e907-4435-b426-3ce2a0909cd4","ios":"levelo://app?vid=6a0aefdf-e907-4435-b426-3ce2a0909cd4"},"vehicle_type_id":"4","last_reported":1770806334,"current_range_meters":2800,"station_id":"ce4bhgp2rcd13ifvqfc0","pricing_plan_id":"cebpf4jnsgd1na2vs0mg"},{"bike_id":"e20506fc-81c8-45aa-af10-6b0aa01b93ce","system_id":"levelo_inurba_marseille","lat":43.27061,"lon":5.38315,"is_reserved":false,"is_disabled":false,"rental_uris":{"android":"levelo://app?vid=e20506fc-81c8-45aa-af10-6b0aa01b93ce","ios":"levelo://app?vid=e20506fc-81c8-45aa-af10-6b0aa01b93ce"},"vehicle_type_id":"4","last_reported":1770806334,"current_range_meters":2800,"station_id":"st_d3n2fo6cfp8s73cte1j0","pricing_plan_id":"cebpf4jnsgd1na2vs0mg"},{"bike_id":"4e0a7966-8684-42a1-8aa7-9607d9af4c27","system_id":"levelo_inurba_marseille","lat":43.28616,"lon":5.3511,"is_reserved":false,"is_disabled":false,"rental_uris":{"android":"levelo://app?vid=4e0a7966-8684-42a1-8aa7-9607d9af4c27","ios":"levelo://app?vid=4e0a7966-8684-42a1-8aa7-9607d9af4c27"},"vehicle_type_id":"4","last_reported":1770806334,"current_range_meters":2800,"station_id":"ce4bhch2rcd13ifvqeug","pricing_plan_id":"cebpf4jnsgd1na2vs0mg"},{"bike_id":"8b4263f7-2795-486a-b290-22850f34f9ba","system_id":"levelo_inurba_marseille","lat":43.25003,"lon":5.38928,"is_reserved":false,"is_disabled":false,"rental_uris":{"android":"levelo://app?vid=8b4263f7-2795-486a-b290-22850f34f9ba","ios":"levelo://app?vid=8b4263f7-2795-486a-b290-22850f34f9ba"},"vehicle_type_id":"4","last_reported":1770806334,"current_range_meters":2800,"station_id":"ce4bhgp2rcd13ifvqfd0","pricing_plan_id":"cebpf4jnsgd1na2vs0mg"},{"bike_id":"4109e4ef-141f-48d2-bf8a-09fdeeebff78","system_id":"levelo_inurba_marseille","lat":43.27312,"lon":5.40026,"is_reserved":false,"is_disabled":false,"rental_uris":{"android":"levelo://app?vid=4109e4ef-141f-48d2-bf8a-09fdeeebff78","ios":"levelo://app?vid=4109e4ef-141f-48d2-bf8a-09fdeeebff78"},"vehicle_type_id":"4","last_reported":1770806334,"current_range_meters":3200,"station_id":"","pricing_plan_id":"cebpf4jnsgd1na2vs0mg"},{"bike_id":"a07cd24c-7e73-437e-917a-60bdbc1072fc","system_id":"levelo_inurba_marseille","lat":43.24385,"lon":5.37093,"is_reserved":false,"is_disabled":false,"rental_uris":{"android":"levelo://app?vid=a07cd24c-7e73-437e-917a-60bdbc1072fc","ios":"levelo://app?vid=a07cd24c-7e73-437e-917a-60bdbc1072fc"},"vehicle_type_id":"4","last_reported":1770806334,"current_range_meters":3200,"station_id":"ce4bhhh2rcd13ifvqfk0","pricing_plan_id":"cebpf4jnsgd1na2vs0mg"},{"bike_id":"8ae193d0-6aa6-49c6-83c9-9ea48a09d2ef","system_id":"levelo_inurba_marseille","lat":43.27347,"lon":5.39126,"is_reserved":false,"is_disabled":false,"rental_uris":{"android":"levelo://app?vid=8ae193d0-6aa6-49c6-83c9-9ea48a09d2ef","ios":"levelo://app?vid=8ae193d0-6aa6-49c6-83c9-9ea48a09d2ef"},"vehicle_type_id":"4","last_reported":1770806334,"current_range_meters":3200,"station_id":"ce4bhgp2rcd13ifvqfe0","pricing_plan_id":"cebpf4jnsgd1na2vs0mg"},{"bike_id":"975bd0c0-5c30-478f-a1a3-a05ee365190d","system_id":"levelo_inurba_marseille","lat":43.313113,"lon":5.407781,"is_reserved":false,"is_disabled":false,"rental_uris":{"android":"levelo://app?vid=975bd0c0-5c30-478f-a1a3-a05ee365190d","ios":"levelo://app?vid=975bd0c0-5c30-478f-a1a3-a05ee365190d"},"vehicle_type_id":"4","last_reported":1770806334,"current_range_meters":3200,"station_id":"","pricing_plan_id":"cebpf4jnsgd1na2vs0mg"},{"bike_id":"bfc07130-be47-4eef-8325-e33d6610d729","system_id":"levelo_inurba_marseille","lat":43.30126,"lon":5.43115,"is_reserved":false,"is_disabled":false,"rental_uris":{"android":"levelo://app?vid=bfc07130-be47-4eef-8325-e33d6610d729","ios":"levelo://app?vid=bfc07130-be47-4eef-8325-e33d6610d729"},"vehicle_type_id":"4","last_reported":1770806334,"current_range_meters":3600,"station_id":"st_d3js3co5814s73ftftug","pricing_plan_id":"cebpf4jnsgd1na2vs0mg"},{"bike_id":"de5717f5-c00b-4f00-9fb2-39815c6186af","system_id":"levelo_inurba_marseille","lat":43.27059,"lon":5.40267,"is_reserved":false,"is_disabled":false,"rental_uris":{"android":"levelo://app?vid=de5717f5-c00b-4f00-9fb2-39815c6186af","ios":"levelo://app?vid=de5717f5-c00b-4f00-9fb2-39815c6186af"},"vehicle_type_id":"4","last_reported":1770806334,"current_range_meters":3600,"station_id":"ce4bhk92rcd13ifvqgc0","pricing_plan_id":"cebpf4jnsgd1na2vs0mg"},{"bike_id":"8a1f19b1-39c0-42f4-b119-90f88b9acab9","system_id":"levelo_inurba_marseille","lat":43.26787,"lon":5.394491,"is_reserved":false,"is_disabled":false,"rental_uris":{"android":"levelo://app?vid=8a1f19b1-39c0-42f4-b119-90f88b9acab9","ios":"levelo://app?vid=8a1f19b1-39c0-42f4-b119-90f88b9acab9"},"vehicle_type_id":"4","last_reported":1770806334,"current_range_meters":3600,"station_id":"ce4bhh12rcd13ifvqfg0","pricing_plan_id":"cebpf4jnsgd1na2vs0mg"},{"bike_id":"22d8d839-db4c-4efa-bd5d-d78efaca55ca","system_id":"levelo_inurba_marseille","lat":43.27061,"lon":5.383,"is_reserved":false,"is_disabled":false,"rental_uris":{"android":"levelo://app?vid=22d8d839-db4c-4efa-bd5d-d78efaca55ca","ios":"levelo://app?vid=22d8d839-db4c-4efa-bd5d-d78efaca55ca"},"vehicle_type_id":"4","last_reported":1770806334,"current_range_meters":3600,"station_id":"st_d3n2fo6cfp8s73cte1j0","pricing_plan_id":"cebpf4jnsgd1na2vs0mg"},{"bike_id":"3e62a0fd-19ac-4f58-93af-6af710db8a94","system_id":"levelo_inurba_marseille","lat":43.229255,"lon":5.353741,"is_reserved":false,"is_disabled":false,"rental_uris":{"android":"levelo://app?vid=3e62a0fd-19ac-4f58-93af-6af710db8a94","ios":"levelo://app?vid=3e62a0fd-19ac-4f58-93af-6af710db8a94"},"vehicle_type_id":"4","last_reported":1770806334,"current_range_meters":3600,"station_id":"cpo3532slgdg3j2ikp40","pricing_plan_id":"cebpf4jnsgd1na2vs0mg"},{"bike_id":"3538a899-57a3-4efd-9fb7-3a0ba2d09d8a","system_id":"levelo_inurba_marseille","lat":43.33603,"lon":5.41037,"is_reserved":false,"is_disabled":false,"rental_uris":{"android":"levelo://app?vid=3538a899-57a3-4efd-9fb7-3a0ba2d09d8a","ios":"levelo://app?vid=3538a899-57a3-4efd-9fb7-3a0ba2d09d8a"},"vehicle_type_id":"4","last_reported":1770806334,"current_range_meters":3600,"station_id":"ce4bhqh2rcd13ifvqhmg","pricing_plan_id":"cebpf4jnsgd1na2vs0mg"},{"bike_id":"86c5beda-dbd1-4fb5-98bb-01c6e772d942","system_id":"levelo_inurba_marseille","lat":43.30551,"lon":5.38416,"is_reserved":false,"is_disabled":false,"rental_uris":{"android":"levelo://app?vid=86c5beda-dbd1-4fb5-98bb-01c6e772d942","ios":"levelo://app?vid=86c5beda-dbd1-4fb5-98bb-01c6e772d942"},"vehicle_type_id":"4","last_reported":1770806334,"current_range_meters":3600,"station_id":"ce4bgg92rcd13ifvqb30","pricing_plan_id":"cebpf4jnsgd1na2vs0mg"},{"bike_id":"efd9d7ca-4b84-4ff5-876b-900e16175b1d","system_id":"levelo_inurba_marseille","lat":43.2619,"lon":5.3745,"is_reserved":false,"is_disabled":false,"rental_uris":{"android":"levelo://app?vid=efd9d7ca-4b84-4ff5-876b-900e16175b1d","ios":"levelo://app?vid=efd9d7ca-4b84-4ff5-876b-900e16175b1d"},"vehicle_type_id":"4","last_reported":1770806334,"current_range_meters":4000,"station_id":"ce4bhgp2rcd13ifvqfc0","pricing_plan_id":"cebpf4jnsgd1na2vs0mg"},{"bike_id":"e0450db0-c8b3-4403-bc43-ed5a007877b8","system_id":"levelo_inurba_marseille","lat":43.24641,"lon":5.43146,"is_reserved":false,"is_disabled":false,"rental_uris":{"android":"levelo://app?vid=e0450db0-c8b3-4403-bc43-ed5a007877b8","ios":"levelo://app?vid=e0450db0-c8b3-4403-bc43-ed5a007877b8"},"vehicle_type_id":"4","last_reported":1770806334,"current_range_meters":4000,"station_id":"st_d2m6c4gdas8pm72e190g","pricing_plan_id":"cebpf4jnsgd1na2vs0mg"},{"bike_id":"652029fd-7389-40d5-a0bd-e85f7aa43d7c","system_id":"levelo_inurba_marseille","lat":43.22561,"lon":5.41634,"is_reserved":false,"is_disabled":false,"rental_uris":{"android":"levelo://app?vid=652029fd-7389-40d5-a0bd-e85f7aa43d7c","ios":"levelo://app?vid=652029fd-7389-40d5-a0bd-e85f7aa43d7c"},"vehicle_type_id":"4","last_reported":1770806334,"current_range_meters":4000,"station_id":"st_d2o4gvlbi1j2169b742g","pricing_plan_id":"cebpf4jnsgd1na2vs0mg"},{"bike_id":"87056c0a-278d-470f-af70-99a4eb084f35","system_id":"levelo_inurba_marseille","lat":43.24635,"lon":5.431553,"is_reserved":false,"is_disabled":false,"rental_uris":{"android":"levelo://app?vid=87056c0a-278d-470f-af70-99a4eb084f35","ios":"levelo://app?vid=87056c0a-278d-470f-af70-99a4eb084f35"},"vehicle_type_id":"4","last_reported":1770806334,"current_range_meters":4000,"station_id":"st_d2m6c4gdas8pm72e190g","pricing_plan_id":"cebpf4jnsgd1na2vs0mg"},{"bike_id":"b1429378-b93e-4184-b373-85f0415c9919","system_id":"levelo_inurba_marseille","lat":43.24624,"lon":5.43158,"is_reserved":false,"is_disabled":false,"rental_uris":{"android":"levelo://app?vid=b1429378-b93e-4184-b373-85f0415c9919","ios":"levelo://app?vid=b1429378-b93e-4184-b373-85f0415c9919"},"vehicle_type_id":"4","last_reported":1770806334,"current_range_meters":4000,"station_id":"st_d2m6c4gdas8pm72e190g","pricing_plan_id":"cebpf4jnsgd1na2vs0mg"},{"bike_id":"0ddad164-3c7f-4c61-b3a2-781df045b604","system_id":"levelo_inurba_marseille","lat":43.2408,"lon":5.37746,"is_reserved":false,"is_disabled":false,"rental_uris":{"android":"levelo://app?vid=0ddad164-3c7f-4c61-b3a2-781df045b604","ios":"levelo://app?vid=0ddad164-3c7f-4c61-b3a2-781df045b604"},"vehicle_type_id":"4","last_reported":1770806334,"current_range_meters":4000,"station_id":"ce4bhnp2rcd13ifvqgvg","pricing_plan_id":"cebpf4jnsgd1na2vs0mg"},{"bike_id":"567dde0f-eec0-4659-88bb-1f83c3ea1bd4","system_id":"levelo_inurba_marseille","lat":43.29535,"lon":5.37506,"is_reserved":false,"is_disabled":false,"rental_uris":{"android":"levelo://app?vid=567dde0f-eec0-4659-88bb-1f83c3ea1bd4","ios":"levelo://app?vid=567dde0f-eec0-4659-88bb-1f83c3ea1bd4"},"vehicle_type_id":"4","last_reported":1770806334,"current_range_meters":4000,"station_id":"ce4bgkp2rcd13ifvqbmg","pricing_plan_id":"cebpf4jnsgd1na2vs0mg"},{"bike_id":"44d17b9a-a696-4502-89c1-4d2b9276205f","system_id":"levelo_inurba_marseille","lat":43.25038,"lon":5.38956,"is_reserved":false,"is_disabled":false,"rental_uris":{"android":"levelo://app?vid=44d17b9a-a696-4502-89c1-4d2b9276205f","ios":"levelo://app?vid=44d17b9a-a696-4502-89c1-4d2b9276205f"},"vehicle_type_id":"4","last_reported":1770806334,"current_range_meters":4000,"station_id":"ce4bhgp2rcd13ifvqfd0","pricing_plan_id":"cebpf4jnsgd1na2vs0mg"},{"bike_id":"aef51d75-8925-4e9a-b46e-ed13a8fba76f","system_id":"levelo_inurba_marseille","lat":43.25569,"lon":5.38253,"is_reserved":false,"is_disabled":false,"rental_uris":{"android":"levelo://app?vid=aef51d75-8925-4e9a-b46e-ed13a8fba76f","ios":"levelo://app?vid=aef51d75-8925-4e9a-b46e-ed13a8fba76f"},"vehicle_type_id":"4","last_reported":1770806334,"current_range_meters":4000,"station_id":"ce4bhih2rcd13ifvqfs0","pricing_plan_id":"cebpf4jnsgd1na2vs0mg"},{"bike_id":"a5ef3890-8302-4c8a-bac6-540bffa0497d","system_id":"levelo_inurba_marseille","lat":43.22938,"lon":5.35375,"is_reserved":false,"is_disabled":false,"rental_uris":{"android":"levelo://app?vid=a5ef3890-8302-4c8a-bac6-540bffa0497d","ios":"levelo://app?vid=a5ef3890-8302-4c8a-bac6-540bffa0497d"},"vehicle_type_id":"4","last_reported":1770806334,"current_range_meters":4400,"station_id":"cpo3532slgdg3j2ikp40","pricing_plan_id":"cebpf4jnsgd1na2vs0mg"},{"bike_id":"14bec802-d051-447b-b6fc-298c0960dd45","system_id":"levelo_inurba_marseille","lat":43.27952,"lon":5.41045,"is_reserved":false,"is_disabled":false,"rental_uris":{"android":"levelo://app?vid=14bec802-d051-447b-b6fc-298c0960dd45","ios":"levelo://app?vid=14bec802-d051-447b-b6fc-298c0960dd45"},"vehicle_type_id":"4","last_reported":1770806334,"current_range_meters":4400,"station_id":"ce4bhnp2rcd13ifvqh0g","pricing_plan_id":"cebpf4jnsgd1na2vs0mg"},{"bike_id":"ee213b40-802c-442b-9390-5e22834db5df","system_id":"levelo_inurba_marseille","lat":43.24166,"lon":5.36401,"is_reserved":false,"is_disabled":false,"rental_uris":{"android":"levelo://app?vid=ee213b40-802c-442b-9390-5e22834db5df","ios":"levelo://app?vid=ee213b40-802c-442b-9390-5e22834db5df"},"vehicle_type_id":"4","last_reported":1770806334,"current_range_meters":4400,"station_id":"cpo36qri1sfpv3e86is0","pricing_plan_id":"cebpf4jnsgd1na2vs0mg"},{"bike_id":"139cd2c1-388d-4eb9-8e03-c9105929e421","system_id":"levelo_inurba_marseille","lat":43.26566,"lon":5.39016,"is_reserved":false,"is_disabled":false,"rental_uris":{"android":"levelo://app?vid=139cd2c1-388d-4eb9-8e03-c9105929e421","ios":"levelo://app?vid=139cd2c1-388d-4eb9-8e03-c9105929e421"},"vehicle_type_id":"4","last_reported":1770806334,"current_range_meters":4400,"station_id":"ce4bhe12rcd13ifvqf30","pricing_plan_id":"cebpf4jnsgd1na2vs0mg"},{"bike_id":"475fae78-75f9-4675-8012-304224f10313","system_id":"levelo_inurba_marseille","lat":43.33555,"lon":5.37467,"is_reserved":false,"is_disabled":false,"rental_uris":{"android":"levelo://app?vid=475fae78-75f9-4675-8012-304224f10313","ios":"levelo://app?vid=475fae78-75f9-4675-8012-304224f10313"},"vehicle_type_id":"4","last_reported":1770806334,"current_range_meters":4400,"station_id":"st_d46tts09ee8s73dlu43g","pricing_plan_id":"cebpf4jnsgd1na2vs0mg"},{"bike_id":"5f7df976-2770-4b0d-bd16-1a5d3e4bd86a","system_id":"levelo_inurba_marseille","lat":43.260236,"lon":5.375545,"is_reserved":false,"is_disabled":false,"rental_uris":{"android":"levelo://app?vid=5f7df976-2770-4b0d-bd16-1a5d3e4bd86a","ios":"levelo://app?vid=5f7df976-2770-4b0d-bd16-1a5d3e4bd86a"},"vehicle_type_id":"4","last_reported":1770806334,"current_range_meters":4400,"station_id":"ce4bhgh2rcd13ifvqfa0","pricing_plan_id":"cebpf4jnsgd1na2vs0mg"},{"bike_id":"46b69bcd-f35a-433e-b9f1-16ab03d0ac0e","system_id":"levelo_inurba_marseille","lat":43.2588,"lon":5.39901,"is_reserved":false,"is_disabled":false,"rental_uris":{"android":"levelo://app?vid=46b69bcd-f35a-433e-b9f1-16ab03d0ac0e","ios":"levelo://app?vid=46b69bcd-f35a-433e-b9f1-16ab03d0ac0e"},"vehicle_type_id":"4","last_reported":1770806334,"current_range_meters":4400,"station_id":"ce4bhl92rcd13ifvqghg","pricing_plan_id":"cebpf4jnsgd1na2vs0mg"},{"bike_id":"c7e4294e-05c4-4015-85f0-4ec70b3b9914","system_id":"levelo_inurba_marseille","lat":43.272274,"lon":5.390919,"is_reserved":false,"is_disabled":false,"rental_uris":{"android":"levelo://app?vid=c7e4294e-05c4-4015-85f0-4ec70b3b9914","ios":"levelo://app?vid=c7e4294e-05c4-4015-85f0-4ec70b3b9914"},"vehicle_type_id":"4","last_reported":1770806334,"current_range_meters":4400,"station_id":"ce4bhgp2rcd13ifvqfe0","pricing_plan_id":"cebpf4jnsgd1na2vs0mg"},{"bike_id":"0328716b-0e74-4ca7-a293-83daeff0b188","system_id":"levelo_inurba_marseille","lat":43.30595,"lon":5.3935,"is_reserved":false,"is_disabled":false,"rental_uris":{"android":"levelo://app?vid=0328716b-0e74-4ca7-a293-83daeff0b188","ios":"levelo://app?vid=0328716b-0e74-4ca7-a293-83daeff0b188"},"vehicle_type_id":"4","last_reported":1770806334,"current_range_meters":4400,"station_id":"ce4bh0p2rcd13ifvqd80","pricing_plan_id":"cebpf4jnsgd1na2vs0mg"},{"bike_id":"9fd591d0-2348-4aee-a8e7-84023c5aa352","system_id":"levelo_inurba_marseille","lat":43.284009,"lon":5.375187,"is_reserved":false,"is_disabled":true,"rental_uris":{"android":"levelo://app?vid=9fd591d0-2348-4aee-a8e7-84023c5aa352","ios":"levelo://app?vid=9fd591d0-2348-4aee-a8e7-84023c5aa352"},"vehicle_type_id":"4","last_reported":1770806334,"current_range_meters":4400,"station_id":"","pricing_plan_id":"cebpf4jnsgd1na2vs0mg"},{"bike_id":"55480cd4-0730-48f6-8bd4-d2c418e56865","system_id":"levelo_inurba_marseille","lat":43.26126,"lon":5.38724,"is_reserved":false,"is_disabled":false,"rental_uris":{"android":"levelo://app?vid=55480cd4-0730-48f6-8bd4-d2c418e56865","ios":"levelo://app?vid=55480cd4-0730-48f6-8bd4-d2c418e56865"},"vehicle_type_id":"4","last_reported":1770806334,"current_range_meters":4400,"station_id":"","pricing_plan_id":"cebpf4jnsgd1na2vs0mg"},{"bike_id":"9855b7ea-59eb-4ce9-a37e-619639c758fc","system_id":"levelo_inurba_marseille","lat":43.33614,"lon":5.41022,"is_reserved":false,"is_disabled":false,"rental_uris":{"android":"levelo://app?vid=9855b7ea-59eb-4ce9-a37e-619639c758fc","ios":"levelo://app?vid=9855b7ea-59eb-4ce9-a37e-619639c758fc"},"vehicle_type_id":"4","last_reported":1770806334,"current_range_meters":4400,"station_id":"ce4bhqh2rcd13ifvqhmg","pricing_plan_id":"cebpf4jnsgd1na2vs0mg"},{"bike_id":"29ab085d-4bcc-4a17-b0ea-6f4ba18c9f2b","system_id":"levelo_inurba_marseille","lat":43.29517,"lon":5.39043,"is_reserved":false,"is_disabled":false,"rental_uris":{"android":"levelo://app?vid=29ab085d-4bcc-4a17-b0ea-6f4ba18c9f2b","ios":"levelo://app?vid=29ab085d-4bcc-4a17-b0ea-6f4ba18c9f2b"},"vehicle_type_id":"4","last_reported":1770806334,"current_range_meters":4400,"station_id":"ce4bh3p2rcd13ifvqdp0","pricing_plan_id":"cebpf4jnsgd1na2vs0mg"},{"bike_id":"df33b6c2-4d7d-4d51-98fe-f6e773c9f42e","system_id":"levelo_inurba_marseille","lat":43.23152,"lon":5.43706,"is_reserved":false,"is_disabled":false,"rental_uris":{"android":"levelo://app?vid=df33b6c2-4d7d-4d51-98fe-f6e773c9f42e","ios":"levelo://app?vid=df33b6c2-4d7d-4d51-98fe-f6e773c9f42e"},"vehicle_type_id":"4","last_reported":1770806334,"current_range_meters":4800,"station_id":"ce4bhmp2rcd13ifvqgog","pricing_plan_id":"cebpf4jnsgd1na2vs0mg"},{"bike_id":"8b2aaaeb-0426-4fc1-b242-78738c042247","system_id":"levelo_inurba_marseille","lat":43.26792,"lon":5.39434,"is_reserved":false,"is_disabled":false,"rental_uris":{"android":"levelo://app?vid=8b2aaaeb-0426-4fc1-b242-78738c042247","ios":"levelo://app?vid=8b2aaaeb-0426-4fc1-b242-78738c042247"},"vehicle_type_id":"4","last_reported":1770806334,"current_range_meters":4800,"station_id":"ce4bhh12rcd13ifvqfg0","pricing_plan_id":"cebpf4jnsgd1na2vs0mg"},{"bike_id":"994557d9-ecc9-4acb-8a01-c26cbdbd842e","system_id":"levelo_inurba_marseille","lat":43.27838,"lon":5.39204,"is_reserved":false,"is_disabled":false,"rental_uris":{"android":"levelo://app?vid=994557d9-ecc9-4acb-8a01-c26cbdbd842e","ios":"levelo://app?vid=994557d9-ecc9-4acb-8a01-c26cbdbd842e"},"vehicle_type_id":"4","last_reported":1770806334,"current_range_meters":4800,"station_id":"ce4bhjp2rcd13ifvqga0","pricing_plan_id":"cebpf4jnsgd1na2vs0mg"},{"bike_id":"b0577ca1-afa8-48fa-be5c-f4673c1a2294","system_id":"levelo_inurba_marseille","lat":43.28007,"lon":5.41294,"is_reserved":false,"is_disabled":false,"rental_uris":{"android":"levelo://app?vid=b0577ca1-afa8-48fa-be5c-f4673c1a2294","ios":"levelo://app?vid=b0577ca1-afa8-48fa-be5c-f4673c1a2294"},"vehicle_type_id":"4","last_reported":1770806334,"current_range_meters":4800,"station_id":"","pricing_plan_id":"cebpf4jnsgd1na2vs0mg"},{"bike_id":"f2a82978-5f27-4a8d-8456-8eb4101715a1","system_id":"levelo_inurba_marseille","lat":43.29042,"lon":5.39999,"is_reserved":false,"is_disabled":false,"rental_uris":{"android":"levelo://app?vid=f2a82978-5f27-4a8d-8456-8eb4101715a1","ios":"levelo://app?vid=f2a82978-5f27-4a8d-8456-8eb4101715a1"},"vehicle_type_id":"4","last_reported":1770806334,"current_range_meters":5600,"station_id":"ce4bh392rcd13ifvqdm0","pricing_plan_id":"cebpf4jnsgd1na2vs0mg"},{"bike_id":"e400418f-545b-40ae-ad73-b01ae029c538","system_id":"levelo_inurba_marseille","lat":43.28479,"lon":5.38436,"is_reserved":false,"is_disabled":false,"rental_uris":{"android":"levelo://app?vid=e400418f-545b-40ae-ad73-b01ae029c538","ios":"levelo://app?vid=e400418f-545b-40ae-ad73-b01ae029c538"},"vehicle_type_id":"4","last_reported":1770806334,"current_range_meters":5600,"station_id":"ce4bh512rcd13ifvqe3g","pricing_plan_id":"cebpf4jnsgd1na2vs0mg"},{"bike_id":"eb54f403-f5f5-4152-9cd4-d31f05df5ad8","system_id":"levelo_inurba_marseille","lat":43.2622,"lon":5.40458,"is_reserved":false,"is_disabled":false,"rental_uris":{"android":"levelo://app?vid=eb54f403-f5f5-4152-9cd4-d31f05df5ad8","ios":"levelo://app?vid=eb54f403-f5f5-4152-9cd4-d31f05df5ad8"},"vehicle_type_id":"4","last_reported":1770806334,"current_range_meters":5600,"station_id":"ce4bhmh2rcd13ifvqgmg","pricing_plan_id":"cebpf4jnsgd1na2vs0mg"},{"bike_id":"0a6c446a-70ea-4ea9-b1e4-1aa07562e109","system_id":"levelo_inurba_marseille","lat":43.27979,"lon":5.40026,"is_reserved":false,"is_disabled":false,"rental_uris":{"android":"levelo://app?vid=0a6c446a-70ea-4ea9-b1e4-1aa07562e109","ios":"levelo://app?vid=0a6c446a-70ea-4ea9-b1e4-1aa07562e109"},"vehicle_type_id":"4","last_reported":1770806334,"current_range_meters":5600,"station_id":"ce4bho92rcd13ifvqh4g","pricing_plan_id":"cebpf4jnsgd1na2vs0mg"},{"bike_id":"32b27b47-6c8b-49c6-8b48-fbeace627871","system_id":"levelo_inurba_marseille","lat":43.31222,"lon":5.36903,"is_reserved":false,"is_disabled":false,"rental_uris":{"android":"levelo://app?vid=32b27b47-6c8b-49c6-8b48-fbeace627871","ios":"levelo://app?vid=32b27b47-6c8b-49c6-8b48-fbeace627871"},"vehicle_type_id":"4","last_reported":1770806334,"current_range_meters":6000,"station_id":"ce4bgl92rcd13ifvqbq0","pricing_plan_id":"cebpf4jnsgd1na2vs0mg"},{"bike_id":"100a2a73-4d9e-44eb-a7e3-94a5fa7d2701","system_id":"levelo_inurba_marseille","lat":43.23189,"lon":5.3557,"is_reserved":false,"is_disabled":false,"rental_uris":{"android":"levelo://app?vid=100a2a73-4d9e-44eb-a7e3-94a5fa7d2701","ios":"levelo://app?vid=100a2a73-4d9e-44eb-a7e3-94a5fa7d2701"},"vehicle_type_id":"4","last_reported":1770806334,"current_range_meters":6000,"station_id":"ce4bhu92rcd13ifvqi70","pricing_plan_id":"cebpf4jnsgd1na2vs0mg"},{"bike_id":"86ceaaee-597d-4ccc-9220-3e10a06889ac","system_id":"levelo_inurba_marseille","lat":43.30951,"lon":5.39048,"is_reserved":false,"is_disabled":false,"rental_uris":{"android":"levelo://app?vid=86ceaaee-597d-4ccc-9220-3e10a06889ac","ios":"levelo://app?vid=86ceaaee-597d-4ccc-9220-3e10a06889ac"},"vehicle_type_id":"4","last_reported":1770806334,"current_range_meters":6000,"station_id":"ce4bgup2rcd13ifvqco0","pricing_plan_id":"cebpf4jnsgd1na2vs0mg"},{"bike_id":"3cf4412f-4eab-4fb4-bd6a-b9dfe83e38cc","system_id":"levelo_inurba_marseille","lat":43.24176,"lon":5.39741,"is_reserved":false,"is_disabled":false,"rental_uris":{"android":"levelo://app?vid=3cf4412f-4eab-4fb4-bd6a-b9dfe83e38cc","ios":"levelo://app?vid=3cf4412f-4eab-4fb4-bd6a-b9dfe83e38cc"},"vehicle_type_id":"4","last_reported":1770806334,"current_range_meters":6000,"station_id":"ce4bhn12rcd13ifvqgpg","pricing_plan_id":"cebpf4jnsgd1na2vs0mg"},{"bike_id":"843e3a8e-ab15-48c9-ba83-40934e1da198","system_id":"levelo_inurba_marseille","lat":43.239648,"lon":5.366319,"is_reserved":false,"is_disabled":false,"rental_uris":{"android":"levelo://app?vid=843e3a8e-ab15-48c9-ba83-40934e1da198","ios":"levelo://app?vid=843e3a8e-ab15-48c9-ba83-40934e1da198"},"vehicle_type_id":"4","last_reported":1770806334,"current_range_meters":6000,"station_id":"ce4bhi12rcd13ifvqfp0","pricing_plan_id":"cebpf4jnsgd1na2vs0mg"},{"bike_id":"1204f32f-48a7-4bb4-b62a-774e14312070","system_id":"levelo_inurba_marseille","lat":43.24174,"lon":5.364,"is_reserved":false,"is_disabled":false,"rental_uris":{"android":"levelo://app?vid=1204f32f-48a7-4bb4-b62a-774e14312070","ios":"levelo://app?vid=1204f32f-48a7-4bb4-b62a-774e14312070"},"vehicle_type_id":"4","last_reported":1770806334,"current_range_meters":6000,"station_id":"cpo36qri1sfpv3e86is0","pricing_plan_id":"cebpf4jnsgd1na2vs0mg"},{"bike_id":"6f6a04ad-dd00-4f4a-bdfd-a835cfa0cc11","system_id":"levelo_inurba_marseille","lat":43.27073,"lon":5.38306,"is_reserved":false,"is_disabled":false,"rental_uris":{"android":"levelo://app?vid=6f6a04ad-dd00-4f4a-bdfd-a835cfa0cc11","ios":"levelo://app?vid=6f6a04ad-dd00-4f4a-bdfd-a835cfa0cc11"},"vehicle_type_id":"4","last_reported":1770806334,"current_range_meters":6400,"station_id":"st_d3n2fo6cfp8s73cte1j0","pricing_plan_id":"cebpf4jnsgd1na2vs0mg"},{"bike_id":"131a45ec-0ade-479c-aab9-8ca5cd2c4eaf","system_id":"levelo_inurba_marseille","lat":43.297286,"lon":5.376953,"is_reserved":false,"is_disabled":true,"rental_uris":{"android":"levelo://app?vid=131a45ec-0ade-479c-aab9-8ca5cd2c4eaf","ios":"levelo://app?vid=131a45ec-0ade-479c-aab9-8ca5cd2c4eaf"},"vehicle_type_id":"4","last_reported":1770806334,"current_range_meters":6400,"station_id":"ce4bgkh2rcd13ifvqbl0","pricing_plan_id":"cebpf4jnsgd1na2vs0mg"},{"bike_id":"5cf9d7d0-1017-4de2-80da-237bbfab2da7","system_id":"levelo_inurba_marseille","lat":43.23179,"lon":5.39991,"is_reserved":false,"is_disabled":false,"rental_uris":{"android":"levelo://app?vid=5cf9d7d0-1017-4de2-80da-237bbfab2da7","ios":"levelo://app?vid=5cf9d7d0-1017-4de2-80da-237bbfab2da7"},"vehicle_type_id":"4","last_reported":1770806334,"current_range_meters":6400,"station_id":"ce4bhn12rcd13ifvqgqg","pricing_plan_id":"cebpf4jnsgd1na2vs0mg"},{"bike_id":"f566875e-5642-41c3-af4a-390fbf63f0fb","system_id":"levelo_inurba_marseille","lat":43.28311,"lon":5.38109,"is_reserved":false,"is_disabled":false,"rental_uris":{"android":"levelo://app?vid=f566875e-5642-41c3-af4a-390fbf63f0fb","ios":"levelo://app?vid=f566875e-5642-41c3-af4a-390fbf63f0fb"},"vehicle_type_id":"4","last_reported":1770806334,"current_range_meters":6400,"station_id":"ce4bh412rcd13ifvqdr0","pricing_plan_id":"cebpf4jnsgd1na2vs0mg"},{"bike_id":"d05c6341-3d97-4e14-b4df-ea14d40bb1eb","system_id":"levelo_inurba_marseille","lat":43.305259,"lon":5.365486,"is_reserved":false,"is_disabled":false,"rental_uris":{"android":"levelo://app?vid=d05c6341-3d97-4e14-b4df-ea14d40bb1eb","ios":"levelo://app?vid=d05c6341-3d97-4e14-b4df-ea14d40bb1eb"},"vehicle_type_id":"4","last_reported":1770806334,"current_range_meters":6400,"station_id":"ce4bgs12rcd13ifvqcag","pricing_plan_id":"cebpf4jnsgd1na2vs0mg"},{"bike_id":"017f8692-3989-411e-9ac2-575c25580113","system_id":"levelo_inurba_marseille","lat":43.24061,"lon":5.37709,"is_reserved":false,"is_disabled":false,"rental_uris":{"android":"levelo://app?vid=017f8692-3989-411e-9ac2-575c25580113","ios":"levelo://app?vid=017f8692-3989-411e-9ac2-575c25580113"},"vehicle_type_id":"4","last_reported":1770806334,"current_range_meters":6400,"station_id":"ce4bhnp2rcd13ifvqgvg","pricing_plan_id":"cebpf4jnsgd1na2vs0mg"},{"bike_id":"aead3aa2-57b1-4216-9960-07bf9d5c4f71","system_id":"levelo_inurba_marseille","lat":43.29573,"lon":5.39981,"is_reserved":false,"is_disabled":false,"rental_uris":{"android":"levelo://app?vid=aead3aa2-57b1-4216-9960-07bf9d5c4f71","ios":"levelo://app?vid=aead3aa2-57b1-4216-9960-07bf9d5c4f71"},"vehicle_type_id":"4","last_reported":1770806334,"current_range_meters":6400,"station_id":"ce4bh312rcd13ifvqdj0","pricing_plan_id":"cebpf4jnsgd1na2vs0mg"},{"bike_id":"e532d849-9da4-492c-974e-21e564fe6f6a","system_id":"levelo_inurba_marseille","lat":43.31057,"lon":5.37189,"is_reserved":false,"is_disabled":false,"rental_uris":{"android":"levelo://app?vid=e532d849-9da4-492c-974e-21e564fe6f6a","ios":"levelo://app?vid=e532d849-9da4-492c-974e-21e564fe6f6a"},"vehicle_type_id":"4","last_reported":1770806334,"current_range_meters":6800,"station_id":"st_d4kl2rp97mjs73e7tdfg","pricing_plan_id":"cebpf4jnsgd1na2vs0mg"},{"bike_id":"195129a7-492c-4a00-92c9-6590be19f8d4","system_id":"levelo_inurba_marseille","lat":43.29492,"lon":5.43306,"is_reserved":false,"is_disabled":false,"rental_uris":{"android":"levelo://app?vid=195129a7-492c-4a00-92c9-6590be19f8d4","ios":"levelo://app?vid=195129a7-492c-4a00-92c9-6590be19f8d4"},"vehicle_type_id":"4","last_reported":1770806334,"current_range_meters":6800,"station_id":"st_d3j5ugp08ojc73fj9d10","pricing_plan_id":"cebpf4jnsgd1na2vs0mg"},{"bike_id":"1c120683-67bc-428a-aa0f-bec572dfb863","system_id":"levelo_inurba_marseille","lat":43.25578,"lon":5.38247,"is_reserved":false,"is_disabled":false,"rental_uris":{"android":"levelo://app?vid=1c120683-67bc-428a-aa0f-bec572dfb863","ios":"levelo://app?vid=1c120683-67bc-428a-aa0f-bec572dfb863"},"vehicle_type_id":"4","last_reported":1770806334,"current_range_meters":6800,"station_id":"ce4bhih2rcd13ifvqfs0","pricing_plan_id":"cebpf4jnsgd1na2vs0mg"},{"bike_id":"60c2c944-fc00-4d7a-8415-4900c96e89f7","system_id":"levelo_inurba_marseille","lat":43.30462,"lon":5.37907,"is_reserved":false,"is_disabled":false,"rental_uris":{"android":"levelo://app?vid=60c2c944-fc00-4d7a-8415-4900c96e89f7","ios":"levelo://app?vid=60c2c944-fc00-4d7a-8415-4900c96e89f7"},"vehicle_type_id":"4","last_reported":1770806334,"current_range_meters":6800,"station_id":"ce4bgup2rcd13ifvqcn0","pricing_plan_id":"cebpf4jnsgd1na2vs0mg"},{"bike_id":"d3ff72dc-5551-4917-81f1-dd8f1a42992a","system_id":"levelo_inurba_marseille","lat":43.31351,"lon":5.36734,"is_reserved":false,"is_disabled":false,"rental_uris":{"android":"levelo://app?vid=d3ff72dc-5551-4917-81f1-dd8f1a42992a","ios":"levelo://app?vid=d3ff72dc-5551-4917-81f1-dd8f1a42992a"},"vehicle_type_id":"4","last_reported":1770806334,"current_range_meters":6800,"station_id":"ce4bgr92rcd13ifvqc6g","pricing_plan_id":"cebpf4jnsgd1na2vs0mg"},{"bike_id":"4659f5f2-43a6-4213-b84f-184d5dec64b3","system_id":"levelo_inurba_marseille","lat":43.33553,"lon":5.3745,"is_reserved":false,"is_disabled":false,"rental_uris":{"android":"levelo://app?vid=4659f5f2-43a6-4213-b84f-184d5dec64b3","ios":"levelo://app?vid=4659f5f2-43a6-4213-b84f-184d5dec64b3"},"vehicle_type_id":"4","last_reported":1770806334,"current_range_meters":6800,"station_id":"st_d46tts09ee8s73dlu43g","pricing_plan_id":"cebpf4jnsgd1na2vs0mg"},{"bike_id":"0309368b-c45a-400f-b598-331f15a882de","system_id":"levelo_inurba_marseille","lat":43.337444,"lon":5.374475,"is_reserved":false,"is_disabled":false,"rental_uris":{"android":"levelo://app?vid=0309368b-c45a-400f-b598-331f15a882de","ios":"levelo://app?vid=0309368b-c45a-400f-b598-331f15a882de"},"vehicle_type_id":"4","last_reported":1770806334,"current_range_meters":6800,"station_id":"","pricing_plan_id":"cebpf4jnsgd1na2vs0mg"},{"bike_id":"0415f26c-4d21-4b4e-aeeb-299f12b793c1","system_id":"levelo_inurba_marseille","lat":43.25494,"lon":5.37654,"is_reserved":false,"is_disabled":false,"rental_uris":{"android":"levelo://app?vid=0415f26c-4d21-4b4e-aeeb-299f12b793c1","ios":"levelo://app?vid=0415f26c-4d21-4b4e-aeeb-299f12b793c1"},"vehicle_type_id":"4","last_reported":1770806334,"current_range_meters":6800,"station_id":"ce4bhh12rcd13ifvqff0","pricing_plan_id":"cebpf4jnsgd1na2vs0mg"},{"bike_id":"774647ab-afd2-472c-b3ee-3701d6387862","system_id":"levelo_inurba_marseille","lat":43.3053,"lon":5.367,"is_reserved":false,"is_disabled":false,"rental_uris":{"android":"levelo://app?vid=774647ab-afd2-472c-b3ee-3701d6387862","ios":"levelo://app?vid=774647ab-afd2-472c-b3ee-3701d6387862"},"vehicle_type_id":"4","last_reported":1770806334,"current_range_meters":6800,"station_id":"ce4bgrp2rcd13ifvqc9g","pricing_plan_id":"cebpf4jnsgd1na2vs0mg"},{"bike_id":"a89fd987-a49c-4cc5-ba9e-3a3eb87d07d0","system_id":"levelo_inurba_marseille","lat":43.29011,"lon":5.35611,"is_reserved":false,"is_disabled":false,"rental_uris":{"android":"levelo://app?vid=a89fd987-a49c-4cc5-ba9e-3a3eb87d07d0","ios":"levelo://app?vid=a89fd987-a49c-4cc5-ba9e-3a3eb87d07d0"},"vehicle_type_id":"4","last_reported":1770806334,"current_range_meters":6800,"station_id":"ce4bhb92rcd13ifvqen0","pricing_plan_id":"cebpf4jnsgd1na2vs0mg"},{"bike_id":"5ed0f3ca-c4eb-409c-9eb1-a3eed1b5d0e0","system_id":"levelo_inurba_marseille","lat":43.30396,"lon":5.42483,"is_reserved":false,"is_disabled":false,"rental_uris":{"android":"levelo://app?vid=5ed0f3ca-c4eb-409c-9eb1-a3eed1b5d0e0","ios":"levelo://app?vid=5ed0f3ca-c4eb-409c-9eb1-a3eed1b5d0e0"},"vehicle_type_id":"4","last_reported":1770806334,"current_range_meters":6800,"station_id":"ce4bhoh2rcd13ifvqh6g","pricing_plan_id":"cebpf4jnsgd1na2vs0mg"},{"bike_id":"a595811d-e4a2-4edd-bc38-2905c562c34e","system_id":"levelo_inurba_marseille","lat":43.33552,"lon":5.37474,"is_reserved":false,"is_disabled":false,"rental_uris":{"android":"levelo://app?vid=a595811d-e4a2-4edd-bc38-2905c562c34e","ios":"levelo://app?vid=a595811d-e4a2-4edd-bc38-2905c562c34e"},"vehicle_type_id":"4","last_reported":1770806334,"current_range_meters":6800,"station_id":"st_d46tts09ee8s73dlu43g","pricing_plan_id":"cebpf4jnsgd1na2vs0mg"},{"bike_id":"b98382db-64eb-4b14-9ee8-8fe7e988797f","system_id":"levelo_inurba_marseille","lat":43.32542,"lon":5.41444,"is_reserved":false,"is_disabled":false,"rental_uris":{"android":"levelo://app?vid=b98382db-64eb-4b14-9ee8-8fe7e988797f","ios":"levelo://app?vid=b98382db-64eb-4b14-9ee8-8fe7e988797f"},"vehicle_type_id":"4","last_reported":1770806334,"current_range_meters":6800,"station_id":"ce4bhq12rcd13ifvqhhg","pricing_plan_id":"cebpf4jnsgd1na2vs0mg"},{"bike_id":"82c051d1-822f-4de0-8095-c2773742c990","system_id":"levelo_inurba_marseille","lat":43.24547,"lon":5.42355,"is_reserved":false,"is_disabled":false,"rental_uris":{"android":"levelo://app?vid=82c051d1-822f-4de0-8095-c2773742c990","ios":"levelo://app?vid=82c051d1-822f-4de0-8095-c2773742c990"},"vehicle_type_id":"4","last_reported":1770806334,"current_range_meters":7200,"station_id":"","pricing_plan_id":"cebpf4jnsgd1na2vs0mg"},{"bike_id":"1448c9ce-d568-4f77-9f2b-dca45ac4e256","system_id":"levelo_inurba_marseille","lat":43.273677,"lon":5.362576,"is_reserved":false,"is_disabled":false,"rental_uris":{"android":"levelo://app?vid=1448c9ce-d568-4f77-9f2b-dca45ac4e256","ios":"levelo://app?vid=1448c9ce-d568-4f77-9f2b-dca45ac4e256"},"vehicle_type_id":"4","last_reported":1770806334,"current_range_meters":7200,"station_id":"ce4bhbh2rcd13ifvqeo0","pricing_plan_id":"cebpf4jnsgd1na2vs0mg"},{"bike_id":"1c5cf88e-bae0-4a7f-af92-27de33575267","system_id":"levelo_inurba_marseille","lat":43.25887,"lon":5.39915,"is_reserved":false,"is_disabled":false,"rental_uris":{"android":"levelo://app?vid=1c5cf88e-bae0-4a7f-af92-27de33575267","ios":"levelo://app?vid=1c5cf88e-bae0-4a7f-af92-27de33575267"},"vehicle_type_id":"4","last_reported":1770806334,"current_range_meters":7200,"station_id":"ce4bhl92rcd13ifvqghg","pricing_plan_id":"cebpf4jnsgd1na2vs0mg"},{"bike_id":"8d50b418-d397-4808-ad5c-a81963abfec2","system_id":"levelo_inurba_marseille","lat":43.290083,"lon":5.356089,"is_reserved":false,"is_disabled":false,"rental_uris":{"android":"levelo://app?vid=8d50b418-d397-4808-ad5c-a81963abfec2","ios":"levelo://app?vid=8d50b418-d397-4808-ad5c-a81963abfec2"},"vehicle_type_id":"4","last_reported":1770806334,"current_range_meters":7200,"station_id":"ce4bhb92rcd13ifvqen0","pricing_plan_id":"cebpf4jnsgd1na2vs0mg"},{"bike_id":"78bdbec6-3ec1-4b90-8a6c-8222c94ec8b4","system_id":"levelo_inurba_marseille","lat":43.31053,"lon":5.3717,"is_reserved":false,"is_disabled":false,"rental_uris":{"android":"levelo://app?vid=78bdbec6-3ec1-4b90-8a6c-8222c94ec8b4","ios":"levelo://app?vid=78bdbec6-3ec1-4b90-8a6c-8222c94ec8b4"},"vehicle_type_id":"4","last_reported":1770806334,"current_range_meters":7200,"station_id":"st_d4kl2rp97mjs73e7tdfg","pricing_plan_id":"cebpf4jnsgd1na2vs0mg"},{"bike_id":"bdde70ef-70ce-4d41-a03b-1cac73853d63","system_id":"levelo_inurba_marseille","lat":43.24164,"lon":5.36383,"is_reserved":false,"is_disabled":false,"rental_uris":{"android":"levelo://app?vid=bdde70ef-70ce-4d41-a03b-1cac73853d63","ios":"levelo://app?vid=bdde70ef-70ce-4d41-a03b-1cac73853d63"},"vehicle_type_id":"4","last_reported":1770806334,"current_range_meters":7200,"station_id":"cpo36qri1sfpv3e86is0","pricing_plan_id":"cebpf4jnsgd1na2vs0mg"},{"bike_id":"3350c008-baa2-4e01-8652-9a5b173a785a","system_id":"levelo_inurba_marseille","lat":43.30949,"lon":5.39041,"is_reserved":false,"is_disabled":false,"rental_uris":{"android":"levelo://app?vid=3350c008-baa2-4e01-8652-9a5b173a785a","ios":"levelo://app?vid=3350c008-baa2-4e01-8652-9a5b173a785a"},"vehicle_type_id":"4","last_reported":1770806334,"current_range_meters":7200,"station_id":"","pricing_plan_id":"cebpf4jnsgd1na2vs0mg"},{"bike_id":"74e14ad3-8d48-4d38-98c0-80e4667038a8","system_id":"levelo_inurba_marseille","lat":43.26217,"lon":5.37928,"is_reserved":false,"is_disabled":false,"rental_uris":{"android":"levelo://app?vid=74e14ad3-8d48-4d38-98c0-80e4667038a8","ios":"levelo://app?vid=74e14ad3-8d48-4d38-98c0-80e4667038a8"},"vehicle_type_id":"4","last_reported":1770806334,"current_range_meters":7200,"station_id":"ce4bhjp2rcd13ifvqg90","pricing_plan_id":"cebpf4jnsgd1na2vs0mg"},{"bike_id":"69cb53c0-4939-4da6-a53e-35e4cb2de7f7","system_id":"levelo_inurba_marseille","lat":43.22557,"lon":5.41635,"is_reserved":false,"is_disabled":false,"rental_uris":{"android":"levelo://app?vid=69cb53c0-4939-4da6-a53e-35e4cb2de7f7","ios":"levelo://app?vid=69cb53c0-4939-4da6-a53e-35e4cb2de7f7"},"vehicle_type_id":"4","last_reported":1770806334,"current_range_meters":7200,"station_id":"st_d2o4gvlbi1j2169b742g","pricing_plan_id":"cebpf4jnsgd1na2vs0mg"},{"bike_id":"d01b6834-66f5-48ae-92a1-6b2fa16228ad","system_id":"levelo_inurba_marseille","lat":43.26554,"lon":5.37311,"is_reserved":false,"is_disabled":false,"rental_uris":{"android":"levelo://app?vid=d01b6834-66f5-48ae-92a1-6b2fa16228ad","ios":"levelo://app?vid=d01b6834-66f5-48ae-92a1-6b2fa16228ad"},"vehicle_type_id":"4","last_reported":1770806334,"current_range_meters":8000,"station_id":"ce4bhg12rcd13ifvqf70","pricing_plan_id":"cebpf4jnsgd1na2vs0mg"},{"bike_id":"1a0d99f0-ee74-4956-bad4-992b0789ccc7","system_id":"levelo_inurba_marseille","lat":43.21199,"lon":5.35075,"is_reserved":false,"is_disabled":false,"rental_uris":{"android":"levelo://app?vid=1a0d99f0-ee74-4956-bad4-992b0789ccc7","ios":"levelo://app?vid=1a0d99f0-ee74-4956-bad4-992b0789ccc7"},"vehicle_type_id":"4","last_reported":1770806334,"current_range_meters":8000,"station_id":"st_cvj6sg6p6f1abm77japg","pricing_plan_id":"cebpf4jnsgd1na2vs0mg"},{"bike_id":"a8033c18-bf59-458a-9eb0-147256918905","system_id":"levelo_inurba_marseille","lat":43.31052,"lon":5.37181,"is_reserved":false,"is_disabled":false,"rental_uris":{"android":"levelo://app?vid=a8033c18-bf59-458a-9eb0-147256918905","ios":"levelo://app?vid=a8033c18-bf59-458a-9eb0-147256918905"},"vehicle_type_id":"4","last_reported":1770806334,"current_range_meters":8000,"station_id":"st_d4kl2rp97mjs73e7tdfg","pricing_plan_id":"cebpf4jnsgd1na2vs0mg"},{"bike_id":"d6b9d7ff-4ec2-4ca9-ba28-5a5dad54cfd3","system_id":"levelo_inurba_marseille","lat":43.28488,"lon":5.4839,"is_reserved":false,"is_disabled":false,"rental_uris":{"android":"levelo://app?vid=d6b9d7ff-4ec2-4ca9-ba28-5a5dad54cfd3","ios":"levelo://app?vid=d6b9d7ff-4ec2-4ca9-ba28-5a5dad54cfd3"},"vehicle_type_id":"4","last_reported":1770806334,"current_range_meters":8000,"station_id":"","pricing_plan_id":"cebpf4jnsgd1na2vs0mg"},{"bike_id":"28da66f8-2004-4492-b048-093018453bae","system_id":"levelo_inurba_marseille","lat":43.29615,"lon":5.37741,"is_reserved":false,"is_disabled":false,"rental_uris":{"android":"levelo://app?vid=28da66f8-2004-4492-b048-093018453bae","ios":"levelo://app?vid=28da66f8-2004-4492-b048-093018453bae"},"vehicle_type_id":"4","last_reported":1770806334,"current_range_meters":8000,"station_id":"ce4bgi92rcd13ifvqb90","pricing_plan_id":"cebpf4jnsgd1na2vs0mg"},{"bike_id":"6efe5f0a-6c4f-403e-907f-5428484845d2","system_id":"levelo_inurba_marseille","lat":43.31709,"lon":5.40401,"is_reserved":false,"is_disabled":false,"rental_uris":{"android":"levelo://app?vid=6efe5f0a-6c4f-403e-907f-5428484845d2","ios":"levelo://app?vid=6efe5f0a-6c4f-403e-907f-5428484845d2"},"vehicle_type_id":"4","last_reported":1770806334,"current_range_meters":8000,"station_id":"","pricing_plan_id":"cebpf4jnsgd1na2vs0mg"},{"bike_id":"33352d89-c7bd-4d2f-8796-2f3b2fb0783e","system_id":"levelo_inurba_marseille","lat":43.28153,"lon":5.42716,"is_reserved":false,"is_disabled":false,"rental_uris":{"android":"levelo://app?vid=33352d89-c7bd-4d2f-8796-2f3b2fb0783e","ios":"levelo://app?vid=33352d89-c7bd-4d2f-8796-2f3b2fb0783e"},"vehicle_type_id":"4","last_reported":1770806334,"current_range_meters":8000,"station_id":"","pricing_plan_id":"cebpf4jnsgd1na2vs0mg"},{"bike_id":"0db530a1-9821-453a-878e-fb6063868eb6","system_id":"levelo_inurba_marseille","lat":43.22939,"lon":5.35374,"is_reserved":false,"is_disabled":false,"rental_uris":{"android":"levelo://app?vid=0db530a1-9821-453a-878e-fb6063868eb6","ios":"levelo://app?vid=0db530a1-9821-453a-878e-fb6063868eb6"},"vehicle_type_id":"4","last_reported":1770806334,"current_range_meters":8000,"station_id":"cpo3532slgdg3j2ikp40","pricing_plan_id":"cebpf4jnsgd1na2vs0mg"},{"bike_id":"91e14193-ec23-43c7-b089-41b3b3307db5","system_id":"levelo_inurba_marseille","lat":43.286003,"lon":5.35105,"is_reserved":false,"is_disabled":false,"rental_uris":{"android":"levelo://app?vid=91e14193-ec23-43c7-b089-41b3b3307db5","ios":"levelo://app?vid=91e14193-ec23-43c7-b089-41b3b3307db5"},"vehicle_type_id":"4","last_reported":1770806334,"current_range_meters":8400,"station_id":"ce4bhch2rcd13ifvqeug","pricing_plan_id":"cebpf4jnsgd1na2vs0mg"},{"bike_id":"fe86c9ba-789d-48cb-b139-57215407552e","system_id":"levelo_inurba_marseille","lat":43.33767,"lon":5.37458,"is_reserved":false,"is_disabled":false,"rental_uris":{"android":"levelo://app?vid=fe86c9ba-789d-48cb-b139-57215407552e","ios":"levelo://app?vid=fe86c9ba-789d-48cb-b139-57215407552e"},"vehicle_type_id":"4","last_reported":1770806334,"current_range_meters":8400,"station_id":"","pricing_plan_id":"cebpf4jnsgd1na2vs0mg"},{"bike_id":"9c4fa197-e784-47a1-9a3e-1e64aa186f14","system_id":"levelo_inurba_marseille","lat":43.2593,"lon":5.40906,"is_reserved":false,"is_disabled":false,"rental_uris":{"android":"levelo://app?vid=9c4fa197-e784-47a1-9a3e-1e64aa186f14","ios":"levelo://app?vid=9c4fa197-e784-47a1-9a3e-1e64aa186f14"},"vehicle_type_id":"4","last_reported":1770806334,"current_range_meters":8400,"station_id":"ce4bhm92rcd13ifvqglg","pricing_plan_id":"cebpf4jnsgd1na2vs0mg"},{"bike_id":"d4ca1552-174d-4ef7-a9fa-51001d780ed8","system_id":"levelo_inurba_marseille","lat":43.31857,"lon":5.43909,"is_reserved":false,"is_disabled":false,"rental_uris":{"android":"levelo://app?vid=d4ca1552-174d-4ef7-a9fa-51001d780ed8","ios":"levelo://app?vid=d4ca1552-174d-4ef7-a9fa-51001d780ed8"},"vehicle_type_id":"4","last_reported":1770806334,"current_range_meters":8400,"station_id":"","pricing_plan_id":"cebpf4jnsgd1na2vs0mg"},{"bike_id":"7a0ccbb8-777a-4ea2-a2f2-a73a5000e9f5","system_id":"levelo_inurba_marseille","lat":43.29047,"lon":5.39941,"is_reserved":false,"is_disabled":false,"rental_uris":{"android":"levelo://app?vid=7a0ccbb8-777a-4ea2-a2f2-a73a5000e9f5","ios":"levelo://app?vid=7a0ccbb8-777a-4ea2-a2f2-a73a5000e9f5"},"vehicle_type_id":"4","last_reported":1770806334,"current_range_meters":8400,"station_id":"ce4bh392rcd13ifvqdm0","pricing_plan_id":"cebpf4jnsgd1na2vs0mg"},{"bike_id":"2b14cda8-f3bd-489e-b3e7-87e7ea87fd93","system_id":"levelo_inurba_marseille","lat":43.30134,"lon":5.37416,"is_reserved":false,"is_disabled":false,"rental_uris":{"android":"levelo://app?vid=2b14cda8-f3bd-489e-b3e7-87e7ea87fd93","ios":"levelo://app?vid=2b14cda8-f3bd-489e-b3e7-87e7ea87fd93"},"vehicle_type_id":"4","last_reported":1770806334,"current_range_meters":8400,"station_id":"ce4bgs92rcd13ifvqcc0","pricing_plan_id":"cebpf4jnsgd1na2vs0mg"},{"bike_id":"8ff4a9fa-0d2e-4f7f-8193-e7a8dba5ca9a","system_id":"levelo_inurba_marseille","lat":43.25501,"lon":5.40131,"is_reserved":false,"is_disabled":false,"rental_uris":{"android":"levelo://app?vid=8ff4a9fa-0d2e-4f7f-8193-e7a8dba5ca9a","ios":"levelo://app?vid=8ff4a9fa-0d2e-4f7f-8193-e7a8dba5ca9a"},"vehicle_type_id":"4","last_reported":1770806334,"current_range_meters":8400,"station_id":"","pricing_plan_id":"cebpf4jnsgd1na2vs0mg"},{"bike_id":"ae861497-9a22-4231-afa9-8238d5c5713c","system_id":"levelo_inurba_marseille","lat":43.24172,"lon":5.36392,"is_reserved":false,"is_disabled":false,"rental_uris":{"android":"levelo://app?vid=ae861497-9a22-4231-afa9-8238d5c5713c","ios":"levelo://app?vid=ae861497-9a22-4231-afa9-8238d5c5713c"},"vehicle_type_id":"4","last_reported":1770806334,"current_range_meters":8400,"station_id":"cpo36qri1sfpv3e86is0","pricing_plan_id":"cebpf4jnsgd1na2vs0mg"},{"bike_id":"d373c67d-1dce-4200-b1fc-e555d3a72522","system_id":"levelo_inurba_marseille","lat":43.30176,"lon":5.37407,"is_reserved":false,"is_disabled":false,"rental_uris":{"android":"levelo://app?vid=d373c67d-1dce-4200-b1fc-e555d3a72522","ios":"levelo://app?vid=d373c67d-1dce-4200-b1fc-e555d3a72522"},"vehicle_type_id":"4","last_reported":1770806334,"current_range_meters":8400,"station_id":"ce4bgs92rcd13ifvqcc0","pricing_plan_id":"cebpf4jnsgd1na2vs0mg"},{"bike_id":"5fda65b6-7f98-4bf6-b2de-a2c95ed917cc","system_id":"levelo_inurba_marseille","lat":43.25459,"lon":5.3845,"is_reserved":false,"is_disabled":false,"rental_uris":{"android":"levelo://app?vid=5fda65b6-7f98-4bf6-b2de-a2c95ed917cc","ios":"levelo://app?vid=5fda65b6-7f98-4bf6-b2de-a2c95ed917cc"},"vehicle_type_id":"4","last_reported":1770806334,"current_range_meters":8400,"station_id":"","pricing_plan_id":"cebpf4jnsgd1na2vs0mg"},{"bike_id":"f6ae03bd-f0af-424d-8730-7bf34c263485","system_id":"levelo_inurba_marseille","lat":43.27212,"lon":5.39181,"is_reserved":false,"is_disabled":false,"rental_uris":{"android":"levelo://app?vid=f6ae03bd-f0af-424d-8730-7bf34c263485","ios":"levelo://app?vid=f6ae03bd-f0af-424d-8730-7bf34c263485"},"vehicle_type_id":"4","last_reported":1770806334,"current_range_meters":8400,"station_id":"ce4bhhp2rcd13ifvqfm0","pricing_plan_id":"cebpf4jnsgd1na2vs0mg"},{"bike_id":"cc43a2a6-4df1-46ee-89a5-e5908a5338ed","system_id":"levelo_inurba_marseille","lat":43.284779,"lon":5.483883,"is_reserved":false,"is_disabled":false,"rental_uris":{"android":"levelo://app?vid=cc43a2a6-4df1-46ee-89a5-e5908a5338ed","ios":"levelo://app?vid=cc43a2a6-4df1-46ee-89a5-e5908a5338ed"},"vehicle_type_id":"4","last_reported":1770806334,"current_range_meters":8400,"station_id":"st_d3svhcjqgbts73a3dn0g","pricing_plan_id":"cebpf4jnsgd1na2vs0mg"},{"bike_id":"1666b265-643d-41e7-bcc3-6167a6d49f91","system_id":"levelo_inurba_marseille","lat":43.22531,"lon":5.34836,"is_reserved":false,"is_disabled":false,"rental_uris":{"android":"levelo://app?vid=1666b265-643d-41e7-bcc3-6167a6d49f91","ios":"levelo://app?vid=1666b265-643d-41e7-bcc3-6167a6d49f91"},"vehicle_type_id":"4","last_reported":1770806334,"current_range_meters":8800,"station_id":"","pricing_plan_id":"cebpf4jnsgd1na2vs0mg"},{"bike_id":"7f92d6d1-5ea0-47c6-a843-bcba70613193","system_id":"levelo_inurba_marseille","lat":43.24085,"lon":5.37777,"is_reserved":false,"is_disabled":false,"rental_uris":{"android":"levelo://app?vid=7f92d6d1-5ea0-47c6-a843-bcba70613193","ios":"levelo://app?vid=7f92d6d1-5ea0-47c6-a843-bcba70613193"},"vehicle_type_id":"4","last_reported":1770806334,"current_range_meters":8800,"station_id":"ce4bhnp2rcd13ifvqgvg","pricing_plan_id":"cebpf4jnsgd1na2vs0mg"},{"bike_id":"455adaeb-f562-46cf-8a05-08612f7a4c81","system_id":"levelo_inurba_marseille","lat":43.24964,"lon":5.40512,"is_reserved":false,"is_disabled":false,"rental_uris":{"android":"levelo://app?vid=455adaeb-f562-46cf-8a05-08612f7a4c81","ios":"levelo://app?vid=455adaeb-f562-46cf-8a05-08612f7a4c81"},"vehicle_type_id":"4","last_reported":1770806334,"current_range_meters":8800,"station_id":"st_d2ngiaodas8pm72gd1h0","pricing_plan_id":"cebpf4jnsgd1na2vs0mg"},{"bike_id":"4878db2c-1746-4e84-a2dc-9ef31135b542","system_id":"levelo_inurba_marseille","lat":43.25859,"lon":5.39916,"is_reserved":false,"is_disabled":false,"rental_uris":{"android":"levelo://app?vid=4878db2c-1746-4e84-a2dc-9ef31135b542","ios":"levelo://app?vid=4878db2c-1746-4e84-a2dc-9ef31135b542"},"vehicle_type_id":"4","last_reported":1770806334,"current_range_meters":8800,"station_id":"ce4bhl92rcd13ifvqghg","pricing_plan_id":"cebpf4jnsgd1na2vs0mg"},{"bike_id":"d997c6b7-acb1-4efa-ae35-2d8c161e2e69","system_id":"levelo_inurba_marseille","lat":43.231915,"lon":5.355542,"is_reserved":false,"is_disabled":false,"rental_uris":{"android":"levelo://app?vid=d997c6b7-acb1-4efa-ae35-2d8c161e2e69","ios":"levelo://app?vid=d997c6b7-acb1-4efa-ae35-2d8c161e2e69"},"vehicle_type_id":"4","last_reported":1770806334,"current_range_meters":8800,"station_id":"ce4bhu92rcd13ifvqi70","pricing_plan_id":"cebpf4jnsgd1na2vs0mg"},{"bike_id":"ac9a885a-fe7d-4871-905c-95e91acf3aa8","system_id":"levelo_inurba_marseille","lat":43.22561,"lon":5.4165,"is_reserved":false,"is_disabled":false,"rental_uris":{"android":"levelo://app?vid=ac9a885a-fe7d-4871-905c-95e91acf3aa8","ios":"levelo://app?vid=ac9a885a-fe7d-4871-905c-95e91acf3aa8"},"vehicle_type_id":"4","last_reported":1770806334,"current_range_meters":8800,"station_id":"st_d2o4gvlbi1j2169b742g","pricing_plan_id":"cebpf4jnsgd1na2vs0mg"},{"bike_id":"c70b9966-2b0a-4bf3-b276-98dec1f0aea0","system_id":"levelo_inurba_marseille","lat":43.25574,"lon":5.3823,"is_reserved":false,"is_disabled":false,"rental_uris":{"android":"levelo://app?vid=c70b9966-2b0a-4bf3-b276-98dec1f0aea0","ios":"levelo://app?vid=c70b9966-2b0a-4bf3-b276-98dec1f0aea0"},"vehicle_type_id":"4","last_reported":1770806334,"current_range_meters":8800,"station_id":"ce4bhih2rcd13ifvqfs0","pricing_plan_id":"cebpf4jnsgd1na2vs0mg"},{"bike_id":"01b7a0c2-ed16-407b-98a5-f5888996bd6e","system_id":"levelo_inurba_marseille","lat":43.32493,"lon":5.36567,"is_reserved":false,"is_disabled":false,"rental_uris":{"android":"levelo://app?vid=01b7a0c2-ed16-407b-98a5-f5888996bd6e","ios":"levelo://app?vid=01b7a0c2-ed16-407b-98a5-f5888996bd6e"},"vehicle_type_id":"4","last_reported":1770806334,"current_range_meters":8800,"station_id":"ce4bhs12rcd13ifvqhvg","pricing_plan_id":"cebpf4jnsgd1na2vs0mg"},{"bike_id":"472c7295-e480-4db6-b994-4d22c3916883","system_id":"levelo_inurba_marseille","lat":43.29015,"lon":5.35612,"is_reserved":false,"is_disabled":false,"rental_uris":{"android":"levelo://app?vid=472c7295-e480-4db6-b994-4d22c3916883","ios":"levelo://app?vid=472c7295-e480-4db6-b994-4d22c3916883"},"vehicle_type_id":"4","last_reported":1770806334,"current_range_meters":8800,"station_id":"ce4bhb92rcd13ifvqen0","pricing_plan_id":"cebpf4jnsgd1na2vs0mg"},{"bike_id":"babdcd4a-655b-4e95-88f5-77a8529739da","system_id":"levelo_inurba_marseille","lat":43.2257,"lon":5.4162,"is_reserved":false,"is_disabled":false,"rental_uris":{"android":"levelo://app?vid=babdcd4a-655b-4e95-88f5-77a8529739da","ios":"levelo://app?vid=babdcd4a-655b-4e95-88f5-77a8529739da"},"vehicle_type_id":"4","last_reported":1770806334,"current_range_meters":8800,"station_id":"st_d2o4gvlbi1j2169b742g","pricing_plan_id":"cebpf4jnsgd1na2vs0mg"},{"bike_id":"5611e9db-46f1-411c-9cc4-47d063a5db1f","system_id":"levelo_inurba_marseille","lat":43.305269,"lon":5.36714,"is_reserved":false,"is_disabled":false,"rental_uris":{"android":"levelo://app?vid=5611e9db-46f1-411c-9cc4-47d063a5db1f","ios":"levelo://app?vid=5611e9db-46f1-411c-9cc4-47d063a5db1f"},"vehicle_type_id":"4","last_reported":1770806334,"current_range_meters":9200,"station_id":"ce4bgrp2rcd13ifvqc9g","pricing_plan_id":"cebpf4jnsgd1na2vs0mg"},{"bike_id":"bfbb4392-91b5-475a-8d52-4ff0b2fea2c9","system_id":"levelo_inurba_marseille","lat":43.30559,"lon":5.3842,"is_reserved":false,"is_disabled":false,"rental_uris":{"android":"levelo://app?vid=bfbb4392-91b5-475a-8d52-4ff0b2fea2c9","ios":"levelo://app?vid=bfbb4392-91b5-475a-8d52-4ff0b2fea2c9"},"vehicle_type_id":"4","last_reported":1770806334,"current_range_meters":9200,"station_id":"ce4bgg92rcd13ifvqb30","pricing_plan_id":"cebpf4jnsgd1na2vs0mg"},{"bike_id":"0cad91d7-1079-467e-882f-8f8ec527c2c5","system_id":"levelo_inurba_marseille","lat":43.23181,"lon":5.39999,"is_reserved":false,"is_disabled":false,"rental_uris":{"android":"levelo://app?vid=0cad91d7-1079-467e-882f-8f8ec527c2c5","ios":"levelo://app?vid=0cad91d7-1079-467e-882f-8f8ec527c2c5"},"vehicle_type_id":"4","last_reported":1770806334,"current_range_meters":9200,"station_id":"ce4bhn12rcd13ifvqgqg","pricing_plan_id":"cebpf4jnsgd1na2vs0mg"},{"bike_id":"e44df137-3a9f-4865-a2d3-769a6f5bfc14","system_id":"levelo_inurba_marseille","lat":43.309264,"lon":5.368621,"is_reserved":false,"is_disabled":false,"rental_uris":{"android":"levelo://app?vid=e44df137-3a9f-4865-a2d3-769a6f5bfc14","ios":"levelo://app?vid=e44df137-3a9f-4865-a2d3-769a6f5bfc14"},"vehicle_type_id":"4","last_reported":1770806334,"current_range_meters":9200,"station_id":"ce4bgn92rcd13ifvqbvg","pricing_plan_id":"cebpf4jnsgd1na2vs0mg"},{"bike_id":"55645d2c-fdd2-4fb8-ba5c-33a389bd0683","system_id":"levelo_inurba_marseille","lat":43.28535,"lon":5.44097,"is_reserved":false,"is_disabled":false,"rental_uris":{"android":"levelo://app?vid=55645d2c-fdd2-4fb8-ba5c-33a389bd0683","ios":"levelo://app?vid=55645d2c-fdd2-4fb8-ba5c-33a389bd0683"},"vehicle_type_id":"4","last_reported":1770806334,"current_range_meters":9200,"station_id":"","pricing_plan_id":"cebpf4jnsgd1na2vs0mg"},{"bike_id":"1e4a7842-cd51-4881-b298-8b4cc321effe","system_id":"levelo_inurba_marseille","lat":43.24399,"lon":5.3706,"is_reserved":false,"is_disabled":false,"rental_uris":{"android":"levelo://app?vid=1e4a7842-cd51-4881-b298-8b4cc321effe","ios":"levelo://app?vid=1e4a7842-cd51-4881-b298-8b4cc321effe"},"vehicle_type_id":"4","last_reported":1770806334,"current_range_meters":9200,"station_id":"ce4bhhh2rcd13ifvqfk0","pricing_plan_id":"cebpf4jnsgd1na2vs0mg"},{"bike_id":"c56f952a-2694-4f01-bd3d-3fee799d62e9","system_id":"levelo_inurba_marseille","lat":43.29527,"lon":5.39044,"is_reserved":false,"is_disabled":false,"rental_uris":{"android":"levelo://app?vid=c56f952a-2694-4f01-bd3d-3fee799d62e9","ios":"levelo://app?vid=c56f952a-2694-4f01-bd3d-3fee799d62e9"},"vehicle_type_id":"4","last_reported":1770806334,"current_range_meters":9200,"station_id":"ce4bh3p2rcd13ifvqdp0","pricing_plan_id":"cebpf4jnsgd1na2vs0mg"},{"bike_id":"ebdbedc7-4354-4eb9-bf82-5a732061a6cb","system_id":"levelo_inurba_marseille","lat":43.31065,"lon":5.37176,"is_reserved":false,"is_disabled":false,"rental_uris":{"android":"levelo://app?vid=ebdbedc7-4354-4eb9-bf82-5a732061a6cb","ios":"levelo://app?vid=ebdbedc7-4354-4eb9-bf82-5a732061a6cb"},"vehicle_type_id":"4","last_reported":1770806334,"current_range_meters":9200,"station_id":"st_d4kl2rp97mjs73e7tdfg","pricing_plan_id":"cebpf4jnsgd1na2vs0mg"},{"bike_id":"5972af9e-c5c9-4893-9801-36cc4f8969be","system_id":"levelo_inurba_marseille","lat":43.26713,"lon":5.38229,"is_reserved":false,"is_disabled":false,"rental_uris":{"android":"levelo://app?vid=5972af9e-c5c9-4893-9801-36cc4f8969be","ios":"levelo://app?vid=5972af9e-c5c9-4893-9801-36cc4f8969be"},"vehicle_type_id":"4","last_reported":1770806334,"current_range_meters":9200,"station_id":"ce4bhg92rcd13ifvqf90","pricing_plan_id":"cebpf4jnsgd1na2vs0mg"},{"bike_id":"bca520ac-7e6b-4132-bbcc-e56181c5620d","system_id":"levelo_inurba_marseille","lat":43.288525,"lon":5.425094,"is_reserved":false,"is_disabled":false,"rental_uris":{"android":"levelo://app?vid=bca520ac-7e6b-4132-bbcc-e56181c5620d","ios":"levelo://app?vid=bca520ac-7e6b-4132-bbcc-e56181c5620d"},"vehicle_type_id":"4","last_reported":1770806334,"current_range_meters":9200,"station_id":"st_d3b462108ojc7389ooeg","pricing_plan_id":"cebpf4jnsgd1na2vs0mg"},{"bike_id":"ab423922-f17a-4e29-a973-2a80e7014b5a","system_id":"levelo_inurba_marseille","lat":43.29035,"lon":5.37581,"is_reserved":false,"is_disabled":false,"rental_uris":{"android":"levelo://app?vid=ab423922-f17a-4e29-a973-2a80e7014b5a","ios":"levelo://app?vid=ab423922-f17a-4e29-a973-2a80e7014b5a"},"vehicle_type_id":"4","last_reported":1770806334,"current_range_meters":9600,"station_id":"ce4bh692rcd13ifvqe90","pricing_plan_id":"cebpf4jnsgd1na2vs0mg"},{"bike_id":"9ec97639-55fe-47ab-8f8e-83edcad2032a","system_id":"levelo_inurba_marseille","lat":43.24689,"lon":5.38184,"is_reserved":false,"is_disabled":false,"rental_uris":{"android":"levelo://app?vid=9ec97639-55fe-47ab-8f8e-83edcad2032a","ios":"levelo://app?vid=9ec97639-55fe-47ab-8f8e-83edcad2032a"},"vehicle_type_id":"4","last_reported":1770806334,"current_range_meters":9600,"station_id":"ce4bhih2rcd13ifvqfr0","pricing_plan_id":"cebpf4jnsgd1na2vs0mg"},{"bike_id":"0f1022fa-4006-4594-9b22-17c523f9f063","system_id":"levelo_inurba_marseille","lat":43.23155,"lon":5.43727,"is_reserved":false,"is_disabled":false,"rental_uris":{"android":"levelo://app?vid=0f1022fa-4006-4594-9b22-17c523f9f063","ios":"levelo://app?vid=0f1022fa-4006-4594-9b22-17c523f9f063"},"vehicle_type_id":"4","last_reported":1770806334,"current_range_meters":9600,"station_id":"ce4bhmp2rcd13ifvqgog","pricing_plan_id":"cebpf4jnsgd1na2vs0mg"},{"bike_id":"406b8143-680c-411e-8da6-8818c609b259","system_id":"levelo_inurba_marseille","lat":43.22936,"lon":5.3538,"is_reserved":false,"is_disabled":false,"rental_uris":{"android":"levelo://app?vid=406b8143-680c-411e-8da6-8818c609b259","ios":"levelo://app?vid=406b8143-680c-411e-8da6-8818c609b259"},"vehicle_type_id":"4","last_reported":1770806334,"current_range_meters":9600,"station_id":"cpo3532slgdg3j2ikp40","pricing_plan_id":"cebpf4jnsgd1na2vs0mg"},{"bike_id":"4128404a-6f46-416c-9354-3df98c5c64de","system_id":"levelo_inurba_marseille","lat":43.27243,"lon":5.39178,"is_reserved":false,"is_disabled":false,"rental_uris":{"android":"levelo://app?vid=4128404a-6f46-416c-9354-3df98c5c64de","ios":"levelo://app?vid=4128404a-6f46-416c-9354-3df98c5c64de"},"vehicle_type_id":"4","last_reported":1770806334,"current_range_meters":9600,"station_id":"ce4bhhp2rcd13ifvqfm0","pricing_plan_id":"cebpf4jnsgd1na2vs0mg"},{"bike_id":"7394aa7b-274b-413c-971f-ee71dbba1d5a","system_id":"levelo_inurba_marseille","lat":43.31722,"lon":5.37767,"is_reserved":false,"is_disabled":false,"rental_uris":{"android":"levelo://app?vid=7394aa7b-274b-413c-971f-ee71dbba1d5a","ios":"levelo://app?vid=7394aa7b-274b-413c-971f-ee71dbba1d5a"},"vehicle_type_id":"4","last_reported":1770806334,"current_range_meters":9600,"station_id":"ce4bgth2rcd13ifvqch0","pricing_plan_id":"cebpf4jnsgd1na2vs0mg"},{"bike_id":"159f95b8-d74f-4ef4-8c95-0687f51342d5","system_id":"levelo_inurba_marseille","lat":43.24101,"lon":5.37768,"is_reserved":false,"is_disabled":true,"rental_uris":{"android":"levelo://app?vid=159f95b8-d74f-4ef4-8c95-0687f51342d5","ios":"levelo://app?vid=159f95b8-d74f-4ef4-8c95-0687f51342d5"},"vehicle_type_id":"4","last_reported":1770806334,"current_range_meters":9600,"station_id":"ce4bhnp2rcd13ifvqgvg","pricing_plan_id":"cebpf4jnsgd1na2vs0mg"},{"bike_id":"9b586055-3525-4e43-ae53-8d6c2fff45ed","system_id":"levelo_inurba_marseille","lat":43.24164,"lon":5.36402,"is_reserved":false,"is_disabled":false,"rental_uris":{"android":"levelo://app?vid=9b586055-3525-4e43-ae53-8d6c2fff45ed","ios":"levelo://app?vid=9b586055-3525-4e43-ae53-8d6c2fff45ed"},"vehicle_type_id":"4","last_reported":1770806334,"current_range_meters":9600,"station_id":"cpo36qri1sfpv3e86is0","pricing_plan_id":"cebpf4jnsgd1na2vs0mg"},{"bike_id":"c1f7cbe2-ed0d-417a-b458-7a778b7875f7","system_id":"levelo_inurba_marseille","lat":43.312276,"lon":5.368568,"is_reserved":false,"is_disabled":false,"rental_uris":{"android":"levelo://app?vid=c1f7cbe2-ed0d-417a-b458-7a778b7875f7","ios":"levelo://app?vid=c1f7cbe2-ed0d-417a-b458-7a778b7875f7"},"vehicle_type_id":"4","last_reported":1770806334,"current_range_meters":9600,"station_id":"ce4bgl92rcd13ifvqbq0","pricing_plan_id":"cebpf4jnsgd1na2vs0mg"},{"bike_id":"04b3ef1e-fd39-4f79-a733-e12a91897393","system_id":"levelo_inurba_marseille","lat":43.25959,"lon":5.40904,"is_reserved":false,"is_disabled":false,"rental_uris":{"android":"levelo://app?vid=04b3ef1e-fd39-4f79-a733-e12a91897393","ios":"levelo://app?vid=04b3ef1e-fd39-4f79-a733-e12a91897393"},"vehicle_type_id":"4","last_reported":1770806334,"current_range_meters":9600,"station_id":"ce4bhm92rcd13ifvqglg","pricing_plan_id":"cebpf4jnsgd1na2vs0mg"},{"bike_id":"c66db0ad-2c7f-4464-999e-e8465fece01c","system_id":"levelo_inurba_marseille","lat":43.26943,"lon":5.38927,"is_reserved":false,"is_disabled":false,"rental_uris":{"android":"levelo://app?vid=c66db0ad-2c7f-4464-999e-e8465fece01c","ios":"levelo://app?vid=c66db0ad-2c7f-4464-999e-e8465fece01c"},"vehicle_type_id":"4","last_reported":1770806334,"current_range_meters":9600,"station_id":"ce4bhhh2rcd13ifvqfl0","pricing_plan_id":"cebpf4jnsgd1na2vs0mg"},{"bike_id":"f2e705ea-8523-4931-b22c-3ab910e1d1d0","system_id":"levelo_inurba_marseille","lat":43.27373,"lon":5.36245,"is_reserved":false,"is_disabled":false,"rental_uris":{"android":"levelo://app?vid=f2e705ea-8523-4931-b22c-3ab910e1d1d0","ios":"levelo://app?vid=f2e705ea-8523-4931-b22c-3ab910e1d1d0"},"vehicle_type_id":"4","last_reported":1770806334,"current_range_meters":9600,"station_id":"ce4bhbh2rcd13ifvqeo0","pricing_plan_id":"cebpf4jnsgd1na2vs0mg"},{"bike_id":"59624936-7916-41fd-ae1c-a77a4adb46d4","system_id":"levelo_inurba_marseille","lat":43.2749,"lon":5.42491,"is_reserved":false,"is_disabled":false,"rental_uris":{"android":"levelo://app?vid=59624936-7916-41fd-ae1c-a77a4adb46d4","ios":"levelo://app?vid=59624936-7916-41fd-ae1c-a77a4adb46d4"},"vehicle_type_id":"4","last_reported":1770806334,"current_range_meters":10000,"station_id":"ce4bhn92rcd13ifvqgrg","pricing_plan_id":"cebpf4jnsgd1na2vs0mg"},{"bike_id":"01733d93-1aac-46ab-a1d7-be825cb9fa16","system_id":"levelo_inurba_marseille","lat":43.29314,"lon":5.37642,"is_reserved":false,"is_disabled":false,"rental_uris":{"android":"levelo://app?vid=01733d93-1aac-46ab-a1d7-be825cb9fa16","ios":"levelo://app?vid=01733d93-1aac-46ab-a1d7-be825cb9fa16"},"vehicle_type_id":"4","last_reported":1770806334,"current_range_meters":10000,"station_id":"","pricing_plan_id":"cebpf4jnsgd1na2vs0mg"},{"bike_id":"5068638c-4d4f-48b9-94c9-8b2df037c592","system_id":"levelo_inurba_marseille","lat":43.31304,"lon":5.38529,"is_reserved":false,"is_disabled":false,"rental_uris":{"android":"levelo://app?vid=5068638c-4d4f-48b9-94c9-8b2df037c592","ios":"levelo://app?vid=5068638c-4d4f-48b9-94c9-8b2df037c592"},"vehicle_type_id":"4","last_reported":1770806334,"current_range_meters":10000,"station_id":"","pricing_plan_id":"cebpf4jnsgd1na2vs0mg"},{"bike_id":"9ba15159-bc8a-46ec-906b-7f7ba3003728","system_id":"levelo_inurba_marseille","lat":43.259258,"lon":5.408804,"is_reserved":false,"is_disabled":false,"rental_uris":{"android":"levelo://app?vid=9ba15159-bc8a-46ec-906b-7f7ba3003728","ios":"levelo://app?vid=9ba15159-bc8a-46ec-906b-7f7ba3003728"},"vehicle_type_id":"4","last_reported":1770806334,"current_range_meters":10000,"station_id":"ce4bhm92rcd13ifvqglg","pricing_plan_id":"cebpf4jnsgd1na2vs0mg"},{"bike_id":"5a491698-2f1e-4844-92f0-bd732412a37d","system_id":"levelo_inurba_marseille","lat":43.276065,"lon":5.384244,"is_reserved":false,"is_disabled":false,"rental_uris":{"android":"levelo://app?vid=5a491698-2f1e-4844-92f0-bd732412a37d","ios":"levelo://app?vid=5a491698-2f1e-4844-92f0-bd732412a37d"},"vehicle_type_id":"4","last_reported":1770806334,"current_range_meters":10000,"station_id":"","pricing_plan_id":"cebpf4jnsgd1na2vs0mg"},{"bike_id":"3ed093f4-08d0-4276-9163-84c86d6b0819","system_id":"levelo_inurba_marseille","lat":43.29565,"lon":5.39941,"is_reserved":false,"is_disabled":true,"rental_uris":{"android":"levelo://app?vid=3ed093f4-08d0-4276-9163-84c86d6b0819","ios":"levelo://app?vid=3ed093f4-08d0-4276-9163-84c86d6b0819"},"vehicle_type_id":"4","last_reported":1770806334,"current_range_meters":10000,"station_id":"ce4bh312rcd13ifvqdj0","pricing_plan_id":"cebpf4jnsgd1na2vs0mg"},{"bike_id":"ee327cd6-cfe2-4b26-b04d-3aef34e5be05","system_id":"levelo_inurba_marseille","lat":43.2953,"lon":5.39036,"is_reserved":false,"is_disabled":false,"rental_uris":{"android":"levelo://app?vid=ee327cd6-cfe2-4b26-b04d-3aef34e5be05","ios":"levelo://app?vid=ee327cd6-cfe2-4b26-b04d-3aef34e5be05"},"vehicle_type_id":"4","last_reported":1770806334,"current_range_meters":10000,"station_id":"ce4bh3p2rcd13ifvqdp0","pricing_plan_id":"cebpf4jnsgd1na2vs0mg"},{"bike_id":"f28d6f89-fcc0-4566-8662-51e8789f30aa","system_id":"levelo_inurba_marseille","lat":43.30565,"lon":5.36694,"is_reserved":false,"is_disabled":false,"rental_uris":{"android":"levelo://app?vid=f28d6f89-fcc0-4566-8662-51e8789f30aa","ios":"levelo://app?vid=f28d6f89-fcc0-4566-8662-51e8789f30aa"},"vehicle_type_id":"4","last_reported":1770806334,"current_range_meters":10000,"station_id":"ce4bgrp2rcd13ifvqc9g","pricing_plan_id":"cebpf4jnsgd1na2vs0mg"},{"bike_id":"8a3f8576-3d4b-4ad2-ac0a-be6adb5876b8","system_id":"levelo_inurba_marseille","lat":43.292,"lon":5.39317,"is_reserved":false,"is_disabled":false,"rental_uris":{"android":"levelo://app?vid=8a3f8576-3d4b-4ad2-ac0a-be6adb5876b8","ios":"levelo://app?vid=8a3f8576-3d4b-4ad2-ac0a-be6adb5876b8"},"vehicle_type_id":"4","last_reported":1770806334,"current_range_meters":10000,"station_id":"ce4bh192rcd13ifvqdd0","pricing_plan_id":"cebpf4jnsgd1na2vs0mg"},{"bike_id":"6cf115fc-4795-4422-b049-3943b7408b99","system_id":"levelo_inurba_marseille","lat":43.29782,"lon":5.39361,"is_reserved":false,"is_disabled":false,"rental_uris":{"android":"levelo://app?vid=6cf115fc-4795-4422-b049-3943b7408b99","ios":"levelo://app?vid=6cf115fc-4795-4422-b049-3943b7408b99"},"vehicle_type_id":"4","last_reported":1770806334,"current_range_meters":10000,"station_id":"chh1huq6cuj3fo74tm60","pricing_plan_id":"cebpf4jnsgd1na2vs0mg"},{"bike_id":"31a7a706-1ff4-486d-b0ea-aa0afb881a3f","system_id":"levelo_inurba_marseille","lat":43.31113,"lon":5.3856,"is_reserved":false,"is_disabled":false,"rental_uris":{"android":"levelo://app?vid=31a7a706-1ff4-486d-b0ea-aa0afb881a3f","ios":"levelo://app?vid=31a7a706-1ff4-486d-b0ea-aa0afb881a3f"},"vehicle_type_id":"4","last_reported":1770806334,"current_range_meters":10000,"station_id":"","pricing_plan_id":"cebpf4jnsgd1na2vs0mg"},{"bike_id":"8b4b38ac-f6cb-48ed-90a4-30149ea67fd7","system_id":"levelo_inurba_marseille","lat":43.29084,"lon":5.39922,"is_reserved":false,"is_disabled":false,"rental_uris":{"android":"levelo://app?vid=8b4b38ac-f6cb-48ed-90a4-30149ea67fd7","ios":"levelo://app?vid=8b4b38ac-f6cb-48ed-90a4-30149ea67fd7"},"vehicle_type_id":"4","last_reported":1770806334,"current_range_meters":10000,"station_id":"","pricing_plan_id":"cebpf4jnsgd1na2vs0mg"},{"bike_id":"befb2afa-282d-4ede-8c3b-f01cd0660840","system_id":"levelo_inurba_marseille","lat":43.30556,"lon":5.36521,"is_reserved":false,"is_disabled":false,"rental_uris":{"android":"levelo://app?vid=befb2afa-282d-4ede-8c3b-f01cd0660840","ios":"levelo://app?vid=befb2afa-282d-4ede-8c3b-f01cd0660840"},"vehicle_type_id":"4","last_reported":1770806334,"current_range_meters":10000,"station_id":"ce4bgs12rcd13ifvqcag","pricing_plan_id":"cebpf4jnsgd1na2vs0mg"},{"bike_id":"9e393b97-50a6-42b0-ae35-8d36ff1f9030","system_id":"levelo_inurba_marseille","lat":43.263731,"lon":5.410519,"is_reserved":false,"is_disabled":false,"rental_uris":{"android":"levelo://app?vid=9e393b97-50a6-42b0-ae35-8d36ff1f9030","ios":"levelo://app?vid=9e393b97-50a6-42b0-ae35-8d36ff1f9030"},"vehicle_type_id":"4","last_reported":1770806334,"current_range_meters":10800,"station_id":"st_d4e5ca6na9uc73bfl5fg","pricing_plan_id":"cebpf4jnsgd1na2vs0mg"},{"bike_id":"adedccca-d77d-4967-91ed-2661b5b510ba","system_id":"levelo_inurba_marseille","lat":43.22554,"lon":5.41636,"is_reserved":false,"is_disabled":false,"rental_uris":{"android":"levelo://app?vid=adedccca-d77d-4967-91ed-2661b5b510ba","ios":"levelo://app?vid=adedccca-d77d-4967-91ed-2661b5b510ba"},"vehicle_type_id":"4","last_reported":1770806334,"current_range_meters":10800,"station_id":"st_d2o4gvlbi1j2169b742g","pricing_plan_id":"cebpf4jnsgd1na2vs0mg"},{"bike_id":"c6176d61-506f-4755-a0d6-6ccb9566f89a","system_id":"levelo_inurba_marseille","lat":43.257,"lon":5.41127,"is_reserved":false,"is_disabled":false,"rental_uris":{"android":"levelo://app?vid=c6176d61-506f-4755-a0d6-6ccb9566f89a","ios":"levelo://app?vid=c6176d61-506f-4755-a0d6-6ccb9566f89a"},"vehicle_type_id":"4","last_reported":1770806334,"current_range_meters":10800,"station_id":"ce4bhkp2rcd13ifvqgd0","pricing_plan_id":"cebpf4jnsgd1na2vs0mg"},{"bike_id":"51f50f49-0125-412c-8286-c260be56e451","system_id":"levelo_inurba_marseille","lat":43.23154,"lon":5.43693,"is_reserved":false,"is_disabled":false,"rental_uris":{"android":"levelo://app?vid=51f50f49-0125-412c-8286-c260be56e451","ios":"levelo://app?vid=51f50f49-0125-412c-8286-c260be56e451"},"vehicle_type_id":"4","last_reported":1770806334,"current_range_meters":10800,"station_id":"ce4bhmp2rcd13ifvqgog","pricing_plan_id":"cebpf4jnsgd1na2vs0mg"},{"bike_id":"5e3d93b2-3c3e-41fb-90aa-6f4909d81e34","system_id":"levelo_inurba_marseille","lat":43.33567,"lon":5.37487,"is_reserved":false,"is_disabled":false,"rental_uris":{"android":"levelo://app?vid=5e3d93b2-3c3e-41fb-90aa-6f4909d81e34","ios":"levelo://app?vid=5e3d93b2-3c3e-41fb-90aa-6f4909d81e34"},"vehicle_type_id":"4","last_reported":1770806334,"current_range_meters":10800,"station_id":"st_d46tts09ee8s73dlu43g","pricing_plan_id":"cebpf4jnsgd1na2vs0mg"},{"bike_id":"d98f09ff-8b59-4519-baee-c61bc86adc1e","system_id":"levelo_inurba_marseille","lat":43.294876,"lon":5.433015,"is_reserved":false,"is_disabled":false,"rental_uris":{"android":"levelo://app?vid=d98f09ff-8b59-4519-baee-c61bc86adc1e","ios":"levelo://app?vid=d98f09ff-8b59-4519-baee-c61bc86adc1e"},"vehicle_type_id":"4","last_reported":1770806334,"current_range_meters":10800,"station_id":"st_d3j5ugp08ojc73fj9d10","pricing_plan_id":"cebpf4jnsgd1na2vs0mg"},{"bike_id":"cc8657f3-cee0-4726-8427-1495a502b0dc","system_id":"levelo_inurba_marseille","lat":43.297618,"lon":5.427846,"is_reserved":false,"is_disabled":false,"rental_uris":{"android":"levelo://app?vid=cc8657f3-cee0-4726-8427-1495a502b0dc","ios":"levelo://app?vid=cc8657f3-cee0-4726-8427-1495a502b0dc"},"vehicle_type_id":"4","last_reported":1770806334,"current_range_meters":10800,"station_id":"st_d3md5207bmas73dh9klg","pricing_plan_id":"cebpf4jnsgd1na2vs0mg"},{"bike_id":"bf542bbd-7d77-4888-8b81-b6081367c974","system_id":"levelo_inurba_marseille","lat":43.31379,"lon":5.38513,"is_reserved":false,"is_disabled":false,"rental_uris":{"android":"levelo://app?vid=bf542bbd-7d77-4888-8b81-b6081367c974","ios":"levelo://app?vid=bf542bbd-7d77-4888-8b81-b6081367c974"},"vehicle_type_id":"4","last_reported":1770806334,"current_range_meters":10800,"station_id":"ce4bgt92rcd13ifvqcf0","pricing_plan_id":"cebpf4jnsgd1na2vs0mg"},{"bike_id":"ed5d1c9b-042b-48d8-97a2-2f831ed60e0e","system_id":"levelo_inurba_marseille","lat":43.3016,"lon":5.38082,"is_reserved":false,"is_disabled":false,"rental_uris":{"android":"levelo://app?vid=ed5d1c9b-042b-48d8-97a2-2f831ed60e0e","ios":"levelo://app?vid=ed5d1c9b-042b-48d8-97a2-2f831ed60e0e"},"vehicle_type_id":"4","last_reported":1770806334,"current_range_meters":10800,"station_id":"ce4bgjp2rcd13ifvqbh0","pricing_plan_id":"cebpf4jnsgd1na2vs0mg"},{"bike_id":"09b34151-bc85-4ed3-ae75-6800e531e58d","system_id":"levelo_inurba_marseille","lat":43.29583,"lon":5.36739,"is_reserved":false,"is_disabled":false,"rental_uris":{"android":"levelo://app?vid=09b34151-bc85-4ed3-ae75-6800e531e58d","ios":"levelo://app?vid=09b34151-bc85-4ed3-ae75-6800e531e58d"},"vehicle_type_id":"4","last_reported":1770806334,"current_range_meters":10800,"station_id":"ce4bgph2rcd13ifvqc2g","pricing_plan_id":"cebpf4jnsgd1na2vs0mg"},{"bike_id":"acfcc69b-2272-4cc0-a189-c29ce5026dd3","system_id":"levelo_inurba_marseille","lat":43.29053,"lon":5.37584,"is_reserved":false,"is_disabled":false,"rental_uris":{"android":"levelo://app?vid=acfcc69b-2272-4cc0-a189-c29ce5026dd3","ios":"levelo://app?vid=acfcc69b-2272-4cc0-a189-c29ce5026dd3"},"vehicle_type_id":"4","last_reported":1770806334,"current_range_meters":10800,"station_id":"ce4bh692rcd13ifvqe90","pricing_plan_id":"cebpf4jnsgd1na2vs0mg"},{"bike_id":"f87c4ba9-0879-4b3f-b7da-048672b8c251","system_id":"levelo_inurba_marseille","lat":43.30303,"lon":5.36913,"is_reserved":false,"is_disabled":false,"rental_uris":{"android":"levelo://app?vid=f87c4ba9-0879-4b3f-b7da-048672b8c251","ios":"levelo://app?vid=f87c4ba9-0879-4b3f-b7da-048672b8c251"},"vehicle_type_id":"4","last_reported":1770806334,"current_range_meters":10800,"station_id":"ce4bgqh2rcd13ifvqc5g","pricing_plan_id":"cebpf4jnsgd1na2vs0mg"},{"bike_id":"d54b106d-1122-48f1-917e-21c3100120b1","system_id":"levelo_inurba_marseille","lat":43.27224,"lon":5.39197,"is_reserved":false,"is_disabled":false,"rental_uris":{"android":"levelo://app?vid=d54b106d-1122-48f1-917e-21c3100120b1","ios":"levelo://app?vid=d54b106d-1122-48f1-917e-21c3100120b1"},"vehicle_type_id":"4","last_reported":1770806334,"current_range_meters":10800,"station_id":"ce4bhhp2rcd13ifvqfm0","pricing_plan_id":"cebpf4jnsgd1na2vs0mg"},{"bike_id":"646f5941-3890-4fc3-99bc-835d21b81b79","system_id":"levelo_inurba_marseille","lat":43.29249,"lon":5.40917,"is_reserved":false,"is_disabled":false,"rental_uris":{"android":"levelo://app?vid=646f5941-3890-4fc3-99bc-835d21b81b79","ios":"levelo://app?vid=646f5941-3890-4fc3-99bc-835d21b81b79"},"vehicle_type_id":"4","last_reported":1770806334,"current_range_meters":10800,"station_id":"ce4bh192rcd13ifvqdc0","pricing_plan_id":"cebpf4jnsgd1na2vs0mg"},{"bike_id":"c32d45ac-8290-4436-8257-2ce11ffca061","system_id":"levelo_inurba_marseille","lat":43.25596,"lon":5.38239,"is_reserved":false,"is_disabled":false,"rental_uris":{"android":"levelo://app?vid=c32d45ac-8290-4436-8257-2ce11ffca061","ios":"levelo://app?vid=c32d45ac-8290-4436-8257-2ce11ffca061"},"vehicle_type_id":"4","last_reported":1770806334,"current_range_meters":11200,"station_id":"ce4bhih2rcd13ifvqfs0","pricing_plan_id":"cebpf4jnsgd1na2vs0mg"},{"bike_id":"a0d5465b-a2a2-4398-92d1-adaa8ea4fc1f","system_id":"levelo_inurba_marseille","lat":43.2409,"lon":5.37746,"is_reserved":false,"is_disabled":false,"rental_uris":{"android":"levelo://app?vid=a0d5465b-a2a2-4398-92d1-adaa8ea4fc1f","ios":"levelo://app?vid=a0d5465b-a2a2-4398-92d1-adaa8ea4fc1f"},"vehicle_type_id":"4","last_reported":1770806334,"current_range_meters":11200,"station_id":"ce4bhnp2rcd13ifvqgvg","pricing_plan_id":"cebpf4jnsgd1na2vs0mg"},{"bike_id":"57c7335a-6e31-409f-9d2c-42a2b3f19b20","system_id":"levelo_inurba_marseille","lat":43.31046,"lon":5.37162,"is_reserved":false,"is_disabled":false,"rental_uris":{"android":"levelo://app?vid=57c7335a-6e31-409f-9d2c-42a2b3f19b20","ios":"levelo://app?vid=57c7335a-6e31-409f-9d2c-42a2b3f19b20"},"vehicle_type_id":"4","last_reported":1770806334,"current_range_meters":11200,"station_id":"st_d4kl2rp97mjs73e7tdfg","pricing_plan_id":"cebpf4jnsgd1na2vs0mg"},{"bike_id":"2e9bbe5f-b4bf-4094-a888-b57f728bafdd","system_id":"levelo_inurba_marseille","lat":43.25726,"lon":5.41115,"is_reserved":false,"is_disabled":false,"rental_uris":{"android":"levelo://app?vid=2e9bbe5f-b4bf-4094-a888-b57f728bafdd","ios":"levelo://app?vid=2e9bbe5f-b4bf-4094-a888-b57f728bafdd"},"vehicle_type_id":"4","last_reported":1770806334,"current_range_meters":11200,"station_id":"ce4bhkp2rcd13ifvqgd0","pricing_plan_id":"cebpf4jnsgd1na2vs0mg"},{"bike_id":"60fbe695-1590-4d4e-9f79-8ee300fe75b7","system_id":"levelo_inurba_marseille","lat":43.29315,"lon":5.37157,"is_reserved":false,"is_disabled":false,"rental_uris":{"android":"levelo://app?vid=60fbe695-1590-4d4e-9f79-8ee300fe75b7","ios":"levelo://app?vid=60fbe695-1590-4d4e-9f79-8ee300fe75b7"},"vehicle_type_id":"4","last_reported":1770806334,"current_range_meters":11200,"station_id":"ce4bgh92rcd13ifvqb40","pricing_plan_id":"cebpf4jnsgd1na2vs0mg"},{"bike_id":"a6a2abc2-13d8-4c9a-b978-8487fe9fcbf5","system_id":"levelo_inurba_marseille","lat":43.25836,"lon":5.3948,"is_reserved":false,"is_disabled":false,"rental_uris":{"android":"levelo://app?vid=a6a2abc2-13d8-4c9a-b978-8487fe9fcbf5","ios":"levelo://app?vid=a6a2abc2-13d8-4c9a-b978-8487fe9fcbf5"},"vehicle_type_id":"4","last_reported":1770806334,"current_range_meters":11200,"station_id":"ce4bhip2rcd13ifvqft0","pricing_plan_id":"cebpf4jnsgd1na2vs0mg"},{"bike_id":"820102d8-4bf3-43d0-bf33-9724fbbf610e","system_id":"levelo_inurba_marseille","lat":43.28152,"lon":5.42639,"is_reserved":false,"is_disabled":false,"rental_uris":{"android":"levelo://app?vid=820102d8-4bf3-43d0-bf33-9724fbbf610e","ios":"levelo://app?vid=820102d8-4bf3-43d0-bf33-9724fbbf610e"},"vehicle_type_id":"4","last_reported":1770806334,"current_range_meters":11200,"station_id":"ce4bhnh2rcd13ifvqgug","pricing_plan_id":"cebpf4jnsgd1na2vs0mg"},{"bike_id":"93d13824-88c0-4dc3-a740-8b4c56967f53","system_id":"levelo_inurba_marseille","lat":43.29763,"lon":5.42781,"is_reserved":false,"is_disabled":false,"rental_uris":{"android":"levelo://app?vid=93d13824-88c0-4dc3-a740-8b4c56967f53","ios":"levelo://app?vid=93d13824-88c0-4dc3-a740-8b4c56967f53"},"vehicle_type_id":"4","last_reported":1770806334,"current_range_meters":11200,"station_id":"st_d3md5207bmas73dh9klg","pricing_plan_id":"cebpf4jnsgd1na2vs0mg"},{"bike_id":"acc3631a-ac07-48d2-b95f-96ece93e4353","system_id":"levelo_inurba_marseille","lat":43.23184,"lon":5.39989,"is_reserved":false,"is_disabled":false,"rental_uris":{"android":"levelo://app?vid=acc3631a-ac07-48d2-b95f-96ece93e4353","ios":"levelo://app?vid=acc3631a-ac07-48d2-b95f-96ece93e4353"},"vehicle_type_id":"4","last_reported":1770806334,"current_range_meters":11200,"station_id":"ce4bhn12rcd13ifvqgqg","pricing_plan_id":"cebpf4jnsgd1na2vs0mg"},{"bike_id":"0bd0023f-da6b-4c9a-8898-a505f61d5f0d","system_id":"levelo_inurba_marseille","lat":43.25862,"lon":5.39929,"is_reserved":false,"is_disabled":false,"rental_uris":{"android":"levelo://app?vid=0bd0023f-da6b-4c9a-8898-a505f61d5f0d","ios":"levelo://app?vid=0bd0023f-da6b-4c9a-8898-a505f61d5f0d"},"vehicle_type_id":"4","last_reported":1770806334,"current_range_meters":11200,"station_id":"ce4bhl92rcd13ifvqghg","pricing_plan_id":"cebpf4jnsgd1na2vs0mg"},{"bike_id":"5ecdca59-da81-4119-a256-c37296e94b7b","system_id":"levelo_inurba_marseille","lat":43.29474,"lon":5.43317,"is_reserved":false,"is_disabled":false,"rental_uris":{"android":"levelo://app?vid=5ecdca59-da81-4119-a256-c37296e94b7b","ios":"levelo://app?vid=5ecdca59-da81-4119-a256-c37296e94b7b"},"vehicle_type_id":"4","last_reported":1770806334,"current_range_meters":11200,"station_id":"st_d3j5ugp08ojc73fj9d10","pricing_plan_id":"cebpf4jnsgd1na2vs0mg"},{"bike_id":"e56573a4-f19c-42e7-828c-c81201e1be5e","system_id":"levelo_inurba_marseille","lat":43.32076,"lon":5.41554,"is_reserved":false,"is_disabled":true,"rental_uris":{"android":"levelo://app?vid=e56573a4-f19c-42e7-828c-c81201e1be5e","ios":"levelo://app?vid=e56573a4-f19c-42e7-828c-c81201e1be5e"},"vehicle_type_id":"4","last_reported":1770806334,"current_range_meters":11600,"station_id":"ce4bhq92rcd13ifvqhkg","pricing_plan_id":"cebpf4jnsgd1na2vs0mg"},{"bike_id":"07180377-17c0-429c-86da-e1b4de678352","system_id":"levelo_inurba_marseille","lat":43.29037,"lon":5.39972,"is_reserved":false,"is_disabled":false,"rental_uris":{"android":"levelo://app?vid=07180377-17c0-429c-86da-e1b4de678352","ios":"levelo://app?vid=07180377-17c0-429c-86da-e1b4de678352"},"vehicle_type_id":"4","last_reported":1770806334,"current_range_meters":11600,"station_id":"ce4bh392rcd13ifvqdm0","pricing_plan_id":"cebpf4jnsgd1na2vs0mg"},{"bike_id":"adc1d2de-d584-4868-8c64-eca2dab94d2f","system_id":"levelo_inurba_marseille","lat":43.26216,"lon":5.3743,"is_reserved":false,"is_disabled":false,"rental_uris":{"android":"levelo://app?vid=adc1d2de-d584-4868-8c64-eca2dab94d2f","ios":"levelo://app?vid=adc1d2de-d584-4868-8c64-eca2dab94d2f"},"vehicle_type_id":"4","last_reported":1770806334,"current_range_meters":11600,"station_id":"ce4bhgp2rcd13ifvqfc0","pricing_plan_id":"cebpf4jnsgd1na2vs0mg"},{"bike_id":"e42620f4-183e-485a-af88-c36a22e64d51","system_id":"levelo_inurba_marseille","lat":43.23203,"lon":5.39997,"is_reserved":false,"is_disabled":false,"rental_uris":{"android":"levelo://app?vid=e42620f4-183e-485a-af88-c36a22e64d51","ios":"levelo://app?vid=e42620f4-183e-485a-af88-c36a22e64d51"},"vehicle_type_id":"4","last_reported":1770806334,"current_range_meters":11600,"station_id":"ce4bhn12rcd13ifvqgqg","pricing_plan_id":"cebpf4jnsgd1na2vs0mg"},{"bike_id":"9bace9c8-d1b7-4c63-b633-81f63d8d8ba6","system_id":"levelo_inurba_marseille","lat":43.2996,"lon":5.38496,"is_reserved":false,"is_disabled":true,"rental_uris":{"android":"levelo://app?vid=9bace9c8-d1b7-4c63-b633-81f63d8d8ba6","ios":"levelo://app?vid=9bace9c8-d1b7-4c63-b633-81f63d8d8ba6"},"vehicle_type_id":"4","last_reported":1770806334,"current_range_meters":11600,"station_id":"ce4bgj92rcd13ifvqbd0","pricing_plan_id":"cebpf4jnsgd1na2vs0mg"},{"bike_id":"cf4af28d-8394-4cf8-9eb9-bbcd05fa01f3","system_id":"levelo_inurba_marseille","lat":43.27252,"lon":5.39173,"is_reserved":false,"is_disabled":false,"rental_uris":{"android":"levelo://app?vid=cf4af28d-8394-4cf8-9eb9-bbcd05fa01f3","ios":"levelo://app?vid=cf4af28d-8394-4cf8-9eb9-bbcd05fa01f3"},"vehicle_type_id":"4","last_reported":1770806334,"current_range_meters":11600,"station_id":"ce4bhhp2rcd13ifvqfm0","pricing_plan_id":"cebpf4jnsgd1na2vs0mg"},{"bike_id":"70e591b0-f2cc-4dab-99cf-08bb3c1008b4","system_id":"levelo_inurba_marseille","lat":43.27386,"lon":5.42699,"is_reserved":false,"is_disabled":false,"rental_uris":{"android":"levelo://app?vid=70e591b0-f2cc-4dab-99cf-08bb3c1008b4","ios":"levelo://app?vid=70e591b0-f2cc-4dab-99cf-08bb3c1008b4"},"vehicle_type_id":"4","last_reported":1770806334,"current_range_meters":11600,"station_id":"","pricing_plan_id":"cebpf4jnsgd1na2vs0mg"},{"bike_id":"da732a47-27dd-4801-8d25-23d54a0a625d","system_id":"levelo_inurba_marseille","lat":43.27211,"lon":5.39186,"is_reserved":false,"is_disabled":false,"rental_uris":{"android":"levelo://app?vid=da732a47-27dd-4801-8d25-23d54a0a625d","ios":"levelo://app?vid=da732a47-27dd-4801-8d25-23d54a0a625d"},"vehicle_type_id":"4","last_reported":1770806334,"current_range_meters":11600,"station_id":"ce4bhhp2rcd13ifvqfm0","pricing_plan_id":"cebpf4jnsgd1na2vs0mg"},{"bike_id":"ab2b49aa-7574-41ea-aafd-20e44f598b0a","system_id":"levelo_inurba_marseille","lat":43.33162,"lon":5.37692,"is_reserved":false,"is_disabled":false,"rental_uris":{"android":"levelo://app?vid=ab2b49aa-7574-41ea-aafd-20e44f598b0a","ios":"levelo://app?vid=ab2b49aa-7574-41ea-aafd-20e44f598b0a"},"vehicle_type_id":"4","last_reported":1770806334,"current_range_meters":11600,"station_id":"st_d46cu089ee8s73dldbu0","pricing_plan_id":"cebpf4jnsgd1na2vs0mg"},{"bike_id":"b3ba3cc5-2fa1-4600-b170-e4e11f93d8db","system_id":"levelo_inurba_marseille","lat":43.31074,"lon":5.37166,"is_reserved":false,"is_disabled":false,"rental_uris":{"android":"levelo://app?vid=b3ba3cc5-2fa1-4600-b170-e4e11f93d8db","ios":"levelo://app?vid=b3ba3cc5-2fa1-4600-b170-e4e11f93d8db"},"vehicle_type_id":"4","last_reported":1770806334,"current_range_meters":11600,"station_id":"st_d4kl2rp97mjs73e7tdfg","pricing_plan_id":"cebpf4jnsgd1na2vs0mg"},{"bike_id":"5f6ae4c8-a7cd-4f3b-9adf-671bbd618c70","system_id":"levelo_inurba_marseille","lat":43.25577,"lon":5.38243,"is_reserved":false,"is_disabled":false,"rental_uris":{"android":"levelo://app?vid=5f6ae4c8-a7cd-4f3b-9adf-671bbd618c70","ios":"levelo://app?vid=5f6ae4c8-a7cd-4f3b-9adf-671bbd618c70"},"vehicle_type_id":"4","last_reported":1770806334,"current_range_meters":12000,"station_id":"ce4bhih2rcd13ifvqfs0","pricing_plan_id":"cebpf4jnsgd1na2vs0mg"},{"bike_id":"9df0032a-f26c-436e-9c30-46c9ea367aa2","system_id":"levelo_inurba_marseille","lat":43.29268,"lon":5.36846,"is_reserved":false,"is_disabled":false,"rental_uris":{"android":"levelo://app?vid=9df0032a-f26c-436e-9c30-46c9ea367aa2","ios":"levelo://app?vid=9df0032a-f26c-436e-9c30-46c9ea367aa2"},"vehicle_type_id":"4","last_reported":1770806334,"current_range_meters":12000,"station_id":"ce4bhbp2rcd13ifvqesg","pricing_plan_id":"cebpf4jnsgd1na2vs0mg"},{"bike_id":"f0286ae3-4df9-493a-a9d2-1a500a4d65a7","system_id":"levelo_inurba_marseille","lat":43.231468,"lon":5.437253,"is_reserved":false,"is_disabled":false,"rental_uris":{"android":"levelo://app?vid=f0286ae3-4df9-493a-a9d2-1a500a4d65a7","ios":"levelo://app?vid=f0286ae3-4df9-493a-a9d2-1a500a4d65a7"},"vehicle_type_id":"4","last_reported":1770806334,"current_range_meters":12000,"station_id":"ce4bhmp2rcd13ifvqgog","pricing_plan_id":"cebpf4jnsgd1na2vs0mg"},{"bike_id":"e61f8348-ac76-4cea-92f8-334c0273949b","system_id":"levelo_inurba_marseille","lat":43.246286,"lon":5.431448,"is_reserved":false,"is_disabled":false,"rental_uris":{"android":"levelo://app?vid=e61f8348-ac76-4cea-92f8-334c0273949b","ios":"levelo://app?vid=e61f8348-ac76-4cea-92f8-334c0273949b"},"vehicle_type_id":"4","last_reported":1770806334,"current_range_meters":12000,"station_id":"st_d2m6c4gdas8pm72e190g","pricing_plan_id":"cebpf4jnsgd1na2vs0mg"},{"bike_id":"48ef2e5e-395e-487a-9e41-360aad012a1f","system_id":"levelo_inurba_marseille","lat":43.26216,"lon":5.3743,"is_reserved":false,"is_disabled":false,"rental_uris":{"android":"levelo://app?vid=48ef2e5e-395e-487a-9e41-360aad012a1f","ios":"levelo://app?vid=48ef2e5e-395e-487a-9e41-360aad012a1f"},"vehicle_type_id":"4","last_reported":1770806334,"current_range_meters":12000,"station_id":"ce4bhgp2rcd13ifvqfc0","pricing_plan_id":"cebpf4jnsgd1na2vs0mg"},{"bike_id":"4e7816bf-5611-469a-acdb-8f4687b86456","system_id":"levelo_inurba_marseille","lat":43.30454,"lon":5.3791,"is_reserved":false,"is_disabled":false,"rental_uris":{"android":"levelo://app?vid=4e7816bf-5611-469a-acdb-8f4687b86456","ios":"levelo://app?vid=4e7816bf-5611-469a-acdb-8f4687b86456"},"vehicle_type_id":"4","last_reported":1770806334,"current_range_meters":12000,"station_id":"ce4bgup2rcd13ifvqcn0","pricing_plan_id":"cebpf4jnsgd1na2vs0mg"},{"bike_id":"989b5b08-d948-4be9-bc29-7318c8ff2142","system_id":"levelo_inurba_marseille","lat":43.24538,"lon":5.42327,"is_reserved":false,"is_disabled":false,"rental_uris":{"android":"levelo://app?vid=989b5b08-d948-4be9-bc29-7318c8ff2142","ios":"levelo://app?vid=989b5b08-d948-4be9-bc29-7318c8ff2142"},"vehicle_type_id":"4","last_reported":1770806334,"current_range_meters":12000,"station_id":"","pricing_plan_id":"cebpf4jnsgd1na2vs0mg"},{"bike_id":"0d75816b-9beb-4768-910c-24e5486d5dae","system_id":"levelo_inurba_marseille","lat":43.24175,"lon":5.39728,"is_reserved":false,"is_disabled":false,"rental_uris":{"android":"levelo://app?vid=0d75816b-9beb-4768-910c-24e5486d5dae","ios":"levelo://app?vid=0d75816b-9beb-4768-910c-24e5486d5dae"},"vehicle_type_id":"4","last_reported":1770806334,"current_range_meters":12000,"station_id":"ce4bhn12rcd13ifvqgpg","pricing_plan_id":"cebpf4jnsgd1na2vs0mg"},{"bike_id":"f93fd7ec-dcc0-4f76-a35d-c2fb6b435566","system_id":"levelo_inurba_marseille","lat":43.27233,"lon":5.39208,"is_reserved":false,"is_disabled":false,"rental_uris":{"android":"levelo://app?vid=f93fd7ec-dcc0-4f76-a35d-c2fb6b435566","ios":"levelo://app?vid=f93fd7ec-dcc0-4f76-a35d-c2fb6b435566"},"vehicle_type_id":"4","last_reported":1770806334,"current_range_meters":12400,"station_id":"ce4bhhp2rcd13ifvqfm0","pricing_plan_id":"cebpf4jnsgd1na2vs0mg"},{"bike_id":"99863aef-94df-490b-82a1-99409dae0541","system_id":"levelo_inurba_marseille","lat":43.28568,"lon":5.39506,"is_reserved":false,"is_disabled":false,"rental_uris":{"android":"levelo://app?vid=99863aef-94df-490b-82a1-99409dae0541","ios":"levelo://app?vid=99863aef-94df-490b-82a1-99409dae0541"},"vehicle_type_id":"4","last_reported":1770806334,"current_range_meters":12400,"station_id":"ce4bh292rcd13ifvqdg0","pricing_plan_id":"cebpf4jnsgd1na2vs0mg"},{"bike_id":"28b7189c-bfe0-4cda-a5b8-b353a1e1ecb9","system_id":"levelo_inurba_marseille","lat":43.27938,"lon":5.38709,"is_reserved":false,"is_disabled":false,"rental_uris":{"android":"levelo://app?vid=28b7189c-bfe0-4cda-a5b8-b353a1e1ecb9","ios":"levelo://app?vid=28b7189c-bfe0-4cda-a5b8-b353a1e1ecb9"},"vehicle_type_id":"4","last_reported":1770806334,"current_range_meters":12400,"station_id":"ce4bhg12rcd13ifvqf80","pricing_plan_id":"cebpf4jnsgd1na2vs0mg"},{"bike_id":"5ff157dc-e3aa-4305-ad39-dfa58cf64b9c","system_id":"levelo_inurba_marseille","lat":43.24068,"lon":5.37706,"is_reserved":false,"is_disabled":false,"rental_uris":{"android":"levelo://app?vid=5ff157dc-e3aa-4305-ad39-dfa58cf64b9c","ios":"levelo://app?vid=5ff157dc-e3aa-4305-ad39-dfa58cf64b9c"},"vehicle_type_id":"4","last_reported":1770806334,"current_range_meters":12400,"station_id":"ce4bhnp2rcd13ifvqgvg","pricing_plan_id":"cebpf4jnsgd1na2vs0mg"},{"bike_id":"a21f25c2-63d6-4955-b8e1-7be1807c1e47","system_id":"levelo_inurba_marseille","lat":43.29209,"lon":5.36058,"is_reserved":false,"is_disabled":false,"rental_uris":{"android":"levelo://app?vid=a21f25c2-63d6-4955-b8e1-7be1807c1e47","ios":"levelo://app?vid=a21f25c2-63d6-4955-b8e1-7be1807c1e47"},"vehicle_type_id":"4","last_reported":1770806334,"current_range_meters":12400,"station_id":"ce4bhbh2rcd13ifvqeqg","pricing_plan_id":"cebpf4jnsgd1na2vs0mg"},{"bike_id":"ab47d7f8-6e79-451a-b442-f9a8cb8a830b","system_id":"levelo_inurba_marseille","lat":43.24074,"lon":5.37751,"is_reserved":false,"is_disabled":false,"rental_uris":{"android":"levelo://app?vid=ab47d7f8-6e79-451a-b442-f9a8cb8a830b","ios":"levelo://app?vid=ab47d7f8-6e79-451a-b442-f9a8cb8a830b"},"vehicle_type_id":"4","last_reported":1770806334,"current_range_meters":12400,"station_id":"ce4bhnp2rcd13ifvqgvg","pricing_plan_id":"cebpf4jnsgd1na2vs0mg"},{"bike_id":"01ce82a4-2ac1-4e51-9582-9733201aaea4","system_id":"levelo_inurba_marseille","lat":43.30492,"lon":5.37894,"is_reserved":false,"is_disabled":false,"rental_uris":{"android":"levelo://app?vid=01ce82a4-2ac1-4e51-9582-9733201aaea4","ios":"levelo://app?vid=01ce82a4-2ac1-4e51-9582-9733201aaea4"},"vehicle_type_id":"4","last_reported":1770806334,"current_range_meters":12400,"station_id":"ce4bgup2rcd13ifvqcn0","pricing_plan_id":"cebpf4jnsgd1na2vs0mg"},{"bike_id":"3965a188-6bc6-4066-bd55-6210bcb46f86","system_id":"levelo_inurba_marseille","lat":43.29351,"lon":5.3784,"is_reserved":false,"is_disabled":false,"rental_uris":{"android":"levelo://app?vid=3965a188-6bc6-4066-bd55-6210bcb46f86","ios":"levelo://app?vid=3965a188-6bc6-4066-bd55-6210bcb46f86"},"vehicle_type_id":"4","last_reported":1770806334,"current_range_meters":12400,"station_id":"ce4bgjh2rcd13ifvqbf0","pricing_plan_id":"cebpf4jnsgd1na2vs0mg"},{"bike_id":"63fe22b6-516b-4bbd-9ec7-27510829b8dc","system_id":"levelo_inurba_marseille","lat":43.30949,"lon":5.39041,"is_reserved":false,"is_disabled":false,"rental_uris":{"android":"levelo://app?vid=63fe22b6-516b-4bbd-9ec7-27510829b8dc","ios":"levelo://app?vid=63fe22b6-516b-4bbd-9ec7-27510829b8dc"},"vehicle_type_id":"4","last_reported":1770806334,"current_range_meters":12400,"station_id":"ce4bgup2rcd13ifvqco0","pricing_plan_id":"cebpf4jnsgd1na2vs0mg"},{"bike_id":"74c5a16a-e0f1-4853-a669-8bc6d613d27a","system_id":"levelo_inurba_marseille","lat":43.3234,"lon":5.3674,"is_reserved":false,"is_disabled":false,"rental_uris":{"android":"levelo://app?vid=74c5a16a-e0f1-4853-a669-8bc6d613d27a","ios":"levelo://app?vid=74c5a16a-e0f1-4853-a669-8bc6d613d27a"},"vehicle_type_id":"4","last_reported":1770806334,"current_range_meters":12400,"station_id":"ce4bhsh2rcd13ifvqi2g","pricing_plan_id":"cebpf4jnsgd1na2vs0mg"},{"bike_id":"b6112af3-aba4-4f52-af0c-89058bf40bf6","system_id":"levelo_inurba_marseille","lat":43.2976,"lon":5.42782,"is_reserved":false,"is_disabled":false,"rental_uris":{"android":"levelo://app?vid=b6112af3-aba4-4f52-af0c-89058bf40bf6","ios":"levelo://app?vid=b6112af3-aba4-4f52-af0c-89058bf40bf6"},"vehicle_type_id":"4","last_reported":1770806334,"current_range_meters":12400,"station_id":"st_d3md5207bmas73dh9klg","pricing_plan_id":"cebpf4jnsgd1na2vs0mg"},{"bike_id":"0fdef648-26b8-4d39-8aa7-fae55acf8f34","system_id":"levelo_inurba_marseille","lat":43.26062,"lon":5.39398,"is_reserved":false,"is_disabled":false,"rental_uris":{"android":"levelo://app?vid=0fdef648-26b8-4d39-8aa7-fae55acf8f34","ios":"levelo://app?vid=0fdef648-26b8-4d39-8aa7-fae55acf8f34"},"vehicle_type_id":"4","last_reported":1770806334,"current_range_meters":12400,"station_id":"ce4bhh92rcd13ifvqfj0","pricing_plan_id":"cebpf4jnsgd1na2vs0mg"},{"bike_id":"fd530780-2290-452c-823d-8193631d0919","system_id":"levelo_inurba_marseille","lat":43.28873,"lon":5.42521,"is_reserved":false,"is_disabled":false,"rental_uris":{"android":"levelo://app?vid=fd530780-2290-452c-823d-8193631d0919","ios":"levelo://app?vid=fd530780-2290-452c-823d-8193631d0919"},"vehicle_type_id":"4","last_reported":1770806334,"current_range_meters":12400,"station_id":"st_d3b462108ojc7389ooeg","pricing_plan_id":"cebpf4jnsgd1na2vs0mg"},{"bike_id":"ad1c73a7-80cd-4fd9-9cbe-bd9c902be31f","system_id":"levelo_inurba_marseille","lat":43.24557,"lon":5.3952,"is_reserved":false,"is_disabled":false,"rental_uris":{"android":"levelo://app?vid=ad1c73a7-80cd-4fd9-9cbe-bd9c902be31f","ios":"levelo://app?vid=ad1c73a7-80cd-4fd9-9cbe-bd9c902be31f"},"vehicle_type_id":"4","last_reported":1770806334,"current_range_meters":12800,"station_id":"ce4bhlp2rcd13ifvqgjg","pricing_plan_id":"cebpf4jnsgd1na2vs0mg"},{"bike_id":"52c5007b-88c9-4d1c-9fe2-488c4cdcfbef","system_id":"levelo_inurba_marseille","lat":43.25868,"lon":5.39888,"is_reserved":false,"is_disabled":false,"rental_uris":{"android":"levelo://app?vid=52c5007b-88c9-4d1c-9fe2-488c4cdcfbef","ios":"levelo://app?vid=52c5007b-88c9-4d1c-9fe2-488c4cdcfbef"},"vehicle_type_id":"4","last_reported":1770806334,"current_range_meters":12800,"station_id":"ce4bhl92rcd13ifvqghg","pricing_plan_id":"cebpf4jnsgd1na2vs0mg"},{"bike_id":"8ed87586-dad5-4852-a9e4-08b525111006","system_id":"levelo_inurba_marseille","lat":43.29859,"lon":5.3629,"is_reserved":false,"is_disabled":false,"rental_uris":{"android":"levelo://app?vid=8ed87586-dad5-4852-a9e4-08b525111006","ios":"levelo://app?vid=8ed87586-dad5-4852-a9e4-08b525111006"},"vehicle_type_id":"4","last_reported":1770806334,"current_range_meters":12800,"station_id":"ce4bgpp2rcd13ifvqc3g","pricing_plan_id":"cebpf4jnsgd1na2vs0mg"},{"bike_id":"6194a442-1a8b-411c-838b-59bdfa469ad1","system_id":"levelo_inurba_marseille","lat":43.33769,"lon":5.37493,"is_reserved":false,"is_disabled":false,"rental_uris":{"android":"levelo://app?vid=6194a442-1a8b-411c-838b-59bdfa469ad1","ios":"levelo://app?vid=6194a442-1a8b-411c-838b-59bdfa469ad1"},"vehicle_type_id":"4","last_reported":1770806334,"current_range_meters":12800,"station_id":"","pricing_plan_id":"cebpf4jnsgd1na2vs0mg"},{"bike_id":"f08b73b6-cba2-4126-aa42-c61930a4e6aa","system_id":"levelo_inurba_marseille","lat":43.30483,"lon":5.379,"is_reserved":false,"is_disabled":false,"rental_uris":{"android":"levelo://app?vid=f08b73b6-cba2-4126-aa42-c61930a4e6aa","ios":"levelo://app?vid=f08b73b6-cba2-4126-aa42-c61930a4e6aa"},"vehicle_type_id":"4","last_reported":1770806334,"current_range_meters":12800,"station_id":"ce4bgup2rcd13ifvqcn0","pricing_plan_id":"cebpf4jnsgd1na2vs0mg"},{"bike_id":"bb1d1582-2ced-4763-92fa-c454f9da383d","system_id":"levelo_inurba_marseille","lat":43.25504,"lon":5.37658,"is_reserved":false,"is_disabled":false,"rental_uris":{"android":"levelo://app?vid=bb1d1582-2ced-4763-92fa-c454f9da383d","ios":"levelo://app?vid=bb1d1582-2ced-4763-92fa-c454f9da383d"},"vehicle_type_id":"4","last_reported":1770806334,"current_range_meters":12800,"station_id":"ce4bhh12rcd13ifvqff0","pricing_plan_id":"cebpf4jnsgd1na2vs0mg"},{"bike_id":"e2b17d57-46c6-4982-9b7d-2677ffc44e9c","system_id":"levelo_inurba_marseille","lat":43.24173,"lon":5.39735,"is_reserved":false,"is_disabled":false,"rental_uris":{"android":"levelo://app?vid=e2b17d57-46c6-4982-9b7d-2677ffc44e9c","ios":"levelo://app?vid=e2b17d57-46c6-4982-9b7d-2677ffc44e9c"},"vehicle_type_id":"4","last_reported":1770806334,"current_range_meters":12800,"station_id":"ce4bhn12rcd13ifvqgpg","pricing_plan_id":"cebpf4jnsgd1na2vs0mg"},{"bike_id":"f4774a83-6c5d-4ff8-82f9-b0be40f74d67","system_id":"levelo_inurba_marseille","lat":43.28229,"lon":5.39072,"is_reserved":false,"is_disabled":false,"rental_uris":{"android":"levelo://app?vid=f4774a83-6c5d-4ff8-82f9-b0be40f74d67","ios":"levelo://app?vid=f4774a83-6c5d-4ff8-82f9-b0be40f74d67"},"vehicle_type_id":"4","last_reported":1770806334,"current_range_meters":12800,"station_id":"ce4bhn92rcd13ifvqgsg","pricing_plan_id":"cebpf4jnsgd1na2vs0mg"},{"bike_id":"7578ca6a-41b9-4d16-80d9-987a7c1630a9","system_id":"levelo_inurba_marseille","lat":43.24641,"lon":5.38915,"is_reserved":false,"is_disabled":false,"rental_uris":{"android":"levelo://app?vid=7578ca6a-41b9-4d16-80d9-987a7c1630a9","ios":"levelo://app?vid=7578ca6a-41b9-4d16-80d9-987a7c1630a9"},"vehicle_type_id":"4","last_reported":1770806334,"current_range_meters":12800,"station_id":"ce4bhg12rcd13ifvqf60","pricing_plan_id":"cebpf4jnsgd1na2vs0mg"},{"bike_id":"76ea5260-ff82-43e8-a377-4f3ddffee2c7","system_id":"levelo_inurba_marseille","lat":43.29735,"lon":5.42774,"is_reserved":false,"is_disabled":false,"rental_uris":{"android":"levelo://app?vid=76ea5260-ff82-43e8-a377-4f3ddffee2c7","ios":"levelo://app?vid=76ea5260-ff82-43e8-a377-4f3ddffee2c7"},"vehicle_type_id":"4","last_reported":1770806334,"current_range_meters":12800,"station_id":"st_d3md5207bmas73dh9klg","pricing_plan_id":"cebpf4jnsgd1na2vs0mg"},{"bike_id":"32bdfae8-8ad6-4362-a806-ce382a9e664d","system_id":"levelo_inurba_marseille","lat":43.27062,"lon":5.38313,"is_reserved":false,"is_disabled":false,"rental_uris":{"android":"levelo://app?vid=32bdfae8-8ad6-4362-a806-ce382a9e664d","ios":"levelo://app?vid=32bdfae8-8ad6-4362-a806-ce382a9e664d"},"vehicle_type_id":"4","last_reported":1770806334,"current_range_meters":12800,"station_id":"st_d3n2fo6cfp8s73cte1j0","pricing_plan_id":"cebpf4jnsgd1na2vs0mg"},{"bike_id":"6489d296-7e9a-4929-8e21-bbbfbdd3a58b","system_id":"levelo_inurba_marseille","lat":43.255046,"lon":5.376477,"is_reserved":false,"is_disabled":false,"rental_uris":{"android":"levelo://app?vid=6489d296-7e9a-4929-8e21-bbbfbdd3a58b","ios":"levelo://app?vid=6489d296-7e9a-4929-8e21-bbbfbdd3a58b"},"vehicle_type_id":"4","last_reported":1770806334,"current_range_meters":13600,"station_id":"ce4bhh12rcd13ifvqff0","pricing_plan_id":"cebpf4jnsgd1na2vs0mg"},{"bike_id":"014613de-69aa-4aca-9291-67750cce2e69","system_id":"levelo_inurba_marseille","lat":43.284706,"lon":5.48402,"is_reserved":false,"is_disabled":false,"rental_uris":{"android":"levelo://app?vid=014613de-69aa-4aca-9291-67750cce2e69","ios":"levelo://app?vid=014613de-69aa-4aca-9291-67750cce2e69"},