{"last_updated":1742360999,"ttl":60,"version":"2.2","data":{"bikes":[{"bike_id":"55c83ebf-913d-48a1-abee-3e29e6909fd2","system_id":"levelo_inurba_marseille","lat":43.27982,"lon":5.41658,"is_reserved":false,"is_disabled":true,"rental_uris":{"android":"levelo://app?vid=55c83ebf-913d-48a1-abee-3e29e6909fd2","ios":"levelo://app?vid=55c83ebf-913d-48a1-abee-3e29e6909fd2"},"vehicle_type_id":"4","last_reported":1742360999,"current_range_meters":3200,"station_id":"ce4bho12rcd13ifvqh1g","pricing_plan_id":"cebpf4jnsgd1na2vs0mg"},{"bike_id":"3db91aa6-845b-4ce3-9a81-55687c0461bc","system_id":"levelo_inurba_marseille","lat":43.25026,"lon":5.38929,"is_reserved":false,"is_disabled":false,"rental_uris":{"android":"levelo://app?vid=3db91aa6-845b-4ce3-9a81-55687c0461bc","ios":"levelo://app?vid=3db91aa6-845b-4ce3-9a81-55687c0461bc"},"vehicle_type_id":"4","last_reported":1742360999,"current_range_meters":3600,"station_id":"ce4bhgp2rcd13ifvqfd0","pricing_plan_id":"cebpf4jnsgd1na2vs0mg"},{"bike_id":"9214fb87-6c28-472b-a51a-ce25cf550429","system_id":"levelo_inurba_marseille","lat":43.28663,"lon":5.36353,"is_reserved":false,"is_disabled":false,"rental_uris":{"android":"levelo://app?vid=9214fb87-6c28-472b-a51a-ce25cf550429","ios":"levelo://app?vid=9214fb87-6c28-472b-a51a-ce25cf550429"},"vehicle_type_id":"4","last_reported":1742360999,"current_range_meters":4000,"station_id":"ce4bhah2rcd13ifvqej0","pricing_plan_id":"cebpf4jnsgd1na2vs0mg"},{"bike_id":"6d8e8090-a4c7-4966-a3f4-a833922b9e5a","system_id":"levelo_inurba_marseille","lat":43.23192,"lon":5.35551,"is_reserved":false,"is_disabled":false,"rental_uris":{"android":"levelo://app?vid=6d8e8090-a4c7-4966-a3f4-a833922b9e5a","ios":"levelo://app?vid=6d8e8090-a4c7-4966-a3f4-a833922b9e5a"},"vehicle_type_id":"4","last_reported":1742360999,"current_range_meters":4000,"station_id":"ce4bhu92rcd13ifvqi70","pricing_plan_id":"cebpf4jnsgd1na2vs0mg"},{"bike_id":"2665cc4b-07ed-4ae6-a66f-2b09983c709d","system_id":"levelo_inurba_marseille","lat":43.33761,"lon":5.37489,"is_reserved":false,"is_disabled":false,"rental_uris":{"android":"levelo://app?vid=2665cc4b-07ed-4ae6-a66f-2b09983c709d","ios":"levelo://app?vid=2665cc4b-07ed-4ae6-a66f-2b09983c709d"},"vehicle_type_id":"4","last_reported":1742360999,"current_range_meters":4000,"station_id":"","pricing_plan_id":"cebpf4jnsgd1na2vs0mg"},{"bike_id":"03fa3fa4-ba5a-4ea6-a2f5-2774c7ef9edb","system_id":"levelo_inurba_marseille","lat":43.291719,"lon":5.371487,"is_reserved":false,"is_disabled":true,"rental_uris":{"android":"levelo://app?vid=03fa3fa4-ba5a-4ea6-a2f5-2774c7ef9edb","ios":"levelo://app?vid=03fa3fa4-ba5a-4ea6-a2f5-2774c7ef9edb"},"vehicle_type_id":"4","last_reported":1742360999,"current_range_meters":4000,"station_id":"ce4bha92rcd13ifvqeh0","pricing_plan_id":"cebpf4jnsgd1na2vs0mg"},{"bike_id":"bf53558a-323c-40e3-9c37-ac64ba388e1c","system_id":"levelo_inurba_marseille","lat":43.23955,"lon":5.36639,"is_reserved":false,"is_disabled":false,"rental_uris":{"android":"levelo://app?vid=bf53558a-323c-40e3-9c37-ac64ba388e1c","ios":"levelo://app?vid=bf53558a-323c-40e3-9c37-ac64ba388e1c"},"vehicle_type_id":"4","last_reported":1742360999,"current_range_meters":4000,"station_id":"ce4bhi12rcd13ifvqfp0","pricing_plan_id":"cebpf4jnsgd1na2vs0mg"},{"bike_id":"6227a0ff-d0ca-42a3-9618-9e5a19927c8d","system_id":"levelo_inurba_marseille","lat":43.27941,"lon":5.41043,"is_reserved":false,"is_disabled":false,"rental_uris":{"android":"levelo://app?vid=6227a0ff-d0ca-42a3-9618-9e5a19927c8d","ios":"levelo://app?vid=6227a0ff-d0ca-42a3-9618-9e5a19927c8d"},"vehicle_type_id":"4","last_reported":1742360999,"current_range_meters":4000,"station_id":"ce4bhnp2rcd13ifvqh0g","pricing_plan_id":"cebpf4jnsgd1na2vs0mg"},{"bike_id":"35695dd4-791c-4486-b261-10bd7a9e52e9","system_id":"levelo_inurba_marseille","lat":43.26189,"lon":5.40478,"is_reserved":false,"is_disabled":true,"rental_uris":{"android":"levelo://app?vid=35695dd4-791c-4486-b261-10bd7a9e52e9","ios":"levelo://app?vid=35695dd4-791c-4486-b261-10bd7a9e52e9"},"vehicle_type_id":"4","last_reported":1742360999,"current_range_meters":4400,"station_id":"ce4bhmh2rcd13ifvqgmg","pricing_plan_id":"cebpf4jnsgd1na2vs0mg"},{"bike_id":"0d3accb9-853e-4df0-b9d8-4607b8048f46","system_id":"levelo_inurba_marseille","lat":43.241667,"lon":5.363955,"is_reserved":false,"is_disabled":false,"rental_uris":{"android":"levelo://app?vid=0d3accb9-853e-4df0-b9d8-4607b8048f46","ios":"levelo://app?vid=0d3accb9-853e-4df0-b9d8-4607b8048f46"},"vehicle_type_id":"4","last_reported":1742360999,"current_range_meters":4400,"station_id":"cpo36qri1sfpv3e86is0","pricing_plan_id":"cebpf4jnsgd1na2vs0mg"},{"bike_id":"8fe7e33b-57fc-439c-ba02-015988635c80","system_id":"levelo_inurba_marseille","lat":43.27081,"lon":5.42279,"is_reserved":false,"is_disabled":true,"rental_uris":{"android":"levelo://app?vid=8fe7e33b-57fc-439c-ba02-015988635c80","ios":"levelo://app?vid=8fe7e33b-57fc-439c-ba02-015988635c80"},"vehicle_type_id":"4","last_reported":1742360999,"current_range_meters":4400,"station_id":"ce4bhk92rcd13ifvqgb0","pricing_plan_id":"cebpf4jnsgd1na2vs0mg"},{"bike_id":"a50ff043-cdb6-4cd7-868b-d843dcbed4b8","system_id":"levelo_inurba_marseille","lat":43.30174,"lon":5.3808,"is_reserved":false,"is_disabled":false,"rental_uris":{"android":"levelo://app?vid=a50ff043-cdb6-4cd7-868b-d843dcbed4b8","ios":"levelo://app?vid=a50ff043-cdb6-4cd7-868b-d843dcbed4b8"},"vehicle_type_id":"4","last_reported":1742360999,"current_range_meters":5600,"station_id":"ce4bgjp2rcd13ifvqbh0","pricing_plan_id":"cebpf4jnsgd1na2vs0mg"},{"bike_id":"f5c97f8a-2624-4b99-bdf9-59f10ff7cfce","system_id":"levelo_inurba_marseille","lat":43.27614,"lon":5.361156,"is_reserved":false,"is_disabled":false,"rental_uris":{"android":"levelo://app?vid=f5c97f8a-2624-4b99-bdf9-59f10ff7cfce","ios":"levelo://app?vid=f5c97f8a-2624-4b99-bdf9-59f10ff7cfce"},"vehicle_type_id":"4","last_reported":1742360999,"current_range_meters":5600,"station_id":"ce4bgj92rcd13ifvqbe0","pricing_plan_id":"cebpf4jnsgd1na2vs0mg"},{"bike_id":"97a1e633-c2b3-487e-8569-9036bf18d175","system_id":"levelo_inurba_marseille","lat":43.2417,"lon":5.36411,"is_reserved":false,"is_disabled":false,"rental_uris":{"android":"levelo://app?vid=97a1e633-c2b3-487e-8569-9036bf18d175","ios":"levelo://app?vid=97a1e633-c2b3-487e-8569-9036bf18d175"},"vehicle_type_id":"4","last_reported":1742360999,"current_range_meters":5600,"station_id":"cpo36qri1sfpv3e86is0","pricing_plan_id":"cebpf4jnsgd1na2vs0mg"},{"bike_id":"db85a551-7379-4999-871e-b1611c31baae","system_id":"levelo_inurba_marseille","lat":43.27831,"lon":5.3921,"is_reserved":false,"is_disabled":false,"rental_uris":{"android":"levelo://app?vid=db85a551-7379-4999-871e-b1611c31baae","ios":"levelo://app?vid=db85a551-7379-4999-871e-b1611c31baae"},"vehicle_type_id":"4","last_reported":1742360999,"current_range_meters":5600,"station_id":"ce4bhjp2rcd13ifvqga0","pricing_plan_id":"cebpf4jnsgd1na2vs0mg"},{"bike_id":"a31c77d8-4378-47d6-8c3a-a5063f16fc9d","system_id":"levelo_inurba_marseille","lat":43.27843,"lon":5.40712,"is_reserved":false,"is_disabled":false,"rental_uris":{"android":"levelo://app?vid=a31c77d8-4378-47d6-8c3a-a5063f16fc9d","ios":"levelo://app?vid=a31c77d8-4378-47d6-8c3a-a5063f16fc9d"},"vehicle_type_id":"4","last_reported":1742360999,"current_range_meters":5600,"station_id":"ce4bhnh2rcd13ifvqgtg","pricing_plan_id":"cebpf4jnsgd1na2vs0mg"},{"bike_id":"a3ea1aa5-5308-41a5-bb80-121dbfe7c811","system_id":"levelo_inurba_marseille","lat":43.28703,"lon":5.3999,"is_reserved":false,"is_disabled":true,"rental_uris":{"android":"levelo://app?vid=a3ea1aa5-5308-41a5-bb80-121dbfe7c811","ios":"levelo://app?vid=a3ea1aa5-5308-41a5-bb80-121dbfe7c811"},"vehicle_type_id":"4","last_reported":1742360999,"current_range_meters":5600,"station_id":"ce4bho92rcd13ifvqh3g","pricing_plan_id":"cebpf4jnsgd1na2vs0mg"},{"bike_id":"97f1a9ef-23d7-46a5-a024-751b81083237","system_id":"levelo_inurba_marseille","lat":43.33025,"lon":5.39051,"is_reserved":false,"is_disabled":false,"rental_uris":{"android":"levelo://app?vid=97f1a9ef-23d7-46a5-a024-751b81083237","ios":"levelo://app?vid=97f1a9ef-23d7-46a5-a024-751b81083237"},"vehicle_type_id":"4","last_reported":1742360999,"current_range_meters":5600,"station_id":"ce4bhr92rcd13ifvqhrg","pricing_plan_id":"cebpf4jnsgd1na2vs0mg"},{"bike_id":"5e2fca71-0f3f-4aa4-affd-fff1472c16b4","system_id":"levelo_inurba_marseille","lat":43.241809,"lon":5.397226,"is_reserved":false,"is_disabled":false,"rental_uris":{"android":"levelo://app?vid=5e2fca71-0f3f-4aa4-affd-fff1472c16b4","ios":"levelo://app?vid=5e2fca71-0f3f-4aa4-affd-fff1472c16b4"},"vehicle_type_id":"4","last_reported":1742360999,"current_range_meters":5600,"station_id":"ce4bhn12rcd13ifvqgpg","pricing_plan_id":"cebpf4jnsgd1na2vs0mg"},{"bike_id":"fe358fb5-284d-4348-9311-44f909cb15f4","system_id":"levelo_inurba_marseille","lat":43.23958,"lon":5.36635,"is_reserved":false,"is_disabled":false,"rental_uris":{"android":"levelo://app?vid=fe358fb5-284d-4348-9311-44f909cb15f4","ios":"levelo://app?vid=fe358fb5-284d-4348-9311-44f909cb15f4"},"vehicle_type_id":"4","last_reported":1742360999,"current_range_meters":6000,"station_id":"ce4bhi12rcd13ifvqfp0","pricing_plan_id":"cebpf4jnsgd1na2vs0mg"},{"bike_id":"fe67d4d5-2efd-4a2d-8d85-86a1e84c1bb0","system_id":"levelo_inurba_marseille","lat":43.25084,"lon":5.39517,"is_reserved":false,"is_disabled":false,"rental_uris":{"android":"levelo://app?vid=fe67d4d5-2efd-4a2d-8d85-86a1e84c1bb0","ios":"levelo://app?vid=fe67d4d5-2efd-4a2d-8d85-86a1e84c1bb0"},"vehicle_type_id":"4","last_reported":1742360999,"current_range_meters":6000,"station_id":"ce4bhm12rcd13ifvqgkg","pricing_plan_id":"cebpf4jnsgd1na2vs0mg"},{"bike_id":"df227953-74ac-4151-8017-3b7a1e24e192","system_id":"levelo_inurba_marseille","lat":43.23962,"lon":5.3665,"is_reserved":false,"is_disabled":false,"rental_uris":{"android":"levelo://app?vid=df227953-74ac-4151-8017-3b7a1e24e192","ios":"levelo://app?vid=df227953-74ac-4151-8017-3b7a1e24e192"},"vehicle_type_id":"4","last_reported":1742360999,"current_range_meters":6000,"station_id":"ce4bhi12rcd13ifvqfp0","pricing_plan_id":"cebpf4jnsgd1na2vs0mg"},{"bike_id":"8a4e1b2e-8fac-480b-a668-ef6a620a9814","system_id":"levelo_inurba_marseille","lat":43.278604,"lon":5.424313,"is_reserved":false,"is_disabled":false,"rental_uris":{"android":"levelo://app?vid=8a4e1b2e-8fac-480b-a668-ef6a620a9814","ios":"levelo://app?vid=8a4e1b2e-8fac-480b-a668-ef6a620a9814"},"vehicle_type_id":"4","last_reported":1742360999,"current_range_meters":6000,"station_id":"","pricing_plan_id":"cebpf4jnsgd1na2vs0mg"},{"bike_id":"6e573fbb-b34e-4f52-b460-f67cd52c7e65","system_id":"levelo_inurba_marseille","lat":43.30223,"lon":5.39829,"is_reserved":false,"is_disabled":false,"rental_uris":{"android":"levelo://app?vid=6e573fbb-b34e-4f52-b460-f67cd52c7e65","ios":"levelo://app?vid=6e573fbb-b34e-4f52-b460-f67cd52c7e65"},"vehicle_type_id":"4","last_reported":1742360999,"current_range_meters":6400,"station_id":"ce4bh092rcd13ifvqd20","pricing_plan_id":"cebpf4jnsgd1na2vs0mg"},{"bike_id":"6e874661-bb50-4aba-b5e1-20f06a0b350d","system_id":"levelo_inurba_marseille","lat":43.30795,"lon":5.3814,"is_reserved":false,"is_disabled":false,"rental_uris":{"android":"levelo://app?vid=6e874661-bb50-4aba-b5e1-20f06a0b350d","ios":"levelo://app?vid=6e874661-bb50-4aba-b5e1-20f06a0b350d"},"vehicle_type_id":"4","last_reported":1742360999,"current_range_meters":6400,"station_id":"ce4bgt12rcd13ifvqce0","pricing_plan_id":"cebpf4jnsgd1na2vs0mg"},{"bike_id":"b1d9f1af-d8f9-4b97-a270-4bf890a49af9","system_id":"levelo_inurba_marseille","lat":43.28406,"lon":5.37519,"is_reserved":false,"is_disabled":false,"rental_uris":{"android":"levelo://app?vid=b1d9f1af-d8f9-4b97-a270-4bf890a49af9","ios":"levelo://app?vid=b1d9f1af-d8f9-4b97-a270-4bf890a49af9"},"vehicle_type_id":"4","last_reported":1742360999,"current_range_meters":6400,"station_id":"ce4bh412rcd13ifvqds0","pricing_plan_id":"cebpf4jnsgd1na2vs0mg"},{"bike_id":"52bd4f14-775f-459f-9791-851d088e69cb","system_id":"levelo_inurba_marseille","lat":43.250005,"lon":5.389328,"is_reserved":false,"is_disabled":false,"rental_uris":{"android":"levelo://app?vid=52bd4f14-775f-459f-9791-851d088e69cb","ios":"levelo://app?vid=52bd4f14-775f-459f-9791-851d088e69cb"},"vehicle_type_id":"4","last_reported":1742360999,"current_range_meters":6400,"station_id":"ce4bhgp2rcd13ifvqfd0","pricing_plan_id":"cebpf4jnsgd1na2vs0mg"},{"bike_id":"bc1c6cb2-f570-411d-9fcd-cdf964b3ea03","system_id":"levelo_inurba_marseille","lat":43.313343,"lon":5.39689,"is_reserved":false,"is_disabled":false,"rental_uris":{"android":"levelo://app?vid=bc1c6cb2-f570-411d-9fcd-cdf964b3ea03","ios":"levelo://app?vid=bc1c6cb2-f570-411d-9fcd-cdf964b3ea03"},"vehicle_type_id":"4","last_reported":1742360999,"current_range_meters":6400,"station_id":"ce4bgvp2rcd13ifvqcu0","pricing_plan_id":"cebpf4jnsgd1na2vs0mg"},{"bike_id":"900606e9-1414-408c-b609-f4c9952f2d0c","system_id":"levelo_inurba_marseille","lat":43.31119,"lon":5.37752,"is_reserved":false,"is_disabled":true,"rental_uris":{"android":"levelo://app?vid=900606e9-1414-408c-b609-f4c9952f2d0c","ios":"levelo://app?vid=900606e9-1414-408c-b609-f4c9952f2d0c"},"vehicle_type_id":"4","last_reported":1742360999,"current_range_meters":6400,"station_id":"ce4bgt92rcd13ifvqcg0","pricing_plan_id":"cebpf4jnsgd1na2vs0mg"},{"bike_id":"8b298902-a6fa-4f9e-babb-1299b9fe1519","system_id":"levelo_inurba_marseille","lat":43.2856,"lon":5.3951,"is_reserved":false,"is_disabled":false,"rental_uris":{"android":"levelo://app?vid=8b298902-a6fa-4f9e-babb-1299b9fe1519","ios":"levelo://app?vid=8b298902-a6fa-4f9e-babb-1299b9fe1519"},"vehicle_type_id":"4","last_reported":1742360999,"current_range_meters":6400,"station_id":"ce4bh292rcd13ifvqdg0","pricing_plan_id":"cebpf4jnsgd1na2vs0mg"},{"bike_id":"6368f354-6da7-4884-a394-062f1a963ed6","system_id":"levelo_inurba_marseille","lat":43.29295,"lon":5.42804,"is_reserved":false,"is_disabled":false,"rental_uris":{"android":"levelo://app?vid=6368f354-6da7-4884-a394-062f1a963ed6","ios":"levelo://app?vid=6368f354-6da7-4884-a394-062f1a963ed6"},"vehicle_type_id":"4","last_reported":1742360999,"current_range_meters":6400,"station_id":"","pricing_plan_id":"cebpf4jnsgd1na2vs0mg"},{"bike_id":"5cc7107b-4638-44b7-9016-fb56a8137a82","system_id":"levelo_inurba_marseille","lat":43.33012,"lon":5.39057,"is_reserved":false,"is_disabled":false,"rental_uris":{"android":"levelo://app?vid=5cc7107b-4638-44b7-9016-fb56a8137a82","ios":"levelo://app?vid=5cc7107b-4638-44b7-9016-fb56a8137a82"},"vehicle_type_id":"4","last_reported":1742360999,"current_range_meters":6800,"station_id":"ce4bhr92rcd13ifvqhrg","pricing_plan_id":"cebpf4jnsgd1na2vs0mg"},{"bike_id":"05f500f2-ae0f-4f51-b308-035cc001963c","system_id":"levelo_inurba_marseille","lat":43.2781,"lon":5.40744,"is_reserved":false,"is_disabled":false,"rental_uris":{"android":"levelo://app?vid=05f500f2-ae0f-4f51-b308-035cc001963c","ios":"levelo://app?vid=05f500f2-ae0f-4f51-b308-035cc001963c"},"vehicle_type_id":"4","last_reported":1742360999,"current_range_meters":6800,"station_id":"ce4bhnh2rcd13ifvqgtg","pricing_plan_id":"cebpf4jnsgd1na2vs0mg"},{"bike_id":"4f6d11f4-8d23-4e35-8c59-e818e64ce7ab","system_id":"levelo_inurba_marseille","lat":43.29528,"lon":5.43899,"is_reserved":false,"is_disabled":false,"rental_uris":{"android":"levelo://app?vid=4f6d11f4-8d23-4e35-8c59-e818e64ce7ab","ios":"levelo://app?vid=4f6d11f4-8d23-4e35-8c59-e818e64ce7ab"},"vehicle_type_id":"4","last_reported":1742360999,"current_range_meters":6800,"station_id":"","pricing_plan_id":"cebpf4jnsgd1na2vs0mg"},{"bike_id":"8b58540f-1057-48ac-95ef-922b5f2bd2a2","system_id":"levelo_inurba_marseille","lat":43.28484,"lon":5.35897,"is_reserved":false,"is_disabled":false,"rental_uris":{"android":"levelo://app?vid=8b58540f-1057-48ac-95ef-922b5f2bd2a2","ios":"levelo://app?vid=8b58540f-1057-48ac-95ef-922b5f2bd2a2"},"vehicle_type_id":"4","last_reported":1742360999,"current_range_meters":6800,"station_id":"ce4bhah2rcd13ifvqei0","pricing_plan_id":"cebpf4jnsgd1na2vs0mg"},{"bike_id":"eca5cde3-5cbf-4c2c-97d5-ef4d7982662d","system_id":"levelo_inurba_marseille","lat":43.31329,"lon":5.39701,"is_reserved":false,"is_disabled":false,"rental_uris":{"android":"levelo://app?vid=eca5cde3-5cbf-4c2c-97d5-ef4d7982662d","ios":"levelo://app?vid=eca5cde3-5cbf-4c2c-97d5-ef4d7982662d"},"vehicle_type_id":"4","last_reported":1742360999,"current_range_meters":6800,"station_id":"ce4bgvp2rcd13ifvqcu0","pricing_plan_id":"cebpf4jnsgd1na2vs0mg"},{"bike_id":"c8aebf71-8f92-4a15-a86e-14c7cfbd9a29","system_id":"levelo_inurba_marseille","lat":43.29617,"lon":5.38018,"is_reserved":false,"is_disabled":false,"rental_uris":{"android":"levelo://app?vid=c8aebf71-8f92-4a15-a86e-14c7cfbd9a29","ios":"levelo://app?vid=c8aebf71-8f92-4a15-a86e-14c7cfbd9a29"},"vehicle_type_id":"4","last_reported":1742360999,"current_range_meters":6800,"station_id":"","pricing_plan_id":"cebpf4jnsgd1na2vs0mg"},{"bike_id":"c615b7dd-2094-4974-82b8-2a84922ae42d","system_id":"levelo_inurba_marseille","lat":43.25488,"lon":5.3766,"is_reserved":false,"is_disabled":false,"rental_uris":{"android":"levelo://app?vid=c615b7dd-2094-4974-82b8-2a84922ae42d","ios":"levelo://app?vid=c615b7dd-2094-4974-82b8-2a84922ae42d"},"vehicle_type_id":"4","last_reported":1742360999,"current_range_meters":6800,"station_id":"ce4bhh12rcd13ifvqff0","pricing_plan_id":"cebpf4jnsgd1na2vs0mg"},{"bike_id":"fc3c66cd-fcf5-49b9-9bc0-ad74e199a26d","system_id":"levelo_inurba_marseille","lat":43.31281,"lon":5.4018,"is_reserved":false,"is_disabled":false,"rental_uris":{"android":"levelo://app?vid=fc3c66cd-fcf5-49b9-9bc0-ad74e199a26d","ios":"levelo://app?vid=fc3c66cd-fcf5-49b9-9bc0-ad74e199a26d"},"vehicle_type_id":"4","last_reported":1742360999,"current_range_meters":6800,"station_id":"ce4bh092rcd13ifvqd30","pricing_plan_id":"cebpf4jnsgd1na2vs0mg"},{"bike_id":"45b82e0f-05c8-4de5-b641-e0a386935fad","system_id":"levelo_inurba_marseille","lat":43.31278,"lon":5.40171,"is_reserved":false,"is_disabled":false,"rental_uris":{"android":"levelo://app?vid=45b82e0f-05c8-4de5-b641-e0a386935fad","ios":"levelo://app?vid=45b82e0f-05c8-4de5-b641-e0a386935fad"},"vehicle_type_id":"4","last_reported":1742360999,"current_range_meters":6800,"station_id":"ce4bh092rcd13ifvqd30","pricing_plan_id":"cebpf4jnsgd1na2vs0mg"},{"bike_id":"8f79f3b7-6513-4def-bb2d-05a7d82b97a5","system_id":"levelo_inurba_marseille","lat":43.24164,"lon":5.36401,"is_reserved":false,"is_disabled":false,"rental_uris":{"android":"levelo://app?vid=8f79f3b7-6513-4def-bb2d-05a7d82b97a5","ios":"levelo://app?vid=8f79f3b7-6513-4def-bb2d-05a7d82b97a5"},"vehicle_type_id":"4","last_reported":1742360999,"current_range_meters":6800,"station_id":"cpo36qri1sfpv3e86is0","pricing_plan_id":"cebpf4jnsgd1na2vs0mg"},{"bike_id":"faccb755-09d8-4857-a76e-a52465dbf53e","system_id":"levelo_inurba_marseille","lat":43.284219,"lon":5.349947,"is_reserved":false,"is_disabled":false,"rental_uris":{"android":"levelo://app?vid=faccb755-09d8-4857-a76e-a52465dbf53e","ios":"levelo://app?vid=faccb755-09d8-4857-a76e-a52465dbf53e"},"vehicle_type_id":"4","last_reported":1742360999,"current_range_meters":7200,"station_id":"ce4bhbh2rcd13ifvqepg","pricing_plan_id":"cebpf4jnsgd1na2vs0mg"},{"bike_id":"f8e329e0-c5dd-4c4c-baeb-f2151696dbb0","system_id":"levelo_inurba_marseille","lat":43.2705,"lon":5.42298,"is_reserved":false,"is_disabled":false,"rental_uris":{"android":"levelo://app?vid=f8e329e0-c5dd-4c4c-baeb-f2151696dbb0","ios":"levelo://app?vid=f8e329e0-c5dd-4c4c-baeb-f2151696dbb0"},"vehicle_type_id":"4","last_reported":1742360999,"current_range_meters":7200,"station_id":"ce4bhk92rcd13ifvqgb0","pricing_plan_id":"cebpf4jnsgd1na2vs0mg"},{"bike_id":"d0ecd06f-b344-485c-8550-9fa5bf448f53","system_id":"levelo_inurba_marseille","lat":43.258314,"lon":5.394377,"is_reserved":false,"is_disabled":false,"rental_uris":{"android":"levelo://app?vid=d0ecd06f-b344-485c-8550-9fa5bf448f53","ios":"levelo://app?vid=d0ecd06f-b344-485c-8550-9fa5bf448f53"},"vehicle_type_id":"4","last_reported":1742360999,"current_range_meters":7200,"station_id":"ce4bhip2rcd13ifvqft0","pricing_plan_id":"cebpf4jnsgd1na2vs0mg"},{"bike_id":"8528cfd6-758c-4197-aaac-800294acfea6","system_id":"levelo_inurba_marseille","lat":43.25863,"lon":5.39948,"is_reserved":false,"is_disabled":false,"rental_uris":{"android":"levelo://app?vid=8528cfd6-758c-4197-aaac-800294acfea6","ios":"levelo://app?vid=8528cfd6-758c-4197-aaac-800294acfea6"},"vehicle_type_id":"4","last_reported":1742360999,"current_range_meters":7200,"station_id":"ce4bhl92rcd13ifvqghg","pricing_plan_id":"cebpf4jnsgd1na2vs0mg"},{"bike_id":"8bfc242c-df93-4661-bdab-462c9f15b0d7","system_id":"levelo_inurba_marseille","lat":43.31171,"lon":5.38729,"is_reserved":false,"is_disabled":false,"rental_uris":{"android":"levelo://app?vid=8bfc242c-df93-4661-bdab-462c9f15b0d7","ios":"levelo://app?vid=8bfc242c-df93-4661-bdab-462c9f15b0d7"},"vehicle_type_id":"4","last_reported":1742360999,"current_range_meters":7200,"station_id":"ce4bgv12rcd13ifvqcp0","pricing_plan_id":"cebpf4jnsgd1na2vs0mg"},{"bike_id":"38233fcc-45aa-475d-b774-1f1525a8fb6d","system_id":"levelo_inurba_marseille","lat":43.26074,"lon":5.39426,"is_reserved":false,"is_disabled":false,"rental_uris":{"android":"levelo://app?vid=38233fcc-45aa-475d-b774-1f1525a8fb6d","ios":"levelo://app?vid=38233fcc-45aa-475d-b774-1f1525a8fb6d"},"vehicle_type_id":"4","last_reported":1742360999,"current_range_meters":7200,"station_id":"ce4bhh92rcd13ifvqfj0","pricing_plan_id":"cebpf4jnsgd1na2vs0mg"},{"bike_id":"66c04a3a-9d69-4941-9191-7796f62ff29e","system_id":"levelo_inurba_marseille","lat":43.28405,"lon":5.37512,"is_reserved":false,"is_disabled":false,"rental_uris":{"android":"levelo://app?vid=66c04a3a-9d69-4941-9191-7796f62ff29e","ios":"levelo://app?vid=66c04a3a-9d69-4941-9191-7796f62ff29e"},"vehicle_type_id":"4","last_reported":1742360999,"current_range_meters":7200,"station_id":"ce4bh412rcd13ifvqds0","pricing_plan_id":"cebpf4jnsgd1na2vs0mg"},{"bike_id":"0b60e72b-d8b1-4266-9b63-b94b87c1ad4b","system_id":"levelo_inurba_marseille","lat":43.23176,"lon":5.4001,"is_reserved":false,"is_disabled":false,"rental_uris":{"android":"levelo://app?vid=0b60e72b-d8b1-4266-9b63-b94b87c1ad4b","ios":"levelo://app?vid=0b60e72b-d8b1-4266-9b63-b94b87c1ad4b"},"vehicle_type_id":"4","last_reported":1742360999,"current_range_meters":8000,"station_id":"ce4bhn12rcd13ifvqgqg","pricing_plan_id":"cebpf4jnsgd1na2vs0mg"},{"bike_id":"3c4f394c-0305-4c58-97e5-6826bd9d917e","system_id":"levelo_inurba_marseille","lat":43.32465,"lon":5.36593,"is_reserved":false,"is_disabled":false,"rental_uris":{"android":"levelo://app?vid=3c4f394c-0305-4c58-97e5-6826bd9d917e","ios":"levelo://app?vid=3c4f394c-0305-4c58-97e5-6826bd9d917e"},"vehicle_type_id":"4","last_reported":1742360999,"current_range_meters":8000,"station_id":"ce4bhs12rcd13ifvqhvg","pricing_plan_id":"cebpf4jnsgd1na2vs0mg"},{"bike_id":"97793583-9a74-480c-8eb2-a4367ece921c","system_id":"levelo_inurba_marseille","lat":43.30762,"lon":5.37687,"is_reserved":false,"is_disabled":false,"rental_uris":{"android":"levelo://app?vid=97793583-9a74-480c-8eb2-a4367ece921c","ios":"levelo://app?vid=97793583-9a74-480c-8eb2-a4367ece921c"},"vehicle_type_id":"4","last_reported":1742360999,"current_range_meters":8000,"station_id":"ce4bgv92rcd13ifvqcq0","pricing_plan_id":"cebpf4jnsgd1na2vs0mg"},{"bike_id":"87abaf66-9fc5-4cf1-84c5-1f3afd52d3df","system_id":"levelo_inurba_marseille","lat":43.24808,"lon":5.3749,"is_reserved":false,"is_disabled":false,"rental_uris":{"android":"levelo://app?vid=87abaf66-9fc5-4cf1-84c5-1f3afd52d3df","ios":"levelo://app?vid=87abaf66-9fc5-4cf1-84c5-1f3afd52d3df"},"vehicle_type_id":"4","last_reported":1742360999,"current_range_meters":8000,"station_id":"ce4bhgh2rcd13ifvqfb0","pricing_plan_id":"cebpf4jnsgd1na2vs0mg"},{"bike_id":"519efbbc-7577-4063-8eac-658ef30e98a3","system_id":"levelo_inurba_marseille","lat":43.250017,"lon":5.3894,"is_reserved":false,"is_disabled":false,"rental_uris":{"android":"levelo://app?vid=519efbbc-7577-4063-8eac-658ef30e98a3","ios":"levelo://app?vid=519efbbc-7577-4063-8eac-658ef30e98a3"},"vehicle_type_id":"4","last_reported":1742360999,"current_range_meters":8000,"station_id":"ce4bhgp2rcd13ifvqfd0","pricing_plan_id":"cebpf4jnsgd1na2vs0mg"},{"bike_id":"01ec6899-9e70-425a-a91b-c49e5fc36660","system_id":"levelo_inurba_marseille","lat":43.24815,"lon":5.37486,"is_reserved":false,"is_disabled":false,"rental_uris":{"android":"levelo://app?vid=01ec6899-9e70-425a-a91b-c49e5fc36660","ios":"levelo://app?vid=01ec6899-9e70-425a-a91b-c49e5fc36660"},"vehicle_type_id":"4","last_reported":1742360999,"current_range_meters":8000,"station_id":"ce4bhgh2rcd13ifvqfb0","pricing_plan_id":"cebpf4jnsgd1na2vs0mg"},{"bike_id":"049b5602-ba3f-4a09-ad40-b8c54e6f1cb6","system_id":"levelo_inurba_marseille","lat":43.24999,"lon":5.38931,"is_reserved":false,"is_disabled":true,"rental_uris":{"android":"levelo://app?vid=049b5602-ba3f-4a09-ad40-b8c54e6f1cb6","ios":"levelo://app?vid=049b5602-ba3f-4a09-ad40-b8c54e6f1cb6"},"vehicle_type_id":"4","last_reported":1742360999,"current_range_meters":8000,"station_id":"ce4bhgp2rcd13ifvqfd0","pricing_plan_id":"cebpf4jnsgd1na2vs0mg"},{"bike_id":"9f1896ef-7ca1-450d-bade-5dbfe7eb3a65","system_id":"levelo_inurba_marseille","lat":43.27952,"lon":5.38698,"is_reserved":false,"is_disabled":false,"rental_uris":{"android":"levelo://app?vid=9f1896ef-7ca1-450d-bade-5dbfe7eb3a65","ios":"levelo://app?vid=9f1896ef-7ca1-450d-bade-5dbfe7eb3a65"},"vehicle_type_id":"4","last_reported":1742360999,"current_range_meters":8000,"station_id":"ce4bhg12rcd13ifvqf80","pricing_plan_id":"cebpf4jnsgd1na2vs0mg"},{"bike_id":"2fc9495d-c829-4229-a4db-5c8674880d7a","system_id":"levelo_inurba_marseille","lat":43.23025,"lon":5.35493,"is_reserved":false,"is_disabled":false,"rental_uris":{"android":"levelo://app?vid=2fc9495d-c829-4229-a4db-5c8674880d7a","ios":"levelo://app?vid=2fc9495d-c829-4229-a4db-5c8674880d7a"},"vehicle_type_id":"4","last_reported":1742360999,"current_range_meters":8000,"station_id":"cpo3342slgdg3j2ifvpg","pricing_plan_id":"cebpf4jnsgd1na2vs0mg"},{"bike_id":"244972ac-6b8e-496c-8ff7-a07dcecb25e0","system_id":"levelo_inurba_marseille","lat":43.28083,"lon":5.39664,"is_reserved":false,"is_disabled":false,"rental_uris":{"android":"levelo://app?vid=244972ac-6b8e-496c-8ff7-a07dcecb25e0","ios":"levelo://app?vid=244972ac-6b8e-496c-8ff7-a07dcecb25e0"},"vehicle_type_id":"4","last_reported":1742360999,"current_range_meters":8000,"station_id":"ce4bho12rcd13ifvqh2g","pricing_plan_id":"cebpf4jnsgd1na2vs0mg"},{"bike_id":"956957b3-9d39-4ee3-907f-54686d3c5df0","system_id":"levelo_inurba_marseille","lat":43.3005,"lon":5.39907,"is_reserved":false,"is_disabled":false,"rental_uris":{"android":"levelo://app?vid=956957b3-9d39-4ee3-907f-54686d3c5df0","ios":"levelo://app?vid=956957b3-9d39-4ee3-907f-54686d3c5df0"},"vehicle_type_id":"4","last_reported":1742360999,"current_range_meters":8400,"station_id":"ce4bh0h2rcd13ifvqd40","pricing_plan_id":"cebpf4jnsgd1na2vs0mg"},{"bike_id":"31641444-e93f-4b5a-bf42-3bc2c8cd9f25","system_id":"levelo_inurba_marseille","lat":43.246705,"lon":5.381664,"is_reserved":false,"is_disabled":false,"rental_uris":{"android":"levelo://app?vid=31641444-e93f-4b5a-bf42-3bc2c8cd9f25","ios":"levelo://app?vid=31641444-e93f-4b5a-bf42-3bc2c8cd9f25"},"vehicle_type_id":"4","last_reported":1742360999,"current_range_meters":8400,"station_id":"ce4bhih2rcd13ifvqfr0","pricing_plan_id":"cebpf4jnsgd1na2vs0mg"},{"bike_id":"6ae6f76c-6a01-4d75-9d3f-dfa610803a78","system_id":"levelo_inurba_marseille","lat":43.23068,"lon":5.35496,"is_reserved":false,"is_disabled":false,"rental_uris":{"android":"levelo://app?vid=6ae6f76c-6a01-4d75-9d3f-dfa610803a78","ios":"levelo://app?vid=6ae6f76c-6a01-4d75-9d3f-dfa610803a78"},"vehicle_type_id":"4","last_reported":1742360999,"current_range_meters":8400,"station_id":"cpo3342slgdg3j2ifvpg","pricing_plan_id":"cebpf4jnsgd1na2vs0mg"},{"bike_id":"253fce13-8607-4f2f-839f-40104be19b05","system_id":"levelo_inurba_marseille","lat":43.23966,"lon":5.36641,"is_reserved":false,"is_disabled":false,"rental_uris":{"android":"levelo://app?vid=253fce13-8607-4f2f-839f-40104be19b05","ios":"levelo://app?vid=253fce13-8607-4f2f-839f-40104be19b05"},"vehicle_type_id":"4","last_reported":1742360999,"current_range_meters":8400,"station_id":"ce4bhi12rcd13ifvqfp0","pricing_plan_id":"cebpf4jnsgd1na2vs0mg"},{"bike_id":"f158cb0f-0380-45cd-a82f-e7d941bda018","system_id":"levelo_inurba_marseille","lat":43.31696,"lon":5.4372,"is_reserved":false,"is_disabled":false,"rental_uris":{"android":"levelo://app?vid=f158cb0f-0380-45cd-a82f-e7d941bda018","ios":"levelo://app?vid=f158cb0f-0380-45cd-a82f-e7d941bda018"},"vehicle_type_id":"4","last_reported":1742360999,"current_range_meters":8400,"station_id":"ce4bhp92rcd13ifvqhcg","pricing_plan_id":"cebpf4jnsgd1na2vs0mg"},{"bike_id":"94b3696b-5482-43da-8d12-ee51a98b38d7","system_id":"levelo_inurba_marseille","lat":43.30881,"lon":5.39652,"is_reserved":false,"is_disabled":false,"rental_uris":{"android":"levelo://app?vid=94b3696b-5482-43da-8d12-ee51a98b38d7","ios":"levelo://app?vid=94b3696b-5482-43da-8d12-ee51a98b38d7"},"vehicle_type_id":"4","last_reported":1742360999,"current_range_meters":8400,"station_id":"ce4bh012rcd13ifvqcv0","pricing_plan_id":"cebpf4jnsgd1na2vs0mg"},{"bike_id":"df4642c9-c3fd-4f88-b1d5-c33a4aa2259c","system_id":"levelo_inurba_marseille","lat":43.23183,"lon":5.39996,"is_reserved":false,"is_disabled":false,"rental_uris":{"android":"levelo://app?vid=df4642c9-c3fd-4f88-b1d5-c33a4aa2259c","ios":"levelo://app?vid=df4642c9-c3fd-4f88-b1d5-c33a4aa2259c"},"vehicle_type_id":"4","last_reported":1742360999,"current_range_meters":8400,"station_id":"ce4bhn12rcd13ifvqgqg","pricing_plan_id":"cebpf4jnsgd1na2vs0mg"},{"bike_id":"3bff80ec-e94e-42a9-988b-9e0817493bec","system_id":"levelo_inurba_marseille","lat":43.23199,"lon":5.35549,"is_reserved":false,"is_disabled":false,"rental_uris":{"android":"levelo://app?vid=3bff80ec-e94e-42a9-988b-9e0817493bec","ios":"levelo://app?vid=3bff80ec-e94e-42a9-988b-9e0817493bec"},"vehicle_type_id":"4","last_reported":1742360999,"current_range_meters":8400,"station_id":"ce4bhu92rcd13ifvqi70","pricing_plan_id":"cebpf4jnsgd1na2vs0mg"},{"bike_id":"d1069439-00e9-4aad-ad31-ab5b44b63348","system_id":"levelo_inurba_marseille","lat":43.31694,"lon":5.40466,"is_reserved":false,"is_disabled":true,"rental_uris":{"android":"levelo://app?vid=d1069439-00e9-4aad-ad31-ab5b44b63348","ios":"levelo://app?vid=d1069439-00e9-4aad-ad31-ab5b44b63348"},"vehicle_type_id":"4","last_reported":1742360999,"current_range_meters":8400,"station_id":"ce4bh012rcd13ifvqd00","pricing_plan_id":"cebpf4jnsgd1na2vs0mg"},{"bike_id":"61c41159-7a8b-45ee-a18c-926f56b3edec","system_id":"levelo_inurba_marseille","lat":43.25832,"lon":5.39447,"is_reserved":false,"is_disabled":false,"rental_uris":{"android":"levelo://app?vid=61c41159-7a8b-45ee-a18c-926f56b3edec","ios":"levelo://app?vid=61c41159-7a8b-45ee-a18c-926f56b3edec"},"vehicle_type_id":"4","last_reported":1742360999,"current_range_meters":8400,"station_id":"ce4bhip2rcd13ifvqft0","pricing_plan_id":"cebpf4jnsgd1na2vs0mg"},{"bike_id":"16f0625b-5e98-4e5b-b0e2-2e91a9bc1d08","system_id":"levelo_inurba_marseille","lat":43.30879,"lon":5.39657,"is_reserved":false,"is_disabled":false,"rental_uris":{"android":"levelo://app?vid=16f0625b-5e98-4e5b-b0e2-2e91a9bc1d08","ios":"levelo://app?vid=16f0625b-5e98-4e5b-b0e2-2e91a9bc1d08"},"vehicle_type_id":"4","last_reported":1742360999,"current_range_meters":8400,"station_id":"ce4bh012rcd13ifvqcv0","pricing_plan_id":"cebpf4jnsgd1na2vs0mg"},{"bike_id":"2cf913f3-f9be-41c2-a2ea-01870c68e8ea","system_id":"levelo_inurba_marseille","lat":43.32276,"lon":5.38297,"is_reserved":false,"is_disabled":false,"rental_uris":{"android":"levelo://app?vid=2cf913f3-f9be-41c2-a2ea-01870c68e8ea","ios":"levelo://app?vid=2cf913f3-f9be-41c2-a2ea-01870c68e8ea"},"vehicle_type_id":"4","last_reported":1742360999,"current_range_meters":8800,"station_id":"ce4bhr12rcd13ifvqhqg","pricing_plan_id":"cebpf4jnsgd1na2vs0mg"},{"bike_id":"058e51a4-3487-4245-ad8a-a3458153d2ed","system_id":"levelo_inurba_marseille","lat":43.30149,"lon":5.38087,"is_reserved":false,"is_disabled":false,"rental_uris":{"android":"levelo://app?vid=058e51a4-3487-4245-ad8a-a3458153d2ed","ios":"levelo://app?vid=058e51a4-3487-4245-ad8a-a3458153d2ed"},"vehicle_type_id":"4","last_reported":1742360999,"current_range_meters":8800,"station_id":"ce4bgjp2rcd13ifvqbh0","pricing_plan_id":"cebpf4jnsgd1na2vs0mg"},{"bike_id":"ca1c0a28-8faf-435f-9d8b-370c3a07ff34","system_id":"levelo_inurba_marseille","lat":43.24161,"lon":5.36392,"is_reserved":false,"is_disabled":false,"rental_uris":{"android":"levelo://app?vid=ca1c0a28-8faf-435f-9d8b-370c3a07ff34","ios":"levelo://app?vid=ca1c0a28-8faf-435f-9d8b-370c3a07ff34"},"vehicle_type_id":"4","last_reported":1742360999,"current_range_meters":8800,"station_id":"cpo36qri1sfpv3e86is0","pricing_plan_id":"cebpf4jnsgd1na2vs0mg"},{"bike_id":"99fb0b41-922c-4505-98f2-ecc87f7d5047","system_id":"levelo_inurba_marseille","lat":43.30643,"lon":5.40069,"is_reserved":false,"is_disabled":false,"rental_uris":{"android":"levelo://app?vid=99fb0b41-922c-4505-98f2-ecc87f7d5047","ios":"levelo://app?vid=99fb0b41-922c-4505-98f2-ecc87f7d5047"},"vehicle_type_id":"4","last_reported":1742360999,"current_range_meters":8800,"station_id":"ce4bh112rcd13ifvqda0","pricing_plan_id":"cebpf4jnsgd1na2vs0mg"},{"bike_id":"a342afa1-fe1b-4de5-8f98-f3f81167fac6","system_id":"levelo_inurba_marseille","lat":43.22931,"lon":5.35415,"is_reserved":false,"is_disabled":false,"rental_uris":{"android":"levelo://app?vid=a342afa1-fe1b-4de5-8f98-f3f81167fac6","ios":"levelo://app?vid=a342afa1-fe1b-4de5-8f98-f3f81167fac6"},"vehicle_type_id":"4","last_reported":1742360999,"current_range_meters":8800,"station_id":"cpo3532slgdg3j2ikp40","pricing_plan_id":"cebpf4jnsgd1na2vs0mg"},{"bike_id":"539fc8c4-24e6-4af1-852f-0f9aae2257a1","system_id":"levelo_inurba_marseille","lat":43.23208,"lon":5.35574,"is_reserved":false,"is_disabled":false,"rental_uris":{"android":"levelo://app?vid=539fc8c4-24e6-4af1-852f-0f9aae2257a1","ios":"levelo://app?vid=539fc8c4-24e6-4af1-852f-0f9aae2257a1"},"vehicle_type_id":"4","last_reported":1742360999,"current_range_meters":8800,"station_id":"ce4bhu92rcd13ifvqi70","pricing_plan_id":"cebpf4jnsgd1na2vs0mg"},{"bike_id":"5bead0f2-5ada-420f-bea0-acb8d2ad9da4","system_id":"levelo_inurba_marseille","lat":43.23164,"lon":5.40008,"is_reserved":false,"is_disabled":false,"rental_uris":{"android":"levelo://app?vid=5bead0f2-5ada-420f-bea0-acb8d2ad9da4","ios":"levelo://app?vid=5bead0f2-5ada-420f-bea0-acb8d2ad9da4"},"vehicle_type_id":"4","last_reported":1742360999,"current_range_meters":8800,"station_id":"ce4bhn12rcd13ifvqgqg","pricing_plan_id":"cebpf4jnsgd1na2vs0mg"},{"bike_id":"501f7fd9-069d-4c8f-b512-803a0a667daa","system_id":"levelo_inurba_marseille","lat":43.31701,"lon":5.43724,"is_reserved":false,"is_disabled":false,"rental_uris":{"android":"levelo://app?vid=501f7fd9-069d-4c8f-b512-803a0a667daa","ios":"levelo://app?vid=501f7fd9-069d-4c8f-b512-803a0a667daa"},"vehicle_type_id":"4","last_reported":1742360999,"current_range_meters":8800,"station_id":"ce4bhp92rcd13ifvqhcg","pricing_plan_id":"cebpf4jnsgd1na2vs0mg"},{"bike_id":"2e8e2e12-65e7-450a-83a2-d80d023fe506","system_id":"levelo_inurba_marseille","lat":43.31694,"lon":5.40454,"is_reserved":false,"is_disabled":false,"rental_uris":{"android":"levelo://app?vid=2e8e2e12-65e7-450a-83a2-d80d023fe506","ios":"levelo://app?vid=2e8e2e12-65e7-450a-83a2-d80d023fe506"},"vehicle_type_id":"4","last_reported":1742360999,"current_range_meters":8800,"station_id":"ce4bh012rcd13ifvqd00","pricing_plan_id":"cebpf4jnsgd1na2vs0mg"},{"bike_id":"89cb3140-d211-4c4d-97ca-7e01c3c4da90","system_id":"levelo_inurba_marseille","lat":43.23193,"lon":5.35556,"is_reserved":false,"is_disabled":false,"rental_uris":{"android":"levelo://app?vid=89cb3140-d211-4c4d-97ca-7e01c3c4da90","ios":"levelo://app?vid=89cb3140-d211-4c4d-97ca-7e01c3c4da90"},"vehicle_type_id":"4","last_reported":1742360999,"current_range_meters":8800,"station_id":"ce4bhu92rcd13ifvqi70","pricing_plan_id":"cebpf4jnsgd1na2vs0mg"},{"bike_id":"a8c89f12-e7b0-458f-b7a3-09032d50c758","system_id":"levelo_inurba_marseille","lat":43.27817,"lon":5.4075,"is_reserved":false,"is_disabled":false,"rental_uris":{"android":"levelo://app?vid=a8c89f12-e7b0-458f-b7a3-09032d50c758","ios":"levelo://app?vid=a8c89f12-e7b0-458f-b7a3-09032d50c758"},"vehicle_type_id":"4","last_reported":1742360999,"current_range_meters":8800,"station_id":"ce4bhnh2rcd13ifvqgtg","pricing_plan_id":"cebpf4jnsgd1na2vs0mg"},{"bike_id":"e9eef05b-c5f6-4f20-9fc3-55fb9768ade2","system_id":"levelo_inurba_marseille","lat":43.2845,"lon":5.35918,"is_reserved":false,"is_disabled":false,"rental_uris":{"android":"levelo://app?vid=e9eef05b-c5f6-4f20-9fc3-55fb9768ade2","ios":"levelo://app?vid=e9eef05b-c5f6-4f20-9fc3-55fb9768ade2"},"vehicle_type_id":"4","last_reported":1742360999,"current_range_meters":8800,"station_id":"ce4bhah2rcd13ifvqei0","pricing_plan_id":"cebpf4jnsgd1na2vs0mg"},{"bike_id":"a50680b9-aeee-4299-b14e-a2e84ec2b9ef","system_id":"levelo_inurba_marseille","lat":43.292775,"lon":5.401275,"is_reserved":false,"is_disabled":false,"rental_uris":{"android":"levelo://app?vid=a50680b9-aeee-4299-b14e-a2e84ec2b9ef","ios":"levelo://app?vid=a50680b9-aeee-4299-b14e-a2e84ec2b9ef"},"vehicle_type_id":"4","last_reported":1742360999,"current_range_meters":8800,"station_id":"ce4bh312rcd13ifvqdk0","pricing_plan_id":"cebpf4jnsgd1na2vs0mg"},{"bike_id":"402cd330-07f1-43f7-ad4d-be190f776291","system_id":"levelo_inurba_marseille","lat":43.2838,"lon":5.38645,"is_reserved":false,"is_disabled":false,"rental_uris":{"android":"levelo://app?vid=402cd330-07f1-43f7-ad4d-be190f776291","ios":"levelo://app?vid=402cd330-07f1-43f7-ad4d-be190f776291"},"vehicle_type_id":"4","last_reported":1742360999,"current_range_meters":9200,"station_id":"ce4bh492rcd13ifvqdvg","pricing_plan_id":"cebpf4jnsgd1na2vs0mg"},{"bike_id":"d00028dc-9b0d-47df-ad9d-778d21fb21b2","system_id":"levelo_inurba_marseille","lat":43.231928,"lon":5.35555,"is_reserved":false,"is_disabled":false,"rental_uris":{"android":"levelo://app?vid=d00028dc-9b0d-47df-ad9d-778d21fb21b2","ios":"levelo://app?vid=d00028dc-9b0d-47df-ad9d-778d21fb21b2"},"vehicle_type_id":"4","last_reported":1742360999,"current_range_meters":9200,"station_id":"ce4bhu92rcd13ifvqi70","pricing_plan_id":"cebpf4jnsgd1na2vs0mg"},{"bike_id":"cb83bb7b-da1e-4e39-8df9-8da005404b0c","system_id":"levelo_inurba_marseille","lat":43.23056,"lon":5.35503,"is_reserved":false,"is_disabled":false,"rental_uris":{"android":"levelo://app?vid=cb83bb7b-da1e-4e39-8df9-8da005404b0c","ios":"levelo://app?vid=cb83bb7b-da1e-4e39-8df9-8da005404b0c"},"vehicle_type_id":"4","last_reported":1742360999,"current_range_meters":9200,"station_id":"cpo3342slgdg3j2ifvpg","pricing_plan_id":"cebpf4jnsgd1na2vs0mg"},{"bike_id":"4b1455e3-a129-4c21-aa44-d1039bebb628","system_id":"levelo_inurba_marseille","lat":43.27853,"lon":5.40736,"is_reserved":false,"is_disabled":false,"rental_uris":{"android":"levelo://app?vid=4b1455e3-a129-4c21-aa44-d1039bebb628","ios":"levelo://app?vid=4b1455e3-a129-4c21-aa44-d1039bebb628"},"vehicle_type_id":"4","last_reported":1742360999,"current_range_meters":9200,"station_id":"ce4bhnh2rcd13ifvqgtg","pricing_plan_id":"cebpf4jnsgd1na2vs0mg"},{"bike_id":"8777ef92-eb8d-4856-bd98-ecafeb780344","system_id":"levelo_inurba_marseille","lat":43.27851,"lon":5.39228,"is_reserved":false,"is_disabled":false,"rental_uris":{"android":"levelo://app?vid=8777ef92-eb8d-4856-bd98-ecafeb780344","ios":"levelo://app?vid=8777ef92-eb8d-4856-bd98-ecafeb780344"},"vehicle_type_id":"4","last_reported":1742360999,"current_range_meters":9200,"station_id":"ce4bhjp2rcd13ifvqga0","pricing_plan_id":"cebpf4jnsgd1na2vs0mg"},{"bike_id":"ab11fa9b-759f-447f-a4f1-b143e2360775","system_id":"levelo_inurba_marseille","lat":43.31346,"lon":5.39181,"is_reserved":false,"is_disabled":false,"rental_uris":{"android":"levelo://app?vid=ab11fa9b-759f-447f-a4f1-b143e2360775","ios":"levelo://app?vid=ab11fa9b-759f-447f-a4f1-b143e2360775"},"vehicle_type_id":"4","last_reported":1742360999,"current_range_meters":9200,"station_id":"","pricing_plan_id":"cebpf4jnsgd1na2vs0mg"},{"bike_id":"2f1d9500-6c1e-424f-b2b7-72959f6413ad","system_id":"levelo_inurba_marseille","lat":43.30666,"lon":5.40073,"is_reserved":false,"is_disabled":false,"rental_uris":{"android":"levelo://app?vid=2f1d9500-6c1e-424f-b2b7-72959f6413ad","ios":"levelo://app?vid=2f1d9500-6c1e-424f-b2b7-72959f6413ad"},"vehicle_type_id":"4","last_reported":1742360999,"current_range_meters":9200,"station_id":"ce4bh112rcd13ifvqda0","pricing_plan_id":"cebpf4jnsgd1na2vs0mg"},{"bike_id":"7956a227-f2ef-4d59-908d-81de8fca89d3","system_id":"levelo_inurba_marseille","lat":43.298086,"lon":5.404008,"is_reserved":false,"is_disabled":false,"rental_uris":{"android":"levelo://app?vid=7956a227-f2ef-4d59-908d-81de8fca89d3","ios":"levelo://app?vid=7956a227-f2ef-4d59-908d-81de8fca89d3"},"vehicle_type_id":"4","last_reported":1742360999,"current_range_meters":9200,"station_id":"ce4bh112rcd13ifvqd90","pricing_plan_id":"cebpf4jnsgd1na2vs0mg"},{"bike_id":"e94b1f20-3e0e-4dcb-9056-1e4af333e85a","system_id":"levelo_inurba_marseille","lat":43.289271,"lon":5.397339,"is_reserved":false,"is_disabled":false,"rental_uris":{"android":"levelo://app?vid=e94b1f20-3e0e-4dcb-9056-1e4af333e85a","ios":"levelo://app?vid=e94b1f20-3e0e-4dcb-9056-1e4af333e85a"},"vehicle_type_id":"4","last_reported":1742360999,"current_range_meters":9200,"station_id":"","pricing_plan_id":"cebpf4jnsgd1na2vs0mg"},{"bike_id":"6b162ed9-3599-4156-a34b-2df90433ae5c","system_id":"levelo_inurba_marseille","lat":43.24194,"lon":5.39757,"is_reserved":false,"is_disabled":false,"rental_uris":{"android":"levelo://app?vid=6b162ed9-3599-4156-a34b-2df90433ae5c","ios":"levelo://app?vid=6b162ed9-3599-4156-a34b-2df90433ae5c"},"vehicle_type_id":"4","last_reported":1742360999,"current_range_meters":9200,"station_id":"ce4bhn12rcd13ifvqgpg","pricing_plan_id":"cebpf4jnsgd1na2vs0mg"},{"bike_id":"8ccd8af2-2f23-47a2-8cbd-02706561a504","system_id":"levelo_inurba_marseille","lat":43.3079,"lon":5.38163,"is_reserved":false,"is_disabled":false,"rental_uris":{"android":"levelo://app?vid=8ccd8af2-2f23-47a2-8cbd-02706561a504","ios":"levelo://app?vid=8ccd8af2-2f23-47a2-8cbd-02706561a504"},"vehicle_type_id":"4","last_reported":1742360999,"current_range_meters":9200,"station_id":"ce4bgt12rcd13ifvqce0","pricing_plan_id":"cebpf4jnsgd1na2vs0mg"},{"bike_id":"fe429d9e-ab88-4ad9-b9d6-1a9de48fb5c3","system_id":"levelo_inurba_marseille","lat":43.30924,"lon":5.40147,"is_reserved":false,"is_disabled":false,"rental_uris":{"android":"levelo://app?vid=fe429d9e-ab88-4ad9-b9d6-1a9de48fb5c3","ios":"levelo://app?vid=fe429d9e-ab88-4ad9-b9d6-1a9de48fb5c3"},"vehicle_type_id":"4","last_reported":1742360999,"current_range_meters":9600,"station_id":"ce4bgvp2rcd13ifvqct0","pricing_plan_id":"cebpf4jnsgd1na2vs0mg"},{"bike_id":"11bffd4d-691e-479c-be44-e39bfa076b4b","system_id":"levelo_inurba_marseille","lat":43.28463,"lon":5.35885,"is_reserved":false,"is_disabled":false,"rental_uris":{"android":"levelo://app?vid=11bffd4d-691e-479c-be44-e39bfa076b4b","ios":"levelo://app?vid=11bffd4d-691e-479c-be44-e39bfa076b4b"},"vehicle_type_id":"4","last_reported":1742360999,"current_range_meters":9600,"station_id":"ce4bhah2rcd13ifvqei0","pricing_plan_id":"cebpf4jnsgd1na2vs0mg"},{"bike_id":"a8766000-078c-47ff-8301-09d21e7c8d48","system_id":"levelo_inurba_marseille","lat":43.30902,"lon":5.39646,"is_reserved":false,"is_disabled":false,"rental_uris":{"android":"levelo://app?vid=a8766000-078c-47ff-8301-09d21e7c8d48","ios":"levelo://app?vid=a8766000-078c-47ff-8301-09d21e7c8d48"},"vehicle_type_id":"4","last_reported":1742360999,"current_range_meters":9600,"station_id":"ce4bh012rcd13ifvqcv0","pricing_plan_id":"cebpf4jnsgd1na2vs0mg"},{"bike_id":"5e244767-2fd5-4cae-9f0c-0a11498d0074","system_id":"levelo_inurba_marseille","lat":43.27489,"lon":5.4249,"is_reserved":false,"is_disabled":false,"rental_uris":{"android":"levelo://app?vid=5e244767-2fd5-4cae-9f0c-0a11498d0074","ios":"levelo://app?vid=5e244767-2fd5-4cae-9f0c-0a11498d0074"},"vehicle_type_id":"4","last_reported":1742360999,"current_range_meters":9600,"station_id":"ce4bhn92rcd13ifvqgrg","pricing_plan_id":"cebpf4jnsgd1na2vs0mg"},{"bike_id":"940e816e-4f07-47f8-8676-f1878d791ee8","system_id":"levelo_inurba_marseille","lat":43.25508,"lon":5.37656,"is_reserved":false,"is_disabled":false,"rental_uris":{"android":"levelo://app?vid=940e816e-4f07-47f8-8676-f1878d791ee8","ios":"levelo://app?vid=940e816e-4f07-47f8-8676-f1878d791ee8"},"vehicle_type_id":"4","last_reported":1742360999,"current_range_meters":9600,"station_id":"ce4bhh12rcd13ifvqff0","pricing_plan_id":"cebpf4jnsgd1na2vs0mg"},{"bike_id":"7e0251ad-3e81-46c9-8179-7b2e32f0a8a3","system_id":"levelo_inurba_marseille","lat":43.2885,"lon":5.39341,"is_reserved":false,"is_disabled":false,"rental_uris":{"android":"levelo://app?vid=7e0251ad-3e81-46c9-8179-7b2e32f0a8a3","ios":"levelo://app?vid=7e0251ad-3e81-46c9-8179-7b2e32f0a8a3"},"vehicle_type_id":"4","last_reported":1742360999,"current_range_meters":9600,"station_id":"ce4bh2p2rcd13ifvqdi0","pricing_plan_id":"cebpf4jnsgd1na2vs0mg"},{"bike_id":"4ccc3f56-6ae5-4d6a-9eb1-b86c5e38aaee","system_id":"levelo_inurba_marseille","lat":43.27824,"lon":5.40733,"is_reserved":false,"is_disabled":false,"rental_uris":{"android":"levelo://app?vid=4ccc3f56-6ae5-4d6a-9eb1-b86c5e38aaee","ios":"levelo://app?vid=4ccc3f56-6ae5-4d6a-9eb1-b86c5e38aaee"},"vehicle_type_id":"4","last_reported":1742360999,"current_range_meters":9600,"station_id":"ce4bhnh2rcd13ifvqgtg","pricing_plan_id":"cebpf4jnsgd1na2vs0mg"},{"bike_id":"78270302-d7b6-4dac-a9b0-d0b0726e52ad","system_id":"levelo_inurba_marseille","lat":43.28939,"lon":5.36405,"is_reserved":false,"is_disabled":false,"rental_uris":{"android":"levelo://app?vid=78270302-d7b6-4dac-a9b0-d0b0726e52ad","ios":"levelo://app?vid=78270302-d7b6-4dac-a9b0-d0b0726e52ad"},"vehicle_type_id":"4","last_reported":1742360999,"current_range_meters":9600,"station_id":"ce4bhc92rcd13ifvqetg","pricing_plan_id":"cebpf4jnsgd1na2vs0mg"},{"bike_id":"1179b381-200b-46f2-81ad-dc9a8285a090","system_id":"levelo_inurba_marseille","lat":43.28415,"lon":5.37525,"is_reserved":false,"is_disabled":false,"rental_uris":{"android":"levelo://app?vid=1179b381-200b-46f2-81ad-dc9a8285a090","ios":"levelo://app?vid=1179b381-200b-46f2-81ad-dc9a8285a090"},"vehicle_type_id":"4","last_reported":1742360999,"current_range_meters":9600,"station_id":"ce4bh412rcd13ifvqds0","pricing_plan_id":"cebpf4jnsgd1na2vs0mg"},{"bike_id":"b9fe0434-d515-4c50-9ed8-2ea3887cdbef","system_id":"levelo_inurba_marseille","lat":43.28059,"lon":5.39666,"is_reserved":false,"is_disabled":false,"rental_uris":{"android":"levelo://app?vid=b9fe0434-d515-4c50-9ed8-2ea3887cdbef","ios":"levelo://app?vid=b9fe0434-d515-4c50-9ed8-2ea3887cdbef"},"vehicle_type_id":"4","last_reported":1742360999,"current_range_meters":10000,"station_id":"ce4bho12rcd13ifvqh2g","pricing_plan_id":"cebpf4jnsgd1na2vs0mg"},{"bike_id":"82fee542-6fe0-4881-abf3-bf76f21162be","system_id":"levelo_inurba_marseille","lat":43.306423,"lon":5.400717,"is_reserved":false,"is_disabled":false,"rental_uris":{"android":"levelo://app?vid=82fee542-6fe0-4881-abf3-bf76f21162be","ios":"levelo://app?vid=82fee542-6fe0-4881-abf3-bf76f21162be"},"vehicle_type_id":"4","last_reported":1742360999,"current_range_meters":10000,"station_id":"ce4bh112rcd13ifvqda0","pricing_plan_id":"cebpf4jnsgd1na2vs0mg"},{"bike_id":"1f4d04b1-8f45-4926-aad8-072dc7b7d942","system_id":"levelo_inurba_marseille","lat":43.28028,"lon":5.36968,"is_reserved":false,"is_disabled":false,"rental_uris":{"android":"levelo://app?vid=1f4d04b1-8f45-4926-aad8-072dc7b7d942","ios":"levelo://app?vid=1f4d04b1-8f45-4926-aad8-072dc7b7d942"},"vehicle_type_id":"4","last_reported":1742360999,"current_range_meters":10000,"station_id":"ce4bha12rcd13ifvqef0","pricing_plan_id":"cebpf4jnsgd1na2vs0mg"},{"bike_id":"b132483d-1d99-4f2a-9ca2-8544144e934f","system_id":"levelo_inurba_marseille","lat":43.32374,"lon":5.38872,"is_reserved":false,"is_disabled":false,"rental_uris":{"android":"levelo://app?vid=b132483d-1d99-4f2a-9ca2-8544144e934f","ios":"levelo://app?vid=b132483d-1d99-4f2a-9ca2-8544144e934f"},"vehicle_type_id":"4","last_reported":1742360999,"current_range_meters":10000,"station_id":"ce4bhqp2rcd13ifvqhog","pricing_plan_id":"cebpf4jnsgd1na2vs0mg"},{"bike_id":"16ce82f4-7642-4d89-bb15-7d2b1d00ed70","system_id":"levelo_inurba_marseille","lat":43.23961,"lon":5.36652,"is_reserved":false,"is_disabled":false,"rental_uris":{"android":"levelo://app?vid=16ce82f4-7642-4d89-bb15-7d2b1d00ed70","ios":"levelo://app?vid=16ce82f4-7642-4d89-bb15-7d2b1d00ed70"},"vehicle_type_id":"4","last_reported":1742360999,"current_range_meters":10000,"station_id":"ce4bhi12rcd13ifvqfp0","pricing_plan_id":"cebpf4jnsgd1na2vs0mg"},{"bike_id":"b98eff8b-8bbd-44cf-94d7-71a6341eecc2","system_id":"levelo_inurba_marseille","lat":43.23192,"lon":5.40032,"is_reserved":false,"is_disabled":false,"rental_uris":{"android":"levelo://app?vid=b98eff8b-8bbd-44cf-94d7-71a6341eecc2","ios":"levelo://app?vid=b98eff8b-8bbd-44cf-94d7-71a6341eecc2"},"vehicle_type_id":"4","last_reported":1742360999,"current_range_meters":10000,"station_id":"ce4bhn12rcd13ifvqgqg","pricing_plan_id":"cebpf4jnsgd1na2vs0mg"},{"bike_id":"5bc5565f-17ef-4d7e-b4d1-208095449a2e","system_id":"levelo_inurba_marseille","lat":43.28851,"lon":5.39338,"is_reserved":false,"is_disabled":false,"rental_uris":{"android":"levelo://app?vid=5bc5565f-17ef-4d7e-b4d1-208095449a2e","ios":"levelo://app?vid=5bc5565f-17ef-4d7e-b4d1-208095449a2e"},"vehicle_type_id":"4","last_reported":1742360999,"current_range_meters":10000,"station_id":"ce4bh2p2rcd13ifvqdi0","pricing_plan_id":"cebpf4jnsgd1na2vs0mg"},{"bike_id":"bfa40974-876e-403f-8ee9-98898195442a","system_id":"levelo_inurba_marseille","lat":43.28462,"lon":5.35898,"is_reserved":false,"is_disabled":false,"rental_uris":{"android":"levelo://app?vid=bfa40974-876e-403f-8ee9-98898195442a","ios":"levelo://app?vid=bfa40974-876e-403f-8ee9-98898195442a"},"vehicle_type_id":"4","last_reported":1742360999,"current_range_meters":10000,"station_id":"ce4bhah2rcd13ifvqei0","pricing_plan_id":"cebpf4jnsgd1na2vs0mg"},{"bike_id":"f142dc05-f5d3-4cbc-afe5-c54cd3d760d6","system_id":"levelo_inurba_marseille","lat":43.28098,"lon":5.39661,"is_reserved":false,"is_disabled":false,"rental_uris":{"android":"levelo://app?vid=f142dc05-f5d3-4cbc-afe5-c54cd3d760d6","ios":"levelo://app?vid=f142dc05-f5d3-4cbc-afe5-c54cd3d760d6"},"vehicle_type_id":"4","last_reported":1742360999,"current_range_meters":10000,"station_id":"ce4bho12rcd13ifvqh2g","pricing_plan_id":"cebpf4jnsgd1na2vs0mg"},{"bike_id":"cabc56a7-dd90-4978-a4aa-b0149cec9ec6","system_id":"levelo_inurba_marseille","lat":43.255002,"lon":5.376491,"is_reserved":false,"is_disabled":false,"rental_uris":{"android":"levelo://app?vid=cabc56a7-dd90-4978-a4aa-b0149cec9ec6","ios":"levelo://app?vid=cabc56a7-dd90-4978-a4aa-b0149cec9ec6"},"vehicle_type_id":"4","last_reported":1742360999,"current_range_meters":10000,"station_id":"ce4bhh12rcd13ifvqff0","pricing_plan_id":"cebpf4jnsgd1na2vs0mg"},{"bike_id":"62f7539b-b047-479e-84e9-11e5c010431d","system_id":"levelo_inurba_marseille","lat":43.29993,"lon":5.40056,"is_reserved":false,"is_disabled":false,"rental_uris":{"android":"levelo://app?vid=62f7539b-b047-479e-84e9-11e5c010431d","ios":"levelo://app?vid=62f7539b-b047-479e-84e9-11e5c010431d"},"vehicle_type_id":"4","last_reported":1742360999,"current_range_meters":10000,"station_id":"","pricing_plan_id":"cebpf4jnsgd1na2vs0mg"},{"bike_id":"7c3baf44-953e-4bba-9100-4685bf1e6739","system_id":"levelo_inurba_marseille","lat":43.25581,"lon":5.38243,"is_reserved":false,"is_disabled":false,"rental_uris":{"android":"levelo://app?vid=7c3baf44-953e-4bba-9100-4685bf1e6739","ios":"levelo://app?vid=7c3baf44-953e-4bba-9100-4685bf1e6739"},"vehicle_type_id":"4","last_reported":1742360999,"current_range_meters":10800,"station_id":"ce4bhih2rcd13ifvqfs0","pricing_plan_id":"cebpf4jnsgd1na2vs0mg"},{"bike_id":"ef512198-3f43-4d32-801b-f63c871c0ea6","system_id":"levelo_inurba_marseille","lat":43.28846,"lon":5.35862,"is_reserved":false,"is_disabled":false,"rental_uris":{"android":"levelo://app?vid=ef512198-3f43-4d32-801b-f63c871c0ea6","ios":"levelo://app?vid=ef512198-3f43-4d32-801b-f63c871c0ea6"},"vehicle_type_id":"4","last_reported":1742360999,"current_range_meters":10800,"station_id":"ce4bhb12rcd13ifvqem0","pricing_plan_id":"cebpf4jnsgd1na2vs0mg"},{"bike_id":"7f61d7be-d227-44df-9b33-b8f4965e514f","system_id":"levelo_inurba_marseille","lat":43.23187,"lon":5.35565,"is_reserved":false,"is_disabled":false,"rental_uris":{"android":"levelo://app?vid=7f61d7be-d227-44df-9b33-b8f4965e514f","ios":"levelo://app?vid=7f61d7be-d227-44df-9b33-b8f4965e514f"},"vehicle_type_id":"4","last_reported":1742360999,"current_range_meters":10800,"station_id":"ce4bhu92rcd13ifvqi70","pricing_plan_id":"cebpf4jnsgd1na2vs0mg"},{"bike_id":"8abf66b0-4c7b-4a5b-9216-254c311cdf06","system_id":"levelo_inurba_marseille","lat":43.25582,"lon":5.3824,"is_reserved":false,"is_disabled":false,"rental_uris":{"android":"levelo://app?vid=8abf66b0-4c7b-4a5b-9216-254c311cdf06","ios":"levelo://app?vid=8abf66b0-4c7b-4a5b-9216-254c311cdf06"},"vehicle_type_id":"4","last_reported":1742360999,"current_range_meters":10800,"station_id":"ce4bhih2rcd13ifvqfs0","pricing_plan_id":"cebpf4jnsgd1na2vs0mg"},{"bike_id":"4dfde5f1-5b7a-4544-af46-1b4f858c8262","system_id":"levelo_inurba_marseille","lat":43.28464,"lon":5.35886,"is_reserved":false,"is_disabled":false,"rental_uris":{"android":"levelo://app?vid=4dfde5f1-5b7a-4544-af46-1b4f858c8262","ios":"levelo://app?vid=4dfde5f1-5b7a-4544-af46-1b4f858c8262"},"vehicle_type_id":"4","last_reported":1742360999,"current_range_meters":10800,"station_id":"ce4bhah2rcd13ifvqei0","pricing_plan_id":"cebpf4jnsgd1na2vs0mg"},{"bike_id":"a9850aa6-1853-457a-837d-f5d031b17321","system_id":"levelo_inurba_marseille","lat":43.309279,"lon":5.401511,"is_reserved":false,"is_disabled":false,"rental_uris":{"android":"levelo://app?vid=a9850aa6-1853-457a-837d-f5d031b17321","ios":"levelo://app?vid=a9850aa6-1853-457a-837d-f5d031b17321"},"vehicle_type_id":"4","last_reported":1742360999,"current_range_meters":10800,"station_id":"ce4bgvp2rcd13ifvqct0","pricing_plan_id":"cebpf4jnsgd1na2vs0mg"},{"bike_id":"26836c87-2147-41b7-afed-e66458af42b2","system_id":"levelo_inurba_marseille","lat":43.25081,"lon":5.39498,"is_reserved":false,"is_disabled":false,"rental_uris":{"android":"levelo://app?vid=26836c87-2147-41b7-afed-e66458af42b2","ios":"levelo://app?vid=26836c87-2147-41b7-afed-e66458af42b2"},"vehicle_type_id":"4","last_reported":1742360999,"current_range_meters":10800,"station_id":"ce4bhm12rcd13ifvqgkg","pricing_plan_id":"cebpf4jnsgd1na2vs0mg"},{"bike_id":"e5121f0f-7c2c-40f2-9de2-92d0b04ec3be","system_id":"levelo_inurba_marseille","lat":43.3088,"lon":5.39676,"is_reserved":false,"is_disabled":false,"rental_uris":{"android":"levelo://app?vid=e5121f0f-7c2c-40f2-9de2-92d0b04ec3be","ios":"levelo://app?vid=e5121f0f-7c2c-40f2-9de2-92d0b04ec3be"},"vehicle_type_id":"4","last_reported":1742360999,"current_range_meters":10800,"station_id":"ce4bh012rcd13ifvqcv0","pricing_plan_id":"cebpf4jnsgd1na2vs0mg"},{"bike_id":"c2f4da44-a44d-44d2-8be6-51648ee37d7f","system_id":"levelo_inurba_marseille","lat":43.25006,"lon":5.38959,"is_reserved":false,"is_disabled":false,"rental_uris":{"android":"levelo://app?vid=c2f4da44-a44d-44d2-8be6-51648ee37d7f","ios":"levelo://app?vid=c2f4da44-a44d-44d2-8be6-51648ee37d7f"},"vehicle_type_id":"4","last_reported":1742360999,"current_range_meters":10800,"station_id":"ce4bhgp2rcd13ifvqfd0","pricing_plan_id":"cebpf4jnsgd1na2vs0mg"},{"bike_id":"9c47177a-7452-479f-9af2-f5dddd6db58b","system_id":"levelo_inurba_marseille","lat":43.3301,"lon":5.39055,"is_reserved":false,"is_disabled":false,"rental_uris":{"android":"levelo://app?vid=9c47177a-7452-479f-9af2-f5dddd6db58b","ios":"levelo://app?vid=9c47177a-7452-479f-9af2-f5dddd6db58b"},"vehicle_type_id":"4","last_reported":1742360999,"current_range_meters":10800,"station_id":"ce4bhr92rcd13ifvqhrg","pricing_plan_id":"cebpf4jnsgd1na2vs0mg"},{"bike_id":"bb78a1d1-78ba-4f37-81f4-87b10a1775a5","system_id":"levelo_inurba_marseille","lat":43.321072,"lon":5.367841,"is_reserved":false,"is_disabled":false,"rental_uris":{"android":"levelo://app?vid=bb78a1d1-78ba-4f37-81f4-87b10a1775a5","ios":"levelo://app?vid=bb78a1d1-78ba-4f37-81f4-87b10a1775a5"},"vehicle_type_id":"4","last_reported":1742360999,"current_range_meters":11200,"station_id":"ce4bhrh2rcd13ifvqhug","pricing_plan_id":"cebpf4jnsgd1na2vs0mg"},{"bike_id":"44a4af3e-84f5-4f54-943d-83cf9fa4d793","system_id":"levelo_inurba_marseille","lat":43.278291,"lon":5.407246,"is_reserved":false,"is_disabled":false,"rental_uris":{"android":"levelo://app?vid=44a4af3e-84f5-4f54-943d-83cf9fa4d793","ios":"levelo://app?vid=44a4af3e-84f5-4f54-943d-83cf9fa4d793"},"vehicle_type_id":"4","last_reported":1742360999,"current_range_meters":11200,"station_id":"ce4bhnh2rcd13ifvqgtg","pricing_plan_id":"cebpf4jnsgd1na2vs0mg"},{"bike_id":"53f43ab5-10e7-471f-87f4-a7548a52d35e","system_id":"levelo_inurba_marseille","lat":43.30787,"lon":5.372496,"is_reserved":false,"is_disabled":false,"rental_uris":{"android":"levelo://app?vid=53f43ab5-10e7-471f-87f4-a7548a52d35e","ios":"levelo://app?vid=53f43ab5-10e7-471f-87f4-a7548a52d35e"},"vehicle_type_id":"4","last_reported":1742360999,"current_range_meters":11200,"station_id":"ce4bguh2rcd13ifvqckg","pricing_plan_id":"cebpf4jnsgd1na2vs0mg"},{"bike_id":"3455258b-4135-46b9-9a26-10bf95160e40","system_id":"levelo_inurba_marseille","lat":43.231906,"lon":5.355544,"is_reserved":false,"is_disabled":false,"rental_uris":{"android":"levelo://app?vid=3455258b-4135-46b9-9a26-10bf95160e40","ios":"levelo://app?vid=3455258b-4135-46b9-9a26-10bf95160e40"},"vehicle_type_id":"4","last_reported":1742360999,"current_range_meters":11200,"station_id":"ce4bhu92rcd13ifvqi70","pricing_plan_id":"cebpf4jnsgd1na2vs0mg"},{"bike_id":"f31fd8fc-38af-431a-83a8-4d065c63a44e","system_id":"levelo_inurba_marseille","lat":43.2838,"lon":5.38637,"is_reserved":false,"is_disabled":false,"rental_uris":{"android":"levelo://app?vid=f31fd8fc-38af-431a-83a8-4d065c63a44e","ios":"levelo://app?vid=f31fd8fc-38af-431a-83a8-4d065c63a44e"},"vehicle_type_id":"4","last_reported":1742360999,"current_range_meters":11200,"station_id":"ce4bh492rcd13ifvqdvg","pricing_plan_id":"cebpf4jnsgd1na2vs0mg"},{"bike_id":"06a6152a-e477-491f-83ed-9b68fd573e32","system_id":"levelo_inurba_marseille","lat":43.25826,"lon":5.39428,"is_reserved":false,"is_disabled":false,"rental_uris":{"android":"levelo://app?vid=06a6152a-e477-491f-83ed-9b68fd573e32","ios":"levelo://app?vid=06a6152a-e477-491f-83ed-9b68fd573e32"},"vehicle_type_id":"4","last_reported":1742360999,"current_range_meters":11200,"station_id":"ce4bhip2rcd13ifvqft0","pricing_plan_id":"cebpf4jnsgd1na2vs0mg"},{"bike_id":"89a66d15-b2b9-456f-bf55-c28ef57a6652","system_id":"levelo_inurba_marseille","lat":43.29048,"lon":5.35907,"is_reserved":false,"is_disabled":false,"rental_uris":{"android":"levelo://app?vid=89a66d15-b2b9-456f-bf55-c28ef57a6652","ios":"levelo://app?vid=89a66d15-b2b9-456f-bf55-c28ef57a6652"},"vehicle_type_id":"4","last_reported":1742360999,"current_range_meters":11200,"station_id":"ce4bha92rcd13ifvqeg0","pricing_plan_id":"cebpf4jnsgd1na2vs0mg"},{"bike_id":"78c7f344-224f-4ee1-abbd-94f4d94ef023","system_id":"levelo_inurba_marseille","lat":43.23951,"lon":5.36617,"is_reserved":false,"is_disabled":true,"rental_uris":{"android":"levelo://app?vid=78c7f344-224f-4ee1-abbd-94f4d94ef023","ios":"levelo://app?vid=78c7f344-224f-4ee1-abbd-94f4d94ef023"},"vehicle_type_id":"4","last_reported":1742360999,"current_range_meters":11600,"station_id":"ce4bhi12rcd13ifvqfp0","pricing_plan_id":"cebpf4jnsgd1na2vs0mg"},{"bike_id":"9ca3bb79-a2d6-4b1d-bacb-81aee7604188","system_id":"levelo_inurba_marseille","lat":43.2857,"lon":5.39518,"is_reserved":false,"is_disabled":false,"rental_uris":{"android":"levelo://app?vid=9ca3bb79-a2d6-4b1d-bacb-81aee7604188","ios":"levelo://app?vid=9ca3bb79-a2d6-4b1d-bacb-81aee7604188"},"vehicle_type_id":"4","last_reported":1742360999,"current_range_meters":11600,"station_id":"ce4bh292rcd13ifvqdg0","pricing_plan_id":"cebpf4jnsgd1na2vs0mg"},{"bike_id":"98a333cf-e91b-4758-81a4-0ca513ec8e1b","system_id":"levelo_inurba_marseille","lat":43.28945,"lon":5.36415,"is_reserved":false,"is_disabled":false,"rental_uris":{"android":"levelo://app?vid=98a333cf-e91b-4758-81a4-0ca513ec8e1b","ios":"levelo://app?vid=98a333cf-e91b-4758-81a4-0ca513ec8e1b"},"vehicle_type_id":"4","last_reported":1742360999,"current_range_meters":11600,"station_id":"ce4bhc92rcd13ifvqetg","pricing_plan_id":"cebpf4jnsgd1na2vs0mg"},{"bike_id":"f4165607-80d2-4e6e-8b9c-c523c42872fb","system_id":"levelo_inurba_marseille","lat":43.24795,"lon":5.37458,"is_reserved":false,"is_disabled":false,"rental_uris":{"android":"levelo://app?vid=f4165607-80d2-4e6e-8b9c-c523c42872fb","ios":"levelo://app?vid=f4165607-80d2-4e6e-8b9c-c523c42872fb"},"vehicle_type_id":"4","last_reported":1742360999,"current_range_meters":11600,"station_id":"ce4bhgh2rcd13ifvqfb0","pricing_plan_id":"cebpf4jnsgd1na2vs0mg"},{"bike_id":"c86606fb-02b2-4f0b-bfbb-8669e1c8bf82","system_id":"levelo_inurba_marseille","lat":43.3114,"lon":5.38719,"is_reserved":false,"is_disabled":false,"rental_uris":{"android":"levelo://app?vid=c86606fb-02b2-4f0b-bfbb-8669e1c8bf82","ios":"levelo://app?vid=c86606fb-02b2-4f0b-bfbb-8669e1c8bf82"},"vehicle_type_id":"4","last_reported":1742360999,"current_range_meters":11600,"station_id":"ce4bgv12rcd13ifvqcp0","pricing_plan_id":"cebpf4jnsgd1na2vs0mg"},{"bike_id":"40519983-510e-4b9a-9562-e0995123f6e0","system_id":"levelo_inurba_marseille","lat":43.23196,"lon":5.35543,"is_reserved":false,"is_disabled":false,"rental_uris":{"android":"levelo://app?vid=40519983-510e-4b9a-9562-e0995123f6e0","ios":"levelo://app?vid=40519983-510e-4b9a-9562-e0995123f6e0"},"vehicle_type_id":"4","last_reported":1742360999,"current_range_meters":11600,"station_id":"ce4bhu92rcd13ifvqi70","pricing_plan_id":"cebpf4jnsgd1na2vs0mg"},{"bike_id":"d0b6bb68-002e-46bf-93dd-b7e833c43fb4","system_id":"levelo_inurba_marseille","lat":43.28097,"lon":5.37834,"is_reserved":false,"is_disabled":false,"rental_uris":{"android":"levelo://app?vid=d0b6bb68-002e-46bf-93dd-b7e833c43fb4","ios":"levelo://app?vid=d0b6bb68-002e-46bf-93dd-b7e833c43fb4"},"vehicle_type_id":"4","last_reported":1742360999,"current_range_meters":11600,"station_id":"ce4bha12rcd13ifvqee0","pricing_plan_id":"cebpf4jnsgd1na2vs0mg"},{"bike_id":"94344c0c-c86f-4e16-b61d-11aacc1b7580","system_id":"levelo_inurba_marseille","lat":43.28739,"lon":5.46588,"is_reserved":false,"is_disabled":false,"rental_uris":{"android":"levelo://app?vid=94344c0c-c86f-4e16-b61d-11aacc1b7580","ios":"levelo://app?vid=94344c0c-c86f-4e16-b61d-11aacc1b7580"},"vehicle_type_id":"4","last_reported":1742360999,"current_range_meters":11600,"station_id":"","pricing_plan_id":"cebpf4jnsgd1na2vs0mg"},{"bike_id":"bc0e18b3-02bd-4bb7-97ad-13cc0f47b21e","system_id":"levelo_inurba_marseille","lat":43.30095,"lon":5.39097,"is_reserved":false,"is_disabled":false,"rental_uris":{"android":"levelo://app?vid=bc0e18b3-02bd-4bb7-97ad-13cc0f47b21e","ios":"levelo://app?vid=bc0e18b3-02bd-4bb7-97ad-13cc0f47b21e"},"vehicle_type_id":"4","last_reported":1742360999,"current_range_meters":12000,"station_id":"ce4bh192rcd13ifvqdb0","pricing_plan_id":"cebpf4jnsgd1na2vs0mg"},{"bike_id":"e60c1153-ceb4-4f72-92cd-2dc1051b5e4c","system_id":"levelo_inurba_marseille","lat":43.26066,"lon":5.39392,"is_reserved":false,"is_disabled":true,"rental_uris":{"android":"levelo://app?vid=e60c1153-ceb4-4f72-92cd-2dc1051b5e4c","ios":"levelo://app?vid=e60c1153-ceb4-4f72-92cd-2dc1051b5e4c"},"vehicle_type_id":"4","last_reported":1742360999,"current_range_meters":12000,"station_id":"ce4bhh92rcd13ifvqfj0","pricing_plan_id":"cebpf4jnsgd1na2vs0mg"},{"bike_id":"116cee39-a217-4510-919a-c365ec655e68","system_id":"levelo_inurba_marseille","lat":43.27804,"lon":5.4073,"is_reserved":false,"is_disabled":false,"rental_uris":{"android":"levelo://app?vid=116cee39-a217-4510-919a-c365ec655e68","ios":"levelo://app?vid=116cee39-a217-4510-919a-c365ec655e68"},"vehicle_type_id":"4","last_reported":1742360999,"current_range_meters":12000,"station_id":"ce4bhnh2rcd13ifvqgtg","pricing_plan_id":"cebpf4jnsgd1na2vs0mg"},{"bike_id":"7d68c8c3-56ef-4fff-baa3-7cd5e60180fe","system_id":"levelo_inurba_marseille","lat":43.24646,"lon":5.38908,"is_reserved":false,"is_disabled":false,"rental_uris":{"android":"levelo://app?vid=7d68c8c3-56ef-4fff-baa3-7cd5e60180fe","ios":"levelo://app?vid=7d68c8c3-56ef-4fff-baa3-7cd5e60180fe"},"vehicle_type_id":"4","last_reported":1742360999,"current_range_meters":12000,"station_id":"ce4bhg12rcd13ifvqf60","pricing_plan_id":"cebpf4jnsgd1na2vs0mg"},{"bike_id":"853e1884-4cb0-4144-8bc9-fdee30f7f87d","system_id":"levelo_inurba_marseille","lat":43.28017,"lon":5.36945,"is_reserved":false,"is_disabled":false,"rental_uris":{"android":"levelo://app?vid=853e1884-4cb0-4144-8bc9-fdee30f7f87d","ios":"levelo://app?vid=853e1884-4cb0-4144-8bc9-fdee30f7f87d"},"vehicle_type_id":"4","last_reported":1742360999,"current_range_meters":12000,"station_id":"ce4bha12rcd13ifvqef0","pricing_plan_id":"cebpf4jnsgd1na2vs0mg"},{"bike_id":"26c3156d-8d38-4b11-92b6-f3f49ed4bf9b","system_id":"levelo_inurba_marseille","lat":43.279104,"lon":5.412155,"is_reserved":false,"is_disabled":false,"rental_uris":{"android":"levelo://app?vid=26c3156d-8d38-4b11-92b6-f3f49ed4bf9b","ios":"levelo://app?vid=26c3156d-8d38-4b11-92b6-f3f49ed4bf9b"},"vehicle_type_id":"4","last_reported":1742360999,"current_range_meters":12000,"station_id":"","pricing_plan_id":"cebpf4jnsgd1na2vs0mg"},{"bike_id":"3259b682-e4dc-4a27-895a-2ee089a67444","system_id":"levelo_inurba_marseille","lat":43.2861,"lon":5.41267,"is_reserved":false,"is_disabled":false,"rental_uris":{"android":"levelo://app?vid=3259b682-e4dc-4a27-895a-2ee089a67444","ios":"levelo://app?vid=3259b682-e4dc-4a27-895a-2ee089a67444"},"vehicle_type_id":"4","last_reported":1742360999,"current_range_meters":12000,"station_id":"","pricing_plan_id":"cebpf4jnsgd1na2vs0mg"},{"bike_id":"a7174e98-a09f-41ad-b180-f1d746a024ec","system_id":"levelo_inurba_marseille","lat":43.29623,"lon":5.40627,"is_reserved":false,"is_disabled":false,"rental_uris":{"android":"levelo://app?vid=a7174e98-a09f-41ad-b180-f1d746a024ec","ios":"levelo://app?vid=a7174e98-a09f-41ad-b180-f1d746a024ec"},"vehicle_type_id":"4","last_reported":1742360999,"current_range_meters":12000,"station_id":"ce4bh0h2rcd13ifvqd60","pricing_plan_id":"cebpf4jnsgd1na2vs0mg"},{"bike_id":"4a529a04-a02c-489b-b187-392d4992e8e1","system_id":"levelo_inurba_marseille","lat":43.26789,"lon":5.40335,"is_reserved":false,"is_disabled":false,"rental_uris":{"android":"levelo://app?vid=4a529a04-a02c-489b-b187-392d4992e8e1","ios":"levelo://app?vid=4a529a04-a02c-489b-b187-392d4992e8e1"},"vehicle_type_id":"4","last_reported":1742360999,"current_range_meters":12000,"station_id":"ce501612rcd8frsf0b60","pricing_plan_id":"cebpf4jnsgd1na2vs0mg"},{"bike_id":"d92b2aca-e173-4b5d-8754-67afd6d56858","system_id":"levelo_inurba_marseille","lat":43.28458,"lon":5.3593,"is_reserved":false,"is_disabled":false,"rental_uris":{"android":"levelo://app?vid=d92b2aca-e173-4b5d-8754-67afd6d56858","ios":"levelo://app?vid=d92b2aca-e173-4b5d-8754-67afd6d56858"},"vehicle_type_id":"4","last_reported":1742360999,"current_range_meters":12000,"station_id":"ce4bhah2rcd13ifvqei0","pricing_plan_id":"cebpf4jnsgd1na2vs0mg"},{"bike_id":"14040204-5465-4db0-ab0e-41e91dfa7e0d","system_id":"levelo_inurba_marseille","lat":43.31387,"lon":5.37491,"is_reserved":false,"is_disabled":false,"rental_uris":{"android":"levelo://app?vid=14040204-5465-4db0-ab0e-41e91dfa7e0d","ios":"levelo://app?vid=14040204-5465-4db0-ab0e-41e91dfa7e0d"},"vehicle_type_id":"4","last_reported":1742360999,"current_range_meters":12400,"station_id":"","pricing_plan_id":"cebpf4jnsgd1na2vs0mg"},{"bike_id":"3a93b571-ed30-4cd4-aca9-8a8fdc87a1c6","system_id":"levelo_inurba_marseille","lat":43.23964,"lon":5.36643,"is_reserved":false,"is_disabled":false,"rental_uris":{"android":"levelo://app?vid=3a93b571-ed30-4cd4-aca9-8a8fdc87a1c6","ios":"levelo://app?vid=3a93b571-ed30-4cd4-aca9-8a8fdc87a1c6"},"vehicle_type_id":"4","last_reported":1742360999,"current_range_meters":12400,"station_id":"ce4bhi12rcd13ifvqfp0","pricing_plan_id":"cebpf4jnsgd1na2vs0mg"},{"bike_id":"f7ec7579-ce4b-4e1f-8f96-ae037f27d71a","system_id":"levelo_inurba_marseille","lat":43.28617,"lon":5.35104,"is_reserved":false,"is_disabled":false,"rental_uris":{"android":"levelo://app?vid=f7ec7579-ce4b-4e1f-8f96-ae037f27d71a","ios":"levelo://app?vid=f7ec7579-ce4b-4e1f-8f96-ae037f27d71a"},"vehicle_type_id":"4","last_reported":1742360999,"current_range_meters":12400,"station_id":"ce4bhch2rcd13ifvqeug","pricing_plan_id":"cebpf4jnsgd1na2vs0mg"},{"bike_id":"f1dcd5b6-294c-4f9f-a5dc-52ba2710eacb","system_id":"levelo_inurba_marseille","lat":43.23188,"lon":5.40005,"is_reserved":false,"is_disabled":false,"rental_uris":{"android":"levelo://app?vid=f1dcd5b6-294c-4f9f-a5dc-52ba2710eacb","ios":"levelo://app?vid=f1dcd5b6-294c-4f9f-a5dc-52ba2710eacb"},"vehicle_type_id":"4","last_reported":1742360999,"current_range_meters":12400,"station_id":"ce4bhn12rcd13ifvqgqg","pricing_plan_id":"cebpf4jnsgd1na2vs0mg"},{"bike_id":"a1b6a2d3-5e84-4afd-bf8d-fb4e0c1a5cd1","system_id":"levelo_inurba_marseille","lat":43.28092,"lon":5.39657,"is_reserved":false,"is_disabled":false,"rental_uris":{"android":"levelo://app?vid=a1b6a2d3-5e84-4afd-bf8d-fb4e0c1a5cd1","ios":"levelo://app?vid=a1b6a2d3-5e84-4afd-bf8d-fb4e0c1a5cd1"},"vehicle_type_id":"4","last_reported":1742360999,"current_range_meters":12400,"station_id":"ce4bho12rcd13ifvqh2g","pricing_plan_id":"cebpf4jnsgd1na2vs0mg"},{"bike_id":"c03bf0bc-bd13-4839-83fb-cde67bd118c3","system_id":"levelo_inurba_marseille","lat":43.27493,"lon":5.42464,"is_reserved":false,"is_disabled":false,"rental_uris":{"android":"levelo://app?vid=c03bf0bc-bd13-4839-83fb-cde67bd118c3","ios":"levelo://app?vid=c03bf0bc-bd13-4839-83fb-cde67bd118c3"},"vehicle_type_id":"4","last_reported":1742360999,"current_range_meters":12400,"station_id":"ce4bhn92rcd13ifvqgrg","pricing_plan_id":"cebpf4jnsgd1na2vs0mg"},{"bike_id":"c956f6d8-2c15-448e-b773-af7fda1bb067","system_id":"levelo_inurba_marseille","lat":43.28605,"lon":5.37054,"is_reserved":false,"is_disabled":false,"rental_uris":{"android":"levelo://app?vid=c956f6d8-2c15-448e-b773-af7fda1bb067","ios":"levelo://app?vid=c956f6d8-2c15-448e-b773-af7fda1bb067"},"vehicle_type_id":"4","last_reported":1742360999,"current_range_meters":12400,"station_id":"ce4bht12rcd13ifvqi60","pricing_plan_id":"cebpf4jnsgd1na2vs0mg"},{"bike_id":"75e8bee3-0a10-4522-9d7e-72ece2846129","system_id":"levelo_inurba_marseille","lat":43.330222,"lon":5.390404,"is_reserved":false,"is_disabled":false,"rental_uris":{"android":"levelo://app?vid=75e8bee3-0a10-4522-9d7e-72ece2846129","ios":"levelo://app?vid=75e8bee3-0a10-4522-9d7e-72ece2846129"},"vehicle_type_id":"4","last_reported":1742360999,"current_range_meters":12400,"station_id":"ce4bhr92rcd13ifvqhrg","pricing_plan_id":"cebpf4jnsgd1na2vs0mg"},{"bike_id":"a381e0d0-bcb7-45d3-b76d-d16a1ac24451","system_id":"levelo_inurba_marseille","lat":43.23946,"lon":5.36666,"is_reserved":false,"is_disabled":false,"rental_uris":{"android":"levelo://app?vid=a381e0d0-bcb7-45d3-b76d-d16a1ac24451","ios":"levelo://app?vid=a381e0d0-bcb7-45d3-b76d-d16a1ac24451"},"vehicle_type_id":"4","last_reported":1742360999,"current_range_meters":12400,"station_id":"ce4bhi12rcd13ifvqfp0","pricing_plan_id":"cebpf4jnsgd1na2vs0mg"},{"bike_id":"eb1bdab6-cce9-43ab-9ab1-efcd014e54ae","system_id":"levelo_inurba_marseille","lat":43.290371,"lon":5.359244,"is_reserved":false,"is_disabled":false,"rental_uris":{"android":"levelo://app?vid=eb1bdab6-cce9-43ab-9ab1-efcd014e54ae","ios":"levelo://app?vid=eb1bdab6-cce9-43ab-9ab1-efcd014e54ae"},"vehicle_type_id":"4","last_reported":1742360999,"current_range_meters":12400,"station_id":"ce4bha92rcd13ifvqeg0","pricing_plan_id":"cebpf4jnsgd1na2vs0mg"},{"bike_id":"aadb2f8c-155c-4734-84dd-a0e3df2d0be8","system_id":"levelo_inurba_marseille","lat":43.30798,"lon":5.43528,"is_reserved":false,"is_disabled":false,"rental_uris":{"android":"levelo://app?vid=aadb2f8c-155c-4734-84dd-a0e3df2d0be8","ios":"levelo://app?vid=aadb2f8c-155c-4734-84dd-a0e3df2d0be8"},"vehicle_type_id":"4","last_reported":1742360999,"current_range_meters":12400,"station_id":"ce4bhph2rcd13ifvqheg","pricing_plan_id":"cebpf4jnsgd1na2vs0mg"},{"bike_id":"92d8111d-dc94-481c-a128-adb8a5cd5d90","system_id":"levelo_inurba_marseille","lat":43.2624,"lon":5.40455,"is_reserved":false,"is_disabled":false,"rental_uris":{"android":"levelo://app?vid=92d8111d-dc94-481c-a128-adb8a5cd5d90","ios":"levelo://app?vid=92d8111d-dc94-481c-a128-adb8a5cd5d90"},"vehicle_type_id":"4","last_reported":1742360999,"current_range_meters":12400,"station_id":"ce4bhmh2rcd13ifvqgmg","pricing_plan_id":"cebpf4jnsgd1na2vs0mg"},{"bike_id":"7f163f46-0b1a-48f7-a16d-cd7ab1e422bc","system_id":"levelo_inurba_marseille","lat":43.26572,"lon":5.37292,"is_reserved":false,"is_disabled":false,"rental_uris":{"android":"levelo://app?vid=7f163f46-0b1a-48f7-a16d-cd7ab1e422bc","ios":"levelo://app?vid=7f163f46-0b1a-48f7-a16d-cd7ab1e422bc"},"vehicle_type_id":"4","last_reported":1742360999,"current_range_meters":12800,"station_id":"ce4bhg12rcd13ifvqf70","pricing_plan_id":"cebpf4jnsgd1na2vs0mg"},{"bike_id":"d8f4191f-177a-4cfd-8733-1633113267d5","system_id":"levelo_inurba_marseille","lat":43.27835,"lon":5.39207,"is_reserved":false,"is_disabled":false,"rental_uris":{"android":"levelo://app?vid=d8f4191f-177a-4cfd-8733-1633113267d5","ios":"levelo://app?vid=d8f4191f-177a-4cfd-8733-1633113267d5"},"vehicle_type_id":"4","last_reported":1742360999,"current_range_meters":15200,"station_id":"ce4bhjp2rcd13ifvqga0","pricing_plan_id":"cebpf4jnsgd1na2vs0mg"},{"bike_id":"d90e3abc-164c-428e-845a-6e3ed94f24b5","system_id":"levelo_inurba_marseille","lat":43.26561,"lon":5.37324,"is_reserved":false,"is_disabled":false,"rental_uris":{"android":"levelo://app?vid=d90e3abc-164c-428e-845a-6e3ed94f24b5","ios":"levelo://app?vid=d90e3abc-164c-428e-845a-6e3ed94f24b5"},"vehicle_type_id":"4","last_reported":1742360999,"current_range_meters":12800,"station_id":"ce4bhg12rcd13ifvqf70","pricing_plan_id":"cebpf4jnsgd1na2vs0mg"},{"bike_id":"dd4f0db9-bca2-4a2e-9f5e-7dc7a58a0918","system_id":"levelo_inurba_marseille","lat":43.27829,"lon":5.39212,"is_reserved":false,"is_disabled":false,"rental_uris":{"android":"levelo://app?vid=dd4f0db9-bca2-4a2e-9f5e-7dc7a58a0918","ios":"levelo://app?vid=dd4f0db9-bca2-4a2e-9f5e-7dc7a58a0918"},"vehicle_type_id":"4","last_reported":1742360999,"current_range_meters":12800,"station_id":"ce4bhjp2rcd13ifvqga0","pricing_plan_id":"cebpf4jnsgd1na2vs0mg"},{"bike_id":"e62c4628-e02c-4d18-93a4-2f038fe4001c","system_id":"levelo_inurba_marseille","lat":43.27471,"lon":5.42462,"is_reserved":false,"is_disabled":false,"rental_uris":{"android":"levelo://app?vid=e62c4628-e02c-4d18-93a4-2f038fe4001c","ios":"levelo://app?vid=e62c4628-e02c-4d18-93a4-2f038fe4001c"},"vehicle_type_id":"4","last_reported":1742360999,"current_range_meters":13600,"station_id":"ce4bhn92rcd13ifvqgrg","pricing_plan_id":"cebpf4jnsgd1na2vs0mg"},{"bike_id":"f8a76e32-3fd7-414e-8564-7e3717cd51c6","system_id":"levelo_inurba_marseille","lat":43.28091,"lon":5.37867,"is_reserved":false,"is_disabled":false,"rental_uris":{"android":"levelo://app?vid=f8a76e32-3fd7-414e-8564-7e3717cd51c6","ios":"levelo://app?vid=f8a76e32-3fd7-414e-8564-7e3717cd51c6"},"vehicle_type_id":"4","last_reported":1742360999,"current_range_meters":13600,"station_id":"ce4bha12rcd13ifvqee0","pricing_plan_id":"cebpf4jnsgd1na2vs0mg"},{"bike_id":"3b87c00a-8de2-4684-b738-94eb18e3ddb2","system_id":"levelo_inurba_marseille","lat":43.2927,"lon":5.40139,"is_reserved":false,"is_disabled":false,"rental_uris":{"android":"levelo://app?vid=3b87c00a-8de2-4684-b738-94eb18e3ddb2","ios":"levelo://app?vid=3b87c00a-8de2-4684-b738-94eb18e3ddb2"},"vehicle_type_id":"4","last_reported":1742360999,"current_range_meters":13600,"station_id":"ce4bh312rcd13ifvqdk0","pricing_plan_id":"cebpf4jnsgd1na2vs0mg"},{"bike_id":"e4f05ff4-5880-482e-8a3a-f24bceb8d874","system_id":"levelo_inurba_marseille","lat":43.28413,"lon":5.37539,"is_reserved":false,"is_disabled":false,"rental_uris":{"android":"levelo://app?vid=e4f05ff4-5880-482e-8a3a-f24bceb8d874","ios":"levelo://app?vid=e4f05ff4-5880-482e-8a3a-f24bceb8d874"},"vehicle_type_id":"4","last_reported":1742360999,"current_range_meters":13600,"station_id":"ce4bh412rcd13ifvqds0","pricing_plan_id":"cebpf4jnsgd1na2vs0mg"},{"bike_id":"827ba91a-2c1b-4df0-8fbe-d0c133e6b435","system_id":"levelo_inurba_marseille","lat":43.29751,"lon":5.44791,"is_reserved":false,"is_disabled":false,"rental_uris":{"android":"levelo://app?vid=827ba91a-2c1b-4df0-8fbe-d0c133e6b435","ios":"levelo://app?vid=827ba91a-2c1b-4df0-8fbe-d0c133e6b435"},"vehicle_type_id":"4","last_reported":1742360999,"current_range_meters":13600,"station_id":"","pricing_plan_id":"cebpf4jnsgd1na2vs0mg"},{"bike_id":"f97f3241-4274-4450-af5d-8c68f271d09d","system_id":"levelo_inurba_marseille","lat":43.290253,"lon":5.386324,"is_reserved":false,"is_disabled":true,"rental_uris":{"android":"levelo://app?vid=f97f3241-4274-4450-af5d-8c68f271d09d","ios":"levelo://app?vid=f97f3241-4274-4450-af5d-8c68f271d09d"},"vehicle_type_id":"4","last_reported":1742360999,"current_range_meters":13600,"station_id":"ce4bh4p2rcd13ifvqe0g","pricing_plan_id":"cebpf4jnsgd1na2vs0mg"},{"bike_id":"d7f2963b-8e65-4e56-856d-76ea32190275","system_id":"levelo_inurba_marseille","lat":43.28407,"lon":5.37512,"is_reserved":false,"is_disabled":false,"rental_uris":{"android":"levelo://app?vid=d7f2963b-8e65-4e56-856d-76ea32190275","ios":"levelo://app?vid=d7f2963b-8e65-4e56-856d-76ea32190275"},"vehicle_type_id":"4","last_reported":1742360999,"current_range_meters":14000,"station_id":"ce4bh412rcd13ifvqds0","pricing_plan_id":"cebpf4jnsgd1na2vs0mg"},{"bike_id":"202cf808-cc43-4e17-81cc-6677fd4bcb68","system_id":"levelo_inurba_marseille","lat":43.29815,"lon":5.39364,"is_reserved":false,"is_disabled":false,"rental_uris":{"android":"levelo://app?vid=202cf808-cc43-4e17-81cc-6677fd4bcb68","ios":"levelo://app?vid=202cf808-cc43-4e17-81cc-6677fd4bcb68"},"vehicle_type_id":"4","last_reported":1742360999,"current_range_meters":14000,"station_id":"chh1huq6cuj3fo74tm60","pricing_plan_id":"cebpf4jnsgd1na2vs0mg"},{"bike_id":"9d26c008-8ec1-4269-9cd2-f45774f03ccb","system_id":"levelo_inurba_marseille","lat":43.27929,"lon":5.37953,"is_reserved":false,"is_disabled":false,"rental_uris":{"android":"levelo://app?vid=9d26c008-8ec1-4269-9cd2-f45774f03ccb","ios":"levelo://app?vid=9d26c008-8ec1-4269-9cd2-f45774f03ccb"},"vehicle_type_id":"4","last_reported":1742360999,"current_range_meters":14000,"station_id":"","pricing_plan_id":"cebpf4jnsgd1na2vs0mg"},{"bike_id":"96e343bd-79d6-4e3f-b7dd-d78e5f35d6d8","system_id":"levelo_inurba_marseille","lat":43.281504,"lon":5.426461,"is_reserved":false,"is_disabled":false,"rental_uris":{"android":"levelo://app?vid=96e343bd-79d6-4e3f-b7dd-d78e5f35d6d8","ios":"levelo://app?vid=96e343bd-79d6-4e3f-b7dd-d78e5f35d6d8"},"vehicle_type_id":"4","last_reported":1742360999,"current_range_meters":14000,"station_id":"ce4bhnh2rcd13ifvqgug","pricing_plan_id":"cebpf4jnsgd1na2vs0mg"},{"bike_id":"1b6c7be3-00d3-4063-b5d2-97e0e6cf22b8","system_id":"levelo_inurba_marseille","lat":43.29196,"lon":5.35824,"is_reserved":false,"is_disabled":false,"rental_uris":{"android":"levelo://app?vid=1b6c7be3-00d3-4063-b5d2-97e0e6cf22b8","ios":"levelo://app?vid=1b6c7be3-00d3-4063-b5d2-97e0e6cf22b8"},"vehicle_type_id":"4","last_reported":1742360999,"current_range_meters":14400,"station_id":"ce4bhb12rcd13ifvqel0","pricing_plan_id":"cebpf4jnsgd1na2vs0mg"},{"bike_id":"b0d2fd39-c5b7-4eb0-bbb9-af7d841ce0e3","system_id":"levelo_inurba_marseille","lat":43.24166,"lon":5.364079,"is_reserved":false,"is_disabled":true,"rental_uris":{"android":"levelo://app?vid=b0d2fd39-c5b7-4eb0-bbb9-af7d841ce0e3","ios":"levelo://app?vid=b0d2fd39-c5b7-4eb0-bbb9-af7d841ce0e3"},"vehicle_type_id":"4","last_reported":1742360999,"current_range_meters":14400,"station_id":"cpo36qri1sfpv3e86is0","pricing_plan_id":"cebpf4jnsgd1na2vs0mg"},{"bike_id":"3caca121-c6ee-4ecb-b642-704be86e8f2d","system_id":"levelo_inurba_marseille","lat":43.23169,"lon":5.39987,"is_reserved":false,"is_disabled":false,"rental_uris":{"android":"levelo://app?vid=3caca121-c6ee-4ecb-b642-704be86e8f2d","ios":"levelo://app?vid=3caca121-c6ee-4ecb-b642-704be86e8f2d"},"vehicle_type_id":"4","last_reported":1742360999,"current_range_meters":14400,"station_id":"ce4bhn12rcd13ifvqgqg","pricing_plan_id":"cebpf4jnsgd1na2vs0mg"},{"bike_id":"308d9482-2ea5-474f-a039-beb909d1aca5","system_id":"levelo_inurba_marseille","lat":43.27943,"lon":5.41041,"is_reserved":false,"is_disabled":true,"rental_uris":{"android":"levelo://app?vid=308d9482-2ea5-474f-a039-beb909d1aca5","ios":"levelo://app?vid=308d9482-2ea5-474f-a039-beb909d1aca5"},"vehicle_type_id":"4","last_reported":1742360999,"current_range_meters":14400,"station_id":"ce4bhnp2rcd13ifvqh0g","pricing_plan_id":"cebpf4jnsgd1na2vs0mg"},{"bike_id":"02f43b01-3b74-45fa-a40e-2df823c84cda","system_id":"levelo_inurba_marseille","lat":43.24159,"lon":5.39717,"is_reserved":false,"is_disabled":false,"rental_uris":{"android":"levelo://app?vid=02f43b01-3b74-45fa-a40e-2df823c84cda","ios":"levelo://app?vid=02f43b01-3b74-45fa-a40e-2df823c84cda"},"vehicle_type_id":"4","last_reported":1742360999,"current_range_meters":14400,"station_id":"ce4bhn12rcd13ifvqgpg","pricing_plan_id":"cebpf4jnsgd1na2vs0mg"},{"bike_id":"0487a772-a454-40c0-9f20-9f9316872a61","system_id":"levelo_inurba_marseille","lat":43.29553,"lon":5.4226,"is_reserved":false,"is_disabled":false,"rental_uris":{"android":"levelo://app?vid=0487a772-a454-40c0-9f20-9f9316872a61","ios":"levelo://app?vid=0487a772-a454-40c0-9f20-9f9316872a61"},"vehicle_type_id":"4","last_reported":1742360999,"current_range_meters":14400,"station_id":"ce4bhph2rcd13ifvqhdg","pricing_plan_id":"cebpf4jnsgd1na2vs0mg"},{"bike_id":"2d4ac887-62ac-408d-8d45-6c61006ec116","system_id":"levelo_inurba_marseille","lat":43.2396,"lon":5.3665,"is_reserved":false,"is_disabled":false,"rental_uris":{"android":"levelo://app?vid=2d4ac887-62ac-408d-8d45-6c61006ec116","ios":"levelo://app?vid=2d4ac887-62ac-408d-8d45-6c61006ec116"},"vehicle_type_id":"4","last_reported":1742360999,"current_range_meters":14400,"station_id":"ce4bhi12rcd13ifvqfp0","pricing_plan_id":"cebpf4jnsgd1na2vs0mg"},{"bike_id":"2a8d133d-961d-4660-a78a-bb4a11ccea95","system_id":"levelo_inurba_marseille","lat":43.278096,"lon":5.407061,"is_reserved":false,"is_disabled":false,"rental_uris":{"android":"levelo://app?vid=2a8d133d-961d-4660-a78a-bb4a11ccea95","ios":"levelo://app?vid=2a8d133d-961d-4660-a78a-bb4a11ccea95"},"vehicle_type_id":"4","last_reported":1742360999,"current_range_meters":14400,"station_id":"ce4bhnh2rcd13ifvqgtg","pricing_plan_id":"cebpf4jnsgd1na2vs0mg"},{"bike_id":"176d2e0b-da43-4b98-b92e-b45d4ab12b2f","system_id":"levelo_inurba_marseille","lat":43.30228,"lon":5.38443,"is_reserved":false,"is_disabled":false,"rental_uris":{"android":"levelo://app?vid=176d2e0b-da43-4b98-b92e-b45d4ab12b2f","ios":"levelo://app?vid=176d2e0b-da43-4b98-b92e-b45d4ab12b2f"},"vehicle_type_id":"4","last_reported":1742360999,"current_range_meters":14400,"station_id":"","pricing_plan_id":"cebpf4jnsgd1na2vs0mg"},{"bike_id":"44647773-1fb5-4bbf-972a-f8fec5a4f217","system_id":"levelo_inurba_marseille","lat":43.30931,"lon":5.40162,"is_reserved":false,"is_disabled":false,"rental_uris":{"android":"levelo://app?vid=44647773-1fb5-4bbf-972a-f8fec5a4f217","ios":"levelo://app?vid=44647773-1fb5-4bbf-972a-f8fec5a4f217"},"vehicle_type_id":"4","last_reported":1742360999,"current_range_meters":14800,"station_id":"ce4bgvp2rcd13ifvqct0","pricing_plan_id":"cebpf4jnsgd1na2vs0mg"},{"bike_id":"f5c3ae74-c1e7-4312-aaf8-ca982ce92b47","system_id":"levelo_inurba_marseille","lat":43.25004,"lon":5.38951,"is_reserved":false,"is_disabled":false,"rental_uris":{"android":"levelo://app?vid=f5c3ae74-c1e7-4312-aaf8-ca982ce92b47","ios":"levelo://app?vid=f5c3ae74-c1e7-4312-aaf8-ca982ce92b47"},"vehicle_type_id":"4","last_reported":1742360999,"current_range_meters":14800,"station_id":"ce4bhgp2rcd13ifvqfd0","pricing_plan_id":"cebpf4jnsgd1na2vs0mg"},{"bike_id":"a289cc38-5006-492c-8c94-ed76614a14d0","system_id":"levelo_inurba_marseille","lat":43.25568,"lon":5.38238,"is_reserved":false,"is_disabled":false,"rental_uris":{"android":"levelo://app?vid=a289cc38-5006-492c-8c94-ed76614a14d0","ios":"levelo://app?vid=a289cc38-5006-492c-8c94-ed76614a14d0"},"vehicle_type_id":"4","last_reported":1742360999,"current_range_meters":14800,"station_id":"ce4bhih2rcd13ifvqfs0","pricing_plan_id":"cebpf4jnsgd1na2vs0mg"},{"bike_id":"1192a421-e660-4a63-9f52-7a134e4214a8","system_id":"levelo_inurba_marseille","lat":43.3045,"lon":5.38896,"is_reserved":false,"is_disabled":false,"rental_uris":{"android":"levelo://app?vid=1192a421-e660-4a63-9f52-7a134e4214a8","ios":"levelo://app?vid=1192a421-e660-4a63-9f52-7a134e4214a8"},"vehicle_type_id":"4","last_reported":1742360999,"current_range_meters":14800,"station_id":"ce4bgk12rcd13ifvqbi0","pricing_plan_id":"cebpf4jnsgd1na2vs0mg"},{"bike_id":"0c6718a3-ec5e-4e1d-b75c-00e5092427bd","system_id":"levelo_inurba_marseille","lat":43.30882,"lon":5.39671,"is_reserved":false,"is_disabled":false,"rental_uris":{"android":"levelo://app?vid=0c6718a3-ec5e-4e1d-b75c-00e5092427bd","ios":"levelo://app?vid=0c6718a3-ec5e-4e1d-b75c-00e5092427bd"},"vehicle_type_id":"4","last_reported":1742360999,"current_range_meters":14800,"station_id":"ce4bh012rcd13ifvqcv0","pricing_plan_id":"cebpf4jnsgd1na2vs0mg"},{"bike_id":"84e141f2-a01b-47bf-b16e-31262f0bfcf2","system_id":"levelo_inurba_marseille","lat":43.24038,"lon":5.37768,"is_reserved":false,"is_disabled":false,"rental_uris":{"android":"levelo://app?vid=84e141f2-a01b-47bf-b16e-31262f0bfcf2","ios":"levelo://app?vid=84e141f2-a01b-47bf-b16e-31262f0bfcf2"},"vehicle_type_id":"4","last_reported":1742360999,"current_range_meters":14800,"station_id":"ce4bhnp2rcd13ifvqgvg","pricing_plan_id":"cebpf4jnsgd1na2vs0mg"},{"bike_id":"249e687c-6192-4e65-ad46-42f35855b43d","system_id":"levelo_inurba_marseille","lat":43.30138,"lon":5.38058,"is_reserved":false,"is_disabled":false,"rental_uris":{"android":"levelo://app?vid=249e687c-6192-4e65-ad46-42f35855b43d","ios":"levelo://app?vid=249e687c-6192-4e65-ad46-42f35855b43d"},"vehicle_type_id":"4","last_reported":1742360999,"current_range_meters":15200,"station_id":"ce4bgjp2rcd13ifvqbh0","pricing_plan_id":"cebpf4jnsgd1na2vs0mg"},{"bike_id":"210b2a72-8464-41b3-9593-32f24d2b77ec","system_id":"levelo_inurba_marseille","lat":43.27783,"lon":5.40731,"is_reserved":false,"is_disabled":false,"rental_uris":{"android":"levelo://app?vid=210b2a72-8464-41b3-9593-32f24d2b77ec","ios":"levelo://app?vid=210b2a72-8464-41b3-9593-32f24d2b77ec"},"vehicle_type_id":"4","last_reported":1742360999,"current_range_meters":15200,"station_id":"ce4bhnh2rcd13ifvqgtg","pricing_plan_id":"cebpf4jnsgd1na2vs0mg"},{"bike_id":"5e313b50-eae1-49d2-bae5-80eb0b7a8549","system_id":"levelo_inurba_marseille","lat":43.30786,"lon":5.37655,"is_reserved":false,"is_disabled":false,"rental_uris":{"android":"levelo://app?vid=5e313b50-eae1-49d2-bae5-80eb0b7a8549","ios":"levelo://app?vid=5e313b50-eae1-49d2-bae5-80eb0b7a8549"},"vehicle_type_id":"4","last_reported":1742360999,"current_range_meters":15200,"station_id":"ce4bgv92rcd13ifvqcq0","pricing_plan_id":"cebpf4jnsgd1na2vs0mg"},{"bike_id":"114dc30c-343b-4079-bb31-6ac2fa3792b4","system_id":"levelo_inurba_marseille","lat":43.27971,"lon":5.38741,"is_reserved":false,"is_disabled":false,"rental_uris":{"android":"levelo://app?vid=114dc30c-343b-4079-bb31-6ac2fa3792b4","ios":"levelo://app?vid=114dc30c-343b-4079-bb31-6ac2fa3792b4"},"vehicle_type_id":"4","last_reported":1742360999,"current_range_meters":15200,"station_id":"ce4bhg12rcd13ifvqf80","pricing_plan_id":"cebpf4jnsgd1na2vs0mg"},{"bike_id":"fd78d565-e8af-4c6e-94e3-d92db15cedac","system_id":"levelo_inurba_marseille","lat":43.23182,"lon":5.43733,"is_reserved":false,"is_disabled":true,"rental_uris":{"android":"levelo://app?vid=fd78d565-e8af-4c6e-94e3-d92db15cedac","ios":"levelo://app?vid=fd78d565-e8af-4c6e-94e3-d92db15cedac"},"vehicle_type_id":"4","last_reported":1742360999,"current_range_meters":15200,"station_id":"ce4bhmp2rcd13ifvqgog","pricing_plan_id":"cebpf4jnsgd1na2vs0mg"},{"bike_id":"d4971b8f-c87d-4ed6-9893-77b0613756cf","system_id":"levelo_inurba_marseille","lat":43.33006,"lon":5.39065,"is_reserved":false,"is_disabled":false,"rental_uris":{"android":"levelo://app?vid=d4971b8f-c87d-4ed6-9893-77b0613756cf","ios":"levelo://app?vid=d4971b8f-c87d-4ed6-9893-77b0613756cf"},"vehicle_type_id":"4","last_reported":1742360999,"current_range_meters":15200,"station_id":"ce4bhr92rcd13ifvqhrg","pricing_plan_id":"cebpf4jnsgd1na2vs0mg"},{"bike_id":"9a407e55-d314-42fc-8c32-c5b5dcba6239","system_id":"levelo_inurba_marseille","lat":43.26218,"lon":5.40463,"is_reserved":false,"is_disabled":false,"rental_uris":{"android":"levelo://app?vid=9a407e55-d314-42fc-8c32-c5b5dcba6239","ios":"levelo://app?vid=9a407e55-d314-42fc-8c32-c5b5dcba6239"},"vehicle_type_id":"4","last_reported":1742360999,"current_range_meters":16000,"station_id":"ce4bhmh2rcd13ifvqgmg","pricing_plan_id":"cebpf4jnsgd1na2vs0mg"},{"bike_id":"cf824abf-b0e9-4815-97e1-521f1c7dc06c","system_id":"levelo_inurba_marseille","lat":43.30596,"lon":5.3936,"is_reserved":false,"is_disabled":false,"rental_uris":{"android":"levelo://app?vid=cf824abf-b0e9-4815-97e1-521f1c7dc06c","ios":"levelo://app?vid=cf824abf-b0e9-4815-97e1-521f1c7dc06c"},"vehicle_type_id":"4","last_reported":1742360999,"current_range_meters":16000,"station_id":"ce4bh0p2rcd13ifvqd80","pricing_plan_id":"cebpf4jnsgd1na2vs0mg"},{"bike_id":"2e774ebd-775d-4206-8390-ff296d2f3d19","system_id":"levelo_inurba_marseille","lat":43.30654,"lon":5.40077,"is_reserved":false,"is_disabled":false,"rental_uris":{"android":"levelo://app?vid=2e774ebd-775d-4206-8390-ff296d2f3d19","ios":"levelo://app?vid=2e774ebd-775d-4206-8390-ff296d2f3d19"},"vehicle_type_id":"4","last_reported":1742360999,"current_range_meters":16000,"station_id":"ce4bh112rcd13ifvqda0","pricing_plan_id":"cebpf4jnsgd1na2vs0mg"},{"bike_id":"1c6e69be-b184-4136-ac73-5fb94dae4903","system_id":"levelo_inurba_marseille","lat":43.32348,"lon":5.38867,"is_reserved":false,"is_disabled":false,"rental_uris":{"android":"levelo://app?vid=1c6e69be-b184-4136-ac73-5fb94dae4903","ios":"levelo://app?vid=1c6e69be-b184-4136-ac73-5fb94dae4903"},"vehicle_type_id":"4","last_reported":1742360999,"current_range_meters":16000,"station_id":"ce4bhqp2rcd13ifvqhog","pricing_plan_id":"cebpf4jnsgd1na2vs0mg"},{"bike_id":"36171524-784d-4f5a-84fe-e4628286a384","system_id":"levelo_inurba_marseille","lat":43.295182,"lon":5.379365,"is_reserved":false,"is_disabled":false,"rental_uris":{"android":"levelo://app?vid=36171524-784d-4f5a-84fe-e4628286a384","ios":"levelo://app?vid=36171524-784d-4f5a-84fe-e4628286a384"},"vehicle_type_id":"4","last_reported":1742360999,"current_range_meters":16000,"station_id":"","pricing_plan_id":"cebpf4jnsgd1na2vs0mg"},{"bike_id":"0af285be-0294-4c23-9728-cedd0c1ca6b2","system_id":"levelo_inurba_marseille","lat":43.23193,"lon":5.40042,"is_reserved":false,"is_disabled":false,"rental_uris":{"android":"levelo://app?vid=0af285be-0294-4c23-9728-cedd0c1ca6b2","ios":"levelo://app?vid=0af285be-0294-4c23-9728-cedd0c1ca6b2"},"vehicle_type_id":"4","last_reported":1742360999,"current_range_meters":16000,"station_id":"ce4bhn12rcd13ifvqgqg","pricing_plan_id":"cebpf4jnsgd1na2vs0mg"},{"bike_id":"471b8c1a-1a85-4080-b533-fb41f3dbfd81","system_id":"levelo_inurba_marseille","lat":43.23176,"lon":5.35569,"is_reserved":false,"is_disabled":false,"rental_uris":{"android":"levelo://app?vid=471b8c1a-1a85-4080-b533-fb41f3dbfd81","ios":"levelo://app?vid=471b8c1a-1a85-4080-b533-fb41f3dbfd81"},"vehicle_type_id":"4","last_reported":1742360999,"current_range_meters":16000,"station_id":"ce4bhu92rcd13ifvqi70","pricing_plan_id":"cebpf4jnsgd1na2vs0mg"},{"bike_id":"6e1b7554-d276-4569-91aa-b2407ae6e11d","system_id":"levelo_inurba_marseille","lat":43.23191,"lon":5.3992,"is_reserved":false,"is_disabled":false,"rental_uris":{"android":"levelo://app?vid=6e1b7554-d276-4569-91aa-b2407ae6e11d","ios":"levelo://app?vid=6e1b7554-d276-4569-91aa-b2407ae6e11d"},"vehicle_type_id":"4","last_reported":1742360999,"current_range_meters":16000,"station_id":"","pricing_plan_id":"cebpf4jnsgd1na2vs0mg"},{"bike_id":"bc2d8957-097e-4969-a693-6681d6a8a608","system_id":"levelo_inurba_marseille","lat":43.25491,"lon":5.37669,"is_reserved":false,"is_disabled":false,"rental_uris":{"android":"levelo://app?vid=bc2d8957-097e-4969-a693-6681d6a8a608","ios":"levelo://app?vid=bc2d8957-097e-4969-a693-6681d6a8a608"},"vehicle_type_id":"4","last_reported":1742360999,"current_range_meters":16000,"station_id":"ce4bhh12rcd13ifvqff0","pricing_plan_id":"cebpf4jnsgd1na2vs0mg"},{"bike_id":"671210b1-9e8f-4893-953f-985ab8b97e34","system_id":"levelo_inurba_marseille","lat":43.32111,"lon":5.36806,"is_reserved":false,"is_disabled":false,"rental_uris":{"android":"levelo://app?vid=671210b1-9e8f-4893-953f-985ab8b97e34","ios":"levelo://app?vid=671210b1-9e8f-4893-953f-985ab8b97e34"},"vehicle_type_id":"4","last_reported":1742360999,"current_range_meters":16000,"station_id":"ce4bhrh2rcd13ifvqhug","pricing_plan_id":"cebpf4jnsgd1na2vs0mg"},{"bike_id":"02f01ed3-9654-4a2f-b8ba-dc3cd63d5191","system_id":"levelo_inurba_marseille","lat":43.28476,"lon":5.35929,"is_reserved":false,"is_disabled":false,"rental_uris":{"android":"levelo://app?vid=02f01ed3-9654-4a2f-b8ba-dc3cd63d5191","ios":"levelo://app?vid=02f01ed3-9654-4a2f-b8ba-dc3cd63d5191"},"vehicle_type_id":"4","last_reported":1742360999,"current_range_meters":16000,"station_id":"","pricing_plan_id":"cebpf4jnsgd1na2vs0mg"},{"bike_id":"0be6911e-c35d-4809-a4e3-5c6b5935a7b6","system_id":"levelo_inurba_marseille","lat":43.28377,"lon":5.38946,"is_reserved":false,"is_disabled":false,"rental_uris":{"android":"levelo://app?vid=0be6911e-c35d-4809-a4e3-5c6b5935a7b6","ios":"levelo://app?vid=0be6911e-c35d-4809-a4e3-5c6b5935a7b6"},"vehicle_type_id":"4","last_reported":1742360999,"current_range_meters":16000,"station_id":"","pricing_plan_id":"cebpf4jnsgd1na2vs0mg"},{"bike_id":"7c23dcb0-31a4-457d-8cd5-05a913c017d4","system_id":"levelo_inurba_marseille","lat":43.33036,"lon":5.390223,"is_reserved":false,"is_disabled":false,"rental_uris":{"android":"levelo://app?vid=7c23dcb0-31a4-457d-8cd5-05a913c017d4","ios":"levelo://app?vid=7c23dcb0-31a4-457d-8cd5-05a913c017d4"},"vehicle_type_id":"4","last_reported":1742360999,"current_range_meters":16000,"station_id":"ce4bhr92rcd13ifvqhrg","pricing_plan_id":"cebpf4jnsgd1na2vs0mg"},{"bike_id":"966661e4-f035-4c21-a905-9390b541c83c","system_id":"levelo_inurba_marseille","lat":43.292,"lon":5.36091,"is_reserved":false,"is_disabled":false,"rental_uris":{"android":"levelo://app?vid=966661e4-f035-4c21-a905-9390b541c83c","ios":"levelo://app?vid=966661e4-f035-4c21-a905-9390b541c83c"},"vehicle_type_id":"4","last_reported":1742360999,"current_range_meters":16000,"station_id":"ce4bhbh2rcd13ifvqeqg","pricing_plan_id":"cebpf4jnsgd1na2vs0mg"},{"bike_id":"c6ab5d6e-9eb7-4ccf-a464-d5aa00b69f3b","system_id":"levelo_inurba_marseille","lat":43.23193,"lon":5.35553,"is_reserved":false,"is_disabled":false,"rental_uris":{"android":"levelo://app?vid=c6ab5d6e-9eb7-4ccf-a464-d5aa00b69f3b","ios":"levelo://app?vid=c6ab5d6e-9eb7-4ccf-a464-d5aa00b69f3b"},"vehicle_type_id":"4","last_reported":1742360999,"current_range_meters":16400,"station_id":"ce4bhu92rcd13ifvqi70","pricing_plan_id":"cebpf4jnsgd1na2vs0mg"},{"bike_id":"27eed1ba-7b62-4759-b1d0-4e0a71552a1b","system_id":"levelo_inurba_marseille","lat":43.31327,"lon":5.39714,"is_reserved":false,"is_disabled":false,"rental_uris":{"android":"levelo://app?vid=27eed1ba-7b62-4759-b1d0-4e0a71552a1b","ios":"levelo://app?vid=27eed1ba-7b62-4759-b1d0-4e0a71552a1b"},"vehicle_type_id":"4","last_reported":1742360999,"current_range_meters":16400,"station_id":"ce4bgvp2rcd13ifvqcu0","pricing_plan_id":"cebpf4jnsgd1na2vs0mg"},{"bike_id":"fcc0e8da-28f5-4c05-838f-9c24a67b7e54","system_id":"levelo_inurba_marseille","lat":43.23202,"lon":5.35563,"is_reserved":false,"is_disabled":false,"rental_uris":{"android":"levelo://app?vid=fcc0e8da-28f5-4c05-838f-9c24a67b7e54","ios":"levelo://app?vid=fcc0e8da-28f5-4c05-838f-9c24a67b7e54"},"vehicle_type_id":"4","last_reported":1742360999,"current_range_meters":16400,"station_id":"ce4bhu92rcd13ifvqi70","pricing_plan_id":"cebpf4jnsgd1na2vs0mg"},{"bike_id":"c6d118c4-bf73-4783-bfe5-4045d27823ce","system_id":"levelo_inurba_marseille","lat":43.280854,"lon":5.398866,"is_reserved":false,"is_disabled":false,"rental_uris":{"android":"levelo://app?vid=c6d118c4-bf73-4783-bfe5-4045d27823ce","ios":"levelo://app?vid=c6d118c4-bf73-4783-bfe5-4045d27823ce"},"vehicle_type_id":"4","last_reported":1742360999,"current_range_meters":16400,"station_id":"","pricing_plan_id":"cebpf4jnsgd1na2vs0mg"},{"bike_id":"84296d1d-9f66-43a6-8e59-69d6233a4cd0","system_id":"levelo_inurba_marseille","lat":43.278144,"lon":5.407108,"is_reserved":false,"is_disabled":false,"rental_uris":{"android":"levelo://app?vid=84296d1d-9f66-43a6-8e59-69d6233a4cd0","ios":"levelo://app?vid=84296d1d-9f66-43a6-8e59-69d6233a4cd0"},"vehicle_type_id":"4","last_reported":1742360999,"current_range_meters":16400,"station_id":"ce4bhnh2rcd13ifvqgtg","pricing_plan_id":"cebpf4jnsgd1na2vs0mg"},{"bike_id":"3b8a2f5e-015c-4b83-b0c5-7ef4858d1c4f","system_id":"levelo_inurba_marseille","lat":43.31173,"lon":5.38698,"is_reserved":false,"is_disabled":false,"rental_uris":{"android":"levelo://app?vid=3b8a2f5e-015c-4b83-b0c5-7ef4858d1c4f","ios":"levelo://app?vid=3b8a2f5e-015c-4b83-b0c5-7ef4858d1c4f"},"vehicle_type_id":"4","last_reported":1742360999,"current_range_meters":16400,"station_id":"ce4bgv12rcd13ifvqcp0","pricing_plan_id":"cebpf4jnsgd1na2vs0mg"},{"bike_id":"81a8d26a-ebff-4c66-8e78-26704417ee06","system_id":"levelo_inurba_marseille","lat":43.31754,"lon":5.39026,"is_reserved":false,"is_disabled":false,"rental_uris":{"android":"levelo://app?vid=81a8d26a-ebff-4c66-8e78-26704417ee06","ios":"levelo://app?vid=81a8d26a-ebff-4c66-8e78-26704417ee06"},"vehicle_type_id":"4","last_reported":1742360999,"current_range_meters":16400,"station_id":"ce4bhqp2rcd13ifvqhng","pricing_plan_id":"cebpf4jnsgd1na2vs0mg"},{"bike_id":"25bdbc60-8915-47b8-ac49-d16a38add8f4","system_id":"levelo_inurba_marseille","lat":43.23186,"lon":5.40009,"is_reserved":false,"is_disabled":false,"rental_uris":{"android":"levelo://app?vid=25bdbc60-8915-47b8-ac49-d16a38add8f4","ios":"levelo://app?vid=25bdbc60-8915-47b8-ac49-d16a38add8f4"},"vehicle_type_id":"4","last_reported":1742360999,"current_range_meters":16400,"station_id":"ce4bhn12rcd13ifvqgqg","pricing_plan_id":"cebpf4jnsgd1na2vs0mg"},{"bike_id":"226af16b-419c-4c64-845f-4b14881f6daf","system_id":"levelo_inurba_marseille","lat":43.29802,"lon":5.40415,"is_reserved":false,"is_disabled":false,"rental_uris":{"android":"levelo://app?vid=226af16b-419c-4c64-845f-4b14881f6daf","ios":"levelo://app?vid=226af16b-419c-4c64-845f-4b14881f6daf"},"vehicle_type_id":"4","last_reported":1742360999,"current_range_meters":16400,"station_id":"ce4bh112rcd13ifvqd90","pricing_plan_id":"cebpf4jnsgd1na2vs0mg"},{"bike_id":"d7645557-54c5-44ed-8c44-41e433a350da","system_id":"levelo_inurba_marseille","lat":43.294798,"lon":5.355629,"is_reserved":false,"is_disabled":false,"rental_uris":{"android":"levelo://app?vid=d7645557-54c5-44ed-8c44-41e433a350da","ios":"levelo://app?vid=d7645557-54c5-44ed-8c44-41e433a350da"},"vehicle_type_id":"4","last_reported":1742360999,"current_range_meters":16400,"station_id":"","pricing_plan_id":"cebpf4jnsgd1na2vs0mg"},{"bike_id":"fa49c5c9-8253-4923-8e27-44fac7ab1469","system_id":"levelo_inurba_marseille","lat":43.29028,"lon":5.38641,"is_reserved":false,"is_disabled":true,"rental_uris":{"android":"levelo://app?vid=fa49c5c9-8253-4923-8e27-44fac7ab1469","ios":"levelo://app?vid=fa49c5c9-8253-4923-8e27-44fac7ab1469"},