{"last_updated":1771414258,"ttl":60,"version":"2.2","data":{"bikes":[{"bike_id":"0d8f60b5-7d2d-4641-b40a-9554efa1a326","system_id":"levelo_inurba_marseille","lat":43.24949,"lon":5.40514,"is_reserved":false,"is_disabled":false,"rental_uris":{"android":"levelo://app?vid=0d8f60b5-7d2d-4641-b40a-9554efa1a326","ios":"levelo://app?vid=0d8f60b5-7d2d-4641-b40a-9554efa1a326"},"vehicle_type_id":"4","last_reported":1771414258,"current_range_meters":27600,"station_id":"st_d2ngiaodas8pm72gd1h0","pricing_plan_id":"cebpf4jnsgd1na2vs0mg"},{"bike_id":"ac2d6f68-e3d5-4e25-a04e-7dbc807cca84","system_id":"levelo_inurba_marseille","lat":43.30477,"lon":5.37905,"is_reserved":false,"is_disabled":false,"rental_uris":{"android":"levelo://app?vid=ac2d6f68-e3d5-4e25-a04e-7dbc807cca84","ios":"levelo://app?vid=ac2d6f68-e3d5-4e25-a04e-7dbc807cca84"},"vehicle_type_id":"4","last_reported":1771414258,"current_range_meters":39200,"station_id":"ce4bgup2rcd13ifvqcn0","pricing_plan_id":"cebpf4jnsgd1na2vs0mg"},{"bike_id":"f56469d6-156e-4dc9-9c3e-3416ed76c4ba","system_id":"levelo_inurba_marseille","lat":43.33176,"lon":5.37698,"is_reserved":false,"is_disabled":false,"rental_uris":{"android":"levelo://app?vid=f56469d6-156e-4dc9-9c3e-3416ed76c4ba","ios":"levelo://app?vid=f56469d6-156e-4dc9-9c3e-3416ed76c4ba"},"vehicle_type_id":"4","last_reported":1771414258,"current_range_meters":25600,"station_id":"st_d46cu089ee8s73dldbu0","pricing_plan_id":"cebpf4jnsgd1na2vs0mg"},{"bike_id":"6fdf3c0c-e2fd-48ef-ba20-cd96942d8a55","system_id":"levelo_inurba_marseille","lat":43.26229,"lon":5.40453,"is_reserved":false,"is_disabled":false,"rental_uris":{"android":"levelo://app?vid=6fdf3c0c-e2fd-48ef-ba20-cd96942d8a55","ios":"levelo://app?vid=6fdf3c0c-e2fd-48ef-ba20-cd96942d8a55"},"vehicle_type_id":"4","last_reported":1771414258,"current_range_meters":17200,"station_id":"ce4bhmh2rcd13ifvqgmg","pricing_plan_id":"cebpf4jnsgd1na2vs0mg"},{"bike_id":"c62f363f-fcb2-4534-bdcf-649bb585bc60","system_id":"levelo_inurba_marseille","lat":43.2924,"lon":5.36073,"is_reserved":false,"is_disabled":false,"rental_uris":{"android":"levelo://app?vid=c62f363f-fcb2-4534-bdcf-649bb585bc60","ios":"levelo://app?vid=c62f363f-fcb2-4534-bdcf-649bb585bc60"},"vehicle_type_id":"4","last_reported":1771414258,"current_range_meters":35600,"station_id":"ce4bhbh2rcd13ifvqeqg","pricing_plan_id":"cebpf4jnsgd1na2vs0mg"},{"bike_id":"db2fa9a0-de2e-4c1f-b709-42804478283d","system_id":"levelo_inurba_marseille","lat":43.24527,"lon":5.39497,"is_reserved":false,"is_disabled":false,"rental_uris":{"android":"levelo://app?vid=db2fa9a0-de2e-4c1f-b709-42804478283d","ios":"levelo://app?vid=db2fa9a0-de2e-4c1f-b709-42804478283d"},"vehicle_type_id":"4","last_reported":1771414258,"current_range_meters":28800,"station_id":"ce4bhlp2rcd13ifvqgjg","pricing_plan_id":"cebpf4jnsgd1na2vs0mg"},{"bike_id":"9f4a73af-cbba-4b98-906a-d98ba0517574","system_id":"levelo_inurba_marseille","lat":43.26559,"lon":5.37277,"is_reserved":false,"is_disabled":true,"rental_uris":{"android":"levelo://app?vid=9f4a73af-cbba-4b98-906a-d98ba0517574","ios":"levelo://app?vid=9f4a73af-cbba-4b98-906a-d98ba0517574"},"vehicle_type_id":"4","last_reported":1771414258,"current_range_meters":35600,"station_id":"ce4bhg12rcd13ifvqf70","pricing_plan_id":"cebpf4jnsgd1na2vs0mg"},{"bike_id":"8edd566c-9374-439c-ba80-1121ac81978b","system_id":"levelo_inurba_marseille","lat":43.27962,"lon":5.41044,"is_reserved":false,"is_disabled":false,"rental_uris":{"android":"levelo://app?vid=8edd566c-9374-439c-ba80-1121ac81978b","ios":"levelo://app?vid=8edd566c-9374-439c-ba80-1121ac81978b"},"vehicle_type_id":"4","last_reported":1771414258,"current_range_meters":6800,"station_id":"ce4bhnp2rcd13ifvqh0g","pricing_plan_id":"cebpf4jnsgd1na2vs0mg"},{"bike_id":"df2b51b8-6266-41bb-a3ab-a4dcd1fc3155","system_id":"levelo_inurba_marseille","lat":43.304207,"lon":5.412811,"is_reserved":false,"is_disabled":false,"rental_uris":{"android":"levelo://app?vid=df2b51b8-6266-41bb-a3ab-a4dcd1fc3155","ios":"levelo://app?vid=df2b51b8-6266-41bb-a3ab-a4dcd1fc3155"},"vehicle_type_id":"4","last_reported":1771414258,"current_range_meters":4000,"station_id":"ce4bhop2rcd13ifvqh8g","pricing_plan_id":"cebpf4jnsgd1na2vs0mg"},{"bike_id":"37b7f341-16d7-4eb9-9d63-c0dc411fcc94","system_id":"levelo_inurba_marseille","lat":43.2419,"lon":5.39712,"is_reserved":false,"is_disabled":false,"rental_uris":{"android":"levelo://app?vid=37b7f341-16d7-4eb9-9d63-c0dc411fcc94","ios":"levelo://app?vid=37b7f341-16d7-4eb9-9d63-c0dc411fcc94"},"vehicle_type_id":"4","last_reported":1771414258,"current_range_meters":23200,"station_id":"ce4bhn12rcd13ifvqgpg","pricing_plan_id":"cebpf4jnsgd1na2vs0mg"},{"bike_id":"d2bb17c7-6558-4b9c-ae8a-0d2292552853","system_id":"levelo_inurba_marseille","lat":43.28509,"lon":5.48413,"is_reserved":false,"is_disabled":false,"rental_uris":{"android":"levelo://app?vid=d2bb17c7-6558-4b9c-ae8a-0d2292552853","ios":"levelo://app?vid=d2bb17c7-6558-4b9c-ae8a-0d2292552853"},"vehicle_type_id":"4","last_reported":1771414258,"current_range_meters":38000,"station_id":"","pricing_plan_id":"cebpf4jnsgd1na2vs0mg"},{"bike_id":"da4093a5-6673-43a8-b7ee-b4859a45cac4","system_id":"levelo_inurba_marseille","lat":43.24411,"lon":5.37069,"is_reserved":false,"is_disabled":false,"rental_uris":{"android":"levelo://app?vid=da4093a5-6673-43a8-b7ee-b4859a45cac4","ios":"levelo://app?vid=da4093a5-6673-43a8-b7ee-b4859a45cac4"},"vehicle_type_id":"4","last_reported":1771414258,"current_range_meters":8800,"station_id":"ce4bhhh2rcd13ifvqfk0","pricing_plan_id":"cebpf4jnsgd1na2vs0mg"},{"bike_id":"c68ee61e-e73b-4a40-9338-bbc32d0135df","system_id":"levelo_inurba_marseille","lat":43.30496,"lon":5.379,"is_reserved":false,"is_disabled":false,"rental_uris":{"android":"levelo://app?vid=c68ee61e-e73b-4a40-9338-bbc32d0135df","ios":"levelo://app?vid=c68ee61e-e73b-4a40-9338-bbc32d0135df"},"vehicle_type_id":"4","last_reported":1771414258,"current_range_meters":26000,"station_id":"ce4bgup2rcd13ifvqcn0","pricing_plan_id":"cebpf4jnsgd1na2vs0mg"},{"bike_id":"098e5456-b55d-4935-8641-5b057fa522f6","system_id":"levelo_inurba_marseille","lat":43.29932,"lon":5.36509,"is_reserved":false,"is_disabled":false,"rental_uris":{"android":"levelo://app?vid=098e5456-b55d-4935-8641-5b057fa522f6","ios":"levelo://app?vid=098e5456-b55d-4935-8641-5b057fa522f6"},"vehicle_type_id":"4","last_reported":1771414258,"current_range_meters":19200,"station_id":"ce4bgm92rcd13ifvqbr0","pricing_plan_id":"cebpf4jnsgd1na2vs0mg"},{"bike_id":"f3db919d-26f4-49f5-8c5c-0a908e0444ca","system_id":"levelo_inurba_marseille","lat":43.28988,"lon":5.37842,"is_reserved":false,"is_disabled":false,"rental_uris":{"android":"levelo://app?vid=f3db919d-26f4-49f5-8c5c-0a908e0444ca","ios":"levelo://app?vid=f3db919d-26f4-49f5-8c5c-0a908e0444ca"},"vehicle_type_id":"4","last_reported":1771414258,"current_range_meters":6000,"station_id":"ce4bh9p2rcd13ifvqed0","pricing_plan_id":"cebpf4jnsgd1na2vs0mg"},{"bike_id":"ac64c99d-9c3f-47f4-aa0b-060593732cb7","system_id":"levelo_inurba_marseille","lat":43.27832,"lon":5.39229,"is_reserved":false,"is_disabled":false,"rental_uris":{"android":"levelo://app?vid=ac64c99d-9c3f-47f4-aa0b-060593732cb7","ios":"levelo://app?vid=ac64c99d-9c3f-47f4-aa0b-060593732cb7"},"vehicle_type_id":"4","last_reported":1771414258,"current_range_meters":36800,"station_id":"ce4bhjp2rcd13ifvqga0","pricing_plan_id":"cebpf4jnsgd1na2vs0mg"},{"bike_id":"5d343a1d-c35d-4bc8-be83-8dcbd3a36889","system_id":"levelo_inurba_marseille","lat":43.27967,"lon":5.38696,"is_reserved":false,"is_disabled":false,"rental_uris":{"android":"levelo://app?vid=5d343a1d-c35d-4bc8-be83-8dcbd3a36889","ios":"levelo://app?vid=5d343a1d-c35d-4bc8-be83-8dcbd3a36889"},"vehicle_type_id":"4","last_reported":1771414258,"current_range_meters":8800,"station_id":"ce4bhg12rcd13ifvqf80","pricing_plan_id":"cebpf4jnsgd1na2vs0mg"},{"bike_id":"86e74fc6-e834-47ce-9abe-466a18f19f3c","system_id":"levelo_inurba_marseille","lat":43.309011,"lon":5.371982,"is_reserved":false,"is_disabled":false,"rental_uris":{"android":"levelo://app?vid=86e74fc6-e834-47ce-9abe-466a18f19f3c","ios":"levelo://app?vid=86e74fc6-e834-47ce-9abe-466a18f19f3c"},"vehicle_type_id":"4","last_reported":1771414258,"current_range_meters":38800,"station_id":"ce4bguh2rcd13ifvqckg","pricing_plan_id":"cebpf4jnsgd1na2vs0mg"},{"bike_id":"995dd4aa-d943-4547-aee8-c3325bdb05ae","system_id":"levelo_inurba_marseille","lat":43.31303,"lon":5.40174,"is_reserved":false,"is_disabled":true,"rental_uris":{"android":"levelo://app?vid=995dd4aa-d943-4547-aee8-c3325bdb05ae","ios":"levelo://app?vid=995dd4aa-d943-4547-aee8-c3325bdb05ae"},"vehicle_type_id":"4","last_reported":1771414258,"current_range_meters":26000,"station_id":"ce4bh092rcd13ifvqd30","pricing_plan_id":"cebpf4jnsgd1na2vs0mg"},{"bike_id":"faecdf78-8109-4d36-933f-5c27a14446f1","system_id":"levelo_inurba_marseille","lat":43.29084,"lon":5.40008,"is_reserved":false,"is_disabled":false,"rental_uris":{"android":"levelo://app?vid=faecdf78-8109-4d36-933f-5c27a14446f1","ios":"levelo://app?vid=faecdf78-8109-4d36-933f-5c27a14446f1"},"vehicle_type_id":"4","last_reported":1771414258,"current_range_meters":38800,"station_id":"ce4bh392rcd13ifvqdm0","pricing_plan_id":"cebpf4jnsgd1na2vs0mg"},{"bike_id":"b9bf90bb-42ac-4ca0-a9ca-05ae535f415b","system_id":"levelo_inurba_marseille","lat":43.30533,"lon":5.36695,"is_reserved":false,"is_disabled":false,"rental_uris":{"android":"levelo://app?vid=b9bf90bb-42ac-4ca0-a9ca-05ae535f415b","ios":"levelo://app?vid=b9bf90bb-42ac-4ca0-a9ca-05ae535f415b"},"vehicle_type_id":"4","last_reported":1771414258,"current_range_meters":38400,"station_id":"ce4bgrp2rcd13ifvqc9g","pricing_plan_id":"cebpf4jnsgd1na2vs0mg"},{"bike_id":"78300cd2-3d23-4031-97ed-d6e4990ebaf8","system_id":"levelo_inurba_marseille","lat":43.292572,"lon":5.3832,"is_reserved":false,"is_disabled":false,"rental_uris":{"android":"levelo://app?vid=78300cd2-3d23-4031-97ed-d6e4990ebaf8","ios":"levelo://app?vid=78300cd2-3d23-4031-97ed-d6e4990ebaf8"},"vehicle_type_id":"4","last_reported":1771414258,"current_range_meters":14000,"station_id":"","pricing_plan_id":"cebpf4jnsgd1na2vs0mg"},{"bike_id":"97e5b8bb-9ce2-4a3e-b4a9-8b7acc5a9dcc","system_id":"levelo_inurba_marseille","lat":43.29271,"lon":5.36095,"is_reserved":false,"is_disabled":false,"rental_uris":{"android":"levelo://app?vid=97e5b8bb-9ce2-4a3e-b4a9-8b7acc5a9dcc","ios":"levelo://app?vid=97e5b8bb-9ce2-4a3e-b4a9-8b7acc5a9dcc"},"vehicle_type_id":"4","last_reported":1771414258,"current_range_meters":33600,"station_id":"ce4bhbh2rcd13ifvqeqg","pricing_plan_id":"cebpf4jnsgd1na2vs0mg"},{"bike_id":"c0be5c69-d4d0-408f-9686-7f71cf6f7bc9","system_id":"levelo_inurba_marseille","lat":43.29323,"lon":5.37613,"is_reserved":false,"is_disabled":false,"rental_uris":{"android":"levelo://app?vid=c0be5c69-d4d0-408f-9686-7f71cf6f7bc9","ios":"levelo://app?vid=c0be5c69-d4d0-408f-9686-7f71cf6f7bc9"},"vehicle_type_id":"4","last_reported":1771414258,"current_range_meters":20800,"station_id":"","pricing_plan_id":"cebpf4jnsgd1na2vs0mg"},{"bike_id":"0b0e423c-db6c-414d-8673-81468a2b7d18","system_id":"levelo_inurba_marseille","lat":43.259363,"lon":5.40912,"is_reserved":false,"is_disabled":false,"rental_uris":{"android":"levelo://app?vid=0b0e423c-db6c-414d-8673-81468a2b7d18","ios":"levelo://app?vid=0b0e423c-db6c-414d-8673-81468a2b7d18"},"vehicle_type_id":"4","last_reported":1771414258,"current_range_meters":33600,"station_id":"ce4bhm92rcd13ifvqglg","pricing_plan_id":"cebpf4jnsgd1na2vs0mg"},{"bike_id":"9daa25c7-d524-46ae-8d41-0a3c36c8c2a4","system_id":"levelo_inurba_marseille","lat":43.29071,"lon":5.39979,"is_reserved":false,"is_disabled":false,"rental_uris":{"android":"levelo://app?vid=9daa25c7-d524-46ae-8d41-0a3c36c8c2a4","ios":"levelo://app?vid=9daa25c7-d524-46ae-8d41-0a3c36c8c2a4"},"vehicle_type_id":"4","last_reported":1771414258,"current_range_meters":20000,"station_id":"ce4bh392rcd13ifvqdm0","pricing_plan_id":"cebpf4jnsgd1na2vs0mg"},{"bike_id":"748e0f94-1d84-4e99-a2d8-3ed4f6188416","system_id":"levelo_inurba_marseille","lat":43.25115,"lon":5.40325,"is_reserved":false,"is_disabled":false,"rental_uris":{"android":"levelo://app?vid=748e0f94-1d84-4e99-a2d8-3ed4f6188416","ios":"levelo://app?vid=748e0f94-1d84-4e99-a2d8-3ed4f6188416"},"vehicle_type_id":"4","last_reported":1771414258,"current_range_meters":36400,"station_id":"ce4bhlh2rcd13ifvqgig","pricing_plan_id":"cebpf4jnsgd1na2vs0mg"},{"bike_id":"30acb723-c765-4b77-9441-caf08c5bcd94","system_id":"levelo_inurba_marseille","lat":43.31267,"lon":5.36851,"is_reserved":false,"is_disabled":false,"rental_uris":{"android":"levelo://app?vid=30acb723-c765-4b77-9441-caf08c5bcd94","ios":"levelo://app?vid=30acb723-c765-4b77-9441-caf08c5bcd94"},"vehicle_type_id":"4","last_reported":1771414258,"current_range_meters":15200,"station_id":"ce4bgl92rcd13ifvqbq0","pricing_plan_id":"cebpf4jnsgd1na2vs0mg"},{"bike_id":"dea12119-0d2f-4d5b-b2b8-4fba663d926e","system_id":"levelo_inurba_marseille","lat":43.29317,"lon":5.40158,"is_reserved":false,"is_disabled":false,"rental_uris":{"android":"levelo://app?vid=dea12119-0d2f-4d5b-b2b8-4fba663d926e","ios":"levelo://app?vid=dea12119-0d2f-4d5b-b2b8-4fba663d926e"},"vehicle_type_id":"4","last_reported":1771414258,"current_range_meters":16400,"station_id":"","pricing_plan_id":"cebpf4jnsgd1na2vs0mg"},{"bike_id":"d79e1eed-e7b0-47cf-9683-1c9779ae0325","system_id":"levelo_inurba_marseille","lat":43.29057,"lon":5.39944,"is_reserved":false,"is_disabled":false,"rental_uris":{"android":"levelo://app?vid=d79e1eed-e7b0-47cf-9683-1c9779ae0325","ios":"levelo://app?vid=d79e1eed-e7b0-47cf-9683-1c9779ae0325"},"vehicle_type_id":"4","last_reported":1771414258,"current_range_meters":37600,"station_id":"ce4bh392rcd13ifvqdm0","pricing_plan_id":"cebpf4jnsgd1na2vs0mg"},{"bike_id":"55d5a50e-b2c6-4e9d-973e-1d0e35ce468b","system_id":"levelo_inurba_marseille","lat":43.3029,"lon":5.37698,"is_reserved":false,"is_disabled":false,"rental_uris":{"android":"levelo://app?vid=55d5a50e-b2c6-4e9d-973e-1d0e35ce468b","ios":"levelo://app?vid=55d5a50e-b2c6-4e9d-973e-1d0e35ce468b"},"vehicle_type_id":"4","last_reported":1771414258,"current_range_meters":38000,"station_id":"ce4bguh2rcd13ifvqcj0","pricing_plan_id":"cebpf4jnsgd1na2vs0mg"},{"bike_id":"d627de23-3635-4871-9aeb-de1777615514","system_id":"levelo_inurba_marseille","lat":43.31107,"lon":5.42435,"is_reserved":false,"is_disabled":false,"rental_uris":{"android":"levelo://app?vid=d627de23-3635-4871-9aeb-de1777615514","ios":"levelo://app?vid=d627de23-3635-4871-9aeb-de1777615514"},"vehicle_type_id":"4","last_reported":1771414258,"current_range_meters":26800,"station_id":"ce4bhp92rcd13ifvqhag","pricing_plan_id":"cebpf4jnsgd1na2vs0mg"},{"bike_id":"c12a3f3f-ee09-4692-a697-721eb5841563","system_id":"levelo_inurba_marseille","lat":43.30179,"lon":5.36612,"is_reserved":false,"is_disabled":false,"rental_uris":{"android":"levelo://app?vid=c12a3f3f-ee09-4692-a697-721eb5841563","ios":"levelo://app?vid=c12a3f3f-ee09-4692-a697-721eb5841563"},"vehicle_type_id":"4","last_reported":1771414258,"current_range_meters":38800,"station_id":"ce4bgrh2rcd13ifvqc8g","pricing_plan_id":"cebpf4jnsgd1na2vs0mg"},{"bike_id":"e071cb6b-00dd-46cc-bbae-0c336769674f","system_id":"levelo_inurba_marseille","lat":43.26504,"lon":5.39604,"is_reserved":false,"is_disabled":false,"rental_uris":{"android":"levelo://app?vid=e071cb6b-00dd-46cc-bbae-0c336769674f","ios":"levelo://app?vid=e071cb6b-00dd-46cc-bbae-0c336769674f"},"vehicle_type_id":"4","last_reported":1771414258,"current_range_meters":32800,"station_id":"ce4bhi12rcd13ifvqfq0","pricing_plan_id":"cebpf4jnsgd1na2vs0mg"},{"bike_id":"01c62984-a2ae-4489-84a9-6a173aa3a0f3","system_id":"levelo_inurba_marseille","lat":43.3119,"lon":5.36872,"is_reserved":false,"is_disabled":true,"rental_uris":{"android":"levelo://app?vid=01c62984-a2ae-4489-84a9-6a173aa3a0f3","ios":"levelo://app?vid=01c62984-a2ae-4489-84a9-6a173aa3a0f3"},"vehicle_type_id":"4","last_reported":1771414258,"current_range_meters":36000,"station_id":"ce4bgl92rcd13ifvqbq0","pricing_plan_id":"cebpf4jnsgd1na2vs0mg"},{"bike_id":"859ffe68-9c36-47bb-8f41-95f6c244dd26","system_id":"levelo_inurba_marseille","lat":43.29526,"lon":5.37495,"is_reserved":false,"is_disabled":false,"rental_uris":{"android":"levelo://app?vid=859ffe68-9c36-47bb-8f41-95f6c244dd26","ios":"levelo://app?vid=859ffe68-9c36-47bb-8f41-95f6c244dd26"},"vehicle_type_id":"4","last_reported":1771414258,"current_range_meters":38400,"station_id":"ce4bgkp2rcd13ifvqbmg","pricing_plan_id":"cebpf4jnsgd1na2vs0mg"},{"bike_id":"e9c8c195-4938-4494-9005-66aa872cbce1","system_id":"levelo_inurba_marseille","lat":43.31202,"lon":5.36833,"is_reserved":false,"is_disabled":false,"rental_uris":{"android":"levelo://app?vid=e9c8c195-4938-4494-9005-66aa872cbce1","ios":"levelo://app?vid=e9c8c195-4938-4494-9005-66aa872cbce1"},"vehicle_type_id":"4","last_reported":1771414258,"current_range_meters":17200,"station_id":"ce4bgl92rcd13ifvqbq0","pricing_plan_id":"cebpf4jnsgd1na2vs0mg"},{"bike_id":"b8fe5bc1-0e9e-4342-b58f-11eaa4ededc1","system_id":"levelo_inurba_marseille","lat":43.29365,"lon":5.3785,"is_reserved":false,"is_disabled":false,"rental_uris":{"android":"levelo://app?vid=b8fe5bc1-0e9e-4342-b58f-11eaa4ededc1","ios":"levelo://app?vid=b8fe5bc1-0e9e-4342-b58f-11eaa4ededc1"},"vehicle_type_id":"4","last_reported":1771414258,"current_range_meters":40000,"station_id":"ce4bgjh2rcd13ifvqbf0","pricing_plan_id":"cebpf4jnsgd1na2vs0mg"},{"bike_id":"a2aac6db-ff2a-410f-9224-52b6b4391027","system_id":"levelo_inurba_marseille","lat":43.25109,"lon":5.40318,"is_reserved":false,"is_disabled":false,"rental_uris":{"android":"levelo://app?vid=a2aac6db-ff2a-410f-9224-52b6b4391027","ios":"levelo://app?vid=a2aac6db-ff2a-410f-9224-52b6b4391027"},"vehicle_type_id":"4","last_reported":1771414258,"current_range_meters":28000,"station_id":"ce4bhlh2rcd13ifvqgig","pricing_plan_id":"cebpf4jnsgd1na2vs0mg"},{"bike_id":"efd627f9-2697-4f93-b988-afd524e58316","system_id":"levelo_inurba_marseille","lat":43.28706,"lon":5.39986,"is_reserved":false,"is_disabled":false,"rental_uris":{"android":"levelo://app?vid=efd627f9-2697-4f93-b988-afd524e58316","ios":"levelo://app?vid=efd627f9-2697-4f93-b988-afd524e58316"},"vehicle_type_id":"4","last_reported":1771414258,"current_range_meters":30800,"station_id":"ce4bho92rcd13ifvqh3g","pricing_plan_id":"cebpf4jnsgd1na2vs0mg"},{"bike_id":"926897a4-8741-4d6d-b33c-0b6162331ef7","system_id":"levelo_inurba_marseille","lat":43.30314,"lon":5.36896,"is_reserved":false,"is_disabled":false,"rental_uris":{"android":"levelo://app?vid=926897a4-8741-4d6d-b33c-0b6162331ef7","ios":"levelo://app?vid=926897a4-8741-4d6d-b33c-0b6162331ef7"},"vehicle_type_id":"4","last_reported":1771414258,"current_range_meters":38800,"station_id":"ce4bgqh2rcd13ifvqc5g","pricing_plan_id":"cebpf4jnsgd1na2vs0mg"},{"bike_id":"4a8cd272-628d-4ba5-ae9a-98dead38959e","system_id":"levelo_inurba_marseille","lat":43.2559,"lon":5.38232,"is_reserved":false,"is_disabled":false,"rental_uris":{"android":"levelo://app?vid=4a8cd272-628d-4ba5-ae9a-98dead38959e","ios":"levelo://app?vid=4a8cd272-628d-4ba5-ae9a-98dead38959e"},"vehicle_type_id":"4","last_reported":1771414258,"current_range_meters":14800,"station_id":"ce4bhih2rcd13ifvqfs0","pricing_plan_id":"cebpf4jnsgd1na2vs0mg"},{"bike_id":"06df2014-e9a7-4eea-a10c-90e91f6aa7ca","system_id":"levelo_inurba_marseille","lat":43.2649,"lon":5.39554,"is_reserved":false,"is_disabled":false,"rental_uris":{"android":"levelo://app?vid=06df2014-e9a7-4eea-a10c-90e91f6aa7ca","ios":"levelo://app?vid=06df2014-e9a7-4eea-a10c-90e91f6aa7ca"},"vehicle_type_id":"4","last_reported":1771414258,"current_range_meters":32400,"station_id":"ce4bhi12rcd13ifvqfq0","pricing_plan_id":"cebpf4jnsgd1na2vs0mg"},{"bike_id":"0b03371f-d614-4a77-84aa-be5c89a9402b","system_id":"levelo_inurba_marseille","lat":43.2608,"lon":5.39389,"is_reserved":false,"is_disabled":false,"rental_uris":{"android":"levelo://app?vid=0b03371f-d614-4a77-84aa-be5c89a9402b","ios":"levelo://app?vid=0b03371f-d614-4a77-84aa-be5c89a9402b"},"vehicle_type_id":"4","last_reported":1771414258,"current_range_meters":6400,"station_id":"ce4bhh92rcd13ifvqfj0","pricing_plan_id":"cebpf4jnsgd1na2vs0mg"},{"bike_id":"e9a4e14b-93db-4b83-a848-6f8a86227de0","system_id":"levelo_inurba_marseille","lat":43.30848,"lon":5.39649,"is_reserved":false,"is_disabled":false,"rental_uris":{"android":"levelo://app?vid=e9a4e14b-93db-4b83-a848-6f8a86227de0","ios":"levelo://app?vid=e9a4e14b-93db-4b83-a848-6f8a86227de0"},"vehicle_type_id":"4","last_reported":1771414258,"current_range_meters":35200,"station_id":"ce4bh012rcd13ifvqcv0","pricing_plan_id":"cebpf4jnsgd1na2vs0mg"},{"bike_id":"659923c1-de2a-425b-b089-253fcf51c04f","system_id":"levelo_inurba_marseille","lat":43.241669,"lon":5.363928,"is_reserved":false,"is_disabled":false,"rental_uris":{"android":"levelo://app?vid=659923c1-de2a-425b-b089-253fcf51c04f","ios":"levelo://app?vid=659923c1-de2a-425b-b089-253fcf51c04f"},"vehicle_type_id":"4","last_reported":1771414258,"current_range_meters":28800,"station_id":"cpo36qri1sfpv3e86is0","pricing_plan_id":"cebpf4jnsgd1na2vs0mg"},{"bike_id":"0015baaa-4b73-4491-bce2-1e0f7297ef50","system_id":"levelo_inurba_marseille","lat":43.29908,"lon":5.37463,"is_reserved":false,"is_disabled":false,"rental_uris":{"android":"levelo://app?vid=0015baaa-4b73-4491-bce2-1e0f7297ef50","ios":"levelo://app?vid=0015baaa-4b73-4491-bce2-1e0f7297ef50"},"vehicle_type_id":"4","last_reported":1771414258,"current_range_meters":39200,"station_id":"ce4bgjh2rcd13ifvqbg0","pricing_plan_id":"cebpf4jnsgd1na2vs0mg"},{"bike_id":"290649bd-a460-4d95-8c0d-616519ef9e83","system_id":"levelo_inurba_marseille","lat":43.30374,"lon":5.424871,"is_reserved":false,"is_disabled":false,"rental_uris":{"android":"levelo://app?vid=290649bd-a460-4d95-8c0d-616519ef9e83","ios":"levelo://app?vid=290649bd-a460-4d95-8c0d-616519ef9e83"},"vehicle_type_id":"4","last_reported":1771414258,"current_range_meters":25200,"station_id":"ce4bghh2rcd13ifvqb60","pricing_plan_id":"cebpf4jnsgd1na2vs0mg"},{"bike_id":"a8ac64ba-4309-4021-98a9-d1607f0b1c3c","system_id":"levelo_inurba_marseille","lat":43.29199,"lon":5.35969,"is_reserved":false,"is_disabled":false,"rental_uris":{"android":"levelo://app?vid=a8ac64ba-4309-4021-98a9-d1607f0b1c3c","ios":"levelo://app?vid=a8ac64ba-4309-4021-98a9-d1607f0b1c3c"},"vehicle_type_id":"4","last_reported":1771414258,"current_range_meters":24000,"station_id":"ce4bhbh2rcd13ifvqeqg","pricing_plan_id":"cebpf4jnsgd1na2vs0mg"},{"bike_id":"adf114b1-1ae6-4ec4-8bac-696d0b1beeb3","system_id":"levelo_inurba_marseille","lat":43.29055,"lon":5.39955,"is_reserved":false,"is_disabled":false,"rental_uris":{"android":"levelo://app?vid=adf114b1-1ae6-4ec4-8bac-696d0b1beeb3","ios":"levelo://app?vid=adf114b1-1ae6-4ec4-8bac-696d0b1beeb3"},"vehicle_type_id":"4","last_reported":1771414258,"current_range_meters":39200,"station_id":"ce4bh392rcd13ifvqdm0","pricing_plan_id":"cebpf4jnsgd1na2vs0mg"},{"bike_id":"7c53ce45-cbd6-49e8-a735-063bb2f72f93","system_id":"levelo_inurba_marseille","lat":43.29202,"lon":5.358,"is_reserved":false,"is_disabled":false,"rental_uris":{"android":"levelo://app?vid=7c53ce45-cbd6-49e8-a735-063bb2f72f93","ios":"levelo://app?vid=7c53ce45-cbd6-49e8-a735-063bb2f72f93"},"vehicle_type_id":"4","last_reported":1771414258,"current_range_meters":38800,"station_id":"ce4bhb12rcd13ifvqel0","pricing_plan_id":"cebpf4jnsgd1na2vs0mg"},{"bike_id":"5c0952e3-3469-48d1-b0ac-88596b084e30","system_id":"levelo_inurba_marseille","lat":43.33756,"lon":5.37482,"is_reserved":false,"is_disabled":false,"rental_uris":{"android":"levelo://app?vid=5c0952e3-3469-48d1-b0ac-88596b084e30","ios":"levelo://app?vid=5c0952e3-3469-48d1-b0ac-88596b084e30"},"vehicle_type_id":"4","last_reported":1771414258,"current_range_meters":38000,"station_id":"","pricing_plan_id":"cebpf4jnsgd1na2vs0mg"},{"bike_id":"8ece0c11-a606-4037-a117-b4734a103b6d","system_id":"levelo_inurba_marseille","lat":43.29533,"lon":5.39048,"is_reserved":false,"is_disabled":false,"rental_uris":{"android":"levelo://app?vid=8ece0c11-a606-4037-a117-b4734a103b6d","ios":"levelo://app?vid=8ece0c11-a606-4037-a117-b4734a103b6d"},"vehicle_type_id":"4","last_reported":1771414258,"current_range_meters":3600,"station_id":"ce4bh3p2rcd13ifvqdp0","pricing_plan_id":"cebpf4jnsgd1na2vs0mg"},{"bike_id":"2c0c859e-54a5-49e2-9077-051b9b3dde1b","system_id":"levelo_inurba_marseille","lat":43.30521,"lon":5.36493,"is_reserved":false,"is_disabled":false,"rental_uris":{"android":"levelo://app?vid=2c0c859e-54a5-49e2-9077-051b9b3dde1b","ios":"levelo://app?vid=2c0c859e-54a5-49e2-9077-051b9b3dde1b"},"vehicle_type_id":"4","last_reported":1771414258,"current_range_meters":37600,"station_id":"","pricing_plan_id":"cebpf4jnsgd1na2vs0mg"},{"bike_id":"c4194e41-de52-45db-97b1-1968612c04dc","system_id":"levelo_inurba_marseille","lat":43.29986,"lon":5.413,"is_reserved":false,"is_disabled":false,"rental_uris":{"android":"levelo://app?vid=c4194e41-de52-45db-97b1-1968612c04dc","ios":"levelo://app?vid=c4194e41-de52-45db-97b1-1968612c04dc"},"vehicle_type_id":"4","last_reported":1771414258,"current_range_meters":34000,"station_id":"ce4bhp12rcd13ifvqh9g","pricing_plan_id":"cebpf4jnsgd1na2vs0mg"},{"bike_id":"f30ef7dc-f16c-4ba1-a4ee-a90ead43deaf","system_id":"levelo_inurba_marseille","lat":43.30153,"lon":5.38081,"is_reserved":false,"is_disabled":false,"rental_uris":{"android":"levelo://app?vid=f30ef7dc-f16c-4ba1-a4ee-a90ead43deaf","ios":"levelo://app?vid=f30ef7dc-f16c-4ba1-a4ee-a90ead43deaf"},"vehicle_type_id":"4","last_reported":1771414258,"current_range_meters":32800,"station_id":"ce4bgjp2rcd13ifvqbh0","pricing_plan_id":"cebpf4jnsgd1na2vs0mg"},{"bike_id":"1917bf3e-ffec-4198-8dbd-fbc67a4db19d","system_id":"levelo_inurba_marseille","lat":43.30139,"lon":5.37439,"is_reserved":false,"is_disabled":false,"rental_uris":{"android":"levelo://app?vid=1917bf3e-ffec-4198-8dbd-fbc67a4db19d","ios":"levelo://app?vid=1917bf3e-ffec-4198-8dbd-fbc67a4db19d"},"vehicle_type_id":"4","last_reported":1771414258,"current_range_meters":24400,"station_id":"ce4bgs92rcd13ifvqcc0","pricing_plan_id":"cebpf4jnsgd1na2vs0mg"},{"bike_id":"166e35c4-ba58-48ae-81a6-945bb5d753ca","system_id":"levelo_inurba_marseille","lat":43.24635,"lon":5.38896,"is_reserved":false,"is_disabled":false,"rental_uris":{"android":"levelo://app?vid=166e35c4-ba58-48ae-81a6-945bb5d753ca","ios":"levelo://app?vid=166e35c4-ba58-48ae-81a6-945bb5d753ca"},"vehicle_type_id":"4","last_reported":1771414258,"current_range_meters":7200,"station_id":"ce4bhg12rcd13ifvqf60","pricing_plan_id":"cebpf4jnsgd1na2vs0mg"},{"bike_id":"e52969ea-e41a-4b4f-8b3e-e0a9baa48bf6","system_id":"levelo_inurba_marseille","lat":43.29484,"lon":5.43323,"is_reserved":false,"is_disabled":false,"rental_uris":{"android":"levelo://app?vid=e52969ea-e41a-4b4f-8b3e-e0a9baa48bf6","ios":"levelo://app?vid=e52969ea-e41a-4b4f-8b3e-e0a9baa48bf6"},"vehicle_type_id":"4","last_reported":1771414258,"current_range_meters":39200,"station_id":"st_d3j5ugp08ojc73fj9d10","pricing_plan_id":"cebpf4jnsgd1na2vs0mg"},{"bike_id":"2cbbc2f5-92a3-4c38-a0e2-181ee10ae410","system_id":"levelo_inurba_marseille","lat":43.27503,"lon":5.42427,"is_reserved":false,"is_disabled":false,"rental_uris":{"android":"levelo://app?vid=2cbbc2f5-92a3-4c38-a0e2-181ee10ae410","ios":"levelo://app?vid=2cbbc2f5-92a3-4c38-a0e2-181ee10ae410"},"vehicle_type_id":"4","last_reported":1771414258,"current_range_meters":38400,"station_id":"ce4bhn92rcd13ifvqgrg","pricing_plan_id":"cebpf4jnsgd1na2vs0mg"},{"bike_id":"c9b743d2-ea19-486c-9150-6905c9d98a27","system_id":"levelo_inurba_marseille","lat":43.26584,"lon":5.40328,"is_reserved":false,"is_disabled":false,"rental_uris":{"android":"levelo://app?vid=c9b743d2-ea19-486c-9150-6905c9d98a27","ios":"levelo://app?vid=c9b743d2-ea19-486c-9150-6905c9d98a27"},"vehicle_type_id":"4","last_reported":1771414258,"current_range_meters":25200,"station_id":"ce4bhmp2rcd13ifvqgng","pricing_plan_id":"cebpf4jnsgd1na2vs0mg"},{"bike_id":"2479a531-6d9d-4bb6-8c57-955fbd8fe7f3","system_id":"levelo_inurba_marseille","lat":43.3249,"lon":5.38212,"is_reserved":false,"is_disabled":false,"rental_uris":{"android":"levelo://app?vid=2479a531-6d9d-4bb6-8c57-955fbd8fe7f3","ios":"levelo://app?vid=2479a531-6d9d-4bb6-8c57-955fbd8fe7f3"},"vehicle_type_id":"4","last_reported":1771414258,"current_range_meters":29600,"station_id":"st_d4asgbiv49dc73anf9m0","pricing_plan_id":"cebpf4jnsgd1na2vs0mg"},{"bike_id":"6f9ecf2e-5389-4ba1-b606-54b5a69c8f65","system_id":"levelo_inurba_marseille","lat":43.28147,"lon":5.42642,"is_reserved":false,"is_disabled":false,"rental_uris":{"android":"levelo://app?vid=6f9ecf2e-5389-4ba1-b606-54b5a69c8f65","ios":"levelo://app?vid=6f9ecf2e-5389-4ba1-b606-54b5a69c8f65"},"vehicle_type_id":"4","last_reported":1771414258,"current_range_meters":37600,"station_id":"ce4bhnh2rcd13ifvqgug","pricing_plan_id":"cebpf4jnsgd1na2vs0mg"},{"bike_id":"fc1aa6b8-6e5e-467f-92e9-aae02099ae9d","system_id":"levelo_inurba_marseille","lat":43.2466,"lon":5.43125,"is_reserved":false,"is_disabled":false,"rental_uris":{"android":"levelo://app?vid=fc1aa6b8-6e5e-467f-92e9-aae02099ae9d","ios":"levelo://app?vid=fc1aa6b8-6e5e-467f-92e9-aae02099ae9d"},"vehicle_type_id":"4","last_reported":1771414258,"current_range_meters":9600,"station_id":"st_d2m6c4gdas8pm72e190g","pricing_plan_id":"cebpf4jnsgd1na2vs0mg"},{"bike_id":"8f275b0d-88f7-42d9-b94a-236cbb0bb5d5","system_id":"levelo_inurba_marseille","lat":43.30957,"lon":5.38357,"is_reserved":false,"is_disabled":false,"rental_uris":{"android":"levelo://app?vid=8f275b0d-88f7-42d9-b94a-236cbb0bb5d5","ios":"levelo://app?vid=8f275b0d-88f7-42d9-b94a-236cbb0bb5d5"},"vehicle_type_id":"4","last_reported":1771414258,"current_range_meters":3200,"station_id":"","pricing_plan_id":"cebpf4jnsgd1na2vs0mg"},{"bike_id":"67285332-5652-4c2b-b8be-d99c6194277d","system_id":"levelo_inurba_marseille","lat":43.26078,"lon":5.39404,"is_reserved":false,"is_disabled":false,"rental_uris":{"android":"levelo://app?vid=67285332-5652-4c2b-b8be-d99c6194277d","ios":"levelo://app?vid=67285332-5652-4c2b-b8be-d99c6194277d"},"vehicle_type_id":"4","last_reported":1771414258,"current_range_meters":26800,"station_id":"ce4bhh92rcd13ifvqfj0","pricing_plan_id":"cebpf4jnsgd1na2vs0mg"},{"bike_id":"bc08d338-970c-4939-b5cf-2cda36932ee4","system_id":"levelo_inurba_marseille","lat":43.29651,"lon":5.40621,"is_reserved":false,"is_disabled":false,"rental_uris":{"android":"levelo://app?vid=bc08d338-970c-4939-b5cf-2cda36932ee4","ios":"levelo://app?vid=bc08d338-970c-4939-b5cf-2cda36932ee4"},"vehicle_type_id":"4","last_reported":1771414258,"current_range_meters":39200,"station_id":"ce4bh0h2rcd13ifvqd60","pricing_plan_id":"cebpf4jnsgd1na2vs0mg"},{"bike_id":"4585df67-5569-4771-aa03-6e87fdd568df","system_id":"levelo_inurba_marseille","lat":43.23153,"lon":5.43719,"is_reserved":false,"is_disabled":false,"rental_uris":{"android":"levelo://app?vid=4585df67-5569-4771-aa03-6e87fdd568df","ios":"levelo://app?vid=4585df67-5569-4771-aa03-6e87fdd568df"},"vehicle_type_id":"4","last_reported":1771414258,"current_range_meters":30000,"station_id":"ce4bhmp2rcd13ifvqgog","pricing_plan_id":"cebpf4jnsgd1na2vs0mg"},{"bike_id":"d9177323-b0a3-404c-a969-2b73fa11563a","system_id":"levelo_inurba_marseille","lat":43.29025,"lon":5.38136,"is_reserved":false,"is_disabled":false,"rental_uris":{"android":"levelo://app?vid=d9177323-b0a3-404c-a969-2b73fa11563a","ios":"levelo://app?vid=d9177323-b0a3-404c-a969-2b73fa11563a"},"vehicle_type_id":"4","last_reported":1771414258,"current_range_meters":37600,"station_id":"ce4bh4p2rcd13ifvqe1g","pricing_plan_id":"cebpf4jnsgd1na2vs0mg"},{"bike_id":"57723f7a-061e-46b7-a0ae-b6210e118d77","system_id":"levelo_inurba_marseille","lat":43.30911,"lon":5.36852,"is_reserved":false,"is_disabled":false,"rental_uris":{"android":"levelo://app?vid=57723f7a-061e-46b7-a0ae-b6210e118d77","ios":"levelo://app?vid=57723f7a-061e-46b7-a0ae-b6210e118d77"},"vehicle_type_id":"4","last_reported":1771414258,"current_range_meters":33600,"station_id":"ce4bgn92rcd13ifvqbvg","pricing_plan_id":"cebpf4jnsgd1na2vs0mg"},{"bike_id":"c1b26ae8-8837-4bd2-b0e2-b890b8516fff","system_id":"levelo_inurba_marseille","lat":43.3121,"lon":5.36893,"is_reserved":false,"is_disabled":false,"rental_uris":{"android":"levelo://app?vid=c1b26ae8-8837-4bd2-b0e2-b890b8516fff","ios":"levelo://app?vid=c1b26ae8-8837-4bd2-b0e2-b890b8516fff"},"vehicle_type_id":"4","last_reported":1771414258,"current_range_meters":39200,"station_id":"ce4bgl92rcd13ifvqbq0","pricing_plan_id":"cebpf4jnsgd1na2vs0mg"},{"bike_id":"3cf9a213-82f8-4af5-954b-9210b699cd7b","system_id":"levelo_inurba_marseille","lat":43.33181,"lon":5.37701,"is_reserved":false,"is_disabled":false,"rental_uris":{"android":"levelo://app?vid=3cf9a213-82f8-4af5-954b-9210b699cd7b","ios":"levelo://app?vid=3cf9a213-82f8-4af5-954b-9210b699cd7b"},"vehicle_type_id":"4","last_reported":1771414258,"current_range_meters":34000,"station_id":"st_d46cu089ee8s73dldbu0","pricing_plan_id":"cebpf4jnsgd1na2vs0mg"},{"bike_id":"f4b72c32-b078-47bf-bd6e-2a4cf9260d45","system_id":"levelo_inurba_marseille","lat":43.28696,"lon":5.35502,"is_reserved":false,"is_disabled":true,"rental_uris":{"android":"levelo://app?vid=f4b72c32-b078-47bf-bd6e-2a4cf9260d45","ios":"levelo://app?vid=f4b72c32-b078-47bf-bd6e-2a4cf9260d45"},"vehicle_type_id":"4","last_reported":1771414258,"current_range_meters":35600,"station_id":"","pricing_plan_id":"cebpf4jnsgd1na2vs0mg"},{"bike_id":"786db946-01e6-401d-825a-5be2365421b8","system_id":"levelo_inurba_marseille","lat":43.25578,"lon":5.38275,"is_reserved":false,"is_disabled":false,"rental_uris":{"android":"levelo://app?vid=786db946-01e6-401d-825a-5be2365421b8","ios":"levelo://app?vid=786db946-01e6-401d-825a-5be2365421b8"},"vehicle_type_id":"4","last_reported":1771414258,"current_range_meters":21600,"station_id":"ce4bhih2rcd13ifvqfs0","pricing_plan_id":"cebpf4jnsgd1na2vs0mg"},{"bike_id":"f5d22547-d06e-4fad-85c6-2cbbdcd29ad4","system_id":"levelo_inurba_marseille","lat":43.29195,"lon":5.37197,"is_reserved":false,"is_disabled":false,"rental_uris":{"android":"levelo://app?vid=f5d22547-d06e-4fad-85c6-2cbbdcd29ad4","ios":"levelo://app?vid=f5d22547-d06e-4fad-85c6-2cbbdcd29ad4"},"vehicle_type_id":"4","last_reported":1771414258,"current_range_meters":32000,"station_id":"ce4bha92rcd13ifvqeh0","pricing_plan_id":"cebpf4jnsgd1na2vs0mg"},{"bike_id":"129a8aa9-45a0-44b6-a529-a251cbb2fb68","system_id":"levelo_inurba_marseille","lat":43.28619,"lon":5.35109,"is_reserved":false,"is_disabled":false,"rental_uris":{"android":"levelo://app?vid=129a8aa9-45a0-44b6-a529-a251cbb2fb68","ios":"levelo://app?vid=129a8aa9-45a0-44b6-a529-a251cbb2fb68"},"vehicle_type_id":"4","last_reported":1771414258,"current_range_meters":17200,"station_id":"ce4bhch2rcd13ifvqeug","pricing_plan_id":"cebpf4jnsgd1na2vs0mg"},{"bike_id":"680a4303-675f-428a-a3da-3647f24084b0","system_id":"levelo_inurba_marseille","lat":43.28704,"lon":5.37385,"is_reserved":false,"is_disabled":false,"rental_uris":{"android":"levelo://app?vid=680a4303-675f-428a-a3da-3647f24084b0","ios":"levelo://app?vid=680a4303-675f-428a-a3da-3647f24084b0"},"vehicle_type_id":"4","last_reported":1771414258,"current_range_meters":34000,"station_id":"ce4bh3p2rcd13ifvqdq0","pricing_plan_id":"cebpf4jnsgd1na2vs0mg"},{"bike_id":"b7601282-08f0-4516-b769-80e43d9f0326","system_id":"levelo_inurba_marseille","lat":43.29283,"lon":5.36839,"is_reserved":false,"is_disabled":false,"rental_uris":{"android":"levelo://app?vid=b7601282-08f0-4516-b769-80e43d9f0326","ios":"levelo://app?vid=b7601282-08f0-4516-b769-80e43d9f0326"},"vehicle_type_id":"4","last_reported":1771414258,"current_range_meters":38000,"station_id":"ce4bhbp2rcd13ifvqesg","pricing_plan_id":"cebpf4jnsgd1na2vs0mg"},{"bike_id":"e1400a97-c181-4f54-be3e-0569af26a141","system_id":"levelo_inurba_marseille","lat":43.29606,"lon":5.37728,"is_reserved":false,"is_disabled":false,"rental_uris":{"android":"levelo://app?vid=e1400a97-c181-4f54-be3e-0569af26a141","ios":"levelo://app?vid=e1400a97-c181-4f54-be3e-0569af26a141"},"vehicle_type_id":"4","last_reported":1771414258,"current_range_meters":38400,"station_id":"ce4bgi92rcd13ifvqb90","pricing_plan_id":"cebpf4jnsgd1na2vs0mg"},{"bike_id":"d5404a8c-d19d-4db2-a491-3154df4a123f","system_id":"levelo_inurba_marseille","lat":43.30566,"lon":5.36527,"is_reserved":false,"is_disabled":false,"rental_uris":{"android":"levelo://app?vid=d5404a8c-d19d-4db2-a491-3154df4a123f","ios":"levelo://app?vid=d5404a8c-d19d-4db2-a491-3154df4a123f"},"vehicle_type_id":"4","last_reported":1771414258,"current_range_meters":38000,"station_id":"ce4bgs12rcd13ifvqcag","pricing_plan_id":"cebpf4jnsgd1na2vs0mg"},{"bike_id":"8e88b741-7fc5-4239-947a-128f1d311f8c","system_id":"levelo_inurba_marseille","lat":43.29923,"lon":5.36528,"is_reserved":false,"is_disabled":false,"rental_uris":{"android":"levelo://app?vid=8e88b741-7fc5-4239-947a-128f1d311f8c","ios":"levelo://app?vid=8e88b741-7fc5-4239-947a-128f1d311f8c"},"vehicle_type_id":"4","last_reported":1771414258,"current_range_meters":39200,"station_id":"ce4bgm92rcd13ifvqbr0","pricing_plan_id":"cebpf4jnsgd1na2vs0mg"},{"bike_id":"b46a3fe2-7dfd-4bc6-ba65-d403da54dcf4","system_id":"levelo_inurba_marseille","lat":43.30539,"lon":5.38406,"is_reserved":false,"is_disabled":false,"rental_uris":{"android":"levelo://app?vid=b46a3fe2-7dfd-4bc6-ba65-d403da54dcf4","ios":"levelo://app?vid=b46a3fe2-7dfd-4bc6-ba65-d403da54dcf4"},"vehicle_type_id":"4","last_reported":1771414258,"current_range_meters":20400,"station_id":"ce4bgg92rcd13ifvqb30","pricing_plan_id":"cebpf4jnsgd1na2vs0mg"},{"bike_id":"cdcd8c42-d26a-4e42-9873-59170e37aa87","system_id":"levelo_inurba_marseille","lat":43.23063,"lon":5.35501,"is_reserved":false,"is_disabled":false,"rental_uris":{"android":"levelo://app?vid=cdcd8c42-d26a-4e42-9873-59170e37aa87","ios":"levelo://app?vid=cdcd8c42-d26a-4e42-9873-59170e37aa87"},"vehicle_type_id":"4","last_reported":1771414258,"current_range_meters":38800,"station_id":"cpo3342slgdg3j2ifvpg","pricing_plan_id":"cebpf4jnsgd1na2vs0mg"},{"bike_id":"bfa54b00-fa95-4e6b-ab86-33a95629a983","system_id":"levelo_inurba_marseille","lat":43.27943,"lon":5.410441,"is_reserved":false,"is_disabled":false,"rental_uris":{"android":"levelo://app?vid=bfa54b00-fa95-4e6b-ab86-33a95629a983","ios":"levelo://app?vid=bfa54b00-fa95-4e6b-ab86-33a95629a983"},"vehicle_type_id":"4","last_reported":1771414258,"current_range_meters":30800,"station_id":"ce4bhnp2rcd13ifvqh0g","pricing_plan_id":"cebpf4jnsgd1na2vs0mg"},{"bike_id":"e7def23d-4cb3-4f70-ad84-7e80f75f4887","system_id":"levelo_inurba_marseille","lat":43.24795,"lon":5.37394,"is_reserved":false,"is_disabled":false,"rental_uris":{"android":"levelo://app?vid=e7def23d-4cb3-4f70-ad84-7e80f75f4887","ios":"levelo://app?vid=e7def23d-4cb3-4f70-ad84-7e80f75f4887"},"vehicle_type_id":"4","last_reported":1771414258,"current_range_meters":38000,"station_id":"ce4bhgh2rcd13ifvqfb0","pricing_plan_id":"cebpf4jnsgd1na2vs0mg"},{"bike_id":"dd8100c3-3169-4922-bf7d-5a153f40b247","system_id":"levelo_inurba_marseille","lat":43.278,"lon":5.40716,"is_reserved":false,"is_disabled":false,"rental_uris":{"android":"levelo://app?vid=dd8100c3-3169-4922-bf7d-5a153f40b247","ios":"levelo://app?vid=dd8100c3-3169-4922-bf7d-5a153f40b247"},"vehicle_type_id":"4","last_reported":1771414258,"current_range_meters":16800,"station_id":"ce4bhnh2rcd13ifvqgtg","pricing_plan_id":"cebpf4jnsgd1na2vs0mg"},{"bike_id":"acc728cd-ad25-43c2-b545-1e473d88f901","system_id":"levelo_inurba_marseille","lat":43.27977,"lon":5.38734,"is_reserved":false,"is_disabled":false,"rental_uris":{"android":"levelo://app?vid=acc728cd-ad25-43c2-b545-1e473d88f901","ios":"levelo://app?vid=acc728cd-ad25-43c2-b545-1e473d88f901"},"vehicle_type_id":"4","last_reported":1771414258,"current_range_meters":24800,"station_id":"ce4bhg12rcd13ifvqf80","pricing_plan_id":"cebpf4jnsgd1na2vs0mg"},{"bike_id":"91f95071-cb44-4294-8d05-12a1be58ba9d","system_id":"levelo_inurba_marseille","lat":43.25123,"lon":5.40322,"is_reserved":false,"is_disabled":false,"rental_uris":{"android":"levelo://app?vid=91f95071-cb44-4294-8d05-12a1be58ba9d","ios":"levelo://app?vid=91f95071-cb44-4294-8d05-12a1be58ba9d"},"vehicle_type_id":"4","last_reported":1771414258,"current_range_meters":37600,"station_id":"ce4bhlh2rcd13ifvqgig","pricing_plan_id":"cebpf4jnsgd1na2vs0mg"},{"bike_id":"180e5942-7cde-4b03-949b-44ef424b5e5d","system_id":"levelo_inurba_marseille","lat":43.29586,"lon":5.37704,"is_reserved":false,"is_disabled":false,"rental_uris":{"android":"levelo://app?vid=180e5942-7cde-4b03-949b-44ef424b5e5d","ios":"levelo://app?vid=180e5942-7cde-4b03-949b-44ef424b5e5d"},"vehicle_type_id":"4","last_reported":1771414258,"current_range_meters":17600,"station_id":"ce4bgi92rcd13ifvqb90","pricing_plan_id":"cebpf4jnsgd1na2vs0mg"},{"bike_id":"f855f696-c685-4602-9971-e745bddf53bc","system_id":"levelo_inurba_marseille","lat":43.28429,"lon":5.34983,"is_reserved":false,"is_disabled":false,"rental_uris":{"android":"levelo://app?vid=f855f696-c685-4602-9971-e745bddf53bc","ios":"levelo://app?vid=f855f696-c685-4602-9971-e745bddf53bc"},"vehicle_type_id":"4","last_reported":1771414258,"current_range_meters":19200,"station_id":"ce4bhbh2rcd13ifvqepg","pricing_plan_id":"cebpf4jnsgd1na2vs0mg"},{"bike_id":"ed5ee792-ad63-4b9d-85d7-5e0c1fd210c1","system_id":"levelo_inurba_marseille","lat":43.31326,"lon":5.39702,"is_reserved":false,"is_disabled":false,"rental_uris":{"android":"levelo://app?vid=ed5ee792-ad63-4b9d-85d7-5e0c1fd210c1","ios":"levelo://app?vid=ed5ee792-ad63-4b9d-85d7-5e0c1fd210c1"},"vehicle_type_id":"4","last_reported":1771414258,"current_range_meters":37600,"station_id":"ce4bgvp2rcd13ifvqcu0","pricing_plan_id":"cebpf4jnsgd1na2vs0mg"},{"bike_id":"808e17f3-e8fb-4322-91e5-e0d3af4ac05c","system_id":"levelo_inurba_marseille","lat":43.23148,"lon":5.39874,"is_reserved":false,"is_disabled":false,"rental_uris":{"android":"levelo://app?vid=808e17f3-e8fb-4322-91e5-e0d3af4ac05c","ios":"levelo://app?vid=808e17f3-e8fb-4322-91e5-e0d3af4ac05c"},"vehicle_type_id":"4","last_reported":1771414258,"current_range_meters":6400,"station_id":"","pricing_plan_id":"cebpf4jnsgd1na2vs0mg"},{"bike_id":"0cd885fc-f607-4775-bbd9-be3deac4a95d","system_id":"levelo_inurba_marseille","lat":43.297016,"lon":5.366285,"is_reserved":false,"is_disabled":false,"rental_uris":{"android":"levelo://app?vid=0cd885fc-f607-4775-bbd9-be3deac4a95d","ios":"levelo://app?vid=0cd885fc-f607-4775-bbd9-be3deac4a95d"},"vehicle_type_id":"4","last_reported":1771414258,"current_range_meters":13600,"station_id":"ce4bgn12rcd13ifvqbt0","pricing_plan_id":"cebpf4jnsgd1na2vs0mg"},{"bike_id":"0e6ee23f-9e32-448f-beee-c38d92668003","system_id":"levelo_inurba_marseille","lat":43.30467,"lon":5.37873,"is_reserved":false,"is_disabled":false,"rental_uris":{"android":"levelo://app?vid=0e6ee23f-9e32-448f-beee-c38d92668003","ios":"levelo://app?vid=0e6ee23f-9e32-448f-beee-c38d92668003"},"vehicle_type_id":"4","last_reported":1771414258,"current_range_meters":36800,"station_id":"ce4bgup2rcd13ifvqcn0","pricing_plan_id":"cebpf4jnsgd1na2vs0mg"},{"bike_id":"a68b4305-b95a-44fa-a8f9-fb050648ab50","system_id":"levelo_inurba_marseille","lat":43.27385,"lon":5.36235,"is_reserved":false,"is_disabled":true,"rental_uris":{"android":"levelo://app?vid=a68b4305-b95a-44fa-a8f9-fb050648ab50","ios":"levelo://app?vid=a68b4305-b95a-44fa-a8f9-fb050648ab50"},"vehicle_type_id":"4","last_reported":1771414258,"current_range_meters":0,"station_id":"ce4bhbh2rcd13ifvqeo0","pricing_plan_id":"cebpf4jnsgd1na2vs0mg"},{"bike_id":"ed801aba-6299-4abc-846c-98c2ac128308","system_id":"levelo_inurba_marseille","lat":43.24396,"lon":5.3707,"is_reserved":false,"is_disabled":false,"rental_uris":{"android":"levelo://app?vid=ed801aba-6299-4abc-846c-98c2ac128308","ios":"levelo://app?vid=ed801aba-6299-4abc-846c-98c2ac128308"},"vehicle_type_id":"4","last_reported":1771414258,"current_range_meters":22800,"station_id":"ce4bhhh2rcd13ifvqfk0","pricing_plan_id":"cebpf4jnsgd1na2vs0mg"},{"bike_id":"0d1233e3-1195-40cd-8c66-3b11e1089ff0","system_id":"levelo_inurba_marseille","lat":43.27995,"lon":5.40013,"is_reserved":false,"is_disabled":false,"rental_uris":{"android":"levelo://app?vid=0d1233e3-1195-40cd-8c66-3b11e1089ff0","ios":"levelo://app?vid=0d1233e3-1195-40cd-8c66-3b11e1089ff0"},"vehicle_type_id":"4","last_reported":1771414258,"current_range_meters":38400,"station_id":"ce4bho92rcd13ifvqh4g","pricing_plan_id":"cebpf4jnsgd1na2vs0mg"},{"bike_id":"1b4c8f4f-9a12-4948-93fb-3c3dd57799f8","system_id":"levelo_inurba_marseille","lat":43.256,"lon":5.38253,"is_reserved":false,"is_disabled":false,"rental_uris":{"android":"levelo://app?vid=1b4c8f4f-9a12-4948-93fb-3c3dd57799f8","ios":"levelo://app?vid=1b4c8f4f-9a12-4948-93fb-3c3dd57799f8"},"vehicle_type_id":"4","last_reported":1771414258,"current_range_meters":39200,"station_id":"ce4bhih2rcd13ifvqfs0","pricing_plan_id":"cebpf4jnsgd1na2vs0mg"},{"bike_id":"e59f665b-ca8e-40ab-a2ed-9455369e7fbf","system_id":"levelo_inurba_marseille","lat":43.284759,"lon":5.484015,"is_reserved":false,"is_disabled":false,"rental_uris":{"android":"levelo://app?vid=e59f665b-ca8e-40ab-a2ed-9455369e7fbf","ios":"levelo://app?vid=e59f665b-ca8e-40ab-a2ed-9455369e7fbf"},"vehicle_type_id":"4","last_reported":1771414258,"current_range_meters":28400,"station_id":"","pricing_plan_id":"cebpf4jnsgd1na2vs0mg"},{"bike_id":"eab0ba19-3772-426c-8e61-b9272ada8b1f","system_id":"levelo_inurba_marseille","lat":43.2119,"lon":5.35077,"is_reserved":false,"is_disabled":false,"rental_uris":{"android":"levelo://app?vid=eab0ba19-3772-426c-8e61-b9272ada8b1f","ios":"levelo://app?vid=eab0ba19-3772-426c-8e61-b9272ada8b1f"},"vehicle_type_id":"4","last_reported":1771414258,"current_range_meters":19200,"station_id":"","pricing_plan_id":"cebpf4jnsgd1na2vs0mg"},{"bike_id":"7b8c7193-f1f2-43c9-91a4-a4cc93269862","system_id":"levelo_inurba_marseille","lat":43.29557,"lon":5.42279,"is_reserved":false,"is_disabled":false,"rental_uris":{"android":"levelo://app?vid=7b8c7193-f1f2-43c9-91a4-a4cc93269862","ios":"levelo://app?vid=7b8c7193-f1f2-43c9-91a4-a4cc93269862"},"vehicle_type_id":"4","last_reported":1771414258,"current_range_meters":33600,"station_id":"ce4bhph2rcd13ifvqhdg","pricing_plan_id":"cebpf4jnsgd1na2vs0mg"},{"bike_id":"5a6ecaab-6e7a-4cc8-9729-2b264083855f","system_id":"levelo_inurba_marseille","lat":43.27833,"lon":5.40719,"is_reserved":false,"is_disabled":false,"rental_uris":{"android":"levelo://app?vid=5a6ecaab-6e7a-4cc8-9729-2b264083855f","ios":"levelo://app?vid=5a6ecaab-6e7a-4cc8-9729-2b264083855f"},"vehicle_type_id":"4","last_reported":1771414258,"current_range_meters":26000,"station_id":"ce4bhnh2rcd13ifvqgtg","pricing_plan_id":"cebpf4jnsgd1na2vs0mg"},{"bike_id":"bf9fd963-c917-4987-b8fc-44045f07c08b","system_id":"levelo_inurba_marseille","lat":43.31084,"lon":5.42428,"is_reserved":false,"is_disabled":false,"rental_uris":{"android":"levelo://app?vid=bf9fd963-c917-4987-b8fc-44045f07c08b","ios":"levelo://app?vid=bf9fd963-c917-4987-b8fc-44045f07c08b"},"vehicle_type_id":"4","last_reported":1771414258,"current_range_meters":22000,"station_id":"ce4bhp92rcd13ifvqhag","pricing_plan_id":"cebpf4jnsgd1na2vs0mg"},{"bike_id":"6a073e53-b7ba-45d5-a82b-20ab8b7b8e96","system_id":"levelo_inurba_marseille","lat":43.33571,"lon":5.37461,"is_reserved":false,"is_disabled":false,"rental_uris":{"android":"levelo://app?vid=6a073e53-b7ba-45d5-a82b-20ab8b7b8e96","ios":"levelo://app?vid=6a073e53-b7ba-45d5-a82b-20ab8b7b8e96"},"vehicle_type_id":"4","last_reported":1771414258,"current_range_meters":22000,"station_id":"st_d46tts09ee8s73dlu43g","pricing_plan_id":"cebpf4jnsgd1na2vs0mg"},{"bike_id":"27586e15-78a0-41b9-981d-e5de2751a5b3","system_id":"levelo_inurba_marseille","lat":43.30306,"lon":5.36886,"is_reserved":false,"is_disabled":false,"rental_uris":{"android":"levelo://app?vid=27586e15-78a0-41b9-981d-e5de2751a5b3","ios":"levelo://app?vid=27586e15-78a0-41b9-981d-e5de2751a5b3"},"vehicle_type_id":"4","last_reported":1771414258,"current_range_meters":19600,"station_id":"ce4bgqh2rcd13ifvqc5g","pricing_plan_id":"cebpf4jnsgd1na2vs0mg"},{"bike_id":"ede63f88-febf-459b-94b3-2a6f8ae688b1","system_id":"levelo_inurba_marseille","lat":43.27216,"lon":5.39186,"is_reserved":false,"is_disabled":false,"rental_uris":{"android":"levelo://app?vid=ede63f88-febf-459b-94b3-2a6f8ae688b1","ios":"levelo://app?vid=ede63f88-febf-459b-94b3-2a6f8ae688b1"},"vehicle_type_id":"4","last_reported":1771414258,"current_range_meters":25600,"station_id":"ce4bhhp2rcd13ifvqfm0","pricing_plan_id":"cebpf4jnsgd1na2vs0mg"},{"bike_id":"d3f778af-559d-4a52-8daa-42df030a0c20","system_id":"levelo_inurba_marseille","lat":43.29576,"lon":5.37509,"is_reserved":false,"is_disabled":false,"rental_uris":{"android":"levelo://app?vid=d3f778af-559d-4a52-8daa-42df030a0c20","ios":"levelo://app?vid=d3f778af-559d-4a52-8daa-42df030a0c20"},"vehicle_type_id":"4","last_reported":1771414258,"current_range_meters":40000,"station_id":"ce4bgh92rcd13ifvqb50","pricing_plan_id":"cebpf4jnsgd1na2vs0mg"},{"bike_id":"e87cafb3-c406-4824-9e46-4ead45fa0dad","system_id":"levelo_inurba_marseille","lat":43.2761,"lon":5.36111,"is_reserved":false,"is_disabled":false,"rental_uris":{"android":"levelo://app?vid=e87cafb3-c406-4824-9e46-4ead45fa0dad","ios":"levelo://app?vid=e87cafb3-c406-4824-9e46-4ead45fa0dad"},"vehicle_type_id":"4","last_reported":1771414258,"current_range_meters":19200,"station_id":"ce4bgj92rcd13ifvqbe0","pricing_plan_id":"cebpf4jnsgd1na2vs0mg"},{"bike_id":"b256f836-d3c4-4133-9b55-7e5a3accf6d7","system_id":"levelo_inurba_marseille","lat":43.26691,"lon":5.3826,"is_reserved":false,"is_disabled":false,"rental_uris":{"android":"levelo://app?vid=b256f836-d3c4-4133-9b55-7e5a3accf6d7","ios":"levelo://app?vid=b256f836-d3c4-4133-9b55-7e5a3accf6d7"},"vehicle_type_id":"4","last_reported":1771414258,"current_range_meters":33200,"station_id":"ce4bhg92rcd13ifvqf90","pricing_plan_id":"cebpf4jnsgd1na2vs0mg"},{"bike_id":"cdedfe68-8f81-48b1-a1d4-83bdd88645c6","system_id":"levelo_inurba_marseille","lat":43.2294,"lon":5.35376,"is_reserved":false,"is_disabled":false,"rental_uris":{"android":"levelo://app?vid=cdedfe68-8f81-48b1-a1d4-83bdd88645c6","ios":"levelo://app?vid=cdedfe68-8f81-48b1-a1d4-83bdd88645c6"},"vehicle_type_id":"4","last_reported":1771414258,"current_range_meters":32800,"station_id":"cpo3532slgdg3j2ikp40","pricing_plan_id":"cebpf4jnsgd1na2vs0mg"},{"bike_id":"e115df23-e43f-4ccb-8317-226a8cedd683","system_id":"levelo_inurba_marseille","lat":43.29591,"lon":5.3673,"is_reserved":false,"is_disabled":false,"rental_uris":{"android":"levelo://app?vid=e115df23-e43f-4ccb-8317-226a8cedd683","ios":"levelo://app?vid=e115df23-e43f-4ccb-8317-226a8cedd683"},"vehicle_type_id":"4","last_reported":1771414258,"current_range_meters":38400,"station_id":"ce4bgph2rcd13ifvqc2g","pricing_plan_id":"cebpf4jnsgd1na2vs0mg"},{"bike_id":"e50e5c63-3206-42e5-91f3-e3f246277cf8","system_id":"levelo_inurba_marseille","lat":43.28849,"lon":5.39326,"is_reserved":false,"is_disabled":false,"rental_uris":{"android":"levelo://app?vid=e50e5c63-3206-42e5-91f3-e3f246277cf8","ios":"levelo://app?vid=e50e5c63-3206-42e5-91f3-e3f246277cf8"},"vehicle_type_id":"4","last_reported":1771414258,"current_range_meters":6000,"station_id":"ce4bh2p2rcd13ifvqdi0","pricing_plan_id":"cebpf4jnsgd1na2vs0mg"},{"bike_id":"10a2f32e-551f-4d6a-9236-b91b6ec3a729","system_id":"levelo_inurba_marseille","lat":43.28624,"lon":5.35099,"is_reserved":false,"is_disabled":false,"rental_uris":{"android":"levelo://app?vid=10a2f32e-551f-4d6a-9236-b91b6ec3a729","ios":"levelo://app?vid=10a2f32e-551f-4d6a-9236-b91b6ec3a729"},"vehicle_type_id":"4","last_reported":1771414258,"current_range_meters":14800,"station_id":"ce4bhch2rcd13ifvqeug","pricing_plan_id":"cebpf4jnsgd1na2vs0mg"},{"bike_id":"db69142c-22a4-4f82-9e9d-07c13829958a","system_id":"levelo_inurba_marseille","lat":43.30291,"lon":5.36899,"is_reserved":false,"is_disabled":false,"rental_uris":{"android":"levelo://app?vid=db69142c-22a4-4f82-9e9d-07c13829958a","ios":"levelo://app?vid=db69142c-22a4-4f82-9e9d-07c13829958a"},"vehicle_type_id":"4","last_reported":1771414258,"current_range_meters":24400,"station_id":"ce4bgqh2rcd13ifvqc5g","pricing_plan_id":"cebpf4jnsgd1na2vs0mg"},{"bike_id":"12673977-5b25-450a-8cdc-00ac951258dd","system_id":"levelo_inurba_marseille","lat":43.31074,"lon":5.37185,"is_reserved":false,"is_disabled":true,"rental_uris":{"android":"levelo://app?vid=12673977-5b25-450a-8cdc-00ac951258dd","ios":"levelo://app?vid=12673977-5b25-450a-8cdc-00ac951258dd"},"vehicle_type_id":"4","last_reported":1771414258,"current_range_meters":37600,"station_id":"st_d4kl2rp97mjs73e7tdfg","pricing_plan_id":"cebpf4jnsgd1na2vs0mg"},{"bike_id":"099fe592-2fa3-4f57-bfab-42a8e4b3770c","system_id":"levelo_inurba_marseille","lat":43.23187,"lon":5.39985,"is_reserved":false,"is_disabled":false,"rental_uris":{"android":"levelo://app?vid=099fe592-2fa3-4f57-bfab-42a8e4b3770c","ios":"levelo://app?vid=099fe592-2fa3-4f57-bfab-42a8e4b3770c"},"vehicle_type_id":"4","last_reported":1771414258,"current_range_meters":21600,"station_id":"ce4bhn12rcd13ifvqgqg","pricing_plan_id":"cebpf4jnsgd1na2vs0mg"},{"bike_id":"9cedbc59-c329-42ca-8428-d7644086f6b2","system_id":"levelo_inurba_marseille","lat":43.32493,"lon":5.36575,"is_reserved":false,"is_disabled":false,"rental_uris":{"android":"levelo://app?vid=9cedbc59-c329-42ca-8428-d7644086f6b2","ios":"levelo://app?vid=9cedbc59-c329-42ca-8428-d7644086f6b2"},"vehicle_type_id":"4","last_reported":1771414258,"current_range_meters":8400,"station_id":"ce4bhs12rcd13ifvqhvg","pricing_plan_id":"cebpf4jnsgd1na2vs0mg"},{"bike_id":"dbee3b04-5ad0-4739-9be1-4a344053621f","system_id":"levelo_inurba_marseille","lat":43.29965,"lon":5.41317,"is_reserved":false,"is_disabled":false,"rental_uris":{"android":"levelo://app?vid=dbee3b04-5ad0-4739-9be1-4a344053621f","ios":"levelo://app?vid=dbee3b04-5ad0-4739-9be1-4a344053621f"},"vehicle_type_id":"4","last_reported":1771414258,"current_range_meters":38000,"station_id":"ce4bhp12rcd13ifvqh9g","pricing_plan_id":"cebpf4jnsgd1na2vs0mg"},{"bike_id":"0fbe3a82-3ccb-45d1-8343-13ee240f2c2f","system_id":"levelo_inurba_marseille","lat":43.273832,"lon":5.362639,"is_reserved":false,"is_disabled":false,"rental_uris":{"android":"levelo://app?vid=0fbe3a82-3ccb-45d1-8343-13ee240f2c2f","ios":"levelo://app?vid=0fbe3a82-3ccb-45d1-8343-13ee240f2c2f"},"vehicle_type_id":"4","last_reported":1771414258,"current_range_meters":37600,"station_id":"ce4bhbh2rcd13ifvqeo0","pricing_plan_id":"cebpf4jnsgd1na2vs0mg"},{"bike_id":"201ca36c-c632-433f-8e63-028103426023","system_id":"levelo_inurba_marseille","lat":43.28474,"lon":5.48405,"is_reserved":false,"is_disabled":false,"rental_uris":{"android":"levelo://app?vid=201ca36c-c632-433f-8e63-028103426023","ios":"levelo://app?vid=201ca36c-c632-433f-8e63-028103426023"},"vehicle_type_id":"4","last_reported":1771414258,"current_range_meters":15200,"station_id":"","pricing_plan_id":"cebpf4jnsgd1na2vs0mg"},{"bike_id":"ef70ce12-fd44-42a0-88ed-3b2ca489b7fa","system_id":"levelo_inurba_marseille","lat":43.2887,"lon":5.42529,"is_reserved":false,"is_disabled":false,"rental_uris":{"android":"levelo://app?vid=ef70ce12-fd44-42a0-88ed-3b2ca489b7fa","ios":"levelo://app?vid=ef70ce12-fd44-42a0-88ed-3b2ca489b7fa"},"vehicle_type_id":"4","last_reported":1771414258,"current_range_meters":38400,"station_id":"st_d3b462108ojc7389ooeg","pricing_plan_id":"cebpf4jnsgd1na2vs0mg"},{"bike_id":"ec6770e7-ed64-4495-878f-8ee65c0e3087","system_id":"levelo_inurba_marseille","lat":43.27901,"lon":5.37991,"is_reserved":false,"is_disabled":false,"rental_uris":{"android":"levelo://app?vid=ec6770e7-ed64-4495-878f-8ee65c0e3087","ios":"levelo://app?vid=ec6770e7-ed64-4495-878f-8ee65c0e3087"},"vehicle_type_id":"4","last_reported":1771414258,"current_range_meters":9600,"station_id":"","pricing_plan_id":"cebpf4jnsgd1na2vs0mg"},{"bike_id":"448ae94c-614a-4a7a-8aca-9ac7b045169d","system_id":"levelo_inurba_marseille","lat":43.29021,"lon":5.38143,"is_reserved":false,"is_disabled":false,"rental_uris":{"android":"levelo://app?vid=448ae94c-614a-4a7a-8aca-9ac7b045169d","ios":"levelo://app?vid=448ae94c-614a-4a7a-8aca-9ac7b045169d"},"vehicle_type_id":"4","last_reported":1771414258,"current_range_meters":37600,"station_id":"ce4bh4p2rcd13ifvqe1g","pricing_plan_id":"cebpf4jnsgd1na2vs0mg"},{"bike_id":"1c43f35e-fcd2-4e57-ad48-f5faaab25d71","system_id":"levelo_inurba_marseille","lat":43.24184,"lon":5.3973,"is_reserved":false,"is_disabled":false,"rental_uris":{"android":"levelo://app?vid=1c43f35e-fcd2-4e57-ad48-f5faaab25d71","ios":"levelo://app?vid=1c43f35e-fcd2-4e57-ad48-f5faaab25d71"},"vehicle_type_id":"4","last_reported":1771414258,"current_range_meters":16800,"station_id":"ce4bhn12rcd13ifvqgpg","pricing_plan_id":"cebpf4jnsgd1na2vs0mg"},{"bike_id":"8eec4919-dd75-4dee-a3ff-fb5db29f0f67","system_id":"levelo_inurba_marseille","lat":43.26687,"lon":5.38278,"is_reserved":false,"is_disabled":false,"rental_uris":{"android":"levelo://app?vid=8eec4919-dd75-4dee-a3ff-fb5db29f0f67","ios":"levelo://app?vid=8eec4919-dd75-4dee-a3ff-fb5db29f0f67"},"vehicle_type_id":"4","last_reported":1771414258,"current_range_meters":26800,"station_id":"ce4bhg92rcd13ifvqf90","pricing_plan_id":"cebpf4jnsgd1na2vs0mg"},{"bike_id":"24bfcccb-9737-4ff6-b269-73bf67dd668b","system_id":"levelo_inurba_marseille","lat":43.27225,"lon":5.39161,"is_reserved":false,"is_disabled":false,"rental_uris":{"android":"levelo://app?vid=24bfcccb-9737-4ff6-b269-73bf67dd668b","ios":"levelo://app?vid=24bfcccb-9737-4ff6-b269-73bf67dd668b"},"vehicle_type_id":"4","last_reported":1771414258,"current_range_meters":38400,"station_id":"ce4bhhp2rcd13ifvqfm0","pricing_plan_id":"cebpf4jnsgd1na2vs0mg"},{"bike_id":"eef09d19-d955-412f-8ee3-e8a4a10008f3","system_id":"levelo_inurba_marseille","lat":43.29039,"lon":5.3758,"is_reserved":false,"is_disabled":false,"rental_uris":{"android":"levelo://app?vid=eef09d19-d955-412f-8ee3-e8a4a10008f3","ios":"levelo://app?vid=eef09d19-d955-412f-8ee3-e8a4a10008f3"},"vehicle_type_id":"4","last_reported":1771414258,"current_range_meters":36800,"station_id":"ce4bh692rcd13ifvqe90","pricing_plan_id":"cebpf4jnsgd1na2vs0mg"},{"bike_id":"5b012de4-7e8b-4538-86be-6640a0946719","system_id":"levelo_inurba_marseille","lat":43.24189,"lon":5.36402,"is_reserved":false,"is_disabled":true,"rental_uris":{"android":"levelo://app?vid=5b012de4-7e8b-4538-86be-6640a0946719","ios":"levelo://app?vid=5b012de4-7e8b-4538-86be-6640a0946719"},"vehicle_type_id":"4","last_reported":1771414258,"current_range_meters":17600,"station_id":"cpo36qri1sfpv3e86is0","pricing_plan_id":"cebpf4jnsgd1na2vs0mg"},{"bike_id":"d02c63d9-94f4-4f2a-b1ac-eddb397f7c6c","system_id":"levelo_inurba_marseille","lat":43.30159,"lon":5.38077,"is_reserved":false,"is_disabled":false,"rental_uris":{"android":"levelo://app?vid=d02c63d9-94f4-4f2a-b1ac-eddb397f7c6c","ios":"levelo://app?vid=d02c63d9-94f4-4f2a-b1ac-eddb397f7c6c"},"vehicle_type_id":"4","last_reported":1771414258,"current_range_meters":8400,"station_id":"ce4bgjp2rcd13ifvqbh0","pricing_plan_id":"cebpf4jnsgd1na2vs0mg"},{"bike_id":"4455645d-a31e-4811-bd5e-9830c8ef57b4","system_id":"levelo_inurba_marseille","lat":43.30546,"lon":5.36531,"is_reserved":false,"is_disabled":false,"rental_uris":{"android":"levelo://app?vid=4455645d-a31e-4811-bd5e-9830c8ef57b4","ios":"levelo://app?vid=4455645d-a31e-4811-bd5e-9830c8ef57b4"},"vehicle_type_id":"4","last_reported":1771414258,"current_range_meters":39200,"station_id":"ce4bgs12rcd13ifvqcag","pricing_plan_id":"cebpf4jnsgd1na2vs0mg"},{"bike_id":"4176571c-754f-4582-8e5a-2f156b2feddd","system_id":"levelo_inurba_marseille","lat":43.25577,"lon":5.38226,"is_reserved":false,"is_disabled":false,"rental_uris":{"android":"levelo://app?vid=4176571c-754f-4582-8e5a-2f156b2feddd","ios":"levelo://app?vid=4176571c-754f-4582-8e5a-2f156b2feddd"},"vehicle_type_id":"4","last_reported":1771414258,"current_range_meters":26800,"station_id":"ce4bhih2rcd13ifvqfs0","pricing_plan_id":"cebpf4jnsgd1na2vs0mg"},{"bike_id":"e764085e-f4e1-42a6-baab-ba6d13c85e46","system_id":"levelo_inurba_marseille","lat":43.27928,"lon":5.37997,"is_reserved":false,"is_disabled":false,"rental_uris":{"android":"levelo://app?vid=e764085e-f4e1-42a6-baab-ba6d13c85e46","ios":"levelo://app?vid=e764085e-f4e1-42a6-baab-ba6d13c85e46"},"vehicle_type_id":"4","last_reported":1771414258,"current_range_meters":14000,"station_id":"","pricing_plan_id":"cebpf4jnsgd1na2vs0mg"},{"bike_id":"96438059-8ec7-4cad-b18f-887d9f3a4374","system_id":"levelo_inurba_marseille","lat":43.31538,"lon":5.3733,"is_reserved":false,"is_disabled":false,"rental_uris":{"android":"levelo://app?vid=96438059-8ec7-4cad-b18f-887d9f3a4374","ios":"levelo://app?vid=96438059-8ec7-4cad-b18f-887d9f3a4374"},"vehicle_type_id":"4","last_reported":1771414258,"current_range_meters":37600,"station_id":"","pricing_plan_id":"cebpf4jnsgd1na2vs0mg"},{"bike_id":"110cdc6d-7cda-4bba-89c6-b6dbe81e46c9","system_id":"levelo_inurba_marseille","lat":43.296,"lon":5.37719,"is_reserved":false,"is_disabled":false,"rental_uris":{"android":"levelo://app?vid=110cdc6d-7cda-4bba-89c6-b6dbe81e46c9","ios":"levelo://app?vid=110cdc6d-7cda-4bba-89c6-b6dbe81e46c9"},"vehicle_type_id":"4","last_reported":1771414258,"current_range_meters":29600,"station_id":"ce4bgi92rcd13ifvqb90","pricing_plan_id":"cebpf4jnsgd1na2vs0mg"},{"bike_id":"0dfa6421-c8cf-4d26-9aa4-6c0a5c5b4d53","system_id":"levelo_inurba_marseille","lat":43.26722,"lon":5.38248,"is_reserved":false,"is_disabled":false,"rental_uris":{"android":"levelo://app?vid=0dfa6421-c8cf-4d26-9aa4-6c0a5c5b4d53","ios":"levelo://app?vid=0dfa6421-c8cf-4d26-9aa4-6c0a5c5b4d53"},"vehicle_type_id":"4","last_reported":1771414258,"current_range_meters":31200,"station_id":"ce4bhg92rcd13ifvqf90","pricing_plan_id":"cebpf4jnsgd1na2vs0mg"},{"bike_id":"aadcd4e9-8075-4dd3-acac-c5ad7ade1ed8","system_id":"levelo_inurba_marseille","lat":43.269236,"lon":5.389226,"is_reserved":false,"is_disabled":false,"rental_uris":{"android":"levelo://app?vid=aadcd4e9-8075-4dd3-acac-c5ad7ade1ed8","ios":"levelo://app?vid=aadcd4e9-8075-4dd3-acac-c5ad7ade1ed8"},"vehicle_type_id":"4","last_reported":1771414258,"current_range_meters":33600,"station_id":"ce4bhhh2rcd13ifvqfl0","pricing_plan_id":"cebpf4jnsgd1na2vs0mg"},{"bike_id":"60d19533-d916-46e5-9e83-963557cfb5f0","system_id":"levelo_inurba_marseille","lat":43.30969,"lon":5.36832,"is_reserved":false,"is_disabled":false,"rental_uris":{"android":"levelo://app?vid=60d19533-d916-46e5-9e83-963557cfb5f0","ios":"levelo://app?vid=60d19533-d916-46e5-9e83-963557cfb5f0"},"vehicle_type_id":"4","last_reported":1771414258,"current_range_meters":36800,"station_id":"","pricing_plan_id":"cebpf4jnsgd1na2vs0mg"},{"bike_id":"200f07f2-6ab6-46ed-9f22-639cf1d5ab95","system_id":"levelo_inurba_marseille","lat":43.27107,"lon":5.42271,"is_reserved":false,"is_disabled":false,"rental_uris":{"android":"levelo://app?vid=200f07f2-6ab6-46ed-9f22-639cf1d5ab95","ios":"levelo://app?vid=200f07f2-6ab6-46ed-9f22-639cf1d5ab95"},"vehicle_type_id":"4","last_reported":1771414258,"current_range_meters":33600,"station_id":"ce4bhk92rcd13ifvqgb0","pricing_plan_id":"cebpf4jnsgd1na2vs0mg"},{"bike_id":"185facf9-bda2-47ce-821a-eeae32f799a8","system_id":"levelo_inurba_marseille","lat":43.26689,"lon":5.3827,"is_reserved":false,"is_disabled":false,"rental_uris":{"android":"levelo://app?vid=185facf9-bda2-47ce-821a-eeae32f799a8","ios":"levelo://app?vid=185facf9-bda2-47ce-821a-eeae32f799a8"},"vehicle_type_id":"4","last_reported":1771414258,"current_range_meters":25200,"station_id":"ce4bhg92rcd13ifvqf90","pricing_plan_id":"cebpf4jnsgd1na2vs0mg"},{"bike_id":"9e4610df-db29-48f2-8f30-efbbe0bc64f6","system_id":"levelo_inurba_marseille","lat":43.29096,"lon":5.38162,"is_reserved":false,"is_disabled":true,"rental_uris":{"android":"levelo://app?vid=9e4610df-db29-48f2-8f30-efbbe0bc64f6","ios":"levelo://app?vid=9e4610df-db29-48f2-8f30-efbbe0bc64f6"},"vehicle_type_id":"4","last_reported":1771414258,"current_range_meters":36000,"station_id":"ce4bh512rcd13ifvqe2g","pricing_plan_id":"cebpf4jnsgd1na2vs0mg"},{"bike_id":"37b24720-0338-482f-86af-66c169d136d2","system_id":"levelo_inurba_marseille","lat":43.29265,"lon":5.37598,"is_reserved":false,"is_disabled":false,"rental_uris":{"android":"levelo://app?vid=37b24720-0338-482f-86af-66c169d136d2","ios":"levelo://app?vid=37b24720-0338-482f-86af-66c169d136d2"},"vehicle_type_id":"4","last_reported":1771414258,"current_range_meters":38400,"station_id":"ce4bgi12rcd13ifvqb80","pricing_plan_id":"cebpf4jnsgd1na2vs0mg"},{"bike_id":"f6041667-a189-4c35-8328-024fab0e230c","system_id":"levelo_inurba_marseille","lat":43.26507,"lon":5.39561,"is_reserved":false,"is_disabled":false,"rental_uris":{"android":"levelo://app?vid=f6041667-a189-4c35-8328-024fab0e230c","ios":"levelo://app?vid=f6041667-a189-4c35-8328-024fab0e230c"},"vehicle_type_id":"4","last_reported":1771414258,"current_range_meters":14400,"station_id":"ce4bhi12rcd13ifvqfq0","pricing_plan_id":"cebpf4jnsgd1na2vs0mg"},{"bike_id":"9da307a9-6eeb-417a-bd1a-5a2bc5ec4b21","system_id":"levelo_inurba_marseille","lat":43.297003,"lon":5.376916,"is_reserved":false,"is_disabled":false,"rental_uris":{"android":"levelo://app?vid=9da307a9-6eeb-417a-bd1a-5a2bc5ec4b21","ios":"levelo://app?vid=9da307a9-6eeb-417a-bd1a-5a2bc5ec4b21"},"vehicle_type_id":"4","last_reported":1771414258,"current_range_meters":30400,"station_id":"ce4bh4p2rcd13ifvqe1g","pricing_plan_id":"cebpf4jnsgd1na2vs0mg"},{"bike_id":"c7d2b54a-d383-408d-9a81-b600a9105a37","system_id":"levelo_inurba_marseille","lat":43.33534,"lon":5.37443,"is_reserved":false,"is_disabled":false,"rental_uris":{"android":"levelo://app?vid=c7d2b54a-d383-408d-9a81-b600a9105a37","ios":"levelo://app?vid=c7d2b54a-d383-408d-9a81-b600a9105a37"},"vehicle_type_id":"4","last_reported":1771414258,"current_range_meters":25200,"station_id":"st_d46tts09ee8s73dlu43g","pricing_plan_id":"cebpf4jnsgd1na2vs0mg"},{"bike_id":"53ad9e13-304b-41a2-8a68-f76ff9c48815","system_id":"levelo_inurba_marseille","lat":43.2917,"lon":5.37161,"is_reserved":false,"is_disabled":false,"rental_uris":{"android":"levelo://app?vid=53ad9e13-304b-41a2-8a68-f76ff9c48815","ios":"levelo://app?vid=53ad9e13-304b-41a2-8a68-f76ff9c48815"},"vehicle_type_id":"4","last_reported":1771414258,"current_range_meters":27600,"station_id":"ce4bha92rcd13ifvqeh0","pricing_plan_id":"cebpf4jnsgd1na2vs0mg"},{"bike_id":"03ae242d-7c3f-4e64-b4ea-0fd10be2035b","system_id":"levelo_inurba_marseille","lat":43.29748,"lon":5.42791,"is_reserved":false,"is_disabled":false,"rental_uris":{"android":"levelo://app?vid=03ae242d-7c3f-4e64-b4ea-0fd10be2035b","ios":"levelo://app?vid=03ae242d-7c3f-4e64-b4ea-0fd10be2035b"},"vehicle_type_id":"4","last_reported":1771414258,"current_range_meters":30400,"station_id":"st_d3md5207bmas73dh9klg","pricing_plan_id":"cebpf4jnsgd1na2vs0mg"},{"bike_id":"55f5e7e4-5d47-43b0-b824-eea13b2d6f88","system_id":"levelo_inurba_marseille","lat":43.31185,"lon":5.38713,"is_reserved":false,"is_disabled":false,"rental_uris":{"android":"levelo://app?vid=55f5e7e4-5d47-43b0-b824-eea13b2d6f88","ios":"levelo://app?vid=55f5e7e4-5d47-43b0-b824-eea13b2d6f88"},"vehicle_type_id":"4","last_reported":1771414258,"current_range_meters":8800,"station_id":"ce4bgv12rcd13ifvqcp0","pricing_plan_id":"cebpf4jnsgd1na2vs0mg"},{"bike_id":"c4cf840d-4928-42ec-85f6-604e923882e8","system_id":"levelo_inurba_marseille","lat":43.30248,"lon":5.379468,"is_reserved":false,"is_disabled":false,"rental_uris":{"android":"levelo://app?vid=c4cf840d-4928-42ec-85f6-604e923882e8","ios":"levelo://app?vid=c4cf840d-4928-42ec-85f6-604e923882e8"},"vehicle_type_id":"4","last_reported":1771414258,"current_range_meters":32400,"station_id":"ce4bgrh2rcd13ifvqc8g","pricing_plan_id":"cebpf4jnsgd1na2vs0mg"},{"bike_id":"bc33fc08-f85a-4f32-84fb-8b24d5daa10d","system_id":"levelo_inurba_marseille","lat":43.27995,"lon":5.41654,"is_reserved":false,"is_disabled":false,"rental_uris":{"android":"levelo://app?vid=bc33fc08-f85a-4f32-84fb-8b24d5daa10d","ios":"levelo://app?vid=bc33fc08-f85a-4f32-84fb-8b24d5daa10d"},"vehicle_type_id":"4","last_reported":1771414258,"current_range_meters":35600,"station_id":"ce4bho12rcd13ifvqh1g","pricing_plan_id":"cebpf4jnsgd1na2vs0mg"},{"bike_id":"092117a9-4db6-42cb-9df2-c9f3a42c8f5a","system_id":"levelo_inurba_marseille","lat":43.24808,"lon":5.37464,"is_reserved":false,"is_disabled":false,"rental_uris":{"android":"levelo://app?vid=092117a9-4db6-42cb-9df2-c9f3a42c8f5a","ios":"levelo://app?vid=092117a9-4db6-42cb-9df2-c9f3a42c8f5a"},"vehicle_type_id":"4","last_reported":1771414258,"current_range_meters":39200,"station_id":"ce4bhgh2rcd13ifvqfb0","pricing_plan_id":"cebpf4jnsgd1na2vs0mg"},{"bike_id":"b56380f9-a759-4bad-ae97-ee9b0c34fdbe","system_id":"levelo_inurba_marseille","lat":43.33539,"lon":5.3746,"is_reserved":false,"is_disabled":false,"rental_uris":{"android":"levelo://app?vid=b56380f9-a759-4bad-ae97-ee9b0c34fdbe","ios":"levelo://app?vid=b56380f9-a759-4bad-ae97-ee9b0c34fdbe"},"vehicle_type_id":"4","last_reported":1771414258,"current_range_meters":25200,"station_id":"st_d46tts09ee8s73dlu43g","pricing_plan_id":"cebpf4jnsgd1na2vs0mg"},{"bike_id":"ec4dbac0-9bbc-4877-b0a4-5e970b8017d8","system_id":"levelo_inurba_marseille","lat":43.31395,"lon":5.36783,"is_reserved":false,"is_disabled":false,"rental_uris":{"android":"levelo://app?vid=ec4dbac0-9bbc-4877-b0a4-5e970b8017d8","ios":"levelo://app?vid=ec4dbac0-9bbc-4877-b0a4-5e970b8017d8"},"vehicle_type_id":"4","last_reported":1771414258,"current_range_meters":11600,"station_id":"","pricing_plan_id":"cebpf4jnsgd1na2vs0mg"},{"bike_id":"2412dde1-34ed-4d2b-a68d-ac7df292189c","system_id":"levelo_inurba_marseille","lat":43.29864,"lon":5.36294,"is_reserved":false,"is_disabled":false,"rental_uris":{"android":"levelo://app?vid=2412dde1-34ed-4d2b-a68d-ac7df292189c","ios":"levelo://app?vid=2412dde1-34ed-4d2b-a68d-ac7df292189c"},"vehicle_type_id":"4","last_reported":1771414258,"current_range_meters":30800,"station_id":"ce4bgpp2rcd13ifvqc3g","pricing_plan_id":"cebpf4jnsgd1na2vs0mg"},{"bike_id":"e5c37de4-5b20-40fe-851e-2d0c03d75c93","system_id":"levelo_inurba_marseille","lat":43.33125,"lon":5.39271,"is_reserved":false,"is_disabled":false,"rental_uris":{"android":"levelo://app?vid=e5c37de4-5b20-40fe-851e-2d0c03d75c93","ios":"levelo://app?vid=e5c37de4-5b20-40fe-851e-2d0c03d75c93"},"vehicle_type_id":"4","last_reported":1771414258,"current_range_meters":16800,"station_id":"","pricing_plan_id":"cebpf4jnsgd1na2vs0mg"},{"bike_id":"07b0f432-5e82-4f8c-81ee-67d93dfdf4d8","system_id":"levelo_inurba_marseille","lat":43.28606,"lon":5.35077,"is_reserved":false,"is_disabled":false,"rental_uris":{"android":"levelo://app?vid=07b0f432-5e82-4f8c-81ee-67d93dfdf4d8","ios":"levelo://app?vid=07b0f432-5e82-4f8c-81ee-67d93dfdf4d8"},"vehicle_type_id":"4","last_reported":1771414258,"current_range_meters":9200,"station_id":"ce4bhch2rcd13ifvqeug","pricing_plan_id":"cebpf4jnsgd1na2vs0mg"},{"bike_id":"127677c5-4cab-4685-9cfe-a1e546a48838","system_id":"levelo_inurba_marseille","lat":43.32091,"lon":5.36794,"is_reserved":false,"is_disabled":false,"rental_uris":{"android":"levelo://app?vid=127677c5-4cab-4685-9cfe-a1e546a48838","ios":"levelo://app?vid=127677c5-4cab-4685-9cfe-a1e546a48838"},"vehicle_type_id":"4","last_reported":1771414258,"current_range_meters":19600,"station_id":"ce4bhrh2rcd13ifvqhug","pricing_plan_id":"cebpf4jnsgd1na2vs0mg"},{"bike_id":"dcd0cf55-ffb3-4ae8-85bc-3fda68997124","system_id":"levelo_inurba_marseille","lat":43.26959,"lon":5.38643,"is_reserved":false,"is_disabled":false,"rental_uris":{"android":"levelo://app?vid=dcd0cf55-ffb3-4ae8-85bc-3fda68997124","ios":"levelo://app?vid=dcd0cf55-ffb3-4ae8-85bc-3fda68997124"},"vehicle_type_id":"4","last_reported":1771414258,"current_range_meters":14800,"station_id":"ce4bhh92rcd13ifvqfh0","pricing_plan_id":"cebpf4jnsgd1na2vs0mg"},{"bike_id":"c55a6103-f739-43a8-85c1-e9cbb225b61e","system_id":"levelo_inurba_marseille","lat":43.24081,"lon":5.37755,"is_reserved":false,"is_disabled":false,"rental_uris":{"android":"levelo://app?vid=c55a6103-f739-43a8-85c1-e9cbb225b61e","ios":"levelo://app?vid=c55a6103-f739-43a8-85c1-e9cbb225b61e"},"vehicle_type_id":"4","last_reported":1771414258,"current_range_meters":9200,"station_id":"ce4bhnp2rcd13ifvqgvg","pricing_plan_id":"cebpf4jnsgd1na2vs0mg"},{"bike_id":"ad0ae30e-5c7c-4f06-9da3-238a8444897d","system_id":"levelo_inurba_marseille","lat":43.28627,"lon":5.35088,"is_reserved":false,"is_disabled":false,"rental_uris":{"android":"levelo://app?vid=ad0ae30e-5c7c-4f06-9da3-238a8444897d","ios":"levelo://app?vid=ad0ae30e-5c7c-4f06-9da3-238a8444897d"},"vehicle_type_id":"4","last_reported":1771414258,"current_range_meters":33600,"station_id":"ce4bhch2rcd13ifvqeug","pricing_plan_id":"cebpf4jnsgd1na2vs0mg"},{"bike_id":"47788a9b-3d71-4615-adaa-2c88572889ac","system_id":"levelo_inurba_marseille","lat":43.31506,"lon":5.373,"is_reserved":false,"is_disabled":false,"rental_uris":{"android":"levelo://app?vid=47788a9b-3d71-4615-adaa-2c88572889ac","ios":"levelo://app?vid=47788a9b-3d71-4615-adaa-2c88572889ac"},"vehicle_type_id":"4","last_reported":1771414258,"current_range_meters":32800,"station_id":"ce4bgt12rcd13ifvqcd0","pricing_plan_id":"cebpf4jnsgd1na2vs0mg"},{"bike_id":"66cd7626-20d3-41a1-b9d3-0eeed17323ae","system_id":"levelo_inurba_marseille","lat":43.29928,"lon":5.36518,"is_reserved":false,"is_disabled":false,"rental_uris":{"android":"levelo://app?vid=66cd7626-20d3-41a1-b9d3-0eeed17323ae","ios":"levelo://app?vid=66cd7626-20d3-41a1-b9d3-0eeed17323ae"},"vehicle_type_id":"4","last_reported":1771414258,"current_range_meters":24400,"station_id":"ce4bgm92rcd13ifvqbr0","pricing_plan_id":"cebpf4jnsgd1na2vs0mg"},{"bike_id":"1dfc9df6-efc3-44e1-bfa7-eabdccc695a9","system_id":"levelo_inurba_marseille","lat":43.33552,"lon":5.37462,"is_reserved":false,"is_disabled":false,"rental_uris":{"android":"levelo://app?vid=1dfc9df6-efc3-44e1-bfa7-eabdccc695a9","ios":"levelo://app?vid=1dfc9df6-efc3-44e1-bfa7-eabdccc695a9"},"vehicle_type_id":"4","last_reported":1771414258,"current_range_meters":14800,"station_id":"st_d46tts09ee8s73dlu43g","pricing_plan_id":"cebpf4jnsgd1na2vs0mg"},{"bike_id":"feddf533-e694-4295-8a00-2ac5034dd517","system_id":"levelo_inurba_marseille","lat":43.23971,"lon":5.36649,"is_reserved":false,"is_disabled":false,"rental_uris":{"android":"levelo://app?vid=feddf533-e694-4295-8a00-2ac5034dd517","ios":"levelo://app?vid=feddf533-e694-4295-8a00-2ac5034dd517"},"vehicle_type_id":"4","last_reported":1771414258,"current_range_meters":38400,"station_id":"ce4bhi12rcd13ifvqfp0","pricing_plan_id":"cebpf4jnsgd1na2vs0mg"},{"bike_id":"14867868-6aed-41c1-9296-5792e4f862f8","system_id":"levelo_inurba_marseille","lat":43.25342,"lon":5.42172,"is_reserved":false,"is_disabled":false,"rental_uris":{"android":"levelo://app?vid=14867868-6aed-41c1-9296-5792e4f862f8","ios":"levelo://app?vid=14867868-6aed-41c1-9296-5792e4f862f8"},"vehicle_type_id":"4","last_reported":1771414258,"current_range_meters":28000,"station_id":"st_d2m65c5bi1j21697t3ng","pricing_plan_id":"cebpf4jnsgd1na2vs0mg"},{"bike_id":"2f84c6f6-1af1-4f12-9943-f4b364371f34","system_id":"levelo_inurba_marseille","lat":43.305502,"lon":5.365259,"is_reserved":false,"is_disabled":false,"rental_uris":{"android":"levelo://app?vid=2f84c6f6-1af1-4f12-9943-f4b364371f34","ios":"levelo://app?vid=2f84c6f6-1af1-4f12-9943-f4b364371f34"},"vehicle_type_id":"4","last_reported":1771414258,"current_range_meters":9600,"station_id":"ce4bgs12rcd13ifvqcag","pricing_plan_id":"cebpf4jnsgd1na2vs0mg"},{"bike_id":"dd69c8ef-07be-45ad-91de-2e98fabbe046","system_id":"levelo_inurba_marseille","lat":43.27919,"lon":5.39578,"is_reserved":false,"is_disabled":false,"rental_uris":{"android":"levelo://app?vid=dd69c8ef-07be-45ad-91de-2e98fabbe046","ios":"levelo://app?vid=dd69c8ef-07be-45ad-91de-2e98fabbe046"},"vehicle_type_id":"4","last_reported":1771414258,"current_range_meters":39200,"station_id":"ce4bhf92rcd13ifvqf40","pricing_plan_id":"cebpf4jnsgd1na2vs0mg"},{"bike_id":"e5ddf298-59a6-48a6-9f22-1ea1820e4aeb","system_id":"levelo_inurba_marseille","lat":43.28059,"lon":5.39626,"is_reserved":false,"is_disabled":false,"rental_uris":{"android":"levelo://app?vid=e5ddf298-59a6-48a6-9f22-1ea1820e4aeb","ios":"levelo://app?vid=e5ddf298-59a6-48a6-9f22-1ea1820e4aeb"},"vehicle_type_id":"4","last_reported":1771414258,"current_range_meters":39200,"station_id":"ce4bho12rcd13ifvqh2g","pricing_plan_id":"cebpf4jnsgd1na2vs0mg"},{"bike_id":"400a55e3-1f67-48f3-b2a0-4ffd9094c8ef","system_id":"levelo_inurba_marseille","lat":43.25751,"lon":5.41095,"is_reserved":false,"is_disabled":false,"rental_uris":{"android":"levelo://app?vid=400a55e3-1f67-48f3-b2a0-4ffd9094c8ef","ios":"levelo://app?vid=400a55e3-1f67-48f3-b2a0-4ffd9094c8ef"},"vehicle_type_id":"4","last_reported":1771414258,"current_range_meters":28000,"station_id":"ce4bhkp2rcd13ifvqgd0","pricing_plan_id":"cebpf4jnsgd1na2vs0mg"},{"bike_id":"d62a45b9-4827-4d38-b36b-656d8a9fce75","system_id":"levelo_inurba_marseille","lat":43.2731,"lon":5.39084,"is_reserved":false,"is_disabled":false,"rental_uris":{"android":"levelo://app?vid=d62a45b9-4827-4d38-b36b-656d8a9fce75","ios":"levelo://app?vid=d62a45b9-4827-4d38-b36b-656d8a9fce75"},"vehicle_type_id":"4","last_reported":1771414258,"current_range_meters":26800,"station_id":"ce4bhgp2rcd13ifvqfe0","pricing_plan_id":"cebpf4jnsgd1na2vs0mg"},{"bike_id":"0a9805da-4766-4522-9e65-e3830b56acec","system_id":"levelo_inurba_marseille","lat":43.24673,"lon":5.38176,"is_reserved":false,"is_disabled":false,"rental_uris":{"android":"levelo://app?vid=0a9805da-4766-4522-9e65-e3830b56acec","ios":"levelo://app?vid=0a9805da-4766-4522-9e65-e3830b56acec"},"vehicle_type_id":"4","last_reported":1771414258,"current_range_meters":39200,"station_id":"ce4bhih2rcd13ifvqfr0","pricing_plan_id":"cebpf4jnsgd1na2vs0mg"},{"bike_id":"4ec29948-c60f-4139-b4b2-dc04182e0373","system_id":"levelo_inurba_marseille","lat":43.26641,"lon":5.38198,"is_reserved":false,"is_disabled":false,"rental_uris":{"android":"levelo://app?vid=4ec29948-c60f-4139-b4b2-dc04182e0373","ios":"levelo://app?vid=4ec29948-c60f-4139-b4b2-dc04182e0373"},"vehicle_type_id":"4","last_reported":1771414258,"current_range_meters":34800,"station_id":"","pricing_plan_id":"cebpf4jnsgd1na2vs0mg"},{"bike_id":"319254b7-6ddf-4175-ab42-06a111dc7f62","system_id":"levelo_inurba_marseille","lat":43.249462,"lon":5.405011,"is_reserved":false,"is_disabled":false,"rental_uris":{"android":"levelo://app?vid=319254b7-6ddf-4175-ab42-06a111dc7f62","ios":"levelo://app?vid=319254b7-6ddf-4175-ab42-06a111dc7f62"},"vehicle_type_id":"4","last_reported":1771414258,"current_range_meters":26000,"station_id":"st_d2ngiaodas8pm72gd1h0","pricing_plan_id":"cebpf4jnsgd1na2vs0mg"},{"bike_id":"822a37e9-cc86-4db6-b810-29ef8016af0b","system_id":"levelo_inurba_marseille","lat":43.29813,"lon":5.44058,"is_reserved":false,"is_disabled":false,"rental_uris":{"android":"levelo://app?vid=822a37e9-cc86-4db6-b810-29ef8016af0b","ios":"levelo://app?vid=822a37e9-cc86-4db6-b810-29ef8016af0b"},"vehicle_type_id":"4","last_reported":1771414258,"current_range_meters":24800,"station_id":"st_d3jp68qikq2c7381ktn0","pricing_plan_id":"cebpf4jnsgd1na2vs0mg"},{"bike_id":"89a34713-cef8-437f-a0f3-8d1ab5296d6b","system_id":"levelo_inurba_marseille","lat":43.31013,"lon":5.39047,"is_reserved":false,"is_disabled":false,"rental_uris":{"android":"levelo://app?vid=89a34713-cef8-437f-a0f3-8d1ab5296d6b","ios":"levelo://app?vid=89a34713-cef8-437f-a0f3-8d1ab5296d6b"},"vehicle_type_id":"4","last_reported":1771414258,"current_range_meters":40000,"station_id":"ce4bgup2rcd13ifvqco0","pricing_plan_id":"cebpf4jnsgd1na2vs0mg"},{"bike_id":"a80a5edf-9c06-430b-a090-097190f72f17","system_id":"levelo_inurba_marseille","lat":43.2705,"lon":5.40268,"is_reserved":false,"is_disabled":false,"rental_uris":{"android":"levelo://app?vid=a80a5edf-9c06-430b-a090-097190f72f17","ios":"levelo://app?vid=a80a5edf-9c06-430b-a090-097190f72f17"},"vehicle_type_id":"4","last_reported":1771414258,"current_range_meters":35600,"station_id":"ce4bhk92rcd13ifvqgc0","pricing_plan_id":"cebpf4jnsgd1na2vs0mg"},{"bike_id":"55eb0aad-f6b5-4ef8-8c2b-ee220d251165","system_id":"levelo_inurba_marseille","lat":43.239626,"lon":5.366325,"is_reserved":false,"is_disabled":false,"rental_uris":{"android":"levelo://app?vid=55eb0aad-f6b5-4ef8-8c2b-ee220d251165","ios":"levelo://app?vid=55eb0aad-f6b5-4ef8-8c2b-ee220d251165"},"vehicle_type_id":"4","last_reported":1771414258,"current_range_meters":29600,"station_id":"ce4bhi12rcd13ifvqfp0","pricing_plan_id":"cebpf4jnsgd1na2vs0mg"},{"bike_id":"59aabee3-6211-4f8a-9630-29cde1e1b3d7","system_id":"levelo_inurba_marseille","lat":43.29541,"lon":5.37488,"is_reserved":false,"is_disabled":false,"rental_uris":{"android":"levelo://app?vid=59aabee3-6211-4f8a-9630-29cde1e1b3d7","ios":"levelo://app?vid=59aabee3-6211-4f8a-9630-29cde1e1b3d7"},"vehicle_type_id":"4","last_reported":1771414258,"current_range_meters":20800,"station_id":"ce4bgkp2rcd13ifvqbmg","pricing_plan_id":"cebpf4jnsgd1na2vs0mg"},{"bike_id":"7f983aa2-7320-4d9c-8012-c474eea8a4fc","system_id":"levelo_inurba_marseille","lat":43.29037,"lon":5.37574,"is_reserved":false,"is_disabled":false,"rental_uris":{"android":"levelo://app?vid=7f983aa2-7320-4d9c-8012-c474eea8a4fc","ios":"levelo://app?vid=7f983aa2-7320-4d9c-8012-c474eea8a4fc"},"vehicle_type_id":"4","last_reported":1771414258,"current_range_meters":28800,"station_id":"ce4bh692rcd13ifvqe90","pricing_plan_id":"cebpf4jnsgd1na2vs0mg"},{"bike_id":"012436c7-b0d2-44f6-9f1e-20d7a40c23a6","system_id":"levelo_inurba_marseille","lat":43.262179,"lon":5.404514,"is_reserved":false,"is_disabled":false,"rental_uris":{"android":"levelo://app?vid=012436c7-b0d2-44f6-9f1e-20d7a40c23a6","ios":"levelo://app?vid=012436c7-b0d2-44f6-9f1e-20d7a40c23a6"},"vehicle_type_id":"4","last_reported":1771414258,"current_range_meters":37600,"station_id":"ce4bhmh2rcd13ifvqgmg","pricing_plan_id":"cebpf4jnsgd1na2vs0mg"},{"bike_id":"ddb35e99-7580-4184-b1a3-39dee08fd05d","system_id":"levelo_inurba_marseille","lat":43.29563,"lon":5.43806,"is_reserved":false,"is_disabled":false,"rental_uris":{"android":"levelo://app?vid=ddb35e99-7580-4184-b1a3-39dee08fd05d","ios":"levelo://app?vid=ddb35e99-7580-4184-b1a3-39dee08fd05d"},"vehicle_type_id":"4","last_reported":1771414258,"current_range_meters":17200,"station_id":"","pricing_plan_id":"cebpf4jnsgd1na2vs0mg"},{"bike_id":"4d976bf5-f813-4b36-99cd-ae82b3487f1d","system_id":"levelo_inurba_marseille","lat":43.27994,"lon":5.41651,"is_reserved":false,"is_disabled":false,"rental_uris":{"android":"levelo://app?vid=4d976bf5-f813-4b36-99cd-ae82b3487f1d","ios":"levelo://app?vid=4d976bf5-f813-4b36-99cd-ae82b3487f1d"},"vehicle_type_id":"4","last_reported":1771414258,"current_range_meters":9600,"station_id":"ce4bho12rcd13ifvqh1g","pricing_plan_id":"cebpf4jnsgd1na2vs0mg"},{"bike_id":"635c9c39-632a-46e9-bf95-a85388f579d0","system_id":"levelo_inurba_marseille","lat":43.30488,"lon":5.37877,"is_reserved":false,"is_disabled":false,"rental_uris":{"android":"levelo://app?vid=635c9c39-632a-46e9-bf95-a85388f579d0","ios":"levelo://app?vid=635c9c39-632a-46e9-bf95-a85388f579d0"},"vehicle_type_id":"4","last_reported":1771414258,"current_range_meters":39200,"station_id":"ce4bgup2rcd13ifvqcn0","pricing_plan_id":"cebpf4jnsgd1na2vs0mg"},{"bike_id":"0c182188-a0ae-47f0-9c0b-4128e9dad148","system_id":"levelo_inurba_marseille","lat":43.29018,"lon":5.37537,"is_reserved":false,"is_disabled":false,"rental_uris":{"android":"levelo://app?vid=0c182188-a0ae-47f0-9c0b-4128e9dad148","ios":"levelo://app?vid=0c182188-a0ae-47f0-9c0b-4128e9dad148"},"vehicle_type_id":"4","last_reported":1771414258,"current_range_meters":38000,"station_id":"ce4bh692rcd13ifvqe90","pricing_plan_id":"cebpf4jnsgd1na2vs0mg"},{"bike_id":"c4cd2fb5-4770-4824-ab07-f6c1cd3d489f","system_id":"levelo_inurba_marseille","lat":43.2798,"lon":5.38731,"is_reserved":false,"is_disabled":false,"rental_uris":{"android":"levelo://app?vid=c4cd2fb5-4770-4824-ab07-f6c1cd3d489f","ios":"levelo://app?vid=c4cd2fb5-4770-4824-ab07-f6c1cd3d489f"},"vehicle_type_id":"4","last_reported":1771414258,"current_range_meters":9600,"station_id":"ce4bhg12rcd13ifvqf80","pricing_plan_id":"cebpf4jnsgd1na2vs0mg"},{"bike_id":"e20c4760-3d10-4402-8539-0046b00120e2","system_id":"levelo_inurba_marseille","lat":43.25718,"lon":5.41104,"is_reserved":false,"is_disabled":false,"rental_uris":{"android":"levelo://app?vid=e20c4760-3d10-4402-8539-0046b00120e2","ios":"levelo://app?vid=e20c4760-3d10-4402-8539-0046b00120e2"},"vehicle_type_id":"4","last_reported":1771414258,"current_range_meters":40000,"station_id":"ce4bhkp2rcd13ifvqgd0","pricing_plan_id":"cebpf4jnsgd1na2vs0mg"},{"bike_id":"9b1aa077-c899-4d93-9614-bf098199063e","system_id":"levelo_inurba_marseille","lat":43.24995,"lon":5.3898,"is_reserved":false,"is_disabled":false,"rental_uris":{"android":"levelo://app?vid=9b1aa077-c899-4d93-9614-bf098199063e","ios":"levelo://app?vid=9b1aa077-c899-4d93-9614-bf098199063e"},"vehicle_type_id":"4","last_reported":1771414258,"current_range_meters":20000,"station_id":"ce4bhgp2rcd13ifvqfd0","pricing_plan_id":"cebpf4jnsgd1na2vs0mg"},{"bike_id":"35388c44-c43e-4edc-9be7-b5e01ceba614","system_id":"levelo_inurba_marseille","lat":43.29693,"lon":5.37698,"is_reserved":false,"is_disabled":false,"rental_uris":{"android":"levelo://app?vid=35388c44-c43e-4edc-9be7-b5e01ceba614","ios":"levelo://app?vid=35388c44-c43e-4edc-9be7-b5e01ceba614"},"vehicle_type_id":"4","last_reported":1771414258,"current_range_meters":16000,"station_id":"ce4bgkh2rcd13ifvqbl0","pricing_plan_id":"cebpf4jnsgd1na2vs0mg"},{"bike_id":"0c285a3b-0a97-45f4-bbcf-2e8735c1e540","system_id":"levelo_inurba_marseille","lat":43.25334,"lon":5.42159,"is_reserved":false,"is_disabled":false,"rental_uris":{"android":"levelo://app?vid=0c285a3b-0a97-45f4-bbcf-2e8735c1e540","ios":"levelo://app?vid=0c285a3b-0a97-45f4-bbcf-2e8735c1e540"},"vehicle_type_id":"4","last_reported":1771414258,"current_range_meters":6800,"station_id":"st_d2m65c5bi1j21697t3ng","pricing_plan_id":"cebpf4jnsgd1na2vs0mg"},{"bike_id":"bc27f817-2110-4022-81c0-1b6ce9a635da","system_id":"levelo_inurba_marseille","lat":43.29564,"lon":5.3768,"is_reserved":false,"is_disabled":false,"rental_uris":{"android":"levelo://app?vid=bc27f817-2110-4022-81c0-1b6ce9a635da","ios":"levelo://app?vid=bc27f817-2110-4022-81c0-1b6ce9a635da"},"vehicle_type_id":"4","last_reported":1771414258,"current_range_meters":16400,"station_id":"","pricing_plan_id":"cebpf4jnsgd1na2vs0mg"},{"bike_id":"412faf5a-cc25-4156-ad69-888407301d08","system_id":"levelo_inurba_marseille","lat":43.23196,"lon":5.4,"is_reserved":false,"is_disabled":false,"rental_uris":{"android":"levelo://app?vid=412faf5a-cc25-4156-ad69-888407301d08","ios":"levelo://app?vid=412faf5a-cc25-4156-ad69-888407301d08"},"vehicle_type_id":"4","last_reported":1771414258,"current_range_meters":24800,"station_id":"ce4bhn12rcd13ifvqgqg","pricing_plan_id":"cebpf4jnsgd1na2vs0mg"},{"bike_id":"759f0a09-9669-46dc-9822-7ecc825b93de","system_id":"levelo_inurba_marseille","lat":43.30555,"lon":5.3654,"is_reserved":false,"is_disabled":false,"rental_uris":{"android":"levelo://app?vid=759f0a09-9669-46dc-9822-7ecc825b93de","ios":"levelo://app?vid=759f0a09-9669-46dc-9822-7ecc825b93de"},"vehicle_type_id":"4","last_reported":1771414258,"current_range_meters":38400,"station_id":"ce4bgs12rcd13ifvqcag","pricing_plan_id":"cebpf4jnsgd1na2vs0mg"},{"bike_id":"5fac8696-d1e5-4561-86b2-d63c0c6d86ba","system_id":"levelo_inurba_marseille","lat":43.29544,"lon":5.37504,"is_reserved":false,"is_disabled":false,"rental_uris":{"android":"levelo://app?vid=5fac8696-d1e5-4561-86b2-d63c0c6d86ba","ios":"levelo://app?vid=5fac8696-d1e5-4561-86b2-d63c0c6d86ba"},"vehicle_type_id":"4","last_reported":1771414258,"current_range_meters":14000,"station_id":"ce4bgkp2rcd13ifvqbmg","pricing_plan_id":"cebpf4jnsgd1na2vs0mg"},{"bike_id":"b8dcc597-4759-4122-9592-969487759374","system_id":"levelo_inurba_marseille","lat":43.26218,"lon":5.40443,"is_reserved":false,"is_disabled":false,"rental_uris":{"android":"levelo://app?vid=b8dcc597-4759-4122-9592-969487759374","ios":"levelo://app?vid=b8dcc597-4759-4122-9592-969487759374"},"vehicle_type_id":"4","last_reported":1771414258,"current_range_meters":20400,"station_id":"ce4bhmh2rcd13ifvqgmg","pricing_plan_id":"cebpf4jnsgd1na2vs0mg"},{"bike_id":"da21f500-f4fc-44f8-8b60-d25decbd1f0c","system_id":"levelo_inurba_marseille","lat":43.29552,"lon":5.37507,"is_reserved":false,"is_disabled":false,"rental_uris":{"android":"levelo://app?vid=da21f500-f4fc-44f8-8b60-d25decbd1f0c","ios":"levelo://app?vid=da21f500-f4fc-44f8-8b60-d25decbd1f0c"},"vehicle_type_id":"4","last_reported":1771414258,"current_range_meters":38000,"station_id":"ce4bgkp2rcd13ifvqbmg","pricing_plan_id":"cebpf4jnsgd1na2vs0mg"},{"bike_id":"1f736713-40bb-4417-989e-c059341c3cc8","system_id":"levelo_inurba_marseille","lat":43.2983,"lon":5.44038,"is_reserved":false,"is_disabled":false,"rental_uris":{"android":"levelo://app?vid=1f736713-40bb-4417-989e-c059341c3cc8","ios":"levelo://app?vid=1f736713-40bb-4417-989e-c059341c3cc8"},"vehicle_type_id":"4","last_reported":1771414258,"current_range_meters":4800,"station_id":"st_d3jp68qikq2c7381ktn0","pricing_plan_id":"cebpf4jnsgd1na2vs0mg"},{"bike_id":"c2c2130e-3619-441c-98ea-236501eb01ac","system_id":"levelo_inurba_marseille","lat":43.30173,"lon":5.3809,"is_reserved":false,"is_disabled":false,"rental_uris":{"android":"levelo://app?vid=c2c2130e-3619-441c-98ea-236501eb01ac","ios":"levelo://app?vid=c2c2130e-3619-441c-98ea-236501eb01ac"},"vehicle_type_id":"4","last_reported":1771414258,"current_range_meters":32800,"station_id":"ce4bgjp2rcd13ifvqbh0","pricing_plan_id":"cebpf4jnsgd1na2vs0mg"},{"bike_id":"17f7ca05-9ff1-4847-81f4-6f637ce906bc","system_id":"levelo_inurba_marseille","lat":43.253414,"lon":5.421732,"is_reserved":false,"is_disabled":false,"rental_uris":{"android":"levelo://app?vid=17f7ca05-9ff1-4847-81f4-6f637ce906bc","ios":"levelo://app?vid=17f7ca05-9ff1-4847-81f4-6f637ce906bc"},"vehicle_type_id":"4","last_reported":1771414258,"current_range_meters":2800,"station_id":"st_d2m65c5bi1j21697t3ng","pricing_plan_id":"cebpf4jnsgd1na2vs0mg"},{"bike_id":"2c25d654-b135-4813-92cc-877e0c70e8da","system_id":"levelo_inurba_marseille","lat":43.31191,"lon":5.36888,"is_reserved":false,"is_disabled":false,"rental_uris":{"android":"levelo://app?vid=2c25d654-b135-4813-92cc-877e0c70e8da","ios":"levelo://app?vid=2c25d654-b135-4813-92cc-877e0c70e8da"},"vehicle_type_id":"4","last_reported":1771414258,"current_range_meters":29600,"station_id":"ce4bgl92rcd13ifvqbq0","pricing_plan_id":"cebpf4jnsgd1na2vs0mg"},{"bike_id":"41ccd3f3-430a-4c74-a651-2f112b3d9094","system_id":"levelo_inurba_marseille","lat":43.25494,"lon":5.37656,"is_reserved":false,"is_disabled":false,"rental_uris":{"android":"levelo://app?vid=41ccd3f3-430a-4c74-a651-2f112b3d9094","ios":"levelo://app?vid=41ccd3f3-430a-4c74-a651-2f112b3d9094"},"vehicle_type_id":"4","last_reported":1771414258,"current_range_meters":22000,"station_id":"ce4bhh12rcd13ifvqff0","pricing_plan_id":"cebpf4jnsgd1na2vs0mg"},{"bike_id":"95ac3875-f146-4303-af46-f73fc1aee76b","system_id":"levelo_inurba_marseille","lat":43.28472,"lon":5.48394,"is_reserved":false,"is_disabled":false,"rental_uris":{"android":"levelo://app?vid=95ac3875-f146-4303-af46-f73fc1aee76b","ios":"levelo://app?vid=95ac3875-f146-4303-af46-f73fc1aee76b"},"vehicle_type_id":"4","last_reported":1771414258,"current_range_meters":6400,"station_id":"st_d3svhcjqgbts73a3dn0g","pricing_plan_id":"cebpf4jnsgd1na2vs0mg"},{"bike_id":"5a7441dd-4a33-48a2-b3bf-8431fc7d51d9","system_id":"levelo_inurba_marseille","lat":43.24404,"lon":5.37059,"is_reserved":false,"is_disabled":false,"rental_uris":{"android":"levelo://app?vid=5a7441dd-4a33-48a2-b3bf-8431fc7d51d9","ios":"levelo://app?vid=5a7441dd-4a33-48a2-b3bf-8431fc7d51d9"},"vehicle_type_id":"4","last_reported":1771414258,"current_range_meters":29600,"station_id":"ce4bhhh2rcd13ifvqfk0","pricing_plan_id":"cebpf4jnsgd1na2vs0mg"},{"bike_id":"53e5edc9-c7ea-4838-9734-674f94ba359f","system_id":"levelo_inurba_marseille","lat":43.30477,"lon":5.379,"is_reserved":false,"is_disabled":true,"rental_uris":{"android":"levelo://app?vid=53e5edc9-c7ea-4838-9734-674f94ba359f","ios":"levelo://app?vid=53e5edc9-c7ea-4838-9734-674f94ba359f"},"vehicle_type_id":"4","last_reported":1771414258,"current_range_meters":8000,"station_id":"ce4bgup2rcd13ifvqcn0","pricing_plan_id":"cebpf4jnsgd1na2vs0mg"},{"bike_id":"4ee8176d-a3fd-4a4e-a68b-f588e9cae3f0","system_id":"levelo_inurba_marseille","lat":43.2837,"lon":5.38634,"is_reserved":false,"is_disabled":false,"rental_uris":{"android":"levelo://app?vid=4ee8176d-a3fd-4a4e-a68b-f588e9cae3f0","ios":"levelo://app?vid=4ee8176d-a3fd-4a4e-a68b-f588e9cae3f0"},"vehicle_type_id":"4","last_reported":1771414258,"current_range_meters":9200,"station_id":"ce4bh492rcd13ifvqdvg","pricing_plan_id":"cebpf4jnsgd1na2vs0mg"},{"bike_id":"aa60fccf-958f-477e-87de-c38c44ce2662","system_id":"levelo_inurba_marseille","lat":43.33764,"lon":5.3744,"is_reserved":false,"is_disabled":false,"rental_uris":{"android":"levelo://app?vid=aa60fccf-958f-477e-87de-c38c44ce2662","ios":"levelo://app?vid=aa60fccf-958f-477e-87de-c38c44ce2662"},"vehicle_type_id":"4","last_reported":1771414258,"current_range_meters":20400,"station_id":"","pricing_plan_id":"cebpf4jnsgd1na2vs0mg"},{"bike_id":"18ceb81d-27e0-4edf-8b51-8d82df69131f","system_id":"levelo_inurba_marseille","lat":43.26556,"lon":5.40309,"is_reserved":false,"is_disabled":false,"rental_uris":{"android":"levelo://app?vid=18ceb81d-27e0-4edf-8b51-8d82df69131f","ios":"levelo://app?vid=18ceb81d-27e0-4edf-8b51-8d82df69131f"},"vehicle_type_id":"4","last_reported":1771414258,"current_range_meters":32000,"station_id":"ce4bhmp2rcd13ifvqgng","pricing_plan_id":"cebpf4jnsgd1na2vs0mg"},{"bike_id":"ce9e9485-2f02-49c5-81ab-b31dbb5f770f","system_id":"levelo_inurba_marseille","lat":43.2408,"lon":5.37753,"is_reserved":false,"is_disabled":false,"rental_uris":{"android":"levelo://app?vid=ce9e9485-2f02-49c5-81ab-b31dbb5f770f","ios":"levelo://app?vid=ce9e9485-2f02-49c5-81ab-b31dbb5f770f"},"vehicle_type_id":"4","last_reported":1771414258,"current_range_meters":40000,"station_id":"ce4bhnp2rcd13ifvqgvg","pricing_plan_id":"cebpf4jnsgd1na2vs0mg"},{"bike_id":"b17b59e0-45b5-4a28-9c0b-fa0d086392c0","system_id":"levelo_inurba_marseille","lat":43.30544,"lon":5.36522,"is_reserved":false,"is_disabled":false,"rental_uris":{"android":"levelo://app?vid=b17b59e0-45b5-4a28-9c0b-fa0d086392c0","ios":"levelo://app?vid=b17b59e0-45b5-4a28-9c0b-fa0d086392c0"},"vehicle_type_id":"4","last_reported":1771414258,"current_range_meters":14000,"station_id":"ce4bgs12rcd13ifvqcag","pricing_plan_id":"cebpf4jnsgd1na2vs0mg"},{"bike_id":"e7fd4397-0d46-458d-bd11-6ae2f852ca9e","system_id":"levelo_inurba_marseille","lat":43.24662,"lon":5.38163,"is_reserved":false,"is_disabled":false,"rental_uris":{"android":"levelo://app?vid=e7fd4397-0d46-458d-bd11-6ae2f852ca9e","ios":"levelo://app?vid=e7fd4397-0d46-458d-bd11-6ae2f852ca9e"},"vehicle_type_id":"4","last_reported":1771414258,"current_range_meters":26000,"station_id":"ce4bhih2rcd13ifvqfr0","pricing_plan_id":"cebpf4jnsgd1na2vs0mg"},{"bike_id":"59dd2ebd-5dec-41f2-a010-f120325ff5df","system_id":"levelo_inurba_marseille","lat":43.29919,"lon":5.37488,"is_reserved":false,"is_disabled":false,"rental_uris":{"android":"levelo://app?vid=59dd2ebd-5dec-41f2-a010-f120325ff5df","ios":"levelo://app?vid=59dd2ebd-5dec-41f2-a010-f120325ff5df"},"vehicle_type_id":"4","last_reported":1771414258,"current_range_meters":36000,"station_id":"ce4bgjh2rcd13ifvqbg0","pricing_plan_id":"cebpf4jnsgd1na2vs0mg"},{"bike_id":"626be57a-50ac-471a-8cc2-c5f9f79f8ec0","system_id":"levelo_inurba_marseille","lat":43.29968,"lon":5.38494,"is_reserved":false,"is_disabled":false,"rental_uris":{"android":"levelo://app?vid=626be57a-50ac-471a-8cc2-c5f9f79f8ec0","ios":"levelo://app?vid=626be57a-50ac-471a-8cc2-c5f9f79f8ec0"},"vehicle_type_id":"4","last_reported":1771414258,"current_range_meters":2800,"station_id":"ce4bgj92rcd13ifvqbd0","pricing_plan_id":"cebpf4jnsgd1na2vs0mg"},{"bike_id":"f5a83828-f353-4692-b521-be18cc9b6b45","system_id":"levelo_inurba_marseille","lat":43.290014,"lon":5.356123,"is_reserved":false,"is_disabled":false,"rental_uris":{"android":"levelo://app?vid=f5a83828-f353-4692-b521-be18cc9b6b45","ios":"levelo://app?vid=f5a83828-f353-4692-b521-be18cc9b6b45"},"vehicle_type_id":"4","last_reported":1771414258,"current_range_meters":25200,"station_id":"ce4bhb92rcd13ifvqen0","pricing_plan_id":"cebpf4jnsgd1na2vs0mg"},{"bike_id":"e5a53d9a-99d1-43d7-ae95-edc0215af7c2","system_id":"levelo_inurba_marseille","lat":43.30274,"lon":5.37694,"is_reserved":false,"is_disabled":false,"rental_uris":{"android":"levelo://app?vid=e5a53d9a-99d1-43d7-ae95-edc0215af7c2","ios":"levelo://app?vid=e5a53d9a-99d1-43d7-ae95-edc0215af7c2"},"vehicle_type_id":"4","last_reported":1771414258,"current_range_meters":39200,"station_id":"ce4bguh2rcd13ifvqcj0","pricing_plan_id":"cebpf4jnsgd1na2vs0mg"},{"bike_id":"01d76427-0dce-4b4b-a4d9-164cfbd98362","system_id":"levelo_inurba_marseille","lat":43.28707,"lon":5.39989,"is_reserved":false,"is_disabled":false,"rental_uris":{"android":"levelo://app?vid=01d76427-0dce-4b4b-a4d9-164cfbd98362","ios":"levelo://app?vid=01d76427-0dce-4b4b-a4d9-164cfbd98362"},"vehicle_type_id":"4","last_reported":1771414258,"current_range_meters":30800,"station_id":"ce4bho92rcd13ifvqh3g","pricing_plan_id":"cebpf4jnsgd1na2vs0mg"},{"bike_id":"b99b4796-4e85-4608-b2e8-0bb86f73e0dc","system_id":"levelo_inurba_marseille","lat":43.31707,"lon":5.43706,"is_reserved":false,"is_disabled":false,"rental_uris":{"android":"levelo://app?vid=b99b4796-4e85-4608-b2e8-0bb86f73e0dc","ios":"levelo://app?vid=b99b4796-4e85-4608-b2e8-0bb86f73e0dc"},"vehicle_type_id":"4","last_reported":1771414258,"current_range_meters":24000,"station_id":"ce4bhp92rcd13ifvqhcg","pricing_plan_id":"cebpf4jnsgd1na2vs0mg"},{"bike_id":"aa2207b7-265c-4ad3-bf19-8d2f813f1c3e","system_id":"levelo_inurba_marseille","lat":43.2455,"lon":5.39525,"is_reserved":false,"is_disabled":false,"rental_uris":{"android":"levelo://app?vid=aa2207b7-265c-4ad3-bf19-8d2f813f1c3e","ios":"levelo://app?vid=aa2207b7-265c-4ad3-bf19-8d2f813f1c3e"},"vehicle_type_id":"4","last_reported":1771414258,"current_range_meters":30800,"station_id":"ce4bhlp2rcd13ifvqgjg","pricing_plan_id":"cebpf4jnsgd1na2vs0mg"},{"bike_id":"73bf502a-28e1-47b3-aaa9-7c0f62e718cb","system_id":"levelo_inurba_marseille","lat":43.298717,"lon":5.397746,"is_reserved":false,"is_disabled":false,"rental_uris":{"android":"levelo://app?vid=73bf502a-28e1-47b3-aaa9-7c0f62e718cb","ios":"levelo://app?vid=73bf502a-28e1-47b3-aaa9-7c0f62e718cb"},"vehicle_type_id":"4","last_reported":1771414258,"current_range_meters":8000,"station_id":"ce4bh0h2rcd13ifvqd50","pricing_plan_id":"cebpf4jnsgd1na2vs0mg"},{"bike_id":"2348469c-45b7-4332-b9e2-b2adf4281a44","system_id":"levelo_inurba_marseille","lat":43.28627,"lon":5.35052,"is_reserved":false,"is_disabled":false,"rental_uris":{"android":"levelo://app?vid=2348469c-45b7-4332-b9e2-b2adf4281a44","ios":"levelo://app?vid=2348469c-45b7-4332-b9e2-b2adf4281a44"},"vehicle_type_id":"4","last_reported":1771414258,"current_range_meters":18000,"station_id":"ce4bhch2rcd13ifvqeug","pricing_plan_id":"cebpf4jnsgd1na2vs0mg"},{"bike_id":"203389d2-db71-424b-bc25-f4ac96ab8010","system_id":"levelo_inurba_marseille","lat":43.27985,"lon":5.41663,"is_reserved":false,"is_disabled":false,"rental_uris":{"android":"levelo://app?vid=203389d2-db71-424b-bc25-f4ac96ab8010","ios":"levelo://app?vid=203389d2-db71-424b-bc25-f4ac96ab8010"},"vehicle_type_id":"4","last_reported":1771414258,"current_range_meters":36800,"station_id":"ce4bho12rcd13ifvqh1g","pricing_plan_id":"cebpf4jnsgd1na2vs0mg"},{"bike_id":"c1b93aaa-3851-4141-a3a2-469a9b9eac56","system_id":"levelo_inurba_marseille","lat":43.31243,"lon":5.36873,"is_reserved":false,"is_disabled":false,"rental_uris":{"android":"levelo://app?vid=c1b93aaa-3851-4141-a3a2-469a9b9eac56","ios":"levelo://app?vid=c1b93aaa-3851-4141-a3a2-469a9b9eac56"},"vehicle_type_id":"4","last_reported":1771414258,"current_range_meters":39200,"station_id":"ce4bgl92rcd13ifvqbq0","pricing_plan_id":"cebpf4jnsgd1na2vs0mg"},