{"last_updated":1721758248,"ttl":30,"version":"2.2","data":{"bikes":[{"bike_id":"a2610bec-28cf-4e46-bfa7-b619ea248969","system_id":"levelo_inurba_marseille","lat":43.31257,"lon":5.36767,"is_reserved":false,"is_disabled":false,"rental_uris":{"android":"levelo://app?vid=a2610bec-28cf-4e46-bfa7-b619ea248969","ios":"levelo://app?vid=a2610bec-28cf-4e46-bfa7-b619ea248969"},"vehicle_type_id":"4","last_reported":1721758248,"current_range_meters":6400,"station_id":"","pricing_plan_id":"cebpf4jnsgd1na2vs0mg"},{"bike_id":"709da99c-ad5d-4c00-a445-700352b418bb","system_id":"levelo_inurba_marseille","lat":43.31341,"lon":5.367098,"is_reserved":false,"is_disabled":false,"rental_uris":{"android":"levelo://app?vid=709da99c-ad5d-4c00-a445-700352b418bb","ios":"levelo://app?vid=709da99c-ad5d-4c00-a445-700352b418bb"},"vehicle_type_id":"4","last_reported":1721758248,"current_range_meters":0,"station_id":"ce4bgr92rcd13ifvqc6g","pricing_plan_id":"cebpf4jnsgd1na2vs0mg"},{"bike_id":"0e276330-d778-4a1b-abfe-ba13ba3b4975","system_id":"levelo_inurba_marseille","lat":43.312239,"lon":5.368562,"is_reserved":false,"is_disabled":false,"rental_uris":{"android":"levelo://app?vid=0e276330-d778-4a1b-abfe-ba13ba3b4975","ios":"levelo://app?vid=0e276330-d778-4a1b-abfe-ba13ba3b4975"},"vehicle_type_id":"4","last_reported":1721758248,"current_range_meters":0,"station_id":"ce4bgl92rcd13ifvqbq0","pricing_plan_id":"cebpf4jnsgd1na2vs0mg"},{"bike_id":"69d9fd70-5719-4eee-ad39-e650fe1acd4c","system_id":"levelo_inurba_marseille","lat":43.314811,"lon":5.373103,"is_reserved":false,"is_disabled":false,"rental_uris":{"android":"levelo://app?vid=69d9fd70-5719-4eee-ad39-e650fe1acd4c","ios":"levelo://app?vid=69d9fd70-5719-4eee-ad39-e650fe1acd4c"},"vehicle_type_id":"4","last_reported":1721758248,"current_range_meters":30400,"station_id":"ce4bgt12rcd13ifvqcd0","pricing_plan_id":"cebpf4jnsgd1na2vs0mg"},{"bike_id":"9e1e745f-6905-4606-a9c0-268fa6022578","system_id":"levelo_inurba_marseille","lat":43.314811,"lon":5.373103,"is_reserved":false,"is_disabled":false,"rental_uris":{"android":"levelo://app?vid=9e1e745f-6905-4606-a9c0-268fa6022578","ios":"levelo://app?vid=9e1e745f-6905-4606-a9c0-268fa6022578"},"vehicle_type_id":"4","last_reported":1721758248,"current_range_meters":28400,"station_id":"ce4bgt12rcd13ifvqcd0","pricing_plan_id":"cebpf4jnsgd1na2vs0mg"},{"bike_id":"d4222668-94bc-4f71-a639-0afbc905a796","system_id":"levelo_inurba_marseille","lat":43.308878,"lon":5.371915,"is_reserved":false,"is_disabled":false,"rental_uris":{"android":"levelo://app?vid=d4222668-94bc-4f71-a639-0afbc905a796","ios":"levelo://app?vid=d4222668-94bc-4f71-a639-0afbc905a796"},"vehicle_type_id":"4","last_reported":1721758248,"current_range_meters":800,"station_id":"ce4bguh2rcd13ifvqckg","pricing_plan_id":"cebpf4jnsgd1na2vs0mg"},{"bike_id":"f73d9013-8086-419c-a87f-64bd4db78279","system_id":"levelo_inurba_marseille","lat":43.318046,"lon":5.370121,"is_reserved":false,"is_disabled":false,"rental_uris":{"android":"levelo://app?vid=f73d9013-8086-419c-a87f-64bd4db78279","ios":"levelo://app?vid=f73d9013-8086-419c-a87f-64bd4db78279"},"vehicle_type_id":"4","last_reported":1721758248,"current_range_meters":19200,"station_id":"","pricing_plan_id":"cebpf4jnsgd1na2vs0mg"},{"bike_id":"44c7a22b-1011-48ba-9a6b-5b5f2abb10f6","system_id":"levelo_inurba_marseille","lat":43.30518,"lon":5.36565,"is_reserved":false,"is_disabled":false,"rental_uris":{"android":"levelo://app?vid=44c7a22b-1011-48ba-9a6b-5b5f2abb10f6","ios":"levelo://app?vid=44c7a22b-1011-48ba-9a6b-5b5f2abb10f6"},"vehicle_type_id":"4","last_reported":1721758248,"current_range_meters":2400,"station_id":"","pricing_plan_id":"cebpf4jnsgd1na2vs0mg"},{"bike_id":"43364320-d6b3-4818-83f7-7b2b44d9e526","system_id":"levelo_inurba_marseille","lat":43.305989,"lon":5.37225,"is_reserved":false,"is_disabled":false,"rental_uris":{"android":"levelo://app?vid=43364320-d6b3-4818-83f7-7b2b44d9e526","ios":"levelo://app?vid=43364320-d6b3-4818-83f7-7b2b44d9e526"},"vehicle_type_id":"4","last_reported":1721758248,"current_range_meters":28400,"station_id":"ce4bgqh2rcd13ifvqc4g","pricing_plan_id":"cebpf4jnsgd1na2vs0mg"},{"bike_id":"4f783ecf-d49f-4303-9520-9ec7b7a52a3c","system_id":"levelo_inurba_marseille","lat":43.305989,"lon":5.37225,"is_reserved":false,"is_disabled":false,"rental_uris":{"android":"levelo://app?vid=4f783ecf-d49f-4303-9520-9ec7b7a52a3c","ios":"levelo://app?vid=4f783ecf-d49f-4303-9520-9ec7b7a52a3c"},"vehicle_type_id":"4","last_reported":1721758248,"current_range_meters":14400,"station_id":"ce4bgqh2rcd13ifvqc4g","pricing_plan_id":"cebpf4jnsgd1na2vs0mg"},{"bike_id":"ffcf2b32-02e0-4f9e-ac6a-7880fdb00179","system_id":"levelo_inurba_marseille","lat":43.305989,"lon":5.37225,"is_reserved":false,"is_disabled":false,"rental_uris":{"android":"levelo://app?vid=ffcf2b32-02e0-4f9e-ac6a-7880fdb00179","ios":"levelo://app?vid=ffcf2b32-02e0-4f9e-ac6a-7880fdb00179"},"vehicle_type_id":"4","last_reported":1721758248,"current_range_meters":20800,"station_id":"ce4bgqh2rcd13ifvqc4g","pricing_plan_id":"cebpf4jnsgd1na2vs0mg"},{"bike_id":"64a74f85-baf3-4518-bee2-b368a7f3c107","system_id":"levelo_inurba_marseille","lat":43.31752,"lon":5.375266,"is_reserved":false,"is_disabled":false,"rental_uris":{"android":"levelo://app?vid=64a74f85-baf3-4518-bee2-b368a7f3c107","ios":"levelo://app?vid=64a74f85-baf3-4518-bee2-b368a7f3c107"},"vehicle_type_id":"4","last_reported":1721758248,"current_range_meters":18000,"station_id":"","pricing_plan_id":"cebpf4jnsgd1na2vs0mg"},{"bike_id":"d260259c-f0b4-42b1-8c3b-32dd83f0bb09","system_id":"levelo_inurba_marseille","lat":43.305989,"lon":5.37225,"is_reserved":false,"is_disabled":false,"rental_uris":{"android":"levelo://app?vid=d260259c-f0b4-42b1-8c3b-32dd83f0bb09","ios":"levelo://app?vid=d260259c-f0b4-42b1-8c3b-32dd83f0bb09"},"vehicle_type_id":"4","last_reported":1721758248,"current_range_meters":31200,"station_id":"ce4bgqh2rcd13ifvqc4g","pricing_plan_id":"cebpf4jnsgd1na2vs0mg"},{"bike_id":"dd3cdb24-576d-4c8f-bfe5-4149cd87da52","system_id":"levelo_inurba_marseille","lat":43.305989,"lon":5.37225,"is_reserved":false,"is_disabled":false,"rental_uris":{"android":"levelo://app?vid=dd3cdb24-576d-4c8f-bfe5-4149cd87da52","ios":"levelo://app?vid=dd3cdb24-576d-4c8f-bfe5-4149cd87da52"},"vehicle_type_id":"4","last_reported":1721758248,"current_range_meters":24400,"station_id":"ce4bgqh2rcd13ifvqc4g","pricing_plan_id":"cebpf4jnsgd1na2vs0mg"},{"bike_id":"c882fd66-687b-4abb-8d68-42ddd8d25216","system_id":"levelo_inurba_marseille","lat":43.31712,"lon":5.377373,"is_reserved":false,"is_disabled":false,"rental_uris":{"android":"levelo://app?vid=c882fd66-687b-4abb-8d68-42ddd8d25216","ios":"levelo://app?vid=c882fd66-687b-4abb-8d68-42ddd8d25216"},"vehicle_type_id":"4","last_reported":1721758248,"current_range_meters":0,"station_id":"ce4bgth2rcd13ifvqch0","pricing_plan_id":"cebpf4jnsgd1na2vs0mg"},{"bike_id":"fcabf4a7-4a82-44d4-bafb-fa605db464d4","system_id":"levelo_inurba_marseille","lat":43.31529,"lon":5.38031,"is_reserved":false,"is_disabled":false,"rental_uris":{"android":"levelo://app?vid=fcabf4a7-4a82-44d4-bafb-fa605db464d4","ios":"levelo://app?vid=fcabf4a7-4a82-44d4-bafb-fa605db464d4"},"vehicle_type_id":"4","last_reported":1721758248,"current_range_meters":0,"station_id":"ce4bhsp2rcd13ifvqi50","pricing_plan_id":"cebpf4jnsgd1na2vs0mg"},{"bike_id":"9fa5f429-cbaa-4f04-a3b4-2a82e4dac551","system_id":"levelo_inurba_marseille","lat":43.315293,"lon":5.380349,"is_reserved":false,"is_disabled":false,"rental_uris":{"android":"levelo://app?vid=9fa5f429-cbaa-4f04-a3b4-2a82e4dac551","ios":"levelo://app?vid=9fa5f429-cbaa-4f04-a3b4-2a82e4dac551"},"vehicle_type_id":"4","last_reported":1721758248,"current_range_meters":10000,"station_id":"ce4bhsp2rcd13ifvqi50","pricing_plan_id":"cebpf4jnsgd1na2vs0mg"},{"bike_id":"018af4f9-b1b7-4bc6-8fcd-2f9b66246fa3","system_id":"levelo_inurba_marseille","lat":43.301939,"lon":5.366286,"is_reserved":false,"is_disabled":false,"rental_uris":{"android":"levelo://app?vid=018af4f9-b1b7-4bc6-8fcd-2f9b66246fa3","ios":"levelo://app?vid=018af4f9-b1b7-4bc6-8fcd-2f9b66246fa3"},"vehicle_type_id":"4","last_reported":1721758248,"current_range_meters":8800,"station_id":"ce4bgrh2rcd13ifvqc8g","pricing_plan_id":"cebpf4jnsgd1na2vs0mg"},{"bike_id":"69a418c0-6125-4cb2-a282-95f6f8c00832","system_id":"levelo_inurba_marseille","lat":43.308012,"lon":5.381511,"is_reserved":false,"is_disabled":false,"rental_uris":{"android":"levelo://app?vid=69a418c0-6125-4cb2-a282-95f6f8c00832","ios":"levelo://app?vid=69a418c0-6125-4cb2-a282-95f6f8c00832"},"vehicle_type_id":"4","last_reported":1721758248,"current_range_meters":10800,"station_id":"ce4bgt12rcd13ifvqce0","pricing_plan_id":"cebpf4jnsgd1na2vs0mg"},{"bike_id":"1d38d8de-d16a-40a9-9c69-7432ad4c1440","system_id":"levelo_inurba_marseille","lat":43.308012,"lon":5.381511,"is_reserved":false,"is_disabled":false,"rental_uris":{"android":"levelo://app?vid=1d38d8de-d16a-40a9-9c69-7432ad4c1440","ios":"levelo://app?vid=1d38d8de-d16a-40a9-9c69-7432ad4c1440"},"vehicle_type_id":"4","last_reported":1721758248,"current_range_meters":4000,"station_id":"ce4bgt12rcd13ifvqce0","pricing_plan_id":"cebpf4jnsgd1na2vs0mg"},{"bike_id":"085d4cae-9080-46e4-8fc2-2e4890dab427","system_id":"levelo_inurba_marseille","lat":43.304606,"lon":5.379026,"is_reserved":false,"is_disabled":false,"rental_uris":{"android":"levelo://app?vid=085d4cae-9080-46e4-8fc2-2e4890dab427","ios":"levelo://app?vid=085d4cae-9080-46e4-8fc2-2e4890dab427"},"vehicle_type_id":"4","last_reported":1721758248,"current_range_meters":8000,"station_id":"ce4bgup2rcd13ifvqcn0","pricing_plan_id":"cebpf4jnsgd1na2vs0mg"},{"bike_id":"cb3bf3ba-b3ed-495b-ab81-fbf03e196b21","system_id":"levelo_inurba_marseille","lat":43.298433,"lon":5.362774,"is_reserved":false,"is_disabled":false,"rental_uris":{"android":"levelo://app?vid=cb3bf3ba-b3ed-495b-ab81-fbf03e196b21","ios":"levelo://app?vid=cb3bf3ba-b3ed-495b-ab81-fbf03e196b21"},"vehicle_type_id":"4","last_reported":1721758248,"current_range_meters":26000,"station_id":"ce4bgpp2rcd13ifvqc3g","pricing_plan_id":"cebpf4jnsgd1na2vs0mg"},{"bike_id":"5e74a2ad-7ba2-4598-a9cc-a63ae4fd5504","system_id":"levelo_inurba_marseille","lat":43.324771,"lon":5.36557,"is_reserved":false,"is_disabled":false,"rental_uris":{"android":"levelo://app?vid=5e74a2ad-7ba2-4598-a9cc-a63ae4fd5504","ios":"levelo://app?vid=5e74a2ad-7ba2-4598-a9cc-a63ae4fd5504"},"vehicle_type_id":"4","last_reported":1721758248,"current_range_meters":30800,"station_id":"ce4bhs12rcd13ifvqhvg","pricing_plan_id":"cebpf4jnsgd1na2vs0mg"},{"bike_id":"9f05e177-4d52-47ae-8496-45c55fa41ba5","system_id":"levelo_inurba_marseille","lat":43.324771,"lon":5.36557,"is_reserved":false,"is_disabled":false,"rental_uris":{"android":"levelo://app?vid=9f05e177-4d52-47ae-8496-45c55fa41ba5","ios":"levelo://app?vid=9f05e177-4d52-47ae-8496-45c55fa41ba5"},"vehicle_type_id":"4","last_reported":1721758248,"current_range_meters":4800,"station_id":"ce4bhs12rcd13ifvqhvg","pricing_plan_id":"cebpf4jnsgd1na2vs0mg"},{"bike_id":"ba144c93-1974-4518-9943-a75f7f4fde8a","system_id":"levelo_inurba_marseille","lat":43.32485,"lon":5.36573,"is_reserved":false,"is_disabled":false,"rental_uris":{"android":"levelo://app?vid=ba144c93-1974-4518-9943-a75f7f4fde8a","ios":"levelo://app?vid=ba144c93-1974-4518-9943-a75f7f4fde8a"},"vehicle_type_id":"4","last_reported":1721758248,"current_range_meters":0,"station_id":"ce4bhs12rcd13ifvqhvg","pricing_plan_id":"cebpf4jnsgd1na2vs0mg"},{"bike_id":"fb62db4a-06e8-4665-94f9-86fc5ad9f3ca","system_id":"levelo_inurba_marseille","lat":43.324771,"lon":5.36557,"is_reserved":false,"is_disabled":false,"rental_uris":{"android":"levelo://app?vid=fb62db4a-06e8-4665-94f9-86fc5ad9f3ca","ios":"levelo://app?vid=fb62db4a-06e8-4665-94f9-86fc5ad9f3ca"},"vehicle_type_id":"4","last_reported":1721758248,"current_range_meters":27200,"station_id":"ce4bhs12rcd13ifvqhvg","pricing_plan_id":"cebpf4jnsgd1na2vs0mg"},{"bike_id":"90d8fa1e-665d-48ec-ab69-488f9f45a74c","system_id":"levelo_inurba_marseille","lat":43.324771,"lon":5.36557,"is_reserved":false,"is_disabled":false,"rental_uris":{"android":"levelo://app?vid=90d8fa1e-665d-48ec-ab69-488f9f45a74c","ios":"levelo://app?vid=90d8fa1e-665d-48ec-ab69-488f9f45a74c"},"vehicle_type_id":"4","last_reported":1721758248,"current_range_meters":2400,"station_id":"ce4bhs12rcd13ifvqhvg","pricing_plan_id":"cebpf4jnsgd1na2vs0mg"},{"bike_id":"03c7e3f3-59ff-4ce0-a0d5-301cae816487","system_id":"levelo_inurba_marseille","lat":43.310804,"lon":5.38359,"is_reserved":false,"is_disabled":false,"rental_uris":{"android":"levelo://app?vid=03c7e3f3-59ff-4ce0-a0d5-301cae816487","ios":"levelo://app?vid=03c7e3f3-59ff-4ce0-a0d5-301cae816487"},"vehicle_type_id":"4","last_reported":1721758248,"current_range_meters":0,"station_id":"ce4bgv92rcd13ifvqcr0","pricing_plan_id":"cebpf4jnsgd1na2vs0mg"},{"bike_id":"4a1a7ce1-37a3-4b0e-94b3-8a5d57c9cc99","system_id":"levelo_inurba_marseille","lat":43.310804,"lon":5.38359,"is_reserved":false,"is_disabled":false,"rental_uris":{"android":"levelo://app?vid=4a1a7ce1-37a3-4b0e-94b3-8a5d57c9cc99","ios":"levelo://app?vid=4a1a7ce1-37a3-4b0e-94b3-8a5d57c9cc99"},"vehicle_type_id":"4","last_reported":1721758248,"current_range_meters":0,"station_id":"ce4bgv92rcd13ifvqcr0","pricing_plan_id":"cebpf4jnsgd1na2vs0mg"},{"bike_id":"eb86cb6a-1c06-4666-a1a1-4bd851f2defd","system_id":"levelo_inurba_marseille","lat":43.310804,"lon":5.38359,"is_reserved":false,"is_disabled":false,"rental_uris":{"android":"levelo://app?vid=eb86cb6a-1c06-4666-a1a1-4bd851f2defd","ios":"levelo://app?vid=eb86cb6a-1c06-4666-a1a1-4bd851f2defd"},"vehicle_type_id":"4","last_reported":1721758248,"current_range_meters":6000,"station_id":"ce4bgv92rcd13ifvqcr0","pricing_plan_id":"cebpf4jnsgd1na2vs0mg"},{"bike_id":"3f329a99-1c08-41c1-8ef8-2a47319c6abb","system_id":"levelo_inurba_marseille","lat":43.302784,"lon":5.377158,"is_reserved":false,"is_disabled":false,"rental_uris":{"android":"levelo://app?vid=3f329a99-1c08-41c1-8ef8-2a47319c6abb","ios":"levelo://app?vid=3f329a99-1c08-41c1-8ef8-2a47319c6abb"},"vehicle_type_id":"4","last_reported":1721758248,"current_range_meters":30000,"station_id":"ce4bguh2rcd13ifvqcj0","pricing_plan_id":"cebpf4jnsgd1na2vs0mg"},{"bike_id":"4c7781e4-1939-4fc3-a778-7a7074f6bdf2","system_id":"levelo_inurba_marseille","lat":43.31098,"lon":5.38373,"is_reserved":false,"is_disabled":false,"rental_uris":{"android":"levelo://app?vid=4c7781e4-1939-4fc3-a778-7a7074f6bdf2","ios":"levelo://app?vid=4c7781e4-1939-4fc3-a778-7a7074f6bdf2"},"vehicle_type_id":"4","last_reported":1721758248,"current_range_meters":9200,"station_id":"","pricing_plan_id":"cebpf4jnsgd1na2vs0mg"},{"bike_id":"0645139d-6b09-4568-8e7d-ef8db70dbcf7","system_id":"levelo_inurba_marseille","lat":43.302784,"lon":5.377158,"is_reserved":false,"is_disabled":false,"rental_uris":{"android":"levelo://app?vid=0645139d-6b09-4568-8e7d-ef8db70dbcf7","ios":"levelo://app?vid=0645139d-6b09-4568-8e7d-ef8db70dbcf7"},"vehicle_type_id":"4","last_reported":1721758248,"current_range_meters":0,"station_id":"ce4bguh2rcd13ifvqcj0","pricing_plan_id":"cebpf4jnsgd1na2vs0mg"},{"bike_id":"6ef76b78-4b50-4af2-9bc7-a56fa00306b0","system_id":"levelo_inurba_marseille","lat":43.310804,"lon":5.38359,"is_reserved":false,"is_disabled":false,"rental_uris":{"android":"levelo://app?vid=6ef76b78-4b50-4af2-9bc7-a56fa00306b0","ios":"levelo://app?vid=6ef76b78-4b50-4af2-9bc7-a56fa00306b0"},"vehicle_type_id":"4","last_reported":1721758248,"current_range_meters":0,"station_id":"ce4bgv92rcd13ifvqcr0","pricing_plan_id":"cebpf4jnsgd1na2vs0mg"},{"bike_id":"2b5694c1-5765-4b72-ae99-e1d1894de74a","system_id":"levelo_inurba_marseille","lat":43.30785,"lon":5.38262,"is_reserved":false,"is_disabled":false,"rental_uris":{"android":"levelo://app?vid=2b5694c1-5765-4b72-ae99-e1d1894de74a","ios":"levelo://app?vid=2b5694c1-5765-4b72-ae99-e1d1894de74a"},"vehicle_type_id":"4","last_reported":1721758248,"current_range_meters":16000,"station_id":"","pricing_plan_id":"cebpf4jnsgd1na2vs0mg"},{"bike_id":"f7f46089-2666-4f98-a6b2-e7379274e68b","system_id":"levelo_inurba_marseille","lat":43.316247,"lon":5.383467,"is_reserved":false,"is_disabled":false,"rental_uris":{"android":"levelo://app?vid=f7f46089-2666-4f98-a6b2-e7379274e68b","ios":"levelo://app?vid=f7f46089-2666-4f98-a6b2-e7379274e68b"},"vehicle_type_id":"4","last_reported":1721758248,"current_range_meters":12000,"station_id":"","pricing_plan_id":"cebpf4jnsgd1na2vs0mg"},{"bike_id":"177b643a-3dcd-44f3-b71f-4fc7c66875d1","system_id":"levelo_inurba_marseille","lat":43.319935,"lon":5.381699,"is_reserved":false,"is_disabled":false,"rental_uris":{"android":"levelo://app?vid=177b643a-3dcd-44f3-b71f-4fc7c66875d1","ios":"levelo://app?vid=177b643a-3dcd-44f3-b71f-4fc7c66875d1"},"vehicle_type_id":"4","last_reported":1721758248,"current_range_meters":24000,"station_id":"ce4bhr12rcd13ifvqhpg","pricing_plan_id":"cebpf4jnsgd1na2vs0mg"},{"bike_id":"adbc4f56-152e-4ef4-b41a-d2224167c083","system_id":"levelo_inurba_marseille","lat":43.319935,"lon":5.381699,"is_reserved":false,"is_disabled":false,"rental_uris":{"android":"levelo://app?vid=adbc4f56-152e-4ef4-b41a-d2224167c083","ios":"levelo://app?vid=adbc4f56-152e-4ef4-b41a-d2224167c083"},"vehicle_type_id":"4","last_reported":1721758248,"current_range_meters":4400,"station_id":"ce4bhr12rcd13ifvqhpg","pricing_plan_id":"cebpf4jnsgd1na2vs0mg"},{"bike_id":"a092858c-aca9-4072-b94e-c7452ff90cd2","system_id":"levelo_inurba_marseille","lat":43.30558,"lon":5.38169,"is_reserved":false,"is_disabled":false,"rental_uris":{"android":"levelo://app?vid=a092858c-aca9-4072-b94e-c7452ff90cd2","ios":"levelo://app?vid=a092858c-aca9-4072-b94e-c7452ff90cd2"},"vehicle_type_id":"4","last_reported":1721758248,"current_range_meters":20400,"station_id":"","pricing_plan_id":"cebpf4jnsgd1na2vs0mg"},{"bike_id":"70b2d078-b537-402e-8003-204fa56c848b","system_id":"levelo_inurba_marseille","lat":43.299222,"lon":5.365554,"is_reserved":false,"is_disabled":false,"rental_uris":{"android":"levelo://app?vid=70b2d078-b537-402e-8003-204fa56c848b","ios":"levelo://app?vid=70b2d078-b537-402e-8003-204fa56c848b"},"vehicle_type_id":"4","last_reported":1721758248,"current_range_meters":20000,"station_id":"ce4bgm92rcd13ifvqbr0","pricing_plan_id":"cebpf4jnsgd1na2vs0mg"},{"bike_id":"c09cf8a9-41ae-46a7-9640-9f72479dee72","system_id":"levelo_inurba_marseille","lat":43.299209,"lon":5.365547,"is_reserved":false,"is_disabled":false,"rental_uris":{"android":"levelo://app?vid=c09cf8a9-41ae-46a7-9640-9f72479dee72","ios":"levelo://app?vid=c09cf8a9-41ae-46a7-9640-9f72479dee72"},"vehicle_type_id":"4","last_reported":1721758248,"current_range_meters":27200,"station_id":"ce4bgm92rcd13ifvqbr0","pricing_plan_id":"cebpf4jnsgd1na2vs0mg"},{"bike_id":"b3c97d5e-b6ba-43c6-af10-30c8437cef6b","system_id":"levelo_inurba_marseille","lat":43.309531,"lon":5.386266,"is_reserved":false,"is_disabled":false,"rental_uris":{"android":"levelo://app?vid=b3c97d5e-b6ba-43c6-af10-30c8437cef6b","ios":"levelo://app?vid=b3c97d5e-b6ba-43c6-af10-30c8437cef6b"},"vehicle_type_id":"4","last_reported":1721758248,"current_range_meters":6000,"station_id":"","pricing_plan_id":"cebpf4jnsgd1na2vs0mg"},{"bike_id":"1fff06cc-54f5-4750-8ec1-24fd067ac945","system_id":"levelo_inurba_marseille","lat":43.298433,"lon":5.362774,"is_reserved":false,"is_disabled":false,"rental_uris":{"android":"levelo://app?vid=1fff06cc-54f5-4750-8ec1-24fd067ac945","ios":"levelo://app?vid=1fff06cc-54f5-4750-8ec1-24fd067ac945"},"vehicle_type_id":"4","last_reported":1721758248,"current_range_meters":15200,"station_id":"ce4bgpp2rcd13ifvqc3g","pricing_plan_id":"cebpf4jnsgd1na2vs0mg"},{"bike_id":"22d07550-0006-4510-b7cb-a08d3a3695a0","system_id":"levelo_inurba_marseille","lat":43.30544,"lon":5.38429,"is_reserved":false,"is_disabled":false,"rental_uris":{"android":"levelo://app?vid=22d07550-0006-4510-b7cb-a08d3a3695a0","ios":"levelo://app?vid=22d07550-0006-4510-b7cb-a08d3a3695a0"},"vehicle_type_id":"4","last_reported":1721758248,"current_range_meters":0,"station_id":"ce4bgg92rcd13ifvqb30","pricing_plan_id":"cebpf4jnsgd1na2vs0mg"},{"bike_id":"c35b388e-e3c9-4fcc-91b7-5672aa48325d","system_id":"levelo_inurba_marseille","lat":43.32293,"lon":5.38255,"is_reserved":false,"is_disabled":false,"rental_uris":{"android":"levelo://app?vid=c35b388e-e3c9-4fcc-91b7-5672aa48325d","ios":"levelo://app?vid=c35b388e-e3c9-4fcc-91b7-5672aa48325d"},"vehicle_type_id":"4","last_reported":1721758248,"current_range_meters":22800,"station_id":"ce4bhr12rcd13ifvqhqg","pricing_plan_id":"cebpf4jnsgd1na2vs0mg"},{"bike_id":"0a84eaee-49fa-46b4-a738-5a7e1392f707","system_id":"levelo_inurba_marseille","lat":43.296129,"lon":5.370777,"is_reserved":false,"is_disabled":false,"rental_uris":{"android":"levelo://app?vid=0a84eaee-49fa-46b4-a738-5a7e1392f707","ios":"levelo://app?vid=0a84eaee-49fa-46b4-a738-5a7e1392f707"},"vehicle_type_id":"4","last_reported":1721758248,"current_range_meters":23600,"station_id":"ce4bgnh2rcd13ifvqc0g","pricing_plan_id":"cebpf4jnsgd1na2vs0mg"},{"bike_id":"8ef9f8ef-6f77-4193-ba40-2fe9859f7256","system_id":"levelo_inurba_marseille","lat":43.309589,"lon":5.390258,"is_reserved":false,"is_disabled":false,"rental_uris":{"android":"levelo://app?vid=8ef9f8ef-6f77-4193-ba40-2fe9859f7256","ios":"levelo://app?vid=8ef9f8ef-6f77-4193-ba40-2fe9859f7256"},"vehicle_type_id":"4","last_reported":1721758248,"current_range_meters":24000,"station_id":"ce4bgup2rcd13ifvqco0","pricing_plan_id":"cebpf4jnsgd1na2vs0mg"},{"bike_id":"f03fac57-405e-46f7-bb35-c0d316f7bb9b","system_id":"levelo_inurba_marseille","lat":43.309589,"lon":5.390258,"is_reserved":false,"is_disabled":false,"rental_uris":{"android":"levelo://app?vid=f03fac57-405e-46f7-bb35-c0d316f7bb9b","ios":"levelo://app?vid=f03fac57-405e-46f7-bb35-c0d316f7bb9b"},"vehicle_type_id":"4","last_reported":1721758248,"current_range_meters":4800,"station_id":"ce4bgup2rcd13ifvqco0","pricing_plan_id":"cebpf4jnsgd1na2vs0mg"},{"bike_id":"a530b643-d21f-460c-ba46-68414a65a8cd","system_id":"levelo_inurba_marseille","lat":43.309589,"lon":5.390258,"is_reserved":false,"is_disabled":false,"rental_uris":{"android":"levelo://app?vid=a530b643-d21f-460c-ba46-68414a65a8cd","ios":"levelo://app?vid=a530b643-d21f-460c-ba46-68414a65a8cd"},"vehicle_type_id":"4","last_reported":1721758248,"current_range_meters":1600,"station_id":"ce4bgup2rcd13ifvqco0","pricing_plan_id":"cebpf4jnsgd1na2vs0mg"},{"bike_id":"e7943007-dc52-477e-b27e-c0ad87834041","system_id":"levelo_inurba_marseille","lat":43.317557,"lon":5.390173,"is_reserved":false,"is_disabled":false,"rental_uris":{"android":"levelo://app?vid=e7943007-dc52-477e-b27e-c0ad87834041","ios":"levelo://app?vid=e7943007-dc52-477e-b27e-c0ad87834041"},"vehicle_type_id":"4","last_reported":1721758248,"current_range_meters":0,"station_id":"ce4bhqp2rcd13ifvqhng","pricing_plan_id":"cebpf4jnsgd1na2vs0mg"},{"bike_id":"f72d71ea-6676-4ad7-bad4-b87dbd272c0f","system_id":"levelo_inurba_marseille","lat":43.317557,"lon":5.390173,"is_reserved":false,"is_disabled":false,"rental_uris":{"android":"levelo://app?vid=f72d71ea-6676-4ad7-bad4-b87dbd272c0f","ios":"levelo://app?vid=f72d71ea-6676-4ad7-bad4-b87dbd272c0f"},"vehicle_type_id":"4","last_reported":1721758248,"current_range_meters":11200,"station_id":"ce4bhqp2rcd13ifvqhng","pricing_plan_id":"cebpf4jnsgd1na2vs0mg"},{"bike_id":"a67a010c-24c3-4b96-8b25-3d4643c4db0b","system_id":"levelo_inurba_marseille","lat":43.31758,"lon":5.39011,"is_reserved":false,"is_disabled":false,"rental_uris":{"android":"levelo://app?vid=a67a010c-24c3-4b96-8b25-3d4643c4db0b","ios":"levelo://app?vid=a67a010c-24c3-4b96-8b25-3d4643c4db0b"},"vehicle_type_id":"4","last_reported":1721758248,"current_range_meters":14400,"station_id":"ce4bhqp2rcd13ifvqhng","pricing_plan_id":"cebpf4jnsgd1na2vs0mg"},{"bike_id":"aca6ff4b-cf49-4355-b206-ecc2d3da5149","system_id":"levelo_inurba_marseille","lat":43.31755,"lon":5.39015,"is_reserved":false,"is_disabled":false,"rental_uris":{"android":"levelo://app?vid=aca6ff4b-cf49-4355-b206-ecc2d3da5149","ios":"levelo://app?vid=aca6ff4b-cf49-4355-b206-ecc2d3da5149"},"vehicle_type_id":"4","last_reported":1721758248,"current_range_meters":4000,"station_id":"ce4bhqp2rcd13ifvqhng","pricing_plan_id":"cebpf4jnsgd1na2vs0mg"},{"bike_id":"160d1f3f-4cbe-4d1c-b9d0-13adacd0d8f3","system_id":"levelo_inurba_marseille","lat":43.317557,"lon":5.390173,"is_reserved":false,"is_disabled":false,"rental_uris":{"android":"levelo://app?vid=160d1f3f-4cbe-4d1c-b9d0-13adacd0d8f3","ios":"levelo://app?vid=160d1f3f-4cbe-4d1c-b9d0-13adacd0d8f3"},"vehicle_type_id":"4","last_reported":1721758248,"current_range_meters":11600,"station_id":"ce4bhqp2rcd13ifvqhng","pricing_plan_id":"cebpf4jnsgd1na2vs0mg"},{"bike_id":"9f812e3e-7baa-4f90-bb61-d5544d855ad0","system_id":"levelo_inurba_marseille","lat":43.317557,"lon":5.390173,"is_reserved":false,"is_disabled":false,"rental_uris":{"android":"levelo://app?vid=9f812e3e-7baa-4f90-bb61-d5544d855ad0","ios":"levelo://app?vid=9f812e3e-7baa-4f90-bb61-d5544d855ad0"},"vehicle_type_id":"4","last_reported":1721758248,"current_range_meters":6800,"station_id":"ce4bhqp2rcd13ifvqhng","pricing_plan_id":"cebpf4jnsgd1na2vs0mg"},{"bike_id":"3b49cf1b-dea9-4a15-84c6-9510e941655a","system_id":"levelo_inurba_marseille","lat":43.31654,"lon":5.39056,"is_reserved":false,"is_disabled":false,"rental_uris":{"android":"levelo://app?vid=3b49cf1b-dea9-4a15-84c6-9510e941655a","ios":"levelo://app?vid=3b49cf1b-dea9-4a15-84c6-9510e941655a"},"vehicle_type_id":"4","last_reported":1721758248,"current_range_meters":12800,"station_id":"ce4bgth2rcd13ifvqch0","pricing_plan_id":"cebpf4jnsgd1na2vs0mg"},{"bike_id":"b6de3f77-cbf7-4659-835c-a4dfd4824429","system_id":"levelo_inurba_marseille","lat":43.298037,"lon":5.381066,"is_reserved":false,"is_disabled":false,"rental_uris":{"android":"levelo://app?vid=b6de3f77-cbf7-4659-835c-a4dfd4824429","ios":"levelo://app?vid=b6de3f77-cbf7-4659-835c-a4dfd4824429"},"vehicle_type_id":"4","last_reported":1721758248,"current_range_meters":0,"station_id":"ce4bgip2rcd13ifvqbb0","pricing_plan_id":"cebpf4jnsgd1na2vs0mg"},{"bike_id":"5c55d08a-3fa0-433f-ba5c-27db11c15e02","system_id":"levelo_inurba_marseille","lat":43.304274,"lon":5.388873,"is_reserved":false,"is_disabled":false,"rental_uris":{"android":"levelo://app?vid=5c55d08a-3fa0-433f-ba5c-27db11c15e02","ios":"levelo://app?vid=5c55d08a-3fa0-433f-ba5c-27db11c15e02"},"vehicle_type_id":"4","last_reported":1721758248,"current_range_meters":0,"station_id":"ce4bgk12rcd13ifvqbi0","pricing_plan_id":"cebpf4jnsgd1na2vs0mg"},{"bike_id":"7949d036-d030-4b68-b510-cc3223da725f","system_id":"levelo_inurba_marseille","lat":43.299724,"lon":5.384848,"is_reserved":false,"is_disabled":false,"rental_uris":{"android":"levelo://app?vid=7949d036-d030-4b68-b510-cc3223da725f","ios":"levelo://app?vid=7949d036-d030-4b68-b510-cc3223da725f"},"vehicle_type_id":"4","last_reported":1721758248,"current_range_meters":26400,"station_id":"ce4bgj92rcd13ifvqbd0","pricing_plan_id":"cebpf4jnsgd1na2vs0mg"},{"bike_id":"9bcc17f8-096f-40db-8553-1359c5a2bdf9","system_id":"levelo_inurba_marseille","lat":43.299724,"lon":5.384848,"is_reserved":false,"is_disabled":false,"rental_uris":{"android":"levelo://app?vid=9bcc17f8-096f-40db-8553-1359c5a2bdf9","ios":"levelo://app?vid=9bcc17f8-096f-40db-8553-1359c5a2bdf9"},"vehicle_type_id":"4","last_reported":1721758248,"current_range_meters":0,"station_id":"ce4bgj92rcd13ifvqbd0","pricing_plan_id":"cebpf4jnsgd1na2vs0mg"},{"bike_id":"3748e580-4673-47ce-adc0-2e3dccf6ebeb","system_id":"levelo_inurba_marseille","lat":43.32816,"lon":5.38111,"is_reserved":false,"is_disabled":false,"rental_uris":{"android":"levelo://app?vid=3748e580-4673-47ce-adc0-2e3dccf6ebeb","ios":"levelo://app?vid=3748e580-4673-47ce-adc0-2e3dccf6ebeb"},"vehicle_type_id":"4","last_reported":1721758248,"current_range_meters":16000,"station_id":"","pricing_plan_id":"cebpf4jnsgd1na2vs0mg"},{"bike_id":"c722772c-e7ac-4cde-bbba-f2a42aa11f3a","system_id":"levelo_inurba_marseille","lat":43.30135,"lon":5.38767,"is_reserved":false,"is_disabled":false,"rental_uris":{"android":"levelo://app?vid=c722772c-e7ac-4cde-bbba-f2a42aa11f3a","ios":"levelo://app?vid=c722772c-e7ac-4cde-bbba-f2a42aa11f3a"},"vehicle_type_id":"4","last_reported":1721758248,"current_range_meters":0,"station_id":"ce4bghh2rcd13ifvqb60","pricing_plan_id":"cebpf4jnsgd1na2vs0mg"},{"bike_id":"50a93009-1d2d-460d-95f9-26dd6202d6e7","system_id":"levelo_inurba_marseille","lat":43.30142,"lon":5.38777,"is_reserved":false,"is_disabled":false,"rental_uris":{"android":"levelo://app?vid=50a93009-1d2d-460d-95f9-26dd6202d6e7","ios":"levelo://app?vid=50a93009-1d2d-460d-95f9-26dd6202d6e7"},"vehicle_type_id":"4","last_reported":1721758248,"current_range_meters":0,"station_id":"ce4bghh2rcd13ifvqb60","pricing_plan_id":"cebpf4jnsgd1na2vs0mg"},{"bike_id":"61340c51-97c9-40d0-971f-bfe81420b7f5","system_id":"levelo_inurba_marseille","lat":43.299707,"lon":5.384859,"is_reserved":false,"is_disabled":false,"rental_uris":{"android":"levelo://app?vid=61340c51-97c9-40d0-971f-bfe81420b7f5","ios":"levelo://app?vid=61340c51-97c9-40d0-971f-bfe81420b7f5"},"vehicle_type_id":"4","last_reported":1721758248,"current_range_meters":1600,"station_id":"ce4bgj92rcd13ifvqbd0","pricing_plan_id":"cebpf4jnsgd1na2vs0mg"},{"bike_id":"a392ac18-f782-4d17-996a-c99b36e017c2","system_id":"levelo_inurba_marseille","lat":43.32721,"lon":5.38436,"is_reserved":false,"is_disabled":false,"rental_uris":{"android":"levelo://app?vid=a392ac18-f782-4d17-996a-c99b36e017c2","ios":"levelo://app?vid=a392ac18-f782-4d17-996a-c99b36e017c2"},"vehicle_type_id":"4","last_reported":1721758248,"current_range_meters":2400,"station_id":"","pricing_plan_id":"cebpf4jnsgd1na2vs0mg"},{"bike_id":"718ff045-0ae7-44ae-a3d3-07712123c02b","system_id":"levelo_inurba_marseille","lat":43.32367,"lon":5.388836,"is_reserved":false,"is_disabled":false,"rental_uris":{"android":"levelo://app?vid=718ff045-0ae7-44ae-a3d3-07712123c02b","ios":"levelo://app?vid=718ff045-0ae7-44ae-a3d3-07712123c02b"},"vehicle_type_id":"4","last_reported":1721758248,"current_range_meters":5600,"station_id":"ce4bhqp2rcd13ifvqhog","pricing_plan_id":"cebpf4jnsgd1na2vs0mg"},{"bike_id":"1feb69a3-79e4-4c21-a175-abb0e1a05570","system_id":"levelo_inurba_marseille","lat":43.32748,"lon":5.38449,"is_reserved":false,"is_disabled":false,"rental_uris":{"android":"levelo://app?vid=1feb69a3-79e4-4c21-a175-abb0e1a05570","ios":"levelo://app?vid=1feb69a3-79e4-4c21-a175-abb0e1a05570"},"vehicle_type_id":"4","last_reported":1721758248,"current_range_meters":4400,"station_id":"","pricing_plan_id":"cebpf4jnsgd1na2vs0mg"},{"bike_id":"0a6cf5af-679e-4834-b6ff-564f2331a70f","system_id":"levelo_inurba_marseille","lat":43.29599,"lon":5.38108,"is_reserved":false,"is_disabled":false,"rental_uris":{"android":"levelo://app?vid=0a6cf5af-679e-4834-b6ff-564f2331a70f","ios":"levelo://app?vid=0a6cf5af-679e-4834-b6ff-564f2331a70f"},"vehicle_type_id":"4","last_reported":1721758248,"current_range_meters":0,"station_id":"ce4bgl12rcd13ifvqbo0","pricing_plan_id":"cebpf4jnsgd1na2vs0mg"},{"bike_id":"144aa3a4-b2fc-4bc2-bd63-da0ce8e1b313","system_id":"levelo_inurba_marseille","lat":43.330442,"lon":5.389148,"is_reserved":false,"is_disabled":false,"rental_uris":{"android":"levelo://app?vid=144aa3a4-b2fc-4bc2-bd63-da0ce8e1b313","ios":"levelo://app?vid=144aa3a4-b2fc-4bc2-bd63-da0ce8e1b313"},"vehicle_type_id":"4","last_reported":1721758248,"current_range_meters":8400,"station_id":"ce4bhr92rcd13ifvqhrg","pricing_plan_id":"cebpf4jnsgd1na2vs0mg"},{"bike_id":"08f24a50-51f4-44dc-97b7-f9c932235974","system_id":"levelo_inurba_marseille","lat":43.293259,"lon":5.371586,"is_reserved":false,"is_disabled":false,"rental_uris":{"android":"levelo://app?vid=08f24a50-51f4-44dc-97b7-f9c932235974","ios":"levelo://app?vid=08f24a50-51f4-44dc-97b7-f9c932235974"},"vehicle_type_id":"4","last_reported":1721758248,"current_range_meters":11200,"station_id":"ce4bgh92rcd13ifvqb40","pricing_plan_id":"cebpf4jnsgd1na2vs0mg"},{"bike_id":"6a6dce79-79ed-44e0-8c46-21bb5e705197","system_id":"levelo_inurba_marseille","lat":43.293259,"lon":5.371586,"is_reserved":false,"is_disabled":false,"rental_uris":{"android":"levelo://app?vid=6a6dce79-79ed-44e0-8c46-21bb5e705197","ios":"levelo://app?vid=6a6dce79-79ed-44e0-8c46-21bb5e705197"},"vehicle_type_id":"4","last_reported":1721758248,"current_range_meters":8400,"station_id":"ce4bgh92rcd13ifvqb40","pricing_plan_id":"cebpf4jnsgd1na2vs0mg"},{"bike_id":"b2172450-6ad5-4d55-b4cf-cc17c57b8504","system_id":"levelo_inurba_marseille","lat":43.293259,"lon":5.371586,"is_reserved":false,"is_disabled":false,"rental_uris":{"android":"levelo://app?vid=b2172450-6ad5-4d55-b4cf-cc17c57b8504","ios":"levelo://app?vid=b2172450-6ad5-4d55-b4cf-cc17c57b8504"},"vehicle_type_id":"4","last_reported":1721758248,"current_range_meters":6800,"station_id":"ce4bgh92rcd13ifvqb40","pricing_plan_id":"cebpf4jnsgd1na2vs0mg"},{"bike_id":"89505c77-f9b7-49f0-9713-7e584e9b2388","system_id":"levelo_inurba_marseille","lat":43.29272,"lon":5.36838,"is_reserved":false,"is_disabled":false,"rental_uris":{"android":"levelo://app?vid=89505c77-f9b7-49f0-9713-7e584e9b2388","ios":"levelo://app?vid=89505c77-f9b7-49f0-9713-7e584e9b2388"},"vehicle_type_id":"4","last_reported":1721758248,"current_range_meters":0,"station_id":"ce4bhbp2rcd13ifvqesg","pricing_plan_id":"cebpf4jnsgd1na2vs0mg"},{"bike_id":"ffd6ea5c-8334-4d5b-bf2c-69b53abaa6f2","system_id":"levelo_inurba_marseille","lat":43.29271,"lon":5.36835,"is_reserved":false,"is_disabled":false,"rental_uris":{"android":"levelo://app?vid=ffd6ea5c-8334-4d5b-bf2c-69b53abaa6f2","ios":"levelo://app?vid=ffd6ea5c-8334-4d5b-bf2c-69b53abaa6f2"},"vehicle_type_id":"4","last_reported":1721758248,"current_range_meters":0,"station_id":"ce4bhbp2rcd13ifvqesg","pricing_plan_id":"cebpf4jnsgd1na2vs0mg"},{"bike_id":"cb659db9-7372-4650-9b40-5a7d3441e5d6","system_id":"levelo_inurba_marseille","lat":43.293009,"lon":5.374584,"is_reserved":false,"is_disabled":false,"rental_uris":{"android":"levelo://app?vid=cb659db9-7372-4650-9b40-5a7d3441e5d6","ios":"levelo://app?vid=cb659db9-7372-4650-9b40-5a7d3441e5d6"},"vehicle_type_id":"4","last_reported":1721758248,"current_range_meters":0,"station_id":"ce4bgi12rcd13ifvqb70","pricing_plan_id":"cebpf4jnsgd1na2vs0mg"},{"bike_id":"1dc0d092-1218-4eb0-a113-ace1d1c624e2","system_id":"levelo_inurba_marseille","lat":43.293009,"lon":5.374584,"is_reserved":false,"is_disabled":false,"rental_uris":{"android":"levelo://app?vid=1dc0d092-1218-4eb0-a113-ace1d1c624e2","ios":"levelo://app?vid=1dc0d092-1218-4eb0-a113-ace1d1c624e2"},"vehicle_type_id":"4","last_reported":1721758248,"current_range_meters":800,"station_id":"ce4bgi12rcd13ifvqb70","pricing_plan_id":"cebpf4jnsgd1na2vs0mg"},{"bike_id":"fbc0cb7c-f6b6-484b-9491-6358dbaa53e8","system_id":"levelo_inurba_marseille","lat":43.292311,"lon":5.360731,"is_reserved":false,"is_disabled":false,"rental_uris":{"android":"levelo://app?vid=fbc0cb7c-f6b6-484b-9491-6358dbaa53e8","ios":"levelo://app?vid=fbc0cb7c-f6b6-484b-9491-6358dbaa53e8"},"vehicle_type_id":"4","last_reported":1721758248,"current_range_meters":12400,"station_id":"ce4bhbh2rcd13ifvqeqg","pricing_plan_id":"cebpf4jnsgd1na2vs0mg"},{"bike_id":"5abef93a-a545-47f6-b7e2-2f2925917704","system_id":"levelo_inurba_marseille","lat":43.30085,"lon":5.390856,"is_reserved":false,"is_disabled":false,"rental_uris":{"android":"levelo://app?vid=5abef93a-a545-47f6-b7e2-2f2925917704","ios":"levelo://app?vid=5abef93a-a545-47f6-b7e2-2f2925917704"},"vehicle_type_id":"4","last_reported":1721758248,"current_range_meters":0,"station_id":"ce4bh192rcd13ifvqdb0","pricing_plan_id":"cebpf4jnsgd1na2vs0mg"},{"bike_id":"da881a2b-1041-468d-a4c2-6087e73afe56","system_id":"levelo_inurba_marseille","lat":43.29227,"lon":5.36048,"is_reserved":false,"is_disabled":false,"rental_uris":{"android":"levelo://app?vid=da881a2b-1041-468d-a4c2-6087e73afe56","ios":"levelo://app?vid=da881a2b-1041-468d-a4c2-6087e73afe56"},"vehicle_type_id":"4","last_reported":1721758248,"current_range_meters":31200,"station_id":"ce4bhbh2rcd13ifvqeqg","pricing_plan_id":"cebpf4jnsgd1na2vs0mg"},{"bike_id":"5855e607-6cb0-425a-a4ff-a9e0a4c0a1d8","system_id":"levelo_inurba_marseille","lat":43.292311,"lon":5.360731,"is_reserved":false,"is_disabled":false,"rental_uris":{"android":"levelo://app?vid=5855e607-6cb0-425a-a4ff-a9e0a4c0a1d8","ios":"levelo://app?vid=5855e607-6cb0-425a-a4ff-a9e0a4c0a1d8"},"vehicle_type_id":"4","last_reported":1721758248,"current_range_meters":18400,"station_id":"ce4bhbh2rcd13ifvqeqg","pricing_plan_id":"cebpf4jnsgd1na2vs0mg"},{"bike_id":"c986fee6-828b-4d4a-9879-07810578df90","system_id":"levelo_inurba_marseille","lat":43.30085,"lon":5.390856,"is_reserved":false,"is_disabled":false,"rental_uris":{"android":"levelo://app?vid=c986fee6-828b-4d4a-9879-07810578df90","ios":"levelo://app?vid=c986fee6-828b-4d4a-9879-07810578df90"},"vehicle_type_id":"4","last_reported":1721758248,"current_range_meters":0,"station_id":"ce4bh192rcd13ifvqdb0","pricing_plan_id":"cebpf4jnsgd1na2vs0mg"},{"bike_id":"4c304b22-cbf9-4bc0-b392-b8cd15af885d","system_id":"levelo_inurba_marseille","lat":43.298764,"lon":5.388973,"is_reserved":false,"is_disabled":false,"rental_uris":{"android":"levelo://app?vid=4c304b22-cbf9-4bc0-b392-b8cd15af885d","ios":"levelo://app?vid=4c304b22-cbf9-4bc0-b392-b8cd15af885d"},"vehicle_type_id":"4","last_reported":1721758248,"current_range_meters":11600,"station_id":"ce4bh392rcd13ifvqdl0","pricing_plan_id":"cebpf4jnsgd1na2vs0mg"},{"bike_id":"63b25c3b-31cb-4bfc-afe0-dc321f66dfc6","system_id":"levelo_inurba_marseille","lat":43.292005,"lon":5.357875,"is_reserved":false,"is_disabled":false,"rental_uris":{"android":"levelo://app?vid=63b25c3b-31cb-4bfc-afe0-dc321f66dfc6","ios":"levelo://app?vid=63b25c3b-31cb-4bfc-afe0-dc321f66dfc6"},"vehicle_type_id":"4","last_reported":1721758248,"current_range_meters":0,"station_id":"ce4bhb12rcd13ifvqel0","pricing_plan_id":"cebpf4jnsgd1na2vs0mg"},{"bike_id":"150cd4af-f87f-4a38-a7b0-88cd4188aafb","system_id":"levelo_inurba_marseille","lat":43.291994,"lon":5.357886,"is_reserved":false,"is_disabled":false,"rental_uris":{"android":"levelo://app?vid=150cd4af-f87f-4a38-a7b0-88cd4188aafb","ios":"levelo://app?vid=150cd4af-f87f-4a38-a7b0-88cd4188aafb"},"vehicle_type_id":"4","last_reported":1721758248,"current_range_meters":18000,"station_id":"ce4bhb12rcd13ifvqel0","pricing_plan_id":"cebpf4jnsgd1na2vs0mg"},{"bike_id":"0d8b3cb6-8bcd-452b-b1c9-77264c4dc78e","system_id":"levelo_inurba_marseille","lat":43.291994,"lon":5.357886,"is_reserved":false,"is_disabled":false,"rental_uris":{"android":"levelo://app?vid=0d8b3cb6-8bcd-452b-b1c9-77264c4dc78e","ios":"levelo://app?vid=0d8b3cb6-8bcd-452b-b1c9-77264c4dc78e"},"vehicle_type_id":"4","last_reported":1721758248,"current_range_meters":4800,"station_id":"ce4bhb12rcd13ifvqel0","pricing_plan_id":"cebpf4jnsgd1na2vs0mg"},{"bike_id":"370d7403-864d-4581-b49a-26ef3b01f51f","system_id":"levelo_inurba_marseille","lat":43.309047,"lon":5.396551,"is_reserved":false,"is_disabled":false,"rental_uris":{"android":"levelo://app?vid=370d7403-864d-4581-b49a-26ef3b01f51f","ios":"levelo://app?vid=370d7403-864d-4581-b49a-26ef3b01f51f"},"vehicle_type_id":"4","last_reported":1721758248,"current_range_meters":22800,"station_id":"ce4bh012rcd13ifvqcv0","pricing_plan_id":"cebpf4jnsgd1na2vs0mg"},{"bike_id":"4657ea07-7578-41f4-ae36-cab90986ab72","system_id":"levelo_inurba_marseille","lat":43.291994,"lon":5.357886,"is_reserved":false,"is_disabled":false,"rental_uris":{"android":"levelo://app?vid=4657ea07-7578-41f4-ae36-cab90986ab72","ios":"levelo://app?vid=4657ea07-7578-41f4-ae36-cab90986ab72"},"vehicle_type_id":"4","last_reported":1721758248,"current_range_meters":1600,"station_id":"ce4bhb12rcd13ifvqel0","pricing_plan_id":"cebpf4jnsgd1na2vs0mg"},{"bike_id":"ca18d6df-e51d-414c-b49b-20ba4c09661d","system_id":"levelo_inurba_marseille","lat":43.292005,"lon":5.357875,"is_reserved":false,"is_disabled":false,"rental_uris":{"android":"levelo://app?vid=ca18d6df-e51d-414c-b49b-20ba4c09661d","ios":"levelo://app?vid=ca18d6df-e51d-414c-b49b-20ba4c09661d"},"vehicle_type_id":"4","last_reported":1721758248,"current_range_meters":4400,"station_id":"ce4bhb12rcd13ifvqel0","pricing_plan_id":"cebpf4jnsgd1na2vs0mg"},{"bike_id":"3e3ab352-3d79-4dc7-b291-2133c5958920","system_id":"levelo_inurba_marseille","lat":43.313291,"lon":5.396838,"is_reserved":false,"is_disabled":false,"rental_uris":{"android":"levelo://app?vid=3e3ab352-3d79-4dc7-b291-2133c5958920","ios":"levelo://app?vid=3e3ab352-3d79-4dc7-b291-2133c5958920"},"vehicle_type_id":"4","last_reported":1721758248,"current_range_meters":0,"station_id":"ce4bgvp2rcd13ifvqcu0","pricing_plan_id":"cebpf4jnsgd1na2vs0mg"},{"bike_id":"0b029255-95ac-44ee-aee1-75a83ac448b3","system_id":"levelo_inurba_marseille","lat":43.313291,"lon":5.396838,"is_reserved":false,"is_disabled":false,"rental_uris":{"android":"levelo://app?vid=0b029255-95ac-44ee-aee1-75a83ac448b3","ios":"levelo://app?vid=0b029255-95ac-44ee-aee1-75a83ac448b3"},"vehicle_type_id":"4","last_reported":1721758248,"current_range_meters":0,"station_id":"ce4bgvp2rcd13ifvqcu0","pricing_plan_id":"cebpf4jnsgd1na2vs0mg"},{"bike_id":"a7f1cace-d77b-49ff-b8bc-f88aa2617183","system_id":"levelo_inurba_marseille","lat":43.313291,"lon":5.396838,"is_reserved":false,"is_disabled":false,"rental_uris":{"android":"levelo://app?vid=a7f1cace-d77b-49ff-b8bc-f88aa2617183","ios":"levelo://app?vid=a7f1cace-d77b-49ff-b8bc-f88aa2617183"},"vehicle_type_id":"4","last_reported":1721758248,"current_range_meters":11600,"station_id":"ce4bgvp2rcd13ifvqcu0","pricing_plan_id":"cebpf4jnsgd1na2vs0mg"},{"bike_id":"a4c13f3b-5ee8-4650-81d2-056356aee49b","system_id":"levelo_inurba_marseille","lat":43.313291,"lon":5.396838,"is_reserved":false,"is_disabled":false,"rental_uris":{"android":"levelo://app?vid=a4c13f3b-5ee8-4650-81d2-056356aee49b","ios":"levelo://app?vid=a4c13f3b-5ee8-4650-81d2-056356aee49b"},"vehicle_type_id":"4","last_reported":1721758248,"current_range_meters":0,"station_id":"ce4bgvp2rcd13ifvqcu0","pricing_plan_id":"cebpf4jnsgd1na2vs0mg"},{"bike_id":"cf3df9bf-1e94-4337-a2b1-aece169f7dd7","system_id":"levelo_inurba_marseille","lat":43.313291,"lon":5.396838,"is_reserved":false,"is_disabled":false,"rental_uris":{"android":"levelo://app?vid=cf3df9bf-1e94-4337-a2b1-aece169f7dd7","ios":"levelo://app?vid=cf3df9bf-1e94-4337-a2b1-aece169f7dd7"},"vehicle_type_id":"4","last_reported":1721758248,"current_range_meters":12800,"station_id":"ce4bgvp2rcd13ifvqcu0","pricing_plan_id":"cebpf4jnsgd1na2vs0mg"},{"bike_id":"3895a07c-9b82-407b-8e2d-59f151672304","system_id":"levelo_inurba_marseille","lat":43.291994,"lon":5.357886,"is_reserved":false,"is_disabled":false,"rental_uris":{"android":"levelo://app?vid=3895a07c-9b82-407b-8e2d-59f151672304","ios":"levelo://app?vid=3895a07c-9b82-407b-8e2d-59f151672304"},"vehicle_type_id":"4","last_reported":1721758248,"current_range_meters":0,"station_id":"ce4bhb12rcd13ifvqel0","pricing_plan_id":"cebpf4jnsgd1na2vs0mg"},{"bike_id":"ee13b5eb-dd01-4529-8fe8-22404b054d9e","system_id":"levelo_inurba_marseille","lat":43.309047,"lon":5.396551,"is_reserved":false,"is_disabled":false,"rental_uris":{"android":"levelo://app?vid=ee13b5eb-dd01-4529-8fe8-22404b054d9e","ios":"levelo://app?vid=ee13b5eb-dd01-4529-8fe8-22404b054d9e"},"vehicle_type_id":"4","last_reported":1721758248,"current_range_meters":0,"station_id":"ce4bh012rcd13ifvqcv0","pricing_plan_id":"cebpf4jnsgd1na2vs0mg"},{"bike_id":"749524e8-fa11-4264-88f3-0de26eae3695","system_id":"levelo_inurba_marseille","lat":43.29529,"lon":5.385581,"is_reserved":false,"is_disabled":false,"rental_uris":{"android":"levelo://app?vid=749524e8-fa11-4264-88f3-0de26eae3695","ios":"levelo://app?vid=749524e8-fa11-4264-88f3-0de26eae3695"},"vehicle_type_id":"4","last_reported":1721758248,"current_range_meters":14000,"station_id":"ce4bgih2rcd13ifvqba0","pricing_plan_id":"cebpf4jnsgd1na2vs0mg"},{"bike_id":"321342e3-3b29-477c-b0c0-cb92d7afe1da","system_id":"levelo_inurba_marseille","lat":43.29529,"lon":5.385581,"is_reserved":false,"is_disabled":false,"rental_uris":{"android":"levelo://app?vid=321342e3-3b29-477c-b0c0-cb92d7afe1da","ios":"levelo://app?vid=321342e3-3b29-477c-b0c0-cb92d7afe1da"},"vehicle_type_id":"4","last_reported":1721758248,"current_range_meters":0,"station_id":"ce4bgih2rcd13ifvqba0","pricing_plan_id":"cebpf4jnsgd1na2vs0mg"},{"bike_id":"7b17e1ec-ba7f-4469-b7be-0a9348ed7a54","system_id":"levelo_inurba_marseille","lat":43.29529,"lon":5.385581,"is_reserved":false,"is_disabled":false,"rental_uris":{"android":"levelo://app?vid=7b17e1ec-ba7f-4469-b7be-0a9348ed7a54","ios":"levelo://app?vid=7b17e1ec-ba7f-4469-b7be-0a9348ed7a54"},"vehicle_type_id":"4","last_reported":1721758248,"current_range_meters":23200,"station_id":"ce4bgih2rcd13ifvqba0","pricing_plan_id":"cebpf4jnsgd1na2vs0mg"},{"bike_id":"dc4c7481-7874-40a9-b6e4-241af02f42e9","system_id":"levelo_inurba_marseille","lat":43.29529,"lon":5.385581,"is_reserved":false,"is_disabled":false,"rental_uris":{"android":"levelo://app?vid=dc4c7481-7874-40a9-b6e4-241af02f42e9","ios":"levelo://app?vid=dc4c7481-7874-40a9-b6e4-241af02f42e9"},"vehicle_type_id":"4","last_reported":1721758248,"current_range_meters":4800,"station_id":"ce4bgih2rcd13ifvqba0","pricing_plan_id":"cebpf4jnsgd1na2vs0mg"},{"bike_id":"44b726c5-869b-4619-bc72-f3d12e8aaf30","system_id":"levelo_inurba_marseille","lat":43.309038,"lon":5.396546,"is_reserved":false,"is_disabled":false,"rental_uris":{"android":"levelo://app?vid=44b726c5-869b-4619-bc72-f3d12e8aaf30","ios":"levelo://app?vid=44b726c5-869b-4619-bc72-f3d12e8aaf30"},"vehicle_type_id":"4","last_reported":1721758248,"current_range_meters":14000,"station_id":"ce4bh012rcd13ifvqcv0","pricing_plan_id":"cebpf4jnsgd1na2vs0mg"},{"bike_id":"fd773ab6-c2a7-42a7-acc5-d248b73b9aa5","system_id":"levelo_inurba_marseille","lat":43.290779,"lon":5.371482,"is_reserved":false,"is_disabled":false,"rental_uris":{"android":"levelo://app?vid=fd773ab6-c2a7-42a7-acc5-d248b73b9aa5","ios":"levelo://app?vid=fd773ab6-c2a7-42a7-acc5-d248b73b9aa5"},"vehicle_type_id":"4","last_reported":1721758248,"current_range_meters":0,"station_id":"ce4bh5p2rcd13ifvqe4g","pricing_plan_id":"cebpf4jnsgd1na2vs0mg"},{"bike_id":"fe2fa2bb-a1f8-44a8-84a7-f8b369f27b2b","system_id":"levelo_inurba_marseille","lat":43.290779,"lon":5.371482,"is_reserved":false,"is_disabled":false,"rental_uris":{"android":"levelo://app?vid=fe2fa2bb-a1f8-44a8-84a7-f8b369f27b2b","ios":"levelo://app?vid=fe2fa2bb-a1f8-44a8-84a7-f8b369f27b2b"},"vehicle_type_id":"4","last_reported":1721758248,"current_range_meters":7200,"station_id":"ce4bh5p2rcd13ifvqe4g","pricing_plan_id":"cebpf4jnsgd1na2vs0mg"},{"bike_id":"3d1216ba-47f9-41db-8280-ac3518c3f2da","system_id":"levelo_inurba_marseille","lat":43.290624,"lon":5.359245,"is_reserved":false,"is_disabled":false,"rental_uris":{"android":"levelo://app?vid=3d1216ba-47f9-41db-8280-ac3518c3f2da","ios":"levelo://app?vid=3d1216ba-47f9-41db-8280-ac3518c3f2da"},"vehicle_type_id":"4","last_reported":1721758248,"current_range_meters":16400,"station_id":"ce4bha92rcd13ifvqeg0","pricing_plan_id":"cebpf4jnsgd1na2vs0mg"},{"bike_id":"c6b01c6e-4199-4dbf-bd8a-505c4e3abbb9","system_id":"levelo_inurba_marseille","lat":43.31448,"lon":5.398294,"is_reserved":false,"is_disabled":false,"rental_uris":{"android":"levelo://app?vid=c6b01c6e-4199-4dbf-bd8a-505c4e3abbb9","ios":"levelo://app?vid=c6b01c6e-4199-4dbf-bd8a-505c4e3abbb9"},"vehicle_type_id":"4","last_reported":1721758248,"current_range_meters":14400,"station_id":"","pricing_plan_id":"cebpf4jnsgd1na2vs0mg"},{"bike_id":"2af206d2-55ff-4af6-a2a7-c2bc461ebb28","system_id":"levelo_inurba_marseille","lat":43.290624,"lon":5.359245,"is_reserved":false,"is_disabled":false,"rental_uris":{"android":"levelo://app?vid=2af206d2-55ff-4af6-a2a7-c2bc461ebb28","ios":"levelo://app?vid=2af206d2-55ff-4af6-a2a7-c2bc461ebb28"},"vehicle_type_id":"4","last_reported":1721758248,"current_range_meters":2400,"station_id":"ce4bha92rcd13ifvqeg0","pricing_plan_id":"cebpf4jnsgd1na2vs0mg"},{"bike_id":"90f2e3d0-5c01-4e3e-a15d-646a1e461ff6","system_id":"levelo_inurba_marseille","lat":43.294153,"lon":5.386305,"is_reserved":false,"is_disabled":false,"rental_uris":{"android":"levelo://app?vid=90f2e3d0-5c01-4e3e-a15d-646a1e461ff6","ios":"levelo://app?vid=90f2e3d0-5c01-4e3e-a15d-646a1e461ff6"},"vehicle_type_id":"4","last_reported":1721758248,"current_range_meters":4400,"station_id":"ce4bh2h2rcd13ifvqdh0","pricing_plan_id":"cebpf4jnsgd1na2vs0mg"},{"bike_id":"7e4fd97a-cec3-446d-9265-6ef074dd26ef","system_id":"levelo_inurba_marseille","lat":43.28948,"lon":5.36638,"is_reserved":false,"is_disabled":false,"rental_uris":{"android":"levelo://app?vid=7e4fd97a-cec3-446d-9265-6ef074dd26ef","ios":"levelo://app?vid=7e4fd97a-cec3-446d-9265-6ef074dd26ef"},"vehicle_type_id":"4","last_reported":1721758248,"current_range_meters":0,"station_id":"ce4bhap2rcd13ifvqek0","pricing_plan_id":"cebpf4jnsgd1na2vs0mg"},{"bike_id":"f202f823-890f-49cf-8714-371a86184f3b","system_id":"levelo_inurba_marseille","lat":43.294162,"lon":5.386292,"is_reserved":false,"is_disabled":false,"rental_uris":{"android":"levelo://app?vid=f202f823-890f-49cf-8714-371a86184f3b","ios":"levelo://app?vid=f202f823-890f-49cf-8714-371a86184f3b"},"vehicle_type_id":"4","last_reported":1721758248,"current_range_meters":800,"station_id":"ce4bh2h2rcd13ifvqdh0","pricing_plan_id":"cebpf4jnsgd1na2vs0mg"},{"bike_id":"d71fb973-6337-440a-a3a4-9cb6de898b77","system_id":"levelo_inurba_marseille","lat":43.28946,"lon":5.36634,"is_reserved":false,"is_disabled":false,"rental_uris":{"android":"levelo://app?vid=d71fb973-6337-440a-a3a4-9cb6de898b77","ios":"levelo://app?vid=d71fb973-6337-440a-a3a4-9cb6de898b77"},"vehicle_type_id":"4","last_reported":1721758248,"current_range_meters":14400,"station_id":"ce4bhap2rcd13ifvqek0","pricing_plan_id":"cebpf4jnsgd1na2vs0mg"},{"bike_id":"aac824ce-2004-4d3e-9e56-fd1369e0589d","system_id":"levelo_inurba_marseille","lat":43.294153,"lon":5.386305,"is_reserved":false,"is_disabled":false,"rental_uris":{"android":"levelo://app?vid=aac824ce-2004-4d3e-9e56-fd1369e0589d","ios":"levelo://app?vid=aac824ce-2004-4d3e-9e56-fd1369e0589d"},"vehicle_type_id":"4","last_reported":1721758248,"current_range_meters":15200,"station_id":"ce4bh2h2rcd13ifvqdh0","pricing_plan_id":"cebpf4jnsgd1na2vs0mg"},{"bike_id":"d6b978d4-84e0-44de-89c5-b2afba56e6a0","system_id":"levelo_inurba_marseille","lat":43.29529,"lon":5.385581,"is_reserved":false,"is_disabled":false,"rental_uris":{"android":"levelo://app?vid=d6b978d4-84e0-44de-89c5-b2afba56e6a0","ios":"levelo://app?vid=d6b978d4-84e0-44de-89c5-b2afba56e6a0"},"vehicle_type_id":"4","last_reported":1721758248,"current_range_meters":26000,"station_id":"ce4bgih2rcd13ifvqba0","pricing_plan_id":"cebpf4jnsgd1na2vs0mg"},{"bike_id":"4a398562-5070-4fce-b386-f59b616d1ad3","system_id":"levelo_inurba_marseille","lat":43.289437,"lon":5.36629,"is_reserved":false,"is_disabled":false,"rental_uris":{"android":"levelo://app?vid=4a398562-5070-4fce-b386-f59b616d1ad3","ios":"levelo://app?vid=4a398562-5070-4fce-b386-f59b616d1ad3"},"vehicle_type_id":"4","last_reported":1721758248,"current_range_meters":800,"station_id":"ce4bhap2rcd13ifvqek0","pricing_plan_id":"cebpf4jnsgd1na2vs0mg"},{"bike_id":"2d9fd20d-5b5d-4312-8b95-e5d9e24373f3","system_id":"levelo_inurba_marseille","lat":43.289184,"lon":5.366408,"is_reserved":false,"is_disabled":false,"rental_uris":{"android":"levelo://app?vid=2d9fd20d-5b5d-4312-8b95-e5d9e24373f3","ios":"levelo://app?vid=2d9fd20d-5b5d-4312-8b95-e5d9e24373f3"},"vehicle_type_id":"4","last_reported":1721758248,"current_range_meters":3600,"station_id":"ce4bhap2rcd13ifvqek0","pricing_plan_id":"cebpf4jnsgd1na2vs0mg"},{"bike_id":"8456a5c8-a761-454a-a96f-60fefab274c2","system_id":"levelo_inurba_marseille","lat":43.289184,"lon":5.366408,"is_reserved":false,"is_disabled":false,"rental_uris":{"android":"levelo://app?vid=8456a5c8-a761-454a-a96f-60fefab274c2","ios":"levelo://app?vid=8456a5c8-a761-454a-a96f-60fefab274c2"},"vehicle_type_id":"4","last_reported":1721758248,"current_range_meters":22800,"station_id":"ce4bhap2rcd13ifvqek0","pricing_plan_id":"cebpf4jnsgd1na2vs0mg"},{"bike_id":"bdb32e7f-51bf-487d-b276-f4a506f5af3b","system_id":"levelo_inurba_marseille","lat":43.289184,"lon":5.366408,"is_reserved":false,"is_disabled":false,"rental_uris":{"android":"levelo://app?vid=bdb32e7f-51bf-487d-b276-f4a506f5af3b","ios":"levelo://app?vid=bdb32e7f-51bf-487d-b276-f4a506f5af3b"},"vehicle_type_id":"4","last_reported":1721758248,"current_range_meters":16000,"station_id":"ce4bhap2rcd13ifvqek0","pricing_plan_id":"cebpf4jnsgd1na2vs0mg"},{"bike_id":"6232a9bd-d782-4d13-9d3e-440ef90f2435","system_id":"levelo_inurba_marseille","lat":43.289468,"lon":5.363719,"is_reserved":false,"is_disabled":false,"rental_uris":{"android":"levelo://app?vid=6232a9bd-d782-4d13-9d3e-440ef90f2435","ios":"levelo://app?vid=6232a9bd-d782-4d13-9d3e-440ef90f2435"},"vehicle_type_id":"4","last_reported":1721758248,"current_range_meters":12800,"station_id":"ce4bhc92rcd13ifvqetg","pricing_plan_id":"cebpf4jnsgd1na2vs0mg"},{"bike_id":"c09c1a05-407c-4300-ba35-37d71f65f1df","system_id":"levelo_inurba_marseille","lat":43.289468,"lon":5.363719,"is_reserved":false,"is_disabled":false,"rental_uris":{"android":"levelo://app?vid=c09c1a05-407c-4300-ba35-37d71f65f1df","ios":"levelo://app?vid=c09c1a05-407c-4300-ba35-37d71f65f1df"},"vehicle_type_id":"4","last_reported":1721758248,"current_range_meters":14800,"station_id":"ce4bhc92rcd13ifvqetg","pricing_plan_id":"cebpf4jnsgd1na2vs0mg"},{"bike_id":"0106687a-e01a-4e61-9a41-4134ac7f6fec","system_id":"levelo_inurba_marseille","lat":43.292644,"lon":5.384257,"is_reserved":false,"is_disabled":false,"rental_uris":{"android":"levelo://app?vid=0106687a-e01a-4e61-9a41-4134ac7f6fec","ios":"levelo://app?vid=0106687a-e01a-4e61-9a41-4134ac7f6fec"},"vehicle_type_id":"4","last_reported":1721758248,"current_range_meters":0,"station_id":"ce4bh692rcd13ifvqea0","pricing_plan_id":"cebpf4jnsgd1na2vs0mg"},{"bike_id":"fb08f4c5-3515-4ce1-b17c-2114feffd18d","system_id":"levelo_inurba_marseille","lat":43.29268,"lon":5.38449,"is_reserved":false,"is_disabled":false,"rental_uris":{"android":"levelo://app?vid=fb08f4c5-3515-4ce1-b17c-2114feffd18d","ios":"levelo://app?vid=fb08f4c5-3515-4ce1-b17c-2114feffd18d"},"vehicle_type_id":"4","last_reported":1721758248,"current_range_meters":9200,"station_id":"ce4bh692rcd13ifvqea0","pricing_plan_id":"cebpf4jnsgd1na2vs0mg"},{"bike_id":"9659a9d9-c021-47b6-b879-2b629a5960ee","system_id":"levelo_inurba_marseille","lat":43.29261,"lon":5.38435,"is_reserved":false,"is_disabled":false,"rental_uris":{"android":"levelo://app?vid=9659a9d9-c021-47b6-b879-2b629a5960ee","ios":"levelo://app?vid=9659a9d9-c021-47b6-b879-2b629a5960ee"},"vehicle_type_id":"4","last_reported":1721758248,"current_range_meters":0,"station_id":"ce4bh692rcd13ifvqea0","pricing_plan_id":"cebpf4jnsgd1na2vs0mg"},{"bike_id":"07b32f47-0f97-483c-99d4-fd8df85afabe","system_id":"levelo_inurba_marseille","lat":43.292644,"lon":5.384257,"is_reserved":false,"is_disabled":false,"rental_uris":{"android":"levelo://app?vid=07b32f47-0f97-483c-99d4-fd8df85afabe","ios":"levelo://app?vid=07b32f47-0f97-483c-99d4-fd8df85afabe"},"vehicle_type_id":"4","last_reported":1721758248,"current_range_meters":14800,"station_id":"ce4bh692rcd13ifvqea0","pricing_plan_id":"cebpf4jnsgd1na2vs0mg"},{"bike_id":"ece1bd5e-c51d-4ae2-b4c9-67ea53aba5cd","system_id":"levelo_inurba_marseille","lat":43.29262,"lon":5.38441,"is_reserved":false,"is_disabled":false,"rental_uris":{"android":"levelo://app?vid=ece1bd5e-c51d-4ae2-b4c9-67ea53aba5cd","ios":"levelo://app?vid=ece1bd5e-c51d-4ae2-b4c9-67ea53aba5cd"},"vehicle_type_id":"4","last_reported":1721758248,"current_range_meters":20800,"station_id":"ce4bh692rcd13ifvqea0","pricing_plan_id":"cebpf4jnsgd1na2vs0mg"},{"bike_id":"d9c9d903-36ed-4628-87f4-1b617ebdd437","system_id":"levelo_inurba_marseille","lat":43.29256,"lon":5.38438,"is_reserved":false,"is_disabled":false,"rental_uris":{"android":"levelo://app?vid=d9c9d903-36ed-4628-87f4-1b617ebdd437","ios":"levelo://app?vid=d9c9d903-36ed-4628-87f4-1b617ebdd437"},"vehicle_type_id":"4","last_reported":1721758248,"current_range_meters":0,"station_id":"ce4bh692rcd13ifvqea0","pricing_plan_id":"cebpf4jnsgd1na2vs0mg"},{"bike_id":"931c7d3f-c39e-4721-bf73-183948401e0d","system_id":"levelo_inurba_marseille","lat":43.29255,"lon":5.38438,"is_reserved":false,"is_disabled":false,"rental_uris":{"android":"levelo://app?vid=931c7d3f-c39e-4721-bf73-183948401e0d","ios":"levelo://app?vid=931c7d3f-c39e-4721-bf73-183948401e0d"},"vehicle_type_id":"4","last_reported":1721758248,"current_range_meters":0,"station_id":"ce4bh692rcd13ifvqea0","pricing_plan_id":"cebpf4jnsgd1na2vs0mg"},{"bike_id":"ac999bb6-c4f3-4a9d-a639-bc9946a48cdb","system_id":"levelo_inurba_marseille","lat":43.29258,"lon":5.38445,"is_reserved":false,"is_disabled":false,"rental_uris":{"android":"levelo://app?vid=ac999bb6-c4f3-4a9d-a639-bc9946a48cdb","ios":"levelo://app?vid=ac999bb6-c4f3-4a9d-a639-bc9946a48cdb"},"vehicle_type_id":"4","last_reported":1721758248,"current_range_meters":0,"station_id":"ce4bh692rcd13ifvqea0","pricing_plan_id":"cebpf4jnsgd1na2vs0mg"},{"bike_id":"0a4d3474-4772-4669-9a23-fffc9336853f","system_id":"levelo_inurba_marseille","lat":43.290103,"lon":5.356114,"is_reserved":false,"is_disabled":false,"rental_uris":{"android":"levelo://app?vid=0a4d3474-4772-4669-9a23-fffc9336853f","ios":"levelo://app?vid=0a4d3474-4772-4669-9a23-fffc9336853f"},"vehicle_type_id":"4","last_reported":1721758248,"current_range_meters":31200,"station_id":"ce4bhb92rcd13ifvqen0","pricing_plan_id":"cebpf4jnsgd1na2vs0mg"},{"bike_id":"aa548a66-3eae-467a-b81f-3a3316b633a2","system_id":"levelo_inurba_marseille","lat":43.290995,"lon":5.381361,"is_reserved":false,"is_disabled":false,"rental_uris":{"android":"levelo://app?vid=aa548a66-3eae-467a-b81f-3a3316b633a2","ios":"levelo://app?vid=aa548a66-3eae-467a-b81f-3a3316b633a2"},"vehicle_type_id":"4","last_reported":1721758248,"current_range_meters":16400,"station_id":"ce4bh512rcd13ifvqe2g","pricing_plan_id":"cebpf4jnsgd1na2vs0mg"},{"bike_id":"73044846-51ab-42e4-af3f-f212f105ca6f","system_id":"levelo_inurba_marseille","lat":43.295169,"lon":5.390426,"is_reserved":false,"is_disabled":false,"rental_uris":{"android":"levelo://app?vid=73044846-51ab-42e4-af3f-f212f105ca6f","ios":"levelo://app?vid=73044846-51ab-42e4-af3f-f212f105ca6f"},"vehicle_type_id":"4","last_reported":1721758248,"current_range_meters":20000,"station_id":"ce4bh3p2rcd13ifvqdp0","pricing_plan_id":"cebpf4jnsgd1na2vs0mg"},{"bike_id":"fc832a90-dbbc-4b8a-8461-11d0b114c9e5","system_id":"levelo_inurba_marseille","lat":43.33043,"lon":5.39005,"is_reserved":false,"is_disabled":false,"rental_uris":{"android":"levelo://app?vid=fc832a90-dbbc-4b8a-8461-11d0b114c9e5","ios":"levelo://app?vid=fc832a90-dbbc-4b8a-8461-11d0b114c9e5"},"vehicle_type_id":"4","last_reported":1721758248,"current_range_meters":9600,"station_id":"ce4bhr92rcd13ifvqhrg","pricing_plan_id":"cebpf4jnsgd1na2vs0mg"},{"bike_id":"a98128fc-d4e4-4e88-a04d-62aeb35e11b0","system_id":"levelo_inurba_marseille","lat":43.289741,"lon":5.378306,"is_reserved":false,"is_disabled":false,"rental_uris":{"android":"levelo://app?vid=a98128fc-d4e4-4e88-a04d-62aeb35e11b0","ios":"levelo://app?vid=a98128fc-d4e4-4e88-a04d-62aeb35e11b0"},"vehicle_type_id":"4","last_reported":1721758248,"current_range_meters":0,"station_id":"ce4bh9p2rcd13ifvqed0","pricing_plan_id":"cebpf4jnsgd1na2vs0mg"},{"bike_id":"a7b2b5ba-f6e2-42d5-a8dd-8ea3f61465d8","system_id":"levelo_inurba_marseille","lat":43.295169,"lon":5.390426,"is_reserved":false,"is_disabled":false,"rental_uris":{"android":"levelo://app?vid=a7b2b5ba-f6e2-42d5-a8dd-8ea3f61465d8","ios":"levelo://app?vid=a7b2b5ba-f6e2-42d5-a8dd-8ea3f61465d8"},"vehicle_type_id":"4","last_reported":1721758248,"current_range_meters":21200,"station_id":"ce4bh3p2rcd13ifvqdp0","pricing_plan_id":"cebpf4jnsgd1na2vs0mg"},{"bike_id":"1d1895bb-43eb-4ada-bbc4-0ed94c551e8a","system_id":"levelo_inurba_marseille","lat":43.295169,"lon":5.390426,"is_reserved":false,"is_disabled":false,"rental_uris":{"android":"levelo://app?vid=1d1895bb-43eb-4ada-bbc4-0ed94c551e8a","ios":"levelo://app?vid=1d1895bb-43eb-4ada-bbc4-0ed94c551e8a"},"vehicle_type_id":"4","last_reported":1721758248,"current_range_meters":3600,"station_id":"ce4bh3p2rcd13ifvqdp0","pricing_plan_id":"cebpf4jnsgd1na2vs0mg"},{"bike_id":"ddcf22a3-f534-482f-a971-8f862565c476","system_id":"levelo_inurba_marseille","lat":43.33026,"lon":5.3904,"is_reserved":false,"is_disabled":false,"rental_uris":{"android":"levelo://app?vid=ddcf22a3-f534-482f-a971-8f862565c476","ios":"levelo://app?vid=ddcf22a3-f534-482f-a971-8f862565c476"},"vehicle_type_id":"4","last_reported":1721758248,"current_range_meters":22400,"station_id":"ce4bhr92rcd13ifvqhrg","pricing_plan_id":"cebpf4jnsgd1na2vs0mg"},{"bike_id":"fc5df5eb-fa54-4f37-95a3-86d6ae6f1908","system_id":"levelo_inurba_marseille","lat":43.29527,"lon":5.39051,"is_reserved":false,"is_disabled":false,"rental_uris":{"android":"levelo://app?vid=fc5df5eb-fa54-4f37-95a3-86d6ae6f1908","ios":"levelo://app?vid=fc5df5eb-fa54-4f37-95a3-86d6ae6f1908"},"vehicle_type_id":"4","last_reported":1721758248,"current_range_meters":0,"station_id":"ce4bh3p2rcd13ifvqdp0","pricing_plan_id":"cebpf4jnsgd1na2vs0mg"},{"bike_id":"b81c39aa-58ed-4133-b2e9-5d9e859820ec","system_id":"levelo_inurba_marseille","lat":43.28856,"lon":5.358371,"is_reserved":false,"is_disabled":false,"rental_uris":{"android":"levelo://app?vid=b81c39aa-58ed-4133-b2e9-5d9e859820ec","ios":"levelo://app?vid=b81c39aa-58ed-4133-b2e9-5d9e859820ec"},"vehicle_type_id":"4","last_reported":1721758248,"current_range_meters":0,"station_id":"ce4bhb12rcd13ifvqem0","pricing_plan_id":"cebpf4jnsgd1na2vs0mg"},{"bike_id":"ade73e4c-99dd-4bd1-8e5a-a34f06e7a4f4","system_id":"levelo_inurba_marseille","lat":43.309371,"lon":5.401449,"is_reserved":false,"is_disabled":false,"rental_uris":{"android":"levelo://app?vid=ade73e4c-99dd-4bd1-8e5a-a34f06e7a4f4","ios":"levelo://app?vid=ade73e4c-99dd-4bd1-8e5a-a34f06e7a4f4"},"vehicle_type_id":"4","last_reported":1721758248,"current_range_meters":800,"station_id":"ce4bgvp2rcd13ifvqct0","pricing_plan_id":"cebpf4jnsgd1na2vs0mg"},{"bike_id":"6bee14db-9f88-4c59-afa5-da083c1ffbe3","system_id":"levelo_inurba_marseille","lat":43.33749,"lon":5.374504,"is_reserved":false,"is_disabled":false,"rental_uris":{"android":"levelo://app?vid=6bee14db-9f88-4c59-afa5-da083c1ffbe3","ios":"levelo://app?vid=6bee14db-9f88-4c59-afa5-da083c1ffbe3"},"vehicle_type_id":"4","last_reported":1721758248,"current_range_meters":21200,"station_id":"","pricing_plan_id":"cebpf4jnsgd1na2vs0mg"},{"bike_id":"56b6a81f-a86e-45db-b3de-8097b698a36d","system_id":"levelo_inurba_marseille","lat":43.33762,"lon":5.374352,"is_reserved":false,"is_disabled":false,"rental_uris":{"android":"levelo://app?vid=56b6a81f-a86e-45db-b3de-8097b698a36d","ios":"levelo://app?vid=56b6a81f-a86e-45db-b3de-8097b698a36d"},"vehicle_type_id":"4","last_reported":1721758248,"current_range_meters":8400,"station_id":"","pricing_plan_id":"cebpf4jnsgd1na2vs0mg"},{"bike_id":"a235c800-3c57-4740-a673-3a0ec502d831","system_id":"levelo_inurba_marseille","lat":43.337623,"lon":5.374335,"is_reserved":false,"is_disabled":false,"rental_uris":{"android":"levelo://app?vid=a235c800-3c57-4740-a673-3a0ec502d831","ios":"levelo://app?vid=a235c800-3c57-4740-a673-3a0ec502d831"},"vehicle_type_id":"4","last_reported":1721758248,"current_range_meters":30800,"station_id":"","pricing_plan_id":"cebpf4jnsgd1na2vs0mg"},{"bike_id":"813878f8-5c09-42fc-a565-9c8b9db28a68","system_id":"levelo_inurba_marseille","lat":43.33768,"lon":5.37433,"is_reserved":false,"is_disabled":false,"rental_uris":{"android":"levelo://app?vid=813878f8-5c09-42fc-a565-9c8b9db28a68","ios":"levelo://app?vid=813878f8-5c09-42fc-a565-9c8b9db28a68"},"vehicle_type_id":"4","last_reported":1721758248,"current_range_meters":26800,"station_id":"","pricing_plan_id":"cebpf4jnsgd1na2vs0mg"},{"bike_id":"77a66306-ea4c-470f-b576-87cc5ae0b3f4","system_id":"levelo_inurba_marseille","lat":43.33772,"lon":5.37438,"is_reserved":false,"is_disabled":false,"rental_uris":{"android":"levelo://app?vid=77a66306-ea4c-470f-b576-87cc5ae0b3f4","ios":"levelo://app?vid=77a66306-ea4c-470f-b576-87cc5ae0b3f4"},"vehicle_type_id":"4","last_reported":1721758248,"current_range_meters":26000,"station_id":"","pricing_plan_id":"cebpf4jnsgd1na2vs0mg"},{"bike_id":"72742065-b9f9-425b-adb6-911ad375ccc0","system_id":"levelo_inurba_marseille","lat":43.33777,"lon":5.37435,"is_reserved":false,"is_disabled":false,"rental_uris":{"android":"levelo://app?vid=72742065-b9f9-425b-adb6-911ad375ccc0","ios":"levelo://app?vid=72742065-b9f9-425b-adb6-911ad375ccc0"},"vehicle_type_id":"4","last_reported":1721758248,"current_range_meters":26400,"station_id":"","pricing_plan_id":"cebpf4jnsgd1na2vs0mg"},{"bike_id":"50b5e63a-0478-4ea4-92a0-2e1091787dc6","system_id":"levelo_inurba_marseille","lat":43.33777,"lon":5.37446,"is_reserved":false,"is_disabled":false,"rental_uris":{"android":"levelo://app?vid=50b5e63a-0478-4ea4-92a0-2e1091787dc6","ios":"levelo://app?vid=50b5e63a-0478-4ea4-92a0-2e1091787dc6"},"vehicle_type_id":"4","last_reported":1721758248,"current_range_meters":800,"station_id":"","pricing_plan_id":"cebpf4jnsgd1na2vs0mg"},{"bike_id":"1921907a-f8d5-4544-95bc-020bb7c1b757","system_id":"levelo_inurba_marseille","lat":43.301117,"lon":5.398795,"is_reserved":false,"is_disabled":false,"rental_uris":{"android":"levelo://app?vid=1921907a-f8d5-4544-95bc-020bb7c1b757","ios":"levelo://app?vid=1921907a-f8d5-4544-95bc-020bb7c1b757"},"vehicle_type_id":"4","last_reported":1721758248,"current_range_meters":2000,"station_id":"ce4bh0h2rcd13ifvqd40","pricing_plan_id":"cebpf4jnsgd1na2vs0mg"},{"bike_id":"ddf080ef-6819-4d2a-ba37-6dafb3f3dd74","system_id":"levelo_inurba_marseille","lat":43.28727,"lon":5.36078,"is_reserved":false,"is_disabled":false,"rental_uris":{"android":"levelo://app?vid=ddf080ef-6819-4d2a-ba37-6dafb3f3dd74","ios":"levelo://app?vid=ddf080ef-6819-4d2a-ba37-6dafb3f3dd74"},"vehicle_type_id":"4","last_reported":1721758248,"current_range_meters":26400,"station_id":"cki0cbj6b192h4jlfktg","pricing_plan_id":"cebpf4jnsgd1na2vs0mg"},{"bike_id":"37b83596-62db-4ab3-91a9-e9dff5523542","system_id":"levelo_inurba_marseille","lat":43.286961,"lon":5.373785,"is_reserved":false,"is_disabled":false,"rental_uris":{"android":"levelo://app?vid=37b83596-62db-4ab3-91a9-e9dff5523542","ios":"levelo://app?vid=37b83596-62db-4ab3-91a9-e9dff5523542"},"vehicle_type_id":"4","last_reported":1721758248,"current_range_meters":16000,"station_id":"ce4bh3p2rcd13ifvqdq0","pricing_plan_id":"cebpf4jnsgd1na2vs0mg"},{"bike_id":"4b1d3281-ea90-49a1-a725-0502cd6358f8","system_id":"levelo_inurba_marseille","lat":43.286961,"lon":5.373785,"is_reserved":false,"is_disabled":false,"rental_uris":{"android":"levelo://app?vid=4b1d3281-ea90-49a1-a725-0502cd6358f8","ios":"levelo://app?vid=4b1d3281-ea90-49a1-a725-0502cd6358f8"},"vehicle_type_id":"4","last_reported":1721758248,"current_range_meters":0,"station_id":"ce4bh3p2rcd13ifvqdq0","pricing_plan_id":"cebpf4jnsgd1na2vs0mg"},{"bike_id":"a537c542-7f88-4b78-a9d6-83f2080d9c45","system_id":"levelo_inurba_marseille","lat":43.298681,"lon":5.397225,"is_reserved":false,"is_disabled":false,"rental_uris":{"android":"levelo://app?vid=a537c542-7f88-4b78-a9d6-83f2080d9c45","ios":"levelo://app?vid=a537c542-7f88-4b78-a9d6-83f2080d9c45"},"vehicle_type_id":"4","last_reported":1721758248,"current_range_meters":0,"station_id":"ce4bh0h2rcd13ifvqd50","pricing_plan_id":"cebpf4jnsgd1na2vs0mg"},{"bike_id":"4aaa68e2-1e3f-4d02-9b7c-00d29cf2acc7","system_id":"levelo_inurba_marseille","lat":43.299724,"lon":5.384848,"is_reserved":false,"is_disabled":false,"rental_uris":{"android":"levelo://app?vid=4aaa68e2-1e3f-4d02-9b7c-00d29cf2acc7","ios":"levelo://app?vid=4aaa68e2-1e3f-4d02-9b7c-00d29cf2acc7"},"vehicle_type_id":"4","last_reported":1721758248,"current_range_meters":8000,"station_id":"ce4bgj92rcd13ifvqbd0","pricing_plan_id":"cebpf4jnsgd1na2vs0mg"},{"bike_id":"36b4fffd-4cb0-4c6d-a712-22ba4cb02382","system_id":"levelo_inurba_marseille","lat":43.298681,"lon":5.397225,"is_reserved":false,"is_disabled":false,"rental_uris":{"android":"levelo://app?vid=36b4fffd-4cb0-4c6d-a712-22ba4cb02382","ios":"levelo://app?vid=36b4fffd-4cb0-4c6d-a712-22ba4cb02382"},"vehicle_type_id":"4","last_reported":1721758248,"current_range_meters":20400,"station_id":"ce4bh0h2rcd13ifvqd50","pricing_plan_id":"cebpf4jnsgd1na2vs0mg"},{"bike_id":"6f4d23c6-e56c-4230-bb91-a3755d80ebcd","system_id":"levelo_inurba_marseille","lat":43.302759,"lon":5.400793,"is_reserved":false,"is_disabled":false,"rental_uris":{"android":"levelo://app?vid=6f4d23c6-e56c-4230-bb91-a3755d80ebcd","ios":"levelo://app?vid=6f4d23c6-e56c-4230-bb91-a3755d80ebcd"},"vehicle_type_id":"4","last_reported":1721758248,"current_range_meters":31200,"station_id":"ce4bgvh2rcd13ifvqcs0","pricing_plan_id":"cebpf4jnsgd1na2vs0mg"},{"bike_id":"b3988e00-d964-4fc1-aa7a-c682f454ab30","system_id":"levelo_inurba_marseille","lat":43.302759,"lon":5.400793,"is_reserved":false,"is_disabled":false,"rental_uris":{"android":"levelo://app?vid=b3988e00-d964-4fc1-aa7a-c682f454ab30","ios":"levelo://app?vid=b3988e00-d964-4fc1-aa7a-c682f454ab30"},"vehicle_type_id":"4","last_reported":1721758248,"current_range_meters":0,"station_id":"ce4bgvh2rcd13ifvqcs0","pricing_plan_id":"cebpf4jnsgd1na2vs0mg"},{"bike_id":"12c4a386-967c-4969-95ea-91997432b83d","system_id":"levelo_inurba_marseille","lat":43.29025,"lon":5.38638,"is_reserved":false,"is_disabled":false,"rental_uris":{"android":"levelo://app?vid=12c4a386-967c-4969-95ea-91997432b83d","ios":"levelo://app?vid=12c4a386-967c-4969-95ea-91997432b83d"},"vehicle_type_id":"4","last_reported":1721758248,"current_range_meters":0,"station_id":"ce4bh4p2rcd13ifvqe0g","pricing_plan_id":"cebpf4jnsgd1na2vs0mg"},{"bike_id":"27ef29f7-7d34-4ff9-bdbc-ee5a4cad1b01","system_id":"levelo_inurba_marseille","lat":43.302759,"lon":5.400793,"is_reserved":false,"is_disabled":false,"rental_uris":{"android":"levelo://app?vid=27ef29f7-7d34-4ff9-bdbc-ee5a4cad1b01","ios":"levelo://app?vid=27ef29f7-7d34-4ff9-bdbc-ee5a4cad1b01"},"vehicle_type_id":"4","last_reported":1721758248,"current_range_meters":0,"station_id":"ce4bgvh2rcd13ifvqcs0","pricing_plan_id":"cebpf4jnsgd1na2vs0mg"},{"bike_id":"2eee4ebc-7ca8-48a9-ab50-abb54c0bedf0","system_id":"levelo_inurba_marseille","lat":43.286039,"lon":5.370681,"is_reserved":false,"is_disabled":false,"rental_uris":{"android":"levelo://app?vid=2eee4ebc-7ca8-48a9-ab50-abb54c0bedf0","ios":"levelo://app?vid=2eee4ebc-7ca8-48a9-ab50-abb54c0bedf0"},"vehicle_type_id":"4","last_reported":1721758248,"current_range_meters":400,"station_id":"ce4bht12rcd13ifvqi60","pricing_plan_id":"cebpf4jnsgd1na2vs0mg"},{"bike_id":"799612a0-4c5b-4f9e-9eee-5dc6693048c1","system_id":"levelo_inurba_marseille","lat":43.287184,"lon":5.37937,"is_reserved":false,"is_disabled":false,"rental_uris":{"android":"levelo://app?vid=799612a0-4c5b-4f9e-9eee-5dc6693048c1","ios":"levelo://app?vid=799612a0-4c5b-4f9e-9eee-5dc6693048c1"},"vehicle_type_id":"4","last_reported":1721758248,"current_range_meters":0,"station_id":"ce4bh9p2rcd13ifvqec0","pricing_plan_id":"cebpf4jnsgd1na2vs0mg"},{"bike_id":"7de7ccee-4500-4aa6-ab06-71bb1aec24a6","system_id":"levelo_inurba_marseille","lat":43.287184,"lon":5.37937,"is_reserved":false,"is_disabled":false,"rental_uris":{"android":"levelo://app?vid=7de7ccee-4500-4aa6-ab06-71bb1aec24a6","ios":"levelo://app?vid=7de7ccee-4500-4aa6-ab06-71bb1aec24a6"},"vehicle_type_id":"4","last_reported":1721758248,"current_range_meters":0,"station_id":"ce4bh9p2rcd13ifvqec0","pricing_plan_id":"cebpf4jnsgd1na2vs0mg"},{"bike_id":"2ee0b155-58ef-493c-a336-5c9f25106f54","system_id":"levelo_inurba_marseille","lat":43.287184,"lon":5.37937,"is_reserved":false,"is_disabled":false,"rental_uris":{"android":"levelo://app?vid=2ee0b155-58ef-493c-a336-5c9f25106f54","ios":"levelo://app?vid=2ee0b155-58ef-493c-a336-5c9f25106f54"},"vehicle_type_id":"4","last_reported":1721758248,"current_range_meters":0,"station_id":"ce4bh9p2rcd13ifvqec0","pricing_plan_id":"cebpf4jnsgd1na2vs0mg"},{"bike_id":"fa720a1d-d8d7-4d5d-8d99-1e5cba4d4dcd","system_id":"levelo_inurba_marseille","lat":43.285115,"lon":5.360078,"is_reserved":false,"is_disabled":false,"rental_uris":{"android":"levelo://app?vid=fa720a1d-d8d7-4d5d-8d99-1e5cba4d4dcd","ios":"levelo://app?vid=fa720a1d-d8d7-4d5d-8d99-1e5cba4d4dcd"},"vehicle_type_id":"4","last_reported":1721758248,"current_range_meters":0,"station_id":"","pricing_plan_id":"cebpf4jnsgd1na2vs0mg"},{"bike_id":"0e80fa22-0889-4a44-b5a8-9d71d5480cfc","system_id":"levelo_inurba_marseille","lat":43.291994,"lon":5.392907,"is_reserved":false,"is_disabled":false,"rental_uris":{"android":"levelo://app?vid=0e80fa22-0889-4a44-b5a8-9d71d5480cfc","ios":"levelo://app?vid=0e80fa22-0889-4a44-b5a8-9d71d5480cfc"},"vehicle_type_id":"4","last_reported":1721758248,"current_range_meters":21600,"station_id":"ce4bh192rcd13ifvqdd0","pricing_plan_id":"cebpf4jnsgd1na2vs0mg"},{"bike_id":"c2560d43-dd51-4117-9399-363da7344e59","system_id":"levelo_inurba_marseille","lat":43.29926,"lon":5.40158,"is_reserved":false,"is_disabled":false,"rental_uris":{"android":"levelo://app?vid=c2560d43-dd51-4117-9399-363da7344e59","ios":"levelo://app?vid=c2560d43-dd51-4117-9399-363da7344e59"},"vehicle_type_id":"4","last_reported":1721758248,"current_range_meters":7200,"station_id":"","pricing_plan_id":"cebpf4jnsgd1na2vs0mg"},{"bike_id":"c12f84e6-8de3-49ab-b6bd-b9b5628f3d49","system_id":"levelo_inurba_marseille","lat":43.284637,"lon":5.35904,"is_reserved":false,"is_disabled":false,"rental_uris":{"android":"levelo://app?vid=c12f84e6-8de3-49ab-b6bd-b9b5628f3d49","ios":"levelo://app?vid=c12f84e6-8de3-49ab-b6bd-b9b5628f3d49"},"vehicle_type_id":"4","last_reported":1721758248,"current_range_meters":23600,"station_id":"ce4bhah2rcd13ifvqei0","pricing_plan_id":"cebpf4jnsgd1na2vs0mg"},{"bike_id":"06f5fba0-025c-45d8-8bdf-5cc8f3ff3076","system_id":"levelo_inurba_marseille","lat":43.28464,"lon":5.35881,"is_reserved":false,"is_disabled":false,"rental_uris":{"android":"levelo://app?vid=06f5fba0-025c-45d8-8bdf-5cc8f3ff3076","ios":"levelo://app?vid=06f5fba0-025c-45d8-8bdf-5cc8f3ff3076"},"vehicle_type_id":"4","last_reported":1721758248,"current_range_meters":18000,"station_id":"ce4bhah2rcd13ifvqei0","pricing_plan_id":"cebpf4jnsgd1na2vs0mg"},{"bike_id":"caacc36c-e5a0-45db-8e06-0bca025179ff","system_id":"levelo_inurba_marseille","lat":43.284534,"lon":5.358662,"is_reserved":false,"is_disabled":false,"rental_uris":{"android":"levelo://app?vid=caacc36c-e5a0-45db-8e06-0bca025179ff","ios":"levelo://app?vid=caacc36c-e5a0-45db-8e06-0bca025179ff"},"vehicle_type_id":"4","last_reported":1721758248,"current_range_meters":5600,"station_id":"ce4bhah2rcd13ifvqei0","pricing_plan_id":"cebpf4jnsgd1na2vs0mg"},{"bike_id":"820800c5-2ee6-4953-95d7-6ee47e75e79a","system_id":"levelo_inurba_marseille","lat":43.291067,"lon":5.392966,"is_reserved":false,"is_disabled":false,"rental_uris":{"android":"levelo://app?vid=820800c5-2ee6-4953-95d7-6ee47e75e79a","ios":"levelo://app?vid=820800c5-2ee6-4953-95d7-6ee47e75e79a"},"vehicle_type_id":"4","last_reported":1721758248,"current_range_meters":2400,"station_id":"","pricing_plan_id":"cebpf4jnsgd1na2vs0mg"},{"bike_id":"f0294842-950e-4a51-ada0-18996561b89b","system_id":"levelo_inurba_marseille","lat":43.284534,"lon":5.358662,"is_reserved":false,"is_disabled":false,"rental_uris":{"android":"levelo://app?vid=f0294842-950e-4a51-ada0-18996561b89b","ios":"levelo://app?vid=f0294842-950e-4a51-ada0-18996561b89b"},"vehicle_type_id":"4","last_reported":1721758248,"current_range_meters":0,"station_id":"ce4bhah2rcd13ifvqei0","pricing_plan_id":"cebpf4jnsgd1na2vs0mg"},{"bike_id":"bfaae27e-b5a4-450f-9328-cc1410f5cb2c","system_id":"levelo_inurba_marseille","lat":43.285856,"lon":5.350771,"is_reserved":false,"is_disabled":false,"rental_uris":{"android":"levelo://app?vid=bfaae27e-b5a4-450f-9328-cc1410f5cb2c","ios":"levelo://app?vid=bfaae27e-b5a4-450f-9328-cc1410f5cb2c"},"vehicle_type_id":"4","last_reported":1721758248,"current_range_meters":31200,"station_id":"ce4bhch2rcd13ifvqeug","pricing_plan_id":"cebpf4jnsgd1na2vs0mg"},{"bike_id":"1f58bb67-b120-4327-90a2-04ed30bdbaa9","system_id":"levelo_inurba_marseille","lat":43.285856,"lon":5.350771,"is_reserved":false,"is_disabled":false,"rental_uris":{"android":"levelo://app?vid=1f58bb67-b120-4327-90a2-04ed30bdbaa9","ios":"levelo://app?vid=1f58bb67-b120-4327-90a2-04ed30bdbaa9"},"vehicle_type_id":"4","last_reported":1721758248,"current_range_meters":0,"station_id":"ce4bhch2rcd13ifvqeug","pricing_plan_id":"cebpf4jnsgd1na2vs0mg"},{"bike_id":"50871eb0-e728-493c-8d00-282dec8477d9","system_id":"levelo_inurba_marseille","lat":43.2862,"lon":5.35103,"is_reserved":false,"is_disabled":false,"rental_uris":{"android":"levelo://app?vid=50871eb0-e728-493c-8d00-282dec8477d9","ios":"levelo://app?vid=50871eb0-e728-493c-8d00-282dec8477d9"},"vehicle_type_id":"4","last_reported":1721758248,"current_range_meters":0,"station_id":"ce4bhch2rcd13ifvqeug","pricing_plan_id":"cebpf4jnsgd1na2vs0mg"},{"bike_id":"f318def8-2f92-453f-ab01-0c79d502cc25","system_id":"levelo_inurba_marseille","lat":43.285856,"lon":5.350771,"is_reserved":false,"is_disabled":false,"rental_uris":{"android":"levelo://app?vid=f318def8-2f92-453f-ab01-0c79d502cc25","ios":"levelo://app?vid=f318def8-2f92-453f-ab01-0c79d502cc25"},"vehicle_type_id":"4","last_reported":1721758248,"current_range_meters":10000,"station_id":"ce4bhch2rcd13ifvqeug","pricing_plan_id":"cebpf4jnsgd1na2vs0mg"},{"bike_id":"97a9e08a-3aa4-46d2-a62e-73d5b472368e","system_id":"levelo_inurba_marseille","lat":43.2862,"lon":5.35099,"is_reserved":false,"is_disabled":false,"rental_uris":{"android":"levelo://app?vid=97a9e08a-3aa4-46d2-a62e-73d5b472368e","ios":"levelo://app?vid=97a9e08a-3aa4-46d2-a62e-73d5b472368e"},"vehicle_type_id":"4","last_reported":1721758248,"current_range_meters":0,"station_id":"ce4bhch2rcd13ifvqeug","pricing_plan_id":"cebpf4jnsgd1na2vs0mg"},{"bike_id":"566bae18-9553-480f-8865-82d429aab349","system_id":"levelo_inurba_marseille","lat":43.28619,"lon":5.35102,"is_reserved":false,"is_disabled":false,"rental_uris":{"android":"levelo://app?vid=566bae18-9553-480f-8865-82d429aab349","ios":"levelo://app?vid=566bae18-9553-480f-8865-82d429aab349"},"vehicle_type_id":"4","last_reported":1721758248,"current_range_meters":16800,"station_id":"ce4bhch2rcd13ifvqeug","pricing_plan_id":"cebpf4jnsgd1na2vs0mg"},{"bike_id":"1231718a-6f7e-4bcf-8e45-88edbd16cf8e","system_id":"levelo_inurba_marseille","lat":43.28619,"lon":5.351,"is_reserved":false,"is_disabled":false,"rental_uris":{"android":"levelo://app?vid=1231718a-6f7e-4bcf-8e45-88edbd16cf8e","ios":"levelo://app?vid=1231718a-6f7e-4bcf-8e45-88edbd16cf8e"},"vehicle_type_id":"4","last_reported":1721758248,"current_range_meters":30400,"station_id":"","pricing_plan_id":"cebpf4jnsgd1na2vs0mg"},{"bike_id":"6289ccdf-1b50-448e-a1f9-b02f3e636e57","system_id":"levelo_inurba_marseille","lat":43.28617,"lon":5.35105,"is_reserved":false,"is_disabled":false,"rental_uris":{"android":"levelo://app?vid=6289ccdf-1b50-448e-a1f9-b02f3e636e57","ios":"levelo://app?vid=6289ccdf-1b50-448e-a1f9-b02f3e636e57"},"vehicle_type_id":"4","last_reported":1721758248,"current_range_meters":21200,"station_id":"ce4bhch2rcd13ifvqeug","pricing_plan_id":"cebpf4jnsgd1na2vs0mg"},{"bike_id":"c92709d2-cd8e-4d3b-a099-f684eb121529","system_id":"levelo_inurba_marseille","lat":43.285856,"lon":5.350771,"is_reserved":false,"is_disabled":false,"rental_uris":{"android":"levelo://app?vid=c92709d2-cd8e-4d3b-a099-f684eb121529","ios":"levelo://app?vid=c92709d2-cd8e-4d3b-a099-f684eb121529"},"vehicle_type_id":"4","last_reported":1721758248,"current_range_meters":30800,"station_id":"ce4bhch2rcd13ifvqeug","pricing_plan_id":"cebpf4jnsgd1na2vs0mg"},{"bike_id":"da25592f-50d8-415b-a919-0cad5f44fd5d","system_id":"levelo_inurba_marseille","lat":43.28617,"lon":5.351,"is_reserved":false,"is_disabled":false,"rental_uris":{"android":"levelo://app?vid=da25592f-50d8-415b-a919-0cad5f44fd5d","ios":"levelo://app?vid=da25592f-50d8-415b-a919-0cad5f44fd5d"},"vehicle_type_id":"4","last_reported":1721758248,"current_range_meters":31200,"station_id":"ce4bhch2rcd13ifvqeug","pricing_plan_id":"cebpf4jnsgd1na2vs0mg"},{"bike_id":"95ec1fb3-9336-4b8c-9be2-d3b4d36314dc","system_id":"levelo_inurba_marseille","lat":43.28615,"lon":5.35106,"is_reserved":false,"is_disabled":false,"rental_uris":{"android":"levelo://app?vid=95ec1fb3-9336-4b8c-9be2-d3b4d36314dc","ios":"levelo://app?vid=95ec1fb3-9336-4b8c-9be2-d3b4d36314dc"},"vehicle_type_id":"4","last_reported":1721758248,"current_range_meters":31200,"station_id":"ce4bhch2rcd13ifvqeug","pricing_plan_id":"cebpf4jnsgd1na2vs0mg"},{"bike_id":"e2d9c753-cf30-4b62-8639-a65fd02846a5","system_id":"levelo_inurba_marseille","lat":43.28616,"lon":5.35098,"is_reserved":false,"is_disabled":false,"rental_uris":{"android":"levelo://app?vid=e2d9c753-cf30-4b62-8639-a65fd02846a5","ios":"levelo://app?vid=e2d9c753-cf30-4b62-8639-a65fd02846a5"},"vehicle_type_id":"4","last_reported":1721758248,"current_range_meters":4000,"station_id":"ce4bhch2rcd13ifvqeug","pricing_plan_id":"cebpf4jnsgd1na2vs0mg"},{"bike_id":"e23642c2-9da8-4e41-bb52-cc87708fddbf","system_id":"levelo_inurba_marseille","lat":43.28613,"lon":5.35105,"is_reserved":false,"is_disabled":false,"rental_uris":{"android":"levelo://app?vid=e23642c2-9da8-4e41-bb52-cc87708fddbf","ios":"levelo://app?vid=e23642c2-9da8-4e41-bb52-cc87708fddbf"},"vehicle_type_id":"4","last_reported":1721758248,"current_range_meters":3600,"station_id":"ce4bhch2rcd13ifvqeug","pricing_plan_id":"cebpf4jnsgd1na2vs0mg"},{"bike_id":"b825a49f-3b03-4646-9fb0-e0d55b2a84f2","system_id":"levelo_inurba_marseille","lat":43.285856,"lon":5.350771,"is_reserved":false,"is_disabled":false,"rental_uris":{"android":"levelo://app?vid=b825a49f-3b03-4646-9fb0-e0d55b2a84f2","ios":"levelo://app?vid=b825a49f-3b03-4646-9fb0-e0d55b2a84f2"},"vehicle_type_id":"4","last_reported":1721758248,"current_range_meters":0,"station_id":"ce4bhch2rcd13ifvqeug","pricing_plan_id":"cebpf4jnsgd1na2vs0mg"},{"bike_id":"5c34ca21-915a-441f-863d-f8153edcb64f","system_id":"levelo_inurba_marseille","lat":43.286131,"lon":5.351005,"is_reserved":false,"is_disabled":false,"rental_uris":{"android":"levelo://app?vid=5c34ca21-915a-441f-863d-f8153edcb64f","ios":"levelo://app?vid=5c34ca21-915a-441f-863d-f8153edcb64f"},"vehicle_type_id":"4","last_reported":1721758248,"current_range_meters":13600,"station_id":"ce4bhc92rcd13ifvqetg","pricing_plan_id":"cebpf4jnsgd1na2vs0mg"},{"bike_id":"58c62c57-ee79-4758-9049-1af2da0f85e2","system_id":"levelo_inurba_marseille","lat":43.28608,"lon":5.35094,"is_reserved":false,"is_disabled":false,"rental_uris":{"android":"levelo://app?vid=58c62c57-ee79-4758-9049-1af2da0f85e2","ios":"levelo://app?vid=58c62c57-ee79-4758-9049-1af2da0f85e2"},"vehicle_type_id":"4","last_reported":1721758248,"current_range_meters":24400,"station_id":"","pricing_plan_id":"cebpf4jnsgd1na2vs0mg"},{"bike_id":"569db640-2f89-4b13-9e8b-7efaf32d2af9","system_id":"levelo_inurba_marseille","lat":43.295713,"lon":5.399639,"is_reserved":false,"is_disabled":false,"rental_uris":{"android":"levelo://app?vid=569db640-2f89-4b13-9e8b-7efaf32d2af9","ios":"levelo://app?vid=569db640-2f89-4b13-9e8b-7efaf32d2af9"},"vehicle_type_id":"4","last_reported":1721758248,"current_range_meters":0,"station_id":"ce4bh312rcd13ifvqdj0","pricing_plan_id":"cebpf4jnsgd1na2vs0mg"},{"bike_id":"8639cffd-690f-4944-9e36-9bd393f85968","system_id":"levelo_inurba_marseille","lat":43.29568,"lon":5.39974,"is_reserved":false,"is_disabled":false,"rental_uris":{"android":"levelo://app?vid=8639cffd-690f-4944-9e36-9bd393f85968","ios":"levelo://app?vid=8639cffd-690f-4944-9e36-9bd393f85968"},"vehicle_type_id":"4","last_reported":1721758248,"current_range_meters":0,"station_id":"ce4bh312rcd13ifvqdj0","pricing_plan_id":"cebpf4jnsgd1na2vs0mg"},{"bike_id":"ebcf6dba-01e8-4960-8464-6fb5c887707c","system_id":"levelo_inurba_marseille","lat":43.286595,"lon":5.386795,"is_reserved":false,"is_disabled":false,"rental_uris":{"android":"levelo://app?vid=ebcf6dba-01e8-4960-8464-6fb5c887707c","ios":"levelo://app?vid=ebcf6dba-01e8-4960-8464-6fb5c887707c"},"vehicle_type_id":"4","last_reported":1721758248,"current_range_meters":0,"station_id":"ce4bh492rcd13ifvqdug","pricing_plan_id":"cebpf4jnsgd1na2vs0mg"},{"bike_id":"11daf630-7447-4bf7-8d33-bde1ba27590f","system_id":"levelo_inurba_marseille","lat":43.295169,"lon":5.390426,"is_reserved":false,"is_disabled":false,"rental_uris":{"android":"levelo://app?vid=11daf630-7447-4bf7-8d33-bde1ba27590f","ios":"levelo://app?vid=11daf630-7447-4bf7-8d33-bde1ba27590f"},"vehicle_type_id":"4","last_reported":1721758248,"current_range_meters":400,"station_id":"ce4bh3p2rcd13ifvqdp0","pricing_plan_id":"cebpf4jnsgd1na2vs0mg"},{"bike_id":"727df9d1-cce1-4b32-bbdc-8a6bb5a7daf0","system_id":"levelo_inurba_marseille","lat":43.28665,"lon":5.38663,"is_reserved":false,"is_disabled":false,"rental_uris":{"android":"levelo://app?vid=727df9d1-cce1-4b32-bbdc-8a6bb5a7daf0","ios":"levelo://app?vid=727df9d1-cce1-4b32-bbdc-8a6bb5a7daf0"},"vehicle_type_id":"4","last_reported":1721758248,"current_range_meters":2400,"station_id":"ce4bh492rcd13ifvqdug","pricing_plan_id":"cebpf4jnsgd1na2vs0mg"},{"bike_id":"2e25eea7-b4de-42e7-8907-1115461242c9","system_id":"levelo_inurba_marseille","lat":43.286595,"lon":5.386795,"is_reserved":false,"is_disabled":false,"rental_uris":{"android":"levelo://app?vid=2e25eea7-b4de-42e7-8907-1115461242c9","ios":"levelo://app?vid=2e25eea7-b4de-42e7-8907-1115461242c9"},"vehicle_type_id":"4","last_reported":1721758248,"current_range_meters":400,"station_id":"ce4bh492rcd13ifvqdug","pricing_plan_id":"cebpf4jnsgd1na2vs0mg"},{"bike_id":"920bc8da-d439-4219-b904-e15b8e4bcb69","system_id":"levelo_inurba_marseille","lat":43.286595,"lon":5.386795,"is_reserved":false,"is_disabled":false,"rental_uris":{"android":"levelo://app?vid=920bc8da-d439-4219-b904-e15b8e4bcb69","ios":"levelo://app?vid=920bc8da-d439-4219-b904-e15b8e4bcb69"},"vehicle_type_id":"4","last_reported":1721758248,"current_range_meters":10400,"station_id":"ce4bh492rcd13ifvqdug","pricing_plan_id":"cebpf4jnsgd1na2vs0mg"},{"bike_id":"c92baf0d-c18d-4402-8821-185d000b30ff","system_id":"levelo_inurba_marseille","lat":43.303667,"lon":5.40625,"is_reserved":false,"is_disabled":false,"rental_uris":{"android":"levelo://app?vid=c92baf0d-c18d-4402-8821-185d000b30ff","ios":"levelo://app?vid=c92baf0d-c18d-4402-8821-185d000b30ff"},"vehicle_type_id":"4","last_reported":1721758248,"current_range_meters":0,"station_id":"","pricing_plan_id":"cebpf4jnsgd1na2vs0mg"},{"bike_id":"44178ebf-c04f-440a-bae2-81160caae972","system_id":"levelo_inurba_marseille","lat":43.31897,"lon":5.40737,"is_reserved":false,"is_disabled":false,"rental_uris":{"android":"levelo://app?vid=44178ebf-c04f-440a-bae2-81160caae972","ios":"levelo://app?vid=44178ebf-c04f-440a-bae2-81160caae972"},"vehicle_type_id":"4","last_reported":1721758248,"current_range_meters":27600,"station_id":"ce4bhq12rcd13ifvqhig","pricing_plan_id":"cebpf4jnsgd1na2vs0mg"},{"bike_id":"336b3dcc-02cd-4811-9b1d-a25103b14b19","system_id":"levelo_inurba_marseille","lat":43.33717,"lon":5.391857,"is_reserved":false,"is_disabled":false,"rental_uris":{"android":"levelo://app?vid=336b3dcc-02cd-4811-9b1d-a25103b14b19","ios":"levelo://app?vid=336b3dcc-02cd-4811-9b1d-a25103b14b19"},"vehicle_type_id":"4","last_reported":1721758248,"current_range_meters":31200,"station_id":"ce4bhr92rcd13ifvqhsg","pricing_plan_id":"cebpf4jnsgd1na2vs0mg"},{"bike_id":"c15dc7ed-cd05-434f-836e-b2a864aec6df","system_id":"levelo_inurba_marseille","lat":43.33717,"lon":5.391857,"is_reserved":false,"is_disabled":false,"rental_uris":{"android":"levelo://app?vid=c15dc7ed-cd05-434f-836e-b2a864aec6df","ios":"levelo://app?vid=c15dc7ed-cd05-434f-836e-b2a864aec6df"},"vehicle_type_id":"4","last_reported":1721758248,"current_range_meters":16000,"station_id":"ce4bhr92rcd13ifvqhsg","pricing_plan_id":"cebpf4jnsgd1na2vs0mg"},{"bike_id":"3566bcdb-6200-4421-ad81-e3940f7a8587","system_id":"levelo_inurba_marseille","lat":43.33717,"lon":5.391857,"is_reserved":false,"is_disabled":false,"rental_uris":{"android":"levelo://app?vid=3566bcdb-6200-4421-ad81-e3940f7a8587","ios":"levelo://app?vid=3566bcdb-6200-4421-ad81-e3940f7a8587"},"vehicle_type_id":"4","last_reported":1721758248,"current_range_meters":11600,"station_id":"ce4bhr92rcd13ifvqhsg","pricing_plan_id":"cebpf4jnsgd1na2vs0mg"},{"bike_id":"73fe231e-c655-477f-add9-38fc42369806","system_id":"levelo_inurba_marseille","lat":43.337168,"lon":5.391825,"is_reserved":false,"is_disabled":false,"rental_uris":{"android":"levelo://app?vid=73fe231e-c655-477f-add9-38fc42369806","ios":"levelo://app?vid=73fe231e-c655-477f-add9-38fc42369806"},"vehicle_type_id":"4","last_reported":1721758248,"current_range_meters":16000,"station_id":"ce4bhr92rcd13ifvqhsg","pricing_plan_id":"cebpf4jnsgd1na2vs0mg"},{"bike_id":"4a83067f-ceaf-40b9-b17f-5912d55ac7c8","system_id":"levelo_inurba_marseille","lat":43.28801,"lon":5.3914,"is_reserved":false,"is_disabled":false,"rental_uris":{"android":"levelo://app?vid=4a83067f-ceaf-40b9-b17f-5912d55ac7c8","ios":"levelo://app?vid=4a83067f-ceaf-40b9-b17f-5912d55ac7c8"},"vehicle_type_id":"4","last_reported":1721758248,"current_range_meters":29200,"station_id":"","pricing_plan_id":"cebpf4jnsgd1na2vs0mg"},{"bike_id":"eebe5cfb-9b2b-49b9-ba57-3e77acc80b51","system_id":"levelo_inurba_marseille","lat":43.33717,"lon":5.391857,"is_reserved":false,"is_disabled":false,"rental_uris":{"android":"levelo://app?vid=eebe5cfb-9b2b-49b9-ba57-3e77acc80b51","ios":"levelo://app?vid=eebe5cfb-9b2b-49b9-ba57-3e77acc80b51"},"vehicle_type_id":"4","last_reported":1721758248,"current_range_meters":19200,"station_id":"ce4bhr92rcd13ifvqhsg","pricing_plan_id":"cebpf4jnsgd1na2vs0mg"},{"bike_id":"03ecd0b2-7d3c-4d59-bbb6-a0261dab98de","system_id":"levelo_inurba_marseille","lat":43.337168,"lon":5.391825,"is_reserved":false,"is_disabled":false,"rental_uris":{"android":"levelo://app?vid=03ecd0b2-7d3c-4d59-bbb6-a0261dab98de","ios":"levelo://app?vid=03ecd0b2-7d3c-4d59-bbb6-a0261dab98de"},"vehicle_type_id":"4","last_reported":1721758248,"current_range_meters":29600,"station_id":"ce4bhr92rcd13ifvqhsg","pricing_plan_id":"cebpf4jnsgd1na2vs0mg"},{"bike_id":"1ce0e84a-ed53-4a0f-b9ca-8f23f352faf4","system_id":"levelo_inurba_marseille","lat":43.337168,"lon":5.391825,"is_reserved":false,"is_disabled":false,"rental_uris":{"android":"levelo://app?vid=1ce0e84a-ed53-4a0f-b9ca-8f23f352faf4","ios":"levelo://app?vid=1ce0e84a-ed53-4a0f-b9ca-8f23f352faf4"},"vehicle_type_id":"4","last_reported":1721758248,"current_range_meters":16000,"station_id":"ce4bhr92rcd13ifvqhsg","pricing_plan_id":"cebpf4jnsgd1na2vs0mg"},{"bike_id":"f7494351-fdaa-4abe-9a83-982117ffd14c","system_id":"levelo_inurba_marseille","lat":43.32342,"lon":5.40628,"is_reserved":false,"is_disabled":false,"rental_uris":{"android":"levelo://app?vid=f7494351-fdaa-4abe-9a83-982117ffd14c","ios":"levelo://app?vid=f7494351-fdaa-4abe-9a83-982117ffd14c"},"vehicle_type_id":"4","last_reported":1721758248,"current_range_meters":0,"station_id":"ce4bhq92rcd13ifvqhjg","pricing_plan_id":"cebpf4jnsgd1na2vs0mg"},{"bike_id":"87a19131-c877-4dbf-81c5-15e851da4f19","system_id":"levelo_inurba_marseille","lat":43.284793,"lon":5.384113,"is_reserved":false,"is_disabled":false,"rental_uris":{"android":"levelo://app?vid=87a19131-c877-4dbf-81c5-15e851da4f19","ios":"levelo://app?vid=87a19131-c877-4dbf-81c5-15e851da4f19"},"vehicle_type_id":"4","last_reported":1721758248,"current_range_meters":0,"station_id":"ce4bh512rcd13ifvqe3g","pricing_plan_id":"cebpf4jnsgd1na2vs0mg"},{"bike_id":"ec1ceb82-fbe8-44ab-bea4-dc6cf459e9e0","system_id":"levelo_inurba_marseille","lat":43.288497,"lon":5.393089,"is_reserved":false,"is_disabled":false,"rental_uris":{"android":"levelo://app?vid=ec1ceb82-fbe8-44ab-bea4-dc6cf459e9e0","ios":"levelo://app?vid=ec1ceb82-fbe8-44ab-bea4-dc6cf459e9e0"},"vehicle_type_id":"4","last_reported":1721758248,"current_range_meters":27200,"station_id":"ce4bh2p2rcd13ifvqdi0","pricing_plan_id":"cebpf4jnsgd1na2vs0mg"},{"bike_id":"1ea22da5-cd52-4ac8-bd0d-0a76efb333a2","system_id":"levelo_inurba_marseille","lat":43.288501,"lon":5.393087,"is_reserved":false,"is_disabled":false,"rental_uris":{"android":"levelo://app?vid=1ea22da5-cd52-4ac8-bd0d-0a76efb333a2","ios":"levelo://app?vid=1ea22da5-cd52-4ac8-bd0d-0a76efb333a2"},"vehicle_type_id":"4","last_reported":1721758248,"current_range_meters":0,"station_id":"ce4bh2p2rcd13ifvqdi0","pricing_plan_id":"cebpf4jnsgd1na2vs0mg"},{"bike_id":"9063ab24-ae1e-49f8-877f-289242edfef4","system_id":"levelo_inurba_marseille","lat":43.283498,"lon":5.380948,"is_reserved":false,"is_disabled":false,"rental_uris":{"android":"levelo://app?vid=9063ab24-ae1e-49f8-877f-289242edfef4","ios":"levelo://app?vid=9063ab24-ae1e-49f8-877f-289242edfef4"},"vehicle_type_id":"4","last_reported":1721758248,"current_range_meters":0,"station_id":"ce4bh412rcd13ifvqdr0","pricing_plan_id":"cebpf4jnsgd1na2vs0mg"},{"bike_id":"3f4e80d4-39b8-4f0a-8a8f-7ff952b2c256","system_id":"levelo_inurba_marseille","lat":43.284214,"lon":5.349706,"is_reserved":false,"is_disabled":false,"rental_uris":{"android":"levelo://app?vid=3f4e80d4-39b8-4f0a-8a8f-7ff952b2c256","ios":"levelo://app?vid=3f4e80d4-39b8-4f0a-8a8f-7ff952b2c256"},"vehicle_type_id":"4","last_reported":1721758248,"current_range_meters":14800,"station_id":"ce4bhbh2rcd13ifvqepg","pricing_plan_id":"cebpf4jnsgd1na2vs0mg"},{"bike_id":"78eeb27e-efef-4415-8a90-2aa1c83e0295","system_id":"levelo_inurba_marseille","lat":43.28428,"lon":5.3499,"is_reserved":false,"is_disabled":false,"rental_uris":{"android":"levelo://app?vid=78eeb27e-efef-4415-8a90-2aa1c83e0295","ios":"levelo://app?vid=78eeb27e-efef-4415-8a90-2aa1c83e0295"},"vehicle_type_id":"4","last_reported":1721758248,"current_range_meters":18800,"station_id":"ce4bhbh2rcd13ifvqepg","pricing_plan_id":"cebpf4jnsgd1na2vs0mg"},{"bike_id":"eb2e15bc-011d-4039-8097-6cf01ddfdf0b","system_id":"levelo_inurba_marseille","lat":43.284252,"lon":5.349944,"is_reserved":false,"is_disabled":false,"rental_uris":{"android":"levelo://app?vid=eb2e15bc-011d-4039-8097-6cf01ddfdf0b","ios":"levelo://app?vid=eb2e15bc-011d-4039-8097-6cf01ddfdf0b"},"vehicle_type_id":"4","last_reported":1721758248,"current_range_meters":29200,"station_id":"ce4bhbh2rcd13ifvqepg","pricing_plan_id":"cebpf4jnsgd1na2vs0mg"},{"bike_id":"91913c80-8e04-4899-b26a-539cbce49d56","system_id":"levelo_inurba_marseille","lat":43.28426,"lon":5.34989,"is_reserved":false,"is_disabled":false,"rental_uris":{"android":"levelo://app?vid=91913c80-8e04-4899-b26a-539cbce49d56","ios":"levelo://app?vid=91913c80-8e04-4899-b26a-539cbce49d56"},"vehicle_type_id":"4","last_reported":1721758248,"current_range_meters":30000,"station_id":"ce4bhbh2rcd13ifvqepg","pricing_plan_id":"cebpf4jnsgd1na2vs0mg"},{"bike_id":"a1a3f8ae-0d77-4d82-b753-0933a6527657","system_id":"levelo_inurba_marseille","lat":43.28428,"lon":5.34982,"is_reserved":false,"is_disabled":false,"rental_uris":{"android":"levelo://app?vid=a1a3f8ae-0d77-4d82-b753-0933a6527657","ios":"levelo://app?vid=a1a3f8ae-0d77-4d82-b753-0933a6527657"},"vehicle_type_id":"4","last_reported":1721758248,"current_range_meters":8400,"station_id":"ce4bhbh2rcd13ifvqepg","pricing_plan_id":"cebpf4jnsgd1na2vs0mg"},{"bike_id":"49151580-21e7-4309-88d8-43a9e72d3293","system_id":"levelo_inurba_marseille","lat":43.28425,"lon":5.34991,"is_reserved":false,"is_disabled":false,"rental_uris":{"android":"levelo://app?vid=49151580-21e7-4309-88d8-43a9e72d3293","ios":"levelo://app?vid=49151580-21e7-4309-88d8-43a9e72d3293"},"vehicle_type_id":"4","last_reported":1721758248,"current_range_meters":8800,"station_id":"ce4bhbh2rcd13ifvqepg","pricing_plan_id":"cebpf4jnsgd1na2vs0mg"},{"bike_id":"b7d457f9-4801-42e6-a24b-eec75338f26e","system_id":"levelo_inurba_marseille","lat":43.28421,"lon":5.350015,"is_reserved":false,"is_disabled":false,"rental_uris":{"android":"levelo://app?vid=b7d457f9-4801-42e6-a24b-eec75338f26e","ios":"levelo://app?vid=b7d457f9-4801-42e6-a24b-eec75338f26e"},"vehicle_type_id":"4","last_reported":1721758248,"current_range_meters":15600,"station_id":"ce4bhbh2rcd13ifvqepg","pricing_plan_id":"cebpf4jnsgd1na2vs0mg"},{"bike_id":"433d3eaa-4a05-4507-8a7b-e7b75f985f88","system_id":"levelo_inurba_marseille","lat":43.28339,"lon":5.38096,"is_reserved":false,"is_disabled":false,"rental_uris":{"android":"levelo://app?vid=433d3eaa-4a05-4507-8a7b-e7b75f985f88","ios":"levelo://app?vid=433d3eaa-4a05-4507-8a7b-e7b75f985f88"},"vehicle_type_id":"4","last_reported":1721758248,"current_range_meters":0,"station_id":"ce4bh412rcd13ifvqdr0","pricing_plan_id":"cebpf4jnsgd1na2vs0mg"},{"bike_id":"2555281f-98b8-4a42-ad35-aeb773f4c71b","system_id":"levelo_inurba_marseille","lat":43.28423,"lon":5.34993,"is_reserved":false,"is_disabled":false,"rental_uris":{"android":"levelo://app?vid=2555281f-98b8-4a42-ad35-aeb773f4c71b","ios":"levelo://app?vid=2555281f-98b8-4a42-ad35-aeb773f4c71b"},"vehicle_type_id":"4","last_reported":1721758248,"current_range_meters":30800,"station_id":"ce4bhbh2rcd13ifvqepg","pricing_plan_id":"cebpf4jnsgd1na2vs0mg"},{"bike_id":"1d059918-1d45-40f8-99c5-5699bde9652d","system_id":"levelo_inurba_marseille","lat":43.284282,"lon":5.349762,"is_reserved":false,"is_disabled":false,"rental_uris":{"android":"levelo://app?vid=1d059918-1d45-40f8-99c5-5699bde9652d","ios":"levelo://app?vid=1d059918-1d45-40f8-99c5-5699bde9652d"},"vehicle_type_id":"4","last_reported":1721758248,"current_range_meters":31200,"station_id":"ce4bhbh2rcd13ifvqepg","pricing_plan_id":"cebpf4jnsgd1na2vs0mg"},{"bike_id":"c2d3ec80-fbf4-4f96-bbfa-b3171737ffc0","system_id":"levelo_inurba_marseille","lat":43.28427,"lon":5.34979,"is_reserved":false,"is_disabled":false,"rental_uris":{"android":"levelo://app?vid=c2d3ec80-fbf4-4f96-bbfa-b3171737ffc0","ios":"levelo://app?vid=c2d3ec80-fbf4-4f96-bbfa-b3171737ffc0"},"vehicle_type_id":"4","last_reported":1721758248,"current_range_meters":1600,"station_id":"ce4bhbh2rcd13ifvqepg","pricing_plan_id":"cebpf4jnsgd1na2vs0mg"},{"bike_id":"c84dfa88-ba6d-4565-9f8a-5bf4ada2234c","system_id":"levelo_inurba_marseille","lat":43.28422,"lon":5.34993,"is_reserved":false,"is_disabled":false,"rental_uris":{"android":"levelo://app?vid=c84dfa88-ba6d-4565-9f8a-5bf4ada2234c","ios":"levelo://app?vid=c84dfa88-ba6d-4565-9f8a-5bf4ada2234c"},"vehicle_type_id":"4","last_reported":1721758248,"current_range_meters":4000,"station_id":"ce4bhbh2rcd13ifvqepg","pricing_plan_id":"cebpf4jnsgd1na2vs0mg"},{"bike_id":"f90716e3-c70d-4a3c-814c-0d9308dd39d7","system_id":"levelo_inurba_marseille","lat":43.28422,"lon":5.34992,"is_reserved":false,"is_disabled":false,"rental_uris":{"android":"levelo://app?vid=f90716e3-c70d-4a3c-814c-0d9308dd39d7","ios":"levelo://app?vid=f90716e3-c70d-4a3c-814c-0d9308dd39d7"},"vehicle_type_id":"4","last_reported":1721758248,"current_range_meters":13200,"station_id":"ce4bhbh2rcd13ifvqepg","pricing_plan_id":"cebpf4jnsgd1na2vs0mg"},{"bike_id":"d42dda03-7cbc-44ef-91f1-d4c810bbe8f8","system_id":"levelo_inurba_marseille","lat":43.2842,"lon":5.34991,"is_reserved":false,"is_disabled":false,"rental_uris":{"android":"levelo://app?vid=d42dda03-7cbc-44ef-91f1-d4c810bbe8f8","ios":"levelo://app?vid=d42dda03-7cbc-44ef-91f1-d4c810bbe8f8"},"vehicle_type_id":"4","last_reported":1721758248,"current_range_meters":24800,"station_id":"ce4bhbh2rcd13ifvqepg","pricing_plan_id":"cebpf4jnsgd1na2vs0mg"},{"bike_id":"668ad084-ae44-44d4-9ead-51f2a6291729","system_id":"levelo_inurba_marseille","lat":43.284238,"lon":5.349771,"is_reserved":false,"is_disabled":false,"rental_uris":{"android":"levelo://app?vid=668ad084-ae44-44d4-9ead-51f2a6291729","ios":"levelo://app?vid=668ad084-ae44-44d4-9ead-51f2a6291729"},"vehicle_type_id":"4","last_reported":1721758248,"current_range_meters":9200,"station_id":"ce4bhbh2rcd13ifvqepg","pricing_plan_id":"cebpf4jnsgd1na2vs0mg"},{"bike_id":"5fc8e8d7-5cc9-492a-ad24-9606f3b88df0","system_id":"levelo_inurba_marseille","lat":43.284235,"lon":5.349763,"is_reserved":false,"is_disabled":false,"rental_uris":{"android":"levelo://app?vid=5fc8e8d7-5cc9-492a-ad24-9606f3b88df0","ios":"levelo://app?vid=5fc8e8d7-5cc9-492a-ad24-9606f3b88df0"},