{"last_updated":1744650544,"ttl":60,"version":"2.2","data":{"bikes":[{"bike_id":"4bf87257-120b-4469-8b14-d866b4c1b451","system_id":"levelo_inurba_marseille","lat":43.22925,"lon":5.35395,"is_reserved":false,"is_disabled":false,"rental_uris":{"android":"levelo://app?vid=4bf87257-120b-4469-8b14-d866b4c1b451","ios":"levelo://app?vid=4bf87257-120b-4469-8b14-d866b4c1b451"},"vehicle_type_id":"4","last_reported":1744650544,"current_range_meters":2800,"station_id":"cpo3532slgdg3j2ikp40","pricing_plan_id":"cebpf4jnsgd1na2vs0mg"},{"bike_id":"493cde9e-7859-4c26-a2e6-f744ee5d8553","system_id":"levelo_inurba_marseille","lat":43.31493,"lon":5.36576,"is_reserved":false,"is_disabled":false,"rental_uris":{"android":"levelo://app?vid=493cde9e-7859-4c26-a2e6-f744ee5d8553","ios":"levelo://app?vid=493cde9e-7859-4c26-a2e6-f744ee5d8553"},"vehicle_type_id":"4","last_reported":1744650544,"current_range_meters":2800,"station_id":"","pricing_plan_id":"cebpf4jnsgd1na2vs0mg"},{"bike_id":"5b77a833-8185-45c2-9fe3-07eb40df54ca","system_id":"levelo_inurba_marseille","lat":43.33995,"lon":5.38057,"is_reserved":false,"is_disabled":false,"rental_uris":{"android":"levelo://app?vid=5b77a833-8185-45c2-9fe3-07eb40df54ca","ios":"levelo://app?vid=5b77a833-8185-45c2-9fe3-07eb40df54ca"},"vehicle_type_id":"4","last_reported":1744650544,"current_range_meters":2800,"station_id":"","pricing_plan_id":"cebpf4jnsgd1na2vs0mg"},{"bike_id":"d4aee227-7959-44b3-b7b3-df3112370c3c","system_id":"levelo_inurba_marseille","lat":43.26207,"lon":5.37928,"is_reserved":false,"is_disabled":false,"rental_uris":{"android":"levelo://app?vid=d4aee227-7959-44b3-b7b3-df3112370c3c","ios":"levelo://app?vid=d4aee227-7959-44b3-b7b3-df3112370c3c"},"vehicle_type_id":"4","last_reported":1744650544,"current_range_meters":3200,"station_id":"ce4bhjp2rcd13ifvqg90","pricing_plan_id":"cebpf4jnsgd1na2vs0mg"},{"bike_id":"2e98c01b-1c9a-448c-bcb6-e62efeef841d","system_id":"levelo_inurba_marseille","lat":43.30784,"lon":5.37643,"is_reserved":false,"is_disabled":false,"rental_uris":{"android":"levelo://app?vid=2e98c01b-1c9a-448c-bcb6-e62efeef841d","ios":"levelo://app?vid=2e98c01b-1c9a-448c-bcb6-e62efeef841d"},"vehicle_type_id":"4","last_reported":1744650544,"current_range_meters":3200,"station_id":"ce4bgv92rcd13ifvqcq0","pricing_plan_id":"cebpf4jnsgd1na2vs0mg"},{"bike_id":"1e4f49b3-4efd-4bf6-a0df-e3045565cc05","system_id":"levelo_inurba_marseille","lat":43.2862,"lon":5.35109,"is_reserved":false,"is_disabled":false,"rental_uris":{"android":"levelo://app?vid=1e4f49b3-4efd-4bf6-a0df-e3045565cc05","ios":"levelo://app?vid=1e4f49b3-4efd-4bf6-a0df-e3045565cc05"},"vehicle_type_id":"4","last_reported":1744650544,"current_range_meters":3200,"station_id":"ce4bhch2rcd13ifvqeug","pricing_plan_id":"cebpf4jnsgd1na2vs0mg"},{"bike_id":"dc210897-1a34-4809-b228-7794a29e38ef","system_id":"levelo_inurba_marseille","lat":43.26959,"lon":5.4025,"is_reserved":false,"is_disabled":false,"rental_uris":{"android":"levelo://app?vid=dc210897-1a34-4809-b228-7794a29e38ef","ios":"levelo://app?vid=dc210897-1a34-4809-b228-7794a29e38ef"},"vehicle_type_id":"4","last_reported":1744650544,"current_range_meters":2800,"station_id":"cjm6bp8fraef2m0cb0m0","pricing_plan_id":"cebpf4jnsgd1na2vs0mg"},{"bike_id":"8d450fcb-7965-48c9-8cb9-bbf336a80f28","system_id":"levelo_inurba_marseille","lat":43.30796,"lon":5.38151,"is_reserved":false,"is_disabled":false,"rental_uris":{"android":"levelo://app?vid=8d450fcb-7965-48c9-8cb9-bbf336a80f28","ios":"levelo://app?vid=8d450fcb-7965-48c9-8cb9-bbf336a80f28"},"vehicle_type_id":"4","last_reported":1744650544,"current_range_meters":3200,"station_id":"ce4bgt12rcd13ifvqce0","pricing_plan_id":"cebpf4jnsgd1na2vs0mg"},{"bike_id":"49452ba2-809b-4d52-801d-7c63072cd009","system_id":"levelo_inurba_marseille","lat":43.29963,"lon":5.38509,"is_reserved":false,"is_disabled":false,"rental_uris":{"android":"levelo://app?vid=49452ba2-809b-4d52-801d-7c63072cd009","ios":"levelo://app?vid=49452ba2-809b-4d52-801d-7c63072cd009"},"vehicle_type_id":"4","last_reported":1744650544,"current_range_meters":2800,"station_id":"ce4bh192rcd13ifvqdc0","pricing_plan_id":"cebpf4jnsgd1na2vs0mg"},{"bike_id":"8fd38458-2b46-4752-bdaa-d5f77012ecac","system_id":"levelo_inurba_marseille","lat":43.27806,"lon":5.4072,"is_reserved":false,"is_disabled":false,"rental_uris":{"android":"levelo://app?vid=8fd38458-2b46-4752-bdaa-d5f77012ecac","ios":"levelo://app?vid=8fd38458-2b46-4752-bdaa-d5f77012ecac"},"vehicle_type_id":"4","last_reported":1744650544,"current_range_meters":3600,"station_id":"ce4bhnh2rcd13ifvqgtg","pricing_plan_id":"cebpf4jnsgd1na2vs0mg"},{"bike_id":"3257fee6-613c-48b0-b2ae-7ab531a6c309","system_id":"levelo_inurba_marseille","lat":43.27613,"lon":5.36118,"is_reserved":false,"is_disabled":false,"rental_uris":{"android":"levelo://app?vid=3257fee6-613c-48b0-b2ae-7ab531a6c309","ios":"levelo://app?vid=3257fee6-613c-48b0-b2ae-7ab531a6c309"},"vehicle_type_id":"4","last_reported":1744650544,"current_range_meters":3600,"station_id":"ce4bgj92rcd13ifvqbe0","pricing_plan_id":"cebpf4jnsgd1na2vs0mg"},{"bike_id":"fa761b6f-973e-4353-bd01-afbb65105d74","system_id":"levelo_inurba_marseille","lat":43.28434,"lon":5.3918,"is_reserved":false,"is_disabled":false,"rental_uris":{"android":"levelo://app?vid=fa761b6f-973e-4353-bd01-afbb65105d74","ios":"levelo://app?vid=fa761b6f-973e-4353-bd01-afbb65105d74"},"vehicle_type_id":"4","last_reported":1744650544,"current_range_meters":3600,"station_id":"ce4bhoh2rcd13ifvqh5g","pricing_plan_id":"cebpf4jnsgd1na2vs0mg"},{"bike_id":"3d16c2e3-7c12-4342-883a-029e0fc16b05","system_id":"levelo_inurba_marseille","lat":43.3105,"lon":5.37092,"is_reserved":false,"is_disabled":false,"rental_uris":{"android":"levelo://app?vid=3d16c2e3-7c12-4342-883a-029e0fc16b05","ios":"levelo://app?vid=3d16c2e3-7c12-4342-883a-029e0fc16b05"},"vehicle_type_id":"4","last_reported":1744650544,"current_range_meters":3600,"station_id":"","pricing_plan_id":"cebpf4jnsgd1na2vs0mg"},{"bike_id":"944bddab-9f41-4da7-80e2-b3e803e6b9a5","system_id":"levelo_inurba_marseille","lat":43.211996,"lon":5.350717,"is_reserved":false,"is_disabled":false,"rental_uris":{"android":"levelo://app?vid=944bddab-9f41-4da7-80e2-b3e803e6b9a5","ios":"levelo://app?vid=944bddab-9f41-4da7-80e2-b3e803e6b9a5"},"vehicle_type_id":"4","last_reported":1744650544,"current_range_meters":3600,"station_id":"st_cvj6sg6p6f1abm77japg","pricing_plan_id":"cebpf4jnsgd1na2vs0mg"},{"bike_id":"49c83fe9-f9f2-4e2f-8066-5f58e0bee74e","system_id":"levelo_inurba_marseille","lat":43.23149,"lon":5.43708,"is_reserved":false,"is_disabled":false,"rental_uris":{"android":"levelo://app?vid=49c83fe9-f9f2-4e2f-8066-5f58e0bee74e","ios":"levelo://app?vid=49c83fe9-f9f2-4e2f-8066-5f58e0bee74e"},"vehicle_type_id":"4","last_reported":1744650544,"current_range_meters":3600,"station_id":"ce4bhmp2rcd13ifvqgog","pricing_plan_id":"cebpf4jnsgd1na2vs0mg"},{"bike_id":"c50dd664-be76-4a89-aa87-6a9805272461","system_id":"levelo_inurba_marseille","lat":43.28692,"lon":5.37402,"is_reserved":false,"is_disabled":false,"rental_uris":{"android":"levelo://app?vid=c50dd664-be76-4a89-aa87-6a9805272461","ios":"levelo://app?vid=c50dd664-be76-4a89-aa87-6a9805272461"},"vehicle_type_id":"4","last_reported":1744650544,"current_range_meters":4000,"station_id":"ce4bh3p2rcd13ifvqdq0","pricing_plan_id":"cebpf4jnsgd1na2vs0mg"},{"bike_id":"ff081c4e-062d-4404-b776-6799d0443d0c","system_id":"levelo_inurba_marseille","lat":43.28436,"lon":5.3919,"is_reserved":false,"is_disabled":false,"rental_uris":{"android":"levelo://app?vid=ff081c4e-062d-4404-b776-6799d0443d0c","ios":"levelo://app?vid=ff081c4e-062d-4404-b776-6799d0443d0c"},"vehicle_type_id":"4","last_reported":1744650544,"current_range_meters":4000,"station_id":"ce4bhoh2rcd13ifvqh5g","pricing_plan_id":"cebpf4jnsgd1na2vs0mg"},{"bike_id":"6db93bc8-c7a5-430b-85c6-1725072957c9","system_id":"levelo_inurba_marseille","lat":43.3004,"lon":5.37767,"is_reserved":false,"is_disabled":false,"rental_uris":{"android":"levelo://app?vid=6db93bc8-c7a5-430b-85c6-1725072957c9","ios":"levelo://app?vid=6db93bc8-c7a5-430b-85c6-1725072957c9"},"vehicle_type_id":"4","last_reported":1744650544,"current_range_meters":4000,"station_id":"","pricing_plan_id":"cebpf4jnsgd1na2vs0mg"},{"bike_id":"a4490cdc-2011-4963-b56b-d7f006013565","system_id":"levelo_inurba_marseille","lat":43.23195,"lon":5.35555,"is_reserved":false,"is_disabled":false,"rental_uris":{"android":"levelo://app?vid=a4490cdc-2011-4963-b56b-d7f006013565","ios":"levelo://app?vid=a4490cdc-2011-4963-b56b-d7f006013565"},"vehicle_type_id":"4","last_reported":1744650544,"current_range_meters":3600,"station_id":"ce4bhu92rcd13ifvqi70","pricing_plan_id":"cebpf4jnsgd1na2vs0mg"},{"bike_id":"917bf86a-454f-4eaf-bd45-2b926249d6f9","system_id":"levelo_inurba_marseille","lat":43.256539,"lon":5.408255,"is_reserved":false,"is_disabled":false,"rental_uris":{"android":"levelo://app?vid=917bf86a-454f-4eaf-bd45-2b926249d6f9","ios":"levelo://app?vid=917bf86a-454f-4eaf-bd45-2b926249d6f9"},"vehicle_type_id":"4","last_reported":1744650544,"current_range_meters":4000,"station_id":"ce4bhkp2rcd13ifvqgd0","pricing_plan_id":"cebpf4jnsgd1na2vs0mg"},{"bike_id":"18ce97ee-5b2d-4b31-91fd-cf30957da029","system_id":"levelo_inurba_marseille","lat":43.323853,"lon":5.382063,"is_reserved":false,"is_disabled":false,"rental_uris":{"android":"levelo://app?vid=18ce97ee-5b2d-4b31-91fd-cf30957da029","ios":"levelo://app?vid=18ce97ee-5b2d-4b31-91fd-cf30957da029"},"vehicle_type_id":"4","last_reported":1744650544,"current_range_meters":4400,"station_id":"ce4bhr92rcd13ifvqhrg","pricing_plan_id":"cebpf4jnsgd1na2vs0mg"},{"bike_id":"28c47d01-f330-4e58-af61-1add002005f4","system_id":"levelo_inurba_marseille","lat":43.29191,"lon":5.35795,"is_reserved":false,"is_disabled":false,"rental_uris":{"android":"levelo://app?vid=28c47d01-f330-4e58-af61-1add002005f4","ios":"levelo://app?vid=28c47d01-f330-4e58-af61-1add002005f4"},"vehicle_type_id":"4","last_reported":1744650544,"current_range_meters":4400,"station_id":"ce4bhb12rcd13ifvqel0","pricing_plan_id":"cebpf4jnsgd1na2vs0mg"},{"bike_id":"f1a84a13-1418-4a9c-b4aa-660a4b91ded4","system_id":"levelo_inurba_marseille","lat":43.2987,"lon":5.39738,"is_reserved":false,"is_disabled":false,"rental_uris":{"android":"levelo://app?vid=f1a84a13-1418-4a9c-b4aa-660a4b91ded4","ios":"levelo://app?vid=f1a84a13-1418-4a9c-b4aa-660a4b91ded4"},"vehicle_type_id":"4","last_reported":1744650544,"current_range_meters":4400,"station_id":"ce4bh0h2rcd13ifvqd50","pricing_plan_id":"cebpf4jnsgd1na2vs0mg"},{"bike_id":"24ffcd8f-f921-4f5f-92e3-5784263bca8c","system_id":"levelo_inurba_marseille","lat":43.29703,"lon":5.36619,"is_reserved":false,"is_disabled":false,"rental_uris":{"android":"levelo://app?vid=24ffcd8f-f921-4f5f-92e3-5784263bca8c","ios":"levelo://app?vid=24ffcd8f-f921-4f5f-92e3-5784263bca8c"},"vehicle_type_id":"4","last_reported":1744650544,"current_range_meters":4400,"station_id":"ce4bgn12rcd13ifvqbt0","pricing_plan_id":"cebpf4jnsgd1na2vs0mg"},{"bike_id":"c63ed2ec-8177-467b-8581-8cb5a65609fb","system_id":"levelo_inurba_marseille","lat":43.24415,"lon":5.37045,"is_reserved":false,"is_disabled":false,"rental_uris":{"android":"levelo://app?vid=c63ed2ec-8177-467b-8581-8cb5a65609fb","ios":"levelo://app?vid=c63ed2ec-8177-467b-8581-8cb5a65609fb"},"vehicle_type_id":"4","last_reported":1744650544,"current_range_meters":4800,"station_id":"ce4bhhh2rcd13ifvqfk0","pricing_plan_id":"cebpf4jnsgd1na2vs0mg"},{"bike_id":"8d51576e-6261-4137-aea2-3d17cb08ff29","system_id":"levelo_inurba_marseille","lat":43.26936,"lon":5.38916,"is_reserved":false,"is_disabled":false,"rental_uris":{"android":"levelo://app?vid=8d51576e-6261-4137-aea2-3d17cb08ff29","ios":"levelo://app?vid=8d51576e-6261-4137-aea2-3d17cb08ff29"},"vehicle_type_id":"4","last_reported":1744650544,"current_range_meters":4800,"station_id":"ce4bhhh2rcd13ifvqfl0","pricing_plan_id":"cebpf4jnsgd1na2vs0mg"},{"bike_id":"a739453d-434a-492f-a1a2-593c49e2a19f","system_id":"levelo_inurba_marseille","lat":43.2943,"lon":5.39755,"is_reserved":false,"is_disabled":false,"rental_uris":{"android":"levelo://app?vid=a739453d-434a-492f-a1a2-593c49e2a19f","ios":"levelo://app?vid=a739453d-434a-492f-a1a2-593c49e2a19f"},"vehicle_type_id":"4","last_reported":1744650544,"current_range_meters":4400,"station_id":"ce4bh3h2rcd13ifvqdo0","pricing_plan_id":"cebpf4jnsgd1na2vs0mg"},{"bike_id":"caffca0f-4aa3-4aaf-a020-b7190befb739","system_id":"levelo_inurba_marseille","lat":43.30137,"lon":5.38763,"is_reserved":false,"is_disabled":true,"rental_uris":{"android":"levelo://app?vid=caffca0f-4aa3-4aaf-a020-b7190befb739","ios":"levelo://app?vid=caffca0f-4aa3-4aaf-a020-b7190befb739"},"vehicle_type_id":"4","last_reported":1744650544,"current_range_meters":5600,"station_id":"ce4bghh2rcd13ifvqb60","pricing_plan_id":"cebpf4jnsgd1na2vs0mg"},{"bike_id":"06765196-87c0-4032-9005-5c5fe0e32b29","system_id":"levelo_inurba_marseille","lat":43.31131,"lon":5.37779,"is_reserved":false,"is_disabled":false,"rental_uris":{"android":"levelo://app?vid=06765196-87c0-4032-9005-5c5fe0e32b29","ios":"levelo://app?vid=06765196-87c0-4032-9005-5c5fe0e32b29"},"vehicle_type_id":"4","last_reported":1744650544,"current_range_meters":5600,"station_id":"ce4bgt92rcd13ifvqcg0","pricing_plan_id":"cebpf4jnsgd1na2vs0mg"},{"bike_id":"e22944f9-7a3f-41f5-9259-4d46bb74461e","system_id":"levelo_inurba_marseille","lat":43.29575,"lon":5.37492,"is_reserved":false,"is_disabled":false,"rental_uris":{"android":"levelo://app?vid=e22944f9-7a3f-41f5-9259-4d46bb74461e","ios":"levelo://app?vid=e22944f9-7a3f-41f5-9259-4d46bb74461e"},"vehicle_type_id":"4","last_reported":1744650544,"current_range_meters":5600,"station_id":"ce4bgh92rcd13ifvqb50","pricing_plan_id":"cebpf4jnsgd1na2vs0mg"},{"bike_id":"844178e3-ea95-47d0-a6ed-a5ef384c84d8","system_id":"levelo_inurba_marseille","lat":43.29937,"lon":5.36552,"is_reserved":false,"is_disabled":false,"rental_uris":{"android":"levelo://app?vid=844178e3-ea95-47d0-a6ed-a5ef384c84d8","ios":"levelo://app?vid=844178e3-ea95-47d0-a6ed-a5ef384c84d8"},"vehicle_type_id":"4","last_reported":1744650544,"current_range_meters":5600,"station_id":"ce4bgm92rcd13ifvqbr0","pricing_plan_id":"cebpf4jnsgd1na2vs0mg"},{"bike_id":"b820deac-0af3-492d-9fb9-8843a3c32450","system_id":"levelo_inurba_marseille","lat":43.27934,"lon":5.41051,"is_reserved":false,"is_disabled":false,"rental_uris":{"android":"levelo://app?vid=b820deac-0af3-492d-9fb9-8843a3c32450","ios":"levelo://app?vid=b820deac-0af3-492d-9fb9-8843a3c32450"},"vehicle_type_id":"4","last_reported":1744650544,"current_range_meters":5600,"station_id":"ce4bhnp2rcd13ifvqh0g","pricing_plan_id":"cebpf4jnsgd1na2vs0mg"},{"bike_id":"b3161fd5-d378-4fe5-a95a-ee40759ea511","system_id":"levelo_inurba_marseille","lat":43.28373,"lon":5.38618,"is_reserved":false,"is_disabled":false,"rental_uris":{"android":"levelo://app?vid=b3161fd5-d378-4fe5-a95a-ee40759ea511","ios":"levelo://app?vid=b3161fd5-d378-4fe5-a95a-ee40759ea511"},"vehicle_type_id":"4","last_reported":1744650544,"current_range_meters":4800,"station_id":"ce4bh492rcd13ifvqdvg","pricing_plan_id":"cebpf4jnsgd1na2vs0mg"},{"bike_id":"651de82e-d31e-4dc2-965c-d0aa637d29ee","system_id":"levelo_inurba_marseille","lat":43.24181,"lon":5.39731,"is_reserved":false,"is_disabled":false,"rental_uris":{"android":"levelo://app?vid=651de82e-d31e-4dc2-965c-d0aa637d29ee","ios":"levelo://app?vid=651de82e-d31e-4dc2-965c-d0aa637d29ee"},"vehicle_type_id":"4","last_reported":1744650544,"current_range_meters":5600,"station_id":"ce4bhn12rcd13ifvqgpg","pricing_plan_id":"cebpf4jnsgd1na2vs0mg"},{"bike_id":"76450c2c-888f-4d08-a5c0-d825237615aa","system_id":"levelo_inurba_marseille","lat":43.27243,"lon":5.42286,"is_reserved":false,"is_disabled":false,"rental_uris":{"android":"levelo://app?vid=76450c2c-888f-4d08-a5c0-d825237615aa","ios":"levelo://app?vid=76450c2c-888f-4d08-a5c0-d825237615aa"},"vehicle_type_id":"4","last_reported":1744650544,"current_range_meters":6000,"station_id":"","pricing_plan_id":"cebpf4jnsgd1na2vs0mg"},{"bike_id":"17637803-ed28-487c-b796-1f9bd7ef5a65","system_id":"levelo_inurba_marseille","lat":43.23063,"lon":5.35488,"is_reserved":false,"is_disabled":false,"rental_uris":{"android":"levelo://app?vid=17637803-ed28-487c-b796-1f9bd7ef5a65","ios":"levelo://app?vid=17637803-ed28-487c-b796-1f9bd7ef5a65"},"vehicle_type_id":"4","last_reported":1744650544,"current_range_meters":6000,"station_id":"cpo3342slgdg3j2ifvpg","pricing_plan_id":"cebpf4jnsgd1na2vs0mg"},{"bike_id":"63fa6274-f5a7-4ac5-803d-1a0fec34bba0","system_id":"levelo_inurba_marseille","lat":43.28331,"lon":5.38086,"is_reserved":false,"is_disabled":false,"rental_uris":{"android":"levelo://app?vid=63fa6274-f5a7-4ac5-803d-1a0fec34bba0","ios":"levelo://app?vid=63fa6274-f5a7-4ac5-803d-1a0fec34bba0"},"vehicle_type_id":"4","last_reported":1744650544,"current_range_meters":6000,"station_id":"ce4bh412rcd13ifvqdr0","pricing_plan_id":"cebpf4jnsgd1na2vs0mg"},{"bike_id":"9ba51a6a-1275-4570-a99c-96f09b8c07c5","system_id":"levelo_inurba_marseille","lat":43.29929,"lon":5.36541,"is_reserved":false,"is_disabled":false,"rental_uris":{"android":"levelo://app?vid=9ba51a6a-1275-4570-a99c-96f09b8c07c5","ios":"levelo://app?vid=9ba51a6a-1275-4570-a99c-96f09b8c07c5"},"vehicle_type_id":"4","last_reported":1744650544,"current_range_meters":6000,"station_id":"ce4bgm92rcd13ifvqbr0","pricing_plan_id":"cebpf4jnsgd1na2vs0mg"},{"bike_id":"78e5e9fc-0fc5-41fa-a1b1-617b5e4db10c","system_id":"levelo_inurba_marseille","lat":43.21749,"lon":5.34613,"is_reserved":false,"is_disabled":false,"rental_uris":{"android":"levelo://app?vid=78e5e9fc-0fc5-41fa-a1b1-617b5e4db10c","ios":"levelo://app?vid=78e5e9fc-0fc5-41fa-a1b1-617b5e4db10c"},"vehicle_type_id":"4","last_reported":1744650544,"current_range_meters":6000,"station_id":"st_cvj6r9ubvosntc0bgbag","pricing_plan_id":"cebpf4jnsgd1na2vs0mg"},{"bike_id":"8166f7fa-9f7a-475b-b853-2637fdef21da","system_id":"levelo_inurba_marseille","lat":43.27989,"lon":5.41656,"is_reserved":false,"is_disabled":false,"rental_uris":{"android":"levelo://app?vid=8166f7fa-9f7a-475b-b853-2637fdef21da","ios":"levelo://app?vid=8166f7fa-9f7a-475b-b853-2637fdef21da"},"vehicle_type_id":"4","last_reported":1744650544,"current_range_meters":6400,"station_id":"ce4bho12rcd13ifvqh1g","pricing_plan_id":"cebpf4jnsgd1na2vs0mg"},{"bike_id":"2f5b344b-73b0-414a-8b4a-87fde9680be3","system_id":"levelo_inurba_marseille","lat":43.29041,"lon":5.38642,"is_reserved":false,"is_disabled":false,"rental_uris":{"android":"levelo://app?vid=2f5b344b-73b0-414a-8b4a-87fde9680be3","ios":"levelo://app?vid=2f5b344b-73b0-414a-8b4a-87fde9680be3"},"vehicle_type_id":"4","last_reported":1744650544,"current_range_meters":6400,"station_id":"ce4bh4p2rcd13ifvqe0g","pricing_plan_id":"cebpf4jnsgd1na2vs0mg"},{"bike_id":"f58ba6bc-b7cb-476b-8017-994f4d3d5398","system_id":"levelo_inurba_marseille","lat":43.2926,"lon":5.38443,"is_reserved":false,"is_disabled":true,"rental_uris":{"android":"levelo://app?vid=f58ba6bc-b7cb-476b-8017-994f4d3d5398","ios":"levelo://app?vid=f58ba6bc-b7cb-476b-8017-994f4d3d5398"},"vehicle_type_id":"4","last_reported":1744650544,"current_range_meters":6400,"station_id":"ce4bh692rcd13ifvqea0","pricing_plan_id":"cebpf4jnsgd1na2vs0mg"},{"bike_id":"819f37c3-b0c2-40b3-afb3-df99fa7939f8","system_id":"levelo_inurba_marseille","lat":43.29957,"lon":5.41322,"is_reserved":false,"is_disabled":false,"rental_uris":{"android":"levelo://app?vid=819f37c3-b0c2-40b3-afb3-df99fa7939f8","ios":"levelo://app?vid=819f37c3-b0c2-40b3-afb3-df99fa7939f8"},"vehicle_type_id":"4","last_reported":1744650544,"current_range_meters":6400,"station_id":"ce4bhp12rcd13ifvqh9g","pricing_plan_id":"cebpf4jnsgd1na2vs0mg"},{"bike_id":"da6601d7-303f-4ed8-a5d4-dd67480b3da7","system_id":"levelo_inurba_marseille","lat":43.26216,"lon":5.40454,"is_reserved":false,"is_disabled":false,"rental_uris":{"android":"levelo://app?vid=da6601d7-303f-4ed8-a5d4-dd67480b3da7","ios":"levelo://app?vid=da6601d7-303f-4ed8-a5d4-dd67480b3da7"},"vehicle_type_id":"4","last_reported":1744650544,"current_range_meters":6400,"station_id":"ce4bhmh2rcd13ifvqgmg","pricing_plan_id":"cebpf4jnsgd1na2vs0mg"},{"bike_id":"103a0598-bcdb-4ecd-93d5-9a88a653e8eb","system_id":"levelo_inurba_marseille","lat":43.28613,"lon":5.35118,"is_reserved":false,"is_disabled":false,"rental_uris":{"android":"levelo://app?vid=103a0598-bcdb-4ecd-93d5-9a88a653e8eb","ios":"levelo://app?vid=103a0598-bcdb-4ecd-93d5-9a88a653e8eb"},"vehicle_type_id":"4","last_reported":1744650544,"current_range_meters":6400,"station_id":"ce4bhch2rcd13ifvqeug","pricing_plan_id":"cebpf4jnsgd1na2vs0mg"},{"bike_id":"ad2cb50d-d4f1-4fca-923d-df97062387a9","system_id":"levelo_inurba_marseille","lat":43.255,"lon":5.37661,"is_reserved":false,"is_disabled":false,"rental_uris":{"android":"levelo://app?vid=ad2cb50d-d4f1-4fca-923d-df97062387a9","ios":"levelo://app?vid=ad2cb50d-d4f1-4fca-923d-df97062387a9"},"vehicle_type_id":"4","last_reported":1744650544,"current_range_meters":6800,"station_id":"ce4bhh12rcd13ifvqff0","pricing_plan_id":"cebpf4jnsgd1na2vs0mg"},{"bike_id":"0c814ed3-7b85-421f-99e5-eda39653632e","system_id":"levelo_inurba_marseille","lat":43.2903,"lon":5.38639,"is_reserved":false,"is_disabled":false,"rental_uris":{"android":"levelo://app?vid=0c814ed3-7b85-421f-99e5-eda39653632e","ios":"levelo://app?vid=0c814ed3-7b85-421f-99e5-eda39653632e"},"vehicle_type_id":"4","last_reported":1744650544,"current_range_meters":6800,"station_id":"ce4bh4p2rcd13ifvqe0g","pricing_plan_id":"cebpf4jnsgd1na2vs0mg"},{"bike_id":"b55dd5e7-54b2-4035-b945-7b626dd7afc7","system_id":"levelo_inurba_marseille","lat":43.28016,"lon":5.40584,"is_reserved":false,"is_disabled":false,"rental_uris":{"android":"levelo://app?vid=b55dd5e7-54b2-4035-b945-7b626dd7afc7","ios":"levelo://app?vid=b55dd5e7-54b2-4035-b945-7b626dd7afc7"},"vehicle_type_id":"4","last_reported":1744650544,"current_range_meters":6800,"station_id":"","pricing_plan_id":"cebpf4jnsgd1na2vs0mg"},{"bike_id":"17bcdb68-6679-48a9-9506-4dfa2d2ddaf7","system_id":"levelo_inurba_marseille","lat":43.27945,"lon":5.41046,"is_reserved":false,"is_disabled":false,"rental_uris":{"android":"levelo://app?vid=17bcdb68-6679-48a9-9506-4dfa2d2ddaf7","ios":"levelo://app?vid=17bcdb68-6679-48a9-9506-4dfa2d2ddaf7"},"vehicle_type_id":"4","last_reported":1744650544,"current_range_meters":6800,"station_id":"ce4bhnp2rcd13ifvqh0g","pricing_plan_id":"cebpf4jnsgd1na2vs0mg"},{"bike_id":"4d8a709c-ace7-4c2c-a5f3-142e03d19762","system_id":"levelo_inurba_marseille","lat":43.275586,"lon":5.384152,"is_reserved":false,"is_disabled":false,"rental_uris":{"android":"levelo://app?vid=4d8a709c-ace7-4c2c-a5f3-142e03d19762","ios":"levelo://app?vid=4d8a709c-ace7-4c2c-a5f3-142e03d19762"},"vehicle_type_id":"4","last_reported":1744650544,"current_range_meters":6800,"station_id":"ce4bhh92rcd13ifvqfi0","pricing_plan_id":"cebpf4jnsgd1na2vs0mg"},{"bike_id":"7a3c62f1-4969-47f7-b539-1c832efc1c25","system_id":"levelo_inurba_marseille","lat":43.269339,"lon":5.402702,"is_reserved":false,"is_disabled":false,"rental_uris":{"android":"levelo://app?vid=7a3c62f1-4969-47f7-b539-1c832efc1c25","ios":"levelo://app?vid=7a3c62f1-4969-47f7-b539-1c832efc1c25"},"vehicle_type_id":"4","last_reported":1744650544,"current_range_meters":6800,"station_id":"cjm6bp8fraef2m0cb0m0","pricing_plan_id":"cebpf4jnsgd1na2vs0mg"},{"bike_id":"d473501f-3675-4765-85a3-61a71171c7d1","system_id":"levelo_inurba_marseille","lat":43.2762,"lon":5.36113,"is_reserved":false,"is_disabled":false,"rental_uris":{"android":"levelo://app?vid=d473501f-3675-4765-85a3-61a71171c7d1","ios":"levelo://app?vid=d473501f-3675-4765-85a3-61a71171c7d1"},"vehicle_type_id":"4","last_reported":1744650544,"current_range_meters":6800,"station_id":"ce4bgj92rcd13ifvqbe0","pricing_plan_id":"cebpf4jnsgd1na2vs0mg"},{"bike_id":"3a1b5b56-71e6-4e42-ae2b-b6f17cd82633","system_id":"levelo_inurba_marseille","lat":43.29031,"lon":5.38626,"is_reserved":false,"is_disabled":false,"rental_uris":{"android":"levelo://app?vid=3a1b5b56-71e6-4e42-ae2b-b6f17cd82633","ios":"levelo://app?vid=3a1b5b56-71e6-4e42-ae2b-b6f17cd82633"},"vehicle_type_id":"4","last_reported":1744650544,"current_range_meters":6800,"station_id":"ce4bh4p2rcd13ifvqe0g","pricing_plan_id":"cebpf4jnsgd1na2vs0mg"},{"bike_id":"9a2d9200-b72d-4bb5-b777-04a19a4a0bf9","system_id":"levelo_inurba_marseille","lat":43.29431,"lon":5.38619,"is_reserved":false,"is_disabled":false,"rental_uris":{"android":"levelo://app?vid=9a2d9200-b72d-4bb5-b777-04a19a4a0bf9","ios":"levelo://app?vid=9a2d9200-b72d-4bb5-b777-04a19a4a0bf9"},"vehicle_type_id":"4","last_reported":1744650544,"current_range_meters":7200,"station_id":"ce4bh2h2rcd13ifvqdh0","pricing_plan_id":"cebpf4jnsgd1na2vs0mg"},{"bike_id":"6758b619-e079-4e3b-8c9d-507245051b89","system_id":"levelo_inurba_marseille","lat":43.27172,"lon":5.40992,"is_reserved":false,"is_disabled":false,"rental_uris":{"android":"levelo://app?vid=6758b619-e079-4e3b-8c9d-507245051b89","ios":"levelo://app?vid=6758b619-e079-4e3b-8c9d-507245051b89"},"vehicle_type_id":"4","last_reported":1744650544,"current_range_meters":7200,"station_id":"ce4bhl12rcd13ifvqgf0","pricing_plan_id":"cebpf4jnsgd1na2vs0mg"},{"bike_id":"e1cfb2db-9308-45d0-913f-899415789267","system_id":"levelo_inurba_marseille","lat":43.25832,"lon":5.39441,"is_reserved":false,"is_disabled":false,"rental_uris":{"android":"levelo://app?vid=e1cfb2db-9308-45d0-913f-899415789267","ios":"levelo://app?vid=e1cfb2db-9308-45d0-913f-899415789267"},"vehicle_type_id":"4","last_reported":1744650544,"current_range_meters":7200,"station_id":"ce4bhip2rcd13ifvqft0","pricing_plan_id":"cebpf4jnsgd1na2vs0mg"},{"bike_id":"1756ecba-1706-4846-b93d-00b1a265577e","system_id":"levelo_inurba_marseille","lat":43.29933,"lon":5.36551,"is_reserved":false,"is_disabled":false,"rental_uris":{"android":"levelo://app?vid=1756ecba-1706-4846-b93d-00b1a265577e","ios":"levelo://app?vid=1756ecba-1706-4846-b93d-00b1a265577e"},"vehicle_type_id":"4","last_reported":1744650544,"current_range_meters":7200,"station_id":"ce4bgm92rcd13ifvqbr0","pricing_plan_id":"cebpf4jnsgd1na2vs0mg"},{"bike_id":"19a89524-a9e5-411c-9a2d-95c0f553dcf9","system_id":"levelo_inurba_marseille","lat":43.31996,"lon":5.38157,"is_reserved":false,"is_disabled":false,"rental_uris":{"android":"levelo://app?vid=19a89524-a9e5-411c-9a2d-95c0f553dcf9","ios":"levelo://app?vid=19a89524-a9e5-411c-9a2d-95c0f553dcf9"},"vehicle_type_id":"4","last_reported":1744650544,"current_range_meters":7200,"station_id":"ce4bhr12rcd13ifvqhpg","pricing_plan_id":"cebpf4jnsgd1na2vs0mg"},{"bike_id":"ffd9a623-0631-4899-8f41-7f2e09483ce4","system_id":"levelo_inurba_marseille","lat":43.28468,"lon":5.35902,"is_reserved":false,"is_disabled":false,"rental_uris":{"android":"levelo://app?vid=ffd9a623-0631-4899-8f41-7f2e09483ce4","ios":"levelo://app?vid=ffd9a623-0631-4899-8f41-7f2e09483ce4"},"vehicle_type_id":"4","last_reported":1744650544,"current_range_meters":7200,"station_id":"ce4bhah2rcd13ifvqei0","pricing_plan_id":"cebpf4jnsgd1na2vs0mg"},{"bike_id":"cdefaf23-b564-4f66-ad44-d79e40a15561","system_id":"levelo_inurba_marseille","lat":43.30421,"lon":5.41275,"is_reserved":false,"is_disabled":false,"rental_uris":{"android":"levelo://app?vid=cdefaf23-b564-4f66-ad44-d79e40a15561","ios":"levelo://app?vid=cdefaf23-b564-4f66-ad44-d79e40a15561"},"vehicle_type_id":"4","last_reported":1744650544,"current_range_meters":7200,"station_id":"ce4bhop2rcd13ifvqh8g","pricing_plan_id":"cebpf4jnsgd1na2vs0mg"},{"bike_id":"a98a0159-c1be-483e-b0a5-a6a6974ddd4d","system_id":"levelo_inurba_marseille","lat":43.2418,"lon":5.39732,"is_reserved":false,"is_disabled":false,"rental_uris":{"android":"levelo://app?vid=a98a0159-c1be-483e-b0a5-a6a6974ddd4d","ios":"levelo://app?vid=a98a0159-c1be-483e-b0a5-a6a6974ddd4d"},"vehicle_type_id":"4","last_reported":1744650544,"current_range_meters":7200,"station_id":"ce4bhn12rcd13ifvqgpg","pricing_plan_id":"cebpf4jnsgd1na2vs0mg"},{"bike_id":"2a7f4cb6-97be-42fd-9b98-eefacd507be1","system_id":"levelo_inurba_marseille","lat":43.28439,"lon":5.39202,"is_reserved":false,"is_disabled":false,"rental_uris":{"android":"levelo://app?vid=2a7f4cb6-97be-42fd-9b98-eefacd507be1","ios":"levelo://app?vid=2a7f4cb6-97be-42fd-9b98-eefacd507be1"},"vehicle_type_id":"4","last_reported":1744650544,"current_range_meters":7200,"station_id":"ce4bhoh2rcd13ifvqh5g","pricing_plan_id":"cebpf4jnsgd1na2vs0mg"},{"bike_id":"05d4c395-e8c0-47e2-b8b5-ae57792419e6","system_id":"levelo_inurba_marseille","lat":43.25002,"lon":5.38925,"is_reserved":false,"is_disabled":false,"rental_uris":{"android":"levelo://app?vid=05d4c395-e8c0-47e2-b8b5-ae57792419e6","ios":"levelo://app?vid=05d4c395-e8c0-47e2-b8b5-ae57792419e6"},"vehicle_type_id":"4","last_reported":1744650544,"current_range_meters":8000,"station_id":"ce4bhgp2rcd13ifvqfd0","pricing_plan_id":"cebpf4jnsgd1na2vs0mg"},{"bike_id":"217f2a9b-616c-400b-ade9-2935596e65c1","system_id":"levelo_inurba_marseille","lat":43.29929,"lon":5.3651,"is_reserved":false,"is_disabled":false,"rental_uris":{"android":"levelo://app?vid=217f2a9b-616c-400b-ade9-2935596e65c1","ios":"levelo://app?vid=217f2a9b-616c-400b-ade9-2935596e65c1"},"vehicle_type_id":"4","last_reported":1744650544,"current_range_meters":8000,"station_id":"ce4bgm92rcd13ifvqbr0","pricing_plan_id":"cebpf4jnsgd1na2vs0mg"},{"bike_id":"7179a26e-e532-49a5-a644-ef6d4336d04a","system_id":"levelo_inurba_marseille","lat":43.28845,"lon":5.39317,"is_reserved":false,"is_disabled":false,"rental_uris":{"android":"levelo://app?vid=7179a26e-e532-49a5-a644-ef6d4336d04a","ios":"levelo://app?vid=7179a26e-e532-49a5-a644-ef6d4336d04a"},"vehicle_type_id":"4","last_reported":1744650544,"current_range_meters":8000,"station_id":"ce4bh2p2rcd13ifvqdi0","pricing_plan_id":"cebpf4jnsgd1na2vs0mg"},{"bike_id":"dc90b8cc-360f-421f-9e8f-b75a8f6a57e8","system_id":"levelo_inurba_marseille","lat":43.29713,"lon":5.36605,"is_reserved":false,"is_disabled":false,"rental_uris":{"android":"levelo://app?vid=dc90b8cc-360f-421f-9e8f-b75a8f6a57e8","ios":"levelo://app?vid=dc90b8cc-360f-421f-9e8f-b75a8f6a57e8"},"vehicle_type_id":"4","last_reported":1744650544,"current_range_meters":8000,"station_id":"ce4bgn12rcd13ifvqbt0","pricing_plan_id":"cebpf4jnsgd1na2vs0mg"},{"bike_id":"916ba2a3-851f-4257-b603-fc542a8d4df5","system_id":"levelo_inurba_marseille","lat":43.307826,"lon":5.376297,"is_reserved":false,"is_disabled":false,"rental_uris":{"android":"levelo://app?vid=916ba2a3-851f-4257-b603-fc542a8d4df5","ios":"levelo://app?vid=916ba2a3-851f-4257-b603-fc542a8d4df5"},"vehicle_type_id":"4","last_reported":1744650544,"current_range_meters":7200,"station_id":"ce4bgv92rcd13ifvqcq0","pricing_plan_id":"cebpf4jnsgd1na2vs0mg"},{"bike_id":"3563004d-3170-4e38-b0b9-0c76932b8d87","system_id":"levelo_inurba_marseille","lat":43.2318,"lon":5.3999,"is_reserved":false,"is_disabled":false,"rental_uris":{"android":"levelo://app?vid=3563004d-3170-4e38-b0b9-0c76932b8d87","ios":"levelo://app?vid=3563004d-3170-4e38-b0b9-0c76932b8d87"},"vehicle_type_id":"4","last_reported":1744650544,"current_range_meters":8000,"station_id":"ce4bhn12rcd13ifvqgqg","pricing_plan_id":"cebpf4jnsgd1na2vs0mg"},{"bike_id":"4b81fb68-aef8-48f5-ba91-cc4c7859861e","system_id":"levelo_inurba_marseille","lat":43.29973,"lon":5.38495,"is_reserved":false,"is_disabled":false,"rental_uris":{"android":"levelo://app?vid=4b81fb68-aef8-48f5-ba91-cc4c7859861e","ios":"levelo://app?vid=4b81fb68-aef8-48f5-ba91-cc4c7859861e"},"vehicle_type_id":"4","last_reported":1744650544,"current_range_meters":8000,"station_id":"ce4bgj92rcd13ifvqbd0","pricing_plan_id":"cebpf4jnsgd1na2vs0mg"},{"bike_id":"964e010d-5810-4fa0-9ec9-f7d58fe769f1","system_id":"levelo_inurba_marseille","lat":43.29414,"lon":5.38629,"is_reserved":false,"is_disabled":false,"rental_uris":{"android":"levelo://app?vid=964e010d-5810-4fa0-9ec9-f7d58fe769f1","ios":"levelo://app?vid=964e010d-5810-4fa0-9ec9-f7d58fe769f1"},"vehicle_type_id":"4","last_reported":1744650544,"current_range_meters":8000,"station_id":"ce4bh2h2rcd13ifvqdh0","pricing_plan_id":"cebpf4jnsgd1na2vs0mg"},{"bike_id":"d9f9b255-2358-4d68-a6e3-9107f0dc4897","system_id":"levelo_inurba_marseille","lat":43.30921,"lon":5.36833,"is_reserved":false,"is_disabled":false,"rental_uris":{"android":"levelo://app?vid=d9f9b255-2358-4d68-a6e3-9107f0dc4897","ios":"levelo://app?vid=d9f9b255-2358-4d68-a6e3-9107f0dc4897"},"vehicle_type_id":"4","last_reported":1744650544,"current_range_meters":8000,"station_id":"ce4bgn92rcd13ifvqbvg","pricing_plan_id":"cebpf4jnsgd1na2vs0mg"},{"bike_id":"fd6986e9-f91c-429e-87a1-06aa59f1eb56","system_id":"levelo_inurba_marseille","lat":43.27202,"lon":5.39175,"is_reserved":false,"is_disabled":false,"rental_uris":{"android":"levelo://app?vid=fd6986e9-f91c-429e-87a1-06aa59f1eb56","ios":"levelo://app?vid=fd6986e9-f91c-429e-87a1-06aa59f1eb56"},"vehicle_type_id":"4","last_reported":1744650544,"current_range_meters":8000,"station_id":"ce4bhhp2rcd13ifvqfm0","pricing_plan_id":"cebpf4jnsgd1na2vs0mg"},{"bike_id":"c62fdc0d-b5a9-40fe-b293-8c614f072ef5","system_id":"levelo_inurba_marseille","lat":43.2439,"lon":5.3706,"is_reserved":false,"is_disabled":false,"rental_uris":{"android":"levelo://app?vid=c62fdc0d-b5a9-40fe-b293-8c614f072ef5","ios":"levelo://app?vid=c62fdc0d-b5a9-40fe-b293-8c614f072ef5"},"vehicle_type_id":"4","last_reported":1744650544,"current_range_meters":8400,"station_id":"ce4bhhh2rcd13ifvqfk0","pricing_plan_id":"cebpf4jnsgd1na2vs0mg"},{"bike_id":"bc1e941d-5514-4193-a637-cfb6de114bfa","system_id":"levelo_inurba_marseille","lat":43.25595,"lon":5.38214,"is_reserved":false,"is_disabled":false,"rental_uris":{"android":"levelo://app?vid=bc1e941d-5514-4193-a637-cfb6de114bfa","ios":"levelo://app?vid=bc1e941d-5514-4193-a637-cfb6de114bfa"},"vehicle_type_id":"4","last_reported":1744650544,"current_range_meters":8400,"station_id":"ce4bhih2rcd13ifvqfs0","pricing_plan_id":"cebpf4jnsgd1na2vs0mg"},{"bike_id":"398432aa-ff8d-40d6-b279-8a697888128e","system_id":"levelo_inurba_marseille","lat":43.2989,"lon":5.3891,"is_reserved":false,"is_disabled":false,"rental_uris":{"android":"levelo://app?vid=398432aa-ff8d-40d6-b279-8a697888128e","ios":"levelo://app?vid=398432aa-ff8d-40d6-b279-8a697888128e"},"vehicle_type_id":"4","last_reported":1744650544,"current_range_meters":8400,"station_id":"ce4bh392rcd13ifvqdl0","pricing_plan_id":"cebpf4jnsgd1na2vs0mg"},{"bike_id":"860ffd61-384e-4318-b060-ba775e74ce15","system_id":"levelo_inurba_marseille","lat":43.29252,"lon":5.38431,"is_reserved":false,"is_disabled":false,"rental_uris":{"android":"levelo://app?vid=860ffd61-384e-4318-b060-ba775e74ce15","ios":"levelo://app?vid=860ffd61-384e-4318-b060-ba775e74ce15"},"vehicle_type_id":"4","last_reported":1744650544,"current_range_meters":8400,"station_id":"ce4bh692rcd13ifvqea0","pricing_plan_id":"cebpf4jnsgd1na2vs0mg"},{"bike_id":"9d15f454-f463-477a-bf87-076062a7e666","system_id":"levelo_inurba_marseille","lat":43.29634,"lon":5.40598,"is_reserved":false,"is_disabled":false,"rental_uris":{"android":"levelo://app?vid=9d15f454-f463-477a-bf87-076062a7e666","ios":"levelo://app?vid=9d15f454-f463-477a-bf87-076062a7e666"},"vehicle_type_id":"4","last_reported":1744650544,"current_range_meters":8400,"station_id":"ce4bh0h2rcd13ifvqd60","pricing_plan_id":"cebpf4jnsgd1na2vs0mg"},{"bike_id":"35abd90b-a356-4d2e-8bd4-567e3d57e9d2","system_id":"levelo_inurba_marseille","lat":43.24816,"lon":5.37457,"is_reserved":false,"is_disabled":false,"rental_uris":{"android":"levelo://app?vid=35abd90b-a356-4d2e-8bd4-567e3d57e9d2","ios":"levelo://app?vid=35abd90b-a356-4d2e-8bd4-567e3d57e9d2"},"vehicle_type_id":"4","last_reported":1744650544,"current_range_meters":8400,"station_id":"ce4bhgh2rcd13ifvqfb0","pricing_plan_id":"cebpf4jnsgd1na2vs0mg"},{"bike_id":"5e46dc77-26c7-4739-ac23-7b9d04b42bc5","system_id":"levelo_inurba_marseille","lat":43.301118,"lon":5.40071,"is_reserved":false,"is_disabled":false,"rental_uris":{"android":"levelo://app?vid=5e46dc77-26c7-4739-ac23-7b9d04b42bc5","ios":"levelo://app?vid=5e46dc77-26c7-4739-ac23-7b9d04b42bc5"},"vehicle_type_id":"4","last_reported":1744650544,"current_range_meters":8400,"station_id":"ce4bgvh2rcd13ifvqcs0","pricing_plan_id":"cebpf4jnsgd1na2vs0mg"},{"bike_id":"335f0d4d-bcbc-492c-bdba-c34b9712e399","system_id":"levelo_inurba_marseille","lat":43.3127,"lon":5.40184,"is_reserved":false,"is_disabled":false,"rental_uris":{"android":"levelo://app?vid=335f0d4d-bcbc-492c-bdba-c34b9712e399","ios":"levelo://app?vid=335f0d4d-bcbc-492c-bdba-c34b9712e399"},"vehicle_type_id":"4","last_reported":1744650544,"current_range_meters":8400,"station_id":"ce4bh092rcd13ifvqd30","pricing_plan_id":"cebpf4jnsgd1na2vs0mg"},{"bike_id":"05b4ce6b-8c05-4585-8810-645e7913597c","system_id":"levelo_inurba_marseille","lat":43.29227,"lon":5.36077,"is_reserved":false,"is_disabled":false,"rental_uris":{"android":"levelo://app?vid=05b4ce6b-8c05-4585-8810-645e7913597c","ios":"levelo://app?vid=05b4ce6b-8c05-4585-8810-645e7913597c"},"vehicle_type_id":"4","last_reported":1744650544,"current_range_meters":8400,"station_id":"ce4bhbh2rcd13ifvqeqg","pricing_plan_id":"cebpf4jnsgd1na2vs0mg"},{"bike_id":"8d24a072-21ed-41cd-b0aa-05b3f1373b74","system_id":"levelo_inurba_marseille","lat":43.3107,"lon":5.38354,"is_reserved":false,"is_disabled":true,"rental_uris":{"android":"levelo://app?vid=8d24a072-21ed-41cd-b0aa-05b3f1373b74","ios":"levelo://app?vid=8d24a072-21ed-41cd-b0aa-05b3f1373b74"},"vehicle_type_id":"4","last_reported":1744650544,"current_range_meters":8800,"station_id":"ce4bgv92rcd13ifvqcr0","pricing_plan_id":"cebpf4jnsgd1na2vs0mg"},{"bike_id":"0c6715fe-2c42-47e9-85ee-65df01f490e8","system_id":"levelo_inurba_marseille","lat":43.32369,"lon":5.38882,"is_reserved":false,"is_disabled":false,"rental_uris":{"android":"levelo://app?vid=0c6715fe-2c42-47e9-85ee-65df01f490e8","ios":"levelo://app?vid=0c6715fe-2c42-47e9-85ee-65df01f490e8"},"vehicle_type_id":"4","last_reported":1744650544,"current_range_meters":8800,"station_id":"ce4bhqp2rcd13ifvqhog","pricing_plan_id":"cebpf4jnsgd1na2vs0mg"},{"bike_id":"16e8b54f-5e1a-4922-ab71-6fd5cabb1fcc","system_id":"levelo_inurba_marseille","lat":43.27946,"lon":5.41044,"is_reserved":false,"is_disabled":false,"rental_uris":{"android":"levelo://app?vid=16e8b54f-5e1a-4922-ab71-6fd5cabb1fcc","ios":"levelo://app?vid=16e8b54f-5e1a-4922-ab71-6fd5cabb1fcc"},"vehicle_type_id":"4","last_reported":1744650544,"current_range_meters":8800,"station_id":"ce4bhnp2rcd13ifvqh0g","pricing_plan_id":"cebpf4jnsgd1na2vs0mg"},{"bike_id":"928587a8-33ee-437f-bd7f-e40c9b2d041f","system_id":"levelo_inurba_marseille","lat":43.29845,"lon":5.36274,"is_reserved":false,"is_disabled":false,"rental_uris":{"android":"levelo://app?vid=928587a8-33ee-437f-bd7f-e40c9b2d041f","ios":"levelo://app?vid=928587a8-33ee-437f-bd7f-e40c9b2d041f"},"vehicle_type_id":"4","last_reported":1744650544,"current_range_meters":9200,"station_id":"ce4bgpp2rcd13ifvqc3g","pricing_plan_id":"cebpf4jnsgd1na2vs0mg"},{"bike_id":"5cacdac6-936a-44c6-9e06-3d5924e24ab3","system_id":"levelo_inurba_marseille","lat":43.284237,"lon":5.349887,"is_reserved":false,"is_disabled":false,"rental_uris":{"android":"levelo://app?vid=5cacdac6-936a-44c6-9e06-3d5924e24ab3","ios":"levelo://app?vid=5cacdac6-936a-44c6-9e06-3d5924e24ab3"},"vehicle_type_id":"4","last_reported":1744650544,"current_range_meters":9200,"station_id":"ce4bhbh2rcd13ifvqepg","pricing_plan_id":"cebpf4jnsgd1na2vs0mg"},{"bike_id":"0c1f68de-23e6-44d9-bec8-17a3bee896fb","system_id":"levelo_inurba_marseille","lat":43.273137,"lon":5.39078,"is_reserved":false,"is_disabled":false,"rental_uris":{"android":"levelo://app?vid=0c1f68de-23e6-44d9-bec8-17a3bee896fb","ios":"levelo://app?vid=0c1f68de-23e6-44d9-bec8-17a3bee896fb"},"vehicle_type_id":"4","last_reported":1744650544,"current_range_meters":9200,"station_id":"ce4bhgp2rcd13ifvqfe0","pricing_plan_id":"cebpf4jnsgd1na2vs0mg"},{"bike_id":"52467ef2-bb23-4d5a-aebd-2782338dc161","system_id":"levelo_inurba_marseille","lat":43.21194,"lon":5.35071,"is_reserved":false,"is_disabled":false,"rental_uris":{"android":"levelo://app?vid=52467ef2-bb23-4d5a-aebd-2782338dc161","ios":"levelo://app?vid=52467ef2-bb23-4d5a-aebd-2782338dc161"},"vehicle_type_id":"4","last_reported":1744650544,"current_range_meters":9200,"station_id":"st_cvj6sg6p6f1abm77japg","pricing_plan_id":"cebpf4jnsgd1na2vs0mg"},{"bike_id":"e558204f-eb5a-4384-abbf-89eaaeca3dd3","system_id":"levelo_inurba_marseille","lat":43.25002,"lon":5.38924,"is_reserved":false,"is_disabled":false,"rental_uris":{"android":"levelo://app?vid=e558204f-eb5a-4384-abbf-89eaaeca3dd3","ios":"levelo://app?vid=e558204f-eb5a-4384-abbf-89eaaeca3dd3"},"vehicle_type_id":"4","last_reported":1744650544,"current_range_meters":9200,"station_id":"ce4bhgp2rcd13ifvqfd0","pricing_plan_id":"cebpf4jnsgd1na2vs0mg"},{"bike_id":"725734ee-bdec-418b-a916-1ec481efa135","system_id":"levelo_inurba_marseille","lat":43.29522,"lon":5.39413,"is_reserved":false,"is_disabled":false,"rental_uris":{"android":"levelo://app?vid=725734ee-bdec-418b-a916-1ec481efa135","ios":"levelo://app?vid=725734ee-bdec-418b-a916-1ec481efa135"},"vehicle_type_id":"4","last_reported":1744650544,"current_range_meters":8800,"station_id":"ce4bh292rcd13ifvqdf0","pricing_plan_id":"cebpf4jnsgd1na2vs0mg"},{"bike_id":"b8599bf3-ec0f-4cc3-9945-c02521473349","system_id":"levelo_inurba_marseille","lat":43.294323,"lon":5.397442,"is_reserved":false,"is_disabled":false,"rental_uris":{"android":"levelo://app?vid=b8599bf3-ec0f-4cc3-9945-c02521473349","ios":"levelo://app?vid=b8599bf3-ec0f-4cc3-9945-c02521473349"},"vehicle_type_id":"4","last_reported":1744650544,"current_range_meters":8800,"station_id":"ce4bh3h2rcd13ifvqdo0","pricing_plan_id":"cebpf4jnsgd1na2vs0mg"},{"bike_id":"dd1445c8-e738-4556-9cfd-5eefa79c1cef","system_id":"levelo_inurba_marseille","lat":43.25576,"lon":5.38231,"is_reserved":false,"is_disabled":false,"rental_uris":{"android":"levelo://app?vid=dd1445c8-e738-4556-9cfd-5eefa79c1cef","ios":"levelo://app?vid=dd1445c8-e738-4556-9cfd-5eefa79c1cef"},"vehicle_type_id":"4","last_reported":1744650544,"current_range_meters":8800,"station_id":"ce4bhih2rcd13ifvqfs0","pricing_plan_id":"cebpf4jnsgd1na2vs0mg"},{"bike_id":"7f27748b-1ddf-4fea-b090-9915567026df","system_id":"levelo_inurba_marseille","lat":43.25831,"lon":5.39433,"is_reserved":false,"is_disabled":false,"rental_uris":{"android":"levelo://app?vid=7f27748b-1ddf-4fea-b090-9915567026df","ios":"levelo://app?vid=7f27748b-1ddf-4fea-b090-9915567026df"},"vehicle_type_id":"4","last_reported":1744650544,"current_range_meters":9600,"station_id":"ce4bhip2rcd13ifvqft0","pricing_plan_id":"cebpf4jnsgd1na2vs0mg"},{"bike_id":"0a6f1ba9-7ea2-4e80-831d-d0f307ca4d82","system_id":"levelo_inurba_marseille","lat":43.28608,"lon":5.35097,"is_reserved":false,"is_disabled":false,"rental_uris":{"android":"levelo://app?vid=0a6f1ba9-7ea2-4e80-831d-d0f307ca4d82","ios":"levelo://app?vid=0a6f1ba9-7ea2-4e80-831d-d0f307ca4d82"},"vehicle_type_id":"4","last_reported":1744650544,"current_range_meters":9600,"station_id":"ce4bhch2rcd13ifvqeug","pricing_plan_id":"cebpf4jnsgd1na2vs0mg"},{"bike_id":"f3354be2-fca1-42ab-ba93-398cfded257a","system_id":"levelo_inurba_marseille","lat":43.28611,"lon":5.37066,"is_reserved":false,"is_disabled":false,"rental_uris":{"android":"levelo://app?vid=f3354be2-fca1-42ab-ba93-398cfded257a","ios":"levelo://app?vid=f3354be2-fca1-42ab-ba93-398cfded257a"},"vehicle_type_id":"4","last_reported":1744650544,"current_range_meters":9600,"station_id":"ce4bht12rcd13ifvqi60","pricing_plan_id":"cebpf4jnsgd1na2vs0mg"},{"bike_id":"b62d1434-c42b-4d2d-977d-d90a2291da9b","system_id":"levelo_inurba_marseille","lat":43.26933,"lon":5.4026,"is_reserved":false,"is_disabled":true,"rental_uris":{"android":"levelo://app?vid=b62d1434-c42b-4d2d-977d-d90a2291da9b","ios":"levelo://app?vid=b62d1434-c42b-4d2d-977d-d90a2291da9b"},"vehicle_type_id":"4","last_reported":1744650544,"current_range_meters":9600,"station_id":"cjm6bp8fraef2m0cb0m0","pricing_plan_id":"cebpf4jnsgd1na2vs0mg"},{"bike_id":"7be31b83-70f9-449f-a643-ed09409f2780","system_id":"levelo_inurba_marseille","lat":43.28689,"lon":5.36341,"is_reserved":false,"is_disabled":false,"rental_uris":{"android":"levelo://app?vid=7be31b83-70f9-449f-a643-ed09409f2780","ios":"levelo://app?vid=7be31b83-70f9-449f-a643-ed09409f2780"},"vehicle_type_id":"4","last_reported":1744650544,"current_range_meters":9600,"station_id":"ce4bhah2rcd13ifvqej0","pricing_plan_id":"cebpf4jnsgd1na2vs0mg"},{"bike_id":"ce2d519a-9b89-4690-9e2f-9f5e84e204cf","system_id":"levelo_inurba_marseille","lat":43.29001,"lon":5.35613,"is_reserved":false,"is_disabled":false,"rental_uris":{"android":"levelo://app?vid=ce2d519a-9b89-4690-9e2f-9f5e84e204cf","ios":"levelo://app?vid=ce2d519a-9b89-4690-9e2f-9f5e84e204cf"},"vehicle_type_id":"4","last_reported":1744650544,"current_range_meters":10000,"station_id":"ce4bhb92rcd13ifvqen0","pricing_plan_id":"cebpf4jnsgd1na2vs0mg"},{"bike_id":"c02e139b-1c51-41d8-86b8-09fca70a0df0","system_id":"levelo_inurba_marseille","lat":43.29941,"lon":5.3654,"is_reserved":false,"is_disabled":false,"rental_uris":{"android":"levelo://app?vid=c02e139b-1c51-41d8-86b8-09fca70a0df0","ios":"levelo://app?vid=c02e139b-1c51-41d8-86b8-09fca70a0df0"},"vehicle_type_id":"4","last_reported":1744650544,"current_range_meters":10000,"station_id":"ce4bgm92rcd13ifvqbr0","pricing_plan_id":"cebpf4jnsgd1na2vs0mg"},{"bike_id":"3f9cca5d-310d-4c78-9203-87e1b62a0bed","system_id":"levelo_inurba_marseille","lat":43.28856,"lon":5.35846,"is_reserved":false,"is_disabled":false,"rental_uris":{"android":"levelo://app?vid=3f9cca5d-310d-4c78-9203-87e1b62a0bed","ios":"levelo://app?vid=3f9cca5d-310d-4c78-9203-87e1b62a0bed"},"vehicle_type_id":"4","last_reported":1744650544,"current_range_meters":10000,"station_id":"ce4bhb12rcd13ifvqem0","pricing_plan_id":"cebpf4jnsgd1na2vs0mg"},{"bike_id":"a805b716-d3f2-41f8-8ac2-43d02ff2936a","system_id":"levelo_inurba_marseille","lat":43.28346,"lon":5.38102,"is_reserved":false,"is_disabled":false,"rental_uris":{"android":"levelo://app?vid=a805b716-d3f2-41f8-8ac2-43d02ff2936a","ios":"levelo://app?vid=a805b716-d3f2-41f8-8ac2-43d02ff2936a"},"vehicle_type_id":"4","last_reported":1744650544,"current_range_meters":10000,"station_id":"ce4bh412rcd13ifvqdr0","pricing_plan_id":"cebpf4jnsgd1na2vs0mg"},{"bike_id":"000cce46-0aba-4c03-8967-d18cf441ccd3","system_id":"levelo_inurba_marseille","lat":43.30318,"lon":5.40449,"is_reserved":false,"is_disabled":false,"rental_uris":{"android":"levelo://app?vid=000cce46-0aba-4c03-8967-d18cf441ccd3","ios":"levelo://app?vid=000cce46-0aba-4c03-8967-d18cf441ccd3"},"vehicle_type_id":"4","last_reported":1744650544,"current_range_meters":10000,"station_id":"ce4bh012rcd13ifvqd10","pricing_plan_id":"cebpf4jnsgd1na2vs0mg"},{"bike_id":"02907599-00a7-4d5d-bd46-181de4468a5e","system_id":"levelo_inurba_marseille","lat":43.2862,"lon":5.35096,"is_reserved":false,"is_disabled":false,"rental_uris":{"android":"levelo://app?vid=02907599-00a7-4d5d-bd46-181de4468a5e","ios":"levelo://app?vid=02907599-00a7-4d5d-bd46-181de4468a5e"},"vehicle_type_id":"4","last_reported":1744650544,"current_range_meters":10000,"station_id":"ce4bhch2rcd13ifvqeug","pricing_plan_id":"cebpf4jnsgd1na2vs0mg"},{"bike_id":"a359137d-8b7f-4c86-8d4f-6f9757ed6bc4","system_id":"levelo_inurba_marseille","lat":43.30508,"lon":5.38395,"is_reserved":false,"is_disabled":false,"rental_uris":{"android":"levelo://app?vid=a359137d-8b7f-4c86-8d4f-6f9757ed6bc4","ios":"levelo://app?vid=a359137d-8b7f-4c86-8d4f-6f9757ed6bc4"},"vehicle_type_id":"4","last_reported":1744650544,"current_range_meters":9600,"station_id":"ce4bgg92rcd13ifvqb30","pricing_plan_id":"cebpf4jnsgd1na2vs0mg"},{"bike_id":"e2b0293e-9cc0-4d7f-87ef-f2880e7c8264","system_id":"levelo_inurba_marseille","lat":43.28041,"lon":5.36941,"is_reserved":false,"is_disabled":false,"rental_uris":{"android":"levelo://app?vid=e2b0293e-9cc0-4d7f-87ef-f2880e7c8264","ios":"levelo://app?vid=e2b0293e-9cc0-4d7f-87ef-f2880e7c8264"},"vehicle_type_id":"4","last_reported":1744650544,"current_range_meters":10800,"station_id":"ce4bha12rcd13ifvqef0","pricing_plan_id":"cebpf4jnsgd1na2vs0mg"},{"bike_id":"61d62b9c-fc90-41f8-b80d-dd08f71728fa","system_id":"levelo_inurba_marseille","lat":43.29781,"lon":5.37094,"is_reserved":false,"is_disabled":false,"rental_uris":{"android":"levelo://app?vid=61d62b9c-fc90-41f8-b80d-dd08f71728fa","ios":"levelo://app?vid=61d62b9c-fc90-41f8-b80d-dd08f71728fa"},"vehicle_type_id":"4","last_reported":1744650544,"current_range_meters":10000,"station_id":"ce4bgop2rcd13ifvqc1g","pricing_plan_id":"cebpf4jnsgd1na2vs0mg"},{"bike_id":"3cd132f2-4343-4551-82b5-23cd67025484","system_id":"levelo_inurba_marseille","lat":43.25606,"lon":5.3825,"is_reserved":false,"is_disabled":false,"rental_uris":{"android":"levelo://app?vid=3cd132f2-4343-4551-82b5-23cd67025484","ios":"levelo://app?vid=3cd132f2-4343-4551-82b5-23cd67025484"},"vehicle_type_id":"4","last_reported":1744650544,"current_range_meters":10800,"station_id":"ce4bhih2rcd13ifvqfs0","pricing_plan_id":"cebpf4jnsgd1na2vs0mg"},{"bike_id":"3ead3581-a552-4b11-9821-ff1037a77538","system_id":"levelo_inurba_marseille","lat":43.29937,"lon":5.36552,"is_reserved":false,"is_disabled":false,"rental_uris":{"android":"levelo://app?vid=3ead3581-a552-4b11-9821-ff1037a77538","ios":"levelo://app?vid=3ead3581-a552-4b11-9821-ff1037a77538"},"vehicle_type_id":"4","last_reported":1744650544,"current_range_meters":10800,"station_id":"ce4bgm92rcd13ifvqbr0","pricing_plan_id":"cebpf4jnsgd1na2vs0mg"},{"bike_id":"279d8f8d-d048-4068-93ae-44431eb5dcf3","system_id":"levelo_inurba_marseille","lat":43.29877,"lon":5.38911,"is_reserved":false,"is_disabled":false,"rental_uris":{"android":"levelo://app?vid=279d8f8d-d048-4068-93ae-44431eb5dcf3","ios":"levelo://app?vid=279d8f8d-d048-4068-93ae-44431eb5dcf3"},"vehicle_type_id":"4","last_reported":1744650544,"current_range_meters":10800,"station_id":"ce4bh392rcd13ifvqdl0","pricing_plan_id":"cebpf4jnsgd1na2vs0mg"},{"bike_id":"6a183b16-87cb-4c74-a8de-10f1b553b7ab","system_id":"levelo_inurba_marseille","lat":43.28718,"lon":5.361,"is_reserved":false,"is_disabled":false,"rental_uris":{"android":"levelo://app?vid=6a183b16-87cb-4c74-a8de-10f1b553b7ab","ios":"levelo://app?vid=6a183b16-87cb-4c74-a8de-10f1b553b7ab"},"vehicle_type_id":"4","last_reported":1744650544,"current_range_meters":10800,"station_id":"cki0cbj6b192h4jlfktg","pricing_plan_id":"cebpf4jnsgd1na2vs0mg"},{"bike_id":"668da122-ca04-4a99-b459-124f44bb422d","system_id":"levelo_inurba_marseille","lat":43.29997,"lon":5.37183,"is_reserved":false,"is_disabled":false,"rental_uris":{"android":"levelo://app?vid=668da122-ca04-4a99-b459-124f44bb422d","ios":"levelo://app?vid=668da122-ca04-4a99-b459-124f44bb422d"},"vehicle_type_id":"4","last_reported":1744650544,"current_range_meters":10800,"station_id":"ce4bgr92rcd13ifvqc7g","pricing_plan_id":"cebpf4jnsgd1na2vs0mg"},{"bike_id":"ffdac077-e57a-4063-b948-7e9d5cb159fa","system_id":"levelo_inurba_marseille","lat":43.29521,"lon":5.39055,"is_reserved":false,"is_disabled":false,"rental_uris":{"android":"levelo://app?vid=ffdac077-e57a-4063-b948-7e9d5cb159fa","ios":"levelo://app?vid=ffdac077-e57a-4063-b948-7e9d5cb159fa"},"vehicle_type_id":"4","last_reported":1744650544,"current_range_meters":10800,"station_id":"ce4bh3p2rcd13ifvqdp0","pricing_plan_id":"cebpf4jnsgd1na2vs0mg"},{"bike_id":"e0c49b4e-20fa-4104-917d-fcb54a76eaa0","system_id":"levelo_inurba_marseille","lat":43.28357,"lon":5.3811,"is_reserved":false,"is_disabled":false,"rental_uris":{"android":"levelo://app?vid=e0c49b4e-20fa-4104-917d-fcb54a76eaa0","ios":"levelo://app?vid=e0c49b4e-20fa-4104-917d-fcb54a76eaa0"},"vehicle_type_id":"4","last_reported":1744650544,"current_range_meters":11200,"station_id":"ce4bh412rcd13ifvqdr0","pricing_plan_id":"cebpf4jnsgd1na2vs0mg"},{"bike_id":"e7f1a9bb-a324-416c-a48d-6a6aea7b85c7","system_id":"levelo_inurba_marseille","lat":43.27667,"lon":5.38886,"is_reserved":false,"is_disabled":false,"rental_uris":{"android":"levelo://app?vid=e7f1a9bb-a324-416c-a48d-6a6aea7b85c7","ios":"levelo://app?vid=e7f1a9bb-a324-416c-a48d-6a6aea7b85c7"},"vehicle_type_id":"4","last_reported":1744650544,"current_range_meters":11200,"station_id":"ce4bhi12rcd13ifvqfo0","pricing_plan_id":"cebpf4jnsgd1na2vs0mg"},{"bike_id":"36f4284c-b490-4a4d-90bc-d249b2e447ec","system_id":"levelo_inurba_marseille","lat":43.293488,"lon":5.374455,"is_reserved":false,"is_disabled":false,"rental_uris":{"android":"levelo://app?vid=36f4284c-b490-4a4d-90bc-d249b2e447ec","ios":"levelo://app?vid=36f4284c-b490-4a4d-90bc-d249b2e447ec"},"vehicle_type_id":"4","last_reported":1744650544,"current_range_meters":11200,"station_id":"ce4bgi12rcd13ifvqb70","pricing_plan_id":"cebpf4jnsgd1na2vs0mg"},{"bike_id":"a55b401f-51b0-4410-8131-b74b805a76b0","system_id":"levelo_inurba_marseille","lat":43.291024,"lon":5.399704,"is_reserved":false,"is_disabled":false,"rental_uris":{"android":"levelo://app?vid=a55b401f-51b0-4410-8131-b74b805a76b0","ios":"levelo://app?vid=a55b401f-51b0-4410-8131-b74b805a76b0"},"vehicle_type_id":"4","last_reported":1744650544,"current_range_meters":10800,"station_id":"ce4bhu92rcd13ifvqi70","pricing_plan_id":"cebpf4jnsgd1na2vs0mg"},{"bike_id":"745590b9-5a67-4665-97d7-97853ef61142","system_id":"levelo_inurba_marseille","lat":43.30887,"lon":5.37198,"is_reserved":false,"is_disabled":false,"rental_uris":{"android":"levelo://app?vid=745590b9-5a67-4665-97d7-97853ef61142","ios":"levelo://app?vid=745590b9-5a67-4665-97d7-97853ef61142"},"vehicle_type_id":"4","last_reported":1744650544,"current_range_meters":11200,"station_id":"ce4bguh2rcd13ifvqckg","pricing_plan_id":"cebpf4jnsgd1na2vs0mg"},{"bike_id":"d9ff4a8e-d698-40ad-8ece-9028ab5883b5","system_id":"levelo_inurba_marseille","lat":43.25107,"lon":5.40323,"is_reserved":false,"is_disabled":false,"rental_uris":{"android":"levelo://app?vid=d9ff4a8e-d698-40ad-8ece-9028ab5883b5","ios":"levelo://app?vid=d9ff4a8e-d698-40ad-8ece-9028ab5883b5"},"vehicle_type_id":"4","last_reported":1744650544,"current_range_meters":11600,"station_id":"ce4bhlh2rcd13ifvqgig","pricing_plan_id":"cebpf4jnsgd1na2vs0mg"},{"bike_id":"c7911617-4d1d-45e4-8d93-f54cd0eec020","system_id":"levelo_inurba_marseille","lat":43.31083,"lon":5.38344,"is_reserved":false,"is_disabled":false,"rental_uris":{"android":"levelo://app?vid=c7911617-4d1d-45e4-8d93-f54cd0eec020","ios":"levelo://app?vid=c7911617-4d1d-45e4-8d93-f54cd0eec020"},"vehicle_type_id":"4","last_reported":1744650544,"current_range_meters":11600,"station_id":"ce4bgv92rcd13ifvqcr0","pricing_plan_id":"cebpf4jnsgd1na2vs0mg"},{"bike_id":"022baaf1-34d5-40c6-9c9b-91fd506eb8b4","system_id":"levelo_inurba_marseille","lat":43.25577,"lon":5.38228,"is_reserved":false,"is_disabled":false,"rental_uris":{"android":"levelo://app?vid=022baaf1-34d5-40c6-9c9b-91fd506eb8b4","ios":"levelo://app?vid=022baaf1-34d5-40c6-9c9b-91fd506eb8b4"},"vehicle_type_id":"4","last_reported":1744650544,"current_range_meters":11200,"station_id":"ce4bhih2rcd13ifvqfs0","pricing_plan_id":"cebpf4jnsgd1na2vs0mg"},{"bike_id":"fb13c941-1858-46a4-86ad-2a5e302996c3","system_id":"levelo_inurba_marseille","lat":43.25896,"lon":5.40055,"is_reserved":false,"is_disabled":true,"rental_uris":{"android":"levelo://app?vid=fb13c941-1858-46a4-86ad-2a5e302996c3","ios":"levelo://app?vid=fb13c941-1858-46a4-86ad-2a5e302996c3"},"vehicle_type_id":"4","last_reported":1744650544,"current_range_meters":12000,"station_id":"ce4bhl92rcd13ifvqghg","pricing_plan_id":"cebpf4jnsgd1na2vs0mg"},{"bike_id":"952707cf-f39b-4f17-95e5-15d401a278de","system_id":"levelo_inurba_marseille","lat":43.28028,"lon":5.36951,"is_reserved":false,"is_disabled":false,"rental_uris":{"android":"levelo://app?vid=952707cf-f39b-4f17-95e5-15d401a278de","ios":"levelo://app?vid=952707cf-f39b-4f17-95e5-15d401a278de"},"vehicle_type_id":"4","last_reported":1744650544,"current_range_meters":12400,"station_id":"ce4bha12rcd13ifvqef0","pricing_plan_id":"cebpf4jnsgd1na2vs0mg"},{"bike_id":"ed296113-9ba0-46af-b154-8b0bbad72688","system_id":"levelo_inurba_marseille","lat":43.2816,"lon":5.42624,"is_reserved":false,"is_disabled":false,"rental_uris":{"android":"levelo://app?vid=ed296113-9ba0-46af-b154-8b0bbad72688","ios":"levelo://app?vid=ed296113-9ba0-46af-b154-8b0bbad72688"},"vehicle_type_id":"4","last_reported":1744650544,"current_range_meters":12400,"station_id":"ce4bhnh2rcd13ifvqgug","pricing_plan_id":"cebpf4jnsgd1na2vs0mg"},{"bike_id":"5c6789a6-d6d2-4a85-8092-ff04e9dbc25c","system_id":"levelo_inurba_marseille","lat":43.319962,"lon":5.381759,"is_reserved":false,"is_disabled":false,"rental_uris":{"android":"levelo://app?vid=5c6789a6-d6d2-4a85-8092-ff04e9dbc25c","ios":"levelo://app?vid=5c6789a6-d6d2-4a85-8092-ff04e9dbc25c"},"vehicle_type_id":"4","last_reported":1744650544,"current_range_meters":12400,"station_id":"ce4bhr12rcd13ifvqhpg","pricing_plan_id":"cebpf4jnsgd1na2vs0mg"},{"bike_id":"cef0e4ab-0b9b-40b8-a3a0-54fbc81863e1","system_id":"levelo_inurba_marseille","lat":43.265471,"lon":5.393377,"is_reserved":false,"is_disabled":false,"rental_uris":{"android":"levelo://app?vid=cef0e4ab-0b9b-40b8-a3a0-54fbc81863e1","ios":"levelo://app?vid=cef0e4ab-0b9b-40b8-a3a0-54fbc81863e1"},"vehicle_type_id":"4","last_reported":1744650544,"current_range_meters":12400,"station_id":"ce4bhip2rcd13ifvqft0","pricing_plan_id":"cebpf4jnsgd1na2vs0mg"},{"bike_id":"c798fce4-f453-40f6-9acd-c299a779b499","system_id":"levelo_inurba_marseille","lat":43.29973,"lon":5.38511,"is_reserved":false,"is_disabled":false,"rental_uris":{"android":"levelo://app?vid=c798fce4-f453-40f6-9acd-c299a779b499","ios":"levelo://app?vid=c798fce4-f453-40f6-9acd-c299a779b499"},"vehicle_type_id":"4","last_reported":1744650544,"current_range_meters":12400,"station_id":"ce4bgj92rcd13ifvqbd0","pricing_plan_id":"cebpf4jnsgd1na2vs0mg"},{"bike_id":"9032fd9f-8258-4b06-828f-3216c8110290","system_id":"levelo_inurba_marseille","lat":43.3101,"lon":5.41768,"is_reserved":false,"is_disabled":false,"rental_uris":{"android":"levelo://app?vid=9032fd9f-8258-4b06-828f-3216c8110290","ios":"levelo://app?vid=9032fd9f-8258-4b06-828f-3216c8110290"},"vehicle_type_id":"4","last_reported":1744650544,"current_range_meters":12400,"station_id":"","pricing_plan_id":"cebpf4jnsgd1na2vs0mg"},{"bike_id":"00631e8e-a64b-41fa-9a38-c917653386b3","system_id":"levelo_inurba_marseille","lat":43.29274,"lon":5.36843,"is_reserved":false,"is_disabled":false,"rental_uris":{"android":"levelo://app?vid=00631e8e-a64b-41fa-9a38-c917653386b3","ios":"levelo://app?vid=00631e8e-a64b-41fa-9a38-c917653386b3"},"vehicle_type_id":"4","last_reported":1744650544,"current_range_meters":12400,"station_id":"ce4bhbp2rcd13ifvqesg","pricing_plan_id":"cebpf4jnsgd1na2vs0mg"},{"bike_id":"cb54716f-6c4a-4369-9f62-59ff3a19b2d7","system_id":"levelo_inurba_marseille","lat":43.24387,"lon":5.37064,"is_reserved":false,"is_disabled":false,"rental_uris":{"android":"levelo://app?vid=cb54716f-6c4a-4369-9f62-59ff3a19b2d7","ios":"levelo://app?vid=cb54716f-6c4a-4369-9f62-59ff3a19b2d7"},"vehicle_type_id":"4","last_reported":1744650544,"current_range_meters":12400,"station_id":"ce4bhhh2rcd13ifvqfk0","pricing_plan_id":"cebpf4jnsgd1na2vs0mg"},{"bike_id":"bb9bb216-fb17-455b-abed-0af845bc5cb1","system_id":"levelo_inurba_marseille","lat":43.29649,"lon":5.3706,"is_reserved":false,"is_disabled":false,"rental_uris":{"android":"levelo://app?vid=bb9bb216-fb17-455b-abed-0af845bc5cb1","ios":"levelo://app?vid=bb9bb216-fb17-455b-abed-0af845bc5cb1"},"vehicle_type_id":"4","last_reported":1744650544,"current_range_meters":12800,"station_id":"","pricing_plan_id":"cebpf4jnsgd1na2vs0mg"},{"bike_id":"e3f10421-21b2-4174-8949-6595b18040fc","system_id":"levelo_inurba_marseille","lat":43.29319,"lon":5.37173,"is_reserved":false,"is_disabled":false,"rental_uris":{"android":"levelo://app?vid=e3f10421-21b2-4174-8949-6595b18040fc","ios":"levelo://app?vid=e3f10421-21b2-4174-8949-6595b18040fc"},"vehicle_type_id":"4","last_reported":1744650544,"current_range_meters":12400,"station_id":"ce4bgh92rcd13ifvqb40","pricing_plan_id":"cebpf4jnsgd1na2vs0mg"},{"bike_id":"cb24ee95-00b5-4454-b9ad-634455a4c66c","system_id":"levelo_inurba_marseille","lat":43.29269,"lon":5.38446,"is_reserved":false,"is_disabled":false,"rental_uris":{"android":"levelo://app?vid=cb24ee95-00b5-4454-b9ad-634455a4c66c","ios":"levelo://app?vid=cb24ee95-00b5-4454-b9ad-634455a4c66c"},"vehicle_type_id":"4","last_reported":1744650544,"current_range_meters":12800,"station_id":"ce4bh692rcd13ifvqea0","pricing_plan_id":"cebpf4jnsgd1na2vs0mg"},{"bike_id":"b7f2ab3e-7333-4a50-9375-1a8103e49920","system_id":"levelo_inurba_marseille","lat":43.2582,"lon":5.39405,"is_reserved":false,"is_disabled":false,"rental_uris":{"android":"levelo://app?vid=b7f2ab3e-7333-4a50-9375-1a8103e49920","ios":"levelo://app?vid=b7f2ab3e-7333-4a50-9375-1a8103e49920"},"vehicle_type_id":"4","last_reported":1744650544,"current_range_meters":12800,"station_id":"ce4bhip2rcd13ifvqft0","pricing_plan_id":"cebpf4jnsgd1na2vs0mg"},{"bike_id":"5cdcdb8f-81f6-46c2-bb91-3eee8796f5c5","system_id":"levelo_inurba_marseille","lat":43.286183,"lon":5.351039,"is_reserved":false,"is_disabled":false,"rental_uris":{"android":"levelo://app?vid=5cdcdb8f-81f6-46c2-bb91-3eee8796f5c5","ios":"levelo://app?vid=5cdcdb8f-81f6-46c2-bb91-3eee8796f5c5"},"vehicle_type_id":"4","last_reported":1744650544,"current_range_meters":12800,"station_id":"ce4bghh2rcd13ifvqb60","pricing_plan_id":"cebpf4jnsgd1na2vs0mg"},{"bike_id":"e6a0ab89-a46e-4d21-a12c-07121a7e8c85","system_id":"levelo_inurba_marseille","lat":43.29005,"lon":5.35617,"is_reserved":false,"is_disabled":false,"rental_uris":{"android":"levelo://app?vid=e6a0ab89-a46e-4d21-a12c-07121a7e8c85","ios":"levelo://app?vid=e6a0ab89-a46e-4d21-a12c-07121a7e8c85"},"vehicle_type_id":"4","last_reported":1744650544,"current_range_meters":12800,"station_id":"ce4bhb92rcd13ifvqen0","pricing_plan_id":"cebpf4jnsgd1na2vs0mg"},{"bike_id":"0147921d-0b54-421a-b771-5762611e3283","system_id":"levelo_inurba_marseille","lat":43.29626,"lon":5.40593,"is_reserved":false,"is_disabled":false,"rental_uris":{"android":"levelo://app?vid=0147921d-0b54-421a-b771-5762611e3283","ios":"levelo://app?vid=0147921d-0b54-421a-b771-5762611e3283"},"vehicle_type_id":"4","last_reported":1744650544,"current_range_meters":12800,"station_id":"ce4bh0h2rcd13ifvqd60","pricing_plan_id":"cebpf4jnsgd1na2vs0mg"},{"bike_id":"209a0192-0fdc-4e02-9c79-b42f732cc1f7","system_id":"levelo_inurba_marseille","lat":43.23969,"lon":5.36632,"is_reserved":false,"is_disabled":false,"rental_uris":{"android":"levelo://app?vid=209a0192-0fdc-4e02-9c79-b42f732cc1f7","ios":"levelo://app?vid=209a0192-0fdc-4e02-9c79-b42f732cc1f7"},"vehicle_type_id":"4","last_reported":1744650544,"current_range_meters":13600,"station_id":"ce4bhi12rcd13ifvqfp0","pricing_plan_id":"cebpf4jnsgd1na2vs0mg"},{"bike_id":"9c3592d0-4953-4271-9987-91df2c8ade30","system_id":"levelo_inurba_marseille","lat":43.28616,"lon":5.35102,"is_reserved":false,"is_disabled":false,"rental_uris":{"android":"levelo://app?vid=9c3592d0-4953-4271-9987-91df2c8ade30","ios":"levelo://app?vid=9c3592d0-4953-4271-9987-91df2c8ade30"},"vehicle_type_id":"4","last_reported":1744650544,"current_range_meters":13600,"station_id":"ce4bhch2rcd13ifvqeug","pricing_plan_id":"cebpf4jnsgd1na2vs0mg"},{"bike_id":"0e8e0d85-2932-4765-902a-4c3b14a3eac4","system_id":"levelo_inurba_marseille","lat":43.25648,"lon":5.37649,"is_reserved":false,"is_disabled":false,"rental_uris":{"android":"levelo://app?vid=0e8e0d85-2932-4765-902a-4c3b14a3eac4","ios":"levelo://app?vid=0e8e0d85-2932-4765-902a-4c3b14a3eac4"},"vehicle_type_id":"4","last_reported":1744650544,"current_range_meters":12000,"station_id":"","pricing_plan_id":"cebpf4jnsgd1na2vs0mg"},{"bike_id":"5bac84e2-3c94-4fdd-a5a6-3f7db5002922","system_id":"levelo_inurba_marseille","lat":43.26807,"lon":5.40269,"is_reserved":false,"is_disabled":false,"rental_uris":{"android":"levelo://app?vid=5bac84e2-3c94-4fdd-a5a6-3f7db5002922","ios":"levelo://app?vid=5bac84e2-3c94-4fdd-a5a6-3f7db5002922"},"vehicle_type_id":"4","last_reported":1744650544,"current_range_meters":14000,"station_id":"ce501612rcd8frsf0b60","pricing_plan_id":"cebpf4jnsgd1na2vs0mg"},{"bike_id":"d974283f-b87f-448e-af4e-0b9749a8d4b6","system_id":"levelo_inurba_marseille","lat":43.24165,"lon":5.36393,"is_reserved":false,"is_disabled":false,"rental_uris":{"android":"levelo://app?vid=d974283f-b87f-448e-af4e-0b9749a8d4b6","ios":"levelo://app?vid=d974283f-b87f-448e-af4e-0b9749a8d4b6"},"vehicle_type_id":"4","last_reported":1744650544,"current_range_meters":14000,"station_id":"cpo36qri1sfpv3e86is0","pricing_plan_id":"cebpf4jnsgd1na2vs0mg"},{"bike_id":"bfa75a9a-5ee1-486f-89c0-b714bc3691c6","system_id":"levelo_inurba_marseille","lat":43.28487,"lon":5.38416,"is_reserved":false,"is_disabled":false,"rental_uris":{"android":"levelo://app?vid=bfa75a9a-5ee1-486f-89c0-b714bc3691c6","ios":"levelo://app?vid=bfa75a9a-5ee1-486f-89c0-b714bc3691c6"},"vehicle_type_id":"4","last_reported":1744650544,"current_range_meters":14000,"station_id":"ce4bh512rcd13ifvqe3g","pricing_plan_id":"cebpf4jnsgd1na2vs0mg"},{"bike_id":"dd55a95c-84ae-4f2d-9924-3ca8c1853af4","system_id":"levelo_inurba_marseille","lat":43.26812,"lon":5.40256,"is_reserved":false,"is_disabled":false,"rental_uris":{"android":"levelo://app?vid=dd55a95c-84ae-4f2d-9924-3ca8c1853af4","ios":"levelo://app?vid=dd55a95c-84ae-4f2d-9924-3ca8c1853af4"},"vehicle_type_id":"4","last_reported":1744650544,"current_range_meters":14000,"station_id":"ce501612rcd8frsf0b60","pricing_plan_id":"cebpf4jnsgd1na2vs0mg"},{"bike_id":"27a55245-8dd2-4f1a-af63-95a9d7b71690","system_id":"levelo_inurba_marseille","lat":43.3107,"lon":5.37892,"is_reserved":false,"is_disabled":true,"rental_uris":{"android":"levelo://app?vid=27a55245-8dd2-4f1a-af63-95a9d7b71690","ios":"levelo://app?vid=27a55245-8dd2-4f1a-af63-95a9d7b71690"},"vehicle_type_id":"4","last_reported":1744650544,"current_range_meters":14000,"station_id":"","pricing_plan_id":"cebpf4jnsgd1na2vs0mg"},{"bike_id":"e38e4216-2f71-40db-ac13-38272b78ae3e","system_id":"levelo_inurba_marseille","lat":43.27067,"lon":5.42284,"is_reserved":false,"is_disabled":false,"rental_uris":{"android":"levelo://app?vid=e38e4216-2f71-40db-ac13-38272b78ae3e","ios":"levelo://app?vid=e38e4216-2f71-40db-ac13-38272b78ae3e"},"vehicle_type_id":"4","last_reported":1744650544,"current_range_meters":14400,"station_id":"ce4bhk92rcd13ifvqgb0","pricing_plan_id":"cebpf4jnsgd1na2vs0mg"},{"bike_id":"75ec9fd4-e49d-4741-a103-dfc153967a81","system_id":"levelo_inurba_marseille","lat":43.29947,"lon":5.36552,"is_reserved":false,"is_disabled":false,"rental_uris":{"android":"levelo://app?vid=75ec9fd4-e49d-4741-a103-dfc153967a81","ios":"levelo://app?vid=75ec9fd4-e49d-4741-a103-dfc153967a81"},"vehicle_type_id":"4","last_reported":1744650544,"current_range_meters":14400,"station_id":"ce4bgm92rcd13ifvqbr0","pricing_plan_id":"cebpf4jnsgd1na2vs0mg"},{"bike_id":"bf44a4f1-78fa-4daa-823f-55b0cb4d31fe","system_id":"levelo_inurba_marseille","lat":43.27174,"lon":5.40989,"is_reserved":false,"is_disabled":false,"rental_uris":{"android":"levelo://app?vid=bf44a4f1-78fa-4daa-823f-55b0cb4d31fe","ios":"levelo://app?vid=bf44a4f1-78fa-4daa-823f-55b0cb4d31fe"},"vehicle_type_id":"4","last_reported":1744650544,"current_range_meters":14400,"station_id":"ce4bhl12rcd13ifvqgf0","pricing_plan_id":"cebpf4jnsgd1na2vs0mg"},{"bike_id":"049eab80-f7c9-44d2-ba6d-c79c57bc6259","system_id":"levelo_inurba_marseille","lat":43.29271,"lon":5.38433,"is_reserved":false,"is_disabled":false,"rental_uris":{"android":"levelo://app?vid=049eab80-f7c9-44d2-ba6d-c79c57bc6259","ios":"levelo://app?vid=049eab80-f7c9-44d2-ba6d-c79c57bc6259"},"vehicle_type_id":"4","last_reported":1744650544,"current_range_meters":14400,"station_id":"ce4bh692rcd13ifvqea0","pricing_plan_id":"cebpf4jnsgd1na2vs0mg"},{"bike_id":"d439d506-0e5b-4421-97ef-d16e23220065","system_id":"levelo_inurba_marseille","lat":43.29265,"lon":5.40914,"is_reserved":false,"is_disabled":false,"rental_uris":{"android":"levelo://app?vid=d439d506-0e5b-4421-97ef-d16e23220065","ios":"levelo://app?vid=d439d506-0e5b-4421-97ef-d16e23220065"},"vehicle_type_id":"4","last_reported":1744650544,"current_range_meters":14800,"station_id":"ce4bh192rcd13ifvqdc0","pricing_plan_id":"cebpf4jnsgd1na2vs0mg"},{"bike_id":"9357e327-cb00-4fd9-852c-698a42e274fa","system_id":"levelo_inurba_marseille","lat":43.29907,"lon":5.43672,"is_reserved":false,"is_disabled":false,"rental_uris":{"android":"levelo://app?vid=9357e327-cb00-4fd9-852c-698a42e274fa","ios":"levelo://app?vid=9357e327-cb00-4fd9-852c-698a42e274fa"},"vehicle_type_id":"4","last_reported":1744650544,"current_range_meters":14400,"station_id":"ce4bhpp2rcd13ifvqhfg","pricing_plan_id":"cebpf4jnsgd1na2vs0mg"},{"bike_id":"4c4c27f9-d132-4dde-9776-f08d18299fd4","system_id":"levelo_inurba_marseille","lat":43.284373,"lon":5.391953,"is_reserved":false,"is_disabled":false,"rental_uris":{"android":"levelo://app?vid=4c4c27f9-d132-4dde-9776-f08d18299fd4","ios":"levelo://app?vid=4c4c27f9-d132-4dde-9776-f08d18299fd4"},"vehicle_type_id":"4","last_reported":1744650544,"current_range_meters":14400,"station_id":"ce4bh312rcd13ifvqdk0","pricing_plan_id":"cebpf4jnsgd1na2vs0mg"},{"bike_id":"61377ee4-fd99-4c2f-b5ad-a5ac167d945b","system_id":"levelo_inurba_marseille","lat":43.23184,"lon":5.43722,"is_reserved":false,"is_disabled":false,"rental_uris":{"android":"levelo://app?vid=61377ee4-fd99-4c2f-b5ad-a5ac167d945b","ios":"levelo://app?vid=61377ee4-fd99-4c2f-b5ad-a5ac167d945b"},"vehicle_type_id":"4","last_reported":1744650544,"current_range_meters":14400,"station_id":"ce4bhmp2rcd13ifvqgog","pricing_plan_id":"cebpf4jnsgd1na2vs0mg"},{"bike_id":"9e3ff1cb-c567-4875-b111-ffc3f2871bfc","system_id":"levelo_inurba_marseille","lat":43.24663,"lon":5.38165,"is_reserved":false,"is_disabled":false,"rental_uris":{"android":"levelo://app?vid=9e3ff1cb-c567-4875-b111-ffc3f2871bfc","ios":"levelo://app?vid=9e3ff1cb-c567-4875-b111-ffc3f2871bfc"},"vehicle_type_id":"4","last_reported":1744650544,"current_range_meters":14800,"station_id":"ce4bhih2rcd13ifvqfr0","pricing_plan_id":"cebpf4jnsgd1na2vs0mg"},{"bike_id":"fc865269-0e3a-42e9-83f0-ff606510b654","system_id":"levelo_inurba_marseille","lat":43.27942,"lon":5.41051,"is_reserved":false,"is_disabled":false,"rental_uris":{"android":"levelo://app?vid=fc865269-0e3a-42e9-83f0-ff606510b654","ios":"levelo://app?vid=fc865269-0e3a-42e9-83f0-ff606510b654"},"vehicle_type_id":"4","last_reported":1744650544,"current_range_meters":14800,"station_id":"ce4bhnp2rcd13ifvqh0g","pricing_plan_id":"cebpf4jnsgd1na2vs0mg"},{"bike_id":"ac5027fa-1328-45c5-a345-6eecd33faab6","system_id":"levelo_inurba_marseille","lat":43.29298,"lon":5.37201,"is_reserved":false,"is_disabled":false,"rental_uris":{"android":"levelo://app?vid=ac5027fa-1328-45c5-a345-6eecd33faab6","ios":"levelo://app?vid=ac5027fa-1328-45c5-a345-6eecd33faab6"},"vehicle_type_id":"4","last_reported":1744650544,"current_range_meters":14800,"station_id":"ce4bgh92rcd13ifvqb40","pricing_plan_id":"cebpf4jnsgd1na2vs0mg"},{"bike_id":"0601afab-30c9-43a7-907c-0b06924c9a20","system_id":"levelo_inurba_marseille","lat":43.25826,"lon":5.39434,"is_reserved":false,"is_disabled":false,"rental_uris":{"android":"levelo://app?vid=0601afab-30c9-43a7-907c-0b06924c9a20","ios":"levelo://app?vid=0601afab-30c9-43a7-907c-0b06924c9a20"},"vehicle_type_id":"4","last_reported":1744650544,"current_range_meters":14800,"station_id":"ce4bhip2rcd13ifvqft0","pricing_plan_id":"cebpf4jnsgd1na2vs0mg"},{"bike_id":"a7725cc2-18ad-431f-92bf-f2d2a905cf09","system_id":"levelo_inurba_marseille","lat":43.29253,"lon":5.38424,"is_reserved":false,"is_disabled":false,"rental_uris":{"android":"levelo://app?vid=a7725cc2-18ad-431f-92bf-f2d2a905cf09","ios":"levelo://app?vid=a7725cc2-18ad-431f-92bf-f2d2a905cf09"},"vehicle_type_id":"4","last_reported":1744650544,"current_range_meters":14800,"station_id":"ce4bh692rcd13ifvqea0","pricing_plan_id":"cebpf4jnsgd1na2vs0mg"},{"bike_id":"5899b34b-f9bb-4dee-aba7-7865e86587ba","system_id":"levelo_inurba_marseille","lat":43.27493,"lon":5.42447,"is_reserved":false,"is_disabled":false,"rental_uris":{"android":"levelo://app?vid=5899b34b-f9bb-4dee-aba7-7865e86587ba","ios":"levelo://app?vid=5899b34b-f9bb-4dee-aba7-7865e86587ba"},"vehicle_type_id":"4","last_reported":1744650544,"current_range_meters":14800,"station_id":"ce4bhn92rcd13ifvqgrg","pricing_plan_id":"cebpf4jnsgd1na2vs0mg"},{"bike_id":"980b3e6f-96ad-4bb5-b5ee-9bbe8261fd89","system_id":"levelo_inurba_marseille","lat":43.27957,"lon":5.41037,"is_reserved":false,"is_disabled":false,"rental_uris":{"android":"levelo://app?vid=980b3e6f-96ad-4bb5-b5ee-9bbe8261fd89","ios":"levelo://app?vid=980b3e6f-96ad-4bb5-b5ee-9bbe8261fd89"},"vehicle_type_id":"4","last_reported":1744650544,"current_range_meters":14800,"station_id":"ce4bhnp2rcd13ifvqh0g","pricing_plan_id":"cebpf4jnsgd1na2vs0mg"},{"bike_id":"e3ee478b-405c-4374-b2fd-681a04b15798","system_id":"levelo_inurba_marseille","lat":43.29196,"lon":5.35815,"is_reserved":false,"is_disabled":false,"rental_uris":{"android":"levelo://app?vid=e3ee478b-405c-4374-b2fd-681a04b15798","ios":"levelo://app?vid=e3ee478b-405c-4374-b2fd-681a04b15798"},"vehicle_type_id":"4","last_reported":1744650544,"current_range_meters":14800,"station_id":"ce4bhb12rcd13ifvqel0","pricing_plan_id":"cebpf4jnsgd1na2vs0mg"},{"bike_id":"40db818b-5b9e-46bf-8274-264778958c39","system_id":"levelo_inurba_marseille","lat":43.23154,"lon":5.43705,"is_reserved":false,"is_disabled":false,"rental_uris":{"android":"levelo://app?vid=40db818b-5b9e-46bf-8274-264778958c39","ios":"levelo://app?vid=40db818b-5b9e-46bf-8274-264778958c39"},"vehicle_type_id":"4","last_reported":1744650544,"current_range_meters":14800,"station_id":"ce4bhmp2rcd13ifvqgog","pricing_plan_id":"cebpf4jnsgd1na2vs0mg"},{"bike_id":"ec6ce647-451d-469e-b4b4-79fec61fd996","system_id":"levelo_inurba_marseille","lat":43.29514,"lon":5.37512,"is_reserved":false,"is_disabled":false,"rental_uris":{"android":"levelo://app?vid=ec6ce647-451d-469e-b4b4-79fec61fd996","ios":"levelo://app?vid=ec6ce647-451d-469e-b4b4-79fec61fd996"},"vehicle_type_id":"4","last_reported":1744650544,"current_range_meters":15200,"station_id":"ce4bgkp2rcd13ifvqbmg","pricing_plan_id":"cebpf4jnsgd1na2vs0mg"},{"bike_id":"9481a4d4-998c-4242-822b-0b8fa3017440","system_id":"levelo_inurba_marseille","lat":43.28846,"lon":5.39338,"is_reserved":false,"is_disabled":true,"rental_uris":{"android":"levelo://app?vid=9481a4d4-998c-4242-822b-0b8fa3017440","ios":"levelo://app?vid=9481a4d4-998c-4242-822b-0b8fa3017440"},"vehicle_type_id":"4","last_reported":1744650544,"current_range_meters":15200,"station_id":"ce4bh2p2rcd13ifvqdi0","pricing_plan_id":"cebpf4jnsgd1na2vs0mg"},{"bike_id":"56135a82-d19f-45ea-a72c-58b1131d0fcb","system_id":"levelo_inurba_marseille","lat":43.28119,"lon":5.3967,"is_reserved":false,"is_disabled":true,"rental_uris":{"android":"levelo://app?vid=56135a82-d19f-45ea-a72c-58b1131d0fcb","ios":"levelo://app?vid=56135a82-d19f-45ea-a72c-58b1131d0fcb"},"vehicle_type_id":"4","last_reported":1744650544,"current_range_meters":15200,"station_id":"ce4bho12rcd13ifvqh2g","pricing_plan_id":"cebpf4jnsgd1na2vs0mg"},{"bike_id":"51754a00-48d7-4300-9125-7986bc59c485","system_id":"levelo_inurba_marseille","lat":43.28923,"lon":5.38402,"is_reserved":false,"is_disabled":false,"rental_uris":{"android":"levelo://app?vid=51754a00-48d7-4300-9125-7986bc59c485","ios":"levelo://app?vid=51754a00-48d7-4300-9125-7986bc59c485"},"vehicle_type_id":"4","last_reported":1744650544,"current_range_meters":14800,"station_id":"ce4bh612rcd13ifvqe6g","pricing_plan_id":"cebpf4jnsgd1na2vs0mg"},{"bike_id":"78058601-55ef-4aa0-be4c-3eacffbaf72c","system_id":"levelo_inurba_marseille","lat":43.24798,"lon":5.37448,"is_reserved":false,"is_disabled":false,"rental_uris":{"android":"levelo://app?vid=78058601-55ef-4aa0-be4c-3eacffbaf72c","ios":"levelo://app?vid=78058601-55ef-4aa0-be4c-3eacffbaf72c"},"vehicle_type_id":"4","last_reported":1744650544,"current_range_meters":14800,"station_id":"ce4bhgh2rcd13ifvqfb0","pricing_plan_id":"cebpf4jnsgd1na2vs0mg"},{"bike_id":"adc57c37-ce55-4115-a740-875a9e1ac006","system_id":"levelo_inurba_marseille","lat":43.28456,"lon":5.3589,"is_reserved":false,"is_disabled":false,"rental_uris":{"android":"levelo://app?vid=adc57c37-ce55-4115-a740-875a9e1ac006","ios":"levelo://app?vid=adc57c37-ce55-4115-a740-875a9e1ac006"},"vehicle_type_id":"4","last_reported":1744650544,"current_range_meters":16000,"station_id":"ce4bhah2rcd13ifvqei0","pricing_plan_id":"cebpf4jnsgd1na2vs0mg"},{"bike_id":"6211b298-fbe3-42cf-93d9-bd3dd94f1f9d","system_id":"levelo_inurba_marseille","lat":43.285001,"lon":5.359815,"is_reserved":false,"is_disabled":false,"rental_uris":{"android":"levelo://app?vid=6211b298-fbe3-42cf-93d9-bd3dd94f1f9d","ios":"levelo://app?vid=6211b298-fbe3-42cf-93d9-bd3dd94f1f9d"},"vehicle_type_id":"4","last_reported":1744650544,"current_range_meters":15200,"station_id":"ce4bhah2rcd13ifvqei0","pricing_plan_id":"cebpf4jnsgd1na2vs0mg"},{"bike_id":"ed15d9ab-1d26-4bb2-9a4b-9cd2d24bf3e9","system_id":"levelo_inurba_marseille","lat":43.30422,"lon":5.41287,"is_reserved":false,"is_disabled":false,"rental_uris":{"android":"levelo://app?vid=ed15d9ab-1d26-4bb2-9a4b-9cd2d24bf3e9","ios":"levelo://app?vid=ed15d9ab-1d26-4bb2-9a4b-9cd2d24bf3e9"},"vehicle_type_id":"4","last_reported":1744650544,"current_range_meters":15200,"station_id":"ce4bhop2rcd13ifvqh8g","pricing_plan_id":"cebpf4jnsgd1na2vs0mg"},{"bike_id":"d757f6c4-b765-491b-a69f-dba8efb3de94","system_id":"levelo_inurba_marseille","lat":43.29522,"lon":5.39402,"is_reserved":false,"is_disabled":false,"rental_uris":{"android":"levelo://app?vid=d757f6c4-b765-491b-a69f-dba8efb3de94","ios":"levelo://app?vid=d757f6c4-b765-491b-a69f-dba8efb3de94"},"vehicle_type_id":"4","last_reported":1744650544,"current_range_meters":16000,"station_id":"ce4bh292rcd13ifvqdf0","pricing_plan_id":"cebpf4jnsgd1na2vs0mg"},{"bike_id":"0d86b0af-1fb6-4b02-8867-086291e3acf6","system_id":"levelo_inurba_marseille","lat":43.2904,"lon":5.39976,"is_reserved":false,"is_disabled":false,"rental_uris":{"android":"levelo://app?vid=0d86b0af-1fb6-4b02-8867-086291e3acf6","ios":"levelo://app?vid=0d86b0af-1fb6-4b02-8867-086291e3acf6"},"vehicle_type_id":"4","last_reported":1744650544,"current_range_meters":16000,"station_id":"ce4bh392rcd13ifvqdm0","pricing_plan_id":"cebpf4jnsgd1na2vs0mg"},{"bike_id":"57800f9a-586f-43f6-8f89-70c3b14ff417","system_id":"levelo_inurba_marseille","lat":43.283569,"lon":5.386512,"is_reserved":false,"is_disabled":false,"rental_uris":{"android":"levelo://app?vid=57800f9a-586f-43f6-8f89-70c3b14ff417","ios":"levelo://app?vid=57800f9a-586f-43f6-8f89-70c3b14ff417"},"vehicle_type_id":"4","last_reported":1744650544,"current_range_meters":16000,"station_id":"ce4bh492rcd13ifvqdvg","pricing_plan_id":"cebpf4jnsgd1na2vs0mg"},{"bike_id":"93b02a0f-e2f5-49ef-90ae-4a058707e43d","system_id":"levelo_inurba_marseille","lat":43.29672,"lon":5.37289,"is_reserved":false,"is_disabled":true,"rental_uris":{"android":"levelo://app?vid=93b02a0f-e2f5-49ef-90ae-4a058707e43d","ios":"levelo://app?vid=93b02a0f-e2f5-49ef-90ae-4a058707e43d"},"vehicle_type_id":"4","last_reported":1744650544,"current_range_meters":16000,"station_id":"ce4bgk12rcd13ifvqbj0","pricing_plan_id":"cebpf4jnsgd1na2vs0mg"},{"bike_id":"e814e7a5-f643-4411-a7c3-4750053167ce","system_id":"levelo_inurba_marseille","lat":43.24068,"lon":5.37753,"is_reserved":false,"is_disabled":false,"rental_uris":{"android":"levelo://app?vid=e814e7a5-f643-4411-a7c3-4750053167ce","ios":"levelo://app?vid=e814e7a5-f643-4411-a7c3-4750053167ce"},"vehicle_type_id":"4","last_reported":1744650544,"current_range_meters":16400,"station_id":"ce4bhnp2rcd13ifvqgvg","pricing_plan_id":"cebpf4jnsgd1na2vs0mg"},{"bike_id":"02dc5853-d17c-47ac-a646-82ded7ba5800","system_id":"levelo_inurba_marseille","lat":43.30251,"lon":5.4007,"is_reserved":false,"is_disabled":true,"rental_uris":{"android":"levelo://app?vid=02dc5853-d17c-47ac-a646-82ded7ba5800","ios":"levelo://app?vid=02dc5853-d17c-47ac-a646-82ded7ba5800"},"vehicle_type_id":"4","last_reported":1744650544,"current_range_meters":16400,"station_id":"ce4bgvh2rcd13ifvqcs0","pricing_plan_id":"cebpf4jnsgd1na2vs0mg"},{"bike_id":"1ab6fcec-6ad9-4447-a325-7cd9d564dbde","system_id":"levelo_inurba_marseille","lat":43.3032,"lon":5.40437,"is_reserved":false,"is_disabled":false,"rental_uris":{"android":"levelo://app?vid=1ab6fcec-6ad9-4447-a325-7cd9d564dbde","ios":"levelo://app?vid=1ab6fcec-6ad9-4447-a325-7cd9d564dbde"},"vehicle_type_id":"4","last_reported":1744650544,"current_range_meters":16400,"station_id":"ce4bh012rcd13ifvqd10","pricing_plan_id":"cebpf4jnsgd1na2vs0mg"},{"bike_id":"405e348e-dfe1-4cb5-9b0e-0297c095dd13","system_id":"levelo_inurba_marseille","lat":43.29265,"lon":5.4016,"is_reserved":false,"is_disabled":false,"rental_uris":{"android":"levelo://app?vid=405e348e-dfe1-4cb5-9b0e-0297c095dd13","ios":"levelo://app?vid=405e348e-dfe1-4cb5-9b0e-0297c095dd13"},"vehicle_type_id":"4","last_reported":1744650544,"current_range_meters":16000,"station_id":"ce4bh312rcd13ifvqdk0","pricing_plan_id":"cebpf4jnsgd1na2vs0mg"},{"bike_id":"86507adb-43c1-4a89-acc7-c74cd80a099f","system_id":"levelo_inurba_marseille","lat":43.23139,"lon":5.36656,"is_reserved":false,"is_disabled":false,"rental_uris":{"android":"levelo://app?vid=86507adb-43c1-4a89-acc7-c74cd80a099f","ios":"levelo://app?vid=86507adb-43c1-4a89-acc7-c74cd80a099f"},"vehicle_type_id":"4","last_reported":1744650544,"current_range_meters":16400,"station_id":"","pricing_plan_id":"cebpf4jnsgd1na2vs0mg"},{"bike_id":"38903f31-e94f-4376-9426-024948f3e40a","system_id":"levelo_inurba_marseille","lat":43.292476,"lon":5.409485,"is_reserved":false,"is_disabled":false,"rental_uris":{"android":"levelo://app?vid=38903f31-e94f-4376-9426-024948f3e40a","ios":"levelo://app?vid=38903f31-e94f-4376-9426-024948f3e40a"},"vehicle_type_id":"4","last_reported":1744650544,"current_range_meters":16800,"station_id":"ce4bh3p2rcd13ifvqdp0","pricing_plan_id":"cebpf4jnsgd1na2vs0mg"},{"bike_id":"ec55715f-50ef-4b62-b932-d89df8729be7","system_id":"levelo_inurba_marseille","lat":43.31607,"lon":5.38867,"is_reserved":false,"is_disabled":false,"rental_uris":{"android":"levelo://app?vid=ec55715f-50ef-4b62-b932-d89df8729be7","ios":"levelo://app?vid=ec55715f-50ef-4b62-b932-d89df8729be7"},"vehicle_type_id":"4","last_reported":1744650544,"current_range_meters":16800,"station_id":"","pricing_plan_id":"cebpf4jnsgd1na2vs0mg"},{"bike_id":"abf89f84-a066-4190-b942-bcdab5f9b27e","system_id":"levelo_inurba_marseille","lat":43.29672,"lon":5.37284,"is_reserved":false,"is_disabled":false,"rental_uris":{"android":"levelo://app?vid=abf89f84-a066-4190-b942-bcdab5f9b27e","ios":"levelo://app?vid=abf89f84-a066-4190-b942-bcdab5f9b27e"},"vehicle_type_id":"4","last_reported":1744650544,"current_range_meters":16400,"station_id":"ce4bgk12rcd13ifvqbj0","pricing_plan_id":"cebpf4jnsgd1na2vs0mg"},{"bike_id":"37342bdf-d586-43ba-a25b-da22b3393da6","system_id":"levelo_inurba_marseille","lat":43.29193,"lon":5.37514,"is_reserved":false,"is_disabled":false,"rental_uris":{"android":"levelo://app?vid=37342bdf-d586-43ba-a25b-da22b3393da6","ios":"levelo://app?vid=37342bdf-d586-43ba-a25b-da22b3393da6"},"vehicle_type_id":"4","last_reported":1744650544,"current_range_meters":16800,"station_id":"","pricing_plan_id":"cebpf4jnsgd1na2vs0mg"},{"bike_id":"3a182530-0fe1-4198-a173-a7ed17113c82","system_id":"levelo_inurba_marseille","lat":43.28156,"lon":5.42638,"is_reserved":false,"is_disabled":false,"rental_uris":{"android":"levelo://app?vid=3a182530-0fe1-4198-a173-a7ed17113c82","ios":"levelo://app?vid=3a182530-0fe1-4198-a173-a7ed17113c82"},"vehicle_type_id":"4","last_reported":1744650544,"current_range_meters":16800,"station_id":"ce4bhnh2rcd13ifvqgug","pricing_plan_id":"cebpf4jnsgd1na2vs0mg"},{"bike_id":"382a1a40-cce5-4bcf-8677-ad51fb5a2457","system_id":"levelo_inurba_marseille","lat":43.28852,"lon":5.39342,"is_reserved":false,"is_disabled":true,"rental_uris":{"android":"levelo://app?vid=382a1a40-cce5-4bcf-8677-ad51fb5a2457","ios":"levelo://app?vid=382a1a40-cce5-4bcf-8677-ad51fb5a2457"},"vehicle_type_id":"4","last_reported":1744650544,"current_range_meters":16800,"station_id":"ce4bh2p2rcd13ifvqdi0","pricing_plan_id":"cebpf4jnsgd1na2vs0mg"},{"bike_id":"0d97217b-392d-4d73-96b1-1eb3fdebbe3b","system_id":"levelo_inurba_marseille","lat":43.31072,"lon":5.38349,"is_reserved":false,"is_disabled":false,"rental_uris":{"android":"levelo://app?vid=0d97217b-392d-4d73-96b1-1eb3fdebbe3b","ios":"levelo://app?vid=0d97217b-392d-4d73-96b1-1eb3fdebbe3b"},"vehicle_type_id":"4","last_reported":1744650544,"current_range_meters":16800,"station_id":"ce4bgv92rcd13ifvqcr0","pricing_plan_id":"cebpf4jnsgd1na2vs0mg"},{"bike_id":"5c0cc5dd-7c03-4f8b-838c-65a8bfb31b5b","system_id":"levelo_inurba_marseille","lat":43.24658,"lon":5.38163,"is_reserved":false,"is_disabled":false,"rental_uris":{"android":"levelo://app?vid=5c0cc5dd-7c03-4f8b-838c-65a8bfb31b5b","ios":"levelo://app?vid=5c0cc5dd-7c03-4f8b-838c-65a8bfb31b5b"},"vehicle_type_id":"4","last_reported":1744650544,"current_range_meters":17200,"station_id":"ce4bhih2rcd13ifvqfr0","pricing_plan_id":"cebpf4jnsgd1na2vs0mg"},{"bike_id":"a6df17eb-3570-436e-862c-fc5ce65d2e7e","system_id":"levelo_inurba_marseille","lat":43.28622,"lon":5.35093,"is_reserved":false,"is_disabled":false,"rental_uris":{"android":"levelo://app?vid=a6df17eb-3570-436e-862c-fc5ce65d2e7e","ios":"levelo://app?vid=a6df17eb-3570-436e-862c-fc5ce65d2e7e"},"vehicle_type_id":"4","last_reported":1744650544,"current_range_meters":17200,"station_id":"ce4bhch2rcd13ifvqeug","pricing_plan_id":"cebpf4jnsgd1na2vs0mg"},{"bike_id":"b76f0275-b57c-4754-afb9-ea9b3f90d056","system_id":"levelo_inurba_marseille","lat":43.32366,"lon":5.3888,"is_reserved":false,"is_disabled":false,"rental_uris":{"android":"levelo://app?vid=b76f0275-b57c-4754-afb9-ea9b3f90d056","ios":"levelo://app?vid=b76f0275-b57c-4754-afb9-ea9b3f90d056"},"vehicle_type_id":"4","last_reported":1744650544,"current_range_meters":17200,"station_id":"ce4bhqp2rcd13ifvqhog","pricing_plan_id":"cebpf4jnsgd1na2vs0mg"},{"bike_id":"9cbdb7fd-c38a-40d4-96dd-748a8908657f","system_id":"levelo_inurba_marseille","lat":43.26034,"lon":5.37539,"is_reserved":false,"is_disabled":false,"rental_uris":{"android":"levelo://app?vid=9cbdb7fd-c38a-40d4-96dd-748a8908657f","ios":"levelo://app?vid=9cbdb7fd-c38a-40d4-96dd-748a8908657f"},"vehicle_type_id":"4","last_reported":1744650544,"current_range_meters":17200,"station_id":"ce4bhgh2rcd13ifvqfa0","pricing_plan_id":"cebpf4jnsgd1na2vs0mg"},{"bike_id":"10ecc4c8-a7d4-4649-85b8-dbcce94ca472","system_id":"levelo_inurba_marseille","lat":43.2942,"lon":5.38626,"is_reserved":false,"is_disabled":false,"rental_uris":{"android":"levelo://app?vid=10ecc4c8-a7d4-4649-85b8-dbcce94ca472","ios":"levelo://app?vid=10ecc4c8-a7d4-4649-85b8-dbcce94ca472"},"vehicle_type_id":"4","last_reported":1744650544,"current_range_meters":17200,"station_id":"ce4bh2h2rcd13ifvqdh0","pricing_plan_id":"cebpf4jnsgd1na2vs0mg"},{"bike_id":"fedb9457-c408-43a0-8b5e-ccdff25947f5","system_id":"levelo_inurba_marseille","lat":43.26224,"lon":5.40448,"is_reserved":false,"is_disabled":true,"rental_uris":{"android":"levelo://app?vid=fedb9457-c408-43a0-8b5e-ccdff25947f5","ios":"levelo://app?vid=fedb9457-c408-43a0-8b5e-ccdff25947f5"},"vehicle_type_id":"4","last_reported":1744650544,"current_range_meters":17200,"station_id":"ce4bhlh2rcd13ifvqgig","pricing_plan_id":"cebpf4jnsgd1na2vs0mg"},{"bike_id":"d40b0ea4-7452-4d12-b4f2-b4a710090bac","system_id":"levelo_inurba_marseille","lat":43.2982,"lon":5.36385,"is_reserved":false,"is_disabled":false,"rental_uris":{"android":"levelo://app?vid=d40b0ea4-7452-4d12-b4f2-b4a710090bac","ios":"levelo://app?vid=d40b0ea4-7452-4d12-b4f2-b4a710090bac"},"vehicle_type_id":"4","last_reported":1744650544,"current_range_meters":17200,"station_id":"ce4bgpp2rcd13ifvqc3g","pricing_plan_id":"cebpf4jnsgd1na2vs0mg"},{"bike_id":"6840e09e-c508-4815-8a91-36246f88dbf2","system_id":"levelo_inurba_marseille","lat":43.29899,"lon":5.43673,"is_reserved":false,"is_disabled":false,"rental_uris":{"android":"levelo://app?vid=6840e09e-c508-4815-8a91-36246f88dbf2","ios":"levelo://app?vid=6840e09e-c508-4815-8a91-36246f88dbf2"},"vehicle_type_id":"4","last_reported":1744650544,"current_range_meters":17600,"station_id":"ce4bhpp2rcd13ifvqhfg","pricing_plan_id":"cebpf4jnsgd1na2vs0mg"},{"bike_id":"150c92f3-516d-41fe-89f9-fa7bb41a1f80","system_id":"levelo_inurba_marseille","lat":43.30325,"lon":5.40422,"is_reserved":false,"is_disabled":false,"rental_uris":{"android":"levelo://app?vid=150c92f3-516d-41fe-89f9-fa7bb41a1f80","ios":"levelo://app?vid=150c92f3-516d-41fe-89f9-fa7bb41a1f80"},"vehicle_type_id":"4","last_reported":1744650544,"current_range_meters":17600,"station_id":"ce4bh012rcd13ifvqd10","pricing_plan_id":"cebpf4jnsgd1na2vs0mg"},{"bike_id":"b6683f02-bd37-41d4-a8fc-57a0a1f43bd3","system_id":"levelo_inurba_marseille","lat":43.2558,"lon":5.38234,"is_reserved":false,"is_disabled":false,"rental_uris":{"android":"levelo://app?vid=b6683f02-bd37-41d4-a8fc-57a0a1f43bd3","ios":"levelo://app?vid=b6683f02-bd37-41d4-a8fc-57a0a1f43bd3"},"vehicle_type_id":"4","last_reported":1744650544,"current_range_meters":17600,"station_id":"ce4bhih2rcd13ifvqfs0","pricing_plan_id":"cebpf4jnsgd1na2vs0mg"},{"bike_id":"08477162-6bdb-4fe3-bfed-44d28bae05ae","system_id":"levelo_inurba_marseille","lat":43.29699,"lon":5.36595,"is_reserved":false,"is_disabled":false,"rental_uris":{"android":"levelo://app?vid=08477162-6bdb-4fe3-bfed-44d28bae05ae","ios":"levelo://app?vid=08477162-6bdb-4fe3-bfed-44d28bae05ae"},"vehicle_type_id":"4","last_reported":1744650544,"current_range_meters":17600,"station_id":"ce4bgn12rcd13ifvqbt0","pricing_plan_id":"cebpf4jnsgd1na2vs0mg"},{"bike_id":"216c0a2c-fab0-4352-94a0-14b77c387959","system_id":"levelo_inurba_marseille","lat":43.24667,"lon":5.38155,"is_reserved":false,"is_disabled":false,"rental_uris":{"android":"levelo://app?vid=216c0a2c-fab0-4352-94a0-14b77c387959","ios":"levelo://app?vid=216c0a2c-fab0-4352-94a0-14b77c387959"},"vehicle_type_id":"4","last_reported":1744650544,"current_range_meters":17600,"station_id":"ce4bhih2rcd13ifvqfr0","pricing_plan_id":"cebpf4jnsgd1na2vs0mg"},{"bike_id":"65ae630e-4f9b-4204-81ec-8226f64887ce","system_id":"levelo_inurba_marseille","lat":43.28107,"lon":5.37842,"is_reserved":false,"is_disabled":false,"rental_uris":{"android":"levelo://app?vid=65ae630e-4f9b-4204-81ec-8226f64887ce","ios":"levelo://app?vid=65ae630e-4f9b-4204-81ec-8226f64887ce"},"vehicle_type_id":"4","last_reported":1744650544,"current_range_meters":17600,"station_id":"ce4bha12rcd13ifvqee0","pricing_plan_id":"cebpf4jnsgd1na2vs0mg"},{"bike_id":"d2d37f01-fa46-4fbc-a721-7789f4003663","system_id":"levelo_inurba_marseille","lat":43.2497,"lon":5.38969,"is_reserved":false,"is_disabled":false,"rental_uris":{"android":"levelo://app?vid=d2d37f01-fa46-4fbc-a721-7789f4003663","ios":"levelo://app?vid=d2d37f01-fa46-4fbc-a721-7789f4003663"},"vehicle_type_id":"4","last_reported":1744650544,"current_range_meters":17600,"station_id":"","pricing_plan_id":"cebpf4jnsgd1na2vs0mg"},{"bike_id":"205a676e-388e-4b5d-b5d4-92bca6b76c07","system_id":"levelo_inurba_marseille","lat":43.31155,"lon":5.38016,"is_reserved":false,"is_disabled":true,"rental_uris":{"android":"levelo://app?vid=205a676e-388e-4b5d-b5d4-92bca6b76c07","ios":"levelo://app?vid=205a676e-388e-4b5d-b5d4-92bca6b76c07"},"vehicle_type_id":"4","last_reported":1744650544,"current_range_meters":17600,"station_id":"","pricing_plan_id":"cebpf4jnsgd1na2vs0mg"},{"bike_id":"47a85634-40b2-4bd1-8409-1d1cf2f06bdc","system_id":"levelo_inurba_marseille","lat":43.24076,"lon":5.37762,"is_reserved":false,"is_disabled":false,"rental_uris":{"android":"levelo://app?vid=47a85634-40b2-4bd1-8409-1d1cf2f06bdc","ios":"levelo://app?vid=47a85634-40b2-4bd1-8409-1d1cf2f06bdc"},"vehicle_type_id":"4","last_reported":1744650544,"current_range_meters":18000,"station_id":"ce4bhnp2rcd13ifvqgvg","pricing_plan_id":"cebpf4jnsgd1na2vs0mg"},{"bike_id":"2e12a9c8-c42a-473b-aca6-98520cf90aef","system_id":"levelo_inurba_marseille","lat":43.30334,"lon":5.40493,"is_reserved":false,"is_disabled":false,"rental_uris":{"android":"levelo://app?vid=2e12a9c8-c42a-473b-aca6-98520cf90aef","ios":"levelo://app?vid=2e12a9c8-c42a-473b-aca6-98520cf90aef"},"vehicle_type_id":"4","last_reported":1744650544,"current_range_meters":18000,"station_id":"ce4bh012rcd13ifvqd10","pricing_plan_id":"cebpf4jnsgd1na2vs0mg"},{"bike_id":"977a07fd-193d-4aa7-ac3f-4daa74e01eb1","system_id":"levelo_inurba_marseille","lat":43.25092,"lon":5.39525,"is_reserved":false,"is_disabled":false,"rental_uris":{"android":"levelo://app?vid=977a07fd-193d-4aa7-ac3f-4daa74e01eb1","ios":"levelo://app?vid=977a07fd-193d-4aa7-ac3f-4daa74e01eb1"},"vehicle_type_id":"4","last_reported":1744650544,"current_range_meters":18000,"station_id":"ce4bhm12rcd13ifvqgkg","pricing_plan_id":"cebpf4jnsgd1na2vs0mg"},{"bike_id":"f6ec66e1-6d5d-4d61-9591-c35eb9630874","system_id":"levelo_inurba_marseille","lat":43.26047,"lon":5.3755,"is_reserved":false,"is_disabled":false,"rental_uris":{"android":"levelo://app?vid=f6ec66e1-6d5d-4d61-9591-c35eb9630874","ios":"levelo://app?vid=f6ec66e1-6d5d-4d61-9591-c35eb9630874"},"vehicle_type_id":"4","last_reported":1744650544,"current_range_meters":18000,"station_id":"ce4bhgh2rcd13ifvqfa0","pricing_plan_id":"cebpf4jnsgd1na2vs0mg"},{"bike_id":"7282ea70-0923-45fc-a703-28d7b3244700","system_id":"levelo_inurba_marseille","lat":43.29795,"lon":5.40389,"is_reserved":false,"is_disabled":false,"rental_uris":{"android":"levelo://app?vid=7282ea70-0923-45fc-a703-28d7b3244700","ios":"levelo://app?vid=7282ea70-0923-45fc-a703-28d7b3244700"},"vehicle_type_id":"4","last_reported":1744650544,"current_range_meters":18000,"station_id":"ce4bh112rcd13ifvqd90","pricing_plan_id":"cebpf4jnsgd1na2vs0mg"},{"bike_id":"bb1ecad1-1d0b-4caa-9580-d0e566a95ae2","system_id":"levelo_inurba_marseille","lat":43.24665,"lon":5.38163,"is_reserved":false,"is_disabled":false,"rental_uris":{"android":"levelo://app?vid=bb1ecad1-1d0b-4caa-9580-d0e566a95ae2","ios":"levelo://app?vid=bb1ecad1-1d0b-4caa-9580-d0e566a95ae2"},"vehicle_type_id":"4","last_reported":1744650544,"current_range_meters":18000,"station_id":"ce4bhih2rcd13ifvqfr0","pricing_plan_id":"cebpf4jnsgd1na2vs0mg"},{"bike_id":"e70eb5be-f6a5-43a5-904b-eb8f31fd4ca5","system_id":"levelo_inurba_marseille","lat":43.30888,"lon":5.3966,"is_reserved":false,"is_disabled":false,"rental_uris":{"android":"levelo://app?vid=e70eb5be-f6a5-43a5-904b-eb8f31fd4ca5","ios":"levelo://app?vid=e70eb5be-f6a5-43a5-904b-eb8f31fd4ca5"},"vehicle_type_id":"4","last_reported":1744650544,"current_range_meters":18800,"station_id":"ce4bh012rcd13ifvqcv0","pricing_plan_id":"cebpf4jnsgd1na2vs0mg"},{"bike_id":"5108b01b-8d59-4ac6-ac74-7816810f5885","system_id":"levelo_inurba_marseille","lat":43.28105,"lon":5.3783,"is_reserved":false,"is_disabled":false,"rental_uris":{"android":"levelo://app?vid=5108b01b-8d59-4ac6-ac74-7816810f5885","ios":"levelo://app?vid=5108b01b-8d59-4ac6-ac74-7816810f5885"},"vehicle_type_id":"4","last_reported":1744650544,"current_range_meters":18800,"station_id":"ce4bha12rcd13ifvqee0","pricing_plan_id":"cebpf4jnsgd1na2vs0mg"},{"bike_id":"c0203ac7-c55a-4436-9ba8-4564699f7f4a","system_id":"levelo_inurba_marseille","lat":43.2586,"lon":5.39902,"is_reserved":false,"is_disabled":false,"rental_uris":{"android":"levelo://app?vid=c0203ac7-c55a-4436-9ba8-4564699f7f4a","ios":"levelo://app?vid=c0203ac7-c55a-4436-9ba8-4564699f7f4a"},"vehicle_type_id":"4","last_reported":1744650544,"current_range_meters":18800,"station_id":"ce4bhl92rcd13ifvqghg","pricing_plan_id":"cebpf4jnsgd1na2vs0mg"},{"bike_id":"06b2ec7a-be88-41e5-848f-ce5dc880d0a0","system_id":"levelo_inurba_marseille","lat":43.2908,"lon":5.37159,"is_reserved":false,"is_disabled":false,"rental_uris":{"android":"levelo://app?vid=06b2ec7a-be88-41e5-848f-ce5dc880d0a0","ios":"levelo://app?vid=06b2ec7a-be88-41e5-848f-ce5dc880d0a0"},"vehicle_type_id":"4","last_reported":1744650544,"current_range_meters":18800,"station_id":"ce4bh5p2rcd13ifvqe4g","pricing_plan_id":"cebpf4jnsgd1na2vs0mg"},{"bike_id":"53837df3-73ec-4e40-89dc-fba795da7d2e","system_id":"levelo_inurba_marseille","lat":43.28346,"lon":5.38093,"is_reserved":false,"is_disabled":false,"rental_uris":{"android":"levelo://app?vid=53837df3-73ec-4e40-89dc-fba795da7d2e","ios":"levelo://app?vid=53837df3-73ec-4e40-89dc-fba795da7d2e"},"vehicle_type_id":"4","last_reported":1744650544,"current_range_meters":18800,"station_id":"ce4bh412rcd13ifvqdr0","pricing_plan_id":"cebpf4jnsgd1na2vs0mg"},{"bike_id":"f1aa61f8-4219-43e5-8d3f-6aa6c69b2620","system_id":"levelo_inurba_marseille","lat":43.27496,"lon":5.42451,"is_reserved":false,"is_disabled":false,"rental_uris":{"android":"levelo://app?vid=f1aa61f8-4219-43e5-8d3f-6aa6c69b2620","ios":"levelo://app?vid=f1aa61f8-4219-43e5-8d3f-6aa6c69b2620"},"vehicle_type_id":"4","last_reported":1744650544,"current_range_meters":18800,"station_id":"ce4bhn92rcd13ifvqgrg","pricing_plan_id":"cebpf4jnsgd1na2vs0mg"},{"bike_id":"d6ebc2af-e5f1-43d7-b1a8-70aa11cb1770","system_id":"levelo_inurba_marseille","lat":43.314378,"lon":5.389981,"is_reserved":false,"is_disabled":false,"rental_uris":{"android":"levelo://app?vid=d6ebc2af-e5f1-43d7-b1a8-70aa11cb1770","ios":"levelo://app?vid=d6ebc2af-e5f1-43d7-b1a8-70aa11cb1770"},"vehicle_type_id":"4","last_reported":1744650544,"current_range_meters":19200,"station_id":"ce4bgv12rcd13ifvqcp0","pricing_plan_id":"cebpf4jnsgd1na2vs0mg"},{"bike_id":"d7ed9b6a-6980-4754-9151-8f4c3d31e6fb","system_id":"levelo_inurba_marseille","lat":43.33025,"lon":5.39041,"is_reserved":false,"is_disabled":false,"rental_uris":{"android":"levelo://app?vid=d7ed9b6a-6980-4754-9151-8f4c3d31e6fb","ios":"levelo://app?vid=d7ed9b6a-6980-4754-9151-8f4c3d31e6fb"},"vehicle_type_id":"4","last_reported":1744650544,"current_range_meters":19200,"station_id":"ce4bhr92rcd13ifvqhrg","pricing_plan_id":"cebpf4jnsgd1na2vs0mg"},{"bike_id":"73e973d7-5827-4d58-a194-749c23cc482b","system_id":"levelo_inurba_marseille","lat":43.29525,"lon":5.39401,"is_reserved":false,"is_disabled":false,"rental_uris":{"android":"levelo://app?vid=73e973d7-5827-4d58-a194-749c23cc482b","ios":"levelo://app?vid=73e973d7-5827-4d58-a194-749c23cc482b"},"vehicle_type_id":"4","last_reported":1744650544,"current_range_meters":19200,"station_id":"ce4bh292rcd13ifvqdf0","pricing_plan_id":"cebpf4jnsgd1na2vs0mg"},{"bike_id":"affbca8d-78d3-46b7-bfff-742df77116b5","system_id":"levelo_inurba_marseille","lat":43.28698,"lon":5.37397,"is_reserved":false,"is_disabled":false,"rental_uris":{"android":"levelo://app?vid=affbca8d-78d3-46b7-bfff-742df77116b5","ios":"levelo://app?vid=affbca8d-78d3-46b7-bfff-742df77116b5"},"vehicle_type_id":"4","last_reported":1744650544,"current_range_meters":19600,"station_id":"ce4bh3p2rcd13ifvqdq0","pricing_plan_id":"cebpf4jnsgd1na2vs0mg"},{"bike_id":"84875a26-24b1-4cfc-801b-a23f17e365de","system_id":"levelo_inurba_marseille","lat":43.29419,"lon":5.38621,"is_reserved":false,"is_disabled":false,"rental_uris":{"android":"levelo://app?vid=84875a26-24b1-4cfc-801b-a23f17e365de","ios":"levelo://app?vid=84875a26-24b1-4cfc-801b-a23f17e365de"},"vehicle_type_id":"4","last_reported":1744650544,"current_range_meters":19600,"station_id":"ce4bh2h2rcd13ifvqdh0","pricing_plan_id":"cebpf4jnsgd1na2vs0mg"},{"bike_id":"c1c136a9-3fe6-408a-a2d9-f5423d116933","system_id":"levelo_inurba_marseille","lat":43.28071,"lon":5.39636,"is_reserved":false,"is_disabled":false,"rental_uris":{"android":"levelo://app?vid=c1c136a9-3fe6-408a-a2d9-f5423d116933","ios":"levelo://app?vid=c1c136a9-3fe6-408a-a2d9-f5423d116933"},"vehicle_type_id":"4","last_reported":1744650544,"current_range_meters":19600,"station_id":"ce4bho12rcd13ifvqh2g","pricing_plan_id":"cebpf4jnsgd1na2vs0mg"},{"bike_id":"7eacb872-0584-4b06-8fad-feb612d3799a","system_id":"levelo_inurba_marseille","lat":43.29702,"lon":5.38203,"is_reserved":false,"is_disabled":false,"rental_uris":{"android":"levelo://app?vid=7eacb872-0584-4b06-8fad-feb612d3799a","ios":"levelo://app?vid=7eacb872-0584-4b06-8fad-feb612d3799a"},"vehicle_type_id":"4","last_reported":1744650544,"current_range_meters":19600,"station_id":"","pricing_plan_id":"cebpf4jnsgd1na2vs0mg"},