{"last_updated":1743440922,"ttl":60,"version":"2.2","data":{"bikes":[{"bike_id":"ac53f409-52a0-40db-a2c3-2e7af16ffa1c","system_id":"levelo_inurba_marseille","lat":43.31326,"lon":5.39693,"is_reserved":false,"is_disabled":false,"rental_uris":{"android":"levelo://app?vid=ac53f409-52a0-40db-a2c3-2e7af16ffa1c","ios":"levelo://app?vid=ac53f409-52a0-40db-a2c3-2e7af16ffa1c"},"vehicle_type_id":"4","last_reported":1743440922,"current_range_meters":2800,"station_id":"ce4bgvp2rcd13ifvqcu0","pricing_plan_id":"cebpf4jnsgd1na2vs0mg"},{"bike_id":"96ac20e8-5840-4579-b371-184ec6253952","system_id":"levelo_inurba_marseille","lat":43.27535,"lon":5.41157,"is_reserved":false,"is_disabled":false,"rental_uris":{"android":"levelo://app?vid=96ac20e8-5840-4579-b371-184ec6253952","ios":"levelo://app?vid=96ac20e8-5840-4579-b371-184ec6253952"},"vehicle_type_id":"4","last_reported":1743440922,"current_range_meters":2800,"station_id":"","pricing_plan_id":"cebpf4jnsgd1na2vs0mg"},{"bike_id":"7bf19f0f-ccb7-4e2d-8151-5b3b43d672b1","system_id":"levelo_inurba_marseille","lat":43.260218,"lon":5.417406,"is_reserved":false,"is_disabled":false,"rental_uris":{"android":"levelo://app?vid=7bf19f0f-ccb7-4e2d-8151-5b3b43d672b1","ios":"levelo://app?vid=7bf19f0f-ccb7-4e2d-8151-5b3b43d672b1"},"vehicle_type_id":"4","last_reported":1743440922,"current_range_meters":2800,"station_id":"","pricing_plan_id":"cebpf4jnsgd1na2vs0mg"},{"bike_id":"1b1aaa64-9262-4ee9-a3a9-02131d40670b","system_id":"levelo_inurba_marseille","lat":43.28857,"lon":5.35844,"is_reserved":false,"is_disabled":false,"rental_uris":{"android":"levelo://app?vid=1b1aaa64-9262-4ee9-a3a9-02131d40670b","ios":"levelo://app?vid=1b1aaa64-9262-4ee9-a3a9-02131d40670b"},"vehicle_type_id":"4","last_reported":1743440922,"current_range_meters":2800,"station_id":"ce4bhb12rcd13ifvqem0","pricing_plan_id":"cebpf4jnsgd1na2vs0mg"},{"bike_id":"9f323010-4e5e-4f2d-9748-c1937a62a8f2","system_id":"levelo_inurba_marseille","lat":43.32047,"lon":5.41536,"is_reserved":false,"is_disabled":false,"rental_uris":{"android":"levelo://app?vid=9f323010-4e5e-4f2d-9748-c1937a62a8f2","ios":"levelo://app?vid=9f323010-4e5e-4f2d-9748-c1937a62a8f2"},"vehicle_type_id":"4","last_reported":1743440922,"current_range_meters":2800,"station_id":"ce4bhq92rcd13ifvqhkg","pricing_plan_id":"cebpf4jnsgd1na2vs0mg"},{"bike_id":"564dd5eb-5594-4a5b-8252-4fd7a2cdd1a3","system_id":"levelo_inurba_marseille","lat":43.25109,"lon":5.40322,"is_reserved":false,"is_disabled":true,"rental_uris":{"android":"levelo://app?vid=564dd5eb-5594-4a5b-8252-4fd7a2cdd1a3","ios":"levelo://app?vid=564dd5eb-5594-4a5b-8252-4fd7a2cdd1a3"},"vehicle_type_id":"4","last_reported":1743440922,"current_range_meters":2800,"station_id":"ce4bhlh2rcd13ifvqgig","pricing_plan_id":"cebpf4jnsgd1na2vs0mg"},{"bike_id":"01be54f4-28d5-4d5b-85d4-1bcf6c84cb02","system_id":"levelo_inurba_marseille","lat":43.28941,"lon":5.36686,"is_reserved":false,"is_disabled":false,"rental_uris":{"android":"levelo://app?vid=01be54f4-28d5-4d5b-85d4-1bcf6c84cb02","ios":"levelo://app?vid=01be54f4-28d5-4d5b-85d4-1bcf6c84cb02"},"vehicle_type_id":"4","last_reported":1743440922,"current_range_meters":2800,"station_id":"ce4bhap2rcd13ifvqek0","pricing_plan_id":"cebpf4jnsgd1na2vs0mg"},{"bike_id":"bc8dcc8a-2d10-40c0-9625-d88e9e5ff3e9","system_id":"levelo_inurba_marseille","lat":43.23066,"lon":5.35488,"is_reserved":false,"is_disabled":false,"rental_uris":{"android":"levelo://app?vid=bc8dcc8a-2d10-40c0-9625-d88e9e5ff3e9","ios":"levelo://app?vid=bc8dcc8a-2d10-40c0-9625-d88e9e5ff3e9"},"vehicle_type_id":"4","last_reported":1743440922,"current_range_meters":3200,"station_id":"cpo3342slgdg3j2ifvpg","pricing_plan_id":"cebpf4jnsgd1na2vs0mg"},{"bike_id":"364d4e89-1edf-48e7-97a6-d3bae916611d","system_id":"levelo_inurba_marseille","lat":43.29016,"lon":5.35614,"is_reserved":false,"is_disabled":false,"rental_uris":{"android":"levelo://app?vid=364d4e89-1edf-48e7-97a6-d3bae916611d","ios":"levelo://app?vid=364d4e89-1edf-48e7-97a6-d3bae916611d"},"vehicle_type_id":"4","last_reported":1743440922,"current_range_meters":3200,"station_id":"ce4bhb92rcd13ifvqen0","pricing_plan_id":"cebpf4jnsgd1na2vs0mg"},{"bike_id":"4c51a147-8f32-42e5-a226-e85e3c4a03df","system_id":"levelo_inurba_marseille","lat":43.29007,"lon":5.3562,"is_reserved":false,"is_disabled":false,"rental_uris":{"android":"levelo://app?vid=4c51a147-8f32-42e5-a226-e85e3c4a03df","ios":"levelo://app?vid=4c51a147-8f32-42e5-a226-e85e3c4a03df"},"vehicle_type_id":"4","last_reported":1743440922,"current_range_meters":3200,"station_id":"ce4bhb92rcd13ifvqen0","pricing_plan_id":"cebpf4jnsgd1na2vs0mg"},{"bike_id":"4857728e-9a14-41bc-b528-71ce3c1c0ca9","system_id":"levelo_inurba_marseille","lat":43.27957,"lon":5.38705,"is_reserved":false,"is_disabled":false,"rental_uris":{"android":"levelo://app?vid=4857728e-9a14-41bc-b528-71ce3c1c0ca9","ios":"levelo://app?vid=4857728e-9a14-41bc-b528-71ce3c1c0ca9"},"vehicle_type_id":"4","last_reported":1743440922,"current_range_meters":3200,"station_id":"ce4bhg12rcd13ifvqf80","pricing_plan_id":"cebpf4jnsgd1na2vs0mg"},{"bike_id":"f31022d0-4058-444a-97dd-e69a25f45e9b","system_id":"levelo_inurba_marseille","lat":43.27427,"lon":5.39428,"is_reserved":false,"is_disabled":false,"rental_uris":{"android":"levelo://app?vid=f31022d0-4058-444a-97dd-e69a25f45e9b","ios":"levelo://app?vid=f31022d0-4058-444a-97dd-e69a25f45e9b"},"vehicle_type_id":"4","last_reported":1743440922,"current_range_meters":3200,"station_id":"ce4bhdp2rcd13ifvqf20","pricing_plan_id":"cebpf4jnsgd1na2vs0mg"},{"bike_id":"0edcb34f-13bf-410f-9824-6a1db318579c","system_id":"levelo_inurba_marseille","lat":43.27364,"lon":5.36243,"is_reserved":false,"is_disabled":false,"rental_uris":{"android":"levelo://app?vid=0edcb34f-13bf-410f-9824-6a1db318579c","ios":"levelo://app?vid=0edcb34f-13bf-410f-9824-6a1db318579c"},"vehicle_type_id":"4","last_reported":1743440922,"current_range_meters":3200,"station_id":"ce4bhbh2rcd13ifvqeo0","pricing_plan_id":"cebpf4jnsgd1na2vs0mg"},{"bike_id":"373096c1-5c78-46a9-a9c7-e075ad949e17","system_id":"levelo_inurba_marseille","lat":43.22927,"lon":5.35384,"is_reserved":false,"is_disabled":false,"rental_uris":{"android":"levelo://app?vid=373096c1-5c78-46a9-a9c7-e075ad949e17","ios":"levelo://app?vid=373096c1-5c78-46a9-a9c7-e075ad949e17"},"vehicle_type_id":"4","last_reported":1743440922,"current_range_meters":3200,"station_id":"cpo3532slgdg3j2ikp40","pricing_plan_id":"cebpf4jnsgd1na2vs0mg"},{"bike_id":"4d6da733-670d-40ce-a789-ee26bf04eb34","system_id":"levelo_inurba_marseille","lat":43.2931,"lon":5.37187,"is_reserved":false,"is_disabled":false,"rental_uris":{"android":"levelo://app?vid=4d6da733-670d-40ce-a789-ee26bf04eb34","ios":"levelo://app?vid=4d6da733-670d-40ce-a789-ee26bf04eb34"},"vehicle_type_id":"4","last_reported":1743440922,"current_range_meters":3200,"station_id":"ce4bgh92rcd13ifvqb40","pricing_plan_id":"cebpf4jnsgd1na2vs0mg"},{"bike_id":"709e03d8-7f06-45fb-8656-aa34bbcce218","system_id":"levelo_inurba_marseille","lat":43.29586,"lon":5.374403,"is_reserved":false,"is_disabled":false,"rental_uris":{"android":"levelo://app?vid=709e03d8-7f06-45fb-8656-aa34bbcce218","ios":"levelo://app?vid=709e03d8-7f06-45fb-8656-aa34bbcce218"},"vehicle_type_id":"4","last_reported":1743440922,"current_range_meters":3200,"station_id":"ce4bhb92rcd13ifvqen0","pricing_plan_id":"cebpf4jnsgd1na2vs0mg"},{"bike_id":"d0ed36b4-3c5a-4da6-8fb4-955c321dd03a","system_id":"levelo_inurba_marseille","lat":43.27532,"lon":5.41032,"is_reserved":false,"is_disabled":false,"rental_uris":{"android":"levelo://app?vid=d0ed36b4-3c5a-4da6-8fb4-955c321dd03a","ios":"levelo://app?vid=d0ed36b4-3c5a-4da6-8fb4-955c321dd03a"},"vehicle_type_id":"4","last_reported":1743440922,"current_range_meters":3600,"station_id":"","pricing_plan_id":"cebpf4jnsgd1na2vs0mg"},{"bike_id":"42bc7b23-0e2f-4d72-b583-40bcdabb28c7","system_id":"levelo_inurba_marseille","lat":43.29543,"lon":5.3738,"is_reserved":false,"is_disabled":true,"rental_uris":{"android":"levelo://app?vid=42bc7b23-0e2f-4d72-b583-40bcdabb28c7","ios":"levelo://app?vid=42bc7b23-0e2f-4d72-b583-40bcdabb28c7"},"vehicle_type_id":"4","last_reported":1743440922,"current_range_meters":3600,"station_id":"","pricing_plan_id":"cebpf4jnsgd1na2vs0mg"},{"bike_id":"12daa3f3-0bfc-4f59-850e-2f7e54dd7c9e","system_id":"levelo_inurba_marseille","lat":43.24663,"lon":5.38167,"is_reserved":false,"is_disabled":false,"rental_uris":{"android":"levelo://app?vid=12daa3f3-0bfc-4f59-850e-2f7e54dd7c9e","ios":"levelo://app?vid=12daa3f3-0bfc-4f59-850e-2f7e54dd7c9e"},"vehicle_type_id":"4","last_reported":1743440922,"current_range_meters":3600,"station_id":"ce4bhih2rcd13ifvqfr0","pricing_plan_id":"cebpf4jnsgd1na2vs0mg"},{"bike_id":"c70a2d16-b46f-4c43-bd1c-5f435d9bf009","system_id":"levelo_inurba_marseille","lat":43.28852,"lon":5.39306,"is_reserved":false,"is_disabled":false,"rental_uris":{"android":"levelo://app?vid=c70a2d16-b46f-4c43-bd1c-5f435d9bf009","ios":"levelo://app?vid=c70a2d16-b46f-4c43-bd1c-5f435d9bf009"},"vehicle_type_id":"4","last_reported":1743440922,"current_range_meters":0,"station_id":"ce4bh2p2rcd13ifvqdi0","pricing_plan_id":"cebpf4jnsgd1na2vs0mg"},{"bike_id":"f656e95d-57ae-4614-bf95-649d47245660","system_id":"levelo_inurba_marseille","lat":43.30143,"lon":5.38796,"is_reserved":false,"is_disabled":false,"rental_uris":{"android":"levelo://app?vid=f656e95d-57ae-4614-bf95-649d47245660","ios":"levelo://app?vid=f656e95d-57ae-4614-bf95-649d47245660"},"vehicle_type_id":"4","last_reported":1743440922,"current_range_meters":3200,"station_id":"ce4bghh2rcd13ifvqb60","pricing_plan_id":"cebpf4jnsgd1na2vs0mg"},{"bike_id":"c140c297-b6d9-41a6-aa7d-e91a25f492a0","system_id":"levelo_inurba_marseille","lat":43.2988,"lon":5.39736,"is_reserved":false,"is_disabled":false,"rental_uris":{"android":"levelo://app?vid=c140c297-b6d9-41a6-aa7d-e91a25f492a0","ios":"levelo://app?vid=c140c297-b6d9-41a6-aa7d-e91a25f492a0"},"vehicle_type_id":"4","last_reported":1743440922,"current_range_meters":3600,"station_id":"ce4bh0h2rcd13ifvqd50","pricing_plan_id":"cebpf4jnsgd1na2vs0mg"},{"bike_id":"e6a2fc16-8fb4-4734-81d2-b77b79c384af","system_id":"levelo_inurba_marseille","lat":43.27056,"lon":5.40278,"is_reserved":false,"is_disabled":false,"rental_uris":{"android":"levelo://app?vid=e6a2fc16-8fb4-4734-81d2-b77b79c384af","ios":"levelo://app?vid=e6a2fc16-8fb4-4734-81d2-b77b79c384af"},"vehicle_type_id":"4","last_reported":1743440922,"current_range_meters":4000,"station_id":"ce4bhk92rcd13ifvqgc0","pricing_plan_id":"cebpf4jnsgd1na2vs0mg"},{"bike_id":"e6331f4a-4c66-4fe7-9c03-bb30346a5202","system_id":"levelo_inurba_marseille","lat":43.29015,"lon":5.35597,"is_reserved":false,"is_disabled":false,"rental_uris":{"android":"levelo://app?vid=e6331f4a-4c66-4fe7-9c03-bb30346a5202","ios":"levelo://app?vid=e6331f4a-4c66-4fe7-9c03-bb30346a5202"},"vehicle_type_id":"4","last_reported":1743440922,"current_range_meters":4000,"station_id":"ce4bhb92rcd13ifvqen0","pricing_plan_id":"cebpf4jnsgd1na2vs0mg"},{"bike_id":"d548e037-dc98-4ece-8348-2a1212390de4","system_id":"levelo_inurba_marseille","lat":43.269569,"lon":5.386348,"is_reserved":false,"is_disabled":false,"rental_uris":{"android":"levelo://app?vid=d548e037-dc98-4ece-8348-2a1212390de4","ios":"levelo://app?vid=d548e037-dc98-4ece-8348-2a1212390de4"},"vehicle_type_id":"4","last_reported":1743440922,"current_range_meters":4000,"station_id":"","pricing_plan_id":"cebpf4jnsgd1na2vs0mg"},{"bike_id":"a935dd35-2d3b-49a6-9d35-dd84994afe16","system_id":"levelo_inurba_marseille","lat":43.29713,"lon":5.37699,"is_reserved":false,"is_disabled":false,"rental_uris":{"android":"levelo://app?vid=a935dd35-2d3b-49a6-9d35-dd84994afe16","ios":"levelo://app?vid=a935dd35-2d3b-49a6-9d35-dd84994afe16"},"vehicle_type_id":"4","last_reported":1743440922,"current_range_meters":4000,"station_id":"ce4bgkh2rcd13ifvqbl0","pricing_plan_id":"cebpf4jnsgd1na2vs0mg"},{"bike_id":"7eb3608e-02f2-44c4-a1cb-a25e0199a46e","system_id":"levelo_inurba_marseille","lat":43.29581,"lon":5.37521,"is_reserved":false,"is_disabled":false,"rental_uris":{"android":"levelo://app?vid=7eb3608e-02f2-44c4-a1cb-a25e0199a46e","ios":"levelo://app?vid=7eb3608e-02f2-44c4-a1cb-a25e0199a46e"},"vehicle_type_id":"4","last_reported":1743440922,"current_range_meters":4000,"station_id":"ce4bgh92rcd13ifvqb50","pricing_plan_id":"cebpf4jnsgd1na2vs0mg"},{"bike_id":"0ac466eb-f8cb-4559-9717-622f8afbf490","system_id":"levelo_inurba_marseille","lat":43.301358,"lon":5.392407,"is_reserved":false,"is_disabled":false,"rental_uris":{"android":"levelo://app?vid=0ac466eb-f8cb-4559-9717-622f8afbf490","ios":"levelo://app?vid=0ac466eb-f8cb-4559-9717-622f8afbf490"},"vehicle_type_id":"4","last_reported":1743440922,"current_range_meters":4000,"station_id":"ce4bgvp2rcd13ifvqct0","pricing_plan_id":"cebpf4jnsgd1na2vs0mg"},{"bike_id":"7d617f3c-ca56-4320-8c60-2a4c81235998","system_id":"levelo_inurba_marseille","lat":43.30216,"lon":5.3948,"is_reserved":false,"is_disabled":false,"rental_uris":{"android":"levelo://app?vid=7d617f3c-ca56-4320-8c60-2a4c81235998","ios":"levelo://app?vid=7d617f3c-ca56-4320-8c60-2a4c81235998"},"vehicle_type_id":"4","last_reported":1743440922,"current_range_meters":4000,"station_id":"ce4bh0p2rcd13ifvqd70","pricing_plan_id":"cebpf4jnsgd1na2vs0mg"},{"bike_id":"0b767415-0ed0-48e3-9c3d-a9048e94a724","system_id":"levelo_inurba_marseille","lat":43.254949,"lon":5.376389,"is_reserved":false,"is_disabled":false,"rental_uris":{"android":"levelo://app?vid=0b767415-0ed0-48e3-9c3d-a9048e94a724","ios":"levelo://app?vid=0b767415-0ed0-48e3-9c3d-a9048e94a724"},"vehicle_type_id":"4","last_reported":1743440922,"current_range_meters":4000,"station_id":"ce4bhh12rcd13ifvqff0","pricing_plan_id":"cebpf4jnsgd1na2vs0mg"},{"bike_id":"81168768-29ce-4273-abbe-8084508b2812","system_id":"levelo_inurba_marseille","lat":43.29577,"lon":5.37519,"is_reserved":false,"is_disabled":false,"rental_uris":{"android":"levelo://app?vid=81168768-29ce-4273-abbe-8084508b2812","ios":"levelo://app?vid=81168768-29ce-4273-abbe-8084508b2812"},"vehicle_type_id":"4","last_reported":1743440922,"current_range_meters":4000,"station_id":"ce4bgh92rcd13ifvqb50","pricing_plan_id":"cebpf4jnsgd1na2vs0mg"},{"bike_id":"384b53be-0dd1-4ff6-96b3-76e22c52ec3c","system_id":"levelo_inurba_marseille","lat":43.276573,"lon":5.418993,"is_reserved":false,"is_disabled":false,"rental_uris":{"android":"levelo://app?vid=384b53be-0dd1-4ff6-96b3-76e22c52ec3c","ios":"levelo://app?vid=384b53be-0dd1-4ff6-96b3-76e22c52ec3c"},"vehicle_type_id":"4","last_reported":1743440922,"current_range_meters":4000,"station_id":"","pricing_plan_id":"cebpf4jnsgd1na2vs0mg"},{"bike_id":"3c4c0f94-42ff-4d1d-9111-5bcbcc31c4f4","system_id":"levelo_inurba_marseille","lat":43.27373,"lon":5.36252,"is_reserved":false,"is_disabled":false,"rental_uris":{"android":"levelo://app?vid=3c4c0f94-42ff-4d1d-9111-5bcbcc31c4f4","ios":"levelo://app?vid=3c4c0f94-42ff-4d1d-9111-5bcbcc31c4f4"},"vehicle_type_id":"4","last_reported":1743440922,"current_range_meters":4000,"station_id":"ce4bhbh2rcd13ifvqeo0","pricing_plan_id":"cebpf4jnsgd1na2vs0mg"},{"bike_id":"f80c3f5a-dd53-4331-85b5-5b14e4263448","system_id":"levelo_inurba_marseille","lat":43.257202,"lon":5.411139,"is_reserved":false,"is_disabled":false,"rental_uris":{"android":"levelo://app?vid=f80c3f5a-dd53-4331-85b5-5b14e4263448","ios":"levelo://app?vid=f80c3f5a-dd53-4331-85b5-5b14e4263448"},"vehicle_type_id":"4","last_reported":1743440922,"current_range_meters":4000,"station_id":"ce4bhkp2rcd13ifvqgd0","pricing_plan_id":"cebpf4jnsgd1na2vs0mg"},{"bike_id":"961ccc4e-5600-4f15-8499-7936cfa27861","system_id":"levelo_inurba_marseille","lat":43.30886,"lon":5.37314,"is_reserved":false,"is_disabled":false,"rental_uris":{"android":"levelo://app?vid=961ccc4e-5600-4f15-8499-7936cfa27861","ios":"levelo://app?vid=961ccc4e-5600-4f15-8499-7936cfa27861"},"vehicle_type_id":"4","last_reported":1743440922,"current_range_meters":4400,"station_id":"","pricing_plan_id":"cebpf4jnsgd1na2vs0mg"},{"bike_id":"3dd6ba0a-bbaa-4c1a-988a-341dea982c94","system_id":"levelo_inurba_marseille","lat":43.30638,"lon":5.4009,"is_reserved":false,"is_disabled":false,"rental_uris":{"android":"levelo://app?vid=3dd6ba0a-bbaa-4c1a-988a-341dea982c94","ios":"levelo://app?vid=3dd6ba0a-bbaa-4c1a-988a-341dea982c94"},"vehicle_type_id":"4","last_reported":1743440922,"current_range_meters":4400,"station_id":"ce4bh112rcd13ifvqda0","pricing_plan_id":"cebpf4jnsgd1na2vs0mg"},{"bike_id":"9aeb9f8a-b44f-47bc-85ba-b79099039b3e","system_id":"levelo_inurba_marseille","lat":43.28462,"lon":5.35912,"is_reserved":false,"is_disabled":false,"rental_uris":{"android":"levelo://app?vid=9aeb9f8a-b44f-47bc-85ba-b79099039b3e","ios":"levelo://app?vid=9aeb9f8a-b44f-47bc-85ba-b79099039b3e"},"vehicle_type_id":"4","last_reported":1743440922,"current_range_meters":4400,"station_id":"ce4bhah2rcd13ifvqei0","pricing_plan_id":"cebpf4jnsgd1na2vs0mg"},{"bike_id":"44cd6923-b1a0-4b1d-a64c-ebad3f111a34","system_id":"levelo_inurba_marseille","lat":43.26196,"lon":5.37449,"is_reserved":false,"is_disabled":false,"rental_uris":{"android":"levelo://app?vid=44cd6923-b1a0-4b1d-a64c-ebad3f111a34","ios":"levelo://app?vid=44cd6923-b1a0-4b1d-a64c-ebad3f111a34"},"vehicle_type_id":"4","last_reported":1743440922,"current_range_meters":4400,"station_id":"ce4bhgp2rcd13ifvqfc0","pricing_plan_id":"cebpf4jnsgd1na2vs0mg"},{"bike_id":"3dedfd65-97d1-4ed8-a661-5e2af59751ee","system_id":"levelo_inurba_marseille","lat":43.273826,"lon":5.362577,"is_reserved":false,"is_disabled":false,"rental_uris":{"android":"levelo://app?vid=3dedfd65-97d1-4ed8-a661-5e2af59751ee","ios":"levelo://app?vid=3dedfd65-97d1-4ed8-a661-5e2af59751ee"},"vehicle_type_id":"4","last_reported":1743440922,"current_range_meters":4400,"station_id":"ce4bhbh2rcd13ifvqeo0","pricing_plan_id":"cebpf4jnsgd1na2vs0mg"},{"bike_id":"e398d297-7354-477f-90eb-43cc43ce1f9b","system_id":"levelo_inurba_marseille","lat":43.28168,"lon":5.42645,"is_reserved":false,"is_disabled":false,"rental_uris":{"android":"levelo://app?vid=e398d297-7354-477f-90eb-43cc43ce1f9b","ios":"levelo://app?vid=e398d297-7354-477f-90eb-43cc43ce1f9b"},"vehicle_type_id":"4","last_reported":1743440922,"current_range_meters":4400,"station_id":"ce4bhnh2rcd13ifvqgug","pricing_plan_id":"cebpf4jnsgd1na2vs0mg"},{"bike_id":"50827941-4b11-4aa1-98b6-41682e68f4c1","system_id":"levelo_inurba_marseille","lat":43.306385,"lon":5.400899,"is_reserved":false,"is_disabled":false,"rental_uris":{"android":"levelo://app?vid=50827941-4b11-4aa1-98b6-41682e68f4c1","ios":"levelo://app?vid=50827941-4b11-4aa1-98b6-41682e68f4c1"},"vehicle_type_id":"4","last_reported":1743440922,"current_range_meters":4800,"station_id":"","pricing_plan_id":"cebpf4jnsgd1na2vs0mg"},{"bike_id":"76d4ed16-8625-4a14-a5f1-d28ac2574c13","system_id":"levelo_inurba_marseille","lat":43.2454,"lon":5.3952,"is_reserved":false,"is_disabled":false,"rental_uris":{"android":"levelo://app?vid=76d4ed16-8625-4a14-a5f1-d28ac2574c13","ios":"levelo://app?vid=76d4ed16-8625-4a14-a5f1-d28ac2574c13"},"vehicle_type_id":"4","last_reported":1743440922,"current_range_meters":4800,"station_id":"ce4bhlp2rcd13ifvqgjg","pricing_plan_id":"cebpf4jnsgd1na2vs0mg"},{"bike_id":"5321cd79-5532-48cf-975e-9eb2a2ac785e","system_id":"levelo_inurba_marseille","lat":43.28996,"lon":5.35585,"is_reserved":false,"is_disabled":false,"rental_uris":{"android":"levelo://app?vid=5321cd79-5532-48cf-975e-9eb2a2ac785e","ios":"levelo://app?vid=5321cd79-5532-48cf-975e-9eb2a2ac785e"},"vehicle_type_id":"4","last_reported":1743440922,"current_range_meters":4800,"station_id":"ce4bhb92rcd13ifvqen0","pricing_plan_id":"cebpf4jnsgd1na2vs0mg"},{"bike_id":"c7de85c8-23de-438b-aff3-a28ddd73d774","system_id":"levelo_inurba_marseille","lat":43.279397,"lon":5.410477,"is_reserved":false,"is_disabled":false,"rental_uris":{"android":"levelo://app?vid=c7de85c8-23de-438b-aff3-a28ddd73d774","ios":"levelo://app?vid=c7de85c8-23de-438b-aff3-a28ddd73d774"},"vehicle_type_id":"4","last_reported":1743440922,"current_range_meters":4800,"station_id":"ce4bhnp2rcd13ifvqh0g","pricing_plan_id":"cebpf4jnsgd1na2vs0mg"},{"bike_id":"932214bd-867a-443f-a541-58133ae5cd8e","system_id":"levelo_inurba_marseille","lat":43.28621,"lon":5.35109,"is_reserved":false,"is_disabled":false,"rental_uris":{"android":"levelo://app?vid=932214bd-867a-443f-a541-58133ae5cd8e","ios":"levelo://app?vid=932214bd-867a-443f-a541-58133ae5cd8e"},"vehicle_type_id":"4","last_reported":1743440922,"current_range_meters":4800,"station_id":"ce4bhch2rcd13ifvqeug","pricing_plan_id":"cebpf4jnsgd1na2vs0mg"},{"bike_id":"802a6ab0-e3ab-41f9-958e-787ba8708fca","system_id":"levelo_inurba_marseille","lat":43.28665,"lon":5.36348,"is_reserved":false,"is_disabled":false,"rental_uris":{"android":"levelo://app?vid=802a6ab0-e3ab-41f9-958e-787ba8708fca","ios":"levelo://app?vid=802a6ab0-e3ab-41f9-958e-787ba8708fca"},"vehicle_type_id":"4","last_reported":1743440922,"current_range_meters":5600,"station_id":"ce4bhah2rcd13ifvqej0","pricing_plan_id":"cebpf4jnsgd1na2vs0mg"},{"bike_id":"6abfcf76-b46b-48ec-9741-222295465860","system_id":"levelo_inurba_marseille","lat":43.28609,"lon":5.37063,"is_reserved":false,"is_disabled":false,"rental_uris":{"android":"levelo://app?vid=6abfcf76-b46b-48ec-9741-222295465860","ios":"levelo://app?vid=6abfcf76-b46b-48ec-9741-222295465860"},"vehicle_type_id":"4","last_reported":1743440922,"current_range_meters":5600,"station_id":"ce4bh312rcd13ifvqdj0","pricing_plan_id":"cebpf4jnsgd1na2vs0mg"},{"bike_id":"a52886ef-e99c-46a0-bac7-a6dde5da8cba","system_id":"levelo_inurba_marseille","lat":43.308461,"lon":5.372094,"is_reserved":false,"is_disabled":false,"rental_uris":{"android":"levelo://app?vid=a52886ef-e99c-46a0-bac7-a6dde5da8cba","ios":"levelo://app?vid=a52886ef-e99c-46a0-bac7-a6dde5da8cba"},"vehicle_type_id":"4","last_reported":1743440922,"current_range_meters":5600,"station_id":"","pricing_plan_id":"cebpf4jnsgd1na2vs0mg"},{"bike_id":"fb5a3640-c2bd-4d5a-a532-631ac7449c3d","system_id":"levelo_inurba_marseille","lat":43.28003,"lon":5.40942,"is_reserved":false,"is_disabled":false,"rental_uris":{"android":"levelo://app?vid=fb5a3640-c2bd-4d5a-a532-631ac7449c3d","ios":"levelo://app?vid=fb5a3640-c2bd-4d5a-a532-631ac7449c3d"},"vehicle_type_id":"4","last_reported":1743440922,"current_range_meters":5600,"station_id":"","pricing_plan_id":"cebpf4jnsgd1na2vs0mg"},{"bike_id":"5a9d0270-3dab-4435-ba2c-5ca73b7986e0","system_id":"levelo_inurba_marseille","lat":43.28418,"lon":5.34987,"is_reserved":false,"is_disabled":false,"rental_uris":{"android":"levelo://app?vid=5a9d0270-3dab-4435-ba2c-5ca73b7986e0","ios":"levelo://app?vid=5a9d0270-3dab-4435-ba2c-5ca73b7986e0"},"vehicle_type_id":"4","last_reported":1743440922,"current_range_meters":5600,"station_id":"ce4bhbh2rcd13ifvqepg","pricing_plan_id":"cebpf4jnsgd1na2vs0mg"},{"bike_id":"ebc846ae-e790-4727-a260-431102a61e0e","system_id":"levelo_inurba_marseille","lat":43.295193,"lon":5.393966,"is_reserved":false,"is_disabled":false,"rental_uris":{"android":"levelo://app?vid=ebc846ae-e790-4727-a260-431102a61e0e","ios":"levelo://app?vid=ebc846ae-e790-4727-a260-431102a61e0e"},"vehicle_type_id":"4","last_reported":1743440922,"current_range_meters":4800,"station_id":"ce4bh2h2rcd13ifvqdh0","pricing_plan_id":"cebpf4jnsgd1na2vs0mg"},{"bike_id":"396994e1-e941-4692-94ae-d522bb1f43e9","system_id":"levelo_inurba_marseille","lat":43.295066,"lon":5.374864,"is_reserved":false,"is_disabled":false,"rental_uris":{"android":"levelo://app?vid=396994e1-e941-4692-94ae-d522bb1f43e9","ios":"levelo://app?vid=396994e1-e941-4692-94ae-d522bb1f43e9"},"vehicle_type_id":"4","last_reported":1743440922,"current_range_meters":5600,"station_id":"ce4bgkp2rcd13ifvqbmg","pricing_plan_id":"cebpf4jnsgd1na2vs0mg"},{"bike_id":"985f8814-3ed9-42a6-8fec-32264663eaa9","system_id":"levelo_inurba_marseille","lat":43.28373,"lon":5.38629,"is_reserved":false,"is_disabled":false,"rental_uris":{"android":"levelo://app?vid=985f8814-3ed9-42a6-8fec-32264663eaa9","ios":"levelo://app?vid=985f8814-3ed9-42a6-8fec-32264663eaa9"},"vehicle_type_id":"4","last_reported":1743440922,"current_range_meters":5600,"station_id":"ce4bh492rcd13ifvqdvg","pricing_plan_id":"cebpf4jnsgd1na2vs0mg"},{"bike_id":"92e5bfd6-59e6-4acb-9d0e-31ef97f7ab51","system_id":"levelo_inurba_marseille","lat":43.29309,"lon":5.3717,"is_reserved":false,"is_disabled":false,"rental_uris":{"android":"levelo://app?vid=92e5bfd6-59e6-4acb-9d0e-31ef97f7ab51","ios":"levelo://app?vid=92e5bfd6-59e6-4acb-9d0e-31ef97f7ab51"},"vehicle_type_id":"4","last_reported":1743440922,"current_range_meters":5600,"station_id":"ce4bgh92rcd13ifvqb40","pricing_plan_id":"cebpf4jnsgd1na2vs0mg"},{"bike_id":"976eb18e-1098-4887-b025-e691a51d23d9","system_id":"levelo_inurba_marseille","lat":43.23184,"lon":5.39991,"is_reserved":false,"is_disabled":false,"rental_uris":{"android":"levelo://app?vid=976eb18e-1098-4887-b025-e691a51d23d9","ios":"levelo://app?vid=976eb18e-1098-4887-b025-e691a51d23d9"},"vehicle_type_id":"4","last_reported":1743440922,"current_range_meters":5600,"station_id":"ce4bhn12rcd13ifvqgqg","pricing_plan_id":"cebpf4jnsgd1na2vs0mg"},{"bike_id":"fd9ec931-0d55-4af5-8aad-ffb44969acaa","system_id":"levelo_inurba_marseille","lat":43.29536,"lon":5.38548,"is_reserved":false,"is_disabled":false,"rental_uris":{"android":"levelo://app?vid=fd9ec931-0d55-4af5-8aad-ffb44969acaa","ios":"levelo://app?vid=fd9ec931-0d55-4af5-8aad-ffb44969acaa"},"vehicle_type_id":"4","last_reported":1743440922,"current_range_meters":6000,"station_id":"ce4bgih2rcd13ifvqba0","pricing_plan_id":"cebpf4jnsgd1na2vs0mg"},{"bike_id":"4d6e54d8-6a65-4ad5-8b3f-80031516f682","system_id":"levelo_inurba_marseille","lat":43.28154,"lon":5.42649,"is_reserved":false,"is_disabled":false,"rental_uris":{"android":"levelo://app?vid=4d6e54d8-6a65-4ad5-8b3f-80031516f682","ios":"levelo://app?vid=4d6e54d8-6a65-4ad5-8b3f-80031516f682"},"vehicle_type_id":"4","last_reported":1743440922,"current_range_meters":6000,"station_id":"ce4bhnh2rcd13ifvqgug","pricing_plan_id":"cebpf4jnsgd1na2vs0mg"},{"bike_id":"0b75bd5e-79dc-4337-ae3a-11229fb0a60f","system_id":"levelo_inurba_marseille","lat":43.29273,"lon":5.36836,"is_reserved":false,"is_disabled":false,"rental_uris":{"android":"levelo://app?vid=0b75bd5e-79dc-4337-ae3a-11229fb0a60f","ios":"levelo://app?vid=0b75bd5e-79dc-4337-ae3a-11229fb0a60f"},"vehicle_type_id":"4","last_reported":1743440922,"current_range_meters":6000,"station_id":"ce4bhbp2rcd13ifvqesg","pricing_plan_id":"cebpf4jnsgd1na2vs0mg"},{"bike_id":"62c55fa3-0da7-40b6-9630-2ef59d468e09","system_id":"levelo_inurba_marseille","lat":43.28158,"lon":5.42642,"is_reserved":false,"is_disabled":false,"rental_uris":{"android":"levelo://app?vid=62c55fa3-0da7-40b6-9630-2ef59d468e09","ios":"levelo://app?vid=62c55fa3-0da7-40b6-9630-2ef59d468e09"},"vehicle_type_id":"4","last_reported":1743440922,"current_range_meters":6000,"station_id":"ce4bhnh2rcd13ifvqgug","pricing_plan_id":"cebpf4jnsgd1na2vs0mg"},{"bike_id":"75d56f98-6c75-4a8c-a312-88f4710b478a","system_id":"levelo_inurba_marseille","lat":43.29274,"lon":5.37633,"is_reserved":false,"is_disabled":true,"rental_uris":{"android":"levelo://app?vid=75d56f98-6c75-4a8c-a312-88f4710b478a","ios":"levelo://app?vid=75d56f98-6c75-4a8c-a312-88f4710b478a"},"vehicle_type_id":"4","last_reported":1743440922,"current_range_meters":6000,"station_id":"ce4bgi12rcd13ifvqb80","pricing_plan_id":"cebpf4jnsgd1na2vs0mg"},{"bike_id":"7b213c2d-268a-4ea7-b72d-bc0768d89bee","system_id":"levelo_inurba_marseille","lat":43.29305,"lon":5.37474,"is_reserved":false,"is_disabled":false,"rental_uris":{"android":"levelo://app?vid=7b213c2d-268a-4ea7-b72d-bc0768d89bee","ios":"levelo://app?vid=7b213c2d-268a-4ea7-b72d-bc0768d89bee"},"vehicle_type_id":"4","last_reported":1743440922,"current_range_meters":6000,"station_id":"ce4bgi12rcd13ifvqb70","pricing_plan_id":"cebpf4jnsgd1na2vs0mg"},{"bike_id":"bcb5d218-58b8-4637-83c4-7aaf862e4fd9","system_id":"levelo_inurba_marseille","lat":43.293084,"lon":5.371773,"is_reserved":false,"is_disabled":false,"rental_uris":{"android":"levelo://app?vid=bcb5d218-58b8-4637-83c4-7aaf862e4fd9","ios":"levelo://app?vid=bcb5d218-58b8-4637-83c4-7aaf862e4fd9"},"vehicle_type_id":"4","last_reported":1743440922,"current_range_meters":6000,"station_id":"ce4bgh92rcd13ifvqb40","pricing_plan_id":"cebpf4jnsgd1na2vs0mg"},{"bike_id":"101e7561-1275-416c-b3d4-6a5537ae5ebf","system_id":"levelo_inurba_marseille","lat":43.27377,"lon":5.36253,"is_reserved":false,"is_disabled":false,"rental_uris":{"android":"levelo://app?vid=101e7561-1275-416c-b3d4-6a5537ae5ebf","ios":"levelo://app?vid=101e7561-1275-416c-b3d4-6a5537ae5ebf"},"vehicle_type_id":"4","last_reported":1743440922,"current_range_meters":6000,"station_id":"ce4bhbh2rcd13ifvqeo0","pricing_plan_id":"cebpf4jnsgd1na2vs0mg"},{"bike_id":"6c2d60b4-6f9e-498b-b0f2-383ff310805d","system_id":"levelo_inurba_marseille","lat":43.28409,"lon":5.34998,"is_reserved":false,"is_disabled":false,"rental_uris":{"android":"levelo://app?vid=6c2d60b4-6f9e-498b-b0f2-383ff310805d","ios":"levelo://app?vid=6c2d60b4-6f9e-498b-b0f2-383ff310805d"},"vehicle_type_id":"4","last_reported":1743440922,"current_range_meters":6000,"station_id":"ce4bhbh2rcd13ifvqepg","pricing_plan_id":"cebpf4jnsgd1na2vs0mg"},{"bike_id":"5f65d0c0-2464-41b9-89d5-9f87b87d2fe2","system_id":"levelo_inurba_marseille","lat":43.297058,"lon":5.366103,"is_reserved":false,"is_disabled":false,"rental_uris":{"android":"levelo://app?vid=5f65d0c0-2464-41b9-89d5-9f87b87d2fe2","ios":"levelo://app?vid=5f65d0c0-2464-41b9-89d5-9f87b87d2fe2"},"vehicle_type_id":"4","last_reported":1743440922,"current_range_meters":3200,"station_id":"ce4bgn12rcd13ifvqbt0","pricing_plan_id":"cebpf4jnsgd1na2vs0mg"},{"bike_id":"52824c8f-4afd-422a-bde9-8e7c695c6813","system_id":"levelo_inurba_marseille","lat":43.29417,"lon":5.38629,"is_reserved":false,"is_disabled":false,"rental_uris":{"android":"levelo://app?vid=52824c8f-4afd-422a-bde9-8e7c695c6813","ios":"levelo://app?vid=52824c8f-4afd-422a-bde9-8e7c695c6813"},"vehicle_type_id":"4","last_reported":1743440922,"current_range_meters":6000,"station_id":"ce4bh2h2rcd13ifvqdh0","pricing_plan_id":"cebpf4jnsgd1na2vs0mg"},{"bike_id":"ac9754ac-2146-4f53-8741-f3926117c4a5","system_id":"levelo_inurba_marseille","lat":43.27425,"lon":5.39421,"is_reserved":false,"is_disabled":false,"rental_uris":{"android":"levelo://app?vid=ac9754ac-2146-4f53-8741-f3926117c4a5","ios":"levelo://app?vid=ac9754ac-2146-4f53-8741-f3926117c4a5"},"vehicle_type_id":"4","last_reported":1743440922,"current_range_meters":6400,"station_id":"ce4bhdp2rcd13ifvqf20","pricing_plan_id":"cebpf4jnsgd1na2vs0mg"},{"bike_id":"f48dcda0-2bc6-4515-94f7-367a6f20a6b3","system_id":"levelo_inurba_marseille","lat":43.28662,"lon":5.36365,"is_reserved":false,"is_disabled":false,"rental_uris":{"android":"levelo://app?vid=f48dcda0-2bc6-4515-94f7-367a6f20a6b3","ios":"levelo://app?vid=f48dcda0-2bc6-4515-94f7-367a6f20a6b3"},"vehicle_type_id":"4","last_reported":1743440922,"current_range_meters":6400,"station_id":"ce4bhah2rcd13ifvqej0","pricing_plan_id":"cebpf4jnsgd1na2vs0mg"},{"bike_id":"f939e19f-ca54-4f6d-b497-80f408d3fed1","system_id":"levelo_inurba_marseille","lat":43.30987,"lon":5.40061,"is_reserved":false,"is_disabled":false,"rental_uris":{"android":"levelo://app?vid=f939e19f-ca54-4f6d-b497-80f408d3fed1","ios":"levelo://app?vid=f939e19f-ca54-4f6d-b497-80f408d3fed1"},"vehicle_type_id":"4","last_reported":1743440922,"current_range_meters":6000,"station_id":"ce4bh092rcd13ifvqd30","pricing_plan_id":"cebpf4jnsgd1na2vs0mg"},{"bike_id":"82d8e203-da64-466b-9b1d-e9f0a9bfebfe","system_id":"levelo_inurba_marseille","lat":43.32573,"lon":5.41454,"is_reserved":false,"is_disabled":true,"rental_uris":{"android":"levelo://app?vid=82d8e203-da64-466b-9b1d-e9f0a9bfebfe","ios":"levelo://app?vid=82d8e203-da64-466b-9b1d-e9f0a9bfebfe"},"vehicle_type_id":"4","last_reported":1743440922,"current_range_meters":6400,"station_id":"ce4bhq12rcd13ifvqhhg","pricing_plan_id":"cebpf4jnsgd1na2vs0mg"},{"bike_id":"f0565507-7ee7-4fb3-89e1-85292ab39fac","system_id":"levelo_inurba_marseille","lat":43.29011,"lon":5.35615,"is_reserved":false,"is_disabled":false,"rental_uris":{"android":"levelo://app?vid=f0565507-7ee7-4fb3-89e1-85292ab39fac","ios":"levelo://app?vid=f0565507-7ee7-4fb3-89e1-85292ab39fac"},"vehicle_type_id":"4","last_reported":1743440922,"current_range_meters":6400,"station_id":"ce4bhb92rcd13ifvqen0","pricing_plan_id":"cebpf4jnsgd1na2vs0mg"},{"bike_id":"8314e1cc-f2e7-4456-9c27-166c0eba2a7a","system_id":"levelo_inurba_marseille","lat":43.29934,"lon":5.36546,"is_reserved":false,"is_disabled":false,"rental_uris":{"android":"levelo://app?vid=8314e1cc-f2e7-4456-9c27-166c0eba2a7a","ios":"levelo://app?vid=8314e1cc-f2e7-4456-9c27-166c0eba2a7a"},"vehicle_type_id":"4","last_reported":1743440922,"current_range_meters":6400,"station_id":"ce4bgm92rcd13ifvqbr0","pricing_plan_id":"cebpf4jnsgd1na2vs0mg"},{"bike_id":"e6b412b6-1a55-4265-b6a5-99dc7e941696","system_id":"levelo_inurba_marseille","lat":43.30651,"lon":5.40104,"is_reserved":false,"is_disabled":false,"rental_uris":{"android":"levelo://app?vid=e6b412b6-1a55-4265-b6a5-99dc7e941696","ios":"levelo://app?vid=e6b412b6-1a55-4265-b6a5-99dc7e941696"},"vehicle_type_id":"4","last_reported":1743440922,"current_range_meters":6400,"station_id":"ce4bh112rcd13ifvqda0","pricing_plan_id":"cebpf4jnsgd1na2vs0mg"},{"bike_id":"344cbecb-2d61-411c-925f-32a8707ef547","system_id":"levelo_inurba_marseille","lat":43.289375,"lon":5.366366,"is_reserved":false,"is_disabled":false,"rental_uris":{"android":"levelo://app?vid=344cbecb-2d61-411c-925f-32a8707ef547","ios":"levelo://app?vid=344cbecb-2d61-411c-925f-32a8707ef547"},"vehicle_type_id":"4","last_reported":1743440922,"current_range_meters":6400,"station_id":"ce4bgkh2rcd13ifvqbl0","pricing_plan_id":"cebpf4jnsgd1na2vs0mg"},{"bike_id":"4494a7b2-4e3b-40a5-bbe9-1b65d944eabf","system_id":"levelo_inurba_marseille","lat":43.29308,"lon":5.37454,"is_reserved":false,"is_disabled":false,"rental_uris":{"android":"levelo://app?vid=4494a7b2-4e3b-40a5-bbe9-1b65d944eabf","ios":"levelo://app?vid=4494a7b2-4e3b-40a5-bbe9-1b65d944eabf"},"vehicle_type_id":"4","last_reported":1743440922,"current_range_meters":6400,"station_id":"ce4bgi12rcd13ifvqb70","pricing_plan_id":"cebpf4jnsgd1na2vs0mg"},{"bike_id":"c1debdb4-7edf-4859-bc33-13b555f96ae8","system_id":"levelo_inurba_marseille","lat":43.273813,"lon":5.362577,"is_reserved":false,"is_disabled":false,"rental_uris":{"android":"levelo://app?vid=c1debdb4-7edf-4859-bc33-13b555f96ae8","ios":"levelo://app?vid=c1debdb4-7edf-4859-bc33-13b555f96ae8"},"vehicle_type_id":"4","last_reported":1743440922,"current_range_meters":6400,"station_id":"ce4bhbh2rcd13ifvqeo0","pricing_plan_id":"cebpf4jnsgd1na2vs0mg"},{"bike_id":"d1379a4b-7d1c-4a20-9b6a-00a7778584be","system_id":"levelo_inurba_marseille","lat":43.2607,"lon":5.39419,"is_reserved":false,"is_disabled":false,"rental_uris":{"android":"levelo://app?vid=d1379a4b-7d1c-4a20-9b6a-00a7778584be","ios":"levelo://app?vid=d1379a4b-7d1c-4a20-9b6a-00a7778584be"},"vehicle_type_id":"4","last_reported":1743440922,"current_range_meters":6400,"station_id":"ce4bhh92rcd13ifvqfj0","pricing_plan_id":"cebpf4jnsgd1na2vs0mg"},{"bike_id":"9d15dffe-8042-464e-842c-95bd757c0628","system_id":"levelo_inurba_marseille","lat":43.29171,"lon":5.37157,"is_reserved":false,"is_disabled":false,"rental_uris":{"android":"levelo://app?vid=9d15dffe-8042-464e-842c-95bd757c0628","ios":"levelo://app?vid=9d15dffe-8042-464e-842c-95bd757c0628"},"vehicle_type_id":"4","last_reported":1743440922,"current_range_meters":6400,"station_id":"ce4bha92rcd13ifvqeh0","pricing_plan_id":"cebpf4jnsgd1na2vs0mg"},{"bike_id":"e3df2d29-9da2-41f0-a202-46cfdc506dca","system_id":"levelo_inurba_marseille","lat":43.28398,"lon":5.37522,"is_reserved":false,"is_disabled":false,"rental_uris":{"android":"levelo://app?vid=e3df2d29-9da2-41f0-a202-46cfdc506dca","ios":"levelo://app?vid=e3df2d29-9da2-41f0-a202-46cfdc506dca"},"vehicle_type_id":"4","last_reported":1743440922,"current_range_meters":6400,"station_id":"ce4bh412rcd13ifvqds0","pricing_plan_id":"cebpf4jnsgd1na2vs0mg"},{"bike_id":"abbfc143-eea3-4b37-87d6-146578669bdf","system_id":"levelo_inurba_marseille","lat":43.28086,"lon":5.39667,"is_reserved":false,"is_disabled":false,"rental_uris":{"android":"levelo://app?vid=abbfc143-eea3-4b37-87d6-146578669bdf","ios":"levelo://app?vid=abbfc143-eea3-4b37-87d6-146578669bdf"},"vehicle_type_id":"4","last_reported":1743440922,"current_range_meters":6400,"station_id":"ce4bho12rcd13ifvqh2g","pricing_plan_id":"cebpf4jnsgd1na2vs0mg"},{"bike_id":"8d0df76a-2eb9-4997-ade1-b6438376bc88","system_id":"levelo_inurba_marseille","lat":43.30411,"lon":5.4132,"is_reserved":false,"is_disabled":false,"rental_uris":{"android":"levelo://app?vid=8d0df76a-2eb9-4997-ade1-b6438376bc88","ios":"levelo://app?vid=8d0df76a-2eb9-4997-ade1-b6438376bc88"},"vehicle_type_id":"4","last_reported":1743440922,"current_range_meters":6400,"station_id":"ce4bhop2rcd13ifvqh8g","pricing_plan_id":"cebpf4jnsgd1na2vs0mg"},{"bike_id":"30c7424c-1161-4c9f-883b-65cc1be444e9","system_id":"levelo_inurba_marseille","lat":43.31045,"lon":5.38346,"is_reserved":false,"is_disabled":false,"rental_uris":{"android":"levelo://app?vid=30c7424c-1161-4c9f-883b-65cc1be444e9","ios":"levelo://app?vid=30c7424c-1161-4c9f-883b-65cc1be444e9"},"vehicle_type_id":"4","last_reported":1743440922,"current_range_meters":6800,"station_id":"ce4bgv92rcd13ifvqcr0","pricing_plan_id":"cebpf4jnsgd1na2vs0mg"},{"bike_id":"3f5f2a98-d3e5-42e9-8e61-22fefc2e2b95","system_id":"levelo_inurba_marseille","lat":43.2953,"lon":5.39026,"is_reserved":false,"is_disabled":false,"rental_uris":{"android":"levelo://app?vid=3f5f2a98-d3e5-42e9-8e61-22fefc2e2b95","ios":"levelo://app?vid=3f5f2a98-d3e5-42e9-8e61-22fefc2e2b95"},"vehicle_type_id":"4","last_reported":1743440922,"current_range_meters":6800,"station_id":"ce4bh3p2rcd13ifvqdp0","pricing_plan_id":"cebpf4jnsgd1na2vs0mg"},{"bike_id":"51db3c5c-7c74-4799-910c-bd0a2011ed85","system_id":"levelo_inurba_marseille","lat":43.25003,"lon":5.38934,"is_reserved":false,"is_disabled":false,"rental_uris":{"android":"levelo://app?vid=51db3c5c-7c74-4799-910c-bd0a2011ed85","ios":"levelo://app?vid=51db3c5c-7c74-4799-910c-bd0a2011ed85"},"vehicle_type_id":"4","last_reported":1743440922,"current_range_meters":6800,"station_id":"ce4bhgp2rcd13ifvqfd0","pricing_plan_id":"cebpf4jnsgd1na2vs0mg"},{"bike_id":"5cb79fbb-77fd-4094-b2ac-552c3e45fb01","system_id":"levelo_inurba_marseille","lat":43.2842,"lon":5.35002,"is_reserved":false,"is_disabled":false,"rental_uris":{"android":"levelo://app?vid=5cb79fbb-77fd-4094-b2ac-552c3e45fb01","ios":"levelo://app?vid=5cb79fbb-77fd-4094-b2ac-552c3e45fb01"},"vehicle_type_id":"4","last_reported":1743440922,"current_range_meters":6800,"station_id":"ce4bhbh2rcd13ifvqepg","pricing_plan_id":"cebpf4jnsgd1na2vs0mg"},{"bike_id":"4155a484-d684-4a00-bbd8-ac4e5db89d58","system_id":"levelo_inurba_marseille","lat":43.28404,"lon":5.375,"is_reserved":false,"is_disabled":false,"rental_uris":{"android":"levelo://app?vid=4155a484-d684-4a00-bbd8-ac4e5db89d58","ios":"levelo://app?vid=4155a484-d684-4a00-bbd8-ac4e5db89d58"},"vehicle_type_id":"4","last_reported":1743440922,"current_range_meters":6800,"station_id":"ce4bh412rcd13ifvqds0","pricing_plan_id":"cebpf4jnsgd1na2vs0mg"},{"bike_id":"99ac23cb-06fc-4dc1-a4ac-48942bc4b2be","system_id":"levelo_inurba_marseille","lat":43.29941,"lon":5.36551,"is_reserved":false,"is_disabled":false,"rental_uris":{"android":"levelo://app?vid=99ac23cb-06fc-4dc1-a4ac-48942bc4b2be","ios":"levelo://app?vid=99ac23cb-06fc-4dc1-a4ac-48942bc4b2be"},"vehicle_type_id":"4","last_reported":1743440922,"current_range_meters":6800,"station_id":"ce4bgm92rcd13ifvqbr0","pricing_plan_id":"cebpf4jnsgd1na2vs0mg"},{"bike_id":"85fad29d-07fa-4834-92ea-a24165516ebf","system_id":"levelo_inurba_marseille","lat":43.23091,"lon":5.35485,"is_reserved":false,"is_disabled":false,"rental_uris":{"android":"levelo://app?vid=85fad29d-07fa-4834-92ea-a24165516ebf","ios":"levelo://app?vid=85fad29d-07fa-4834-92ea-a24165516ebf"},"vehicle_type_id":"4","last_reported":1743440922,"current_range_meters":6800,"station_id":"cpo3342slgdg3j2ifvpg","pricing_plan_id":"cebpf4jnsgd1na2vs0mg"},{"bike_id":"06a9141e-7ce2-4818-9417-42d6de8bd6be","system_id":"levelo_inurba_marseille","lat":43.27375,"lon":5.3627,"is_reserved":false,"is_disabled":false,"rental_uris":{"android":"levelo://app?vid=06a9141e-7ce2-4818-9417-42d6de8bd6be","ios":"levelo://app?vid=06a9141e-7ce2-4818-9417-42d6de8bd6be"},"vehicle_type_id":"4","last_reported":1743440922,"current_range_meters":6800,"station_id":"ce4bhbh2rcd13ifvqeo0","pricing_plan_id":"cebpf4jnsgd1na2vs0mg"},{"bike_id":"eaabbeeb-78b9-4298-8c32-d8823f152e05","system_id":"levelo_inurba_marseille","lat":43.31271,"lon":5.40164,"is_reserved":false,"is_disabled":false,"rental_uris":{"android":"levelo://app?vid=eaabbeeb-78b9-4298-8c32-d8823f152e05","ios":"levelo://app?vid=eaabbeeb-78b9-4298-8c32-d8823f152e05"},"vehicle_type_id":"4","last_reported":1743440922,"current_range_meters":6800,"station_id":"ce4bh092rcd13ifvqd30","pricing_plan_id":"cebpf4jnsgd1na2vs0mg"},{"bike_id":"3118c2a5-757d-4536-a226-3dcf99c5b1da","system_id":"levelo_inurba_marseille","lat":43.31326,"lon":5.39699,"is_reserved":false,"is_disabled":false,"rental_uris":{"android":"levelo://app?vid=3118c2a5-757d-4536-a226-3dcf99c5b1da","ios":"levelo://app?vid=3118c2a5-757d-4536-a226-3dcf99c5b1da"},"vehicle_type_id":"4","last_reported":1743440922,"current_range_meters":6800,"station_id":"ce4bgvp2rcd13ifvqcu0","pricing_plan_id":"cebpf4jnsgd1na2vs0mg"},{"bike_id":"56ff0c1b-3098-44bb-aaac-46edda02dc7b","system_id":"levelo_inurba_marseille","lat":43.29794,"lon":5.39348,"is_reserved":false,"is_disabled":false,"rental_uris":{"android":"levelo://app?vid=56ff0c1b-3098-44bb-aaac-46edda02dc7b","ios":"levelo://app?vid=56ff0c1b-3098-44bb-aaac-46edda02dc7b"},"vehicle_type_id":"4","last_reported":1743440922,"current_range_meters":6800,"station_id":"chh1huq6cuj3fo74tm60","pricing_plan_id":"cebpf4jnsgd1na2vs0mg"},{"bike_id":"869c6638-4977-4376-bd9b-e4d45b83cb6b","system_id":"levelo_inurba_marseille","lat":43.26199,"lon":5.37446,"is_reserved":false,"is_disabled":false,"rental_uris":{"android":"levelo://app?vid=869c6638-4977-4376-bd9b-e4d45b83cb6b","ios":"levelo://app?vid=869c6638-4977-4376-bd9b-e4d45b83cb6b"},"vehicle_type_id":"4","last_reported":1743440922,"current_range_meters":6800,"station_id":"ce4bhgp2rcd13ifvqfc0","pricing_plan_id":"cebpf4jnsgd1na2vs0mg"},{"bike_id":"0e659ec7-1198-46c6-81b5-47b1dd48d86f","system_id":"levelo_inurba_marseille","lat":43.24659,"lon":5.38887,"is_reserved":false,"is_disabled":false,"rental_uris":{"android":"levelo://app?vid=0e659ec7-1198-46c6-81b5-47b1dd48d86f","ios":"levelo://app?vid=0e659ec7-1198-46c6-81b5-47b1dd48d86f"},"vehicle_type_id":"4","last_reported":1743440922,"current_range_meters":6800,"station_id":"ce4bhg12rcd13ifvqf60","pricing_plan_id":"cebpf4jnsgd1na2vs0mg"},{"bike_id":"58ba954f-d3fd-4cac-abd2-623144afb52a","system_id":"levelo_inurba_marseille","lat":43.22942,"lon":5.35399,"is_reserved":false,"is_disabled":false,"rental_uris":{"android":"levelo://app?vid=58ba954f-d3fd-4cac-abd2-623144afb52a","ios":"levelo://app?vid=58ba954f-d3fd-4cac-abd2-623144afb52a"},"vehicle_type_id":"4","last_reported":1743440922,"current_range_meters":6800,"station_id":"cpo3532slgdg3j2ikp40","pricing_plan_id":"cebpf4jnsgd1na2vs0mg"},{"bike_id":"6062a337-35b1-4804-9f55-f711eee820c6","system_id":"levelo_inurba_marseille","lat":43.28937,"lon":5.36642,"is_reserved":false,"is_disabled":false,"rental_uris":{"android":"levelo://app?vid=6062a337-35b1-4804-9f55-f711eee820c6","ios":"levelo://app?vid=6062a337-35b1-4804-9f55-f711eee820c6"},"vehicle_type_id":"4","last_reported":1743440922,"current_range_meters":6800,"station_id":"ce4bhap2rcd13ifvqek0","pricing_plan_id":"cebpf4jnsgd1na2vs0mg"},{"bike_id":"c829f94c-52ff-43e6-b71c-ca5574593fe7","system_id":"levelo_inurba_marseille","lat":43.29013,"lon":5.35624,"is_reserved":false,"is_disabled":false,"rental_uris":{"android":"levelo://app?vid=c829f94c-52ff-43e6-b71c-ca5574593fe7","ios":"levelo://app?vid=c829f94c-52ff-43e6-b71c-ca5574593fe7"},"vehicle_type_id":"4","last_reported":1743440922,"current_range_meters":7200,"station_id":"ce4bhb92rcd13ifvqen0","pricing_plan_id":"cebpf4jnsgd1na2vs0mg"},{"bike_id":"7ef15ff7-a0f5-46f7-b04b-e318d1f7736d","system_id":"levelo_inurba_marseille","lat":43.267965,"lon":5.402644,"is_reserved":false,"is_disabled":false,"rental_uris":{"android":"levelo://app?vid=7ef15ff7-a0f5-46f7-b04b-e318d1f7736d","ios":"levelo://app?vid=7ef15ff7-a0f5-46f7-b04b-e318d1f7736d"},"vehicle_type_id":"4","last_reported":1743440922,"current_range_meters":7200,"station_id":"ce4bhk92rcd13ifvqgc0","pricing_plan_id":"cebpf4jnsgd1na2vs0mg"},{"bike_id":"6b7e2913-4f67-4b2f-b8a4-dda51120e384","system_id":"levelo_inurba_marseille","lat":43.32335,"lon":5.4063,"is_reserved":false,"is_disabled":false,"rental_uris":{"android":"levelo://app?vid=6b7e2913-4f67-4b2f-b8a4-dda51120e384","ios":"levelo://app?vid=6b7e2913-4f67-4b2f-b8a4-dda51120e384"},"vehicle_type_id":"4","last_reported":1743440922,"current_range_meters":7200,"station_id":"ce4bhq92rcd13ifvqhjg","pricing_plan_id":"cebpf4jnsgd1na2vs0mg"},{"bike_id":"a2d16333-5183-407f-9f28-1543760230d9","system_id":"levelo_inurba_marseille","lat":43.28426,"lon":5.35003,"is_reserved":false,"is_disabled":false,"rental_uris":{"android":"levelo://app?vid=a2d16333-5183-407f-9f28-1543760230d9","ios":"levelo://app?vid=a2d16333-5183-407f-9f28-1543760230d9"},"vehicle_type_id":"4","last_reported":1743440922,"current_range_meters":7200,"station_id":"ce4bhbh2rcd13ifvqepg","pricing_plan_id":"cebpf4jnsgd1na2vs0mg"},{"bike_id":"d6702032-1f3d-47ae-9536-6a30fc4c6c7b","system_id":"levelo_inurba_marseille","lat":43.28665,"lon":5.36365,"is_reserved":false,"is_disabled":false,"rental_uris":{"android":"levelo://app?vid=d6702032-1f3d-47ae-9536-6a30fc4c6c7b","ios":"levelo://app?vid=d6702032-1f3d-47ae-9536-6a30fc4c6c7b"},"vehicle_type_id":"4","last_reported":1743440922,"current_range_meters":7200,"station_id":"ce4bhah2rcd13ifvqej0","pricing_plan_id":"cebpf4jnsgd1na2vs0mg"},{"bike_id":"d3241d24-357a-44b9-9e9b-dda122073f24","system_id":"levelo_inurba_marseille","lat":43.28863,"lon":5.35847,"is_reserved":false,"is_disabled":false,"rental_uris":{"android":"levelo://app?vid=d3241d24-357a-44b9-9e9b-dda122073f24","ios":"levelo://app?vid=d3241d24-357a-44b9-9e9b-dda122073f24"},"vehicle_type_id":"4","last_reported":1743440922,"current_range_meters":7200,"station_id":"ce4bhb12rcd13ifvqem0","pricing_plan_id":"cebpf4jnsgd1na2vs0mg"},{"bike_id":"6973fabc-4a10-41f2-8849-a6428744f930","system_id":"levelo_inurba_marseille","lat":43.29731,"lon":5.36626,"is_reserved":false,"is_disabled":false,"rental_uris":{"android":"levelo://app?vid=6973fabc-4a10-41f2-8849-a6428744f930","ios":"levelo://app?vid=6973fabc-4a10-41f2-8849-a6428744f930"},"vehicle_type_id":"4","last_reported":1743440922,"current_range_meters":7200,"station_id":"ce4bgn12rcd13ifvqbt0","pricing_plan_id":"cebpf4jnsgd1na2vs0mg"},{"bike_id":"26491ca7-548d-4e79-bb88-d6aba04dfcf8","system_id":"levelo_inurba_marseille","lat":43.25106,"lon":5.39536,"is_reserved":false,"is_disabled":false,"rental_uris":{"android":"levelo://app?vid=26491ca7-548d-4e79-bb88-d6aba04dfcf8","ios":"levelo://app?vid=26491ca7-548d-4e79-bb88-d6aba04dfcf8"},"vehicle_type_id":"4","last_reported":1743440922,"current_range_meters":8000,"station_id":"ce4bhm12rcd13ifvqgkg","pricing_plan_id":"cebpf4jnsgd1na2vs0mg"},{"bike_id":"6165c5e1-15f4-4779-ba2f-91df8ba3f8c0","system_id":"levelo_inurba_marseille","lat":43.28914,"lon":5.4298,"is_reserved":false,"is_disabled":false,"rental_uris":{"android":"levelo://app?vid=6165c5e1-15f4-4779-ba2f-91df8ba3f8c0","ios":"levelo://app?vid=6165c5e1-15f4-4779-ba2f-91df8ba3f8c0"},"vehicle_type_id":"4","last_reported":1743440922,"current_range_meters":8000,"station_id":"","pricing_plan_id":"cebpf4jnsgd1na2vs0mg"},{"bike_id":"3e6f399e-ea99-4bee-bf19-68240615b5e1","system_id":"levelo_inurba_marseille","lat":43.29026,"lon":5.38646,"is_reserved":false,"is_disabled":true,"rental_uris":{"android":"levelo://app?vid=3e6f399e-ea99-4bee-bf19-68240615b5e1","ios":"levelo://app?vid=3e6f399e-ea99-4bee-bf19-68240615b5e1"},"vehicle_type_id":"4","last_reported":1743440922,"current_range_meters":8000,"station_id":"ce4bh4p2rcd13ifvqe0g","pricing_plan_id":"cebpf4jnsgd1na2vs0mg"},{"bike_id":"8c5b0fe1-fc2e-404c-965d-82fae372796e","system_id":"levelo_inurba_marseille","lat":43.33025,"lon":5.39038,"is_reserved":false,"is_disabled":false,"rental_uris":{"android":"levelo://app?vid=8c5b0fe1-fc2e-404c-965d-82fae372796e","ios":"levelo://app?vid=8c5b0fe1-fc2e-404c-965d-82fae372796e"},"vehicle_type_id":"4","last_reported":1743440922,"current_range_meters":7200,"station_id":"ce4bhr92rcd13ifvqhrg","pricing_plan_id":"cebpf4jnsgd1na2vs0mg"},{"bike_id":"fae292b7-fa17-499c-9f0f-9a5456f611a7","system_id":"levelo_inurba_marseille","lat":43.29886,"lon":5.39733,"is_reserved":false,"is_disabled":false,"rental_uris":{"android":"levelo://app?vid=fae292b7-fa17-499c-9f0f-9a5456f611a7","ios":"levelo://app?vid=fae292b7-fa17-499c-9f0f-9a5456f611a7"},"vehicle_type_id":"4","last_reported":1743440922,"current_range_meters":8000,"station_id":"ce4bh0h2rcd13ifvqd50","pricing_plan_id":"cebpf4jnsgd1na2vs0mg"},{"bike_id":"daef32c0-9907-48c4-af2a-8caabf901041","system_id":"levelo_inurba_marseille","lat":43.286227,"lon":5.351107,"is_reserved":false,"is_disabled":false,"rental_uris":{"android":"levelo://app?vid=daef32c0-9907-48c4-af2a-8caabf901041","ios":"levelo://app?vid=daef32c0-9907-48c4-af2a-8caabf901041"},"vehicle_type_id":"4","last_reported":1743440922,"current_range_meters":8000,"station_id":"ce4bhch2rcd13ifvqeug","pricing_plan_id":"cebpf4jnsgd1na2vs0mg"},{"bike_id":"7f1440ee-28be-43d4-954b-25ab3638a16a","system_id":"levelo_inurba_marseille","lat":43.29035,"lon":5.38653,"is_reserved":false,"is_disabled":false,"rental_uris":{"android":"levelo://app?vid=7f1440ee-28be-43d4-954b-25ab3638a16a","ios":"levelo://app?vid=7f1440ee-28be-43d4-954b-25ab3638a16a"},"vehicle_type_id":"4","last_reported":1743440922,"current_range_meters":8000,"station_id":"ce4bh4p2rcd13ifvqe0g","pricing_plan_id":"cebpf4jnsgd1na2vs0mg"},{"bike_id":"f41969fd-e4f4-4609-a6ce-913fe7ca7d61","system_id":"levelo_inurba_marseille","lat":43.29008,"lon":5.35622,"is_reserved":false,"is_disabled":false,"rental_uris":{"android":"levelo://app?vid=f41969fd-e4f4-4609-a6ce-913fe7ca7d61","ios":"levelo://app?vid=f41969fd-e4f4-4609-a6ce-913fe7ca7d61"},"vehicle_type_id":"4","last_reported":1743440922,"current_range_meters":8000,"station_id":"ce4bhb92rcd13ifvqen0","pricing_plan_id":"cebpf4jnsgd1na2vs0mg"},{"bike_id":"b3564798-aa7c-4cfe-802a-023b1540ae57","system_id":"levelo_inurba_marseille","lat":43.28933,"lon":5.36654,"is_reserved":false,"is_disabled":false,"rental_uris":{"android":"levelo://app?vid=b3564798-aa7c-4cfe-802a-023b1540ae57","ios":"levelo://app?vid=b3564798-aa7c-4cfe-802a-023b1540ae57"},"vehicle_type_id":"4","last_reported":1743440922,"current_range_meters":8000,"station_id":"ce4bhap2rcd13ifvqek0","pricing_plan_id":"cebpf4jnsgd1na2vs0mg"},{"bike_id":"7638639e-89a0-4bf2-bc41-61a421ee10dd","system_id":"levelo_inurba_marseille","lat":43.23182,"lon":5.39989,"is_reserved":false,"is_disabled":false,"rental_uris":{"android":"levelo://app?vid=7638639e-89a0-4bf2-bc41-61a421ee10dd","ios":"levelo://app?vid=7638639e-89a0-4bf2-bc41-61a421ee10dd"},"vehicle_type_id":"4","last_reported":1743440922,"current_range_meters":8000,"station_id":"ce4bhn12rcd13ifvqgqg","pricing_plan_id":"cebpf4jnsgd1na2vs0mg"},{"bike_id":"407b633a-987e-4722-b77a-993eaa06a6b7","system_id":"levelo_inurba_marseille","lat":43.31573,"lon":5.38847,"is_reserved":false,"is_disabled":false,"rental_uris":{"android":"levelo://app?vid=407b633a-987e-4722-b77a-993eaa06a6b7","ios":"levelo://app?vid=407b633a-987e-4722-b77a-993eaa06a6b7"},"vehicle_type_id":"4","last_reported":1743440922,"current_range_meters":8400,"station_id":"","pricing_plan_id":"cebpf4jnsgd1na2vs0mg"},{"bike_id":"72c0eae1-21f4-4f5d-bbb1-c3a0363094f1","system_id":"levelo_inurba_marseille","lat":43.29944,"lon":5.36555,"is_reserved":false,"is_disabled":false,"rental_uris":{"android":"levelo://app?vid=72c0eae1-21f4-4f5d-bbb1-c3a0363094f1","ios":"levelo://app?vid=72c0eae1-21f4-4f5d-bbb1-c3a0363094f1"},"vehicle_type_id":"4","last_reported":1743440922,"current_range_meters":8400,"station_id":"ce4bgm92rcd13ifvqbr0","pricing_plan_id":"cebpf4jnsgd1na2vs0mg"},{"bike_id":"b0b45071-3930-44cd-8291-a5d523ea81b4","system_id":"levelo_inurba_marseille","lat":43.30896,"lon":5.37195,"is_reserved":false,"is_disabled":false,"rental_uris":{"android":"levelo://app?vid=b0b45071-3930-44cd-8291-a5d523ea81b4","ios":"levelo://app?vid=b0b45071-3930-44cd-8291-a5d523ea81b4"},"vehicle_type_id":"4","last_reported":1743440922,"current_range_meters":8000,"station_id":"ce4bguh2rcd13ifvqckg","pricing_plan_id":"cebpf4jnsgd1na2vs0mg"},{"bike_id":"f4ced438-7d7e-4c94-9e19-a6114b3d941f","system_id":"levelo_inurba_marseille","lat":43.29238,"lon":5.36077,"is_reserved":false,"is_disabled":false,"rental_uris":{"android":"levelo://app?vid=f4ced438-7d7e-4c94-9e19-a6114b3d941f","ios":"levelo://app?vid=f4ced438-7d7e-4c94-9e19-a6114b3d941f"},"vehicle_type_id":"4","last_reported":1743440922,"current_range_meters":8400,"station_id":"ce4bhbh2rcd13ifvqeqg","pricing_plan_id":"cebpf4jnsgd1na2vs0mg"},{"bike_id":"19f285d5-5774-435a-9312-75bf859ca36c","system_id":"levelo_inurba_marseille","lat":43.27388,"lon":5.36266,"is_reserved":false,"is_disabled":false,"rental_uris":{"android":"levelo://app?vid=19f285d5-5774-435a-9312-75bf859ca36c","ios":"levelo://app?vid=19f285d5-5774-435a-9312-75bf859ca36c"},"vehicle_type_id":"4","last_reported":1743440922,"current_range_meters":8400,"station_id":"ce4bhbh2rcd13ifvqeo0","pricing_plan_id":"cebpf4jnsgd1na2vs0mg"},{"bike_id":"eb6b066b-8a83-4b35-9e9f-bcb3cb2e0dcb","system_id":"levelo_inurba_marseille","lat":43.28936,"lon":5.36644,"is_reserved":false,"is_disabled":false,"rental_uris":{"android":"levelo://app?vid=eb6b066b-8a83-4b35-9e9f-bcb3cb2e0dcb","ios":"levelo://app?vid=eb6b066b-8a83-4b35-9e9f-bcb3cb2e0dcb"},"vehicle_type_id":"4","last_reported":1743440922,"current_range_meters":8400,"station_id":"ce4bhap2rcd13ifvqek0","pricing_plan_id":"cebpf4jnsgd1na2vs0mg"},{"bike_id":"e861728b-145d-483c-bce3-9bc76bfca4d4","system_id":"levelo_inurba_marseille","lat":43.282625,"lon":5.350542,"is_reserved":false,"is_disabled":false,"rental_uris":{"android":"levelo://app?vid=e861728b-145d-483c-bce3-9bc76bfca4d4","ios":"levelo://app?vid=e861728b-145d-483c-bce3-9bc76bfca4d4"},"vehicle_type_id":"4","last_reported":1743440922,"current_range_meters":8400,"station_id":"ce4bhbp2rcd13ifvqerg","pricing_plan_id":"cebpf4jnsgd1na2vs0mg"},{"bike_id":"65823365-32b2-4c2c-8f12-1e8b73f91efd","system_id":"levelo_inurba_marseille","lat":43.28458,"lon":5.35899,"is_reserved":false,"is_disabled":false,"rental_uris":{"android":"levelo://app?vid=65823365-32b2-4c2c-8f12-1e8b73f91efd","ios":"levelo://app?vid=65823365-32b2-4c2c-8f12-1e8b73f91efd"},"vehicle_type_id":"4","last_reported":1743440922,"current_range_meters":8400,"station_id":"ce4bhah2rcd13ifvqei0","pricing_plan_id":"cebpf4jnsgd1na2vs0mg"},{"bike_id":"dcd1dcd5-97d1-47b8-81ed-96d9fd315261","system_id":"levelo_inurba_marseille","lat":43.30328,"lon":5.40437,"is_reserved":false,"is_disabled":false,"rental_uris":{"android":"levelo://app?vid=dcd1dcd5-97d1-47b8-81ed-96d9fd315261","ios":"levelo://app?vid=dcd1dcd5-97d1-47b8-81ed-96d9fd315261"},"vehicle_type_id":"4","last_reported":1743440922,"current_range_meters":8400,"station_id":"ce4bh012rcd13ifvqd10","pricing_plan_id":"cebpf4jnsgd1na2vs0mg"},{"bike_id":"9a2af466-2aa8-49f7-bfd5-fc815a2aa07c","system_id":"levelo_inurba_marseille","lat":43.30659,"lon":5.40127,"is_reserved":false,"is_disabled":true,"rental_uris":{"android":"levelo://app?vid=9a2af466-2aa8-49f7-bfd5-fc815a2aa07c","ios":"levelo://app?vid=9a2af466-2aa8-49f7-bfd5-fc815a2aa07c"},"vehicle_type_id":"4","last_reported":1743440922,"current_range_meters":8400,"station_id":"ce4bh112rcd13ifvqda0","pricing_plan_id":"cebpf4jnsgd1na2vs0mg"},{"bike_id":"970d4a28-2e4b-453e-912d-59e6f284b811","system_id":"levelo_inurba_marseille","lat":43.32359,"lon":5.3891,"is_reserved":false,"is_disabled":true,"rental_uris":{"android":"levelo://app?vid=970d4a28-2e4b-453e-912d-59e6f284b811","ios":"levelo://app?vid=970d4a28-2e4b-453e-912d-59e6f284b811"},"vehicle_type_id":"4","last_reported":1743440922,"current_range_meters":8800,"station_id":"ce4bhqp2rcd13ifvqhog","pricing_plan_id":"cebpf4jnsgd1na2vs0mg"},{"bike_id":"08cbd441-1ff6-416f-93b9-319a709c31a9","system_id":"levelo_inurba_marseille","lat":43.29849,"lon":5.36288,"is_reserved":false,"is_disabled":false,"rental_uris":{"android":"levelo://app?vid=08cbd441-1ff6-416f-93b9-319a709c31a9","ios":"levelo://app?vid=08cbd441-1ff6-416f-93b9-319a709c31a9"},"vehicle_type_id":"4","last_reported":1743440922,"current_range_meters":8800,"station_id":"ce4bgpp2rcd13ifvqc3g","pricing_plan_id":"cebpf4jnsgd1na2vs0mg"},{"bike_id":"b64baa32-b9cc-4a2c-8c0d-71141008b689","system_id":"levelo_inurba_marseille","lat":43.299056,"lon":5.365308,"is_reserved":false,"is_disabled":false,"rental_uris":{"android":"levelo://app?vid=b64baa32-b9cc-4a2c-8c0d-71141008b689","ios":"levelo://app?vid=b64baa32-b9cc-4a2c-8c0d-71141008b689"},"vehicle_type_id":"4","last_reported":1743440922,"current_range_meters":8800,"station_id":"ce4bgh92rcd13ifvqb40","pricing_plan_id":"cebpf4jnsgd1na2vs0mg"},{"bike_id":"b3e97410-c1b2-4369-b878-0aa5bbd817bc","system_id":"levelo_inurba_marseille","lat":43.28504,"lon":5.35884,"is_reserved":false,"is_disabled":true,"rental_uris":{"android":"levelo://app?vid=b3e97410-c1b2-4369-b878-0aa5bbd817bc","ios":"levelo://app?vid=b3e97410-c1b2-4369-b878-0aa5bbd817bc"},"vehicle_type_id":"4","last_reported":1743440922,"current_range_meters":8800,"station_id":"ce4bhah2rcd13ifvqei0","pricing_plan_id":"cebpf4jnsgd1na2vs0mg"},{"bike_id":"070c1d62-5965-4314-8666-98b5e30a39ee","system_id":"levelo_inurba_marseille","lat":43.26207,"lon":5.37442,"is_reserved":false,"is_disabled":false,"rental_uris":{"android":"levelo://app?vid=070c1d62-5965-4314-8666-98b5e30a39ee","ios":"levelo://app?vid=070c1d62-5965-4314-8666-98b5e30a39ee"},"vehicle_type_id":"4","last_reported":1743440922,"current_range_meters":8800,"station_id":"ce4bhgp2rcd13ifvqfc0","pricing_plan_id":"cebpf4jnsgd1na2vs0mg"},{"bike_id":"fea7ab93-0f90-49e8-b915-eb27838a4f0f","system_id":"levelo_inurba_marseille","lat":43.33,"lon":5.39067,"is_reserved":false,"is_disabled":false,"rental_uris":{"android":"levelo://app?vid=fea7ab93-0f90-49e8-b915-eb27838a4f0f","ios":"levelo://app?vid=fea7ab93-0f90-49e8-b915-eb27838a4f0f"},"vehicle_type_id":"4","last_reported":1743440922,"current_range_meters":8800,"station_id":"ce4bhr92rcd13ifvqhrg","pricing_plan_id":"cebpf4jnsgd1na2vs0mg"},{"bike_id":"6690cb3c-9932-43dd-8266-47a0d41a00ce","system_id":"levelo_inurba_marseille","lat":43.30148,"lon":5.3988,"is_reserved":false,"is_disabled":false,"rental_uris":{"android":"levelo://app?vid=6690cb3c-9932-43dd-8266-47a0d41a00ce","ios":"levelo://app?vid=6690cb3c-9932-43dd-8266-47a0d41a00ce"},"vehicle_type_id":"4","last_reported":1743440922,"current_range_meters":8800,"station_id":"ce4bh0h2rcd13ifvqd40","pricing_plan_id":"cebpf4jnsgd1na2vs0mg"},{"bike_id":"4ffb58b5-9714-4994-8325-39aad8a62a6c","system_id":"levelo_inurba_marseille","lat":43.28865,"lon":5.35854,"is_reserved":false,"is_disabled":false,"rental_uris":{"android":"levelo://app?vid=4ffb58b5-9714-4994-8325-39aad8a62a6c","ios":"levelo://app?vid=4ffb58b5-9714-4994-8325-39aad8a62a6c"},"vehicle_type_id":"4","last_reported":1743440922,"current_range_meters":8800,"station_id":"ce4bhb12rcd13ifvqem0","pricing_plan_id":"cebpf4jnsgd1na2vs0mg"},{"bike_id":"6be04a70-2cba-4592-984e-7951840de7c1","system_id":"levelo_inurba_marseille","lat":43.29774,"lon":5.38111,"is_reserved":false,"is_disabled":false,"rental_uris":{"android":"levelo://app?vid=6be04a70-2cba-4592-984e-7951840de7c1","ios":"levelo://app?vid=6be04a70-2cba-4592-984e-7951840de7c1"},"vehicle_type_id":"4","last_reported":1743440922,"current_range_meters":8800,"station_id":"ce4bgip2rcd13ifvqbb0","pricing_plan_id":"cebpf4jnsgd1na2vs0mg"},{"bike_id":"df0db109-57fd-4f8d-b718-b594269e2cdb","system_id":"levelo_inurba_marseille","lat":43.24169,"lon":5.36406,"is_reserved":false,"is_disabled":false,"rental_uris":{"android":"levelo://app?vid=df0db109-57fd-4f8d-b718-b594269e2cdb","ios":"levelo://app?vid=df0db109-57fd-4f8d-b718-b594269e2cdb"},"vehicle_type_id":"4","last_reported":1743440922,"current_range_meters":8800,"station_id":"cpo36qri1sfpv3e86is0","pricing_plan_id":"cebpf4jnsgd1na2vs0mg"},{"bike_id":"10d1f351-b014-40bf-8786-7ad3378f11b7","system_id":"levelo_inurba_marseille","lat":43.29535,"lon":5.38551,"is_reserved":false,"is_disabled":false,"rental_uris":{"android":"levelo://app?vid=10d1f351-b014-40bf-8786-7ad3378f11b7","ios":"levelo://app?vid=10d1f351-b014-40bf-8786-7ad3378f11b7"},"vehicle_type_id":"4","last_reported":1743440922,"current_range_meters":8800,"station_id":"ce4bgih2rcd13ifvqba0","pricing_plan_id":"cebpf4jnsgd1na2vs0mg"},{"bike_id":"2544b345-63c9-4d9b-be2f-ada0aa65f9cf","system_id":"levelo_inurba_marseille","lat":43.22935,"lon":5.35381,"is_reserved":false,"is_disabled":false,"rental_uris":{"android":"levelo://app?vid=2544b345-63c9-4d9b-be2f-ada0aa65f9cf","ios":"levelo://app?vid=2544b345-63c9-4d9b-be2f-ada0aa65f9cf"},"vehicle_type_id":"4","last_reported":1743440922,"current_range_meters":8800,"station_id":"cpo3532slgdg3j2ikp40","pricing_plan_id":"cebpf4jnsgd1na2vs0mg"},{"bike_id":"33b17cbd-c9b6-4155-a8f4-0a0fc0dbbfd1","system_id":"levelo_inurba_marseille","lat":43.295362,"lon":5.374601,"is_reserved":false,"is_disabled":false,"rental_uris":{"android":"levelo://app?vid=33b17cbd-c9b6-4155-a8f4-0a0fc0dbbfd1","ios":"levelo://app?vid=33b17cbd-c9b6-4155-a8f4-0a0fc0dbbfd1"},"vehicle_type_id":"4","last_reported":1743440922,"current_range_meters":8800,"station_id":"ce4bhb12rcd13ifvqel0","pricing_plan_id":"cebpf4jnsgd1na2vs0mg"},{"bike_id":"121010d1-d0ea-475b-97a6-f9054736109c","system_id":"levelo_inurba_marseille","lat":43.23185,"lon":5.3998,"is_reserved":false,"is_disabled":false,"rental_uris":{"android":"levelo://app?vid=121010d1-d0ea-475b-97a6-f9054736109c","ios":"levelo://app?vid=121010d1-d0ea-475b-97a6-f9054736109c"},"vehicle_type_id":"4","last_reported":1743440922,"current_range_meters":9200,"station_id":"ce4bhn12rcd13ifvqgqg","pricing_plan_id":"cebpf4jnsgd1na2vs0mg"},{"bike_id":"49810080-90c1-49b4-921f-dc96b27343ff","system_id":"levelo_inurba_marseille","lat":43.26109,"lon":5.41466,"is_reserved":false,"is_disabled":false,"rental_uris":{"android":"levelo://app?vid=49810080-90c1-49b4-921f-dc96b27343ff","ios":"levelo://app?vid=49810080-90c1-49b4-921f-dc96b27343ff"},"vehicle_type_id":"4","last_reported":1743440922,"current_range_meters":9200,"station_id":"","pricing_plan_id":"cebpf4jnsgd1na2vs0mg"},{"bike_id":"20f5d5b6-da1b-4ad8-8de5-42887a69d068","system_id":"levelo_inurba_marseille","lat":43.29004,"lon":5.35621,"is_reserved":false,"is_disabled":true,"rental_uris":{"android":"levelo://app?vid=20f5d5b6-da1b-4ad8-8de5-42887a69d068","ios":"levelo://app?vid=20f5d5b6-da1b-4ad8-8de5-42887a69d068"},"vehicle_type_id":"4","last_reported":1743440922,"current_range_meters":9200,"station_id":"ce4bhb92rcd13ifvqen0","pricing_plan_id":"cebpf4jnsgd1na2vs0mg"},{"bike_id":"913d8a28-4259-4ef4-a0dd-66e078ece25f","system_id":"levelo_inurba_marseille","lat":43.2781,"lon":5.40715,"is_reserved":false,"is_disabled":false,"rental_uris":{"android":"levelo://app?vid=913d8a28-4259-4ef4-a0dd-66e078ece25f","ios":"levelo://app?vid=913d8a28-4259-4ef4-a0dd-66e078ece25f"},"vehicle_type_id":"4","last_reported":1743440922,"current_range_meters":8800,"station_id":"ce4bhnh2rcd13ifvqgtg","pricing_plan_id":"cebpf4jnsgd1na2vs0mg"},{"bike_id":"0e5cf204-cc2e-4385-8d19-42195cfe1d22","system_id":"levelo_inurba_marseille","lat":43.30636,"lon":5.40091,"is_reserved":false,"is_disabled":false,"rental_uris":{"android":"levelo://app?vid=0e5cf204-cc2e-4385-8d19-42195cfe1d22","ios":"levelo://app?vid=0e5cf204-cc2e-4385-8d19-42195cfe1d22"},"vehicle_type_id":"4","last_reported":1743440922,"current_range_meters":9200,"station_id":"ce4bh112rcd13ifvqda0","pricing_plan_id":"cebpf4jnsgd1na2vs0mg"},{"bike_id":"126bfb9b-fe43-455b-a18d-bbaf35011c84","system_id":"levelo_inurba_marseille","lat":43.28851,"lon":5.3931,"is_reserved":false,"is_disabled":false,"rental_uris":{"android":"levelo://app?vid=126bfb9b-fe43-455b-a18d-bbaf35011c84","ios":"levelo://app?vid=126bfb9b-fe43-455b-a18d-bbaf35011c84"},"vehicle_type_id":"4","last_reported":1743440922,"current_range_meters":11200,"station_id":"ce4bh2p2rcd13ifvqdi0","pricing_plan_id":"cebpf4jnsgd1na2vs0mg"},{"bike_id":"f50dd1be-9ee4-480d-920f-0721f0997798","system_id":"levelo_inurba_marseille","lat":43.23182,"lon":5.39978,"is_reserved":false,"is_disabled":false,"rental_uris":{"android":"levelo://app?vid=f50dd1be-9ee4-480d-920f-0721f0997798","ios":"levelo://app?vid=f50dd1be-9ee4-480d-920f-0721f0997798"},"vehicle_type_id":"4","last_reported":1743440922,"current_range_meters":9200,"station_id":"ce4bhn12rcd13ifvqgqg","pricing_plan_id":"cebpf4jnsgd1na2vs0mg"},{"bike_id":"be23b048-b1dc-48ac-85f7-374549e9550a","system_id":"levelo_inurba_marseille","lat":43.31343,"lon":5.36712,"is_reserved":false,"is_disabled":false,"rental_uris":{"android":"levelo://app?vid=be23b048-b1dc-48ac-85f7-374549e9550a","ios":"levelo://app?vid=be23b048-b1dc-48ac-85f7-374549e9550a"},"vehicle_type_id":"4","last_reported":1743440922,"current_range_meters":8800,"station_id":"ce4bgr92rcd13ifvqc6g","pricing_plan_id":"cebpf4jnsgd1na2vs0mg"},{"bike_id":"2bf31f9f-c5c0-434c-ab3b-b017d7dc966d","system_id":"levelo_inurba_marseille","lat":43.2304,"lon":5.35499,"is_reserved":false,"is_disabled":false,"rental_uris":{"android":"levelo://app?vid=2bf31f9f-c5c0-434c-ab3b-b017d7dc966d","ios":"levelo://app?vid=2bf31f9f-c5c0-434c-ab3b-b017d7dc966d"},"vehicle_type_id":"4","last_reported":1743440922,"current_range_meters":9200,"station_id":"cpo3342slgdg3j2ifvpg","pricing_plan_id":"cebpf4jnsgd1na2vs0mg"},{"bike_id":"92566f4c-583e-4efa-8e40-34045075e7cd","system_id":"levelo_inurba_marseille","lat":43.29419,"lon":5.38635,"is_reserved":false,"is_disabled":false,"rental_uris":{"android":"levelo://app?vid=92566f4c-583e-4efa-8e40-34045075e7cd","ios":"levelo://app?vid=92566f4c-583e-4efa-8e40-34045075e7cd"},"vehicle_type_id":"4","last_reported":1743440922,"current_range_meters":9200,"station_id":"ce4bh2h2rcd13ifvqdh0","pricing_plan_id":"cebpf4jnsgd1na2vs0mg"},{"bike_id":"7c20bcf3-2c0b-40fe-9794-c032addbb4b0","system_id":"levelo_inurba_marseille","lat":43.29003,"lon":5.35616,"is_reserved":false,"is_disabled":false,"rental_uris":{"android":"levelo://app?vid=7c20bcf3-2c0b-40fe-9794-c032addbb4b0","ios":"levelo://app?vid=7c20bcf3-2c0b-40fe-9794-c032addbb4b0"},"vehicle_type_id":"4","last_reported":1743440922,"current_range_meters":9200,"station_id":"ce4bhb92rcd13ifvqen0","pricing_plan_id":"cebpf4jnsgd1na2vs0mg"},{"bike_id":"b9217783-bac5-405b-8310-5f14cfe2925f","system_id":"levelo_inurba_marseille","lat":43.29518,"lon":5.37513,"is_reserved":false,"is_disabled":false,"rental_uris":{"android":"levelo://app?vid=b9217783-bac5-405b-8310-5f14cfe2925f","ios":"levelo://app?vid=b9217783-bac5-405b-8310-5f14cfe2925f"},"vehicle_type_id":"4","last_reported":1743440922,"current_range_meters":9200,"station_id":"ce4bgkp2rcd13ifvqbmg","pricing_plan_id":"cebpf4jnsgd1na2vs0mg"},{"bike_id":"672d4500-3325-45a5-9b08-ac625495a4fb","system_id":"levelo_inurba_marseille","lat":43.28346,"lon":5.38113,"is_reserved":false,"is_disabled":true,"rental_uris":{"android":"levelo://app?vid=672d4500-3325-45a5-9b08-ac625495a4fb","ios":"levelo://app?vid=672d4500-3325-45a5-9b08-ac625495a4fb"},"vehicle_type_id":"4","last_reported":1743440922,"current_range_meters":9200,"station_id":"ce4bh412rcd13ifvqdr0","pricing_plan_id":"cebpf4jnsgd1na2vs0mg"},{"bike_id":"67a4bdd5-410d-4afd-9bb5-2da76518e1a8","system_id":"levelo_inurba_marseille","lat":43.30602,"lon":5.37238,"is_reserved":false,"is_disabled":false,"rental_uris":{"android":"levelo://app?vid=67a4bdd5-410d-4afd-9bb5-2da76518e1a8","ios":"levelo://app?vid=67a4bdd5-410d-4afd-9bb5-2da76518e1a8"},"vehicle_type_id":"4","last_reported":1743440922,"current_range_meters":9200,"station_id":"ce4bgqh2rcd13ifvqc4g","pricing_plan_id":"cebpf4jnsgd1na2vs0mg"},{"bike_id":"870eba72-8bbf-4c9c-a64b-d3aa279b0223","system_id":"levelo_inurba_marseille","lat":43.29031,"lon":5.3864,"is_reserved":false,"is_disabled":false,"rental_uris":{"android":"levelo://app?vid=870eba72-8bbf-4c9c-a64b-d3aa279b0223","ios":"levelo://app?vid=870eba72-8bbf-4c9c-a64b-d3aa279b0223"},"vehicle_type_id":"4","last_reported":1743440922,"current_range_meters":9200,"station_id":"ce4bh4p2rcd13ifvqe0g","pricing_plan_id":"cebpf4jnsgd1na2vs0mg"},{"bike_id":"2e8da3a1-7ff7-4501-b3cf-ab3bc22573f9","system_id":"levelo_inurba_marseille","lat":43.26215,"lon":5.37451,"is_reserved":false,"is_disabled":false,"rental_uris":{"android":"levelo://app?vid=2e8da3a1-7ff7-4501-b3cf-ab3bc22573f9","ios":"levelo://app?vid=2e8da3a1-7ff7-4501-b3cf-ab3bc22573f9"},"vehicle_type_id":"4","last_reported":1743440922,"current_range_meters":9200,"station_id":"ce4bhgp2rcd13ifvqfc0","pricing_plan_id":"cebpf4jnsgd1na2vs0mg"},{"bike_id":"d2f2ddd5-8dd4-436f-ba30-fd70dfe59da3","system_id":"levelo_inurba_marseille","lat":43.32109,"lon":5.36778,"is_reserved":false,"is_disabled":false,"rental_uris":{"android":"levelo://app?vid=d2f2ddd5-8dd4-436f-ba30-fd70dfe59da3","ios":"levelo://app?vid=d2f2ddd5-8dd4-436f-ba30-fd70dfe59da3"},"vehicle_type_id":"4","last_reported":1743440922,"current_range_meters":9600,"station_id":"ce4bhrh2rcd13ifvqhug","pricing_plan_id":"cebpf4jnsgd1na2vs0mg"},{"bike_id":"d624c7d6-af4d-413f-b24b-f7cdc107636f","system_id":"levelo_inurba_marseille","lat":43.29052,"lon":5.35932,"is_reserved":false,"is_disabled":false,"rental_uris":{"android":"levelo://app?vid=d624c7d6-af4d-413f-b24b-f7cdc107636f","ios":"levelo://app?vid=d624c7d6-af4d-413f-b24b-f7cdc107636f"},"vehicle_type_id":"4","last_reported":1743440922,"current_range_meters":9600,"station_id":"ce4bha92rcd13ifvqeg0","pricing_plan_id":"cebpf4jnsgd1na2vs0mg"},{"bike_id":"05cce8b5-e04d-46f0-83d1-107eef27d8ef","system_id":"levelo_inurba_marseille","lat":43.3229,"lon":5.38268,"is_reserved":false,"is_disabled":false,"rental_uris":{"android":"levelo://app?vid=05cce8b5-e04d-46f0-83d1-107eef27d8ef","ios":"levelo://app?vid=05cce8b5-e04d-46f0-83d1-107eef27d8ef"},"vehicle_type_id":"4","last_reported":1743440922,"current_range_meters":9600,"station_id":"ce4bhr12rcd13ifvqhqg","pricing_plan_id":"cebpf4jnsgd1na2vs0mg"},{"bike_id":"23a2997f-acca-44d1-a72c-cccdd94a796c","system_id":"levelo_inurba_marseille","lat":43.30933,"lon":5.40189,"is_reserved":false,"is_disabled":true,"rental_uris":{"android":"levelo://app?vid=23a2997f-acca-44d1-a72c-cccdd94a796c","ios":"levelo://app?vid=23a2997f-acca-44d1-a72c-cccdd94a796c"},"vehicle_type_id":"4","last_reported":1743440922,"current_range_meters":9600,"station_id":"ce4bgvp2rcd13ifvqct0","pricing_plan_id":"cebpf4jnsgd1na2vs0mg"},{"bike_id":"5203ccbe-ce3c-4351-a8e9-f9ee5ad38a9c","system_id":"levelo_inurba_marseille","lat":43.23195,"lon":5.39972,"is_reserved":false,"is_disabled":false,"rental_uris":{"android":"levelo://app?vid=5203ccbe-ce3c-4351-a8e9-f9ee5ad38a9c","ios":"levelo://app?vid=5203ccbe-ce3c-4351-a8e9-f9ee5ad38a9c"},"vehicle_type_id":"4","last_reported":1743440922,"current_range_meters":9600,"station_id":"ce4bhn12rcd13ifvqgqg","pricing_plan_id":"cebpf4jnsgd1na2vs0mg"},{"bike_id":"8e0b553c-40f3-4c27-a083-188aabe3477a","system_id":"levelo_inurba_marseille","lat":43.29531,"lon":5.38548,"is_reserved":false,"is_disabled":false,"rental_uris":{"android":"levelo://app?vid=8e0b553c-40f3-4c27-a083-188aabe3477a","ios":"levelo://app?vid=8e0b553c-40f3-4c27-a083-188aabe3477a"},"vehicle_type_id":"4","last_reported":1743440922,"current_range_meters":9600,"station_id":"ce4bgih2rcd13ifvqba0","pricing_plan_id":"cebpf4jnsgd1na2vs0mg"},{"bike_id":"f24480bb-d9af-40f8-a5b8-c76451cb17dd","system_id":"levelo_inurba_marseille","lat":43.28618,"lon":5.3511,"is_reserved":false,"is_disabled":false,"rental_uris":{"android":"levelo://app?vid=f24480bb-d9af-40f8-a5b8-c76451cb17dd","ios":"levelo://app?vid=f24480bb-d9af-40f8-a5b8-c76451cb17dd"},"vehicle_type_id":"4","last_reported":1743440922,"current_range_meters":9600,"station_id":"ce4bhch2rcd13ifvqeug","pricing_plan_id":"cebpf4jnsgd1na2vs0mg"},{"bike_id":"0f8f638f-6c59-4dfb-ab4f-882d40e453aa","system_id":"levelo_inurba_marseille","lat":43.2928,"lon":5.42769,"is_reserved":false,"is_disabled":false,"rental_uris":{"android":"levelo://app?vid=0f8f638f-6c59-4dfb-ab4f-882d40e453aa","ios":"levelo://app?vid=0f8f638f-6c59-4dfb-ab4f-882d40e453aa"},"vehicle_type_id":"4","last_reported":1743440922,"current_range_meters":9600,"station_id":"","pricing_plan_id":"cebpf4jnsgd1na2vs0mg"},{"bike_id":"700fec17-db6b-4231-8b0b-7afc80944b09","system_id":"levelo_inurba_marseille","lat":43.29529,"lon":5.38547,"is_reserved":false,"is_disabled":false,"rental_uris":{"android":"levelo://app?vid=700fec17-db6b-4231-8b0b-7afc80944b09","ios":"levelo://app?vid=700fec17-db6b-4231-8b0b-7afc80944b09"},"vehicle_type_id":"4","last_reported":1743440922,"current_range_meters":9600,"station_id":"ce4bgih2rcd13ifvqba0","pricing_plan_id":"cebpf4jnsgd1na2vs0mg"},{"bike_id":"053892d8-efc9-4c5b-bb73-88ddb36947cc","system_id":"levelo_inurba_marseille","lat":43.29012,"lon":5.35614,"is_reserved":false,"is_disabled":false,"rental_uris":{"android":"levelo://app?vid=053892d8-efc9-4c5b-bb73-88ddb36947cc","ios":"levelo://app?vid=053892d8-efc9-4c5b-bb73-88ddb36947cc"},"vehicle_type_id":"4","last_reported":1743440922,"current_range_meters":9600,"station_id":"ce4bhb92rcd13ifvqen0","pricing_plan_id":"cebpf4jnsgd1na2vs0mg"},{"bike_id":"d454fb38-9af5-424b-9ef1-00b2a0e91c70","system_id":"levelo_inurba_marseille","lat":43.22903,"lon":5.35382,"is_reserved":false,"is_disabled":false,"rental_uris":{"android":"levelo://app?vid=d454fb38-9af5-424b-9ef1-00b2a0e91c70","ios":"levelo://app?vid=d454fb38-9af5-424b-9ef1-00b2a0e91c70"},"vehicle_type_id":"4","last_reported":1743440922,"current_range_meters":9600,"station_id":"cpo3532slgdg3j2ikp40","pricing_plan_id":"cebpf4jnsgd1na2vs0mg"},{"bike_id":"e1c100de-a8ea-4038-8c81-fe8c94cc6ac4","system_id":"levelo_inurba_marseille","lat":43.29,"lon":5.35613,"is_reserved":false,"is_disabled":false,"rental_uris":{"android":"levelo://app?vid=e1c100de-a8ea-4038-8c81-fe8c94cc6ac4","ios":"levelo://app?vid=e1c100de-a8ea-4038-8c81-fe8c94cc6ac4"},"vehicle_type_id":"4","last_reported":1743440922,"current_range_meters":9600,"station_id":"ce4bhb92rcd13ifvqen0","pricing_plan_id":"cebpf4jnsgd1na2vs0mg"},{"bike_id":"72fdb279-423e-49c8-a30b-f406d7440799","system_id":"levelo_inurba_marseille","lat":43.27373,"lon":5.36259,"is_reserved":false,"is_disabled":false,"rental_uris":{"android":"levelo://app?vid=72fdb279-423e-49c8-a30b-f406d7440799","ios":"levelo://app?vid=72fdb279-423e-49c8-a30b-f406d7440799"},"vehicle_type_id":"4","last_reported":1743440922,"current_range_meters":9600,"station_id":"ce4bhbh2rcd13ifvqeo0","pricing_plan_id":"cebpf4jnsgd1na2vs0mg"},{"bike_id":"cd4c796a-dd7d-4683-aa9e-b566ad8e8a64","system_id":"levelo_inurba_marseille","lat":43.28635,"lon":5.35129,"is_reserved":false,"is_disabled":false,"rental_uris":{"android":"levelo://app?vid=cd4c796a-dd7d-4683-aa9e-b566ad8e8a64","ios":"levelo://app?vid=cd4c796a-dd7d-4683-aa9e-b566ad8e8a64"},"vehicle_type_id":"4","last_reported":1743440922,"current_range_meters":9600,"station_id":"ce4bhch2rcd13ifvqeug","pricing_plan_id":"cebpf4jnsgd1na2vs0mg"},{"bike_id":"07f3211a-dc27-47cf-8ba4-eaa084a0f38d","system_id":"levelo_inurba_marseille","lat":43.30887,"lon":5.39644,"is_reserved":false,"is_disabled":false,"rental_uris":{"android":"levelo://app?vid=07f3211a-dc27-47cf-8ba4-eaa084a0f38d","ios":"levelo://app?vid=07f3211a-dc27-47cf-8ba4-eaa084a0f38d"},"vehicle_type_id":"4","last_reported":1743440922,"current_range_meters":9600,"station_id":"ce4bh012rcd13ifvqcv0","pricing_plan_id":"cebpf4jnsgd1na2vs0mg"},{"bike_id":"113ff67a-ce65-4372-ab13-70bb4b265ecc","system_id":"levelo_inurba_marseille","lat":43.29282,"lon":5.36857,"is_reserved":false,"is_disabled":false,"rental_uris":{"android":"levelo://app?vid=113ff67a-ce65-4372-ab13-70bb4b265ecc","ios":"levelo://app?vid=113ff67a-ce65-4372-ab13-70bb4b265ecc"},"vehicle_type_id":"4","last_reported":1743440922,"current_range_meters":9600,"station_id":"ce4bhbp2rcd13ifvqesg","pricing_plan_id":"cebpf4jnsgd1na2vs0mg"},{"bike_id":"d25d45dc-6c81-4a88-b6ce-461886b7e486","system_id":"levelo_inurba_marseille","lat":43.266315,"lon":5.381462,"is_reserved":false,"is_disabled":false,"rental_uris":{"android":"levelo://app?vid=d25d45dc-6c81-4a88-b6ce-461886b7e486","ios":"levelo://app?vid=d25d45dc-6c81-4a88-b6ce-461886b7e486"},"vehicle_type_id":"4","last_reported":1743440922,"current_range_meters":9600,"station_id":"ce4bhih2rcd13ifvqfs0","pricing_plan_id":"cebpf4jnsgd1na2vs0mg"},{"bike_id":"fb778da4-be6c-4eaa-a00a-7f5cd5f520c0","system_id":"levelo_inurba_marseille","lat":43.29417,"lon":5.38632,"is_reserved":false,"is_disabled":false,"rental_uris":{"android":"levelo://app?vid=fb778da4-be6c-4eaa-a00a-7f5cd5f520c0","ios":"levelo://app?vid=fb778da4-be6c-4eaa-a00a-7f5cd5f520c0"},"vehicle_type_id":"4","last_reported":1743440922,"current_range_meters":10000,"station_id":"ce4bh2h2rcd13ifvqdh0","pricing_plan_id":"cebpf4jnsgd1na2vs0mg"},{"bike_id":"2726bfdb-4638-4364-9f4e-00c2e4c7a44d","system_id":"levelo_inurba_marseille","lat":43.32111,"lon":5.36813,"is_reserved":false,"is_disabled":false,"rental_uris":{"android":"levelo://app?vid=2726bfdb-4638-4364-9f4e-00c2e4c7a44d","ios":"levelo://app?vid=2726bfdb-4638-4364-9f4e-00c2e4c7a44d"},"vehicle_type_id":"4","last_reported":1743440922,"current_range_meters":10000,"station_id":"ce4bhrh2rcd13ifvqhug","pricing_plan_id":"cebpf4jnsgd1na2vs0mg"},{"bike_id":"75eb16ac-b755-478d-bfb5-2e22abc751f6","system_id":"levelo_inurba_marseille","lat":43.29651,"lon":5.37168,"is_reserved":false,"is_disabled":true,"rental_uris":{"android":"levelo://app?vid=75eb16ac-b755-478d-bfb5-2e22abc751f6","ios":"levelo://app?vid=75eb16ac-b755-478d-bfb5-2e22abc751f6"},"vehicle_type_id":"4","last_reported":1743440922,"current_range_meters":10000,"station_id":"ce4bgnh2rcd13ifvqc0g","pricing_plan_id":"cebpf4jnsgd1na2vs0mg"},{"bike_id":"a49051c8-5f06-4471-9ba7-c2f53f6d878a","system_id":"levelo_inurba_marseille","lat":43.284167,"lon":5.349933,"is_reserved":false,"is_disabled":false,"rental_uris":{"android":"levelo://app?vid=a49051c8-5f06-4471-9ba7-c2f53f6d878a","ios":"levelo://app?vid=a49051c8-5f06-4471-9ba7-c2f53f6d878a"},"vehicle_type_id":"4","last_reported":1743440922,"current_range_meters":10000,"station_id":"ce4bhbh2rcd13ifvqepg","pricing_plan_id":"cebpf4jnsgd1na2vs0mg"},{"bike_id":"7281ae64-3795-472f-9d73-2fd8fdf0b15c","system_id":"levelo_inurba_marseille","lat":43.2942,"lon":5.38627,"is_reserved":false,"is_disabled":false,"rental_uris":{"android":"levelo://app?vid=7281ae64-3795-472f-9d73-2fd8fdf0b15c","ios":"levelo://app?vid=7281ae64-3795-472f-9d73-2fd8fdf0b15c"},"vehicle_type_id":"4","last_reported":1743440922,"current_range_meters":10000,"station_id":"ce4bh2h2rcd13ifvqdh0","pricing_plan_id":"cebpf4jnsgd1na2vs0mg"},{"bike_id":"fbc1c0a9-d425-4eb3-ba26-c96313abb304","system_id":"levelo_inurba_marseille","lat":43.28654,"lon":5.35097,"is_reserved":false,"is_disabled":false,"rental_uris":{"android":"levelo://app?vid=fbc1c0a9-d425-4eb3-ba26-c96313abb304","ios":"levelo://app?vid=fbc1c0a9-d425-4eb3-ba26-c96313abb304"},"vehicle_type_id":"4","last_reported":1743440922,"current_range_meters":10000,"station_id":"ce4bhch2rcd13ifvqeug","pricing_plan_id":"cebpf4jnsgd1na2vs0mg"},{"bike_id":"2eff009f-7077-441c-8f28-36a0fda85396","system_id":"levelo_inurba_marseille","lat":43.24654,"lon":5.38911,"is_reserved":false,"is_disabled":false,"rental_uris":{"android":"levelo://app?vid=2eff009f-7077-441c-8f28-36a0fda85396","ios":"levelo://app?vid=2eff009f-7077-441c-8f28-36a0fda85396"},"vehicle_type_id":"4","last_reported":1743440922,"current_range_meters":10800,"station_id":"ce4bhg12rcd13ifvqf60","pricing_plan_id":"cebpf4jnsgd1na2vs0mg"},{"bike_id":"668c01cb-7bea-48c9-8f15-6bcc0c19c832","system_id":"levelo_inurba_marseille","lat":43.26207,"lon":5.37923,"is_reserved":false,"is_disabled":true,"rental_uris":{"android":"levelo://app?vid=668c01cb-7bea-48c9-8f15-6bcc0c19c832","ios":"levelo://app?vid=668c01cb-7bea-48c9-8f15-6bcc0c19c832"},"vehicle_type_id":"4","last_reported":1743440922,"current_range_meters":10800,"station_id":"ce4bhjp2rcd13ifvqg90","pricing_plan_id":"cebpf4jnsgd1na2vs0mg"},{"bike_id":"a128f301-8c09-428c-a237-e06e1c27ea42","system_id":"levelo_inurba_marseille","lat":43.29884,"lon":5.389,"is_reserved":false,"is_disabled":false,"rental_uris":{"android":"levelo://app?vid=a128f301-8c09-428c-a237-e06e1c27ea42","ios":"levelo://app?vid=a128f301-8c09-428c-a237-e06e1c27ea42"},"vehicle_type_id":"4","last_reported":1743440922,"current_range_meters":10800,"station_id":"ce4bh392rcd13ifvqdl0","pricing_plan_id":"cebpf4jnsgd1na2vs0mg"},{"bike_id":"65d9fb1c-694d-48ee-ae23-e6087c924372","system_id":"levelo_inurba_marseille","lat":43.30901,"lon":5.39634,"is_reserved":false,"is_disabled":false,"rental_uris":{"android":"levelo://app?vid=65d9fb1c-694d-48ee-ae23-e6087c924372","ios":"levelo://app?vid=65d9fb1c-694d-48ee-ae23-e6087c924372"},"vehicle_type_id":"4","last_reported":1743440922,"current_range_meters":10800,"station_id":"ce4bh012rcd13ifvqcv0","pricing_plan_id":"cebpf4jnsgd1na2vs0mg"},{"bike_id":"6fa97106-103e-4571-85c0-458067ed9648","system_id":"levelo_inurba_marseille","lat":43.22937,"lon":5.354,"is_reserved":false,"is_disabled":false,"rental_uris":{"android":"levelo://app?vid=6fa97106-103e-4571-85c0-458067ed9648","ios":"levelo://app?vid=6fa97106-103e-4571-85c0-458067ed9648"},"vehicle_type_id":"4","last_reported":1743440922,"current_range_meters":10800,"station_id":"cpo3532slgdg3j2ikp40","pricing_plan_id":"cebpf4jnsgd1na2vs0mg"},{"bike_id":"397156ba-a229-438d-859c-42be5a8ad922","system_id":"levelo_inurba_marseille","lat":43.24665,"lon":5.38168,"is_reserved":false,"is_disabled":false,"rental_uris":{"android":"levelo://app?vid=397156ba-a229-438d-859c-42be5a8ad922","ios":"levelo://app?vid=397156ba-a229-438d-859c-42be5a8ad922"},"vehicle_type_id":"4","last_reported":1743440922,"current_range_meters":10800,"station_id":"ce4bhih2rcd13ifvqfr0","pricing_plan_id":"cebpf4jnsgd1na2vs0mg"},{"bike_id":"6174150e-7706-45ab-9f9e-a4af199b5d8d","system_id":"levelo_inurba_marseille","lat":43.31361,"lon":5.38489,"is_reserved":false,"is_disabled":false,"rental_uris":{"android":"levelo://app?vid=6174150e-7706-45ab-9f9e-a4af199b5d8d","ios":"levelo://app?vid=6174150e-7706-45ab-9f9e-a4af199b5d8d"},"vehicle_type_id":"4","last_reported":1743440922,"current_range_meters":10800,"station_id":"ce4bgt92rcd13ifvqcf0","pricing_plan_id":"cebpf4jnsgd1na2vs0mg"},{"bike_id":"cb6936a1-cd1b-4349-b91b-d49d7f2703a0","system_id":"levelo_inurba_marseille","lat":43.3029,"lon":5.39185,"is_reserved":false,"is_disabled":true,"rental_uris":{"android":"levelo://app?vid=cb6936a1-cd1b-4349-b91b-d49d7f2703a0","ios":"levelo://app?vid=cb6936a1-cd1b-4349-b91b-d49d7f2703a0"},"vehicle_type_id":"4","last_reported":1743440922,"current_range_meters":10800,"station_id":"ce4bgkh2rcd13ifvqbk0","pricing_plan_id":"cebpf4jnsgd1na2vs0mg"},{"bike_id":"285fa790-3775-479b-9dc1-994f548672b5","system_id":"levelo_inurba_marseille","lat":43.28442,"lon":5.34994,"is_reserved":false,"is_disabled":false,"rental_uris":{"android":"levelo://app?vid=285fa790-3775-479b-9dc1-994f548672b5","ios":"levelo://app?vid=285fa790-3775-479b-9dc1-994f548672b5"},"vehicle_type_id":"4","last_reported":1743440922,"current_range_meters":10800,"station_id":"ce4bhbh2rcd13ifvqepg","pricing_plan_id":"cebpf4jnsgd1na2vs0mg"},{"bike_id":"4fa1db9f-58b3-4538-8349-b2ec06e07b8f","system_id":"levelo_inurba_marseille","lat":43.31263,"lon":5.40164,"is_reserved":false,"is_disabled":false,"rental_uris":{"android":"levelo://app?vid=4fa1db9f-58b3-4538-8349-b2ec06e07b8f","ios":"levelo://app?vid=4fa1db9f-58b3-4538-8349-b2ec06e07b8f"},"vehicle_type_id":"4","last_reported":1743440922,"current_range_meters":11200,"station_id":"ce4bh092rcd13ifvqd30","pricing_plan_id":"cebpf4jnsgd1na2vs0mg"},{"bike_id":"7f7cad7c-2d43-48cf-b13b-373ca6667b4e","system_id":"levelo_inurba_marseille","lat":43.29267,"lon":5.38445,"is_reserved":false,"is_disabled":false,"rental_uris":{"android":"levelo://app?vid=7f7cad7c-2d43-48cf-b13b-373ca6667b4e","ios":"levelo://app?vid=7f7cad7c-2d43-48cf-b13b-373ca6667b4e"},"vehicle_type_id":"4","last_reported":1743440922,"current_range_meters":11200,"station_id":"ce4bh692rcd13ifvqea0","pricing_plan_id":"cebpf4jnsgd1na2vs0mg"},{"bike_id":"75e29841-15a8-48b9-923d-68f3e4721121","system_id":"levelo_inurba_marseille","lat":43.31802,"lon":5.390716,"is_reserved":false,"is_disabled":false,"rental_uris":{"android":"levelo://app?vid=75e29841-15a8-48b9-923d-68f3e4721121","ios":"levelo://app?vid=75e29841-15a8-48b9-923d-68f3e4721121"},"vehicle_type_id":"4","last_reported":1743440922,"current_range_meters":11200,"station_id":"","pricing_plan_id":"cebpf4jnsgd1na2vs0mg"},{"bike_id":"e08cdf3b-038a-44ee-a15f-4650001e6aa9","system_id":"levelo_inurba_marseille","lat":43.29801,"lon":5.36372,"is_reserved":false,"is_disabled":false,"rental_uris":{"android":"levelo://app?vid=e08cdf3b-038a-44ee-a15f-4650001e6aa9","ios":"levelo://app?vid=e08cdf3b-038a-44ee-a15f-4650001e6aa9"},"vehicle_type_id":"4","last_reported":1743440922,"current_range_meters":11200,"station_id":"","pricing_plan_id":"cebpf4jnsgd1na2vs0mg"},{"bike_id":"781e4fad-e8e0-41bd-9fc7-1331b936d0b1","system_id":"levelo_inurba_marseille","lat":43.28428,"lon":5.35059,"is_reserved":false,"is_disabled":false,"rental_uris":{"android":"levelo://app?vid=781e4fad-e8e0-41bd-9fc7-1331b936d0b1","ios":"levelo://app?vid=781e4fad-e8e0-41bd-9fc7-1331b936d0b1"},"vehicle_type_id":"4","last_reported":1743440922,"current_range_meters":11200,"station_id":"","pricing_plan_id":"cebpf4jnsgd1na2vs0mg"},{"bike_id":"60f3c81c-d1a3-4b58-98c9-504f8a0ffc50","system_id":"levelo_inurba_marseille","lat":43.29794,"lon":5.39367,"is_reserved":false,"is_disabled":false,"rental_uris":{"android":"levelo://app?vid=60f3c81c-d1a3-4b58-98c9-504f8a0ffc50","ios":"levelo://app?vid=60f3c81c-d1a3-4b58-98c9-504f8a0ffc50"},"vehicle_type_id":"4","last_reported":1743440922,"current_range_meters":11200,"station_id":"chh1huq6cuj3fo74tm60","pricing_plan_id":"cebpf4jnsgd1na2vs0mg"},{"bike_id":"5664cd51-8f46-4320-8083-3cabe0b8ea8d","system_id":"levelo_inurba_marseille","lat":43.28109,"lon":5.3964,"is_reserved":false,"is_disabled":false,"rental_uris":{"android":"levelo://app?vid=5664cd51-8f46-4320-8083-3cabe0b8ea8d","ios":"levelo://app?vid=5664cd51-8f46-4320-8083-3cabe0b8ea8d"},"vehicle_type_id":"4","last_reported":1743440922,"current_range_meters":11200,"station_id":"ce4bho12rcd13ifvqh2g","pricing_plan_id":"cebpf4jnsgd1na2vs0mg"},{"bike_id":"32786654-e0a5-4ead-8bb5-f56016b6a3a0","system_id":"levelo_inurba_marseille","lat":43.2607,"lon":5.39391,"is_reserved":false,"is_disabled":false,"rental_uris":{"android":"levelo://app?vid=32786654-e0a5-4ead-8bb5-f56016b6a3a0","ios":"levelo://app?vid=32786654-e0a5-4ead-8bb5-f56016b6a3a0"},"vehicle_type_id":"4","last_reported":1743440922,"current_range_meters":11600,"station_id":"ce4bhh92rcd13ifvqfj0","pricing_plan_id":"cebpf4jnsgd1na2vs0mg"},{"bike_id":"7c17100f-b29a-4243-8e13-cb859aa9a60f","system_id":"levelo_inurba_marseille","lat":43.30327,"lon":5.40446,"is_reserved":false,"is_disabled":false,"rental_uris":{"android":"levelo://app?vid=7c17100f-b29a-4243-8e13-cb859aa9a60f","ios":"levelo://app?vid=7c17100f-b29a-4243-8e13-cb859aa9a60f"},"vehicle_type_id":"4","last_reported":1743440922,"current_range_meters":11600,"station_id":"ce4bh012rcd13ifvqd10","pricing_plan_id":"cebpf4jnsgd1na2vs0mg"},{"bike_id":"81e21842-93a8-44ce-9ce9-5aa6fa157347","system_id":"levelo_inurba_marseille","lat":43.29904,"lon":5.39734,"is_reserved":false,"is_disabled":false,"rental_uris":{"android":"levelo://app?vid=81e21842-93a8-44ce-9ce9-5aa6fa157347","ios":"levelo://app?vid=81e21842-93a8-44ce-9ce9-5aa6fa157347"},"vehicle_type_id":"4","last_reported":1743440922,"current_range_meters":11600,"station_id":"ce4bh0h2rcd13ifvqd50","pricing_plan_id":"cebpf4jnsgd1na2vs0mg"},{"bike_id":"e3ed6a7b-116d-4bce-98f8-0c4519635233","system_id":"levelo_inurba_marseille","lat":43.31975,"lon":5.3743,"is_reserved":false,"is_disabled":false,"rental_uris":{"android":"levelo://app?vid=e3ed6a7b-116d-4bce-98f8-0c4519635233","ios":"levelo://app?vid=e3ed6a7b-116d-4bce-98f8-0c4519635233"},"vehicle_type_id":"4","last_reported":1743440922,"current_range_meters":11600,"station_id":"","pricing_plan_id":"cebpf4jnsgd1na2vs0mg"},{"bike_id":"caa2ee75-3681-4325-a40e-8454a930e20a","system_id":"levelo_inurba_marseille","lat":43.292206,"lon":5.363544,"is_reserved":false,"is_disabled":false,"rental_uris":{"android":"levelo://app?vid=caa2ee75-3681-4325-a40e-8454a930e20a","ios":"levelo://app?vid=caa2ee75-3681-4325-a40e-8454a930e20a"},"vehicle_type_id":"4","last_reported":1743440922,"current_range_meters":11600,"station_id":"ce4bgi12rcd13ifvqb70","pricing_plan_id":"cebpf4jnsgd1na2vs0mg"},{"bike_id":"eab94c70-a623-4460-b52a-cdb6fd58bc5c","system_id":"levelo_inurba_marseille","lat":43.28464,"lon":5.35897,"is_reserved":false,"is_disabled":false,"rental_uris":{"android":"levelo://app?vid=eab94c70-a623-4460-b52a-cdb6fd58bc5c","ios":"levelo://app?vid=eab94c70-a623-4460-b52a-cdb6fd58bc5c"},"vehicle_type_id":"4","last_reported":1743440922,"current_range_meters":12000,"station_id":"ce4bhah2rcd13ifvqei0","pricing_plan_id":"cebpf4jnsgd1na2vs0mg"},{"bike_id":"770c32d9-6950-4645-af0a-e407448b3f90","system_id":"levelo_inurba_marseille","lat":43.29437,"lon":5.38635,"is_reserved":false,"is_disabled":false,"rental_uris":{"android":"levelo://app?vid=770c32d9-6950-4645-af0a-e407448b3f90","ios":"levelo://app?vid=770c32d9-6950-4645-af0a-e407448b3f90"},"vehicle_type_id":"4","last_reported":1743440922,"current_range_meters":12000,"station_id":"ce4bh2h2rcd13ifvqdh0","pricing_plan_id":"cebpf4jnsgd1na2vs0mg"},{"bike_id":"31647d2d-a912-4f0a-ae4e-c927fae7ff1e","system_id":"levelo_inurba_marseille","lat":43.28265,"lon":5.35067,"is_reserved":false,"is_disabled":false,"rental_uris":{"android":"levelo://app?vid=31647d2d-a912-4f0a-ae4e-c927fae7ff1e","ios":"levelo://app?vid=31647d2d-a912-4f0a-ae4e-c927fae7ff1e"},"vehicle_type_id":"4","last_reported":1743440922,"current_range_meters":12000,"station_id":"ce4bhbp2rcd13ifvqerg","pricing_plan_id":"cebpf4jnsgd1na2vs0mg"},{"bike_id":"31f45c09-5cea-4c1e-b2d1-5eb6213324b0","system_id":"levelo_inurba_marseille","lat":43.27997,"lon":5.41667,"is_reserved":false,"is_disabled":false,"rental_uris":{"android":"levelo://app?vid=31f45c09-5cea-4c1e-b2d1-5eb6213324b0","ios":"levelo://app?vid=31f45c09-5cea-4c1e-b2d1-5eb6213324b0"},"vehicle_type_id":"4","last_reported":1743440922,"current_range_meters":12000,"station_id":"ce4bho12rcd13ifvqh1g","pricing_plan_id":"cebpf4jnsgd1na2vs0mg"},{"bike_id":"a56d51b9-6315-4801-bb61-d81d6fd7dfbe","system_id":"levelo_inurba_marseille","lat":43.2893,"lon":5.36411,"is_reserved":false,"is_disabled":false,"rental_uris":{"android":"levelo://app?vid=a56d51b9-6315-4801-bb61-d81d6fd7dfbe","ios":"levelo://app?vid=a56d51b9-6315-4801-bb61-d81d6fd7dfbe"},"vehicle_type_id":"4","last_reported":1743440922,"current_range_meters":12000,"station_id":"ce4bhc92rcd13ifvqetg","pricing_plan_id":"cebpf4jnsgd1na2vs0mg"},{"bike_id":"bc2731c5-d1f1-4f43-bf16-ed3324b6f121","system_id":"levelo_inurba_marseille","lat":43.27956,"lon":5.41052,"is_reserved":false,"is_disabled":true,"rental_uris":{"android":"levelo://app?vid=bc2731c5-d1f1-4f43-bf16-ed3324b6f121","ios":"levelo://app?vid=bc2731c5-d1f1-4f43-bf16-ed3324b6f121"},"vehicle_type_id":"4","last_reported":1743440922,"current_range_meters":12000,"station_id":"ce4bhnp2rcd13ifvqh0g","pricing_plan_id":"cebpf4jnsgd1na2vs0mg"},{"bike_id":"f41e2eef-3409-4d82-b478-b6958ffb7ce8","system_id":"levelo_inurba_marseille","lat":43.241665,"lon":5.363995,"is_reserved":false,"is_disabled":false,"rental_uris":{"android":"levelo://app?vid=f41e2eef-3409-4d82-b478-b6958ffb7ce8","ios":"levelo://app?vid=f41e2eef-3409-4d82-b478-b6958ffb7ce8"},"vehicle_type_id":"4","last_reported":1743440922,"current_range_meters":12000,"station_id":"cpo36qri1sfpv3e86is0","pricing_plan_id":"cebpf4jnsgd1na2vs0mg"},{"bike_id":"3bce6423-d17a-4687-a3c0-b34d6d072d8c","system_id":"levelo_inurba_marseille","lat":43.26192,"lon":5.37451,"is_reserved":false,"is_disabled":false,"rental_uris":{"android":"levelo://app?vid=3bce6423-d17a-4687-a3c0-b34d6d072d8c","ios":"levelo://app?vid=3bce6423-d17a-4687-a3c0-b34d6d072d8c"},"vehicle_type_id":"4","last_reported":1743440922,"current_range_meters":12000,"station_id":"ce4bhgp2rcd13ifvqfc0","pricing_plan_id":"cebpf4jnsgd1na2vs0mg"},{"bike_id":"20787e28-8551-4070-8339-ecf36a21cb1c","system_id":"levelo_inurba_marseille","lat":43.29276,"lon":5.36843,"is_reserved":false,"is_disabled":false,"rental_uris":{"android":"levelo://app?vid=20787e28-8551-4070-8339-ecf36a21cb1c","ios":"levelo://app?vid=20787e28-8551-4070-8339-ecf36a21cb1c"},"vehicle_type_id":"4","last_reported":1743440922,"current_range_meters":12000,"station_id":"ce4bhbp2rcd13ifvqesg","pricing_plan_id":"cebpf4jnsgd1na2vs0mg"},{"bike_id":"78eb67b5-8abf-43f8-9b4d-b136e4a01209","system_id":"levelo_inurba_marseille","lat":43.29156,"lon":5.37181,"is_reserved":false,"is_disabled":false,"rental_uris":{"android":"levelo://app?vid=78eb67b5-8abf-43f8-9b4d-b136e4a01209","ios":"levelo://app?vid=78eb67b5-8abf-43f8-9b4d-b136e4a01209"},"vehicle_type_id":"4","last_reported":1743440922,"current_range_meters":12400,"station_id":"ce4bha92rcd13ifvqeh0","pricing_plan_id":"cebpf4jnsgd1na2vs0mg"},{"bike_id":"8b519577-9a45-4dc5-9cf0-a1ce795576fb","system_id":"levelo_inurba_marseille","lat":43.280344,"lon":5.369473,"is_reserved":false,"is_disabled":false,"rental_uris":{"android":"levelo://app?vid=8b519577-9a45-4dc5-9cf0-a1ce795576fb","ios":"levelo://app?vid=8b519577-9a45-4dc5-9cf0-a1ce795576fb"},"vehicle_type_id":"4","last_reported":1743440922,"current_range_meters":12400,"station_id":"ce4bha12rcd13ifvqef0","pricing_plan_id":"cebpf4jnsgd1na2vs0mg"},{"bike_id":"ec5fa713-f7d4-45fe-aed2-e0940dc48d3b","system_id":"levelo_inurba_marseille","lat":43.28621,"lon":5.35101,"is_reserved":false,"is_disabled":false,"rental_uris":{"android":"levelo://app?vid=ec5fa713-f7d4-45fe-aed2-e0940dc48d3b","ios":"levelo://app?vid=ec5fa713-f7d4-45fe-aed2-e0940dc48d3b"},"vehicle_type_id":"4","last_reported":1743440922,"current_range_meters":12400,"station_id":"ce4bhch2rcd13ifvqeug","pricing_plan_id":"cebpf4jnsgd1na2vs0mg"},{"bike_id":"42162775-0c2b-4794-b859-3dbc002dad22","system_id":"levelo_inurba_marseille","lat":43.292391,"lon":5.383675,"is_reserved":false,"is_disabled":false,"rental_uris":{"android":"levelo://app?vid=42162775-0c2b-4794-b859-3dbc002dad22","ios":"levelo://app?vid=42162775-0c2b-4794-b859-3dbc002dad22"},"vehicle_type_id":"4","last_reported":1743440922,"current_range_meters":12400,"station_id":"","pricing_plan_id":"cebpf4jnsgd1na2vs0mg"},{"bike_id":"444576ac-b144-4c48-a49b-7a6804063bfe","system_id":"levelo_inurba_marseille","lat":43.2844,"lon":5.34941,"is_reserved":false,"is_disabled":false,"rental_uris":{"android":"levelo://app?vid=444576ac-b144-4c48-a49b-7a6804063bfe","ios":"levelo://app?vid=444576ac-b144-4c48-a49b-7a6804063bfe"},"vehicle_type_id":"4","last_reported":1743440922,"current_range_meters":12400,"station_id":"ce4bhbh2rcd13ifvqepg","pricing_plan_id":"cebpf4jnsgd1na2vs0mg"},{"bike_id":"c5b350a9-e56a-46c3-9313-5356ff7cfa6c","system_id":"levelo_inurba_marseille","lat":43.31369,"lon":5.38501,"is_reserved":false,"is_disabled":false,"rental_uris":{"android":"levelo://app?vid=c5b350a9-e56a-46c3-9313-5356ff7cfa6c","ios":"levelo://app?vid=c5b350a9-e56a-46c3-9313-5356ff7cfa6c"},"vehicle_type_id":"4","last_reported":1743440922,"current_range_meters":12000,"station_id":"ce4bgt92rcd13ifvqcf0","pricing_plan_id":"cebpf4jnsgd1na2vs0mg"},{"bike_id":"8b1a702f-5339-4eda-b149-d28e35b55f44","system_id":"levelo_inurba_marseille","lat":43.27743,"lon":5.38853,"is_reserved":false,"is_disabled":false,"rental_uris":{"android":"levelo://app?vid=8b1a702f-5339-4eda-b149-d28e35b55f44","ios":"levelo://app?vid=8b1a702f-5339-4eda-b149-d28e35b55f44"},"vehicle_type_id":"4","last_reported":1743440922,"current_range_meters":12800,"station_id":"ce4bhl92rcd13ifvqghg","pricing_plan_id":"cebpf4jnsgd1na2vs0mg"},{"bike_id":"378c84e0-1c5a-4b2d-b6c6-01ab76688e08","system_id":"levelo_inurba_marseille","lat":43.26811,"lon":5.40272,"is_reserved":false,"is_disabled":false,"rental_uris":{"android":"levelo://app?vid=378c84e0-1c5a-4b2d-b6c6-01ab76688e08","ios":"levelo://app?vid=378c84e0-1c5a-4b2d-b6c6-01ab76688e08"},"vehicle_type_id":"4","last_reported":1743440922,"current_range_meters":12800,"station_id":"ce501612rcd8frsf0b60","pricing_plan_id":"cebpf4jnsgd1na2vs0mg"},{"bike_id":"b608855d-4db6-4537-ad42-2ce8a35d8326","system_id":"levelo_inurba_marseille","lat":43.28406,"lon":5.34989,"is_reserved":false,"is_disabled":false,"rental_uris":{"android":"levelo://app?vid=b608855d-4db6-4537-ad42-2ce8a35d8326","ios":"levelo://app?vid=b608855d-4db6-4537-ad42-2ce8a35d8326"},"vehicle_type_id":"4","last_reported":1743440922,"current_range_meters":12800,"station_id":"ce4bhbh2rcd13ifvqepg","pricing_plan_id":"cebpf4jnsgd1na2vs0mg"},{"bike_id":"78578be1-c693-4cbe-850c-eb09f09710fc","system_id":"levelo_inurba_marseille","lat":43.297054,"lon":5.37675,"is_reserved":false,"is_disabled":false,"rental_uris":{"android":"levelo://app?vid=78578be1-c693-4cbe-850c-eb09f09710fc","ios":"levelo://app?vid=78578be1-c693-4cbe-850c-eb09f09710fc"},"vehicle_type_id":"4","last_reported":1743440922,"current_range_meters":12800,"station_id":"ce4bgs12rcd13ifvqcag","pricing_plan_id":"cebpf4jnsgd1na2vs0mg"},{"bike_id":"32c116d0-ee62-493d-9417-2d53cb4f4209","system_id":"levelo_inurba_marseille","lat":43.23189,"lon":5.40003,"is_reserved":false,"is_disabled":false,"rental_uris":{"android":"levelo://app?vid=32c116d0-ee62-493d-9417-2d53cb4f4209","ios":"levelo://app?vid=32c116d0-ee62-493d-9417-2d53cb4f4209"},"vehicle_type_id":"4","last_reported":1743440922,"current_range_meters":12800,"station_id":"ce4bhn12rcd13ifvqgqg","pricing_plan_id":"cebpf4jnsgd1na2vs0mg"},{"bike_id":"1cee3218-e763-41ca-b2de-5e8ce8045b62","system_id":"levelo_inurba_marseille","lat":43.31707,"lon":5.37757,"is_reserved":false,"is_disabled":false,"rental_uris":{"android":"levelo://app?vid=1cee3218-e763-41ca-b2de-5e8ce8045b62","ios":"levelo://app?vid=1cee3218-e763-41ca-b2de-5e8ce8045b62"},"vehicle_type_id":"4","last_reported":1743440922,"current_range_meters":12800,"station_id":"ce4bgth2rcd13ifvqch0","pricing_plan_id":"cebpf4jnsgd1na2vs0mg"},{"bike_id":"0dd3a5d7-4b17-48d9-8e27-71d9609b80fa","system_id":"levelo_inurba_marseille","lat":43.28421,"lon":5.34995,"is_reserved":false,"is_disabled":false,"rental_uris":{"android":"levelo://app?vid=0dd3a5d7-4b17-48d9-8e27-71d9609b80fa","ios":"levelo://app?vid=0dd3a5d7-4b17-48d9-8e27-71d9609b80fa"},"vehicle_type_id":"4","last_reported":1743440922,"current_range_meters":13600,"station_id":"ce4bhbh2rcd13ifvqepg","pricing_plan_id":"cebpf4jnsgd1na2vs0mg"},{"bike_id":"ae384419-afb0-462d-a554-576b35e1296c","system_id":"levelo_inurba_marseille","lat":43.31365,"lon":5.3849,"is_reserved":false,"is_disabled":false,"rental_uris":{"android":"levelo://app?vid=ae384419-afb0-462d-a554-576b35e1296c","ios":"levelo://app?vid=ae384419-afb0-462d-a554-576b35e1296c"},"vehicle_type_id":"4","last_reported":1743440922,"current_range_meters":13600,"station_id":"ce4bgt92rcd13ifvqcf0","pricing_plan_id":"cebpf4jnsgd1na2vs0mg"},{"bike_id":"7a894edd-a4a4-40de-8b70-ca9fb3d5e3fd","system_id":"levelo_inurba_marseille","lat":43.31093,"lon":5.4245,"is_reserved":false,"is_disabled":false,"rental_uris":{"android":"levelo://app?vid=7a894edd-a4a4-40de-8b70-ca9fb3d5e3fd","ios":"levelo://app?vid=7a894edd-a4a4-40de-8b70-ca9fb3d5e3fd"},