{"last_updated":1751044166,"ttl":60,"version":"2.2","data":{"bikes":[{"bike_id":"3da29fb8-fc97-44c6-b9ac-31dd456b2fd4","system_id":"levelo_inurba_marseille","lat":43.33771,"lon":5.37424,"is_reserved":false,"is_disabled":true,"rental_uris":{"android":"levelo://app?vid=3da29fb8-fc97-44c6-b9ac-31dd456b2fd4","ios":"levelo://app?vid=3da29fb8-fc97-44c6-b9ac-31dd456b2fd4"},"vehicle_type_id":"4","last_reported":1751044166,"current_range_meters":0,"station_id":"","pricing_plan_id":"cebpf4jnsgd1na2vs0mg"},{"bike_id":"01861ad8-a8d7-4be6-816e-651927c87584","system_id":"levelo_inurba_marseille","lat":43.33751,"lon":5.37456,"is_reserved":false,"is_disabled":true,"rental_uris":{"android":"levelo://app?vid=01861ad8-a8d7-4be6-816e-651927c87584","ios":"levelo://app?vid=01861ad8-a8d7-4be6-816e-651927c87584"},"vehicle_type_id":"4","last_reported":1751044166,"current_range_meters":0,"station_id":"","pricing_plan_id":"cebpf4jnsgd1na2vs0mg"},{"bike_id":"a147e67d-e0b1-425e-bbda-ae9524df353e","system_id":"levelo_inurba_marseille","lat":43.337541,"lon":5.374577,"is_reserved":false,"is_disabled":true,"rental_uris":{"android":"levelo://app?vid=a147e67d-e0b1-425e-bbda-ae9524df353e","ios":"levelo://app?vid=a147e67d-e0b1-425e-bbda-ae9524df353e"},"vehicle_type_id":"4","last_reported":1751044166,"current_range_meters":0,"station_id":"","pricing_plan_id":"cebpf4jnsgd1na2vs0mg"},{"bike_id":"2c5ab5ef-6e3c-47bf-9405-4e96ff645858","system_id":"levelo_inurba_marseille","lat":43.34036,"lon":5.42896,"is_reserved":false,"is_disabled":true,"rental_uris":{"android":"levelo://app?vid=2c5ab5ef-6e3c-47bf-9405-4e96ff645858","ios":"levelo://app?vid=2c5ab5ef-6e3c-47bf-9405-4e96ff645858"},"vehicle_type_id":"4","last_reported":1751044166,"current_range_meters":0,"station_id":"","pricing_plan_id":"cebpf4jnsgd1na2vs0mg"},{"bike_id":"67a5051a-b32e-408a-8389-c22b54eb81f6","system_id":"levelo_inurba_marseille","lat":43.33039,"lon":5.45602,"is_reserved":false,"is_disabled":true,"rental_uris":{"android":"levelo://app?vid=67a5051a-b32e-408a-8389-c22b54eb81f6","ios":"levelo://app?vid=67a5051a-b32e-408a-8389-c22b54eb81f6"},"vehicle_type_id":"4","last_reported":1751044166,"current_range_meters":0,"station_id":"","pricing_plan_id":"cebpf4jnsgd1na2vs0mg"},{"bike_id":"4d064f95-6dcb-4234-9e98-7c70fbb74351","system_id":"levelo_inurba_marseille","lat":43.337444,"lon":5.374475,"is_reserved":false,"is_disabled":true,"rental_uris":{"android":"levelo://app?vid=4d064f95-6dcb-4234-9e98-7c70fbb74351","ios":"levelo://app?vid=4d064f95-6dcb-4234-9e98-7c70fbb74351"},"vehicle_type_id":"4","last_reported":1751044166,"current_range_meters":0,"station_id":"","pricing_plan_id":"cebpf4jnsgd1na2vs0mg"},{"bike_id":"446c66be-a677-44c2-9116-79a23398a824","system_id":"levelo_inurba_marseille","lat":43.276238,"lon":5.431872,"is_reserved":false,"is_disabled":true,"rental_uris":{"android":"levelo://app?vid=446c66be-a677-44c2-9116-79a23398a824","ios":"levelo://app?vid=446c66be-a677-44c2-9116-79a23398a824"},"vehicle_type_id":"4","last_reported":1751044166,"current_range_meters":0,"station_id":"","pricing_plan_id":"cebpf4jnsgd1na2vs0mg"},{"bike_id":"2315c627-494e-41a8-a12f-403d40de57ef","system_id":"levelo_inurba_marseille","lat":43.30155,"lon":5.40355,"is_reserved":false,"is_disabled":true,"rental_uris":{"android":"levelo://app?vid=2315c627-494e-41a8-a12f-403d40de57ef","ios":"levelo://app?vid=2315c627-494e-41a8-a12f-403d40de57ef"},"vehicle_type_id":"4","last_reported":1751044166,"current_range_meters":0,"station_id":"","pricing_plan_id":"cebpf4jnsgd1na2vs0mg"},{"bike_id":"a1ae4fee-cbeb-43dc-a969-5827f87e448d","system_id":"levelo_inurba_marseille","lat":43.38415,"lon":5.365308,"is_reserved":false,"is_disabled":true,"rental_uris":{"android":"levelo://app?vid=a1ae4fee-cbeb-43dc-a969-5827f87e448d","ios":"levelo://app?vid=a1ae4fee-cbeb-43dc-a969-5827f87e448d"},"vehicle_type_id":"4","last_reported":1751044166,"current_range_meters":0,"station_id":"","pricing_plan_id":"cebpf4jnsgd1na2vs0mg"},{"bike_id":"d6609b4f-333b-43c1-9ebe-8726f5e76e88","system_id":"levelo_inurba_marseille","lat":43.337444,"lon":5.374475,"is_reserved":false,"is_disabled":true,"rental_uris":{"android":"levelo://app?vid=d6609b4f-333b-43c1-9ebe-8726f5e76e88","ios":"levelo://app?vid=d6609b4f-333b-43c1-9ebe-8726f5e76e88"},"vehicle_type_id":"4","last_reported":1751044166,"current_range_meters":0,"station_id":"","pricing_plan_id":"cebpf4jnsgd1na2vs0mg"},{"bike_id":"14903f35-1eaf-4a5d-86c3-23007b361999","system_id":"levelo_inurba_marseille","lat":43.27064,"lon":5.42274,"is_reserved":false,"is_disabled":true,"rental_uris":{"android":"levelo://app?vid=14903f35-1eaf-4a5d-86c3-23007b361999","ios":"levelo://app?vid=14903f35-1eaf-4a5d-86c3-23007b361999"},"vehicle_type_id":"4","last_reported":1751044166,"current_range_meters":0,"station_id":"","pricing_plan_id":"cebpf4jnsgd1na2vs0mg"},{"bike_id":"bf027107-0fe5-47a2-8fef-6473f83bb647","system_id":"levelo_inurba_marseille","lat":43.32945,"lon":5.36414,"is_reserved":false,"is_disabled":true,"rental_uris":{"android":"levelo://app?vid=bf027107-0fe5-47a2-8fef-6473f83bb647","ios":"levelo://app?vid=bf027107-0fe5-47a2-8fef-6473f83bb647"},"vehicle_type_id":"4","last_reported":1751044166,"current_range_meters":0,"station_id":"","pricing_plan_id":"cebpf4jnsgd1na2vs0mg"},{"bike_id":"b17b6606-336a-4606-9b65-af139c49de26","system_id":"levelo_inurba_marseille","lat":43.25685,"lon":5.427,"is_reserved":false,"is_disabled":true,"rental_uris":{"android":"levelo://app?vid=b17b6606-336a-4606-9b65-af139c49de26","ios":"levelo://app?vid=b17b6606-336a-4606-9b65-af139c49de26"},"vehicle_type_id":"4","last_reported":1751044166,"current_range_meters":0,"station_id":"","pricing_plan_id":"cebpf4jnsgd1na2vs0mg"},{"bike_id":"9d3724b1-0dc8-4689-9d6a-55005a9503cb","system_id":"levelo_inurba_marseille","lat":43.28621,"lon":5.42821,"is_reserved":false,"is_disabled":true,"rental_uris":{"android":"levelo://app?vid=9d3724b1-0dc8-4689-9d6a-55005a9503cb","ios":"levelo://app?vid=9d3724b1-0dc8-4689-9d6a-55005a9503cb"},"vehicle_type_id":"4","last_reported":1751044166,"current_range_meters":0,"station_id":"","pricing_plan_id":"cebpf4jnsgd1na2vs0mg"},{"bike_id":"ce774a04-a4be-4eca-a30f-78eb921955bd","system_id":"levelo_inurba_marseille","lat":43.33942,"lon":5.35615,"is_reserved":false,"is_disabled":true,"rental_uris":{"android":"levelo://app?vid=ce774a04-a4be-4eca-a30f-78eb921955bd","ios":"levelo://app?vid=ce774a04-a4be-4eca-a30f-78eb921955bd"},"vehicle_type_id":"4","last_reported":1751044166,"current_range_meters":0,"station_id":"","pricing_plan_id":"cebpf4jnsgd1na2vs0mg"},{"bike_id":"f29f67a6-b1ac-43e4-82b0-10c1eaafb3d7","system_id":"levelo_inurba_marseille","lat":43.2957,"lon":5.37537,"is_reserved":false,"is_disabled":true,"rental_uris":{"android":"levelo://app?vid=f29f67a6-b1ac-43e4-82b0-10c1eaafb3d7","ios":"levelo://app?vid=f29f67a6-b1ac-43e4-82b0-10c1eaafb3d7"},"vehicle_type_id":"4","last_reported":1751044166,"current_range_meters":0,"station_id":"ce4bgh92rcd13ifvqb50","pricing_plan_id":"cebpf4jnsgd1na2vs0mg"},{"bike_id":"1cb86766-02c6-4234-9d8f-ae5c114bdc0c","system_id":"levelo_inurba_marseille","lat":43.31377,"lon":5.38493,"is_reserved":false,"is_disabled":true,"rental_uris":{"android":"levelo://app?vid=1cb86766-02c6-4234-9d8f-ae5c114bdc0c","ios":"levelo://app?vid=1cb86766-02c6-4234-9d8f-ae5c114bdc0c"},"vehicle_type_id":"4","last_reported":1751044166,"current_range_meters":0,"station_id":"ce4bgt92rcd13ifvqcf0","pricing_plan_id":"cebpf4jnsgd1na2vs0mg"},{"bike_id":"caa58025-92e3-4584-97f3-16283be9f0bb","system_id":"levelo_inurba_marseille","lat":43.305333,"lon":5.377127,"is_reserved":false,"is_disabled":true,"rental_uris":{"android":"levelo://app?vid=caa58025-92e3-4584-97f3-16283be9f0bb","ios":"levelo://app?vid=caa58025-92e3-4584-97f3-16283be9f0bb"},"vehicle_type_id":"4","last_reported":1751044166,"current_range_meters":0,"station_id":"ce4bgup2rcd13ifvqcn0","pricing_plan_id":"cebpf4jnsgd1na2vs0mg"},{"bike_id":"1ddbf4c9-66c0-4dff-93ff-70e33af0dd8e","system_id":"levelo_inurba_marseille","lat":43.30887,"lon":5.39649,"is_reserved":false,"is_disabled":true,"rental_uris":{"android":"levelo://app?vid=1ddbf4c9-66c0-4dff-93ff-70e33af0dd8e","ios":"levelo://app?vid=1ddbf4c9-66c0-4dff-93ff-70e33af0dd8e"},"vehicle_type_id":"4","last_reported":1751044166,"current_range_meters":0,"station_id":"ce4bh012rcd13ifvqcv0","pricing_plan_id":"cebpf4jnsgd1na2vs0mg"},{"bike_id":"0dcc7f93-57c9-4448-8712-33bf9f8c219f","system_id":"levelo_inurba_marseille","lat":43.28948,"lon":5.3663,"is_reserved":false,"is_disabled":true,"rental_uris":{"android":"levelo://app?vid=0dcc7f93-57c9-4448-8712-33bf9f8c219f","ios":"levelo://app?vid=0dcc7f93-57c9-4448-8712-33bf9f8c219f"},"vehicle_type_id":"4","last_reported":1751044166,"current_range_meters":0,"station_id":"ce4bhap2rcd13ifvqek0","pricing_plan_id":"cebpf4jnsgd1na2vs0mg"},{"bike_id":"696adb24-e00d-4882-bff6-5f284cb252af","system_id":"levelo_inurba_marseille","lat":43.290059,"lon":5.356177,"is_reserved":false,"is_disabled":true,"rental_uris":{"android":"levelo://app?vid=696adb24-e00d-4882-bff6-5f284cb252af","ios":"levelo://app?vid=696adb24-e00d-4882-bff6-5f284cb252af"},"vehicle_type_id":"4","last_reported":1751044166,"current_range_meters":0,"station_id":"ce4bhb92rcd13ifvqen0","pricing_plan_id":"cebpf4jnsgd1na2vs0mg"},{"bike_id":"271a5da5-4035-470a-ba7c-aa58268e9930","system_id":"levelo_inurba_marseille","lat":43.217445,"lon":5.346033,"is_reserved":false,"is_disabled":true,"rental_uris":{"android":"levelo://app?vid=271a5da5-4035-470a-ba7c-aa58268e9930","ios":"levelo://app?vid=271a5da5-4035-470a-ba7c-aa58268e9930"},"vehicle_type_id":"4","last_reported":1751044166,"current_range_meters":0,"station_id":"ce4bhgh2rcd13ifvqfb0","pricing_plan_id":"cebpf4jnsgd1na2vs0mg"},{"bike_id":"02fca437-60e6-4ea0-82e3-a5f017227517","system_id":"levelo_inurba_marseille","lat":43.25492,"lon":5.37647,"is_reserved":false,"is_disabled":true,"rental_uris":{"android":"levelo://app?vid=02fca437-60e6-4ea0-82e3-a5f017227517","ios":"levelo://app?vid=02fca437-60e6-4ea0-82e3-a5f017227517"},"vehicle_type_id":"4","last_reported":1751044166,"current_range_meters":0,"station_id":"ce4bhh12rcd13ifvqff0","pricing_plan_id":"cebpf4jnsgd1na2vs0mg"},{"bike_id":"bfa3469a-b881-46cb-b620-b165fe00f26d","system_id":"levelo_inurba_marseille","lat":43.27573,"lon":5.3843,"is_reserved":false,"is_disabled":true,"rental_uris":{"android":"levelo://app?vid=bfa3469a-b881-46cb-b620-b165fe00f26d","ios":"levelo://app?vid=bfa3469a-b881-46cb-b620-b165fe00f26d"},"vehicle_type_id":"4","last_reported":1751044166,"current_range_meters":0,"station_id":"ce4bhh92rcd13ifvqfi0","pricing_plan_id":"cebpf4jnsgd1na2vs0mg"},{"bike_id":"5f45c0cd-7c14-4432-a52b-256747ea0cfa","system_id":"levelo_inurba_marseille","lat":43.24385,"lon":5.37055,"is_reserved":false,"is_disabled":true,"rental_uris":{"android":"levelo://app?vid=5f45c0cd-7c14-4432-a52b-256747ea0cfa","ios":"levelo://app?vid=5f45c0cd-7c14-4432-a52b-256747ea0cfa"},"vehicle_type_id":"4","last_reported":1751044166,"current_range_meters":0,"station_id":"ce4bhhh2rcd13ifvqfk0","pricing_plan_id":"cebpf4jnsgd1na2vs0mg"},{"bike_id":"30bb9d53-7376-4f86-add9-e2335b971f1f","system_id":"levelo_inurba_marseille","lat":43.27996,"lon":5.400093,"is_reserved":false,"is_disabled":true,"rental_uris":{"android":"levelo://app?vid=30bb9d53-7376-4f86-add9-e2335b971f1f","ios":"levelo://app?vid=30bb9d53-7376-4f86-add9-e2335b971f1f"},"vehicle_type_id":"4","last_reported":1751044166,"current_range_meters":0,"station_id":"ce4bho92rcd13ifvqh4g","pricing_plan_id":"cebpf4jnsgd1na2vs0mg"},{"bike_id":"b644e4ca-4aaa-4220-a6b2-f15d96813b69","system_id":"levelo_inurba_marseille","lat":43.33722,"lon":5.39189,"is_reserved":false,"is_disabled":true,"rental_uris":{"android":"levelo://app?vid=b644e4ca-4aaa-4220-a6b2-f15d96813b69","ios":"levelo://app?vid=b644e4ca-4aaa-4220-a6b2-f15d96813b69"},"vehicle_type_id":"4","last_reported":1751044166,"current_range_meters":0,"station_id":"ce4bhr92rcd13ifvqhsg","pricing_plan_id":"cebpf4jnsgd1na2vs0mg"},{"bike_id":"be0eb6d6-7d0b-434b-bfdf-dc812bd192cb","system_id":"levelo_inurba_marseille","lat":43.323593,"lon":5.367601,"is_reserved":false,"is_disabled":true,"rental_uris":{"android":"levelo://app?vid=be0eb6d6-7d0b-434b-bfdf-dc812bd192cb","ios":"levelo://app?vid=be0eb6d6-7d0b-434b-bfdf-dc812bd192cb"},"vehicle_type_id":"4","last_reported":1751044166,"current_range_meters":0,"station_id":"ce4bhsh2rcd13ifvqi2g","pricing_plan_id":"cebpf4jnsgd1na2vs0mg"},{"bike_id":"f3ca516f-3553-42cc-873a-e59d9c8bf532","system_id":"levelo_inurba_marseille","lat":43.2306,"lon":5.35488,"is_reserved":false,"is_disabled":true,"rental_uris":{"android":"levelo://app?vid=f3ca516f-3553-42cc-873a-e59d9c8bf532","ios":"levelo://app?vid=f3ca516f-3553-42cc-873a-e59d9c8bf532"},"vehicle_type_id":"4","last_reported":1751044166,"current_range_meters":0,"station_id":"cpo3342slgdg3j2ifvpg","pricing_plan_id":"cebpf4jnsgd1na2vs0mg"},{"bike_id":"29ec4185-f87e-45a2-91e6-759a1d934b1c","system_id":"levelo_inurba_marseille","lat":43.21751,"lon":5.34597,"is_reserved":false,"is_disabled":true,"rental_uris":{"android":"levelo://app?vid=29ec4185-f87e-45a2-91e6-759a1d934b1c","ios":"levelo://app?vid=29ec4185-f87e-45a2-91e6-759a1d934b1c"},"vehicle_type_id":"4","last_reported":1751044166,"current_range_meters":0,"station_id":"st_cvj6r9ubvosntc0bgbag","pricing_plan_id":"cebpf4jnsgd1na2vs0mg"},{"bike_id":"a86d2f9f-83d8-4f17-8422-d08e982c4a2a","system_id":"levelo_inurba_marseille","lat":43.29735,"lon":5.44891,"is_reserved":false,"is_disabled":true,"rental_uris":{"android":"levelo://app?vid=a86d2f9f-83d8-4f17-8422-d08e982c4a2a","ios":"levelo://app?vid=a86d2f9f-83d8-4f17-8422-d08e982c4a2a"},"vehicle_type_id":"4","last_reported":1751044166,"current_range_meters":400,"station_id":"","pricing_plan_id":"cebpf4jnsgd1na2vs0mg"},{"bike_id":"6cd925f8-1238-4cfc-8439-6cf9b3d4b18a","system_id":"levelo_inurba_marseille","lat":43.29035,"lon":5.3997,"is_reserved":false,"is_disabled":true,"rental_uris":{"android":"levelo://app?vid=6cd925f8-1238-4cfc-8439-6cf9b3d4b18a","ios":"levelo://app?vid=6cd925f8-1238-4cfc-8439-6cf9b3d4b18a"},"vehicle_type_id":"4","last_reported":1751044166,"current_range_meters":400,"station_id":"ce4bh392rcd13ifvqdm0","pricing_plan_id":"cebpf4jnsgd1na2vs0mg"},{"bike_id":"deb8fdd9-0686-4417-a13b-e156b0a4c624","system_id":"levelo_inurba_marseille","lat":43.292805,"lon":5.36845,"is_reserved":false,"is_disabled":true,"rental_uris":{"android":"levelo://app?vid=deb8fdd9-0686-4417-a13b-e156b0a4c624","ios":"levelo://app?vid=deb8fdd9-0686-4417-a13b-e156b0a4c624"},"vehicle_type_id":"4","last_reported":1751044166,"current_range_meters":400,"station_id":"ce4bhbp2rcd13ifvqesg","pricing_plan_id":"cebpf4jnsgd1na2vs0mg"},{"bike_id":"a3b94165-d13e-44fc-83db-3db45aa114db","system_id":"levelo_inurba_marseille","lat":43.25502,"lon":5.3764,"is_reserved":false,"is_disabled":true,"rental_uris":{"android":"levelo://app?vid=a3b94165-d13e-44fc-83db-3db45aa114db","ios":"levelo://app?vid=a3b94165-d13e-44fc-83db-3db45aa114db"},"vehicle_type_id":"4","last_reported":1751044166,"current_range_meters":400,"station_id":"ce4bhh12rcd13ifvqff0","pricing_plan_id":"cebpf4jnsgd1na2vs0mg"},{"bike_id":"1eea72cf-6f31-4b9d-85b7-f74a6ef38e5a","system_id":"levelo_inurba_marseille","lat":43.24387,"lon":5.37062,"is_reserved":false,"is_disabled":true,"rental_uris":{"android":"levelo://app?vid=1eea72cf-6f31-4b9d-85b7-f74a6ef38e5a","ios":"levelo://app?vid=1eea72cf-6f31-4b9d-85b7-f74a6ef38e5a"},"vehicle_type_id":"4","last_reported":1751044166,"current_range_meters":400,"station_id":"ce4bhhh2rcd13ifvqfk0","pricing_plan_id":"cebpf4jnsgd1na2vs0mg"},{"bike_id":"a7783f43-fb62-47f3-8ec6-b33e676e2cea","system_id":"levelo_inurba_marseille","lat":43.27046,"lon":5.40282,"is_reserved":false,"is_disabled":true,"rental_uris":{"android":"levelo://app?vid=a7783f43-fb62-47f3-8ec6-b33e676e2cea","ios":"levelo://app?vid=a7783f43-fb62-47f3-8ec6-b33e676e2cea"},"vehicle_type_id":"4","last_reported":1751044166,"current_range_meters":400,"station_id":"ce4bhk92rcd13ifvqgc0","pricing_plan_id":"cebpf4jnsgd1na2vs0mg"},{"bike_id":"a75d4f69-38bf-4039-b046-6f30f16325af","system_id":"levelo_inurba_marseille","lat":43.34153,"lon":5.40901,"is_reserved":false,"is_disabled":true,"rental_uris":{"android":"levelo://app?vid=a75d4f69-38bf-4039-b046-6f30f16325af","ios":"levelo://app?vid=a75d4f69-38bf-4039-b046-6f30f16325af"},"vehicle_type_id":"4","last_reported":1751044166,"current_range_meters":400,"station_id":"ce4bhqh2rcd13ifvqhlg","pricing_plan_id":"cebpf4jnsgd1na2vs0mg"},{"bike_id":"7fa6dbf9-3ef2-43c9-be6e-7979b0899170","system_id":"levelo_inurba_marseille","lat":43.303728,"lon":5.424889,"is_reserved":false,"is_disabled":true,"rental_uris":{"android":"levelo://app?vid=7fa6dbf9-3ef2-43c9-be6e-7979b0899170","ios":"levelo://app?vid=7fa6dbf9-3ef2-43c9-be6e-7979b0899170"},"vehicle_type_id":"4","last_reported":1751044166,"current_range_meters":800,"station_id":"","pricing_plan_id":"cebpf4jnsgd1na2vs0mg"},{"bike_id":"4e2af658-5ad8-4d48-8517-f6ef9accd081","system_id":"levelo_inurba_marseille","lat":43.30147,"lon":5.38085,"is_reserved":false,"is_disabled":true,"rental_uris":{"android":"levelo://app?vid=4e2af658-5ad8-4d48-8517-f6ef9accd081","ios":"levelo://app?vid=4e2af658-5ad8-4d48-8517-f6ef9accd081"},"vehicle_type_id":"4","last_reported":1751044166,"current_range_meters":800,"station_id":"ce4bgjp2rcd13ifvqbh0","pricing_plan_id":"cebpf4jnsgd1na2vs0mg"},{"bike_id":"ea1c9d47-db7c-4094-839f-a667aa6767b8","system_id":"levelo_inurba_marseille","lat":43.28935,"lon":5.38411,"is_reserved":false,"is_disabled":true,"rental_uris":{"android":"levelo://app?vid=ea1c9d47-db7c-4094-839f-a667aa6767b8","ios":"levelo://app?vid=ea1c9d47-db7c-4094-839f-a667aa6767b8"},"vehicle_type_id":"4","last_reported":1751044166,"current_range_meters":800,"station_id":"ce4bh612rcd13ifvqe6g","pricing_plan_id":"cebpf4jnsgd1na2vs0mg"},{"bike_id":"c7bee11f-683e-4a01-af68-585fed47b880","system_id":"levelo_inurba_marseille","lat":43.24797,"lon":5.37448,"is_reserved":false,"is_disabled":true,"rental_uris":{"android":"levelo://app?vid=c7bee11f-683e-4a01-af68-585fed47b880","ios":"levelo://app?vid=c7bee11f-683e-4a01-af68-585fed47b880"},"vehicle_type_id":"4","last_reported":1751044166,"current_range_meters":800,"station_id":"ce4bhgh2rcd13ifvqfb0","pricing_plan_id":"cebpf4jnsgd1na2vs0mg"},{"bike_id":"91fe820b-1590-4d27-9bb8-1937a8cfd73d","system_id":"levelo_inurba_marseille","lat":43.31243,"lon":5.36868,"is_reserved":false,"is_disabled":true,"rental_uris":{"android":"levelo://app?vid=91fe820b-1590-4d27-9bb8-1937a8cfd73d","ios":"levelo://app?vid=91fe820b-1590-4d27-9bb8-1937a8cfd73d"},"vehicle_type_id":"4","last_reported":1751044166,"current_range_meters":1200,"station_id":"ce4bgl92rcd13ifvqbq0","pricing_plan_id":"cebpf4jnsgd1na2vs0mg"},{"bike_id":"fac5fdc4-cba2-421f-aab7-33aa9804c3da","system_id":"levelo_inurba_marseille","lat":43.30608,"lon":5.37222,"is_reserved":false,"is_disabled":true,"rental_uris":{"android":"levelo://app?vid=fac5fdc4-cba2-421f-aab7-33aa9804c3da","ios":"levelo://app?vid=fac5fdc4-cba2-421f-aab7-33aa9804c3da"},"vehicle_type_id":"4","last_reported":1751044166,"current_range_meters":1200,"station_id":"ce4bgqh2rcd13ifvqc4g","pricing_plan_id":"cebpf4jnsgd1na2vs0mg"},{"bike_id":"3c9e44a4-3135-4ef2-81b5-b6101be77e5e","system_id":"levelo_inurba_marseille","lat":43.298,"lon":5.40405,"is_reserved":false,"is_disabled":true,"rental_uris":{"android":"levelo://app?vid=3c9e44a4-3135-4ef2-81b5-b6101be77e5e","ios":"levelo://app?vid=3c9e44a4-3135-4ef2-81b5-b6101be77e5e"},"vehicle_type_id":"4","last_reported":1751044166,"current_range_meters":1200,"station_id":"ce4bh112rcd13ifvqd90","pricing_plan_id":"cebpf4jnsgd1na2vs0mg"},{"bike_id":"1151eca3-9336-4465-86dc-5dc5a5ca10df","system_id":"levelo_inurba_marseille","lat":43.292577,"lon":5.384455,"is_reserved":false,"is_disabled":true,"rental_uris":{"android":"levelo://app?vid=1151eca3-9336-4465-86dc-5dc5a5ca10df","ios":"levelo://app?vid=1151eca3-9336-4465-86dc-5dc5a5ca10df"},"vehicle_type_id":"4","last_reported":1751044166,"current_range_meters":1200,"station_id":"ce4bh692rcd13ifvqea0","pricing_plan_id":"cebpf4jnsgd1na2vs0mg"},{"bike_id":"5a1c810b-f642-4906-b91b-a133351dc1ff","system_id":"levelo_inurba_marseille","lat":43.26782,"lon":5.39417,"is_reserved":false,"is_disabled":true,"rental_uris":{"android":"levelo://app?vid=5a1c810b-f642-4906-b91b-a133351dc1ff","ios":"levelo://app?vid=5a1c810b-f642-4906-b91b-a133351dc1ff"},"vehicle_type_id":"4","last_reported":1751044166,"current_range_meters":1200,"station_id":"ce4bhh12rcd13ifvqfg0","pricing_plan_id":"cebpf4jnsgd1na2vs0mg"},{"bike_id":"1621b522-7cb1-4b03-8dfd-8b6a858e80e4","system_id":"levelo_inurba_marseille","lat":43.2315,"lon":5.4372,"is_reserved":false,"is_disabled":true,"rental_uris":{"android":"levelo://app?vid=1621b522-7cb1-4b03-8dfd-8b6a858e80e4","ios":"levelo://app?vid=1621b522-7cb1-4b03-8dfd-8b6a858e80e4"},"vehicle_type_id":"4","last_reported":1751044166,"current_range_meters":1200,"station_id":"ce4bhmp2rcd13ifvqgog","pricing_plan_id":"cebpf4jnsgd1na2vs0mg"},{"bike_id":"37ffa4ef-6ac1-4c76-b248-d69ed2e118c7","system_id":"levelo_inurba_marseille","lat":43.286987,"lon":5.399915,"is_reserved":false,"is_disabled":true,"rental_uris":{"android":"levelo://app?vid=37ffa4ef-6ac1-4c76-b248-d69ed2e118c7","ios":"levelo://app?vid=37ffa4ef-6ac1-4c76-b248-d69ed2e118c7"},"vehicle_type_id":"4","last_reported":1751044166,"current_range_meters":1200,"station_id":"ce4bho92rcd13ifvqh3g","pricing_plan_id":"cebpf4jnsgd1na2vs0mg"},{"bike_id":"72b7c7ff-c86e-4cb8-84d3-f88a243c0279","system_id":"levelo_inurba_marseille","lat":43.30607,"lon":5.37232,"is_reserved":false,"is_disabled":true,"rental_uris":{"android":"levelo://app?vid=72b7c7ff-c86e-4cb8-84d3-f88a243c0279","ios":"levelo://app?vid=72b7c7ff-c86e-4cb8-84d3-f88a243c0279"},"vehicle_type_id":"4","last_reported":1751044166,"current_range_meters":1600,"station_id":"ce4bgqh2rcd13ifvqc4g","pricing_plan_id":"cebpf4jnsgd1na2vs0mg"},{"bike_id":"908c9b98-37ae-4c35-b27f-cecb61c5c951","system_id":"levelo_inurba_marseille","lat":43.28568,"lon":5.39483,"is_reserved":false,"is_disabled":true,"rental_uris":{"android":"levelo://app?vid=908c9b98-37ae-4c35-b27f-cecb61c5c951","ios":"levelo://app?vid=908c9b98-37ae-4c35-b27f-cecb61c5c951"},"vehicle_type_id":"4","last_reported":1751044166,"current_range_meters":1600,"station_id":"ce4bh292rcd13ifvqdg0","pricing_plan_id":"cebpf4jnsgd1na2vs0mg"},{"bike_id":"f733c061-b9b3-4b5a-bb1b-3be15902fe99","system_id":"levelo_inurba_marseille","lat":43.28855,"lon":5.39308,"is_reserved":false,"is_disabled":true,"rental_uris":{"android":"levelo://app?vid=f733c061-b9b3-4b5a-bb1b-3be15902fe99","ios":"levelo://app?vid=f733c061-b9b3-4b5a-bb1b-3be15902fe99"},"vehicle_type_id":"4","last_reported":1751044166,"current_range_meters":1600,"station_id":"ce4bh2p2rcd13ifvqdi0","pricing_plan_id":"cebpf4jnsgd1na2vs0mg"},{"bike_id":"68790da7-6180-4101-b6b8-339df37b4934","system_id":"levelo_inurba_marseille","lat":43.28928,"lon":5.38408,"is_reserved":false,"is_disabled":true,"rental_uris":{"android":"levelo://app?vid=68790da7-6180-4101-b6b8-339df37b4934","ios":"levelo://app?vid=68790da7-6180-4101-b6b8-339df37b4934"},"vehicle_type_id":"4","last_reported":1751044166,"current_range_meters":1600,"station_id":"ce4bh612rcd13ifvqe6g","pricing_plan_id":"cebpf4jnsgd1na2vs0mg"},{"bike_id":"db72f854-e4f4-4e0f-a813-d7d4edcf612b","system_id":"levelo_inurba_marseille","lat":43.286072,"lon":5.351122,"is_reserved":false,"is_disabled":true,"rental_uris":{"android":"levelo://app?vid=db72f854-e4f4-4e0f-a813-d7d4edcf612b","ios":"levelo://app?vid=db72f854-e4f4-4e0f-a813-d7d4edcf612b"},"vehicle_type_id":"4","last_reported":1751044166,"current_range_meters":1600,"station_id":"ce4bhch2rcd13ifvqeug","pricing_plan_id":"cebpf4jnsgd1na2vs0mg"},{"bike_id":"147d06c5-db29-4b7c-9247-26c170d81740","system_id":"levelo_inurba_marseille","lat":43.27913,"lon":5.38018,"is_reserved":false,"is_disabled":true,"rental_uris":{"android":"levelo://app?vid=147d06c5-db29-4b7c-9247-26c170d81740","ios":"levelo://app?vid=147d06c5-db29-4b7c-9247-26c170d81740"},"vehicle_type_id":"4","last_reported":1751044166,"current_range_meters":1600,"station_id":"ce4bhf92rcd13ifvqf50","pricing_plan_id":"cebpf4jnsgd1na2vs0mg"},{"bike_id":"1f4b66ce-07c4-4737-9276-51bf7f97cb14","system_id":"levelo_inurba_marseille","lat":43.23051,"lon":5.35499,"is_reserved":false,"is_disabled":true,"rental_uris":{"android":"levelo://app?vid=1f4b66ce-07c4-4737-9276-51bf7f97cb14","ios":"levelo://app?vid=1f4b66ce-07c4-4737-9276-51bf7f97cb14"},"vehicle_type_id":"4","last_reported":1751044166,"current_range_meters":1600,"station_id":"cpo3342slgdg3j2ifvpg","pricing_plan_id":"cebpf4jnsgd1na2vs0mg"},{"bike_id":"26a14eba-87a9-47b8-9607-30bd0042d428","system_id":"levelo_inurba_marseille","lat":43.31463,"lon":5.39437,"is_reserved":false,"is_disabled":true,"rental_uris":{"android":"levelo://app?vid=26a14eba-87a9-47b8-9607-30bd0042d428","ios":"levelo://app?vid=26a14eba-87a9-47b8-9607-30bd0042d428"},"vehicle_type_id":"4","last_reported":1751044166,"current_range_meters":2000,"station_id":"","pricing_plan_id":"cebpf4jnsgd1na2vs0mg"},{"bike_id":"3e5d0ae7-bac3-40ea-95d2-50ef1aae7bc7","system_id":"levelo_inurba_marseille","lat":43.26836,"lon":5.41592,"is_reserved":false,"is_disabled":true,"rental_uris":{"android":"levelo://app?vid=3e5d0ae7-bac3-40ea-95d2-50ef1aae7bc7","ios":"levelo://app?vid=3e5d0ae7-bac3-40ea-95d2-50ef1aae7bc7"},"vehicle_type_id":"4","last_reported":1751044166,"current_range_meters":2000,"station_id":"","pricing_plan_id":"cebpf4jnsgd1na2vs0mg"},{"bike_id":"8c2742d7-c4f1-4efd-bb5a-16367931e664","system_id":"levelo_inurba_marseille","lat":43.30912,"lon":5.36844,"is_reserved":false,"is_disabled":true,"rental_uris":{"android":"levelo://app?vid=8c2742d7-c4f1-4efd-bb5a-16367931e664","ios":"levelo://app?vid=8c2742d7-c4f1-4efd-bb5a-16367931e664"},"vehicle_type_id":"4","last_reported":1751044166,"current_range_meters":2000,"station_id":"ce4bgn92rcd13ifvqbvg","pricing_plan_id":"cebpf4jnsgd1na2vs0mg"},{"bike_id":"ab10b6a9-3f95-49b2-b1d0-584795a414b4","system_id":"levelo_inurba_marseille","lat":43.30554,"lon":5.36559,"is_reserved":false,"is_disabled":true,"rental_uris":{"android":"levelo://app?vid=ab10b6a9-3f95-49b2-b1d0-584795a414b4","ios":"levelo://app?vid=ab10b6a9-3f95-49b2-b1d0-584795a414b4"},"vehicle_type_id":"4","last_reported":1751044166,"current_range_meters":2000,"station_id":"ce4bgs12rcd13ifvqcag","pricing_plan_id":"cebpf4jnsgd1na2vs0mg"},{"bike_id":"c11e786f-b17f-49f0-8fe6-90eef98238cc","system_id":"levelo_inurba_marseille","lat":43.29805,"lon":5.404,"is_reserved":false,"is_disabled":true,"rental_uris":{"android":"levelo://app?vid=c11e786f-b17f-49f0-8fe6-90eef98238cc","ios":"levelo://app?vid=c11e786f-b17f-49f0-8fe6-90eef98238cc"},"vehicle_type_id":"4","last_reported":1751044166,"current_range_meters":2000,"station_id":"ce4bh112rcd13ifvqd90","pricing_plan_id":"cebpf4jnsgd1na2vs0mg"},{"bike_id":"735a72b0-68e9-40a1-8243-cd92509b31c8","system_id":"levelo_inurba_marseille","lat":43.291,"lon":5.38143,"is_reserved":false,"is_disabled":true,"rental_uris":{"android":"levelo://app?vid=735a72b0-68e9-40a1-8243-cd92509b31c8","ios":"levelo://app?vid=735a72b0-68e9-40a1-8243-cd92509b31c8"},"vehicle_type_id":"4","last_reported":1751044166,"current_range_meters":2000,"station_id":"ce4bh512rcd13ifvqe2g","pricing_plan_id":"cebpf4jnsgd1na2vs0mg"},{"bike_id":"06da6ed7-e6b4-474c-aaa4-4f2eb7ac9d5d","system_id":"levelo_inurba_marseille","lat":43.29187,"lon":5.37152,"is_reserved":false,"is_disabled":true,"rental_uris":{"android":"levelo://app?vid=06da6ed7-e6b4-474c-aaa4-4f2eb7ac9d5d","ios":"levelo://app?vid=06da6ed7-e6b4-474c-aaa4-4f2eb7ac9d5d"},"vehicle_type_id":"4","last_reported":1751044166,"current_range_meters":2000,"station_id":"ce4bha92rcd13ifvqeh0","pricing_plan_id":"cebpf4jnsgd1na2vs0mg"},{"bike_id":"5149d896-9506-413a-9765-dff6b442e577","system_id":"levelo_inurba_marseille","lat":43.29273,"lon":5.36839,"is_reserved":false,"is_disabled":true,"rental_uris":{"android":"levelo://app?vid=5149d896-9506-413a-9765-dff6b442e577","ios":"levelo://app?vid=5149d896-9506-413a-9765-dff6b442e577"},"vehicle_type_id":"4","last_reported":1751044166,"current_range_meters":2000,"station_id":"ce4bhbp2rcd13ifvqesg","pricing_plan_id":"cebpf4jnsgd1na2vs0mg"},{"bike_id":"4046a7f2-170d-4bc6-97a3-5fd8ae4919cb","system_id":"levelo_inurba_marseille","lat":43.32292,"lon":5.38269,"is_reserved":false,"is_disabled":true,"rental_uris":{"android":"levelo://app?vid=4046a7f2-170d-4bc6-97a3-5fd8ae4919cb","ios":"levelo://app?vid=4046a7f2-170d-4bc6-97a3-5fd8ae4919cb"},"vehicle_type_id":"4","last_reported":1751044166,"current_range_meters":2000,"station_id":"ce4bhr12rcd13ifvqhqg","pricing_plan_id":"cebpf4jnsgd1na2vs0mg"},{"bike_id":"c24acd5a-be6a-4065-95ce-a197272d712d","system_id":"levelo_inurba_marseille","lat":43.284088,"lon":5.375166,"is_reserved":false,"is_disabled":true,"rental_uris":{"android":"levelo://app?vid=c24acd5a-be6a-4065-95ce-a197272d712d","ios":"levelo://app?vid=c24acd5a-be6a-4065-95ce-a197272d712d"},"vehicle_type_id":"4","last_reported":1751044166,"current_range_meters":2000,"station_id":"ce501612rcd8frsf0b60","pricing_plan_id":"cebpf4jnsgd1na2vs0mg"},{"bike_id":"af112b62-19de-41d4-b8d7-e14d0172315d","system_id":"levelo_inurba_marseille","lat":43.326682,"lon":5.392659,"is_reserved":false,"is_disabled":false,"rental_uris":{"android":"levelo://app?vid=af112b62-19de-41d4-b8d7-e14d0172315d","ios":"levelo://app?vid=af112b62-19de-41d4-b8d7-e14d0172315d"},"vehicle_type_id":"4","last_reported":1751044166,"current_range_meters":2800,"station_id":"","pricing_plan_id":"cebpf4jnsgd1na2vs0mg"},{"bike_id":"9ce852fe-9449-4c16-b29b-642a7abdbbbf","system_id":"levelo_inurba_marseille","lat":43.27396,"lon":5.36211,"is_reserved":false,"is_disabled":false,"rental_uris":{"android":"levelo://app?vid=9ce852fe-9449-4c16-b29b-642a7abdbbbf","ios":"levelo://app?vid=9ce852fe-9449-4c16-b29b-642a7abdbbbf"},"vehicle_type_id":"4","last_reported":1751044166,"current_range_meters":3600,"station_id":"","pricing_plan_id":"cebpf4jnsgd1na2vs0mg"},{"bike_id":"83a4613c-2f5f-4bbf-a25c-27bcb398fa78","system_id":"levelo_inurba_marseille","lat":43.2816,"lon":5.42662,"is_reserved":false,"is_disabled":false,"rental_uris":{"android":"levelo://app?vid=83a4613c-2f5f-4bbf-a25c-27bcb398fa78","ios":"levelo://app?vid=83a4613c-2f5f-4bbf-a25c-27bcb398fa78"},"vehicle_type_id":"4","last_reported":1751044166,"current_range_meters":3600,"station_id":"ce4bhnh2rcd13ifvqgug","pricing_plan_id":"cebpf4jnsgd1na2vs0mg"},{"bike_id":"011b0d4e-f32e-4e04-befc-b5e1f4c48fb2","system_id":"levelo_inurba_marseille","lat":43.30391,"lon":5.42473,"is_reserved":false,"is_disabled":false,"rental_uris":{"android":"levelo://app?vid=011b0d4e-f32e-4e04-befc-b5e1f4c48fb2","ios":"levelo://app?vid=011b0d4e-f32e-4e04-befc-b5e1f4c48fb2"},"vehicle_type_id":"4","last_reported":1751044166,"current_range_meters":3600,"station_id":"ce4bhoh2rcd13ifvqh6g","pricing_plan_id":"cebpf4jnsgd1na2vs0mg"},{"bike_id":"e4594e54-d1ce-4b3c-99c0-1bec67a21327","system_id":"levelo_inurba_marseille","lat":43.299015,"lon":5.38487,"is_reserved":false,"is_disabled":false,"rental_uris":{"android":"levelo://app?vid=e4594e54-d1ce-4b3c-99c0-1bec67a21327","ios":"levelo://app?vid=e4594e54-d1ce-4b3c-99c0-1bec67a21327"},"vehicle_type_id":"4","last_reported":1751044166,"current_range_meters":4000,"station_id":"","pricing_plan_id":"cebpf4jnsgd1na2vs0mg"},{"bike_id":"7d2ef44a-bdd7-45c5-b91a-483f6127beed","system_id":"levelo_inurba_marseille","lat":43.30142,"lon":5.37417,"is_reserved":false,"is_disabled":false,"rental_uris":{"android":"levelo://app?vid=7d2ef44a-bdd7-45c5-b91a-483f6127beed","ios":"levelo://app?vid=7d2ef44a-bdd7-45c5-b91a-483f6127beed"},"vehicle_type_id":"4","last_reported":1751044166,"current_range_meters":4000,"station_id":"ce4bgs92rcd13ifvqcc0","pricing_plan_id":"cebpf4jnsgd1na2vs0mg"},{"bike_id":"32524b10-cdd9-464b-b633-b39c12cb2c8e","system_id":"levelo_inurba_marseille","lat":43.29293,"lon":5.40121,"is_reserved":false,"is_disabled":false,"rental_uris":{"android":"levelo://app?vid=32524b10-cdd9-464b-b633-b39c12cb2c8e","ios":"levelo://app?vid=32524b10-cdd9-464b-b633-b39c12cb2c8e"},"vehicle_type_id":"4","last_reported":1751044166,"current_range_meters":4000,"station_id":"ce4bh312rcd13ifvqdk0","pricing_plan_id":"cebpf4jnsgd1na2vs0mg"},{"bike_id":"cae97f6b-d151-466f-8b63-8805239d814c","system_id":"levelo_inurba_marseille","lat":43.29002,"lon":5.35612,"is_reserved":false,"is_disabled":false,"rental_uris":{"android":"levelo://app?vid=cae97f6b-d151-466f-8b63-8805239d814c","ios":"levelo://app?vid=cae97f6b-d151-466f-8b63-8805239d814c"},"vehicle_type_id":"4","last_reported":1751044166,"current_range_meters":4000,"station_id":"ce4bhb92rcd13ifvqen0","pricing_plan_id":"cebpf4jnsgd1na2vs0mg"},{"bike_id":"d02aa927-f70f-461f-a3cd-6aa2cb2ef16f","system_id":"levelo_inurba_marseille","lat":43.2842,"lon":5.34979,"is_reserved":false,"is_disabled":false,"rental_uris":{"android":"levelo://app?vid=d02aa927-f70f-461f-a3cd-6aa2cb2ef16f","ios":"levelo://app?vid=d02aa927-f70f-461f-a3cd-6aa2cb2ef16f"},"vehicle_type_id":"4","last_reported":1751044166,"current_range_meters":4000,"station_id":"ce4bhbh2rcd13ifvqepg","pricing_plan_id":"cebpf4jnsgd1na2vs0mg"},{"bike_id":"768c0104-715f-4ae7-8bb0-ad9c0d98e622","system_id":"levelo_inurba_marseille","lat":43.28782,"lon":5.37379,"is_reserved":false,"is_disabled":false,"rental_uris":{"android":"levelo://app?vid=768c0104-715f-4ae7-8bb0-ad9c0d98e622","ios":"levelo://app?vid=768c0104-715f-4ae7-8bb0-ad9c0d98e622"},"vehicle_type_id":"4","last_reported":1751044166,"current_range_meters":4400,"station_id":"","pricing_plan_id":"cebpf4jnsgd1na2vs0mg"},{"bike_id":"a9985025-f22b-40b0-b1cb-ae19dc609cce","system_id":"levelo_inurba_marseille","lat":43.31358,"lon":5.384947,"is_reserved":false,"is_disabled":false,"rental_uris":{"android":"levelo://app?vid=a9985025-f22b-40b0-b1cb-ae19dc609cce","ios":"levelo://app?vid=a9985025-f22b-40b0-b1cb-ae19dc609cce"},"vehicle_type_id":"4","last_reported":1751044166,"current_range_meters":4400,"station_id":"ce4bgt92rcd13ifvqcf0","pricing_plan_id":"cebpf4jnsgd1na2vs0mg"},{"bike_id":"34e90485-236e-4740-8956-5de18203670d","system_id":"levelo_inurba_marseille","lat":43.2962,"lon":5.37731,"is_reserved":false,"is_disabled":false,"rental_uris":{"android":"levelo://app?vid=34e90485-236e-4740-8956-5de18203670d","ios":"levelo://app?vid=34e90485-236e-4740-8956-5de18203670d"},"vehicle_type_id":"4","last_reported":1751044166,"current_range_meters":4800,"station_id":"ce4bgi92rcd13ifvqb90","pricing_plan_id":"cebpf4jnsgd1na2vs0mg"},{"bike_id":"677671e8-d33a-4044-b3b0-1662a7bdfd94","system_id":"levelo_inurba_marseille","lat":43.28261,"lon":5.35066,"is_reserved":false,"is_disabled":false,"rental_uris":{"android":"levelo://app?vid=677671e8-d33a-4044-b3b0-1662a7bdfd94","ios":"levelo://app?vid=677671e8-d33a-4044-b3b0-1662a7bdfd94"},"vehicle_type_id":"4","last_reported":1751044166,"current_range_meters":4800,"station_id":"ce4bhbp2rcd13ifvqerg","pricing_plan_id":"cebpf4jnsgd1na2vs0mg"},{"bike_id":"e66a75da-6cd0-458e-9114-50300c3da44f","system_id":"levelo_inurba_marseille","lat":43.282623,"lon":5.350668,"is_reserved":false,"is_disabled":false,"rental_uris":{"android":"levelo://app?vid=e66a75da-6cd0-458e-9114-50300c3da44f","ios":"levelo://app?vid=e66a75da-6cd0-458e-9114-50300c3da44f"},"vehicle_type_id":"4","last_reported":1751044166,"current_range_meters":4800,"station_id":"ce4bhbp2rcd13ifvqerg","pricing_plan_id":"cebpf4jnsgd1na2vs0mg"},{"bike_id":"80d28e69-1e0e-4ff2-ae9b-3c50e598c6d2","system_id":"levelo_inurba_marseille","lat":43.28621,"lon":5.35108,"is_reserved":false,"is_disabled":false,"rental_uris":{"android":"levelo://app?vid=80d28e69-1e0e-4ff2-ae9b-3c50e598c6d2","ios":"levelo://app?vid=80d28e69-1e0e-4ff2-ae9b-3c50e598c6d2"},"vehicle_type_id":"4","last_reported":1751044166,"current_range_meters":4800,"station_id":"ce4bhch2rcd13ifvqeug","pricing_plan_id":"cebpf4jnsgd1na2vs0mg"},{"bike_id":"e2f5b300-4a63-4778-aada-c29a8a0ea1e8","system_id":"levelo_inurba_marseille","lat":43.32794,"lon":5.3922,"is_reserved":false,"is_disabled":false,"rental_uris":{"android":"levelo://app?vid=e2f5b300-4a63-4778-aada-c29a8a0ea1e8","ios":"levelo://app?vid=e2f5b300-4a63-4778-aada-c29a8a0ea1e8"},"vehicle_type_id":"4","last_reported":1751044166,"current_range_meters":5600,"station_id":"","pricing_plan_id":"cebpf4jnsgd1na2vs0mg"},{"bike_id":"a98fd970-88ac-431a-90ba-3731e0931174","system_id":"levelo_inurba_marseille","lat":43.313456,"lon":5.386053,"is_reserved":false,"is_disabled":false,"rental_uris":{"android":"levelo://app?vid=a98fd970-88ac-431a-90ba-3731e0931174","ios":"levelo://app?vid=a98fd970-88ac-431a-90ba-3731e0931174"},"vehicle_type_id":"4","last_reported":1751044166,"current_range_meters":6000,"station_id":"","pricing_plan_id":"cebpf4jnsgd1na2vs0mg"},{"bike_id":"c6567458-ffde-459a-82e4-de9e55c84315","system_id":"levelo_inurba_marseille","lat":43.31174,"lon":5.3872,"is_reserved":false,"is_disabled":false,"rental_uris":{"android":"levelo://app?vid=c6567458-ffde-459a-82e4-de9e55c84315","ios":"levelo://app?vid=c6567458-ffde-459a-82e4-de9e55c84315"},"vehicle_type_id":"4","last_reported":1751044166,"current_range_meters":6000,"station_id":"ce4bgv12rcd13ifvqcp0","pricing_plan_id":"cebpf4jnsgd1na2vs0mg"},{"bike_id":"27b44fae-5d1f-4f1e-9a7c-e767c720fca1","system_id":"levelo_inurba_marseille","lat":43.28,"lon":5.40015,"is_reserved":false,"is_disabled":false,"rental_uris":{"android":"levelo://app?vid=27b44fae-5d1f-4f1e-9a7c-e767c720fca1","ios":"levelo://app?vid=27b44fae-5d1f-4f1e-9a7c-e767c720fca1"},"vehicle_type_id":"4","last_reported":1751044166,"current_range_meters":6000,"station_id":"ce4bho92rcd13ifvqh4g","pricing_plan_id":"cebpf4jnsgd1na2vs0mg"},{"bike_id":"efef5ea1-bf62-4a65-97e4-c92b93ee03b8","system_id":"levelo_inurba_marseille","lat":43.323678,"lon":5.388922,"is_reserved":false,"is_disabled":false,"rental_uris":{"android":"levelo://app?vid=efef5ea1-bf62-4a65-97e4-c92b93ee03b8","ios":"levelo://app?vid=efef5ea1-bf62-4a65-97e4-c92b93ee03b8"},"vehicle_type_id":"4","last_reported":1751044166,"current_range_meters":6000,"station_id":"ce4bhqp2rcd13ifvqhog","pricing_plan_id":"cebpf4jnsgd1na2vs0mg"},{"bike_id":"54f049dc-9502-4350-aaac-2269599e51cc","system_id":"levelo_inurba_marseille","lat":43.23156,"lon":5.43697,"is_reserved":false,"is_disabled":false,"rental_uris":{"android":"levelo://app?vid=54f049dc-9502-4350-aaac-2269599e51cc","ios":"levelo://app?vid=54f049dc-9502-4350-aaac-2269599e51cc"},"vehicle_type_id":"4","last_reported":1751044166,"current_range_meters":6400,"station_id":"ce4bhmp2rcd13ifvqgog","pricing_plan_id":"cebpf4jnsgd1na2vs0mg"},{"bike_id":"eef22fa9-7e15-461d-96e9-3ec4eb807c8a","system_id":"levelo_inurba_marseille","lat":43.27495,"lon":5.42452,"is_reserved":false,"is_disabled":false,"rental_uris":{"android":"levelo://app?vid=eef22fa9-7e15-461d-96e9-3ec4eb807c8a","ios":"levelo://app?vid=eef22fa9-7e15-461d-96e9-3ec4eb807c8a"},"vehicle_type_id":"4","last_reported":1751044166,"current_range_meters":6400,"station_id":"ce4bhn92rcd13ifvqgrg","pricing_plan_id":"cebpf4jnsgd1na2vs0mg"},{"bike_id":"7ac2d6ad-16d3-463d-9f49-789f3bb8e5d0","system_id":"levelo_inurba_marseille","lat":43.33726,"lon":5.39214,"is_reserved":false,"is_disabled":false,"rental_uris":{"android":"levelo://app?vid=7ac2d6ad-16d3-463d-9f49-789f3bb8e5d0","ios":"levelo://app?vid=7ac2d6ad-16d3-463d-9f49-789f3bb8e5d0"},"vehicle_type_id":"4","last_reported":1751044166,"current_range_meters":6400,"station_id":"ce4bhr92rcd13ifvqhsg","pricing_plan_id":"cebpf4jnsgd1na2vs0mg"},{"bike_id":"a9d25cad-d480-4c75-aec5-3969f1a4e6c7","system_id":"levelo_inurba_marseille","lat":43.32943,"lon":5.39028,"is_reserved":false,"is_disabled":false,"rental_uris":{"android":"levelo://app?vid=a9d25cad-d480-4c75-aec5-3969f1a4e6c7","ios":"levelo://app?vid=a9d25cad-d480-4c75-aec5-3969f1a4e6c7"},"vehicle_type_id":"4","last_reported":1751044166,"current_range_meters":6800,"station_id":"","pricing_plan_id":"cebpf4jnsgd1na2vs0mg"},{"bike_id":"89e1f2e9-720c-4965-ad7a-597d446aa43d","system_id":"levelo_inurba_marseille","lat":43.30138,"lon":5.39846,"is_reserved":false,"is_disabled":false,"rental_uris":{"android":"levelo://app?vid=89e1f2e9-720c-4965-ad7a-597d446aa43d","ios":"levelo://app?vid=89e1f2e9-720c-4965-ad7a-597d446aa43d"},"vehicle_type_id":"4","last_reported":1751044166,"current_range_meters":6800,"station_id":"ce4bh0h2rcd13ifvqd40","pricing_plan_id":"cebpf4jnsgd1na2vs0mg"},{"bike_id":"65c88498-c602-45f4-af69-8fb099991638","system_id":"levelo_inurba_marseille","lat":43.29036,"lon":5.3865,"is_reserved":false,"is_disabled":false,"rental_uris":{"android":"levelo://app?vid=65c88498-c602-45f4-af69-8fb099991638","ios":"levelo://app?vid=65c88498-c602-45f4-af69-8fb099991638"},"vehicle_type_id":"4","last_reported":1751044166,"current_range_meters":6800,"station_id":"ce4bh4p2rcd13ifvqe0g","pricing_plan_id":"cebpf4jnsgd1na2vs0mg"},{"bike_id":"6d1b42b2-c779-4ff9-95ed-48aa123cd493","system_id":"levelo_inurba_marseille","lat":43.28275,"lon":5.35063,"is_reserved":false,"is_disabled":false,"rental_uris":{"android":"levelo://app?vid=6d1b42b2-c779-4ff9-95ed-48aa123cd493","ios":"levelo://app?vid=6d1b42b2-c779-4ff9-95ed-48aa123cd493"},"vehicle_type_id":"4","last_reported":1751044166,"current_range_meters":6800,"station_id":"ce4bhbp2rcd13ifvqerg","pricing_plan_id":"cebpf4jnsgd1na2vs0mg"},{"bike_id":"79601ba2-1a4a-4e56-9847-2bba6aa560b6","system_id":"levelo_inurba_marseille","lat":43.27622,"lon":5.36105,"is_reserved":false,"is_disabled":false,"rental_uris":{"android":"levelo://app?vid=79601ba2-1a4a-4e56-9847-2bba6aa560b6","ios":"levelo://app?vid=79601ba2-1a4a-4e56-9847-2bba6aa560b6"},"vehicle_type_id":"4","last_reported":1751044166,"current_range_meters":7200,"station_id":"ce4bgj92rcd13ifvqbe0","pricing_plan_id":"cebpf4jnsgd1na2vs0mg"},{"bike_id":"5f1e872f-1d88-4d8b-9c31-02066ed9273d","system_id":"levelo_inurba_marseille","lat":43.31168,"lon":5.38723,"is_reserved":false,"is_disabled":false,"rental_uris":{"android":"levelo://app?vid=5f1e872f-1d88-4d8b-9c31-02066ed9273d","ios":"levelo://app?vid=5f1e872f-1d88-4d8b-9c31-02066ed9273d"},"vehicle_type_id":"4","last_reported":1751044166,"current_range_meters":7200,"station_id":"ce4bgv12rcd13ifvqcp0","pricing_plan_id":"cebpf4jnsgd1na2vs0mg"},{"bike_id":"59b46634-286c-4b84-a9a8-911a2e29dceb","system_id":"levelo_inurba_marseille","lat":43.29007,"lon":5.35617,"is_reserved":false,"is_disabled":false,"rental_uris":{"android":"levelo://app?vid=59b46634-286c-4b84-a9a8-911a2e29dceb","ios":"levelo://app?vid=59b46634-286c-4b84-a9a8-911a2e29dceb"},"vehicle_type_id":"4","last_reported":1751044166,"current_range_meters":7200,"station_id":"ce4bhb92rcd13ifvqen0","pricing_plan_id":"cebpf4jnsgd1na2vs0mg"},{"bike_id":"166020cf-1b7c-4985-a895-e6f0d42dc56d","system_id":"levelo_inurba_marseille","lat":43.33018,"lon":5.39031,"is_reserved":false,"is_disabled":false,"rental_uris":{"android":"levelo://app?vid=166020cf-1b7c-4985-a895-e6f0d42dc56d","ios":"levelo://app?vid=166020cf-1b7c-4985-a895-e6f0d42dc56d"},"vehicle_type_id":"4","last_reported":1751044166,"current_range_meters":7200,"station_id":"ce4bhr92rcd13ifvqhrg","pricing_plan_id":"cebpf4jnsgd1na2vs0mg"},{"bike_id":"94e84186-d780-461a-b647-8d1cf3f036ad","system_id":"levelo_inurba_marseille","lat":43.31701,"lon":5.37766,"is_reserved":false,"is_disabled":false,"rental_uris":{"android":"levelo://app?vid=94e84186-d780-461a-b647-8d1cf3f036ad","ios":"levelo://app?vid=94e84186-d780-461a-b647-8d1cf3f036ad"},"vehicle_type_id":"4","last_reported":1751044166,"current_range_meters":8000,"station_id":"ce4bgth2rcd13ifvqch0","pricing_plan_id":"cebpf4jnsgd1na2vs0mg"},{"bike_id":"4cda255e-566e-4367-8523-2b7491ad226c","system_id":"levelo_inurba_marseille","lat":43.29273,"lon":5.36844,"is_reserved":false,"is_disabled":false,"rental_uris":{"android":"levelo://app?vid=4cda255e-566e-4367-8523-2b7491ad226c","ios":"levelo://app?vid=4cda255e-566e-4367-8523-2b7491ad226c"},"vehicle_type_id":"4","last_reported":1751044166,"current_range_meters":8000,"station_id":"ce4bhbp2rcd13ifvqesg","pricing_plan_id":"cebpf4jnsgd1na2vs0mg"},{"bike_id":"b138bc7c-c304-48e3-9688-6b44722d6a00","system_id":"levelo_inurba_marseille","lat":43.24389,"lon":5.37058,"is_reserved":false,"is_disabled":false,"rental_uris":{"android":"levelo://app?vid=b138bc7c-c304-48e3-9688-6b44722d6a00","ios":"levelo://app?vid=b138bc7c-c304-48e3-9688-6b44722d6a00"},"vehicle_type_id":"4","last_reported":1751044166,"current_range_meters":8000,"station_id":"ce4bhhh2rcd13ifvqfk0","pricing_plan_id":"cebpf4jnsgd1na2vs0mg"},{"bike_id":"938fd974-14b9-440e-909f-f7b7bc1b1bbd","system_id":"levelo_inurba_marseille","lat":43.29707,"lon":5.36622,"is_reserved":false,"is_disabled":false,"rental_uris":{"android":"levelo://app?vid=938fd974-14b9-440e-909f-f7b7bc1b1bbd","ios":"levelo://app?vid=938fd974-14b9-440e-909f-f7b7bc1b1bbd"},"vehicle_type_id":"4","last_reported":1751044166,"current_range_meters":8400,"station_id":"ce4bgn12rcd13ifvqbt0","pricing_plan_id":"cebpf4jnsgd1na2vs0mg"},{"bike_id":"eaf0967a-3a87-47de-9600-134e5778ca18","system_id":"levelo_inurba_marseille","lat":43.31756,"lon":5.39014,"is_reserved":false,"is_disabled":false,"rental_uris":{"android":"levelo://app?vid=eaf0967a-3a87-47de-9600-134e5778ca18","ios":"levelo://app?vid=eaf0967a-3a87-47de-9600-134e5778ca18"},"vehicle_type_id":"4","last_reported":1751044166,"current_range_meters":8400,"station_id":"ce4bhqp2rcd13ifvqhng","pricing_plan_id":"cebpf4jnsgd1na2vs0mg"},{"bike_id":"f47876d7-9c85-474e-92c5-7a242e08b67c","system_id":"levelo_inurba_marseille","lat":43.30584,"lon":5.37537,"is_reserved":false,"is_disabled":false,"rental_uris":{"android":"levelo://app?vid=f47876d7-9c85-474e-92c5-7a242e08b67c","ios":"levelo://app?vid=f47876d7-9c85-474e-92c5-7a242e08b67c"},"vehicle_type_id":"4","last_reported":1751044166,"current_range_meters":8800,"station_id":"","pricing_plan_id":"cebpf4jnsgd1na2vs0mg"},{"bike_id":"447a5c07-2605-49a1-ab80-decdc56f8c4f","system_id":"levelo_inurba_marseille","lat":43.27954,"lon":5.35323,"is_reserved":false,"is_disabled":false,"rental_uris":{"android":"levelo://app?vid=447a5c07-2605-49a1-ab80-decdc56f8c4f","ios":"levelo://app?vid=447a5c07-2605-49a1-ab80-decdc56f8c4f"},"vehicle_type_id":"4","last_reported":1751044166,"current_range_meters":8800,"station_id":"","pricing_plan_id":"cebpf4jnsgd1na2vs0mg"},{"bike_id":"93695f60-5687-43f1-836d-8a61978a0910","system_id":"levelo_inurba_marseille","lat":43.2957,"lon":5.39969,"is_reserved":false,"is_disabled":false,"rental_uris":{"android":"levelo://app?vid=93695f60-5687-43f1-836d-8a61978a0910","ios":"levelo://app?vid=93695f60-5687-43f1-836d-8a61978a0910"},"vehicle_type_id":"4","last_reported":1751044166,"current_range_meters":8800,"station_id":"ce4bh312rcd13ifvqdj0","pricing_plan_id":"cebpf4jnsgd1na2vs0mg"},{"bike_id":"dea886c4-a7ad-4fd2-9a2b-e9bb361c329c","system_id":"levelo_inurba_marseille","lat":43.28689,"lon":5.37397,"is_reserved":false,"is_disabled":false,"rental_uris":{"android":"levelo://app?vid=dea886c4-a7ad-4fd2-9a2b-e9bb361c329c","ios":"levelo://app?vid=dea886c4-a7ad-4fd2-9a2b-e9bb361c329c"},"vehicle_type_id":"4","last_reported":1751044166,"current_range_meters":8800,"station_id":"ce4bh3p2rcd13ifvqdq0","pricing_plan_id":"cebpf4jnsgd1na2vs0mg"},{"bike_id":"d1660b2f-d862-4d3d-91fb-0c058331df21","system_id":"levelo_inurba_marseille","lat":43.28274,"lon":5.35056,"is_reserved":false,"is_disabled":false,"rental_uris":{"android":"levelo://app?vid=d1660b2f-d862-4d3d-91fb-0c058331df21","ios":"levelo://app?vid=d1660b2f-d862-4d3d-91fb-0c058331df21"},"vehicle_type_id":"4","last_reported":1751044166,"current_range_meters":8800,"station_id":"ce4bhbp2rcd13ifvqerg","pricing_plan_id":"cebpf4jnsgd1na2vs0mg"},{"bike_id":"4c994478-d76f-486b-a085-91e08925bb19","system_id":"levelo_inurba_marseille","lat":43.28254,"lon":5.35074,"is_reserved":false,"is_disabled":false,"rental_uris":{"android":"levelo://app?vid=4c994478-d76f-486b-a085-91e08925bb19","ios":"levelo://app?vid=4c994478-d76f-486b-a085-91e08925bb19"},"vehicle_type_id":"4","last_reported":1751044166,"current_range_meters":8800,"station_id":"ce4bhbp2rcd13ifvqerg","pricing_plan_id":"cebpf4jnsgd1na2vs0mg"},{"bike_id":"e9079485-ca27-4b85-ad77-abcdc53f6317","system_id":"levelo_inurba_marseille","lat":43.28267,"lon":5.35062,"is_reserved":false,"is_disabled":false,"rental_uris":{"android":"levelo://app?vid=e9079485-ca27-4b85-ad77-abcdc53f6317","ios":"levelo://app?vid=e9079485-ca27-4b85-ad77-abcdc53f6317"},"vehicle_type_id":"4","last_reported":1751044166,"current_range_meters":8800,"station_id":"ce4bhbp2rcd13ifvqerg","pricing_plan_id":"cebpf4jnsgd1na2vs0mg"},{"bike_id":"eb2f8988-d683-4217-b16c-4268e40dc706","system_id":"levelo_inurba_marseille","lat":43.2862,"lon":5.35103,"is_reserved":false,"is_disabled":false,"rental_uris":{"android":"levelo://app?vid=eb2f8988-d683-4217-b16c-4268e40dc706","ios":"levelo://app?vid=eb2f8988-d683-4217-b16c-4268e40dc706"},"vehicle_type_id":"4","last_reported":1751044166,"current_range_meters":8800,"station_id":"ce4bhch2rcd13ifvqeug","pricing_plan_id":"cebpf4jnsgd1na2vs0mg"},{"bike_id":"4b8da722-ee9e-48a4-a5e5-3a8a10364708","system_id":"levelo_inurba_marseille","lat":43.312257,"lon":5.378169,"is_reserved":false,"is_disabled":false,"rental_uris":{"android":"levelo://app?vid=4b8da722-ee9e-48a4-a5e5-3a8a10364708","ios":"levelo://app?vid=4b8da722-ee9e-48a4-a5e5-3a8a10364708"},"vehicle_type_id":"4","last_reported":1751044166,"current_range_meters":9200,"station_id":"","pricing_plan_id":"cebpf4jnsgd1na2vs0mg"},{"bike_id":"1053adde-6118-4e7b-b9bb-798a7938cd41","system_id":"levelo_inurba_marseille","lat":43.31301,"lon":5.37292,"is_reserved":false,"is_disabled":false,"rental_uris":{"android":"levelo://app?vid=1053adde-6118-4e7b-b9bb-798a7938cd41","ios":"levelo://app?vid=1053adde-6118-4e7b-b9bb-798a7938cd41"},"vehicle_type_id":"4","last_reported":1751044166,"current_range_meters":9200,"station_id":"","pricing_plan_id":"cebpf4jnsgd1na2vs0mg"},{"bike_id":"0a08a53c-3e0d-4a80-95ba-9b92d34222a2","system_id":"levelo_inurba_marseille","lat":43.30306,"lon":5.37727,"is_reserved":false,"is_disabled":false,"rental_uris":{"android":"levelo://app?vid=0a08a53c-3e0d-4a80-95ba-9b92d34222a2","ios":"levelo://app?vid=0a08a53c-3e0d-4a80-95ba-9b92d34222a2"},"vehicle_type_id":"4","last_reported":1751044166,"current_range_meters":9200,"station_id":"ce4bguh2rcd13ifvqcj0","pricing_plan_id":"cebpf4jnsgd1na2vs0mg"},{"bike_id":"af44ac0b-4b42-40c7-9766-7412db3d8673","system_id":"levelo_inurba_marseille","lat":43.30311,"lon":5.404425,"is_reserved":false,"is_disabled":false,"rental_uris":{"android":"levelo://app?vid=af44ac0b-4b42-40c7-9766-7412db3d8673","ios":"levelo://app?vid=af44ac0b-4b42-40c7-9766-7412db3d8673"},"vehicle_type_id":"4","last_reported":1751044166,"current_range_meters":9200,"station_id":"ce4bh012rcd13ifvqd10","pricing_plan_id":"cebpf4jnsgd1na2vs0mg"},{"bike_id":"90f7cc87-4ba4-4932-9f48-f71372f816c7","system_id":"levelo_inurba_marseille","lat":43.25497,"lon":5.3765,"is_reserved":false,"is_disabled":false,"rental_uris":{"android":"levelo://app?vid=90f7cc87-4ba4-4932-9f48-f71372f816c7","ios":"levelo://app?vid=90f7cc87-4ba4-4932-9f48-f71372f816c7"},"vehicle_type_id":"4","last_reported":1751044166,"current_range_meters":9200,"station_id":"ce4bhh12rcd13ifvqff0","pricing_plan_id":"cebpf4jnsgd1na2vs0mg"},{"bike_id":"50014d0a-5b5d-4ddc-b62a-a740a2e738e9","system_id":"levelo_inurba_marseille","lat":43.31359,"lon":5.38494,"is_reserved":false,"is_disabled":false,"rental_uris":{"android":"levelo://app?vid=50014d0a-5b5d-4ddc-b62a-a740a2e738e9","ios":"levelo://app?vid=50014d0a-5b5d-4ddc-b62a-a740a2e738e9"},"vehicle_type_id":"4","last_reported":1751044166,"current_range_meters":9600,"station_id":"ce4bgt92rcd13ifvqcf0","pricing_plan_id":"cebpf4jnsgd1na2vs0mg"},{"bike_id":"96afadc6-3c35-47a0-afec-a4f426cad048","system_id":"levelo_inurba_marseille","lat":43.29884,"lon":5.38904,"is_reserved":false,"is_disabled":false,"rental_uris":{"android":"levelo://app?vid=96afadc6-3c35-47a0-afec-a4f426cad048","ios":"levelo://app?vid=96afadc6-3c35-47a0-afec-a4f426cad048"},"vehicle_type_id":"4","last_reported":1751044166,"current_range_meters":9600,"station_id":"ce4bh392rcd13ifvqdl0","pricing_plan_id":"cebpf4jnsgd1na2vs0mg"},{"bike_id":"f8e7eace-a82b-4dd0-bb3e-35d4ad088ea4","system_id":"levelo_inurba_marseille","lat":43.28939,"lon":5.36639,"is_reserved":false,"is_disabled":false,"rental_uris":{"android":"levelo://app?vid=f8e7eace-a82b-4dd0-bb3e-35d4ad088ea4","ios":"levelo://app?vid=f8e7eace-a82b-4dd0-bb3e-35d4ad088ea4"},"vehicle_type_id":"4","last_reported":1751044166,"current_range_meters":9600,"station_id":"ce4bhap2rcd13ifvqek0","pricing_plan_id":"cebpf4jnsgd1na2vs0mg"},{"bike_id":"228bad89-a729-49aa-b567-d9e384d1241d","system_id":"levelo_inurba_marseille","lat":43.27385,"lon":5.36266,"is_reserved":false,"is_disabled":false,"rental_uris":{"android":"levelo://app?vid=228bad89-a729-49aa-b567-d9e384d1241d","ios":"levelo://app?vid=228bad89-a729-49aa-b567-d9e384d1241d"},"vehicle_type_id":"4","last_reported":1751044166,"current_range_meters":9600,"station_id":"ce4bhbh2rcd13ifvqeo0","pricing_plan_id":"cebpf4jnsgd1na2vs0mg"},{"bike_id":"049edae2-2434-44fe-8cda-477d5845b83b","system_id":"levelo_inurba_marseille","lat":43.28392,"lon":5.34936,"is_reserved":false,"is_disabled":false,"rental_uris":{"android":"levelo://app?vid=049edae2-2434-44fe-8cda-477d5845b83b","ios":"levelo://app?vid=049edae2-2434-44fe-8cda-477d5845b83b"},"vehicle_type_id":"4","last_reported":1751044166,"current_range_meters":9600,"station_id":"ce4bhbh2rcd13ifvqepg","pricing_plan_id":"cebpf4jnsgd1na2vs0mg"},{"bike_id":"a03a1594-88c7-4245-9085-866ee9878c08","system_id":"levelo_inurba_marseille","lat":43.29282,"lon":5.36845,"is_reserved":false,"is_disabled":false,"rental_uris":{"android":"levelo://app?vid=a03a1594-88c7-4245-9085-866ee9878c08","ios":"levelo://app?vid=a03a1594-88c7-4245-9085-866ee9878c08"},"vehicle_type_id":"4","last_reported":1751044166,"current_range_meters":9600,"station_id":"ce4bhbp2rcd13ifvqesg","pricing_plan_id":"cebpf4jnsgd1na2vs0mg"},{"bike_id":"215840b3-a34c-43e4-a88f-51478b439d85","system_id":"levelo_inurba_marseille","lat":43.286165,"lon":5.351027,"is_reserved":false,"is_disabled":false,"rental_uris":{"android":"levelo://app?vid=215840b3-a34c-43e4-a88f-51478b439d85","ios":"levelo://app?vid=215840b3-a34c-43e4-a88f-51478b439d85"},"vehicle_type_id":"4","last_reported":1751044166,"current_range_meters":9600,"station_id":"ce4bhch2rcd13ifvqeug","pricing_plan_id":"cebpf4jnsgd1na2vs0mg"},{"bike_id":"4370f576-a887-4996-a991-f4adff4065fb","system_id":"levelo_inurba_marseille","lat":43.28615,"lon":5.35106,"is_reserved":false,"is_disabled":false,"rental_uris":{"android":"levelo://app?vid=4370f576-a887-4996-a991-f4adff4065fb","ios":"levelo://app?vid=4370f576-a887-4996-a991-f4adff4065fb"},"vehicle_type_id":"4","last_reported":1751044166,"current_range_meters":9600,"station_id":"ce4bhch2rcd13ifvqeug","pricing_plan_id":"cebpf4jnsgd1na2vs0mg"},{"bike_id":"d07806cc-68f6-43ed-87a3-0445e037fcfc","system_id":"levelo_inurba_marseille","lat":43.28152,"lon":5.42638,"is_reserved":false,"is_disabled":false,"rental_uris":{"android":"levelo://app?vid=d07806cc-68f6-43ed-87a3-0445e037fcfc","ios":"levelo://app?vid=d07806cc-68f6-43ed-87a3-0445e037fcfc"},"vehicle_type_id":"4","last_reported":1751044166,"current_range_meters":9600,"station_id":"ce4bhnh2rcd13ifvqgug","pricing_plan_id":"cebpf4jnsgd1na2vs0mg"},{"bike_id":"81ef019e-a307-48b3-975e-2a8eff26c968","system_id":"levelo_inurba_marseille","lat":43.28268,"lon":5.35084,"is_reserved":false,"is_disabled":false,"rental_uris":{"android":"levelo://app?vid=81ef019e-a307-48b3-975e-2a8eff26c968","ios":"levelo://app?vid=81ef019e-a307-48b3-975e-2a8eff26c968"},"vehicle_type_id":"4","last_reported":1751044166,"current_range_meters":10000,"station_id":"ce4bhbp2rcd13ifvqerg","pricing_plan_id":"cebpf4jnsgd1na2vs0mg"},{"bike_id":"3e6ddd3c-47c9-4057-bede-2b2d10eab3cb","system_id":"levelo_inurba_marseille","lat":43.28619,"lon":5.35103,"is_reserved":false,"is_disabled":false,"rental_uris":{"android":"levelo://app?vid=3e6ddd3c-47c9-4057-bede-2b2d10eab3cb","ios":"levelo://app?vid=3e6ddd3c-47c9-4057-bede-2b2d10eab3cb"},"vehicle_type_id":"4","last_reported":1751044166,"current_range_meters":10000,"station_id":"ce4bhch2rcd13ifvqeug","pricing_plan_id":"cebpf4jnsgd1na2vs0mg"},{"bike_id":"b7d0d8a1-c5dd-4278-8b3b-f5786872fe32","system_id":"levelo_inurba_marseille","lat":43.32103,"lon":5.36745,"is_reserved":false,"is_disabled":false,"rental_uris":{"android":"levelo://app?vid=b7d0d8a1-c5dd-4278-8b3b-f5786872fe32","ios":"levelo://app?vid=b7d0d8a1-c5dd-4278-8b3b-f5786872fe32"},"vehicle_type_id":"4","last_reported":1751044166,"current_range_meters":10000,"station_id":"ce4bhrh2rcd13ifvqhug","pricing_plan_id":"cebpf4jnsgd1na2vs0mg"},{"bike_id":"f1299479-81e3-4dec-aa8e-bee1f5e5ecc7","system_id":"levelo_inurba_marseille","lat":43.28419,"lon":5.34997,"is_reserved":false,"is_disabled":false,"rental_uris":{"android":"levelo://app?vid=f1299479-81e3-4dec-aa8e-bee1f5e5ecc7","ios":"levelo://app?vid=f1299479-81e3-4dec-aa8e-bee1f5e5ecc7"},"vehicle_type_id":"4","last_reported":1751044166,"current_range_meters":10800,"station_id":"ce4bhbh2rcd13ifvqepg","pricing_plan_id":"cebpf4jnsgd1na2vs0mg"},{"bike_id":"501b926e-5274-48f3-8b9c-02af33f5edf5","system_id":"levelo_inurba_marseille","lat":43.28274,"lon":5.35063,"is_reserved":false,"is_disabled":false,"rental_uris":{"android":"levelo://app?vid=501b926e-5274-48f3-8b9c-02af33f5edf5","ios":"levelo://app?vid=501b926e-5274-48f3-8b9c-02af33f5edf5"},"vehicle_type_id":"4","last_reported":1751044166,"current_range_meters":10800,"station_id":"ce4bhbp2rcd13ifvqerg","pricing_plan_id":"cebpf4jnsgd1na2vs0mg"},{"bike_id":"df9d330a-cbd4-4597-b999-ed135ac2cc4e","system_id":"levelo_inurba_marseille","lat":43.28648,"lon":5.35091,"is_reserved":false,"is_disabled":false,"rental_uris":{"android":"levelo://app?vid=df9d330a-cbd4-4597-b999-ed135ac2cc4e","ios":"levelo://app?vid=df9d330a-cbd4-4597-b999-ed135ac2cc4e"},"vehicle_type_id":"4","last_reported":1751044166,"current_range_meters":10800,"station_id":"ce4bhch2rcd13ifvqeug","pricing_plan_id":"cebpf4jnsgd1na2vs0mg"},{"bike_id":"a440f2f6-8cf8-4348-9ba1-e21002a18a07","system_id":"levelo_inurba_marseille","lat":43.32114,"lon":5.36818,"is_reserved":false,"is_disabled":false,"rental_uris":{"android":"levelo://app?vid=a440f2f6-8cf8-4348-9ba1-e21002a18a07","ios":"levelo://app?vid=a440f2f6-8cf8-4348-9ba1-e21002a18a07"},"vehicle_type_id":"4","last_reported":1751044166,"current_range_meters":10800,"station_id":"ce4bhrh2rcd13ifvqhug","pricing_plan_id":"cebpf4jnsgd1na2vs0mg"},{"bike_id":"d93518a7-acea-49d1-8b1d-66917831e25a","system_id":"levelo_inurba_marseille","lat":43.28366,"lon":5.39595,"is_reserved":false,"is_disabled":false,"rental_uris":{"android":"levelo://app?vid=d93518a7-acea-49d1-8b1d-66917831e25a","ios":"levelo://app?vid=d93518a7-acea-49d1-8b1d-66917831e25a"},"vehicle_type_id":"4","last_reported":1751044166,"current_range_meters":11200,"station_id":"","pricing_plan_id":"cebpf4jnsgd1na2vs0mg"},{"bike_id":"38713aca-a01a-4e3f-8c81-05fb56a90f51","system_id":"levelo_inurba_marseille","lat":43.2826,"lon":5.35078,"is_reserved":false,"is_disabled":false,"rental_uris":{"android":"levelo://app?vid=38713aca-a01a-4e3f-8c81-05fb56a90f51","ios":"levelo://app?vid=38713aca-a01a-4e3f-8c81-05fb56a90f51"},"vehicle_type_id":"4","last_reported":1751044166,"current_range_meters":11200,"station_id":"ce4bhbp2rcd13ifvqerg","pricing_plan_id":"cebpf4jnsgd1na2vs0mg"},{"bike_id":"9e1df2dc-d71c-4258-9529-49067dd06bd8","system_id":"levelo_inurba_marseille","lat":43.27984,"lon":5.40024,"is_reserved":false,"is_disabled":false,"rental_uris":{"android":"levelo://app?vid=9e1df2dc-d71c-4258-9529-49067dd06bd8","ios":"levelo://app?vid=9e1df2dc-d71c-4258-9529-49067dd06bd8"},"vehicle_type_id":"4","last_reported":1751044166,"current_range_meters":11200,"station_id":"ce4bho92rcd13ifvqh4g","pricing_plan_id":"cebpf4jnsgd1na2vs0mg"},{"bike_id":"1c8ab180-05fd-405f-9922-b2b2c2d5142f","system_id":"levelo_inurba_marseille","lat":43.32105,"lon":5.36777,"is_reserved":false,"is_disabled":false,"rental_uris":{"android":"levelo://app?vid=1c8ab180-05fd-405f-9922-b2b2c2d5142f","ios":"levelo://app?vid=1c8ab180-05fd-405f-9922-b2b2c2d5142f"},"vehicle_type_id":"4","last_reported":1751044166,"current_range_meters":11200,"station_id":"ce4bhrh2rcd13ifvqhug","pricing_plan_id":"cebpf4jnsgd1na2vs0mg"},{"bike_id":"3e82f598-9d1d-4257-8afa-a4dc7305de09","system_id":"levelo_inurba_marseille","lat":43.21194,"lon":5.35075,"is_reserved":false,"is_disabled":false,"rental_uris":{"android":"levelo://app?vid=3e82f598-9d1d-4257-8afa-a4dc7305de09","ios":"levelo://app?vid=3e82f598-9d1d-4257-8afa-a4dc7305de09"},"vehicle_type_id":"4","last_reported":1751044166,"current_range_meters":11200,"station_id":"st_cvj6sg6p6f1abm77japg","pricing_plan_id":"cebpf4jnsgd1na2vs0mg"},{"bike_id":"3f2e5038-cd5f-466d-9578-2783163f088e","system_id":"levelo_inurba_marseille","lat":43.32109,"lon":5.36779,"is_reserved":false,"is_disabled":false,"rental_uris":{"android":"levelo://app?vid=3f2e5038-cd5f-466d-9578-2783163f088e","ios":"levelo://app?vid=3f2e5038-cd5f-466d-9578-2783163f088e"},"vehicle_type_id":"4","last_reported":1751044166,"current_range_meters":11600,"station_id":"ce4bhrh2rcd13ifvqhug","pricing_plan_id":"cebpf4jnsgd1na2vs0mg"},{"bike_id":"955b6cde-3ecd-4888-9f43-b681277c1e8f","system_id":"levelo_inurba_marseille","lat":43.29024,"lon":5.38634,"is_reserved":false,"is_disabled":false,"rental_uris":{"android":"levelo://app?vid=955b6cde-3ecd-4888-9f43-b681277c1e8f","ios":"levelo://app?vid=955b6cde-3ecd-4888-9f43-b681277c1e8f"},"vehicle_type_id":"4","last_reported":1751044166,"current_range_meters":12000,"station_id":"ce4bh4p2rcd13ifvqe0g","pricing_plan_id":"cebpf4jnsgd1na2vs0mg"},{"bike_id":"93309bf0-af17-487d-80fc-fd81bf373fb9","system_id":"levelo_inurba_marseille","lat":43.28412,"lon":5.3499,"is_reserved":false,"is_disabled":false,"rental_uris":{"android":"levelo://app?vid=93309bf0-af17-487d-80fc-fd81bf373fb9","ios":"levelo://app?vid=93309bf0-af17-487d-80fc-fd81bf373fb9"},"vehicle_type_id":"4","last_reported":1751044166,"current_range_meters":12000,"station_id":"ce4bhbh2rcd13ifvqepg","pricing_plan_id":"cebpf4jnsgd1na2vs0mg"},{"bike_id":"51107632-199c-44bc-a49d-b7385437ed03","system_id":"levelo_inurba_marseille","lat":43.261878,"lon":5.374558,"is_reserved":false,"is_disabled":false,"rental_uris":{"android":"levelo://app?vid=51107632-199c-44bc-a49d-b7385437ed03","ios":"levelo://app?vid=51107632-199c-44bc-a49d-b7385437ed03"},"vehicle_type_id":"4","last_reported":1751044166,"current_range_meters":12000,"station_id":"ce4bhgp2rcd13ifvqfc0","pricing_plan_id":"cebpf4jnsgd1na2vs0mg"},{"bike_id":"104d9a39-d4fe-4577-bd3e-dfa2a6c208e7","system_id":"levelo_inurba_marseille","lat":43.27215,"lon":5.40997,"is_reserved":false,"is_disabled":false,"rental_uris":{"android":"levelo://app?vid=104d9a39-d4fe-4577-bd3e-dfa2a6c208e7","ios":"levelo://app?vid=104d9a39-d4fe-4577-bd3e-dfa2a6c208e7"},"vehicle_type_id":"4","last_reported":1751044166,"current_range_meters":12000,"station_id":"ce4bhl12rcd13ifvqgf0","pricing_plan_id":"cebpf4jnsgd1na2vs0mg"},{"bike_id":"5d5e13a4-10cc-485c-a362-06d02242e666","system_id":"levelo_inurba_marseille","lat":43.211946,"lon":5.350703,"is_reserved":false,"is_disabled":false,"rental_uris":{"android":"levelo://app?vid=5d5e13a4-10cc-485c-a362-06d02242e666","ios":"levelo://app?vid=5d5e13a4-10cc-485c-a362-06d02242e666"},"vehicle_type_id":"4","last_reported":1751044166,"current_range_meters":12000,"station_id":"st_cvj6sg6p6f1abm77japg","pricing_plan_id":"cebpf4jnsgd1na2vs0mg"},{"bike_id":"5a01ae6d-9064-484c-8d77-2d9e141e2313","system_id":"levelo_inurba_marseille","lat":43.24506,"lon":5.38985,"is_reserved":false,"is_disabled":false,"rental_uris":{"android":"levelo://app?vid=5a01ae6d-9064-484c-8d77-2d9e141e2313","ios":"levelo://app?vid=5a01ae6d-9064-484c-8d77-2d9e141e2313"},"vehicle_type_id":"4","last_reported":1751044166,"current_range_meters":12400,"station_id":"","pricing_plan_id":"cebpf4jnsgd1na2vs0mg"},{"bike_id":"2d7f6ee9-c83b-47f6-bb55-313293547e1b","system_id":"levelo_inurba_marseille","lat":43.27377,"lon":5.36262,"is_reserved":false,"is_disabled":false,"rental_uris":{"android":"levelo://app?vid=2d7f6ee9-c83b-47f6-bb55-313293547e1b","ios":"levelo://app?vid=2d7f6ee9-c83b-47f6-bb55-313293547e1b"},"vehicle_type_id":"4","last_reported":1751044166,"current_range_meters":12400,"station_id":"ce4bhbh2rcd13ifvqeo0","pricing_plan_id":"cebpf4jnsgd1na2vs0mg"},{"bike_id":"e2e67432-2c3a-43f0-807b-c10b260bb9a2","system_id":"levelo_inurba_marseille","lat":43.28426,"lon":5.34942,"is_reserved":false,"is_disabled":false,"rental_uris":{"android":"levelo://app?vid=e2e67432-2c3a-43f0-807b-c10b260bb9a2","ios":"levelo://app?vid=e2e67432-2c3a-43f0-807b-c10b260bb9a2"},"vehicle_type_id":"4","last_reported":1751044166,"current_range_meters":12400,"station_id":"ce4bhbh2rcd13ifvqepg","pricing_plan_id":"cebpf4jnsgd1na2vs0mg"},{"bike_id":"8937e58e-5703-49d9-b2d6-6f0a04b19c36","system_id":"levelo_inurba_marseille","lat":43.28616,"lon":5.35106,"is_reserved":false,"is_disabled":false,"rental_uris":{"android":"levelo://app?vid=8937e58e-5703-49d9-b2d6-6f0a04b19c36","ios":"levelo://app?vid=8937e58e-5703-49d9-b2d6-6f0a04b19c36"},"vehicle_type_id":"4","last_reported":1751044166,"current_range_meters":12400,"station_id":"ce4bhch2rcd13ifvqeug","pricing_plan_id":"cebpf4jnsgd1na2vs0mg"},{"bike_id":"9f33d033-c934-4661-8502-ca615f4e91e9","system_id":"levelo_inurba_marseille","lat":43.233333,"lon":5.358464,"is_reserved":false,"is_disabled":false,"rental_uris":{"android":"levelo://app?vid=9f33d033-c934-4661-8502-ca615f4e91e9","ios":"levelo://app?vid=9f33d033-c934-4661-8502-ca615f4e91e9"},"vehicle_type_id":"4","last_reported":1751044166,"current_range_meters":12400,"station_id":"cpo3532slgdg3j2ikp40","pricing_plan_id":"cebpf4jnsgd1na2vs0mg"},{"bike_id":"e5ae1fdd-ad1c-4e69-ac70-f715e6402e6b","system_id":"levelo_inurba_marseille","lat":43.277329,"lon":5.398791,"is_reserved":false,"is_disabled":false,"rental_uris":{"android":"levelo://app?vid=e5ae1fdd-ad1c-4e69-ac70-f715e6402e6b","ios":"levelo://app?vid=e5ae1fdd-ad1c-4e69-ac70-f715e6402e6b"},"vehicle_type_id":"4","last_reported":1751044166,"current_range_meters":12800,"station_id":"","pricing_plan_id":"cebpf4jnsgd1na2vs0mg"},{"bike_id":"fa221786-28a4-4786-9b4b-dec5ae98c3ab","system_id":"levelo_inurba_marseille","lat":43.27376,"lon":5.36263,"is_reserved":false,"is_disabled":false,"rental_uris":{"android":"levelo://app?vid=fa221786-28a4-4786-9b4b-dec5ae98c3ab","ios":"levelo://app?vid=fa221786-28a4-4786-9b4b-dec5ae98c3ab"},"vehicle_type_id":"4","last_reported":1751044166,"current_range_meters":12800,"station_id":"ce4bhbh2rcd13ifvqeo0","pricing_plan_id":"cebpf4jnsgd1na2vs0mg"},{"bike_id":"ff6a4ca1-dc78-45e1-8a58-d9a681bbbcf3","system_id":"levelo_inurba_marseille","lat":43.30399,"lon":5.42465,"is_reserved":false,"is_disabled":false,"rental_uris":{"android":"levelo://app?vid=ff6a4ca1-dc78-45e1-8a58-d9a681bbbcf3","ios":"levelo://app?vid=ff6a4ca1-dc78-45e1-8a58-d9a681bbbcf3"},"vehicle_type_id":"4","last_reported":1751044166,"current_range_meters":13600,"station_id":"ce4bghh2rcd13ifvqb60","pricing_plan_id":"cebpf4jnsgd1na2vs0mg"},{"bike_id":"1586af7b-ac42-4a30-87bb-95c9f8df4178","system_id":"levelo_inurba_marseille","lat":43.29574,"lon":5.39978,"is_reserved":false,"is_disabled":false,"rental_uris":{"android":"levelo://app?vid=1586af7b-ac42-4a30-87bb-95c9f8df4178","ios":"levelo://app?vid=1586af7b-ac42-4a30-87bb-95c9f8df4178"},"vehicle_type_id":"4","last_reported":1751044166,"current_range_meters":13600,"station_id":"ce4bh312rcd13ifvqdj0","pricing_plan_id":"cebpf4jnsgd1na2vs0mg"},{"bike_id":"f8b9426a-ccdd-4f1c-972e-f6b235e9f0ab","system_id":"levelo_inurba_marseille","lat":43.26511,"lon":5.39538,"is_reserved":false,"is_disabled":false,"rental_uris":{"android":"levelo://app?vid=f8b9426a-ccdd-4f1c-972e-f6b235e9f0ab","ios":"levelo://app?vid=f8b9426a-ccdd-4f1c-972e-f6b235e9f0ab"},"vehicle_type_id":"4","last_reported":1751044166,"current_range_meters":13600,"station_id":"ce4bhi12rcd13ifvqfq0","pricing_plan_id":"cebpf4jnsgd1na2vs0mg"},{"bike_id":"f0057ca2-de2d-4464-8902-068dc3677e00","system_id":"levelo_inurba_marseille","lat":43.21185,"lon":5.35077,"is_reserved":false,"is_disabled":false,"rental_uris":{"android":"levelo://app?vid=f0057ca2-de2d-4464-8902-068dc3677e00","ios":"levelo://app?vid=f0057ca2-de2d-4464-8902-068dc3677e00"},"vehicle_type_id":"4","last_reported":1751044166,"current_range_meters":13600,"station_id":"st_cvj6sg6p6f1abm77japg","pricing_plan_id":"cebpf4jnsgd1na2vs0mg"},{"bike_id":"bb69c1e1-7084-4be7-966a-57a7bcdfcb6c","system_id":"levelo_inurba_marseille","lat":43.24631,"lon":5.41591,"is_reserved":false,"is_disabled":false,"rental_uris":{"android":"levelo://app?vid=bb69c1e1-7084-4be7-966a-57a7bcdfcb6c","ios":"levelo://app?vid=bb69c1e1-7084-4be7-966a-57a7bcdfcb6c"},"vehicle_type_id":"4","last_reported":1751044166,"current_range_meters":14000,"station_id":"","pricing_plan_id":"cebpf4jnsgd1na2vs0mg"},{"bike_id":"d369fce4-a5e3-47a9-9941-8c735e1886cb","system_id":"levelo_inurba_marseille","lat":43.31122,"lon":5.37775,"is_reserved":false,"is_disabled":false,"rental_uris":{"android":"levelo://app?vid=d369fce4-a5e3-47a9-9941-8c735e1886cb","ios":"levelo://app?vid=d369fce4-a5e3-47a9-9941-8c735e1886cb"},"vehicle_type_id":"4","last_reported":1751044166,"current_range_meters":14000,"station_id":"ce4bgt92rcd13ifvqcg0","pricing_plan_id":"cebpf4jnsgd1na2vs0mg"},{"bike_id":"95fcb398-0ae7-4480-bf89-f6df8bd713c1","system_id":"levelo_inurba_marseille","lat":43.28617,"lon":5.35101,"is_reserved":false,"is_disabled":false,"rental_uris":{"android":"levelo://app?vid=95fcb398-0ae7-4480-bf89-f6df8bd713c1","ios":"levelo://app?vid=95fcb398-0ae7-4480-bf89-f6df8bd713c1"},"vehicle_type_id":"4","last_reported":1751044166,"current_range_meters":14000,"station_id":"ce4bhch2rcd13ifvqeug","pricing_plan_id":"cebpf4jnsgd1na2vs0mg"},{"bike_id":"46fc1da8-b21e-49ec-9f51-bd3892d403d9","system_id":"levelo_inurba_marseille","lat":43.24162,"lon":5.36416,"is_reserved":false,"is_disabled":false,"rental_uris":{"android":"levelo://app?vid=46fc1da8-b21e-49ec-9f51-bd3892d403d9","ios":"levelo://app?vid=46fc1da8-b21e-49ec-9f51-bd3892d403d9"},"vehicle_type_id":"4","last_reported":1751044166,"current_range_meters":14000,"station_id":"cpo36qri1sfpv3e86is0","pricing_plan_id":"cebpf4jnsgd1na2vs0mg"},{"bike_id":"d60113c8-3387-46de-adde-b2b1abf1350a","system_id":"levelo_inurba_marseille","lat":43.299659,"lon":5.413215,"is_reserved":false,"is_disabled":false,"rental_uris":{"android":"levelo://app?vid=d60113c8-3387-46de-adde-b2b1abf1350a","ios":"levelo://app?vid=d60113c8-3387-46de-adde-b2b1abf1350a"},"vehicle_type_id":"4","last_reported":1751044166,"current_range_meters":14400,"station_id":"ce4bhp12rcd13ifvqh9g","pricing_plan_id":"cebpf4jnsgd1na2vs0mg"},{"bike_id":"2a9a5366-8dad-42f1-bee6-ffb042c54776","system_id":"levelo_inurba_marseille","lat":43.21181,"lon":5.35049,"is_reserved":false,"is_disabled":false,"rental_uris":{"android":"levelo://app?vid=2a9a5366-8dad-42f1-bee6-ffb042c54776","ios":"levelo://app?vid=2a9a5366-8dad-42f1-bee6-ffb042c54776"},"vehicle_type_id":"4","last_reported":1751044166,"current_range_meters":14400,"station_id":"st_cvj6sg6p6f1abm77japg","pricing_plan_id":"cebpf4jnsgd1na2vs0mg"},{"bike_id":"9d6f188b-895c-48b2-a21a-b96f8230ea05","system_id":"levelo_inurba_marseille","lat":43.29231,"lon":5.36489,"is_reserved":false,"is_disabled":false,"rental_uris":{"android":"levelo://app?vid=9d6f188b-895c-48b2-a21a-b96f8230ea05","ios":"levelo://app?vid=9d6f188b-895c-48b2-a21a-b96f8230ea05"},"vehicle_type_id":"4","last_reported":1751044166,"current_range_meters":14800,"station_id":"","pricing_plan_id":"cebpf4jnsgd1na2vs0mg"},{"bike_id":"fb2c5b4a-60db-46bb-800e-2abf8bdea4b9","system_id":"levelo_inurba_marseille","lat":43.28275,"lon":5.35062,"is_reserved":false,"is_disabled":false,"rental_uris":{"android":"levelo://app?vid=fb2c5b4a-60db-46bb-800e-2abf8bdea4b9","ios":"levelo://app?vid=fb2c5b4a-60db-46bb-800e-2abf8bdea4b9"},"vehicle_type_id":"4","last_reported":1751044166,"current_range_meters":14800,"station_id":"ce4bhbp2rcd13ifvqerg","pricing_plan_id":"cebpf4jnsgd1na2vs0mg"},{"bike_id":"b68f667d-6589-4c00-806a-c74284cd581d","system_id":"levelo_inurba_marseille","lat":43.28268,"lon":5.35071,"is_reserved":false,"is_disabled":false,"rental_uris":{"android":"levelo://app?vid=b68f667d-6589-4c00-806a-c74284cd581d","ios":"levelo://app?vid=b68f667d-6589-4c00-806a-c74284cd581d"},"vehicle_type_id":"4","last_reported":1751044166,"current_range_meters":14800,"station_id":"ce4bhbp2rcd13ifvqerg","pricing_plan_id":"cebpf4jnsgd1na2vs0mg"},{"bike_id":"97e8e409-31d2-4af5-8886-af9fc20d2e1a","system_id":"levelo_inurba_marseille","lat":43.26224,"lon":5.4045,"is_reserved":false,"is_disabled":false,"rental_uris":{"android":"levelo://app?vid=97e8e409-31d2-4af5-8886-af9fc20d2e1a","ios":"levelo://app?vid=97e8e409-31d2-4af5-8886-af9fc20d2e1a"},"vehicle_type_id":"4","last_reported":1751044166,"current_range_meters":14800,"station_id":"ce4bhmh2rcd13ifvqgmg","pricing_plan_id":"cebpf4jnsgd1na2vs0mg"},{"bike_id":"7dfc5216-abd2-4eb0-aa98-27c7a95c769d","system_id":"levelo_inurba_marseille","lat":43.22958,"lon":5.35349,"is_reserved":false,"is_disabled":false,"rental_uris":{"android":"levelo://app?vid=7dfc5216-abd2-4eb0-aa98-27c7a95c769d","ios":"levelo://app?vid=7dfc5216-abd2-4eb0-aa98-27c7a95c769d"},"vehicle_type_id":"4","last_reported":1751044166,"current_range_meters":14800,"station_id":"cpo3532slgdg3j2ikp40","pricing_plan_id":"cebpf4jnsgd1na2vs0mg"},{"bike_id":"d9f859fe-6696-4fc4-b012-53ce22bef5d7","system_id":"levelo_inurba_marseille","lat":43.25581,"lon":5.38228,"is_reserved":false,"is_disabled":false,"rental_uris":{"android":"levelo://app?vid=d9f859fe-6696-4fc4-b012-53ce22bef5d7","ios":"levelo://app?vid=d9f859fe-6696-4fc4-b012-53ce22bef5d7"},"vehicle_type_id":"4","last_reported":1751044166,"current_range_meters":15200,"station_id":"ce4bhih2rcd13ifvqfs0","pricing_plan_id":"cebpf4jnsgd1na2vs0mg"},{"bike_id":"e6ce70f7-9138-485c-a4db-2c9174614cff","system_id":"levelo_inurba_marseille","lat":43.31775,"lon":5.36864,"is_reserved":false,"is_disabled":false,"rental_uris":{"android":"levelo://app?vid=e6ce70f7-9138-485c-a4db-2c9174614cff","ios":"levelo://app?vid=e6ce70f7-9138-485c-a4db-2c9174614cff"},"vehicle_type_id":"4","last_reported":1751044166,"current_range_meters":16000,"station_id":"","pricing_plan_id":"cebpf4jnsgd1na2vs0mg"},{"bike_id":"743f7df4-96f9-4c86-bc13-e69fec52db90","system_id":"levelo_inurba_marseille","lat":43.262237,"lon":5.404479,"is_reserved":false,"is_disabled":false,"rental_uris":{"android":"levelo://app?vid=743f7df4-96f9-4c86-bc13-e69fec52db90","ios":"levelo://app?vid=743f7df4-96f9-4c86-bc13-e69fec52db90"},"vehicle_type_id":"4","last_reported":1751044166,"current_range_meters":16000,"station_id":"","pricing_plan_id":"cebpf4jnsgd1na2vs0mg"},{"bike_id":"bb3dc383-7a50-4d2a-a57e-8c5948819a7a","system_id":"levelo_inurba_marseille","lat":43.284242,"lon":5.349899,"is_reserved":false,"is_disabled":false,"rental_uris":{"android":"levelo://app?vid=bb3dc383-7a50-4d2a-a57e-8c5948819a7a","ios":"levelo://app?vid=bb3dc383-7a50-4d2a-a57e-8c5948819a7a"},"vehicle_type_id":"4","last_reported":1751044166,"current_range_meters":16000,"station_id":"ce4bhbh2rcd13ifvqepg","pricing_plan_id":"cebpf4jnsgd1na2vs0mg"},{"bike_id":"90418652-f87c-4a8b-912a-222ccd5fde8a","system_id":"levelo_inurba_marseille","lat":43.23183,"lon":5.39991,"is_reserved":false,"is_disabled":false,"rental_uris":{"android":"levelo://app?vid=90418652-f87c-4a8b-912a-222ccd5fde8a","ios":"levelo://app?vid=90418652-f87c-4a8b-912a-222ccd5fde8a"},"vehicle_type_id":"4","last_reported":1751044166,"current_range_meters":16000,"station_id":"ce4bhn12rcd13ifvqgqg","pricing_plan_id":"cebpf4jnsgd1na2vs0mg"},{"bike_id":"bbc4a376-bee7-4ad5-a49a-1022d27c1489","system_id":"levelo_inurba_marseille","lat":43.32098,"lon":5.36766,"is_reserved":false,"is_disabled":false,"rental_uris":{"android":"levelo://app?vid=bbc4a376-bee7-4ad5-a49a-1022d27c1489","ios":"levelo://app?vid=bbc4a376-bee7-4ad5-a49a-1022d27c1489"},"vehicle_type_id":"4","last_reported":1751044166,"current_range_meters":16000,"station_id":"ce4bhrh2rcd13ifvqhug","pricing_plan_id":"cebpf4jnsgd1na2vs0mg"},{"bike_id":"815201a7-dbbe-4827-ab77-bd49f80ea5ee","system_id":"levelo_inurba_marseille","lat":43.297559,"lon":5.459988,"is_reserved":false,"is_disabled":false,"rental_uris":{"android":"levelo://app?vid=815201a7-dbbe-4827-ab77-bd49f80ea5ee","ios":"levelo://app?vid=815201a7-dbbe-4827-ab77-bd49f80ea5ee"},"vehicle_type_id":"4","last_reported":1751044166,"current_range_meters":16400,"station_id":"","pricing_plan_id":"cebpf4jnsgd1na2vs0mg"},{"bike_id":"b9b1f5b9-465b-474b-801e-6f579882fef9","system_id":"levelo_inurba_marseille","lat":43.28942,"lon":5.36638,"is_reserved":false,"is_disabled":false,"rental_uris":{"android":"levelo://app?vid=b9b1f5b9-465b-474b-801e-6f579882fef9","ios":"levelo://app?vid=b9b1f5b9-465b-474b-801e-6f579882fef9"},"vehicle_type_id":"4","last_reported":1751044166,"current_range_meters":16400,"station_id":"ce4bhap2rcd13ifvqek0","pricing_plan_id":"cebpf4jnsgd1na2vs0mg"},{"bike_id":"7ced21b4-6e37-4ae4-a54b-165b5b88dc04","system_id":"levelo_inurba_marseille","lat":43.288601,"lon":5.358655,"is_reserved":false,"is_disabled":false,"rental_uris":{"android":"levelo://app?vid=7ced21b4-6e37-4ae4-a54b-165b5b88dc04","ios":"levelo://app?vid=7ced21b4-6e37-4ae4-a54b-165b5b88dc04"},"vehicle_type_id":"4","last_reported":1751044166,"current_range_meters":16400,"station_id":"ce4bhb12rcd13ifvqem0","pricing_plan_id":"cebpf4jnsgd1na2vs0mg"},{"bike_id":"935c8062-ae25-46e0-901d-4b81929b99b7","system_id":"levelo_inurba_marseille","lat":43.217556,"lon":5.346011,"is_reserved":false,"is_disabled":false,"rental_uris":{"android":"levelo://app?vid=935c8062-ae25-46e0-901d-4b81929b99b7","ios":"levelo://app?vid=935c8062-ae25-46e0-901d-4b81929b99b7"},"vehicle_type_id":"4","last_reported":1751044166,"current_range_meters":16400,"station_id":"st_cvj6r9ubvosntc0bgbag","pricing_plan_id":"cebpf4jnsgd1na2vs0mg"},{"bike_id":"7ef8a998-dd29-4201-809b-2135b8b8733e","system_id":"levelo_inurba_marseille","lat":43.29973,"lon":5.37174,"is_reserved":false,"is_disabled":false,"rental_uris":{"android":"levelo://app?vid=7ef8a998-dd29-4201-809b-2135b8b8733e","ios":"levelo://app?vid=7ef8a998-dd29-4201-809b-2135b8b8733e"},"vehicle_type_id":"4","last_reported":1751044166,"current_range_meters":16800,"station_id":"ce4bgr92rcd13ifvqc7g","pricing_plan_id":"cebpf4jnsgd1na2vs0mg"},{"bike_id":"928057a5-150a-4272-b6ad-f4bdff231852","system_id":"levelo_inurba_marseille","lat":43.28263,"lon":5.35072,"is_reserved":false,"is_disabled":false,"rental_uris":{"android":"levelo://app?vid=928057a5-150a-4272-b6ad-f4bdff231852","ios":"levelo://app?vid=928057a5-150a-4272-b6ad-f4bdff231852"},"vehicle_type_id":"4","last_reported":1751044166,"current_range_meters":16800,"station_id":"ce4bhbp2rcd13ifvqerg","pricing_plan_id":"cebpf4jnsgd1na2vs0mg"},{"bike_id":"d74d7be5-ba54-4d68-9cdb-a520d677c267","system_id":"levelo_inurba_marseille","lat":43.23192,"lon":5.35553,"is_reserved":false,"is_disabled":false,"rental_uris":{"android":"levelo://app?vid=d74d7be5-ba54-4d68-9cdb-a520d677c267","ios":"levelo://app?vid=d74d7be5-ba54-4d68-9cdb-a520d677c267"},"vehicle_type_id":"4","last_reported":1751044166,"current_range_meters":16800,"station_id":"ce4bhu92rcd13ifvqi70","pricing_plan_id":"cebpf4jnsgd1na2vs0mg"},{"bike_id":"721165c1-ef6f-40cc-8d33-af3a7999864b","system_id":"levelo_inurba_marseille","lat":43.327417,"lon":5.379665,"is_reserved":false,"is_disabled":false,"rental_uris":{"android":"levelo://app?vid=721165c1-ef6f-40cc-8d33-af3a7999864b","ios":"levelo://app?vid=721165c1-ef6f-40cc-8d33-af3a7999864b"},"vehicle_type_id":"4","last_reported":1751044166,"current_range_meters":17200,"station_id":"","pricing_plan_id":"cebpf4jnsgd1na2vs0mg"},{"bike_id":"ca1c2dc7-875a-4563-8b41-4aa30df4a6f8","system_id":"levelo_inurba_marseille","lat":43.28422,"lon":5.34988,"is_reserved":false,"is_disabled":false,"rental_uris":{"android":"levelo://app?vid=ca1c2dc7-875a-4563-8b41-4aa30df4a6f8","ios":"levelo://app?vid=ca1c2dc7-875a-4563-8b41-4aa30df4a6f8"},"vehicle_type_id":"4","last_reported":1751044166,"current_range_meters":17200,"station_id":"ce4bhbh2rcd13ifvqepg","pricing_plan_id":"cebpf4jnsgd1na2vs0mg"},{"bike_id":"4e86cc3c-c73a-459d-9502-593756f1e536","system_id":"levelo_inurba_marseille","lat":43.29276,"lon":5.36837,"is_reserved":false,"is_disabled":false,"rental_uris":{"android":"levelo://app?vid=4e86cc3c-c73a-459d-9502-593756f1e536","ios":"levelo://app?vid=4e86cc3c-c73a-459d-9502-593756f1e536"},"vehicle_type_id":"4","last_reported":1751044166,"current_range_meters":17200,"station_id":"ce4bhbp2rcd13ifvqesg","pricing_plan_id":"cebpf4jnsgd1na2vs0mg"},{"bike_id":"44a787ca-ba12-46d3-b2b1-6dadc0662f43","system_id":"levelo_inurba_marseille","lat":43.24388,"lon":5.37058,"is_reserved":false,"is_disabled":false,"rental_uris":{"android":"levelo://app?vid=44a787ca-ba12-46d3-b2b1-6dadc0662f43","ios":"levelo://app?vid=44a787ca-ba12-46d3-b2b1-6dadc0662f43"},"vehicle_type_id":"4","last_reported":1751044166,"current_range_meters":17200,"station_id":"ce4bhhh2rcd13ifvqfk0","pricing_plan_id":"cebpf4jnsgd1na2vs0mg"},{"bike_id":"5ee968a0-c563-4fe7-af42-94d57af4802d","system_id":"levelo_inurba_marseille","lat":43.28285,"lon":5.35081,"is_reserved":false,"is_disabled":false,"rental_uris":{"android":"levelo://app?vid=5ee968a0-c563-4fe7-af42-94d57af4802d","ios":"levelo://app?vid=5ee968a0-c563-4fe7-af42-94d57af4802d"},"vehicle_type_id":"4","last_reported":1751044166,"current_range_meters":17600,"station_id":"ce4bhbp2rcd13ifvqerg","pricing_plan_id":"cebpf4jnsgd1na2vs0mg"},{"bike_id":"a5512743-d81b-446e-94b2-36d8539c1580","system_id":"levelo_inurba_marseille","lat":43.26194,"lon":5.37472,"is_reserved":false,"is_disabled":false,"rental_uris":{"android":"levelo://app?vid=a5512743-d81b-446e-94b2-36d8539c1580","ios":"levelo://app?vid=a5512743-d81b-446e-94b2-36d8539c1580"},"vehicle_type_id":"4","last_reported":1751044166,"current_range_meters":17600,"station_id":"ce4bhgp2rcd13ifvqfc0","pricing_plan_id":"cebpf4jnsgd1na2vs0mg"},{"bike_id":"c1bc2afe-3778-4aaa-84eb-d1aa18eb4d06","system_id":"levelo_inurba_marseille","lat":43.27813,"lon":5.40709,"is_reserved":false,"is_disabled":false,"rental_uris":{"android":"levelo://app?vid=c1bc2afe-3778-4aaa-84eb-d1aa18eb4d06","ios":"levelo://app?vid=c1bc2afe-3778-4aaa-84eb-d1aa18eb4d06"},"vehicle_type_id":"4","last_reported":1751044166,"current_range_meters":17600,"station_id":"ce4bhnh2rcd13ifvqgtg","pricing_plan_id":"cebpf4jnsgd1na2vs0mg"},{"bike_id":"81115363-d7ba-42ce-969b-a1d7ad97fa06","system_id":"levelo_inurba_marseille","lat":43.33724,"lon":5.391815,"is_reserved":false,"is_disabled":false,"rental_uris":{"android":"levelo://app?vid=81115363-d7ba-42ce-969b-a1d7ad97fa06","ios":"levelo://app?vid=81115363-d7ba-42ce-969b-a1d7ad97fa06"},"vehicle_type_id":"4","last_reported":1751044166,"current_range_meters":17600,"station_id":"ce4bhr92rcd13ifvqhsg","pricing_plan_id":"cebpf4jnsgd1na2vs0mg"},{"bike_id":"347c65f5-70a0-437e-8561-cc426885c4fd","system_id":"levelo_inurba_marseille","lat":43.32105,"lon":5.36771,"is_reserved":false,"is_disabled":false,"rental_uris":{"android":"levelo://app?vid=347c65f5-70a0-437e-8561-cc426885c4fd","ios":"levelo://app?vid=347c65f5-70a0-437e-8561-cc426885c4fd"},"vehicle_type_id":"4","last_reported":1751044166,"current_range_meters":17600,"station_id":"ce4bhrh2rcd13ifvqhug","pricing_plan_id":"cebpf4jnsgd1na2vs0mg"},{"bike_id":"5a3dab73-c126-4de6-a97f-f9ca71f0b35f","system_id":"levelo_inurba_marseille","lat":43.217545,"lon":5.346115,"is_reserved":false,"is_disabled":false,"rental_uris":{"android":"levelo://app?vid=5a3dab73-c126-4de6-a97f-f9ca71f0b35f","ios":"levelo://app?vid=5a3dab73-c126-4de6-a97f-f9ca71f0b35f"},"vehicle_type_id":"4","last_reported":1751044166,"current_range_meters":17600,"station_id":"st_cvj6r9ubvosntc0bgbag","pricing_plan_id":"cebpf4jnsgd1na2vs0mg"},{"bike_id":"12c7fc9f-7c7b-4185-9b2f-badd0c17e36b","system_id":"levelo_inurba_marseille","lat":43.24731,"lon":5.37446,"is_reserved":false,"is_disabled":false,"rental_uris":{"android":"levelo://app?vid=12c7fc9f-7c7b-4185-9b2f-badd0c17e36b","ios":"levelo://app?vid=12c7fc9f-7c7b-4185-9b2f-badd0c17e36b"},"vehicle_type_id":"4","last_reported":1751044166,"current_range_meters":18000,"station_id":"","pricing_plan_id":"cebpf4jnsgd1na2vs0mg"},{"bike_id":"8abd569a-944b-49dc-87a3-54720128b2b1","system_id":"levelo_inurba_marseille","lat":43.29009,"lon":5.35618,"is_reserved":false,"is_disabled":false,"rental_uris":{"android":"levelo://app?vid=8abd569a-944b-49dc-87a3-54720128b2b1","ios":"levelo://app?vid=8abd569a-944b-49dc-87a3-54720128b2b1"},"vehicle_type_id":"4","last_reported":1751044166,"current_range_meters":18000,"station_id":"ce4bhb92rcd13ifvqen0","pricing_plan_id":"cebpf4jnsgd1na2vs0mg"},{"bike_id":"9b6e32b6-08e4-4fa8-869c-e4e89ca7485e","system_id":"levelo_inurba_marseille","lat":43.27373,"lon":5.3626,"is_reserved":false,"is_disabled":false,"rental_uris":{"android":"levelo://app?vid=9b6e32b6-08e4-4fa8-869c-e4e89ca7485e","ios":"levelo://app?vid=9b6e32b6-08e4-4fa8-869c-e4e89ca7485e"},"vehicle_type_id":"4","last_reported":1751044166,"current_range_meters":18000,"station_id":"ce4bhbh2rcd13ifvqeo0","pricing_plan_id":"cebpf4jnsgd1na2vs0mg"},{"bike_id":"0f8cacae-de93-4327-8d12-f3527018c82d","system_id":"levelo_inurba_marseille","lat":43.284179,"lon":5.349941,"is_reserved":false,"is_disabled":false,"rental_uris":{"android":"levelo://app?vid=0f8cacae-de93-4327-8d12-f3527018c82d","ios":"levelo://app?vid=0f8cacae-de93-4327-8d12-f3527018c82d"},"vehicle_type_id":"4","last_reported":1751044166,"current_range_meters":18000,"station_id":"ce4bhbh2rcd13ifvqepg","pricing_plan_id":"cebpf4jnsgd1na2vs0mg"},{"bike_id":"a079755e-00fe-4423-96a1-abd89bdbe9c1","system_id":"levelo_inurba_marseille","lat":43.25097,"lon":5.403311,"is_reserved":false,"is_disabled":false,"rental_uris":{"android":"levelo://app?vid=a079755e-00fe-4423-96a1-abd89bdbe9c1","ios":"levelo://app?vid=a079755e-00fe-4423-96a1-abd89bdbe9c1"},"vehicle_type_id":"4","last_reported":1751044166,"current_range_meters":18000,"station_id":"ce4bhlh2rcd13ifvqgig","pricing_plan_id":"cebpf4jnsgd1na2vs0mg"},{"bike_id":"ff89fb86-2501-4795-be17-01eb9bf44833","system_id":"levelo_inurba_marseille","lat":43.323633,"lon":5.367378,"is_reserved":false,"is_disabled":false,"rental_uris":{"android":"levelo://app?vid=ff89fb86-2501-4795-be17-01eb9bf44833","ios":"levelo://app?vid=ff89fb86-2501-4795-be17-01eb9bf44833"},"vehicle_type_id":"4","last_reported":1751044166,"current_range_meters":18000,"station_id":"ce4bhsh2rcd13ifvqi2g","pricing_plan_id":"cebpf4jnsgd1na2vs0mg"},{"bike_id":"a7883090-0e10-4075-944b-a3cca54bc544","system_id":"levelo_inurba_marseille","lat":43.22496,"lon":5.34787,"is_reserved":false,"is_disabled":false,"rental_uris":{"android":"levelo://app?vid=a7883090-0e10-4075-944b-a3cca54bc544","ios":"levelo://app?vid=a7883090-0e10-4075-944b-a3cca54bc544"},"vehicle_type_id":"4","last_reported":1751044166,"current_range_meters":18000,"station_id":"st_cvj5dfep6f1abm77gieg","pricing_plan_id":"cebpf4jnsgd1na2vs0mg"},{"bike_id":"14e8ef37-e834-4d76-9946-e98f7a083a2f","system_id":"levelo_inurba_marseille","lat":43.21195,"lon":5.35074,"is_reserved":false,"is_disabled":false,"rental_uris":{"android":"levelo://app?vid=14e8ef37-e834-4d76-9946-e98f7a083a2f","ios":"levelo://app?vid=14e8ef37-e834-4d76-9946-e98f7a083a2f"},"vehicle_type_id":"4","last_reported":1751044166,"current_range_meters":18000,"station_id":"st_cvj6sg6p6f1abm77japg","pricing_plan_id":"cebpf4jnsgd1na2vs0mg"},{"bike_id":"6af79a00-84aa-4908-a347-34425e08c383","system_id":"levelo_inurba_marseille","lat":43.302877,"lon":5.375736,"is_reserved":false,"is_disabled":false,"rental_uris":{"android":"levelo://app?vid=6af79a00-84aa-4908-a347-34425e08c383","ios":"levelo://app?vid=6af79a00-84aa-4908-a347-34425e08c383"},"vehicle_type_id":"4","last_reported":1751044166,"current_range_meters":18800,"station_id":"","pricing_plan_id":"cebpf4jnsgd1na2vs0mg"},{"bike_id":"0c803610-f6e9-41d4-936d-0b433fa62796","system_id":"levelo_inurba_marseille","lat":43.30192,"lon":5.37839,"is_reserved":false,"is_disabled":false,"rental_uris":{"android":"levelo://app?vid=0c803610-f6e9-41d4-936d-0b433fa62796","ios":"levelo://app?vid=0c803610-f6e9-41d4-936d-0b433fa62796"},"vehicle_type_id":"4","last_reported":1751044166,"current_range_meters":18800,"station_id":"","pricing_plan_id":"cebpf4jnsgd1na2vs0mg"},{"bike_id":"98e663f1-acbb-45b9-b7ef-b8f2f43319ff","system_id":"levelo_inurba_marseille","lat":43.27212,"lon":5.39185,"is_reserved":false,"is_disabled":false,"rental_uris":{"android":"levelo://app?vid=98e663f1-acbb-45b9-b7ef-b8f2f43319ff","ios":"levelo://app?vid=98e663f1-acbb-45b9-b7ef-b8f2f43319ff"},"vehicle_type_id":"4","last_reported":1751044166,"current_range_meters":18800,"station_id":"ce4bhhp2rcd13ifvqfm0","pricing_plan_id":"cebpf4jnsgd1na2vs0mg"},{"bike_id":"997e55e4-0955-4785-a2c0-36aa6fd9953d","system_id":"levelo_inurba_marseille","lat":43.28156,"lon":5.42642,"is_reserved":false,"is_disabled":false,"rental_uris":{"android":"levelo://app?vid=997e55e4-0955-4785-a2c0-36aa6fd9953d","ios":"levelo://app?vid=997e55e4-0955-4785-a2c0-36aa6fd9953d"},"vehicle_type_id":"4","last_reported":1751044166,"current_range_meters":18800,"station_id":"ce4bhnh2rcd13ifvqgug","pricing_plan_id":"cebpf4jnsgd1na2vs0mg"},{"bike_id":"68ba553f-21c6-4e54-95b0-38cf227ee3c9","system_id":"levelo_inurba_marseille","lat":43.26262,"lon":5.40186,"is_reserved":false,"is_disabled":false,"rental_uris":{"android":"levelo://app?vid=68ba553f-21c6-4e54-95b0-38cf227ee3c9","ios":"levelo://app?vid=68ba553f-21c6-4e54-95b0-38cf227ee3c9"},"vehicle_type_id":"4","last_reported":1751044166,"current_range_meters":19200,"station_id":"","pricing_plan_id":"cebpf4jnsgd1na2vs0mg"},{"bike_id":"8542862f-8f2a-433b-bd3c-d933f8bc5a14","system_id":"levelo_inurba_marseille","lat":43.28406,"lon":5.34943,"is_reserved":false,"is_disabled":false,"rental_uris":{"android":"levelo://app?vid=8542862f-8f2a-433b-bd3c-d933f8bc5a14","ios":"levelo://app?vid=8542862f-8f2a-433b-bd3c-d933f8bc5a14"},"vehicle_type_id":"4","last_reported":1751044166,"current_range_meters":19200,"station_id":"ce4bhbh2rcd13ifvqepg","pricing_plan_id":"cebpf4jnsgd1na2vs0mg"},{"bike_id":"9ab7e260-491d-4ce0-91f6-b789ad4b578e","system_id":"levelo_inurba_marseille","lat":43.28269,"lon":5.35074,"is_reserved":false,"is_disabled":false,"rental_uris":{"android":"levelo://app?vid=9ab7e260-491d-4ce0-91f6-b789ad4b578e","ios":"levelo://app?vid=9ab7e260-491d-4ce0-91f6-b789ad4b578e"},"vehicle_type_id":"4","last_reported":1751044166,"current_range_meters":19200,"station_id":"ce4bhbp2rcd13ifvqerg","pricing_plan_id":"cebpf4jnsgd1na2vs0mg"},{"bike_id":"905c1d61-69a1-47dd-9770-325ecface2e9","system_id":"levelo_inurba_marseille","lat":43.27175,"lon":5.40992,"is_reserved":false,"is_disabled":false,"rental_uris":{"android":"levelo://app?vid=905c1d61-69a1-47dd-9770-325ecface2e9","ios":"levelo://app?vid=905c1d61-69a1-47dd-9770-325ecface2e9"},"vehicle_type_id":"4","last_reported":1751044166,"current_range_meters":19200,"station_id":"ce4bhl12rcd13ifvqgf0","pricing_plan_id":"cebpf4jnsgd1na2vs0mg"},{"bike_id":"a6dddae8-45c7-4ecb-8623-571b496b0fe6","system_id":"levelo_inurba_marseille","lat":43.25124,"lon":5.40314,"is_reserved":false,"is_disabled":false,"rental_uris":{"android":"levelo://app?vid=a6dddae8-45c7-4ecb-8623-571b496b0fe6","ios":"levelo://app?vid=a6dddae8-45c7-4ecb-8623-571b496b0fe6"},"vehicle_type_id":"4","last_reported":1751044166,"current_range_meters":19200,"station_id":"ce4bhlh2rcd13ifvqgig","pricing_plan_id":"cebpf4jnsgd1na2vs0mg"},{"bike_id":"f1ff92a8-5c11-4ada-9288-1fbc0651bc7b","system_id":"levelo_inurba_marseille","lat":43.28155,"lon":5.42649,"is_reserved":false,"is_disabled":false,"rental_uris":{"android":"levelo://app?vid=f1ff92a8-5c11-4ada-9288-1fbc0651bc7b","ios":"levelo://app?vid=f1ff92a8-5c11-4ada-9288-1fbc0651bc7b"},"vehicle_type_id":"4","last_reported":1751044166,"current_range_meters":19200,"station_id":"ce4bhnh2rcd13ifvqgug","pricing_plan_id":"cebpf4jnsgd1na2vs0mg"},{"bike_id":"8a8c6162-7f73-44a8-802b-39081c1709f6","system_id":"levelo_inurba_marseille","lat":43.3302,"lon":5.39044,"is_reserved":false,"is_disabled":false,"rental_uris":{"android":"levelo://app?vid=8a8c6162-7f73-44a8-802b-39081c1709f6","ios":"levelo://app?vid=8a8c6162-7f73-44a8-802b-39081c1709f6"},"vehicle_type_id":"4","last_reported":1751044166,"current_range_meters":19200,"station_id":"ce4bhr92rcd13ifvqhrg","pricing_plan_id":"cebpf4jnsgd1na2vs0mg"},{"bike_id":"4043f5ed-1c71-456d-9c90-de5b8866cdaf","system_id":"levelo_inurba_marseille","lat":43.229286,"lon":5.353841,"is_reserved":false,"is_disabled":false,"rental_uris":{"android":"levelo://app?vid=4043f5ed-1c71-456d-9c90-de5b8866cdaf","ios":"levelo://app?vid=4043f5ed-1c71-456d-9c90-de5b8866cdaf"},"vehicle_type_id":"4","last_reported":1751044166,"current_range_meters":19200,"station_id":"cpo3532slgdg3j2ikp40","pricing_plan_id":"cebpf4jnsgd1na2vs0mg"},{"bike_id":"b13877a6-4825-4d82-b46b-67fa8ad66c5d","system_id":"levelo_inurba_marseille","lat":43.21207,"lon":5.35075,"is_reserved":false,"is_disabled":false,"rental_uris":{"android":"levelo://app?vid=b13877a6-4825-4d82-b46b-67fa8ad66c5d","ios":"levelo://app?vid=b13877a6-4825-4d82-b46b-67fa8ad66c5d"},"vehicle_type_id":"4","last_reported":1751044166,"current_range_meters":19200,"station_id":"st_cvj6sg6p6f1abm77japg","pricing_plan_id":"cebpf4jnsgd1na2vs0mg"},{"bike_id":"a0f50702-dc16-439a-a5f0-5f8125561e5d","system_id":"levelo_inurba_marseille","lat":43.28718,"lon":5.37939,"is_reserved":false,"is_disabled":false,"rental_uris":{"android":"levelo://app?vid=a0f50702-dc16-439a-a5f0-5f8125561e5d","ios":"levelo://app?vid=a0f50702-dc16-439a-a5f0-5f8125561e5d"},"vehicle_type_id":"4","last_reported":1751044166,"current_range_meters":19600,"station_id":"ce4bh9p2rcd13ifvqec0","pricing_plan_id":"cebpf4jnsgd1na2vs0mg"},{"bike_id":"a66b4f1e-0ede-429c-bb89-81df1a70ff6f","system_id":"levelo_inurba_marseille","lat":43.27378,"lon":5.36255,"is_reserved":false,"is_disabled":false,"rental_uris":{"android":"levelo://app?vid=a66b4f1e-0ede-429c-bb89-81df1a70ff6f","ios":"levelo://app?vid=a66b4f1e-0ede-429c-bb89-81df1a70ff6f"},"vehicle_type_id":"4","last_reported":1751044166,"current_range_meters":19600,"station_id":"ce4bhbh2rcd13ifvqeo0","pricing_plan_id":"cebpf4jnsgd1na2vs0mg"},{"bike_id":"30f1e410-dc75-445d-8fc3-9911090e06f2","system_id":"levelo_inurba_marseille","lat":43.28413,"lon":5.34998,"is_reserved":false,"is_disabled":false,"rental_uris":{"android":"levelo://app?vid=30f1e410-dc75-445d-8fc3-9911090e06f2","ios":"levelo://app?vid=30f1e410-dc75-445d-8fc3-9911090e06f2"},"vehicle_type_id":"4","last_reported":1751044166,"current_range_meters":19600,"station_id":"ce4bhbh2rcd13ifvqepg","pricing_plan_id":"cebpf4jnsgd1na2vs0mg"},{"bike_id":"2d68ae48-8800-4966-ac54-b70a47531dd9","system_id":"levelo_inurba_marseille","lat":43.24398,"lon":5.37056,"is_reserved":false,"is_disabled":false,"rental_uris":{"android":"levelo://app?vid=2d68ae48-8800-4966-ac54-b70a47531dd9","ios":"levelo://app?vid=2d68ae48-8800-4966-ac54-b70a47531dd9"},"vehicle_type_id":"4","last_reported":1751044166,"current_range_meters":19600,"station_id":"ce4bhhh2rcd13ifvqfk0","pricing_plan_id":"cebpf4jnsgd1na2vs0mg"},{"bike_id":"d6dfd653-c4e4-4e10-a730-7c27bcd6b147","system_id":"levelo_inurba_marseille","lat":43.29555,"lon":5.42293,"is_reserved":false,"is_disabled":false,"rental_uris":{"android":"levelo://app?vid=d6dfd653-c4e4-4e10-a730-7c27bcd6b147","ios":"levelo://app?vid=d6dfd653-c4e4-4e10-a730-7c27bcd6b147"},"vehicle_type_id":"4","last_reported":1751044166,"current_range_meters":19600,"station_id":"ce4bhph2rcd13ifvqhdg","pricing_plan_id":"cebpf4jnsgd1na2vs0mg"},{"bike_id":"f810be2a-3c00-446f-9ba1-1f3840ce349d","system_id":"levelo_inurba_marseille","lat":43.321,"lon":5.36766,"is_reserved":false,"is_disabled":false,"rental_uris":{"android":"levelo://app?vid=f810be2a-3c00-446f-9ba1-1f3840ce349d","ios":"levelo://app?vid=f810be2a-3c00-446f-9ba1-1f3840ce349d"},"vehicle_type_id":"4","last_reported":1751044166,"current_range_meters":19600,"station_id":"ce4bhrh2rcd13ifvqhug","pricing_plan_id":"cebpf4jnsgd1na2vs0mg"},{"bike_id":"1b822f82-31c1-4da1-96d3-38f8ccdca357","system_id":"levelo_inurba_marseille","lat":43.29779,"lon":5.39156,"is_reserved":false,"is_disabled":false,"rental_uris":{"android":"levelo://app?vid=1b822f82-31c1-4da1-96d3-38f8ccdca357","ios":"levelo://app?vid=1b822f82-31c1-4da1-96d3-38f8ccdca357"},"vehicle_type_id":"4","last_reported":1751044166,"current_range_meters":19600,"station_id":"chh1huq6cuj3fo74tm60","pricing_plan_id":"cebpf4jnsgd1na2vs0mg"},{"bike_id":"73eae19d-5cc5-48fe-810c-85fc7175c6a0","system_id":"levelo_inurba_marseille","lat":43.230603,"lon":5.35503,"is_reserved":false,"is_disabled":false,"rental_uris":{"android":"levelo://app?vid=73eae19d-5cc5-48fe-810c-85fc7175c6a0","ios":"levelo://app?vid=73eae19d-5cc5-48fe-810c-85fc7175c6a0"},"vehicle_type_id":"4","last_reported":1751044166,"current_range_meters":19600,"station_id":"cpo3342slgdg3j2ifvpg","pricing_plan_id":"cebpf4jnsgd1na2vs0mg"},{"bike_id":"b334124c-c876-45e4-8b38-f47ede11b4b7","system_id":"levelo_inurba_marseille","lat":43.21773,"lon":5.34585,"is_reserved":false,"is_disabled":false,"rental_uris":{"android":"levelo://app?vid=b334124c-c876-45e4-8b38-f47ede11b4b7","ios":"levelo://app?vid=b334124c-c876-45e4-8b38-f47ede11b4b7"},"vehicle_type_id":"4","last_reported":1751044166,"current_range_meters":19600,"station_id":"st_cvj6r9ubvosntc0bgbag","pricing_plan_id":"cebpf4jnsgd1na2vs0mg"},{"bike_id":"b35d2238-e31b-4d5c-919d-6f2bf3cc4108","system_id":"levelo_inurba_marseille","lat":43.27374,"lon":5.36286,"is_reserved":false,"is_disabled":false,"rental_uris":{"android":"levelo://app?vid=b35d2238-e31b-4d5c-919d-6f2bf3cc4108","ios":"levelo://app?vid=b35d2238-e31b-4d5c-919d-6f2bf3cc4108"},"vehicle_type_id":"4","last_reported":1751044166,"current_range_meters":20000,"station_id":"ce4bhbh2rcd13ifvqeo0","pricing_plan_id":"cebpf4jnsgd1na2vs0mg"},{"bike_id":"5752023f-c033-4383-b123-bddf2a5c9b53","system_id":"levelo_inurba_marseille","lat":43.27374,"lon":5.36264,"is_reserved":false,"is_disabled":false,"rental_uris":{"android":"levelo://app?vid=5752023f-c033-4383-b123-bddf2a5c9b53","ios":"levelo://app?vid=5752023f-c033-4383-b123-bddf2a5c9b53"},"vehicle_type_id":"4","last_reported":1751044166,"current_range_meters":20000,"station_id":"ce4bhbh2rcd13ifvqeo0","pricing_plan_id":"cebpf4jnsgd1na2vs0mg"},{"bike_id":"88bfaac2-defd-4219-99ee-23bffc813ba2","system_id":"levelo_inurba_marseille","lat":43.28427,"lon":5.34989,"is_reserved":false,"is_disabled":false,"rental_uris":{"android":"levelo://app?vid=88bfaac2-defd-4219-99ee-23bffc813ba2","ios":"levelo://app?vid=88bfaac2-defd-4219-99ee-23bffc813ba2"},"vehicle_type_id":"4","last_reported":1751044166,"current_range_meters":20000,"station_id":"ce4bhbh2rcd13ifvqepg","pricing_plan_id":"cebpf4jnsgd1na2vs0mg"},{"bike_id":"0046e6ac-9bd6-46eb-a50f-cbd92c52bd99","system_id":"levelo_inurba_marseille","lat":43.2621,"lon":5.37442,"is_reserved":false,"is_disabled":false,"rental_uris":{"android":"levelo://app?vid=0046e6ac-9bd6-46eb-a50f-cbd92c52bd99","ios":"levelo://app?vid=0046e6ac-9bd6-46eb-a50f-cbd92c52bd99"},"vehicle_type_id":"4","last_reported":1751044166,"current_range_meters":20000,"station_id":"ce4bhgp2rcd13ifvqfc0","pricing_plan_id":"cebpf4jnsgd1na2vs0mg"},{"bike_id":"d308c658-b19c-49c0-8014-5506ff26f69a","system_id":"levelo_inurba_marseille","lat":43.23083,"lon":5.40459,"is_reserved":false,"is_disabled":false,"rental_uris":{"android":"levelo://app?vid=d308c658-b19c-49c0-8014-5506ff26f69a","ios":"levelo://app?vid=d308c658-b19c-49c0-8014-5506ff26f69a"},"vehicle_type_id":"4","last_reported":1751044166,"current_range_meters":20400,"station_id":"","pricing_plan_id":"cebpf4jnsgd1na2vs0mg"},