{"last_updated":1727428200,"ttl":60,"version":"2.2","data":{"bikes":[{"bike_id":"0aa566d5-79fb-4b78-b6d0-5219ee99bfea","system_id":"levelo_inurba_marseille","lat":43.297089,"lon":5.365973,"is_reserved":false,"is_disabled":false,"rental_uris":{"android":"levelo://app?vid=0aa566d5-79fb-4b78-b6d0-5219ee99bfea","ios":"levelo://app?vid=0aa566d5-79fb-4b78-b6d0-5219ee99bfea"},"vehicle_type_id":"4","last_reported":1727428201,"current_range_meters":25200,"station_id":"ce4bgn12rcd13ifvqbt0","pricing_plan_id":"cebpf4jnsgd1na2vs0mg"},{"bike_id":"bd79f2e4-f016-4afe-8266-6409758949ed","system_id":"levelo_inurba_marseille","lat":43.28358,"lon":5.38094,"is_reserved":false,"is_disabled":false,"rental_uris":{"android":"levelo://app?vid=bd79f2e4-f016-4afe-8266-6409758949ed","ios":"levelo://app?vid=bd79f2e4-f016-4afe-8266-6409758949ed"},"vehicle_type_id":"4","last_reported":1727428201,"current_range_meters":9600,"station_id":"ce4bh412rcd13ifvqdr0","pricing_plan_id":"cebpf4jnsgd1na2vs0mg"},{"bike_id":"46b617f9-2667-4f5e-96e4-b6d2d330ed88","system_id":"levelo_inurba_marseille","lat":43.293701,"lon":5.378425,"is_reserved":false,"is_disabled":false,"rental_uris":{"android":"levelo://app?vid=46b617f9-2667-4f5e-96e4-b6d2d330ed88","ios":"levelo://app?vid=46b617f9-2667-4f5e-96e4-b6d2d330ed88"},"vehicle_type_id":"4","last_reported":1727428201,"current_range_meters":16800,"station_id":"ce4bgjh2rcd13ifvqbf0","pricing_plan_id":"cebpf4jnsgd1na2vs0mg"},{"bike_id":"9cc3f55e-f15a-4c6e-9aad-7382ccb1af3f","system_id":"levelo_inurba_marseille","lat":43.30155,"lon":5.38077,"is_reserved":false,"is_disabled":false,"rental_uris":{"android":"levelo://app?vid=9cc3f55e-f15a-4c6e-9aad-7382ccb1af3f","ios":"levelo://app?vid=9cc3f55e-f15a-4c6e-9aad-7382ccb1af3f"},"vehicle_type_id":"4","last_reported":1727428201,"current_range_meters":8400,"station_id":"ce4bgjp2rcd13ifvqbh0","pricing_plan_id":"cebpf4jnsgd1na2vs0mg"},{"bike_id":"b7d4c31a-d244-4726-a6c8-7797d4822f89","system_id":"levelo_inurba_marseille","lat":43.25933,"lon":5.40898,"is_reserved":false,"is_disabled":false,"rental_uris":{"android":"levelo://app?vid=b7d4c31a-d244-4726-a6c8-7797d4822f89","ios":"levelo://app?vid=b7d4c31a-d244-4726-a6c8-7797d4822f89"},"vehicle_type_id":"4","last_reported":1727428201,"current_range_meters":34000,"station_id":"ce4bhm92rcd13ifvqglg","pricing_plan_id":"cebpf4jnsgd1na2vs0mg"},{"bike_id":"2fb200d7-7ff2-47e1-ab61-4c1a5539af3e","system_id":"levelo_inurba_marseille","lat":43.33606,"lon":5.40998,"is_reserved":false,"is_disabled":false,"rental_uris":{"android":"levelo://app?vid=2fb200d7-7ff2-47e1-ab61-4c1a5539af3e","ios":"levelo://app?vid=2fb200d7-7ff2-47e1-ab61-4c1a5539af3e"},"vehicle_type_id":"4","last_reported":1727428201,"current_range_meters":37600,"station_id":"ce4bhqh2rcd13ifvqhmg","pricing_plan_id":"cebpf4jnsgd1na2vs0mg"},{"bike_id":"319a95fd-4cb6-4140-b1df-59a1aab23798","system_id":"levelo_inurba_marseille","lat":43.23134,"lon":5.43704,"is_reserved":false,"is_disabled":false,"rental_uris":{"android":"levelo://app?vid=319a95fd-4cb6-4140-b1df-59a1aab23798","ios":"levelo://app?vid=319a95fd-4cb6-4140-b1df-59a1aab23798"},"vehicle_type_id":"4","last_reported":1727428201,"current_range_meters":14800,"station_id":"ce4bhmp2rcd13ifvqgog","pricing_plan_id":"cebpf4jnsgd1na2vs0mg"},{"bike_id":"5f5467ca-0486-444e-85fa-d152fd5f6569","system_id":"levelo_inurba_marseille","lat":43.30129,"lon":5.37424,"is_reserved":false,"is_disabled":false,"rental_uris":{"android":"levelo://app?vid=5f5467ca-0486-444e-85fa-d152fd5f6569","ios":"levelo://app?vid=5f5467ca-0486-444e-85fa-d152fd5f6569"},"vehicle_type_id":"4","last_reported":1727428201,"current_range_meters":6800,"station_id":"ce4bgs92rcd13ifvqcc0","pricing_plan_id":"cebpf4jnsgd1na2vs0mg"},{"bike_id":"9498b4e3-b6e6-4adc-8cd9-8261832b8ae6","system_id":"levelo_inurba_marseille","lat":43.27429,"lon":5.39405,"is_reserved":false,"is_disabled":false,"rental_uris":{"android":"levelo://app?vid=9498b4e3-b6e6-4adc-8cd9-8261832b8ae6","ios":"levelo://app?vid=9498b4e3-b6e6-4adc-8cd9-8261832b8ae6"},"vehicle_type_id":"4","last_reported":1727428201,"current_range_meters":38800,"station_id":"ce4bhdp2rcd13ifvqf20","pricing_plan_id":"cebpf4jnsgd1na2vs0mg"},{"bike_id":"00482625-2a1f-4d9c-b0de-68a86c151684","system_id":"levelo_inurba_marseille","lat":43.2594,"lon":5.40903,"is_reserved":false,"is_disabled":false,"rental_uris":{"android":"levelo://app?vid=00482625-2a1f-4d9c-b0de-68a86c151684","ios":"levelo://app?vid=00482625-2a1f-4d9c-b0de-68a86c151684"},"vehicle_type_id":"4","last_reported":1727428201,"current_range_meters":27200,"station_id":"ce4bhm92rcd13ifvqglg","pricing_plan_id":"cebpf4jnsgd1na2vs0mg"},{"bike_id":"dc98319e-5162-478f-a064-06bf2202823f","system_id":"levelo_inurba_marseille","lat":43.29807,"lon":5.38108,"is_reserved":false,"is_disabled":false,"rental_uris":{"android":"levelo://app?vid=dc98319e-5162-478f-a064-06bf2202823f","ios":"levelo://app?vid=dc98319e-5162-478f-a064-06bf2202823f"},"vehicle_type_id":"4","last_reported":1727428201,"current_range_meters":22800,"station_id":"ce4bgip2rcd13ifvqbb0","pricing_plan_id":"cebpf4jnsgd1na2vs0mg"},{"bike_id":"5934b7ec-6fce-4b40-aeb2-d3d0e41e7a53","system_id":"levelo_inurba_marseille","lat":43.2815,"lon":5.42635,"is_reserved":false,"is_disabled":false,"rental_uris":{"android":"levelo://app?vid=5934b7ec-6fce-4b40-aeb2-d3d0e41e7a53","ios":"levelo://app?vid=5934b7ec-6fce-4b40-aeb2-d3d0e41e7a53"},"vehicle_type_id":"4","last_reported":1727428201,"current_range_meters":16400,"station_id":"ce4bhnh2rcd13ifvqgug","pricing_plan_id":"cebpf4jnsgd1na2vs0mg"},{"bike_id":"f33136f8-80df-46a1-8531-bd11745d371d","system_id":"levelo_inurba_marseille","lat":43.3081,"lon":5.38153,"is_reserved":false,"is_disabled":false,"rental_uris":{"android":"levelo://app?vid=f33136f8-80df-46a1-8531-bd11745d371d","ios":"levelo://app?vid=f33136f8-80df-46a1-8531-bd11745d371d"},"vehicle_type_id":"4","last_reported":1727428201,"current_range_meters":30000,"station_id":"ce4bgt12rcd13ifvqce0","pricing_plan_id":"cebpf4jnsgd1na2vs0mg"},{"bike_id":"0db56f9a-d3e3-47b0-806f-3f2742cc7cdc","system_id":"levelo_inurba_marseille","lat":43.30545,"lon":5.36557,"is_reserved":false,"is_disabled":false,"rental_uris":{"android":"levelo://app?vid=0db56f9a-d3e3-47b0-806f-3f2742cc7cdc","ios":"levelo://app?vid=0db56f9a-d3e3-47b0-806f-3f2742cc7cdc"},"vehicle_type_id":"4","last_reported":1727428201,"current_range_meters":12000,"station_id":"ce4bgs12rcd13ifvqcag","pricing_plan_id":"cebpf4jnsgd1na2vs0mg"},{"bike_id":"088562bc-64d4-46a5-8f3e-99abf39bc338","system_id":"levelo_inurba_marseille","lat":43.30547,"lon":5.36546,"is_reserved":false,"is_disabled":false,"rental_uris":{"android":"levelo://app?vid=088562bc-64d4-46a5-8f3e-99abf39bc338","ios":"levelo://app?vid=088562bc-64d4-46a5-8f3e-99abf39bc338"},"vehicle_type_id":"4","last_reported":1727428201,"current_range_meters":34000,"station_id":"ce4bgs12rcd13ifvqcag","pricing_plan_id":"cebpf4jnsgd1na2vs0mg"},{"bike_id":"55f4f50b-d6dd-4e12-86b3-1486da4af7d9","system_id":"levelo_inurba_marseille","lat":43.22929,"lon":5.35377,"is_reserved":false,"is_disabled":false,"rental_uris":{"android":"levelo://app?vid=55f4f50b-d6dd-4e12-86b3-1486da4af7d9","ios":"levelo://app?vid=55f4f50b-d6dd-4e12-86b3-1486da4af7d9"},"vehicle_type_id":"4","last_reported":1727428201,"current_range_meters":36400,"station_id":"cpo3532slgdg3j2ikp40","pricing_plan_id":"cebpf4jnsgd1na2vs0mg"},{"bike_id":"d6301baf-37a0-48e5-97ab-20f18d8d3ee8","system_id":"levelo_inurba_marseille","lat":43.29015,"lon":5.381168,"is_reserved":false,"is_disabled":false,"rental_uris":{"android":"levelo://app?vid=d6301baf-37a0-48e5-97ab-20f18d8d3ee8","ios":"levelo://app?vid=d6301baf-37a0-48e5-97ab-20f18d8d3ee8"},"vehicle_type_id":"4","last_reported":1727428201,"current_range_meters":38800,"station_id":"ce4bh312rcd13ifvqdk0","pricing_plan_id":"cebpf4jnsgd1na2vs0mg"},{"bike_id":"8375139e-18f8-4cf4-90b3-f619b755fe59","system_id":"levelo_inurba_marseille","lat":43.2408,"lon":5.37754,"is_reserved":false,"is_disabled":false,"rental_uris":{"android":"levelo://app?vid=8375139e-18f8-4cf4-90b3-f619b755fe59","ios":"levelo://app?vid=8375139e-18f8-4cf4-90b3-f619b755fe59"},"vehicle_type_id":"4","last_reported":1727428201,"current_range_meters":35200,"station_id":"ce4bhnp2rcd13ifvqgvg","pricing_plan_id":"cebpf4jnsgd1na2vs0mg"},{"bike_id":"f03813ae-b67f-45be-9bb1-846ca1327581","system_id":"levelo_inurba_marseille","lat":43.29522,"lon":5.37492,"is_reserved":false,"is_disabled":false,"rental_uris":{"android":"levelo://app?vid=f03813ae-b67f-45be-9bb1-846ca1327581","ios":"levelo://app?vid=f03813ae-b67f-45be-9bb1-846ca1327581"},"vehicle_type_id":"4","last_reported":1727428201,"current_range_meters":6800,"station_id":"ce4bgkp2rcd13ifvqbmg","pricing_plan_id":"cebpf4jnsgd1na2vs0mg"},{"bike_id":"e81937a1-2b85-4d32-a504-2e433ba01bbc","system_id":"levelo_inurba_marseille","lat":43.29442,"lon":5.39746,"is_reserved":false,"is_disabled":false,"rental_uris":{"android":"levelo://app?vid=e81937a1-2b85-4d32-a504-2e433ba01bbc","ios":"levelo://app?vid=e81937a1-2b85-4d32-a504-2e433ba01bbc"},"vehicle_type_id":"4","last_reported":1727428201,"current_range_meters":28800,"station_id":"ce4bh3h2rcd13ifvqdo0","pricing_plan_id":"cebpf4jnsgd1na2vs0mg"},{"bike_id":"1cd054ce-a4b1-44d8-afb0-3c23668c603a","system_id":"levelo_inurba_marseille","lat":43.30146,"lon":5.38097,"is_reserved":false,"is_disabled":false,"rental_uris":{"android":"levelo://app?vid=1cd054ce-a4b1-44d8-afb0-3c23668c603a","ios":"levelo://app?vid=1cd054ce-a4b1-44d8-afb0-3c23668c603a"},"vehicle_type_id":"4","last_reported":1727428201,"current_range_meters":19600,"station_id":"ce4bgjp2rcd13ifvqbh0","pricing_plan_id":"cebpf4jnsgd1na2vs0mg"},{"bike_id":"cd4c3ea5-3df9-4ccb-a55d-0c3b17cecce3","system_id":"levelo_inurba_marseille","lat":43.2749,"lon":5.42554,"is_reserved":false,"is_disabled":false,"rental_uris":{"android":"levelo://app?vid=cd4c3ea5-3df9-4ccb-a55d-0c3b17cecce3","ios":"levelo://app?vid=cd4c3ea5-3df9-4ccb-a55d-0c3b17cecce3"},"vehicle_type_id":"4","last_reported":1727428201,"current_range_meters":24400,"station_id":"","pricing_plan_id":"cebpf4jnsgd1na2vs0mg"},{"bike_id":"c29ec7dc-19df-4d05-ba3d-e424656ff97c","system_id":"levelo_inurba_marseille","lat":43.26207,"lon":5.37933,"is_reserved":false,"is_disabled":false,"rental_uris":{"android":"levelo://app?vid=c29ec7dc-19df-4d05-ba3d-e424656ff97c","ios":"levelo://app?vid=c29ec7dc-19df-4d05-ba3d-e424656ff97c"},"vehicle_type_id":"4","last_reported":1727428201,"current_range_meters":36400,"station_id":"ce4bhjp2rcd13ifvqg90","pricing_plan_id":"cebpf4jnsgd1na2vs0mg"},{"bike_id":"97a119a1-3338-4df7-8b8c-6726d849545c","system_id":"levelo_inurba_marseille","lat":43.33606,"lon":5.4103,"is_reserved":false,"is_disabled":false,"rental_uris":{"android":"levelo://app?vid=97a119a1-3338-4df7-8b8c-6726d849545c","ios":"levelo://app?vid=97a119a1-3338-4df7-8b8c-6726d849545c"},"vehicle_type_id":"4","last_reported":1727428201,"current_range_meters":12000,"station_id":"ce4bhqh2rcd13ifvqhmg","pricing_plan_id":"cebpf4jnsgd1na2vs0mg"},{"bike_id":"8faee668-83de-4319-b7b4-e7f609c03e12","system_id":"levelo_inurba_marseille","lat":43.28607,"lon":5.37054,"is_reserved":false,"is_disabled":false,"rental_uris":{"android":"levelo://app?vid=8faee668-83de-4319-b7b4-e7f609c03e12","ios":"levelo://app?vid=8faee668-83de-4319-b7b4-e7f609c03e12"},"vehicle_type_id":"4","last_reported":1727428201,"current_range_meters":24800,"station_id":"ce4bht12rcd13ifvqi60","pricing_plan_id":"cebpf4jnsgd1na2vs0mg"},{"bike_id":"e71b2228-487e-43d3-aaad-9eadfa97ebeb","system_id":"levelo_inurba_marseille","lat":43.30153,"lon":5.38076,"is_reserved":false,"is_disabled":false,"rental_uris":{"android":"levelo://app?vid=e71b2228-487e-43d3-aaad-9eadfa97ebeb","ios":"levelo://app?vid=e71b2228-487e-43d3-aaad-9eadfa97ebeb"},"vehicle_type_id":"4","last_reported":1727428201,"current_range_meters":2800,"station_id":"ce4bgjp2rcd13ifvqbh0","pricing_plan_id":"cebpf4jnsgd1na2vs0mg"},{"bike_id":"eac94fcf-7009-4925-86ac-1508f5bed8e7","system_id":"levelo_inurba_marseille","lat":43.26206,"lon":5.37926,"is_reserved":false,"is_disabled":false,"rental_uris":{"android":"levelo://app?vid=eac94fcf-7009-4925-86ac-1508f5bed8e7","ios":"levelo://app?vid=eac94fcf-7009-4925-86ac-1508f5bed8e7"},"vehicle_type_id":"4","last_reported":1727428201,"current_range_meters":31200,"station_id":"ce4bhjp2rcd13ifvqg90","pricing_plan_id":"cebpf4jnsgd1na2vs0mg"},{"bike_id":"7c86993b-611b-4fca-a3eb-d554f19d3105","system_id":"levelo_inurba_marseille","lat":43.24547,"lon":5.39523,"is_reserved":false,"is_disabled":false,"rental_uris":{"android":"levelo://app?vid=7c86993b-611b-4fca-a3eb-d554f19d3105","ios":"levelo://app?vid=7c86993b-611b-4fca-a3eb-d554f19d3105"},"vehicle_type_id":"4","last_reported":1727428201,"current_range_meters":3200,"station_id":"ce4bhlp2rcd13ifvqgjg","pricing_plan_id":"cebpf4jnsgd1na2vs0mg"},{"bike_id":"a43163e6-3be6-488c-bff3-4b9478da7974","system_id":"levelo_inurba_marseille","lat":43.29006,"lon":5.3562,"is_reserved":false,"is_disabled":false,"rental_uris":{"android":"levelo://app?vid=a43163e6-3be6-488c-bff3-4b9478da7974","ios":"levelo://app?vid=a43163e6-3be6-488c-bff3-4b9478da7974"},"vehicle_type_id":"4","last_reported":1727428201,"current_range_meters":35200,"station_id":"ce4bhb92rcd13ifvqen0","pricing_plan_id":"cebpf4jnsgd1na2vs0mg"},{"bike_id":"69abde98-4227-4071-99c0-b60926b0a40b","system_id":"levelo_inurba_marseille","lat":43.33615,"lon":5.41032,"is_reserved":false,"is_disabled":false,"rental_uris":{"android":"levelo://app?vid=69abde98-4227-4071-99c0-b60926b0a40b","ios":"levelo://app?vid=69abde98-4227-4071-99c0-b60926b0a40b"},"vehicle_type_id":"4","last_reported":1727428201,"current_range_meters":25600,"station_id":"ce4bhqh2rcd13ifvqhmg","pricing_plan_id":"cebpf4jnsgd1na2vs0mg"},{"bike_id":"13d1fa7f-3172-46d6-b8a5-774106f12ce3","system_id":"levelo_inurba_marseille","lat":43.27487,"lon":5.42459,"is_reserved":false,"is_disabled":false,"rental_uris":{"android":"levelo://app?vid=13d1fa7f-3172-46d6-b8a5-774106f12ce3","ios":"levelo://app?vid=13d1fa7f-3172-46d6-b8a5-774106f12ce3"},"vehicle_type_id":"4","last_reported":1727428201,"current_range_meters":29600,"station_id":"ce4bhn92rcd13ifvqgrg","pricing_plan_id":"cebpf4jnsgd1na2vs0mg"},{"bike_id":"9145a769-947f-4ef7-b971-08c191f83f09","system_id":"levelo_inurba_marseille","lat":43.325317,"lon":5.41441,"is_reserved":false,"is_disabled":false,"rental_uris":{"android":"levelo://app?vid=9145a769-947f-4ef7-b971-08c191f83f09","ios":"levelo://app?vid=9145a769-947f-4ef7-b971-08c191f83f09"},"vehicle_type_id":"4","last_reported":1727428201,"current_range_meters":38800,"station_id":"ce4bhq12rcd13ifvqhhg","pricing_plan_id":"cebpf4jnsgd1na2vs0mg"},{"bike_id":"b6daf4df-7c90-4c5e-b397-06a87d15013f","system_id":"levelo_inurba_marseille","lat":43.33752,"lon":5.37361,"is_reserved":false,"is_disabled":false,"rental_uris":{"android":"levelo://app?vid=b6daf4df-7c90-4c5e-b397-06a87d15013f","ios":"levelo://app?vid=b6daf4df-7c90-4c5e-b397-06a87d15013f"},"vehicle_type_id":"4","last_reported":1727428201,"current_range_meters":27600,"station_id":"","pricing_plan_id":"cebpf4jnsgd1na2vs0mg"},{"bike_id":"c7907116-f085-4574-b89a-1d87589b1c6f","system_id":"levelo_inurba_marseille","lat":43.26948,"lon":5.38641,"is_reserved":false,"is_disabled":false,"rental_uris":{"android":"levelo://app?vid=c7907116-f085-4574-b89a-1d87589b1c6f","ios":"levelo://app?vid=c7907116-f085-4574-b89a-1d87589b1c6f"},"vehicle_type_id":"4","last_reported":1727428201,"current_range_meters":38800,"station_id":"ce4bhh92rcd13ifvqfh0","pricing_plan_id":"cebpf4jnsgd1na2vs0mg"},{"bike_id":"c6a8f01e-009f-4613-948c-2dd4d8bd2d71","system_id":"levelo_inurba_marseille","lat":43.30154,"lon":5.38076,"is_reserved":false,"is_disabled":false,"rental_uris":{"android":"levelo://app?vid=c6a8f01e-009f-4613-948c-2dd4d8bd2d71","ios":"levelo://app?vid=c6a8f01e-009f-4613-948c-2dd4d8bd2d71"},"vehicle_type_id":"4","last_reported":1727428201,"current_range_meters":36800,"station_id":"ce4bgjp2rcd13ifvqbh0","pricing_plan_id":"cebpf4jnsgd1na2vs0mg"},{"bike_id":"1b3d53d0-1658-4efe-ab78-5a4e9acbd7ae","system_id":"levelo_inurba_marseille","lat":43.29907,"lon":5.38122,"is_reserved":false,"is_disabled":false,"rental_uris":{"android":"levelo://app?vid=1b3d53d0-1658-4efe-ab78-5a4e9acbd7ae","ios":"levelo://app?vid=1b3d53d0-1658-4efe-ab78-5a4e9acbd7ae"},"vehicle_type_id":"4","last_reported":1727428201,"current_range_meters":38400,"station_id":"ce4bgj12rcd13ifvqbc0","pricing_plan_id":"cebpf4jnsgd1na2vs0mg"},{"bike_id":"01958bcc-1114-44e7-a1de-ed0825d11990","system_id":"levelo_inurba_marseille","lat":43.33601,"lon":5.41025,"is_reserved":false,"is_disabled":false,"rental_uris":{"android":"levelo://app?vid=01958bcc-1114-44e7-a1de-ed0825d11990","ios":"levelo://app?vid=01958bcc-1114-44e7-a1de-ed0825d11990"},"vehicle_type_id":"4","last_reported":1727428201,"current_range_meters":39200,"station_id":"ce4bhqh2rcd13ifvqhmg","pricing_plan_id":"cebpf4jnsgd1na2vs0mg"},{"bike_id":"9fc77628-c6da-4931-9676-5cf4001f1b92","system_id":"levelo_inurba_marseille","lat":43.23156,"lon":5.43705,"is_reserved":false,"is_disabled":false,"rental_uris":{"android":"levelo://app?vid=9fc77628-c6da-4931-9676-5cf4001f1b92","ios":"levelo://app?vid=9fc77628-c6da-4931-9676-5cf4001f1b92"},"vehicle_type_id":"4","last_reported":1727428201,"current_range_meters":8000,"station_id":"ce4bhmp2rcd13ifvqgog","pricing_plan_id":"cebpf4jnsgd1na2vs0mg"},{"bike_id":"11961704-22b1-4a21-83af-1887552f88d7","system_id":"levelo_inurba_marseille","lat":43.29613,"lon":5.37736,"is_reserved":false,"is_disabled":false,"rental_uris":{"android":"levelo://app?vid=11961704-22b1-4a21-83af-1887552f88d7","ios":"levelo://app?vid=11961704-22b1-4a21-83af-1887552f88d7"},"vehicle_type_id":"4","last_reported":1727428201,"current_range_meters":22800,"station_id":"ce4bgi92rcd13ifvqb90","pricing_plan_id":"cebpf4jnsgd1na2vs0mg"},{"bike_id":"57bc1e84-e83e-4198-85b5-3e7f9c3f0b0b","system_id":"levelo_inurba_marseille","lat":43.24165,"lon":5.36393,"is_reserved":false,"is_disabled":false,"rental_uris":{"android":"levelo://app?vid=57bc1e84-e83e-4198-85b5-3e7f9c3f0b0b","ios":"levelo://app?vid=57bc1e84-e83e-4198-85b5-3e7f9c3f0b0b"},"vehicle_type_id":"4","last_reported":1727428201,"current_range_meters":24000,"station_id":"cpo36qri1sfpv3e86is0","pricing_plan_id":"cebpf4jnsgd1na2vs0mg"},{"bike_id":"7a8458d5-44ac-4f2e-abef-3f01eb31f7ca","system_id":"levelo_inurba_marseille","lat":43.337444,"lon":5.374475,"is_reserved":false,"is_disabled":false,"rental_uris":{"android":"levelo://app?vid=7a8458d5-44ac-4f2e-abef-3f01eb31f7ca","ios":"levelo://app?vid=7a8458d5-44ac-4f2e-abef-3f01eb31f7ca"},"vehicle_type_id":"4","last_reported":1727428201,"current_range_meters":17200,"station_id":"","pricing_plan_id":"cebpf4jnsgd1na2vs0mg"},{"bike_id":"a966ac32-e64e-4a37-b341-9c000c443d58","system_id":"levelo_inurba_marseille","lat":43.29533,"lon":5.38541,"is_reserved":false,"is_disabled":false,"rental_uris":{"android":"levelo://app?vid=a966ac32-e64e-4a37-b341-9c000c443d58","ios":"levelo://app?vid=a966ac32-e64e-4a37-b341-9c000c443d58"},"vehicle_type_id":"4","last_reported":1727428201,"current_range_meters":20800,"station_id":"ce4bgih2rcd13ifvqba0","pricing_plan_id":"cebpf4jnsgd1na2vs0mg"},{"bike_id":"245322ad-98ce-4a03-920e-f8861ea4255a","system_id":"levelo_inurba_marseille","lat":43.23053,"lon":5.3549,"is_reserved":false,"is_disabled":false,"rental_uris":{"android":"levelo://app?vid=245322ad-98ce-4a03-920e-f8861ea4255a","ios":"levelo://app?vid=245322ad-98ce-4a03-920e-f8861ea4255a"},"vehicle_type_id":"4","last_reported":1727428201,"current_range_meters":37600,"station_id":"cpo3342slgdg3j2ifvpg","pricing_plan_id":"cebpf4jnsgd1na2vs0mg"},{"bike_id":"cb158708-dd18-4b67-80b3-27cf4247826c","system_id":"levelo_inurba_marseille","lat":43.29026,"lon":5.39954,"is_reserved":false,"is_disabled":false,"rental_uris":{"android":"levelo://app?vid=cb158708-dd18-4b67-80b3-27cf4247826c","ios":"levelo://app?vid=cb158708-dd18-4b67-80b3-27cf4247826c"},"vehicle_type_id":"4","last_reported":1727428201,"current_range_meters":16000,"station_id":"ce4bh392rcd13ifvqdm0","pricing_plan_id":"cebpf4jnsgd1na2vs0mg"},{"bike_id":"44dfc799-10cd-4ba0-9fb9-6a56b2274b61","system_id":"levelo_inurba_marseille","lat":43.28669,"lon":5.38665,"is_reserved":false,"is_disabled":false,"rental_uris":{"android":"levelo://app?vid=44dfc799-10cd-4ba0-9fb9-6a56b2274b61","ios":"levelo://app?vid=44dfc799-10cd-4ba0-9fb9-6a56b2274b61"},"vehicle_type_id":"4","last_reported":1727428201,"current_range_meters":31200,"station_id":"ce4bh492rcd13ifvqdug","pricing_plan_id":"cebpf4jnsgd1na2vs0mg"},{"bike_id":"b7b92fbd-cffd-4a1f-9948-3e7f9639c013","system_id":"levelo_inurba_marseille","lat":43.30318,"lon":5.36895,"is_reserved":false,"is_disabled":false,"rental_uris":{"android":"levelo://app?vid=b7b92fbd-cffd-4a1f-9948-3e7f9639c013","ios":"levelo://app?vid=b7b92fbd-cffd-4a1f-9948-3e7f9639c013"},"vehicle_type_id":"4","last_reported":1727428201,"current_range_meters":28400,"station_id":"ce4bgqh2rcd13ifvqc5g","pricing_plan_id":"cebpf4jnsgd1na2vs0mg"},{"bike_id":"b478bdab-ddff-4645-a824-4bd76b643799","system_id":"levelo_inurba_marseille","lat":43.31996,"lon":5.38155,"is_reserved":false,"is_disabled":false,"rental_uris":{"android":"levelo://app?vid=b478bdab-ddff-4645-a824-4bd76b643799","ios":"levelo://app?vid=b478bdab-ddff-4645-a824-4bd76b643799"},"vehicle_type_id":"4","last_reported":1727428201,"current_range_meters":25600,"station_id":"ce4bhr12rcd13ifvqhpg","pricing_plan_id":"cebpf4jnsgd1na2vs0mg"},{"bike_id":"12295907-1f7e-4d23-ab92-5c3f5438c8c9","system_id":"levelo_inurba_marseille","lat":43.34139,"lon":5.40907,"is_reserved":false,"is_disabled":false,"rental_uris":{"android":"levelo://app?vid=12295907-1f7e-4d23-ab92-5c3f5438c8c9","ios":"levelo://app?vid=12295907-1f7e-4d23-ab92-5c3f5438c8c9"},"vehicle_type_id":"4","last_reported":1727428201,"current_range_meters":8800,"station_id":"ce4bhqh2rcd13ifvqhlg","pricing_plan_id":"cebpf4jnsgd1na2vs0mg"},{"bike_id":"0a4f9adf-3015-4d90-98fb-6812acaa9106","system_id":"levelo_inurba_marseille","lat":43.24073,"lon":5.37765,"is_reserved":false,"is_disabled":false,"rental_uris":{"android":"levelo://app?vid=0a4f9adf-3015-4d90-98fb-6812acaa9106","ios":"levelo://app?vid=0a4f9adf-3015-4d90-98fb-6812acaa9106"},"vehicle_type_id":"4","last_reported":1727428201,"current_range_meters":22800,"station_id":"ce4bhnp2rcd13ifvqgvg","pricing_plan_id":"cebpf4jnsgd1na2vs0mg"},{"bike_id":"c1352122-1815-4887-a727-30dc7964e958","system_id":"levelo_inurba_marseille","lat":43.26676,"lon":5.38265,"is_reserved":false,"is_disabled":false,"rental_uris":{"android":"levelo://app?vid=c1352122-1815-4887-a727-30dc7964e958","ios":"levelo://app?vid=c1352122-1815-4887-a727-30dc7964e958"},"vehicle_type_id":"4","last_reported":1727428201,"current_range_meters":30000,"station_id":"ce4bhg92rcd13ifvqf90","pricing_plan_id":"cebpf4jnsgd1na2vs0mg"},{"bike_id":"82b21071-e460-4d63-ba05-208aa886756d","system_id":"levelo_inurba_marseille","lat":43.30556,"lon":5.36538,"is_reserved":false,"is_disabled":false,"rental_uris":{"android":"levelo://app?vid=82b21071-e460-4d63-ba05-208aa886756d","ios":"levelo://app?vid=82b21071-e460-4d63-ba05-208aa886756d"},"vehicle_type_id":"4","last_reported":1727428201,"current_range_meters":28400,"station_id":"ce4bgs12rcd13ifvqcag","pricing_plan_id":"cebpf4jnsgd1na2vs0mg"},{"bike_id":"1a4cedbe-7250-4281-b554-36d31b68031a","system_id":"levelo_inurba_marseille","lat":43.31345,"lon":5.36701,"is_reserved":false,"is_disabled":false,"rental_uris":{"android":"levelo://app?vid=1a4cedbe-7250-4281-b554-36d31b68031a","ios":"levelo://app?vid=1a4cedbe-7250-4281-b554-36d31b68031a"},"vehicle_type_id":"4","last_reported":1727428201,"current_range_meters":29600,"station_id":"ce4bgr92rcd13ifvqc6g","pricing_plan_id":"cebpf4jnsgd1na2vs0mg"},{"bike_id":"d69c4e96-06b8-47c0-b384-736b98acbf55","system_id":"levelo_inurba_marseille","lat":43.26209,"lon":5.37926,"is_reserved":false,"is_disabled":false,"rental_uris":{"android":"levelo://app?vid=d69c4e96-06b8-47c0-b384-736b98acbf55","ios":"levelo://app?vid=d69c4e96-06b8-47c0-b384-736b98acbf55"},"vehicle_type_id":"4","last_reported":1727428201,"current_range_meters":16400,"station_id":"ce4bhjp2rcd13ifvqg90","pricing_plan_id":"cebpf4jnsgd1na2vs0mg"},{"bike_id":"7d022498-65f9-4fd1-90ba-7b83d725622d","system_id":"levelo_inurba_marseille","lat":43.27488,"lon":5.42448,"is_reserved":false,"is_disabled":false,"rental_uris":{"android":"levelo://app?vid=7d022498-65f9-4fd1-90ba-7b83d725622d","ios":"levelo://app?vid=7d022498-65f9-4fd1-90ba-7b83d725622d"},"vehicle_type_id":"4","last_reported":1727428201,"current_range_meters":38800,"station_id":"ce4bhn92rcd13ifvqgrg","pricing_plan_id":"cebpf4jnsgd1na2vs0mg"},{"bike_id":"ecfefff2-ba45-487e-9691-99e00376922a","system_id":"levelo_inurba_marseille","lat":43.29197,"lon":5.35794,"is_reserved":false,"is_disabled":false,"rental_uris":{"android":"levelo://app?vid=ecfefff2-ba45-487e-9691-99e00376922a","ios":"levelo://app?vid=ecfefff2-ba45-487e-9691-99e00376922a"},"vehicle_type_id":"4","last_reported":1727428201,"current_range_meters":35200,"station_id":"ce4bhb12rcd13ifvqel0","pricing_plan_id":"cebpf4jnsgd1na2vs0mg"},{"bike_id":"ef333548-5b42-4805-a9c0-dab49a7bfdc3","system_id":"levelo_inurba_marseille","lat":43.3247,"lon":5.36551,"is_reserved":false,"is_disabled":false,"rental_uris":{"android":"levelo://app?vid=ef333548-5b42-4805-a9c0-dab49a7bfdc3","ios":"levelo://app?vid=ef333548-5b42-4805-a9c0-dab49a7bfdc3"},"vehicle_type_id":"4","last_reported":1727428201,"current_range_meters":39200,"station_id":"ce4bhs12rcd13ifvqhvg","pricing_plan_id":"cebpf4jnsgd1na2vs0mg"},{"bike_id":"740c8093-7907-4694-893a-7128cab2c2c5","system_id":"levelo_inurba_marseille","lat":43.30551,"lon":5.36717,"is_reserved":false,"is_disabled":false,"rental_uris":{"android":"levelo://app?vid=740c8093-7907-4694-893a-7128cab2c2c5","ios":"levelo://app?vid=740c8093-7907-4694-893a-7128cab2c2c5"},"vehicle_type_id":"4","last_reported":1727428201,"current_range_meters":17600,"station_id":"ce4bgrp2rcd13ifvqc9g","pricing_plan_id":"cebpf4jnsgd1na2vs0mg"},{"bike_id":"0968ebbe-bb82-4446-8d24-0ab8271c7a4b","system_id":"levelo_inurba_marseille","lat":43.23147,"lon":5.43719,"is_reserved":false,"is_disabled":false,"rental_uris":{"android":"levelo://app?vid=0968ebbe-bb82-4446-8d24-0ab8271c7a4b","ios":"levelo://app?vid=0968ebbe-bb82-4446-8d24-0ab8271c7a4b"},"vehicle_type_id":"4","last_reported":1727428201,"current_range_meters":24000,"station_id":"ce4bhmp2rcd13ifvqgog","pricing_plan_id":"cebpf4jnsgd1na2vs0mg"},{"bike_id":"23d05b63-3c61-47a3-94e6-76c025f39445","system_id":"levelo_inurba_marseille","lat":43.28033,"lon":5.36943,"is_reserved":false,"is_disabled":false,"rental_uris":{"android":"levelo://app?vid=23d05b63-3c61-47a3-94e6-76c025f39445","ios":"levelo://app?vid=23d05b63-3c61-47a3-94e6-76c025f39445"},"vehicle_type_id":"4","last_reported":1727428201,"current_range_meters":22400,"station_id":"ce4bha12rcd13ifvqef0","pricing_plan_id":"cebpf4jnsgd1na2vs0mg"},{"bike_id":"701ef5b0-588a-437b-99c6-a00baddfc677","system_id":"levelo_inurba_marseille","lat":43.32538,"lon":5.41431,"is_reserved":false,"is_disabled":false,"rental_uris":{"android":"levelo://app?vid=701ef5b0-588a-437b-99c6-a00baddfc677","ios":"levelo://app?vid=701ef5b0-588a-437b-99c6-a00baddfc677"},"vehicle_type_id":"4","last_reported":1727428201,"current_range_meters":38800,"station_id":"ce4bhq12rcd13ifvqhhg","pricing_plan_id":"cebpf4jnsgd1na2vs0mg"},{"bike_id":"d5bbef54-0e76-4d64-bc8a-a1819238d1a7","system_id":"levelo_inurba_marseille","lat":43.23961,"lon":5.36631,"is_reserved":false,"is_disabled":false,"rental_uris":{"android":"levelo://app?vid=d5bbef54-0e76-4d64-bc8a-a1819238d1a7","ios":"levelo://app?vid=d5bbef54-0e76-4d64-bc8a-a1819238d1a7"},"vehicle_type_id":"4","last_reported":1727428201,"current_range_meters":37600,"station_id":"ce4bhi12rcd13ifvqfp0","pricing_plan_id":"cebpf4jnsgd1na2vs0mg"},{"bike_id":"aadb9b46-4125-42b2-8420-e8327b4def86","system_id":"levelo_inurba_marseille","lat":43.27486,"lon":5.42465,"is_reserved":false,"is_disabled":false,"rental_uris":{"android":"levelo://app?vid=aadb9b46-4125-42b2-8420-e8327b4def86","ios":"levelo://app?vid=aadb9b46-4125-42b2-8420-e8327b4def86"},"vehicle_type_id":"4","last_reported":1727428201,"current_range_meters":12800,"station_id":"ce4bhn92rcd13ifvqgrg","pricing_plan_id":"cebpf4jnsgd1na2vs0mg"},{"bike_id":"edfb10e7-4dd9-4ccf-b164-7ea169742e36","system_id":"levelo_inurba_marseille","lat":43.28032,"lon":5.36952,"is_reserved":false,"is_disabled":false,"rental_uris":{"android":"levelo://app?vid=edfb10e7-4dd9-4ccf-b164-7ea169742e36","ios":"levelo://app?vid=edfb10e7-4dd9-4ccf-b164-7ea169742e36"},"vehicle_type_id":"4","last_reported":1727428201,"current_range_meters":20000,"station_id":"ce4bha12rcd13ifvqef0","pricing_plan_id":"cebpf4jnsgd1na2vs0mg"},{"bike_id":"591039d5-67c5-43df-ae6f-f1c141c3a597","system_id":"levelo_inurba_marseille","lat":43.25938,"lon":5.40898,"is_reserved":false,"is_disabled":false,"rental_uris":{"android":"levelo://app?vid=591039d5-67c5-43df-ae6f-f1c141c3a597","ios":"levelo://app?vid=591039d5-67c5-43df-ae6f-f1c141c3a597"},"vehicle_type_id":"4","last_reported":1727428201,"current_range_meters":23200,"station_id":"ce4bhm92rcd13ifvqglg","pricing_plan_id":"cebpf4jnsgd1na2vs0mg"},{"bike_id":"46c7f826-6870-4085-9903-dd105da81d2b","system_id":"levelo_inurba_marseille","lat":43.24539,"lon":5.39522,"is_reserved":false,"is_disabled":false,"rental_uris":{"android":"levelo://app?vid=46c7f826-6870-4085-9903-dd105da81d2b","ios":"levelo://app?vid=46c7f826-6870-4085-9903-dd105da81d2b"},"vehicle_type_id":"4","last_reported":1727428201,"current_range_meters":17600,"station_id":"ce4bhlp2rcd13ifvqgjg","pricing_plan_id":"cebpf4jnsgd1na2vs0mg"},{"bike_id":"408c97d1-21e6-4935-996c-105fdea2968d","system_id":"levelo_inurba_marseille","lat":43.30464,"lon":5.379,"is_reserved":false,"is_disabled":false,"rental_uris":{"android":"levelo://app?vid=408c97d1-21e6-4935-996c-105fdea2968d","ios":"levelo://app?vid=408c97d1-21e6-4935-996c-105fdea2968d"},"vehicle_type_id":"4","last_reported":1727428201,"current_range_meters":18000,"station_id":"ce4bgup2rcd13ifvqcn0","pricing_plan_id":"cebpf4jnsgd1na2vs0mg"},{"bike_id":"a7302b0f-2688-4184-88c1-f6b3a72e9fb7","system_id":"levelo_inurba_marseille","lat":43.255512,"lon":5.400709,"is_reserved":false,"is_disabled":false,"rental_uris":{"android":"levelo://app?vid=a7302b0f-2688-4184-88c1-f6b3a72e9fb7","ios":"levelo://app?vid=a7302b0f-2688-4184-88c1-f6b3a72e9fb7"},"vehicle_type_id":"4","last_reported":1727428201,"current_range_meters":32400,"station_id":"","pricing_plan_id":"cebpf4jnsgd1na2vs0mg"},{"bike_id":"bba7de10-169e-4f05-8c77-3ae54a142318","system_id":"levelo_inurba_marseille","lat":43.30145,"lon":5.38099,"is_reserved":false,"is_disabled":false,"rental_uris":{"android":"levelo://app?vid=bba7de10-169e-4f05-8c77-3ae54a142318","ios":"levelo://app?vid=bba7de10-169e-4f05-8c77-3ae54a142318"},"vehicle_type_id":"4","last_reported":1727428201,"current_range_meters":30000,"station_id":"ce4bgjp2rcd13ifvqbh0","pricing_plan_id":"cebpf4jnsgd1na2vs0mg"},{"bike_id":"fcae820f-ad7b-46d5-8a08-fc4e44c653aa","system_id":"levelo_inurba_marseille","lat":43.30467,"lon":5.37909,"is_reserved":false,"is_disabled":false,"rental_uris":{"android":"levelo://app?vid=fcae820f-ad7b-46d5-8a08-fc4e44c653aa","ios":"levelo://app?vid=fcae820f-ad7b-46d5-8a08-fc4e44c653aa"},"vehicle_type_id":"4","last_reported":1727428201,"current_range_meters":34000,"station_id":"ce4bgup2rcd13ifvqcn0","pricing_plan_id":"cebpf4jnsgd1na2vs0mg"},{"bike_id":"887a89df-ad82-4e63-836b-438539d6155f","system_id":"levelo_inurba_marseille","lat":43.30133,"lon":5.37423,"is_reserved":false,"is_disabled":false,"rental_uris":{"android":"levelo://app?vid=887a89df-ad82-4e63-836b-438539d6155f","ios":"levelo://app?vid=887a89df-ad82-4e63-836b-438539d6155f"},"vehicle_type_id":"4","last_reported":1727428201,"current_range_meters":30400,"station_id":"ce4bgs92rcd13ifvqcc0","pricing_plan_id":"cebpf4jnsgd1na2vs0mg"},{"bike_id":"61176cf3-9a8f-4cd2-9048-ae1d9683f6f8","system_id":"levelo_inurba_marseille","lat":43.2407,"lon":5.37754,"is_reserved":false,"is_disabled":false,"rental_uris":{"android":"levelo://app?vid=61176cf3-9a8f-4cd2-9048-ae1d9683f6f8","ios":"levelo://app?vid=61176cf3-9a8f-4cd2-9048-ae1d9683f6f8"},"vehicle_type_id":"4","last_reported":1727428201,"current_range_meters":34000,"station_id":"ce4bhnp2rcd13ifvqgvg","pricing_plan_id":"cebpf4jnsgd1na2vs0mg"},{"bike_id":"8bdc4029-cf2a-470b-876b-fa5b10fdbb91","system_id":"levelo_inurba_marseille","lat":43.23152,"lon":5.43723,"is_reserved":false,"is_disabled":false,"rental_uris":{"android":"levelo://app?vid=8bdc4029-cf2a-470b-876b-fa5b10fdbb91","ios":"levelo://app?vid=8bdc4029-cf2a-470b-876b-fa5b10fdbb91"},"vehicle_type_id":"4","last_reported":1727428201,"current_range_meters":12800,"station_id":"ce4bhmp2rcd13ifvqgog","pricing_plan_id":"cebpf4jnsgd1na2vs0mg"},{"bike_id":"a124f104-6ab8-4c1b-b564-98be9adb1b42","system_id":"levelo_inurba_marseille","lat":43.289391,"lon":5.366371,"is_reserved":false,"is_disabled":false,"rental_uris":{"android":"levelo://app?vid=a124f104-6ab8-4c1b-b564-98be9adb1b42","ios":"levelo://app?vid=a124f104-6ab8-4c1b-b564-98be9adb1b42"},"vehicle_type_id":"4","last_reported":1727428201,"current_range_meters":30000,"station_id":"ce4bh692rcd13ifvqe90","pricing_plan_id":"cebpf4jnsgd1na2vs0mg"},{"bike_id":"b704a124-9ce0-4303-b3c7-96ad008130a9","system_id":"levelo_inurba_marseille","lat":43.33614,"lon":5.41031,"is_reserved":false,"is_disabled":false,"rental_uris":{"android":"levelo://app?vid=b704a124-9ce0-4303-b3c7-96ad008130a9","ios":"levelo://app?vid=b704a124-9ce0-4303-b3c7-96ad008130a9"},"vehicle_type_id":"4","last_reported":1727428201,"current_range_meters":36800,"station_id":"ce4bhqh2rcd13ifvqhmg","pricing_plan_id":"cebpf4jnsgd1na2vs0mg"},{"bike_id":"467cead5-f316-42e3-a8c1-400a19d7507e","system_id":"levelo_inurba_marseille","lat":43.32541,"lon":5.41428,"is_reserved":false,"is_disabled":false,"rental_uris":{"android":"levelo://app?vid=467cead5-f316-42e3-a8c1-400a19d7507e","ios":"levelo://app?vid=467cead5-f316-42e3-a8c1-400a19d7507e"},"vehicle_type_id":"4","last_reported":1727428201,"current_range_meters":22400,"station_id":"ce4bhq12rcd13ifvqhhg","pricing_plan_id":"cebpf4jnsgd1na2vs0mg"},{"bike_id":"102483dd-b4e9-43b9-85c9-f8208b777957","system_id":"levelo_inurba_marseille","lat":43.3248,"lon":5.36561,"is_reserved":false,"is_disabled":false,"rental_uris":{"android":"levelo://app?vid=102483dd-b4e9-43b9-85c9-f8208b777957","ios":"levelo://app?vid=102483dd-b4e9-43b9-85c9-f8208b777957"},"vehicle_type_id":"4","last_reported":1727428201,"current_range_meters":26800,"station_id":"ce4bhs12rcd13ifvqhvg","pricing_plan_id":"cebpf4jnsgd1na2vs0mg"},{"bike_id":"0b83833d-442a-4b0b-a9ea-e4a4476e019c","system_id":"levelo_inurba_marseille","lat":43.23187,"lon":5.43721,"is_reserved":false,"is_disabled":false,"rental_uris":{"android":"levelo://app?vid=0b83833d-442a-4b0b-a9ea-e4a4476e019c","ios":"levelo://app?vid=0b83833d-442a-4b0b-a9ea-e4a4476e019c"},"vehicle_type_id":"4","last_reported":1727428201,"current_range_meters":36000,"station_id":"ce4bhmp2rcd13ifvqgog","pricing_plan_id":"cebpf4jnsgd1na2vs0mg"},{"bike_id":"57915f32-d649-40b7-b4d1-2dbe157d9f0c","system_id":"levelo_inurba_marseille","lat":43.30531,"lon":5.36542,"is_reserved":false,"is_disabled":false,"rental_uris":{"android":"levelo://app?vid=57915f32-d649-40b7-b4d1-2dbe157d9f0c","ios":"levelo://app?vid=57915f32-d649-40b7-b4d1-2dbe157d9f0c"},"vehicle_type_id":"4","last_reported":1727428201,"current_range_meters":39200,"station_id":"ce4bgs12rcd13ifvqcag","pricing_plan_id":"cebpf4jnsgd1na2vs0mg"},{"bike_id":"d5e906e1-2c02-4cbd-813f-e28a93f83005","system_id":"levelo_inurba_marseille","lat":43.32539,"lon":5.41428,"is_reserved":false,"is_disabled":false,"rental_uris":{"android":"levelo://app?vid=d5e906e1-2c02-4cbd-813f-e28a93f83005","ios":"levelo://app?vid=d5e906e1-2c02-4cbd-813f-e28a93f83005"},"vehicle_type_id":"4","last_reported":1727428201,"current_range_meters":38800,"station_id":"ce4bhq12rcd13ifvqhhg","pricing_plan_id":"cebpf4jnsgd1na2vs0mg"},{"bike_id":"9a28858b-7a06-4410-bf21-847d87f705d9","system_id":"levelo_inurba_marseille","lat":43.24078,"lon":5.37729,"is_reserved":false,"is_disabled":false,"rental_uris":{"android":"levelo://app?vid=9a28858b-7a06-4410-bf21-847d87f705d9","ios":"levelo://app?vid=9a28858b-7a06-4410-bf21-847d87f705d9"},"vehicle_type_id":"4","last_reported":1727428201,"current_range_meters":19200,"station_id":"ce4bhnp2rcd13ifvqgvg","pricing_plan_id":"cebpf4jnsgd1na2vs0mg"},{"bike_id":"db925dc4-c970-4c1d-9ddf-87c17bd52d69","system_id":"levelo_inurba_marseille","lat":43.27493,"lon":5.42454,"is_reserved":false,"is_disabled":false,"rental_uris":{"android":"levelo://app?vid=db925dc4-c970-4c1d-9ddf-87c17bd52d69","ios":"levelo://app?vid=db925dc4-c970-4c1d-9ddf-87c17bd52d69"},"vehicle_type_id":"4","last_reported":1727428201,"current_range_meters":26800,"station_id":"ce4bhn92rcd13ifvqgrg","pricing_plan_id":"cebpf4jnsgd1na2vs0mg"},{"bike_id":"a07a27d3-b324-46fb-8cdd-a645a65e682f","system_id":"levelo_inurba_marseille","lat":43.23953,"lon":5.36646,"is_reserved":false,"is_disabled":false,"rental_uris":{"android":"levelo://app?vid=a07a27d3-b324-46fb-8cdd-a645a65e682f","ios":"levelo://app?vid=a07a27d3-b324-46fb-8cdd-a645a65e682f"},"vehicle_type_id":"4","last_reported":1727428201,"current_range_meters":39200,"station_id":"ce4bhi12rcd13ifvqfp0","pricing_plan_id":"cebpf4jnsgd1na2vs0mg"},{"bike_id":"62f54998-47d2-4d2b-b295-87f887dc19a3","system_id":"levelo_inurba_marseille","lat":43.30467,"lon":5.37911,"is_reserved":false,"is_disabled":false,"rental_uris":{"android":"levelo://app?vid=62f54998-47d2-4d2b-b295-87f887dc19a3","ios":"levelo://app?vid=62f54998-47d2-4d2b-b295-87f887dc19a3"},"vehicle_type_id":"4","last_reported":1727428201,"current_range_meters":38000,"station_id":"ce4bgup2rcd13ifvqcn0","pricing_plan_id":"cebpf4jnsgd1na2vs0mg"},{"bike_id":"c4b33000-25a2-4e98-b202-8f27d1b24429","system_id":"levelo_inurba_marseille","lat":43.29284,"lon":5.36849,"is_reserved":false,"is_disabled":false,"rental_uris":{"android":"levelo://app?vid=c4b33000-25a2-4e98-b202-8f27d1b24429","ios":"levelo://app?vid=c4b33000-25a2-4e98-b202-8f27d1b24429"},"vehicle_type_id":"4","last_reported":1727428201,"current_range_meters":14800,"station_id":"ce4bhbp2rcd13ifvqesg","pricing_plan_id":"cebpf4jnsgd1na2vs0mg"},{"bike_id":"a6cbb9ab-09cc-4a47-b45d-7c998d78f96c","system_id":"levelo_inurba_marseille","lat":43.29841,"lon":5.36262,"is_reserved":false,"is_disabled":false,"rental_uris":{"android":"levelo://app?vid=a6cbb9ab-09cc-4a47-b45d-7c998d78f96c","ios":"levelo://app?vid=a6cbb9ab-09cc-4a47-b45d-7c998d78f96c"},"vehicle_type_id":"4","last_reported":1727428201,"current_range_meters":37600,"station_id":"ce4bgpp2rcd13ifvqc3g","pricing_plan_id":"cebpf4jnsgd1na2vs0mg"},{"bike_id":"a96c71be-b359-4ce0-a388-f8dd827a330d","system_id":"levelo_inurba_marseille","lat":43.30544,"lon":5.36715,"is_reserved":false,"is_disabled":false,"rental_uris":{"android":"levelo://app?vid=a96c71be-b359-4ce0-a388-f8dd827a330d","ios":"levelo://app?vid=a96c71be-b359-4ce0-a388-f8dd827a330d"},"vehicle_type_id":"4","last_reported":1727428201,"current_range_meters":29600,"station_id":"ce4bgrp2rcd13ifvqc9g","pricing_plan_id":"cebpf4jnsgd1na2vs0mg"},{"bike_id":"f290ffc8-de89-40a0-ba3d-ea31ed5e2f3d","system_id":"levelo_inurba_marseille","lat":43.24083,"lon":5.37763,"is_reserved":false,"is_disabled":false,"rental_uris":{"android":"levelo://app?vid=f290ffc8-de89-40a0-ba3d-ea31ed5e2f3d","ios":"levelo://app?vid=f290ffc8-de89-40a0-ba3d-ea31ed5e2f3d"},"vehicle_type_id":"4","last_reported":1727428201,"current_range_meters":30800,"station_id":"ce4bhnp2rcd13ifvqgvg","pricing_plan_id":"cebpf4jnsgd1na2vs0mg"},{"bike_id":"932c7b30-012b-4098-90b0-32794be8681f","system_id":"levelo_inurba_marseille","lat":43.33605,"lon":5.41021,"is_reserved":false,"is_disabled":false,"rental_uris":{"android":"levelo://app?vid=932c7b30-012b-4098-90b0-32794be8681f","ios":"levelo://app?vid=932c7b30-012b-4098-90b0-32794be8681f"},"vehicle_type_id":"4","last_reported":1727428201,"current_range_meters":28000,"station_id":"ce4bhqh2rcd13ifvqhmg","pricing_plan_id":"cebpf4jnsgd1na2vs0mg"},{"bike_id":"f8cd4966-ede5-4efd-8974-582f34727322","system_id":"levelo_inurba_marseille","lat":43.34141,"lon":5.40904,"is_reserved":false,"is_disabled":false,"rental_uris":{"android":"levelo://app?vid=f8cd4966-ede5-4efd-8974-582f34727322","ios":"levelo://app?vid=f8cd4966-ede5-4efd-8974-582f34727322"},"vehicle_type_id":"4","last_reported":1727428201,"current_range_meters":34800,"station_id":"ce4bhqh2rcd13ifvqhlg","pricing_plan_id":"cebpf4jnsgd1na2vs0mg"},{"bike_id":"c68a612f-392e-4081-8c44-ff1bbcda092f","system_id":"levelo_inurba_marseille","lat":43.32487,"lon":5.36568,"is_reserved":false,"is_disabled":false,"rental_uris":{"android":"levelo://app?vid=c68a612f-392e-4081-8c44-ff1bbcda092f","ios":"levelo://app?vid=c68a612f-392e-4081-8c44-ff1bbcda092f"},"vehicle_type_id":"4","last_reported":1727428201,"current_range_meters":36400,"station_id":"ce4bhs12rcd13ifvqhvg","pricing_plan_id":"cebpf4jnsgd1na2vs0mg"},{"bike_id":"d8c48252-4588-4704-86ec-4f5a0439137e","system_id":"levelo_inurba_marseille","lat":43.29558,"lon":5.42282,"is_reserved":false,"is_disabled":false,"rental_uris":{"android":"levelo://app?vid=d8c48252-4588-4704-86ec-4f5a0439137e","ios":"levelo://app?vid=d8c48252-4588-4704-86ec-4f5a0439137e"},"vehicle_type_id":"4","last_reported":1727428201,"current_range_meters":38800,"station_id":"ce4bhph2rcd13ifvqhdg","pricing_plan_id":"cebpf4jnsgd1na2vs0mg"},{"bike_id":"923b6583-27f6-48f9-a414-760497e91c1d","system_id":"levelo_inurba_marseille","lat":43.29311,"lon":5.37173,"is_reserved":false,"is_disabled":false,"rental_uris":{"android":"levelo://app?vid=923b6583-27f6-48f9-a414-760497e91c1d","ios":"levelo://app?vid=923b6583-27f6-48f9-a414-760497e91c1d"},"vehicle_type_id":"4","last_reported":1727428201,"current_range_meters":26000,"station_id":"ce4bgh92rcd13ifvqb40","pricing_plan_id":"cebpf4jnsgd1na2vs0mg"},{"bike_id":"ad826039-da61-4ac3-b5dc-7a5d9300aa12","system_id":"levelo_inurba_marseille","lat":43.30465,"lon":5.37901,"is_reserved":false,"is_disabled":false,"rental_uris":{"android":"levelo://app?vid=ad826039-da61-4ac3-b5dc-7a5d9300aa12","ios":"levelo://app?vid=ad826039-da61-4ac3-b5dc-7a5d9300aa12"},"vehicle_type_id":"4","last_reported":1727428201,"current_range_meters":20400,"station_id":"ce4bgup2rcd13ifvqcn0","pricing_plan_id":"cebpf4jnsgd1na2vs0mg"},{"bike_id":"720aa0e6-1e56-4dba-825d-68ab81240074","system_id":"levelo_inurba_marseille","lat":43.33608,"lon":5.4103,"is_reserved":false,"is_disabled":false,"rental_uris":{"android":"levelo://app?vid=720aa0e6-1e56-4dba-825d-68ab81240074","ios":"levelo://app?vid=720aa0e6-1e56-4dba-825d-68ab81240074"},"vehicle_type_id":"4","last_reported":1727428201,"current_range_meters":14000,"station_id":"ce4bhqh2rcd13ifvqhmg","pricing_plan_id":"cebpf4jnsgd1na2vs0mg"},{"bike_id":"98b5eb15-c07e-424e-9e47-b9763061a944","system_id":"levelo_inurba_marseille","lat":43.24643,"lon":5.38903,"is_reserved":false,"is_disabled":false,"rental_uris":{"android":"levelo://app?vid=98b5eb15-c07e-424e-9e47-b9763061a944","ios":"levelo://app?vid=98b5eb15-c07e-424e-9e47-b9763061a944"},"vehicle_type_id":"4","last_reported":1727428201,"current_range_meters":38800,"station_id":"ce4bhg12rcd13ifvqf60","pricing_plan_id":"cebpf4jnsgd1na2vs0mg"},{"bike_id":"dc29cc9b-e464-43f3-8e13-dd21ced846c4","system_id":"levelo_inurba_marseille","lat":43.337444,"lon":5.374475,"is_reserved":false,"is_disabled":false,"rental_uris":{"android":"levelo://app?vid=dc29cc9b-e464-43f3-8e13-dd21ced846c4","ios":"levelo://app?vid=dc29cc9b-e464-43f3-8e13-dd21ced846c4"},"vehicle_type_id":"4","last_reported":1727428201,"current_range_meters":37600,"station_id":"","pricing_plan_id":"cebpf4jnsgd1na2vs0mg"},{"bike_id":"4c3961a4-8a54-4949-9475-600d26661596","system_id":"levelo_inurba_marseille","lat":43.25933,"lon":5.40903,"is_reserved":false,"is_disabled":false,"rental_uris":{"android":"levelo://app?vid=4c3961a4-8a54-4949-9475-600d26661596","ios":"levelo://app?vid=4c3961a4-8a54-4949-9475-600d26661596"},"vehicle_type_id":"4","last_reported":1727428201,"current_range_meters":27200,"station_id":"ce4bhm92rcd13ifvqglg","pricing_plan_id":"cebpf4jnsgd1na2vs0mg"},{"bike_id":"4674fcea-2e76-46b6-acc4-19efb6b88b54","system_id":"levelo_inurba_marseille","lat":43.29837,"lon":5.36275,"is_reserved":false,"is_disabled":false,"rental_uris":{"android":"levelo://app?vid=4674fcea-2e76-46b6-acc4-19efb6b88b54","ios":"levelo://app?vid=4674fcea-2e76-46b6-acc4-19efb6b88b54"},"vehicle_type_id":"4","last_reported":1727428201,"current_range_meters":30800,"station_id":"ce4bgpp2rcd13ifvqc3g","pricing_plan_id":"cebpf4jnsgd1na2vs0mg"},{"bike_id":"17f08afc-009a-4a6e-a3d7-2b9f68f4e878","system_id":"levelo_inurba_marseille","lat":43.23153,"lon":5.43708,"is_reserved":false,"is_disabled":false,"rental_uris":{"android":"levelo://app?vid=17f08afc-009a-4a6e-a3d7-2b9f68f4e878","ios":"levelo://app?vid=17f08afc-009a-4a6e-a3d7-2b9f68f4e878"},"vehicle_type_id":"4","last_reported":1727428201,"current_range_meters":36400,"station_id":"ce4bhmp2rcd13ifvqgog","pricing_plan_id":"cebpf4jnsgd1na2vs0mg"},{"bike_id":"fdeb094e-680e-4435-900e-46673080fe04","system_id":"levelo_inurba_marseille","lat":43.25576,"lon":5.38239,"is_reserved":false,"is_disabled":false,"rental_uris":{"android":"levelo://app?vid=fdeb094e-680e-4435-900e-46673080fe04","ios":"levelo://app?vid=fdeb094e-680e-4435-900e-46673080fe04"},"vehicle_type_id":"4","last_reported":1727428201,"current_range_meters":20800,"station_id":"ce4bhih2rcd13ifvqfs0","pricing_plan_id":"cebpf4jnsgd1na2vs0mg"},{"bike_id":"49ae1e59-08b3-4859-a392-0191fe810cd9","system_id":"levelo_inurba_marseille","lat":43.25936,"lon":5.40898,"is_reserved":false,"is_disabled":false,"rental_uris":{"android":"levelo://app?vid=49ae1e59-08b3-4859-a392-0191fe810cd9","ios":"levelo://app?vid=49ae1e59-08b3-4859-a392-0191fe810cd9"},"vehicle_type_id":"4","last_reported":1727428201,"current_range_meters":7200,"station_id":"ce4bhm92rcd13ifvqglg","pricing_plan_id":"cebpf4jnsgd1na2vs0mg"},{"bike_id":"3dabe597-7bed-42ce-b402-93f36374a299","system_id":"levelo_inurba_marseille","lat":43.336,"lon":5.41019,"is_reserved":false,"is_disabled":false,"rental_uris":{"android":"levelo://app?vid=3dabe597-7bed-42ce-b402-93f36374a299","ios":"levelo://app?vid=3dabe597-7bed-42ce-b402-93f36374a299"},"vehicle_type_id":"4","last_reported":1727428201,"current_range_meters":26000,"station_id":"ce4bhqh2rcd13ifvqhmg","pricing_plan_id":"cebpf4jnsgd1na2vs0mg"},{"bike_id":"c4a850bf-fbb7-476b-bfb3-bfa5d94ca6c4","system_id":"levelo_inurba_marseille","lat":43.30556,"lon":5.36717,"is_reserved":false,"is_disabled":false,"rental_uris":{"android":"levelo://app?vid=c4a850bf-fbb7-476b-bfb3-bfa5d94ca6c4","ios":"levelo://app?vid=c4a850bf-fbb7-476b-bfb3-bfa5d94ca6c4"},"vehicle_type_id":"4","last_reported":1727428201,"current_range_meters":38800,"station_id":"ce4bgrp2rcd13ifvqc9g","pricing_plan_id":"cebpf4jnsgd1na2vs0mg"},{"bike_id":"47df3ffd-83c8-4a91-aabb-3eecf8a5a06b","system_id":"levelo_inurba_marseille","lat":43.24081,"lon":5.37751,"is_reserved":false,"is_disabled":false,"rental_uris":{"android":"levelo://app?vid=47df3ffd-83c8-4a91-aabb-3eecf8a5a06b","ios":"levelo://app?vid=47df3ffd-83c8-4a91-aabb-3eecf8a5a06b"},"vehicle_type_id":"4","last_reported":1727428201,"current_range_meters":10800,"station_id":"ce4bhnp2rcd13ifvqgvg","pricing_plan_id":"cebpf4jnsgd1na2vs0mg"},{"bike_id":"556deab7-20b0-4379-94c3-ccef25d7c6da","system_id":"levelo_inurba_marseille","lat":43.33612,"lon":5.41032,"is_reserved":false,"is_disabled":false,"rental_uris":{"android":"levelo://app?vid=556deab7-20b0-4379-94c3-ccef25d7c6da","ios":"levelo://app?vid=556deab7-20b0-4379-94c3-ccef25d7c6da"},"vehicle_type_id":"4","last_reported":1727428201,"current_range_meters":28000,"station_id":"ce4bhqh2rcd13ifvqhmg","pricing_plan_id":"cebpf4jnsgd1na2vs0mg"},{"bike_id":"ef51e64d-6b2c-4feb-aee3-013b4e676563","system_id":"levelo_inurba_marseille","lat":43.29366,"lon":5.37844,"is_reserved":false,"is_disabled":false,"rental_uris":{"android":"levelo://app?vid=ef51e64d-6b2c-4feb-aee3-013b4e676563","ios":"levelo://app?vid=ef51e64d-6b2c-4feb-aee3-013b4e676563"},"vehicle_type_id":"4","last_reported":1727428201,"current_range_meters":16800,"station_id":"ce4bgjh2rcd13ifvqbf0","pricing_plan_id":"cebpf4jnsgd1na2vs0mg"},{"bike_id":"717a1c2d-f390-4c35-8ba9-c37de1ab41d1","system_id":"levelo_inurba_marseille","lat":43.24666,"lon":5.38157,"is_reserved":false,"is_disabled":false,"rental_uris":{"android":"levelo://app?vid=717a1c2d-f390-4c35-8ba9-c37de1ab41d1","ios":"levelo://app?vid=717a1c2d-f390-4c35-8ba9-c37de1ab41d1"},"vehicle_type_id":"4","last_reported":1727428201,"current_range_meters":28800,"station_id":"ce4bhih2rcd13ifvqfr0","pricing_plan_id":"cebpf4jnsgd1na2vs0mg"},{"bike_id":"bc9873de-6a8d-467b-b427-ddae496ac02d","system_id":"levelo_inurba_marseille","lat":43.34144,"lon":5.40904,"is_reserved":false,"is_disabled":false,"rental_uris":{"android":"levelo://app?vid=bc9873de-6a8d-467b-b427-ddae496ac02d","ios":"levelo://app?vid=bc9873de-6a8d-467b-b427-ddae496ac02d"},"vehicle_type_id":"4","last_reported":1727428201,"current_range_meters":4800,"station_id":"ce4bhqh2rcd13ifvqhlg","pricing_plan_id":"cebpf4jnsgd1na2vs0mg"},{"bike_id":"4e4e6eba-5848-4173-9037-bd60ddf54df7","system_id":"levelo_inurba_marseille","lat":43.29305,"lon":5.37175,"is_reserved":false,"is_disabled":false,"rental_uris":{"android":"levelo://app?vid=4e4e6eba-5848-4173-9037-bd60ddf54df7","ios":"levelo://app?vid=4e4e6eba-5848-4173-9037-bd60ddf54df7"},"vehicle_type_id":"4","last_reported":1727428201,"current_range_meters":29600,"station_id":"ce4bgh92rcd13ifvqb40","pricing_plan_id":"cebpf4jnsgd1na2vs0mg"},{"bike_id":"8c8816db-27d9-4d49-b9bf-515cf4a62f34","system_id":"levelo_inurba_marseille","lat":43.26947,"lon":5.38635,"is_reserved":false,"is_disabled":false,"rental_uris":{"android":"levelo://app?vid=8c8816db-27d9-4d49-b9bf-515cf4a62f34","ios":"levelo://app?vid=8c8816db-27d9-4d49-b9bf-515cf4a62f34"},"vehicle_type_id":"4","last_reported":1727428201,"current_range_meters":37600,"station_id":"ce4bhh92rcd13ifvqfh0","pricing_plan_id":"cebpf4jnsgd1na2vs0mg"},{"bike_id":"a4fa5c55-37de-4c61-bf1b-a1f770b6199f","system_id":"levelo_inurba_marseille","lat":43.30467,"lon":5.37896,"is_reserved":false,"is_disabled":false,"rental_uris":{"android":"levelo://app?vid=a4fa5c55-37de-4c61-bf1b-a1f770b6199f","ios":"levelo://app?vid=a4fa5c55-37de-4c61-bf1b-a1f770b6199f"},"vehicle_type_id":"4","last_reported":1727428201,"current_range_meters":10800,"station_id":"ce4bgup2rcd13ifvqcn0","pricing_plan_id":"cebpf4jnsgd1na2vs0mg"},{"bike_id":"80e09071-95ff-454d-9076-2a605ea174e0","system_id":"levelo_inurba_marseille","lat":43.29834,"lon":5.36261,"is_reserved":false,"is_disabled":false,"rental_uris":{"android":"levelo://app?vid=80e09071-95ff-454d-9076-2a605ea174e0","ios":"levelo://app?vid=80e09071-95ff-454d-9076-2a605ea174e0"},"vehicle_type_id":"4","last_reported":1727428201,"current_range_meters":29600,"station_id":"ce4bgpp2rcd13ifvqc3g","pricing_plan_id":"cebpf4jnsgd1na2vs0mg"},{"bike_id":"6cde7991-504b-400c-aa92-2aaf4cab2ca9","system_id":"levelo_inurba_marseille","lat":43.28721,"lon":5.37951,"is_reserved":false,"is_disabled":false,"rental_uris":{"android":"levelo://app?vid=6cde7991-504b-400c-aa92-2aaf4cab2ca9","ios":"levelo://app?vid=6cde7991-504b-400c-aa92-2aaf4cab2ca9"},"vehicle_type_id":"4","last_reported":1727428201,"current_range_meters":11200,"station_id":"ce4bh9p2rcd13ifvqec0","pricing_plan_id":"cebpf4jnsgd1na2vs0mg"},{"bike_id":"eece9450-7b4b-42e0-b397-31e3234d3b96","system_id":"levelo_inurba_marseille","lat":43.29094,"lon":5.38137,"is_reserved":false,"is_disabled":false,"rental_uris":{"android":"levelo://app?vid=eece9450-7b4b-42e0-b397-31e3234d3b96","ios":"levelo://app?vid=eece9450-7b4b-42e0-b397-31e3234d3b96"},"vehicle_type_id":"4","last_reported":1727428201,"current_range_meters":37600,"station_id":"ce4bhi12rcd13ifvqfo0","pricing_plan_id":"cebpf4jnsgd1na2vs0mg"},{"bike_id":"6db5ec70-5ad5-488c-a7c9-64ab85ff683f","system_id":"levelo_inurba_marseille","lat":43.31528,"lon":5.38032,"is_reserved":false,"is_disabled":false,"rental_uris":{"android":"levelo://app?vid=6db5ec70-5ad5-488c-a7c9-64ab85ff683f","ios":"levelo://app?vid=6db5ec70-5ad5-488c-a7c9-64ab85ff683f"},"vehicle_type_id":"4","last_reported":1727428201,"current_range_meters":38800,"station_id":"ce4bhsp2rcd13ifvqi50","pricing_plan_id":"cebpf4jnsgd1na2vs0mg"},{"bike_id":"7dcc681e-687a-4c9a-9ee2-bdf8919d45e7","system_id":"levelo_inurba_marseille","lat":43.3015,"lon":5.38078,"is_reserved":false,"is_disabled":false,"rental_uris":{"android":"levelo://app?vid=7dcc681e-687a-4c9a-9ee2-bdf8919d45e7","ios":"levelo://app?vid=7dcc681e-687a-4c9a-9ee2-bdf8919d45e7"},"vehicle_type_id":"4","last_reported":1727428201,"current_range_meters":36800,"station_id":"ce4bgjp2rcd13ifvqbh0","pricing_plan_id":"cebpf4jnsgd1na2vs0mg"},{"bike_id":"12bb2fa0-def4-44f9-9009-061dd94ed221","system_id":"levelo_inurba_marseille","lat":43.24158,"lon":5.36399,"is_reserved":false,"is_disabled":false,"rental_uris":{"android":"levelo://app?vid=12bb2fa0-def4-44f9-9009-061dd94ed221","ios":"levelo://app?vid=12bb2fa0-def4-44f9-9009-061dd94ed221"},"vehicle_type_id":"4","last_reported":1727428201,"current_range_meters":3200,"station_id":"cpo36qri1sfpv3e86is0","pricing_plan_id":"cebpf4jnsgd1na2vs0mg"},{"bike_id":"2c4a4800-f947-4ac4-a519-823ae18277cb","system_id":"levelo_inurba_marseille","lat":43.29577,"lon":5.37535,"is_reserved":false,"is_disabled":false,"rental_uris":{"android":"levelo://app?vid=2c4a4800-f947-4ac4-a519-823ae18277cb","ios":"levelo://app?vid=2c4a4800-f947-4ac4-a519-823ae18277cb"},"vehicle_type_id":"4","last_reported":1727428201,"current_range_meters":17600,"station_id":"ce4bgh92rcd13ifvqb50","pricing_plan_id":"cebpf4jnsgd1na2vs0mg"},{"bike_id":"caac2220-f204-42a6-8944-b690878e20a4","system_id":"levelo_inurba_marseille","lat":43.26199,"lon":5.37933,"is_reserved":false,"is_disabled":false,"rental_uris":{"android":"levelo://app?vid=caac2220-f204-42a6-8944-b690878e20a4","ios":"levelo://app?vid=caac2220-f204-42a6-8944-b690878e20a4"},"vehicle_type_id":"4","last_reported":1727428201,"current_range_meters":28000,"station_id":"ce4bhjp2rcd13ifvqg90","pricing_plan_id":"cebpf4jnsgd1na2vs0mg"},{"bike_id":"f916f4ea-109f-491c-b317-68616a4e1aaf","system_id":"levelo_inurba_marseille","lat":43.30607,"lon":5.37219,"is_reserved":false,"is_disabled":false,"rental_uris":{"android":"levelo://app?vid=f916f4ea-109f-491c-b317-68616a4e1aaf","ios":"levelo://app?vid=f916f4ea-109f-491c-b317-68616a4e1aaf"},"vehicle_type_id":"4","last_reported":1727428201,"current_range_meters":17600,"station_id":"ce4bgqh2rcd13ifvqc4g","pricing_plan_id":"cebpf4jnsgd1na2vs0mg"},{"bike_id":"2d21a934-5452-4cd4-9fa3-fb6b2a437943","system_id":"levelo_inurba_marseille","lat":43.23194,"lon":5.35558,"is_reserved":false,"is_disabled":false,"rental_uris":{"android":"levelo://app?vid=2d21a934-5452-4cd4-9fa3-fb6b2a437943","ios":"levelo://app?vid=2d21a934-5452-4cd4-9fa3-fb6b2a437943"},"vehicle_type_id":"4","last_reported":1727428201,"current_range_meters":28800,"station_id":"ce4bhu92rcd13ifvqi70","pricing_plan_id":"cebpf4jnsgd1na2vs0mg"},{"bike_id":"3e99a5e5-4edb-4596-98d2-f32852230482","system_id":"levelo_inurba_marseille","lat":43.27321,"lon":5.39088,"is_reserved":false,"is_disabled":false,"rental_uris":{"android":"levelo://app?vid=3e99a5e5-4edb-4596-98d2-f32852230482","ios":"levelo://app?vid=3e99a5e5-4edb-4596-98d2-f32852230482"},"vehicle_type_id":"4","last_reported":1727428201,"current_range_meters":6800,"station_id":"ce4bhgp2rcd13ifvqfe0","pricing_plan_id":"cebpf4jnsgd1na2vs0mg"},{"bike_id":"d961c983-af25-4137-beb0-8f8d41394de3","system_id":"levelo_inurba_marseille","lat":43.2315,"lon":5.43714,"is_reserved":false,"is_disabled":false,"rental_uris":{"android":"levelo://app?vid=d961c983-af25-4137-beb0-8f8d41394de3","ios":"levelo://app?vid=d961c983-af25-4137-beb0-8f8d41394de3"},"vehicle_type_id":"4","last_reported":1727428201,"current_range_meters":8400,"station_id":"ce4bhmp2rcd13ifvqgog","pricing_plan_id":"cebpf4jnsgd1na2vs0mg"},{"bike_id":"6b7a48ee-d852-4868-b7f4-80de4cd92d64","system_id":"levelo_inurba_marseille","lat":43.295594,"lon":5.396707,"is_reserved":false,"is_disabled":false,"rental_uris":{"android":"levelo://app?vid=6b7a48ee-d852-4868-b7f4-80de4cd92d64","ios":"levelo://app?vid=6b7a48ee-d852-4868-b7f4-80de4cd92d64"},"vehicle_type_id":"4","last_reported":1727428201,"current_range_meters":28000,"station_id":"ce4bh292rcd13ifvqdf0","pricing_plan_id":"cebpf4jnsgd1na2vs0mg"},{"bike_id":"2033226c-ad5e-4558-a007-08be72b3c458","system_id":"levelo_inurba_marseille","lat":43.31997,"lon":5.38158,"is_reserved":false,"is_disabled":false,"rental_uris":{"android":"levelo://app?vid=2033226c-ad5e-4558-a007-08be72b3c458","ios":"levelo://app?vid=2033226c-ad5e-4558-a007-08be72b3c458"},"vehicle_type_id":"4","last_reported":1727428201,"current_range_meters":28800,"station_id":"ce4bhr12rcd13ifvqhpg","pricing_plan_id":"cebpf4jnsgd1na2vs0mg"},{"bike_id":"47b52101-5c5d-4cee-9208-786821a1b453","system_id":"levelo_inurba_marseille","lat":43.29514,"lon":5.37589,"is_reserved":false,"is_disabled":false,"rental_uris":{"android":"levelo://app?vid=47b52101-5c5d-4cee-9208-786821a1b453","ios":"levelo://app?vid=47b52101-5c5d-4cee-9208-786821a1b453"},"vehicle_type_id":"4","last_reported":1727428201,"current_range_meters":22400,"station_id":"ce4bgkp2rcd13ifvqbmg","pricing_plan_id":"cebpf4jnsgd1na2vs0mg"},{"bike_id":"53d6e06f-e76e-4a45-9d89-86bbf7739dee","system_id":"levelo_inurba_marseille","lat":43.3047,"lon":5.37912,"is_reserved":false,"is_disabled":false,"rental_uris":{"android":"levelo://app?vid=53d6e06f-e76e-4a45-9d89-86bbf7739dee","ios":"levelo://app?vid=53d6e06f-e76e-4a45-9d89-86bbf7739dee"},"vehicle_type_id":"4","last_reported":1727428201,"current_range_meters":28400,"station_id":"ce4bgup2rcd13ifvqcn0","pricing_plan_id":"cebpf4jnsgd1na2vs0mg"},{"bike_id":"1d640c59-0e3f-45e2-9199-2b47f34f2ea5","system_id":"levelo_inurba_marseille","lat":43.29918,"lon":5.37382,"is_reserved":false,"is_disabled":false,"rental_uris":{"android":"levelo://app?vid=1d640c59-0e3f-45e2-9199-2b47f34f2ea5","ios":"levelo://app?vid=1d640c59-0e3f-45e2-9199-2b47f34f2ea5"},"vehicle_type_id":"4","last_reported":1727428201,"current_range_meters":4000,"station_id":"ce4bgs12rcd13ifvqcag","pricing_plan_id":"cebpf4jnsgd1na2vs0mg"},{"bike_id":"41512423-3e9c-4e25-b70a-525990956667","system_id":"levelo_inurba_marseille","lat":43.24072,"lon":5.37762,"is_reserved":false,"is_disabled":false,"rental_uris":{"android":"levelo://app?vid=41512423-3e9c-4e25-b70a-525990956667","ios":"levelo://app?vid=41512423-3e9c-4e25-b70a-525990956667"},"vehicle_type_id":"4","last_reported":1727428201,"current_range_meters":24800,"station_id":"ce4bhnp2rcd13ifvqgvg","pricing_plan_id":"cebpf4jnsgd1na2vs0mg"},{"bike_id":"2d7a9fb7-df81-4f65-9229-4f5ebff4a082","system_id":"levelo_inurba_marseille","lat":43.29551,"lon":5.42272,"is_reserved":false,"is_disabled":false,"rental_uris":{"android":"levelo://app?vid=2d7a9fb7-df81-4f65-9229-4f5ebff4a082","ios":"levelo://app?vid=2d7a9fb7-df81-4f65-9229-4f5ebff4a082"},"vehicle_type_id":"4","last_reported":1727428201,"current_range_meters":32800,"station_id":"ce4bhph2rcd13ifvqhdg","pricing_plan_id":"cebpf4jnsgd1na2vs0mg"},{"bike_id":"1a40a0dd-7e5d-4eee-b946-4d3154a96682","system_id":"levelo_inurba_marseille","lat":43.30274,"lon":5.377,"is_reserved":false,"is_disabled":false,"rental_uris":{"android":"levelo://app?vid=1a40a0dd-7e5d-4eee-b946-4d3154a96682","ios":"levelo://app?vid=1a40a0dd-7e5d-4eee-b946-4d3154a96682"},"vehicle_type_id":"4","last_reported":1727428201,"current_range_meters":18800,"station_id":"ce4bguh2rcd13ifvqcj0","pricing_plan_id":"cebpf4jnsgd1na2vs0mg"},{"bike_id":"51cd0e26-68b5-4158-9a80-d3445331b8f5","system_id":"levelo_inurba_marseille","lat":43.23155,"lon":5.43704,"is_reserved":false,"is_disabled":false,"rental_uris":{"android":"levelo://app?vid=51cd0e26-68b5-4158-9a80-d3445331b8f5","ios":"levelo://app?vid=51cd0e26-68b5-4158-9a80-d3445331b8f5"},"vehicle_type_id":"4","last_reported":1727428201,"current_range_meters":11200,"station_id":"ce4bhmp2rcd13ifvqgog","pricing_plan_id":"cebpf4jnsgd1na2vs0mg"},{"bike_id":"55d680b3-b78e-4f68-bf35-68fafbe88c9e","system_id":"levelo_inurba_marseille","lat":43.289427,"lon":5.366417,"is_reserved":false,"is_disabled":false,"rental_uris":{"android":"levelo://app?vid=55d680b3-b78e-4f68-bf35-68fafbe88c9e","ios":"levelo://app?vid=55d680b3-b78e-4f68-bf35-68fafbe88c9e"},"vehicle_type_id":"4","last_reported":1727428201,"current_range_meters":16000,"station_id":"ce4bhap2rcd13ifvqek0","pricing_plan_id":"cebpf4jnsgd1na2vs0mg"},{"bike_id":"9fd094bc-8ed2-43ca-ba76-524b06869e7b","system_id":"levelo_inurba_marseille","lat":43.27492,"lon":5.42456,"is_reserved":false,"is_disabled":false,"rental_uris":{"android":"levelo://app?vid=9fd094bc-8ed2-43ca-ba76-524b06869e7b","ios":"levelo://app?vid=9fd094bc-8ed2-43ca-ba76-524b06869e7b"},"vehicle_type_id":"4","last_reported":1727428201,"current_range_meters":9200,"station_id":"ce4bhn92rcd13ifvqgrg","pricing_plan_id":"cebpf4jnsgd1na2vs0mg"},{"bike_id":"1b4b0178-3a24-4b33-98ef-05aef8dad5fc","system_id":"levelo_inurba_marseille","lat":43.26202,"lon":5.37935,"is_reserved":false,"is_disabled":false,"rental_uris":{"android":"levelo://app?vid=1b4b0178-3a24-4b33-98ef-05aef8dad5fc","ios":"levelo://app?vid=1b4b0178-3a24-4b33-98ef-05aef8dad5fc"},"vehicle_type_id":"4","last_reported":1727428201,"current_range_meters":39200,"station_id":"ce4bhjp2rcd13ifvqg90","pricing_plan_id":"cebpf4jnsgd1na2vs0mg"},{"bike_id":"840816d8-06e8-4fbc-9617-5f6d82065a83","system_id":"levelo_inurba_marseille","lat":43.27482,"lon":5.42457,"is_reserved":false,"is_disabled":false,"rental_uris":{"android":"levelo://app?vid=840816d8-06e8-4fbc-9617-5f6d82065a83","ios":"levelo://app?vid=840816d8-06e8-4fbc-9617-5f6d82065a83"},"vehicle_type_id":"4","last_reported":1727428201,"current_range_meters":36800,"station_id":"ce4bhn92rcd13ifvqgrg","pricing_plan_id":"cebpf4jnsgd1na2vs0mg"},{"bike_id":"fd862933-d712-4813-8866-a7ed5682df20","system_id":"levelo_inurba_marseille","lat":43.2315,"lon":5.43701,"is_reserved":false,"is_disabled":false,"rental_uris":{"android":"levelo://app?vid=fd862933-d712-4813-8866-a7ed5682df20","ios":"levelo://app?vid=fd862933-d712-4813-8866-a7ed5682df20"},"vehicle_type_id":"4","last_reported":1727428201,"current_range_meters":7200,"station_id":"ce4bhmp2rcd13ifvqgog","pricing_plan_id":"cebpf4jnsgd1na2vs0mg"},{"bike_id":"fdeab252-3058-4111-add0-775c267b7e58","system_id":"levelo_inurba_marseille","lat":43.33604,"lon":5.41022,"is_reserved":false,"is_disabled":false,"rental_uris":{"android":"levelo://app?vid=fdeab252-3058-4111-add0-775c267b7e58","ios":"levelo://app?vid=fdeab252-3058-4111-add0-775c267b7e58"},"vehicle_type_id":"4","last_reported":1727428201,"current_range_meters":19200,"station_id":"ce4bhqh2rcd13ifvqhmg","pricing_plan_id":"cebpf4jnsgd1na2vs0mg"},{"bike_id":"8f819655-e95e-4e88-8138-732aff70eb6f","system_id":"levelo_inurba_marseille","lat":43.2408,"lon":5.37754,"is_reserved":false,"is_disabled":false,"rental_uris":{"android":"levelo://app?vid=8f819655-e95e-4e88-8138-732aff70eb6f","ios":"levelo://app?vid=8f819655-e95e-4e88-8138-732aff70eb6f"},"vehicle_type_id":"4","last_reported":1727428201,"current_range_meters":6800,"station_id":"ce4bhnp2rcd13ifvqgvg","pricing_plan_id":"cebpf4jnsgd1na2vs0mg"},{"bike_id":"0ba14a29-bf74-4180-bf4b-e512173473b7","system_id":"levelo_inurba_marseille","lat":43.29307,"lon":5.37171,"is_reserved":false,"is_disabled":false,"rental_uris":{"android":"levelo://app?vid=0ba14a29-bf74-4180-bf4b-e512173473b7","ios":"levelo://app?vid=0ba14a29-bf74-4180-bf4b-e512173473b7"},"vehicle_type_id":"4","last_reported":1727428201,"current_range_meters":30400,"station_id":"ce4bgh92rcd13ifvqb40","pricing_plan_id":"cebpf4jnsgd1na2vs0mg"},{"bike_id":"573e2222-b742-48ff-8645-44d2e58c46bf","system_id":"levelo_inurba_marseille","lat":43.29305,"lon":5.37183,"is_reserved":false,"is_disabled":false,"rental_uris":{"android":"levelo://app?vid=573e2222-b742-48ff-8645-44d2e58c46bf","ios":"levelo://app?vid=573e2222-b742-48ff-8645-44d2e58c46bf"},"vehicle_type_id":"4","last_reported":1727428201,"current_range_meters":9200,"station_id":"ce4bgh92rcd13ifvqb40","pricing_plan_id":"cebpf4jnsgd1na2vs0mg"},{"bike_id":"7411320e-7dc5-4767-91bb-76118c6c37f6","system_id":"levelo_inurba_marseille","lat":43.29709,"lon":5.36604,"is_reserved":false,"is_disabled":false,"rental_uris":{"android":"levelo://app?vid=7411320e-7dc5-4767-91bb-76118c6c37f6","ios":"levelo://app?vid=7411320e-7dc5-4767-91bb-76118c6c37f6"},"vehicle_type_id":"4","last_reported":1727428201,"current_range_meters":38000,"station_id":"ce4bgn12rcd13ifvqbt0","pricing_plan_id":"cebpf4jnsgd1na2vs0mg"},{"bike_id":"7c9785a3-c8c3-45d1-92af-3131f5028d01","system_id":"levelo_inurba_marseille","lat":43.29274,"lon":5.36846,"is_reserved":false,"is_disabled":false,"rental_uris":{"android":"levelo://app?vid=7c9785a3-c8c3-45d1-92af-3131f5028d01","ios":"levelo://app?vid=7c9785a3-c8c3-45d1-92af-3131f5028d01"},"vehicle_type_id":"4","last_reported":1727428201,"current_range_meters":35200,"station_id":"ce4bhbp2rcd13ifvqesg","pricing_plan_id":"cebpf4jnsgd1na2vs0mg"},{"bike_id":"571115be-4f92-4f3c-be12-44639ba9602a","system_id":"levelo_inurba_marseille","lat":43.32526,"lon":5.4144,"is_reserved":false,"is_disabled":false,"rental_uris":{"android":"levelo://app?vid=571115be-4f92-4f3c-be12-44639ba9602a","ios":"levelo://app?vid=571115be-4f92-4f3c-be12-44639ba9602a"},"vehicle_type_id":"4","last_reported":1727428201,"current_range_meters":26000,"station_id":"ce4bhq12rcd13ifvqhhg","pricing_plan_id":"cebpf4jnsgd1na2vs0mg"},{"bike_id":"e7a340e5-9566-47cb-8d22-ce80ecf21c73","system_id":"levelo_inurba_marseille","lat":43.26944,"lon":5.38637,"is_reserved":false,"is_disabled":false,"rental_uris":{"android":"levelo://app?vid=e7a340e5-9566-47cb-8d22-ce80ecf21c73","ios":"levelo://app?vid=e7a340e5-9566-47cb-8d22-ce80ecf21c73"},"vehicle_type_id":"4","last_reported":1727428201,"current_range_meters":3600,"station_id":"ce4bhh92rcd13ifvqfh0","pricing_plan_id":"cebpf4jnsgd1na2vs0mg"},{"bike_id":"31d63aae-5fb1-453e-b549-9b2183b55ef1","system_id":"levelo_inurba_marseille","lat":43.30795,"lon":5.38155,"is_reserved":false,"is_disabled":false,"rental_uris":{"android":"levelo://app?vid=31d63aae-5fb1-453e-b549-9b2183b55ef1","ios":"levelo://app?vid=31d63aae-5fb1-453e-b549-9b2183b55ef1"},"vehicle_type_id":"4","last_reported":1727428201,"current_range_meters":32800,"station_id":"ce4bgt12rcd13ifvqce0","pricing_plan_id":"cebpf4jnsgd1na2vs0mg"},{"bike_id":"4174e0c9-ea8a-45cf-832b-944eca7da095","system_id":"levelo_inurba_marseille","lat":43.26571,"lon":5.39032,"is_reserved":false,"is_disabled":false,"rental_uris":{"android":"levelo://app?vid=4174e0c9-ea8a-45cf-832b-944eca7da095","ios":"levelo://app?vid=4174e0c9-ea8a-45cf-832b-944eca7da095"},"vehicle_type_id":"4","last_reported":1727428201,"current_range_meters":19200,"station_id":"ce4bhe12rcd13ifvqf30","pricing_plan_id":"cebpf4jnsgd1na2vs0mg"},{"bike_id":"ef3b1768-3128-4f90-82ef-cc8335211ff1","system_id":"levelo_inurba_marseille","lat":43.29569,"lon":5.42256,"is_reserved":false,"is_disabled":false,"rental_uris":{"android":"levelo://app?vid=ef3b1768-3128-4f90-82ef-cc8335211ff1","ios":"levelo://app?vid=ef3b1768-3128-4f90-82ef-cc8335211ff1"},"vehicle_type_id":"4","last_reported":1727428201,"current_range_meters":38800,"station_id":"ce4bhph2rcd13ifvqhdg","pricing_plan_id":"cebpf4jnsgd1na2vs0mg"},{"bike_id":"c8b40ef1-0000-4246-9a0f-38f6bb288127","system_id":"levelo_inurba_marseille","lat":43.29309,"lon":5.37179,"is_reserved":false,"is_disabled":false,"rental_uris":{"android":"levelo://app?vid=c8b40ef1-0000-4246-9a0f-38f6bb288127","ios":"levelo://app?vid=c8b40ef1-0000-4246-9a0f-38f6bb288127"},"vehicle_type_id":"4","last_reported":1727428201,"current_range_meters":30800,"station_id":"ce4bgh92rcd13ifvqb40","pricing_plan_id":"cebpf4jnsgd1na2vs0mg"},{"bike_id":"85002f6e-ebfd-48de-af43-367fbe507e10","system_id":"levelo_inurba_marseille","lat":43.29032,"lon":5.37557,"is_reserved":false,"is_disabled":false,"rental_uris":{"android":"levelo://app?vid=85002f6e-ebfd-48de-af43-367fbe507e10","ios":"levelo://app?vid=85002f6e-ebfd-48de-af43-367fbe507e10"},"vehicle_type_id":"4","last_reported":1727428201,"current_range_meters":24800,"station_id":"ce4bh692rcd13ifvqe90","pricing_plan_id":"cebpf4jnsgd1na2vs0mg"},{"bike_id":"d03856c3-8a24-43aa-a48a-8787bc340424","system_id":"levelo_inurba_marseille","lat":43.30898,"lon":5.36847,"is_reserved":false,"is_disabled":false,"rental_uris":{"android":"levelo://app?vid=d03856c3-8a24-43aa-a48a-8787bc340424","ios":"levelo://app?vid=d03856c3-8a24-43aa-a48a-8787bc340424"},"vehicle_type_id":"4","last_reported":1727428201,"current_range_meters":30400,"station_id":"ce4bgn92rcd13ifvqbvg","pricing_plan_id":"cebpf4jnsgd1na2vs0mg"},{"bike_id":"9c802d72-a3ef-463a-ad77-5644542a6e53","system_id":"levelo_inurba_marseille","lat":43.30466,"lon":5.37911,"is_reserved":false,"is_disabled":false,"rental_uris":{"android":"levelo://app?vid=9c802d72-a3ef-463a-ad77-5644542a6e53","ios":"levelo://app?vid=9c802d72-a3ef-463a-ad77-5644542a6e53"},"vehicle_type_id":"4","last_reported":1727428201,"current_range_meters":23200,"station_id":"ce4bgup2rcd13ifvqcn0","pricing_plan_id":"cebpf4jnsgd1na2vs0mg"},{"bike_id":"fd512eb4-5978-476b-856d-3199680a82b6","system_id":"levelo_inurba_marseille","lat":43.23153,"lon":5.43702,"is_reserved":false,"is_disabled":false,"rental_uris":{"android":"levelo://app?vid=fd512eb4-5978-476b-856d-3199680a82b6","ios":"levelo://app?vid=fd512eb4-5978-476b-856d-3199680a82b6"},"vehicle_type_id":"4","last_reported":1727428201,"current_range_meters":17200,"station_id":"ce4bhmp2rcd13ifvqgog","pricing_plan_id":"cebpf4jnsgd1na2vs0mg"},{"bike_id":"cff557bc-e136-4fde-af6c-83c740466e77","system_id":"levelo_inurba_marseille","lat":43.26947,"lon":5.38643,"is_reserved":false,"is_disabled":false,"rental_uris":{"android":"levelo://app?vid=cff557bc-e136-4fde-af6c-83c740466e77","ios":"levelo://app?vid=cff557bc-e136-4fde-af6c-83c740466e77"},"vehicle_type_id":"4","last_reported":1727428201,"current_range_meters":38800,"station_id":"ce4bhh92rcd13ifvqfh0","pricing_plan_id":"cebpf4jnsgd1na2vs0mg"},{"bike_id":"e5edb00e-cafc-4a47-9e5b-004b7d4e67c3","system_id":"levelo_inurba_marseille","lat":43.30466,"lon":5.37906,"is_reserved":false,"is_disabled":false,"rental_uris":{"android":"levelo://app?vid=e5edb00e-cafc-4a47-9e5b-004b7d4e67c3","ios":"levelo://app?vid=e5edb00e-cafc-4a47-9e5b-004b7d4e67c3"},"vehicle_type_id":"4","last_reported":1727428201,"current_range_meters":30800,"station_id":"ce4bgup2rcd13ifvqcn0","pricing_plan_id":"cebpf4jnsgd1na2vs0mg"},{"bike_id":"54349784-eb4a-488f-a187-17d76f2f8837","system_id":"levelo_inurba_marseille","lat":43.34137,"lon":5.40897,"is_reserved":false,"is_disabled":false,"rental_uris":{"android":"levelo://app?vid=54349784-eb4a-488f-a187-17d76f2f8837","ios":"levelo://app?vid=54349784-eb4a-488f-a187-17d76f2f8837"},"vehicle_type_id":"4","last_reported":1727428201,"current_range_meters":16800,"station_id":"ce4bhqh2rcd13ifvqhlg","pricing_plan_id":"cebpf4jnsgd1na2vs0mg"},{"bike_id":"b30630bd-0d81-41fb-a742-99c7da265c18","system_id":"levelo_inurba_marseille","lat":43.30471,"lon":5.37906,"is_reserved":false,"is_disabled":false,"rental_uris":{"android":"levelo://app?vid=b30630bd-0d81-41fb-a742-99c7da265c18","ios":"levelo://app?vid=b30630bd-0d81-41fb-a742-99c7da265c18"},"vehicle_type_id":"4","last_reported":1727428201,"current_range_meters":17600,"station_id":"ce4bgup2rcd13ifvqcn0","pricing_plan_id":"cebpf4jnsgd1na2vs0mg"},{"bike_id":"8128138c-b64b-4d51-850e-87c3fb47d7ba","system_id":"levelo_inurba_marseille","lat":43.29374,"lon":5.37823,"is_reserved":false,"is_disabled":false,"rental_uris":{"android":"levelo://app?vid=8128138c-b64b-4d51-850e-87c3fb47d7ba","ios":"levelo://app?vid=8128138c-b64b-4d51-850e-87c3fb47d7ba"},"vehicle_type_id":"4","last_reported":1727428201,"current_range_meters":27200,"station_id":"ce4bgjh2rcd13ifvqbf0","pricing_plan_id":"cebpf4jnsgd1na2vs0mg"},{"bike_id":"91b3e26d-770f-40f8-ae00-00f78c59c653","system_id":"levelo_inurba_marseille","lat":43.24664,"lon":5.38162,"is_reserved":false,"is_disabled":false,"rental_uris":{"android":"levelo://app?vid=91b3e26d-770f-40f8-ae00-00f78c59c653","ios":"levelo://app?vid=91b3e26d-770f-40f8-ae00-00f78c59c653"},"vehicle_type_id":"4","last_reported":1727428201,"current_range_meters":17600,"station_id":"ce4bhih2rcd13ifvqfr0","pricing_plan_id":"cebpf4jnsgd1na2vs0mg"},{"bike_id":"79f1521a-1338-417b-a91b-231c9648f517","system_id":"levelo_inurba_marseille","lat":43.29621,"lon":5.37172,"is_reserved":false,"is_disabled":false,"rental_uris":{"android":"levelo://app?vid=79f1521a-1338-417b-a91b-231c9648f517","ios":"levelo://app?vid=79f1521a-1338-417b-a91b-231c9648f517"},"vehicle_type_id":"4","last_reported":1727428201,"current_range_meters":8400,"station_id":"ce4bgnh2rcd13ifvqc0g","pricing_plan_id":"cebpf4jnsgd1na2vs0mg"},{"bike_id":"5f681d42-1156-4555-9e32-276446c464ab","system_id":"levelo_inurba_marseille","lat":43.26783,"lon":5.39412,"is_reserved":false,"is_disabled":false,"rental_uris":{"android":"levelo://app?vid=5f681d42-1156-4555-9e32-276446c464ab","ios":"levelo://app?vid=5f681d42-1156-4555-9e32-276446c464ab"},"vehicle_type_id":"4","last_reported":1727428201,"current_range_meters":8800,"station_id":"ce4bhh12rcd13ifvqfg0","pricing_plan_id":"cebpf4jnsgd1na2vs0mg"},{"bike_id":"7fc62455-2129-4459-93ea-44e36d53f76e","system_id":"levelo_inurba_marseille","lat":43.29301,"lon":5.35981,"is_reserved":false,"is_disabled":false,"rental_uris":{"android":"levelo://app?vid=7fc62455-2129-4459-93ea-44e36d53f76e","ios":"levelo://app?vid=7fc62455-2129-4459-93ea-44e36d53f76e"},"vehicle_type_id":"4","last_reported":1727428201,"current_range_meters":38800,"station_id":"ce4bhbh2rcd13ifvqeqg","pricing_plan_id":"cebpf4jnsgd1na2vs0mg"},{"bike_id":"3b996386-af24-442d-b5d1-9b0df8dac085","system_id":"levelo_inurba_marseille","lat":43.30541,"lon":5.36714,"is_reserved":false,"is_disabled":false,"rental_uris":{"android":"levelo://app?vid=3b996386-af24-442d-b5d1-9b0df8dac085","ios":"levelo://app?vid=3b996386-af24-442d-b5d1-9b0df8dac085"},"vehicle_type_id":"4","last_reported":1727428201,"current_range_meters":38000,"station_id":"ce4bgrp2rcd13ifvqc9g","pricing_plan_id":"cebpf4jnsgd1na2vs0mg"},{"bike_id":"70d2ff83-6cec-4dab-92d8-8add58eb97f8","system_id":"levelo_inurba_marseille","lat":43.29943,"lon":5.36545,"is_reserved":false,"is_disabled":false,"rental_uris":{"android":"levelo://app?vid=70d2ff83-6cec-4dab-92d8-8add58eb97f8","ios":"levelo://app?vid=70d2ff83-6cec-4dab-92d8-8add58eb97f8"},"vehicle_type_id":"4","last_reported":1727428201,"current_range_meters":20000,"station_id":"ce4bgm92rcd13ifvqbr0","pricing_plan_id":"cebpf4jnsgd1na2vs0mg"},{"bike_id":"6183619e-6836-4f0e-afaa-75f4c86d53ca","system_id":"levelo_inurba_marseille","lat":43.29971,"lon":5.37171,"is_reserved":false,"is_disabled":false,"rental_uris":{"android":"levelo://app?vid=6183619e-6836-4f0e-afaa-75f4c86d53ca","ios":"levelo://app?vid=6183619e-6836-4f0e-afaa-75f4c86d53ca"},"vehicle_type_id":"4","last_reported":1727428201,"current_range_meters":22000,"station_id":"ce4bgr92rcd13ifvqc7g","pricing_plan_id":"cebpf4jnsgd1na2vs0mg"},{"bike_id":"56c7d7f7-9895-4182-9ad9-943c660cfed5","system_id":"levelo_inurba_marseille","lat":43.24159,"lon":5.37897,"is_reserved":false,"is_disabled":false,"rental_uris":{"android":"levelo://app?vid=56c7d7f7-9895-4182-9ad9-943c660cfed5","ios":"levelo://app?vid=56c7d7f7-9895-4182-9ad9-943c660cfed5"},"vehicle_type_id":"4","last_reported":1727428201,"current_range_meters":20000,"station_id":"ce4bhnp2rcd13ifvqgvg","pricing_plan_id":"cebpf4jnsgd1na2vs0mg"},{"bike_id":"c3382d59-03f1-4629-978a-9ee3ba140a91","system_id":"levelo_inurba_marseille","lat":43.31496,"lon":5.37311,"is_reserved":false,"is_disabled":false,"rental_uris":{"android":"levelo://app?vid=c3382d59-03f1-4629-978a-9ee3ba140a91","ios":"levelo://app?vid=c3382d59-03f1-4629-978a-9ee3ba140a91"},"vehicle_type_id":"4","last_reported":1727428201,"current_range_meters":9600,"station_id":"ce4bgt12rcd13ifvqcd0","pricing_plan_id":"cebpf4jnsgd1na2vs0mg"},{"bike_id":"1ce8ddc6-2e1b-4da8-9bb5-9a26bfb16654","system_id":"levelo_inurba_marseille","lat":43.29571,"lon":5.37508,"is_reserved":false,"is_disabled":false,"rental_uris":{"android":"levelo://app?vid=1ce8ddc6-2e1b-4da8-9bb5-9a26bfb16654","ios":"levelo://app?vid=1ce8ddc6-2e1b-4da8-9bb5-9a26bfb16654"},"vehicle_type_id":"4","last_reported":1727428201,"current_range_meters":21600,"station_id":"ce4bgh92rcd13ifvqb50","pricing_plan_id":"cebpf4jnsgd1na2vs0mg"},{"bike_id":"477326bf-5dd0-4efc-b0be-ab0cc8d7b060","system_id":"levelo_inurba_marseille","lat":43.29167,"lon":5.37144,"is_reserved":false,"is_disabled":false,"rental_uris":{"android":"levelo://app?vid=477326bf-5dd0-4efc-b0be-ab0cc8d7b060","ios":"levelo://app?vid=477326bf-5dd0-4efc-b0be-ab0cc8d7b060"},"vehicle_type_id":"4","last_reported":1727428201,"current_range_meters":35200,"station_id":"ce4bha92rcd13ifvqeh0","pricing_plan_id":"cebpf4jnsgd1na2vs0mg"},{"bike_id":"5e348244-43b9-4459-a1d4-b6bf9309ac6b","system_id":"levelo_inurba_marseille","lat":43.24076,"lon":5.3774,"is_reserved":false,"is_disabled":false,"rental_uris":{"android":"levelo://app?vid=5e348244-43b9-4459-a1d4-b6bf9309ac6b","ios":"levelo://app?vid=5e348244-43b9-4459-a1d4-b6bf9309ac6b"},"vehicle_type_id":"4","last_reported":1727428201,"current_range_meters":30000,"station_id":"ce4bhnp2rcd13ifvqgvg","pricing_plan_id":"cebpf4jnsgd1na2vs0mg"},{"bike_id":"9eca55a4-3562-46d3-a1ac-b1517e256ebe","system_id":"levelo_inurba_marseille","lat":43.2707,"lon":5.42282,"is_reserved":false,"is_disabled":false,"rental_uris":{"android":"levelo://app?vid=9eca55a4-3562-46d3-a1ac-b1517e256ebe","ios":"levelo://app?vid=9eca55a4-3562-46d3-a1ac-b1517e256ebe"},"vehicle_type_id":"4","last_reported":1727428201,"current_range_meters":24800,"station_id":"ce4bhk92rcd13ifvqgb0","pricing_plan_id":"cebpf4jnsgd1na2vs0mg"},{"bike_id":"380629cf-c9a7-40ac-a210-4ba5fc8ced3b","system_id":"levelo_inurba_marseille","lat":43.28152,"lon":5.4264,"is_reserved":false,"is_disabled":false,"rental_uris":{"android":"levelo://app?vid=380629cf-c9a7-40ac-a210-4ba5fc8ced3b","ios":"levelo://app?vid=380629cf-c9a7-40ac-a210-4ba5fc8ced3b"},"vehicle_type_id":"4","last_reported":1727428201,"current_range_meters":33200,"station_id":"ce4bhnh2rcd13ifvqgug","pricing_plan_id":"cebpf4jnsgd1na2vs0mg"},{"bike_id":"9d0f4793-8827-439a-8525-f0c62ffff611","system_id":"levelo_inurba_marseille","lat":43.337444,"lon":5.374475,"is_reserved":false,"is_disabled":false,"rental_uris":{"android":"levelo://app?vid=9d0f4793-8827-439a-8525-f0c62ffff611","ios":"levelo://app?vid=9d0f4793-8827-439a-8525-f0c62ffff611"},"vehicle_type_id":"4","last_reported":1727428201,"current_range_meters":34800,"station_id":"ce4bgh92rcd13ifvqb50","pricing_plan_id":"cebpf4jnsgd1na2vs0mg"},{"bike_id":"4707f8e5-383f-432a-8049-8bac57086fca","system_id":"levelo_inurba_marseille","lat":43.2558,"lon":5.38234,"is_reserved":false,"is_disabled":false,"rental_uris":{"android":"levelo://app?vid=4707f8e5-383f-432a-8049-8bac57086fca","ios":"levelo://app?vid=4707f8e5-383f-432a-8049-8bac57086fca"},"vehicle_type_id":"4","last_reported":1727428201,"current_range_meters":37600,"station_id":"ce4bhih2rcd13ifvqfs0","pricing_plan_id":"cebpf4jnsgd1na2vs0mg"},{"bike_id":"f4261619-f054-436d-84de-9759d6a8d43b","system_id":"levelo_inurba_marseille","lat":43.30466,"lon":5.37893,"is_reserved":false,"is_disabled":false,"rental_uris":{"android":"levelo://app?vid=f4261619-f054-436d-84de-9759d6a8d43b","ios":"levelo://app?vid=f4261619-f054-436d-84de-9759d6a8d43b"},"vehicle_type_id":"4","last_reported":1727428201,"current_range_meters":39200,"station_id":"ce4bgup2rcd13ifvqcn0","pricing_plan_id":"cebpf4jnsgd1na2vs0mg"},{"bike_id":"1db71e48-3e6e-4ffc-aa03-992ab96fe207","system_id":"levelo_inurba_marseille","lat":43.29572,"lon":5.37518,"is_reserved":false,"is_disabled":false,"rental_uris":{"android":"levelo://app?vid=1db71e48-3e6e-4ffc-aa03-992ab96fe207","ios":"levelo://app?vid=1db71e48-3e6e-4ffc-aa03-992ab96fe207"},"vehicle_type_id":"4","last_reported":1727428201,"current_range_meters":25600,"station_id":"ce4bgh92rcd13ifvqb50","pricing_plan_id":"cebpf4jnsgd1na2vs0mg"},{"bike_id":"c349caa3-7f2a-4a4a-a104-5c9e4ac435fb","system_id":"levelo_inurba_marseille","lat":43.28476,"lon":5.38411,"is_reserved":false,"is_disabled":false,"rental_uris":{"android":"levelo://app?vid=c349caa3-7f2a-4a4a-a104-5c9e4ac435fb","ios":"levelo://app?vid=c349caa3-7f2a-4a4a-a104-5c9e4ac435fb"},"vehicle_type_id":"4","last_reported":1727428201,"current_range_meters":38800,"station_id":"ce4bh512rcd13ifvqe3g","pricing_plan_id":"cebpf4jnsgd1na2vs0mg"},{"bike_id":"c82d3bcb-c4a6-4d9e-8d43-663bba088090","system_id":"levelo_inurba_marseille","lat":43.24082,"lon":5.37737,"is_reserved":false,"is_disabled":false,"rental_uris":{"android":"levelo://app?vid=c82d3bcb-c4a6-4d9e-8d43-663bba088090","ios":"levelo://app?vid=c82d3bcb-c4a6-4d9e-8d43-663bba088090"},"vehicle_type_id":"4","last_reported":1727428201,"current_range_meters":36800,"station_id":"ce4bhnp2rcd13ifvqgvg","pricing_plan_id":"cebpf4jnsgd1na2vs0mg"},{"bike_id":"7a221aff-a308-4e51-bd6c-3606a6928c42","system_id":"levelo_inurba_marseille","lat":43.28482,"lon":5.38964,"is_reserved":false,"is_disabled":false,"rental_uris":{"android":"levelo://app?vid=7a221aff-a308-4e51-bd6c-3606a6928c42","ios":"levelo://app?vid=7a221aff-a308-4e51-bd6c-3606a6928c42"},"vehicle_type_id":"4","last_reported":1727428201,"current_range_meters":37600,"station_id":"","pricing_plan_id":"cebpf4jnsgd1na2vs0mg"},{"bike_id":"999ca916-32e1-4e3d-aa5e-4b3870970076","system_id":"levelo_inurba_marseille","lat":43.31482,"lon":5.37305,"is_reserved":false,"is_disabled":false,"rental_uris":{"android":"levelo://app?vid=999ca916-32e1-4e3d-aa5e-4b3870970076","ios":"levelo://app?vid=999ca916-32e1-4e3d-aa5e-4b3870970076"},"vehicle_type_id":"4","last_reported":1727428201,"current_range_meters":4400,"station_id":"ce4bgt12rcd13ifvqcd0","pricing_plan_id":"cebpf4jnsgd1na2vs0mg"},{"bike_id":"3453491e-ac23-4b67-b95d-bdd69cf32b42","system_id":"levelo_inurba_marseille","lat":43.320404,"lon":5.380715,"is_reserved":false,"is_disabled":false,"rental_uris":{"android":"levelo://app?vid=3453491e-ac23-4b67-b95d-bdd69cf32b42","ios":"levelo://app?vid=3453491e-ac23-4b67-b95d-bdd69cf32b42"},"vehicle_type_id":"4","last_reported":1727428201,"current_range_meters":6400,"station_id":"ce4bgt12rcd13ifvqcd0","pricing_plan_id":"cebpf4jnsgd1na2vs0mg"},{"bike_id":"2e1f6dab-2cbd-4c15-a72d-f9e6f857c2d8","system_id":"levelo_inurba_marseille","lat":43.26058,"lon":5.39388,"is_reserved":false,"is_disabled":false,"rental_uris":{"android":"levelo://app?vid=2e1f6dab-2cbd-4c15-a72d-f9e6f857c2d8","ios":"levelo://app?vid=2e1f6dab-2cbd-4c15-a72d-f9e6f857c2d8"},"vehicle_type_id":"4","last_reported":1727428201,"current_range_meters":6400,"station_id":"ce4bhh92rcd13ifvqfj0","pricing_plan_id":"cebpf4jnsgd1na2vs0mg"},{"bike_id":"07e39731-448f-40d5-9d06-91facf9fcb8e","system_id":"levelo_inurba_marseille","lat":43.31993,"lon":5.38147,"is_reserved":false,"is_disabled":false,"rental_uris":{"android":"levelo://app?vid=07e39731-448f-40d5-9d06-91facf9fcb8e","ios":"levelo://app?vid=07e39731-448f-40d5-9d06-91facf9fcb8e"},"vehicle_type_id":"4","last_reported":1727428201,"current_range_meters":28000,"station_id":"ce4bhr12rcd13ifvqhpg","pricing_plan_id":"cebpf4jnsgd1na2vs0mg"},{"bike_id":"901fcd21-840d-4db9-aafd-424f091b9c64","system_id":"levelo_inurba_marseille","lat":43.29272,"lon":5.3684,"is_reserved":false,"is_disabled":false,"rental_uris":{"android":"levelo://app?vid=901fcd21-840d-4db9-aafd-424f091b9c64","ios":"levelo://app?vid=901fcd21-840d-4db9-aafd-424f091b9c64"},"vehicle_type_id":"4","last_reported":1727428201,"current_range_meters":24800,"station_id":"ce4bhbp2rcd13ifvqesg","pricing_plan_id":"cebpf4jnsgd1na2vs0mg"},{"bike_id":"8a5475e3-6fbf-4e9b-b650-accf3a939b49","system_id":"levelo_inurba_marseille","lat":43.32482,"lon":5.36582,"is_reserved":false,"is_disabled":false,"rental_uris":{"android":"levelo://app?vid=8a5475e3-6fbf-4e9b-b650-accf3a939b49","ios":"levelo://app?vid=8a5475e3-6fbf-4e9b-b650-accf3a939b49"},"vehicle_type_id":"4","last_reported":1727428201,"current_range_meters":39200,"station_id":"ce4bhs12rcd13ifvqhvg","pricing_plan_id":"cebpf4jnsgd1na2vs0mg"},{"bike_id":"027699da-6e1a-43b1-ae68-183b1e03550f","system_id":"levelo_inurba_marseille","lat":43.28998,"lon":5.37579,"is_reserved":false,"is_disabled":false,"rental_uris":{"android":"levelo://app?vid=027699da-6e1a-43b1-ae68-183b1e03550f","ios":"levelo://app?vid=027699da-6e1a-43b1-ae68-183b1e03550f"},"vehicle_type_id":"4","last_reported":1727428201,"current_range_meters":34000,"station_id":"ce4bh692rcd13ifvqe90","pricing_plan_id":"cebpf4jnsgd1na2vs0mg"},{"bike_id":"1b881491-242d-4bc1-907d-bfa3d24d2b8e","system_id":"levelo_inurba_marseille","lat":43.29597,"lon":5.38097,"is_reserved":false,"is_disabled":false,"rental_uris":{"android":"levelo://app?vid=1b881491-242d-4bc1-907d-bfa3d24d2b8e","ios":"levelo://app?vid=1b881491-242d-4bc1-907d-bfa3d24d2b8e"},"vehicle_type_id":"4","last_reported":1727428201,"current_range_meters":16400,"station_id":"ce4bgl12rcd13ifvqbo0","pricing_plan_id":"cebpf4jnsgd1na2vs0mg"},{"bike_id":"cf517e91-9fba-4889-840d-85b4c7dbf3fd","system_id":"levelo_inurba_marseille","lat":43.24073,"lon":5.3776,"is_reserved":false,"is_disabled":false,"rental_uris":{"android":"levelo://app?vid=cf517e91-9fba-4889-840d-85b4c7dbf3fd","ios":"levelo://app?vid=cf517e91-9fba-4889-840d-85b4c7dbf3fd"},"vehicle_type_id":"4","last_reported":1727428201,"current_range_meters":38000,"station_id":"ce4bhnp2rcd13ifvqgvg","pricing_plan_id":"cebpf4jnsgd1na2vs0mg"},{"bike_id":"0b3dcbbd-c5e0-4394-80dc-f6f82af6bb5b","system_id":"levelo_inurba_marseille","lat":43.28471,"lon":5.38413,"is_reserved":false,"is_disabled":false,"rental_uris":{"android":"levelo://app?vid=0b3dcbbd-c5e0-4394-80dc-f6f82af6bb5b","ios":"levelo://app?vid=0b3dcbbd-c5e0-4394-80dc-f6f82af6bb5b"},"vehicle_type_id":"4","last_reported":1727428201,"current_range_meters":30800,"station_id":"ce4bh512rcd13ifvqe3g","pricing_plan_id":"cebpf4jnsgd1na2vs0mg"},{"bike_id":"44f7bafc-ba85-4eca-9b98-85e86afcd36f","system_id":"levelo_inurba_marseille","lat":43.2958,"lon":5.37513,"is_reserved":false,"is_disabled":false,"rental_uris":{"android":"levelo://app?vid=44f7bafc-ba85-4eca-9b98-85e86afcd36f","ios":"levelo://app?vid=44f7bafc-ba85-4eca-9b98-85e86afcd36f"},"vehicle_type_id":"4","last_reported":1727428201,"current_range_meters":16000,"station_id":"ce4bgh92rcd13ifvqb50","pricing_plan_id":"cebpf4jnsgd1na2vs0mg"},{"bike_id":"150b484c-4355-4e25-abb9-aad0436d4e73","system_id":"levelo_inurba_marseille","lat":43.29006,"lon":5.35615,"is_reserved":false,"is_disabled":false,"rental_uris":{"android":"levelo://app?vid=150b484c-4355-4e25-abb9-aad0436d4e73","ios":"levelo://app?vid=150b484c-4355-4e25-abb9-aad0436d4e73"},"vehicle_type_id":"4","last_reported":1727428201,"current_range_meters":38800,"station_id":"ce4bhb92rcd13ifvqen0","pricing_plan_id":"cebpf4jnsgd1na2vs0mg"},{"bike_id":"079eae73-c155-4655-a2a6-6306ceb09a5a","system_id":"levelo_inurba_marseille","lat":43.29842,"lon":5.36278,"is_reserved":false,"is_disabled":false,"rental_uris":{"android":"levelo://app?vid=079eae73-c155-4655-a2a6-6306ceb09a5a","ios":"levelo://app?vid=079eae73-c155-4655-a2a6-6306ceb09a5a"},"vehicle_type_id":"4","last_reported":1727428201,"current_range_meters":2800,"station_id":"ce4bgpp2rcd13ifvqc3g","pricing_plan_id":"cebpf4jnsgd1na2vs0mg"},{"bike_id":"97b3b6d5-9931-4944-b3cc-3d5977c1a977","system_id":"levelo_inurba_marseille","lat":43.31067,"lon":5.38359,"is_reserved":false,"is_disabled":false,"rental_uris":{"android":"levelo://app?vid=97b3b6d5-9931-4944-b3cc-3d5977c1a977","ios":"levelo://app?vid=97b3b6d5-9931-4944-b3cc-3d5977c1a977"},"vehicle_type_id":"4","last_reported":1727428201,"current_range_meters":15200,"station_id":"ce4bgv92rcd13ifvqcr0","pricing_plan_id":"cebpf4jnsgd1na2vs0mg"},{"bike_id":"7cc0438d-889c-458a-86fc-daa6eb95b88a","system_id":"levelo_inurba_marseille","lat":43.32478,"lon":5.36556,"is_reserved":false,"is_disabled":false,"rental_uris":{"android":"levelo://app?vid=7cc0438d-889c-458a-86fc-daa6eb95b88a","ios":"levelo://app?vid=7cc0438d-889c-458a-86fc-daa6eb95b88a"},"vehicle_type_id":"4","last_reported":1727428201,"current_range_meters":33600,"station_id":"ce4bhs12rcd13ifvqhvg","pricing_plan_id":"cebpf4jnsgd1na2vs0mg"},{"bike_id":"e6c0f65a-33be-415d-a1ea-248fe959262e","system_id":"levelo_inurba_marseille","lat":43.29618,"lon":5.37155,"is_reserved":false,"is_disabled":false,"rental_uris":{"android":"levelo://app?vid=e6c0f65a-33be-415d-a1ea-248fe959262e","ios":"levelo://app?vid=e6c0f65a-33be-415d-a1ea-248fe959262e"},"vehicle_type_id":"4","last_reported":1727428201,"current_range_meters":39200,"station_id":"ce4bgnh2rcd13ifvqc0g","pricing_plan_id":"cebpf4jnsgd1na2vs0mg"},{"bike_id":"acc73a6c-9246-491f-a928-d2a1e999ed3f","system_id":"levelo_inurba_marseille","lat":43.2586,"lon":5.39901,"is_reserved":false,"is_disabled":false,"rental_uris":{"android":"levelo://app?vid=acc73a6c-9246-491f-a928-d2a1e999ed3f","ios":"levelo://app?vid=acc73a6c-9246-491f-a928-d2a1e999ed3f"},"vehicle_type_id":"4","last_reported":1727428201,"current_range_meters":10000,"station_id":"ce4bhl92rcd13ifvqghg","pricing_plan_id":"cebpf4jnsgd1na2vs0mg"},{"bike_id":"b721e921-074f-403a-bad1-46bc383cd1ce","system_id":"levelo_inurba_marseille","lat":43.30459,"lon":5.3791,"is_reserved":false,"is_disabled":false,"rental_uris":{"android":"levelo://app?vid=b721e921-074f-403a-bad1-46bc383cd1ce","ios":"levelo://app?vid=b721e921-074f-403a-bad1-46bc383cd1ce"},"vehicle_type_id":"4","last_reported":1727428201,"current_range_meters":27600,"station_id":"ce4bgup2rcd13ifvqcn0","pricing_plan_id":"cebpf4jnsgd1na2vs0mg"},{"bike_id":"4ba50d48-7005-4c86-b12b-c44e38bd7220","system_id":"levelo_inurba_marseille","lat":43.28154,"lon":5.4265,"is_reserved":false,"is_disabled":false,"rental_uris":{"android":"levelo://app?vid=4ba50d48-7005-4c86-b12b-c44e38bd7220","ios":"levelo://app?vid=4ba50d48-7005-4c86-b12b-c44e38bd7220"},"vehicle_type_id":"4","last_reported":1727428201,"current_range_meters":14800,"station_id":"ce4bhnh2rcd13ifvqgug","pricing_plan_id":"cebpf4jnsgd1na2vs0mg"},{"bike_id":"057127d7-4f70-4a63-bb08-dac72ac1d77e","system_id":"levelo_inurba_marseille","lat":43.26675,"lon":5.38261,"is_reserved":false,"is_disabled":false,"rental_uris":{"android":"levelo://app?vid=057127d7-4f70-4a63-bb08-dac72ac1d77e","ios":"levelo://app?vid=057127d7-4f70-4a63-bb08-dac72ac1d77e"},"vehicle_type_id":"4","last_reported":1727428201,"current_range_meters":29600,"station_id":"ce4bhg92rcd13ifvqf90","pricing_plan_id":"cebpf4jnsgd1na2vs0mg"},{"bike_id":"19d95d56-80d5-4269-9a88-39fdaf7c673c","system_id":"levelo_inurba_marseille","lat":43.24082,"lon":5.37748,"is_reserved":false,"is_disabled":false,"rental_uris":{"android":"levelo://app?vid=19d95d56-80d5-4269-9a88-39fdaf7c673c","ios":"levelo://app?vid=19d95d56-80d5-4269-9a88-39fdaf7c673c"},"vehicle_type_id":"4","last_reported":1727428201,"current_range_meters":28400,"station_id":"ce4bhnp2rcd13ifvqgvg","pricing_plan_id":"cebpf4jnsgd1na2vs0mg"},{"bike_id":"a0487013-f492-41a1-bf03-c1f4cd7b8c48","system_id":"levelo_inurba_marseille","lat":43.29008,"lon":5.35607,"is_reserved":false,"is_disabled":false,"rental_uris":{"android":"levelo://app?vid=a0487013-f492-41a1-bf03-c1f4cd7b8c48","ios":"levelo://app?vid=a0487013-f492-41a1-bf03-c1f4cd7b8c48"},"vehicle_type_id":"4","last_reported":1727428201,"current_range_meters":29600,"station_id":"ce4bhb92rcd13ifvqen0","pricing_plan_id":"cebpf4jnsgd1na2vs0mg"},{"bike_id":"37a3adab-d5a4-40be-963c-64b75fb764aa","system_id":"levelo_inurba_marseille","lat":43.30146,"lon":5.38081,"is_reserved":false,"is_disabled":false,"rental_uris":{"android":"levelo://app?vid=37a3adab-d5a4-40be-963c-64b75fb764aa","ios":"levelo://app?vid=37a3adab-d5a4-40be-963c-64b75fb764aa"},"vehicle_type_id":"4","last_reported":1727428201,"current_range_meters":28000,"station_id":"ce4bgjp2rcd13ifvqbh0","pricing_plan_id":"cebpf4jnsgd1na2vs0mg"},{"bike_id":"246a6eac-f816-4324-a4c5-3ecddf6b45fb","system_id":"levelo_inurba_marseille","lat":43.32536,"lon":5.41437,"is_reserved":false,"is_disabled":false,"rental_uris":{"android":"levelo://app?vid=246a6eac-f816-4324-a4c5-3ecddf6b45fb","ios":"levelo://app?vid=246a6eac-f816-4324-a4c5-3ecddf6b45fb"},"vehicle_type_id":"4","last_reported":1727428201,"current_range_meters":24000,"station_id":"ce4bhq12rcd13ifvqhhg","pricing_plan_id":"cebpf4jnsgd1na2vs0mg"},{"bike_id":"f244f90b-399e-4afd-a4ad-c99eb858a55e","system_id":"levelo_inurba_marseille","lat":43.30606,"lon":5.37232,"is_reserved":false,"is_disabled":false,"rental_uris":{"android":"levelo://app?vid=f244f90b-399e-4afd-a4ad-c99eb858a55e","ios":"levelo://app?vid=f244f90b-399e-4afd-a4ad-c99eb858a55e"},"vehicle_type_id":"4","last_reported":1727428201,"current_range_meters":36000,"station_id":"ce4bgqh2rcd13ifvqc4g","pricing_plan_id":"cebpf4jnsgd1na2vs0mg"},{"bike_id":"ab76a529-f722-41f1-93c6-d76f1e5954c4","system_id":"levelo_inurba_marseille","lat":43.30469,"lon":5.37901,"is_reserved":false,"is_disabled":false,"rental_uris":{"android":"levelo://app?vid=ab76a529-f722-41f1-93c6-d76f1e5954c4","ios":"levelo://app?vid=ab76a529-f722-41f1-93c6-d76f1e5954c4"},"vehicle_type_id":"4","last_reported":1727428201,"current_range_meters":30400,"station_id":"ce4bgup2rcd13ifvqcn0","pricing_plan_id":"cebpf4jnsgd1na2vs0mg"},{"bike_id":"a31903f5-cb6f-4186-aeba-167b96a30b56","system_id":"levelo_inurba_marseille","lat":43.26931,"lon":5.38912,"is_reserved":false,"is_disabled":false,"rental_uris":{"android":"levelo://app?vid=a31903f5-cb6f-4186-aeba-167b96a30b56","ios":"levelo://app?vid=a31903f5-cb6f-4186-aeba-167b96a30b56"},"vehicle_type_id":"4","last_reported":1727428201,"current_range_meters":36400,"station_id":"ce4bhhh2rcd13ifvqfl0","pricing_plan_id":"cebpf4jnsgd1na2vs0mg"},{"bike_id":"7d187923-6629-4a06-bd67-979066577e39","system_id":"levelo_inurba_marseille","lat":43.25499,"lon":5.37647,"is_reserved":false,"is_disabled":false,"rental_uris":{"android":"levelo://app?vid=7d187923-6629-4a06-bd67-979066577e39","ios":"levelo://app?vid=7d187923-6629-4a06-bd67-979066577e39"},"vehicle_type_id":"4","last_reported":1727428201,"current_range_meters":38400,"station_id":"ce4bhh12rcd13ifvqff0","pricing_plan_id":"cebpf4jnsgd1na2vs0mg"},{"bike_id":"a7bca3df-0344-4204-86d7-b742d4769839","system_id":"levelo_inurba_marseille","lat":43.30863,"lon":5.3685,"is_reserved":false,"is_disabled":false,"rental_uris":{"android":"levelo://app?vid=a7bca3df-0344-4204-86d7-b742d4769839","ios":"levelo://app?vid=a7bca3df-0344-4204-86d7-b742d4769839"},"vehicle_type_id":"4","last_reported":1727428201,"current_range_meters":17200,"station_id":"ce4bgn92rcd13ifvqbvg","pricing_plan_id":"cebpf4jnsgd1na2vs0mg"},{"bike_id":"59562d14-07be-4307-84a6-cd5c5d2a9187","system_id":"levelo_inurba_marseille","lat":43.32539,"lon":5.4145,"is_reserved":false,"is_disabled":false,"rental_uris":{"android":"levelo://app?vid=59562d14-07be-4307-84a6-cd5c5d2a9187","ios":"levelo://app?vid=59562d14-07be-4307-84a6-cd5c5d2a9187"},"vehicle_type_id":"4","last_reported":1727428201,"current_range_meters":38000,"station_id":"ce4bhq12rcd13ifvqhhg","pricing_plan_id":"cebpf4jnsgd1na2vs0mg"},{"bike_id":"546a1bb6-ec80-485c-8b1e-bb866a56741e","system_id":"levelo_inurba_marseille","lat":43.33602,"lon":5.4103,"is_reserved":false,"is_disabled":false,"rental_uris":{"android":"levelo://app?vid=546a1bb6-ec80-485c-8b1e-bb866a56741e","ios":"levelo://app?vid=546a1bb6-ec80-485c-8b1e-bb866a56741e"},"vehicle_type_id":"4","last_reported":1727428201,"current_range_meters":20800,"station_id":"ce4bhqh2rcd13ifvqhmg","pricing_plan_id":"cebpf4jnsgd1na2vs0mg"},{"bike_id":"c812fd21-e132-41c6-8c4f-a85a6630f654","system_id":"levelo_inurba_marseille","lat":43.337444,"lon":5.374475,"is_reserved":false,"is_disabled":false,"rental_uris":{"android":"levelo://app?vid=c812fd21-e132-41c6-8c4f-a85a6630f654","ios":"levelo://app?vid=c812fd21-e132-41c6-8c4f-a85a6630f654"},"vehicle_type_id":"4","last_reported":1727428201,"current_range_meters":38400,"station_id":"ce4bgh92rcd13ifvqb50","pricing_plan_id":"cebpf4jnsgd1na2vs0mg"},{"bike_id":"0cdd23b4-5d33-44c4-96f5-e3055ce4951f","system_id":"levelo_inurba_marseille","lat":43.24388,"lon":5.37057,"is_reserved":false,"is_disabled":false,"rental_uris":{"android":"levelo://app?vid=0cdd23b4-5d33-44c4-96f5-e3055ce4951f","ios":"levelo://app?vid=0cdd23b4-5d33-44c4-96f5-e3055ce4951f"},"vehicle_type_id":"4","last_reported":1727428201,"current_range_meters":38800,"station_id":"ce4bhhh2rcd13ifvqfk0","pricing_plan_id":"cebpf4jnsgd1na2vs0mg"},{"bike_id":"f86e58ca-2eab-4c36-9203-cab642a140fc","system_id":"levelo_inurba_marseille","lat":43.30477,"lon":5.37901,"is_reserved":false,"is_disabled":false,"rental_uris":{"android":"levelo://app?vid=f86e58ca-2eab-4c36-9203-cab642a140fc","ios":"levelo://app?vid=f86e58ca-2eab-4c36-9203-cab642a140fc"},"vehicle_type_id":"4","last_reported":1727428201,"current_range_meters":39200,"station_id":"ce4bgup2rcd13ifvqcn0","pricing_plan_id":"cebpf4jnsgd1na2vs0mg"},{"bike_id":"1b03a9ef-65b8-484a-bdea-50335d511590","system_id":"levelo_inurba_marseille","lat":43.2902,"lon":5.38136,"is_reserved":false,"is_disabled":false,"rental_uris":{"android":"levelo://app?vid=1b03a9ef-65b8-484a-bdea-50335d511590","ios":"levelo://app?vid=1b03a9ef-65b8-484a-bdea-50335d511590"},"vehicle_type_id":"4","last_reported":1727428201,"current_range_meters":39200,"station_id":"ce4bh4p2rcd13ifvqe1g","pricing_plan_id":"cebpf4jnsgd1na2vs0mg"},{"bike_id":"c33c0e72-207a-4feb-bf77-0019b71c56cf","system_id":"levelo_inurba_marseille","lat":43.30548,"lon":5.36539,"is_reserved":false,"is_disabled":false,"rental_uris":{"android":"levelo://app?vid=c33c0e72-207a-4feb-bf77-0019b71c56cf","ios":"levelo://app?vid=c33c0e72-207a-4feb-bf77-0019b71c56cf"},"vehicle_type_id":"4","last_reported":1727428201,"current_range_meters":38800,"station_id":"ce4bgs12rcd13ifvqcag","pricing_plan_id":"cebpf4jnsgd1na2vs0mg"},{"bike_id":"f27d7da4-71be-4f13-a382-953a0f89230d","system_id":"levelo_inurba_marseille","lat":43.24747,"lon":5.37422,"is_reserved":false,"is_disabled":false,"rental_uris":{"android":"levelo://app?vid=f27d7da4-71be-4f13-a382-953a0f89230d","ios":"levelo://app?vid=f27d7da4-71be-4f13-a382-953a0f89230d"},"vehicle_type_id":"4","last_reported":1727428201,"current_range_meters":19200,"station_id":"","pricing_plan_id":"cebpf4jnsgd1na2vs0mg"},{"bike_id":"492c06dc-e681-47b7-b97c-2d0461ee520b","system_id":"levelo_inurba_marseille","lat":43.2678,"lon":5.39423,"is_reserved":false,"is_disabled":false,"rental_uris":{"android":"levelo://app?vid=492c06dc-e681-47b7-b97c-2d0461ee520b","ios":"levelo://app?vid=492c06dc-e681-47b7-b97c-2d0461ee520b"},"vehicle_type_id":"4","last_reported":1727428201,"current_range_meters":32000,"station_id":"ce4bhh12rcd13ifvqfg0","pricing_plan_id":"cebpf4jnsgd1na2vs0mg"},{"bike_id":"8c08872c-2e6e-4fe2-a697-826631d04a1c","system_id":"levelo_inurba_marseille","lat":43.29173,"lon":5.37128,"is_reserved":false,"is_disabled":false,"rental_uris":{"android":"levelo://app?vid=8c08872c-2e6e-4fe2-a697-826631d04a1c","ios":"levelo://app?vid=8c08872c-2e6e-4fe2-a697-826631d04a1c"},"vehicle_type_id":"4","last_reported":1727428201,"current_range_meters":30000,"station_id":"ce4bha92rcd13ifvqeh0","pricing_plan_id":"cebpf4jnsgd1na2vs0mg"},{"bike_id":"c5a0c991-35b3-4e50-bcdb-f76fb33e01a3","system_id":"levelo_inurba_marseille","lat":43.29606,"lon":5.37717,"is_reserved":false,"is_disabled":false,"rental_uris":{"android":"levelo://app?vid=c5a0c991-35b3-4e50-bcdb-f76fb33e01a3","ios":"levelo://app?vid=c5a0c991-35b3-4e50-bcdb-f76fb33e01a3"},"vehicle_type_id":"4","last_reported":1727428201,"current_range_meters":37600,"station_id":"ce4bgi92rcd13ifvqb90","pricing_plan_id":"cebpf4jnsgd1na2vs0mg"},