{"last_updated":1728511724,"ttl":60,"version":"2.2","data":{"bikes":[{"bike_id":"a2bd2ac2-8d7c-42bc-81dd-ba46339fb444","system_id":"levelo_inurba_marseille","lat":43.28457,"lon":5.35886,"is_reserved":false,"is_disabled":false,"rental_uris":{"android":"levelo://app?vid=a2bd2ac2-8d7c-42bc-81dd-ba46339fb444","ios":"levelo://app?vid=a2bd2ac2-8d7c-42bc-81dd-ba46339fb444"},"vehicle_type_id":"4","last_reported":1728511724,"current_range_meters":32800,"station_id":"ce4bhah2rcd13ifvqei0","pricing_plan_id":"cebpf4jnsgd1na2vs0mg"},{"bike_id":"7d804420-b413-42db-82c6-19fc621e8d14","system_id":"levelo_inurba_marseille","lat":43.30549,"lon":5.36707,"is_reserved":false,"is_disabled":false,"rental_uris":{"android":"levelo://app?vid=7d804420-b413-42db-82c6-19fc621e8d14","ios":"levelo://app?vid=7d804420-b413-42db-82c6-19fc621e8d14"},"vehicle_type_id":"4","last_reported":1728511724,"current_range_meters":20000,"station_id":"ce4bgrp2rcd13ifvqc9g","pricing_plan_id":"cebpf4jnsgd1na2vs0mg"},{"bike_id":"fee2ea35-ed27-4505-8f23-2cced28f1db0","system_id":"levelo_inurba_marseille","lat":43.25106,"lon":5.40326,"is_reserved":false,"is_disabled":false,"rental_uris":{"android":"levelo://app?vid=fee2ea35-ed27-4505-8f23-2cced28f1db0","ios":"levelo://app?vid=fee2ea35-ed27-4505-8f23-2cced28f1db0"},"vehicle_type_id":"4","last_reported":1728511724,"current_range_meters":20000,"station_id":"ce4bhlh2rcd13ifvqgig","pricing_plan_id":"cebpf4jnsgd1na2vs0mg"},{"bike_id":"175d0b37-1f62-4442-b865-8d6671b50282","system_id":"levelo_inurba_marseille","lat":43.25112,"lon":5.40311,"is_reserved":false,"is_disabled":false,"rental_uris":{"android":"levelo://app?vid=175d0b37-1f62-4442-b865-8d6671b50282","ios":"levelo://app?vid=175d0b37-1f62-4442-b865-8d6671b50282"},"vehicle_type_id":"4","last_reported":1728511724,"current_range_meters":32400,"station_id":"ce4bhlh2rcd13ifvqgig","pricing_plan_id":"cebpf4jnsgd1na2vs0mg"},{"bike_id":"e3652cfb-9bca-4ba2-92f1-48859fff717a","system_id":"levelo_inurba_marseille","lat":43.317493,"lon":5.390221,"is_reserved":false,"is_disabled":false,"rental_uris":{"android":"levelo://app?vid=e3652cfb-9bca-4ba2-92f1-48859fff717a","ios":"levelo://app?vid=e3652cfb-9bca-4ba2-92f1-48859fff717a"},"vehicle_type_id":"4","last_reported":1728511724,"current_range_meters":28800,"station_id":"ce4bhqp2rcd13ifvqhng","pricing_plan_id":"cebpf4jnsgd1na2vs0mg"},{"bike_id":"6b8918a4-396b-43e5-9a7f-f056357bf660","system_id":"levelo_inurba_marseille","lat":43.23071,"lon":5.35485,"is_reserved":false,"is_disabled":false,"rental_uris":{"android":"levelo://app?vid=6b8918a4-396b-43e5-9a7f-f056357bf660","ios":"levelo://app?vid=6b8918a4-396b-43e5-9a7f-f056357bf660"},"vehicle_type_id":"4","last_reported":1728511724,"current_range_meters":6800,"station_id":"cpo3342slgdg3j2ifvpg","pricing_plan_id":"cebpf4jnsgd1na2vs0mg"},{"bike_id":"bd4ad83f-13a0-4c66-aacd-776103491349","system_id":"levelo_inurba_marseille","lat":43.313349,"lon":5.396862,"is_reserved":false,"is_disabled":false,"rental_uris":{"android":"levelo://app?vid=bd4ad83f-13a0-4c66-aacd-776103491349","ios":"levelo://app?vid=bd4ad83f-13a0-4c66-aacd-776103491349"},"vehicle_type_id":"4","last_reported":1728511724,"current_range_meters":38800,"station_id":"ce4bgvp2rcd13ifvqcu0","pricing_plan_id":"cebpf4jnsgd1na2vs0mg"},{"bike_id":"68abd3f4-ea69-49e2-bd08-d04468479980","system_id":"levelo_inurba_marseille","lat":43.31712,"lon":5.43697,"is_reserved":false,"is_disabled":false,"rental_uris":{"android":"levelo://app?vid=68abd3f4-ea69-49e2-bd08-d04468479980","ios":"levelo://app?vid=68abd3f4-ea69-49e2-bd08-d04468479980"},"vehicle_type_id":"4","last_reported":1728511724,"current_range_meters":38800,"station_id":"ce4bhp92rcd13ifvqhcg","pricing_plan_id":"cebpf4jnsgd1na2vs0mg"},{"bike_id":"77e290a6-a562-4dc9-937e-5dbc03e2c369","system_id":"levelo_inurba_marseille","lat":43.29966,"lon":5.41327,"is_reserved":false,"is_disabled":false,"rental_uris":{"android":"levelo://app?vid=77e290a6-a562-4dc9-937e-5dbc03e2c369","ios":"levelo://app?vid=77e290a6-a562-4dc9-937e-5dbc03e2c369"},"vehicle_type_id":"4","last_reported":1728511724,"current_range_meters":28800,"station_id":"ce4bhp12rcd13ifvqh9g","pricing_plan_id":"cebpf4jnsgd1na2vs0mg"},{"bike_id":"7617cfa0-a14e-4e61-abf9-717bfe4566d5","system_id":"levelo_inurba_marseille","lat":43.30934,"lon":5.40151,"is_reserved":false,"is_disabled":false,"rental_uris":{"android":"levelo://app?vid=7617cfa0-a14e-4e61-abf9-717bfe4566d5","ios":"levelo://app?vid=7617cfa0-a14e-4e61-abf9-717bfe4566d5"},"vehicle_type_id":"4","last_reported":1728511724,"current_range_meters":26800,"station_id":"ce4bgvp2rcd13ifvqct0","pricing_plan_id":"cebpf4jnsgd1na2vs0mg"},{"bike_id":"181bc3f9-5dc1-41fb-9475-9d82bd0181a4","system_id":"levelo_inurba_marseille","lat":43.28468,"lon":5.35888,"is_reserved":false,"is_disabled":false,"rental_uris":{"android":"levelo://app?vid=181bc3f9-5dc1-41fb-9475-9d82bd0181a4","ios":"levelo://app?vid=181bc3f9-5dc1-41fb-9475-9d82bd0181a4"},"vehicle_type_id":"4","last_reported":1728511724,"current_range_meters":28400,"station_id":"ce4bhah2rcd13ifvqei0","pricing_plan_id":"cebpf4jnsgd1na2vs0mg"},{"bike_id":"ad67e678-9d45-46ed-ac42-adb08875a9cb","system_id":"levelo_inurba_marseille","lat":43.30425,"lon":5.41281,"is_reserved":false,"is_disabled":false,"rental_uris":{"android":"levelo://app?vid=ad67e678-9d45-46ed-ac42-adb08875a9cb","ios":"levelo://app?vid=ad67e678-9d45-46ed-ac42-adb08875a9cb"},"vehicle_type_id":"4","last_reported":1728511724,"current_range_meters":28800,"station_id":"ce4bhop2rcd13ifvqh8g","pricing_plan_id":"cebpf4jnsgd1na2vs0mg"},{"bike_id":"10adf6ac-8a26-424b-bce6-67370c8dfb5b","system_id":"levelo_inurba_marseille","lat":43.31987,"lon":5.38137,"is_reserved":false,"is_disabled":false,"rental_uris":{"android":"levelo://app?vid=10adf6ac-8a26-424b-bce6-67370c8dfb5b","ios":"levelo://app?vid=10adf6ac-8a26-424b-bce6-67370c8dfb5b"},"vehicle_type_id":"4","last_reported":1728511724,"current_range_meters":33600,"station_id":"ce4bhr12rcd13ifvqhpg","pricing_plan_id":"cebpf4jnsgd1na2vs0mg"},{"bike_id":"8403b6ff-9dff-4073-86ab-6deb751f661f","system_id":"levelo_inurba_marseille","lat":43.31759,"lon":5.39016,"is_reserved":false,"is_disabled":false,"rental_uris":{"android":"levelo://app?vid=8403b6ff-9dff-4073-86ab-6deb751f661f","ios":"levelo://app?vid=8403b6ff-9dff-4073-86ab-6deb751f661f"},"vehicle_type_id":"4","last_reported":1728511724,"current_range_meters":38800,"station_id":"ce4bhqp2rcd13ifvqhng","pricing_plan_id":"cebpf4jnsgd1na2vs0mg"},{"bike_id":"ab14fd6b-7ac0-4c4e-98cb-dd24c0559b1f","system_id":"levelo_inurba_marseille","lat":43.301828,"lon":5.366122,"is_reserved":false,"is_disabled":false,"rental_uris":{"android":"levelo://app?vid=ab14fd6b-7ac0-4c4e-98cb-dd24c0559b1f","ios":"levelo://app?vid=ab14fd6b-7ac0-4c4e-98cb-dd24c0559b1f"},"vehicle_type_id":"4","last_reported":1728511724,"current_range_meters":12400,"station_id":"ce4bgrh2rcd13ifvqc8g","pricing_plan_id":"cebpf4jnsgd1na2vs0mg"},{"bike_id":"76ec85ce-c9ca-4dc4-abf7-5ce9bc6d1130","system_id":"levelo_inurba_marseille","lat":43.24076,"lon":5.37762,"is_reserved":false,"is_disabled":false,"rental_uris":{"android":"levelo://app?vid=76ec85ce-c9ca-4dc4-abf7-5ce9bc6d1130","ios":"levelo://app?vid=76ec85ce-c9ca-4dc4-abf7-5ce9bc6d1130"},"vehicle_type_id":"4","last_reported":1728511724,"current_range_meters":4800,"station_id":"ce4bhnp2rcd13ifvqgvg","pricing_plan_id":"cebpf4jnsgd1na2vs0mg"},{"bike_id":"2dcf4281-f59d-47fa-8911-4ecb8c67ef1a","system_id":"levelo_inurba_marseille","lat":43.24638,"lon":5.38891,"is_reserved":false,"is_disabled":false,"rental_uris":{"android":"levelo://app?vid=2dcf4281-f59d-47fa-8911-4ecb8c67ef1a","ios":"levelo://app?vid=2dcf4281-f59d-47fa-8911-4ecb8c67ef1a"},"vehicle_type_id":"4","last_reported":1728511724,"current_range_meters":37600,"station_id":"ce4bhg12rcd13ifvqf60","pricing_plan_id":"cebpf4jnsgd1na2vs0mg"},{"bike_id":"64c9abdc-a744-4b43-9856-a64e8ee5db15","system_id":"levelo_inurba_marseille","lat":43.23063,"lon":5.35496,"is_reserved":false,"is_disabled":false,"rental_uris":{"android":"levelo://app?vid=64c9abdc-a744-4b43-9856-a64e8ee5db15","ios":"levelo://app?vid=64c9abdc-a744-4b43-9856-a64e8ee5db15"},"vehicle_type_id":"4","last_reported":1728511724,"current_range_meters":36400,"station_id":"cpo3342slgdg3j2ifvpg","pricing_plan_id":"cebpf4jnsgd1na2vs0mg"},{"bike_id":"f91335db-770b-447e-a47d-11ad237f020a","system_id":"levelo_inurba_marseille","lat":43.28492,"lon":5.38566,"is_reserved":false,"is_disabled":false,"rental_uris":{"android":"levelo://app?vid=f91335db-770b-447e-a47d-11ad237f020a","ios":"levelo://app?vid=f91335db-770b-447e-a47d-11ad237f020a"},"vehicle_type_id":"4","last_reported":1728511724,"current_range_meters":38400,"station_id":"ce4bh8p2rcd13ifvqeb0","pricing_plan_id":"cebpf4jnsgd1na2vs0mg"},{"bike_id":"cdc54f35-60ba-419d-9cd7-57190d56bf8c","system_id":"levelo_inurba_marseille","lat":43.28152,"lon":5.42649,"is_reserved":false,"is_disabled":false,"rental_uris":{"android":"levelo://app?vid=cdc54f35-60ba-419d-9cd7-57190d56bf8c","ios":"levelo://app?vid=cdc54f35-60ba-419d-9cd7-57190d56bf8c"},"vehicle_type_id":"4","last_reported":1728511724,"current_range_meters":8800,"station_id":"ce4bhnh2rcd13ifvqgug","pricing_plan_id":"cebpf4jnsgd1na2vs0mg"},{"bike_id":"f6b27bed-618d-42ed-99d0-10a218b8b9e8","system_id":"levelo_inurba_marseille","lat":43.26191,"lon":5.37451,"is_reserved":false,"is_disabled":false,"rental_uris":{"android":"levelo://app?vid=f6b27bed-618d-42ed-99d0-10a218b8b9e8","ios":"levelo://app?vid=f6b27bed-618d-42ed-99d0-10a218b8b9e8"},"vehicle_type_id":"4","last_reported":1728511724,"current_range_meters":26000,"station_id":"ce4bhgp2rcd13ifvqfc0","pricing_plan_id":"cebpf4jnsgd1na2vs0mg"},{"bike_id":"bb95532b-17bc-482b-ab15-99455c538354","system_id":"levelo_inurba_marseille","lat":43.24187,"lon":5.39723,"is_reserved":false,"is_disabled":false,"rental_uris":{"android":"levelo://app?vid=bb95532b-17bc-482b-ab15-99455c538354","ios":"levelo://app?vid=bb95532b-17bc-482b-ab15-99455c538354"},"vehicle_type_id":"4","last_reported":1728511724,"current_range_meters":38400,"station_id":"ce4bhn12rcd13ifvqgpg","pricing_plan_id":"cebpf4jnsgd1na2vs0mg"},{"bike_id":"43c10ca3-e12b-4b0d-b419-b6cff13add44","system_id":"levelo_inurba_marseille","lat":43.29515,"lon":5.393983,"is_reserved":false,"is_disabled":false,"rental_uris":{"android":"levelo://app?vid=43c10ca3-e12b-4b0d-b419-b6cff13add44","ios":"levelo://app?vid=43c10ca3-e12b-4b0d-b419-b6cff13add44"},"vehicle_type_id":"4","last_reported":1728511724,"current_range_meters":38800,"station_id":"ce4bh292rcd13ifvqdf0","pricing_plan_id":"cebpf4jnsgd1na2vs0mg"},{"bike_id":"c63e83de-f5b0-4819-8f01-392a7912c20e","system_id":"levelo_inurba_marseille","lat":43.2573,"lon":5.41112,"is_reserved":false,"is_disabled":false,"rental_uris":{"android":"levelo://app?vid=c63e83de-f5b0-4819-8f01-392a7912c20e","ios":"levelo://app?vid=c63e83de-f5b0-4819-8f01-392a7912c20e"},"vehicle_type_id":"4","last_reported":1728511724,"current_range_meters":7200,"station_id":"ce4bhkp2rcd13ifvqgd0","pricing_plan_id":"cebpf4jnsgd1na2vs0mg"},{"bike_id":"f9c8d37c-c7e8-4995-8bc0-103dddee1b54","system_id":"levelo_inurba_marseille","lat":43.28485,"lon":5.38557,"is_reserved":false,"is_disabled":false,"rental_uris":{"android":"levelo://app?vid=f9c8d37c-c7e8-4995-8bc0-103dddee1b54","ios":"levelo://app?vid=f9c8d37c-c7e8-4995-8bc0-103dddee1b54"},"vehicle_type_id":"4","last_reported":1728511724,"current_range_meters":18000,"station_id":"ce4bh8p2rcd13ifvqeb0","pricing_plan_id":"cebpf4jnsgd1na2vs0mg"},{"bike_id":"f938f965-cdc0-4b98-a6d0-3a61f15e582a","system_id":"levelo_inurba_marseille","lat":43.27496,"lon":5.42446,"is_reserved":false,"is_disabled":false,"rental_uris":{"android":"levelo://app?vid=f938f965-cdc0-4b98-a6d0-3a61f15e582a","ios":"levelo://app?vid=f938f965-cdc0-4b98-a6d0-3a61f15e582a"},"vehicle_type_id":"4","last_reported":1728511724,"current_range_meters":39200,"station_id":"ce4bhn92rcd13ifvqgrg","pricing_plan_id":"cebpf4jnsgd1na2vs0mg"},{"bike_id":"058ef1ff-5858-4a6d-965f-98aeb9455f88","system_id":"levelo_inurba_marseille","lat":43.3176,"lon":5.39016,"is_reserved":false,"is_disabled":false,"rental_uris":{"android":"levelo://app?vid=058ef1ff-5858-4a6d-965f-98aeb9455f88","ios":"levelo://app?vid=058ef1ff-5858-4a6d-965f-98aeb9455f88"},"vehicle_type_id":"4","last_reported":1728511724,"current_range_meters":36400,"station_id":"ce4bhqp2rcd13ifvqhng","pricing_plan_id":"cebpf4jnsgd1na2vs0mg"},{"bike_id":"96a4c2d4-3924-4e15-9199-55d0360793e1","system_id":"levelo_inurba_marseille","lat":43.28152,"lon":5.42644,"is_reserved":false,"is_disabled":false,"rental_uris":{"android":"levelo://app?vid=96a4c2d4-3924-4e15-9199-55d0360793e1","ios":"levelo://app?vid=96a4c2d4-3924-4e15-9199-55d0360793e1"},"vehicle_type_id":"4","last_reported":1728511724,"current_range_meters":38800,"station_id":"ce4bhnh2rcd13ifvqgug","pricing_plan_id":"cebpf4jnsgd1na2vs0mg"},{"bike_id":"d1185078-9e95-4b86-9254-2e54ada24b16","system_id":"levelo_inurba_marseille","lat":43.29634,"lon":5.40604,"is_reserved":false,"is_disabled":false,"rental_uris":{"android":"levelo://app?vid=d1185078-9e95-4b86-9254-2e54ada24b16","ios":"levelo://app?vid=d1185078-9e95-4b86-9254-2e54ada24b16"},"vehicle_type_id":"4","last_reported":1728511724,"current_range_meters":17600,"station_id":"ce4bh0h2rcd13ifvqd60","pricing_plan_id":"cebpf4jnsgd1na2vs0mg"},{"bike_id":"a64979e6-0053-4861-81e5-3c931f348c4c","system_id":"levelo_inurba_marseille","lat":43.32368,"lon":5.38879,"is_reserved":false,"is_disabled":false,"rental_uris":{"android":"levelo://app?vid=a64979e6-0053-4861-81e5-3c931f348c4c","ios":"levelo://app?vid=a64979e6-0053-4861-81e5-3c931f348c4c"},"vehicle_type_id":"4","last_reported":1728511724,"current_range_meters":9600,"station_id":"ce4bhqp2rcd13ifvqhog","pricing_plan_id":"cebpf4jnsgd1na2vs0mg"},{"bike_id":"b733a883-51df-477b-b70f-a3ed4921fe98","system_id":"levelo_inurba_marseille","lat":43.30894,"lon":5.39645,"is_reserved":false,"is_disabled":false,"rental_uris":{"android":"levelo://app?vid=b733a883-51df-477b-b70f-a3ed4921fe98","ios":"levelo://app?vid=b733a883-51df-477b-b70f-a3ed4921fe98"},"vehicle_type_id":"4","last_reported":1728511724,"current_range_meters":38800,"station_id":"ce4bh012rcd13ifvqcv0","pricing_plan_id":"cebpf4jnsgd1na2vs0mg"},{"bike_id":"f8a162ab-4b66-4bc7-8984-b44abdaf2e30","system_id":"levelo_inurba_marseille","lat":43.24648,"lon":5.38895,"is_reserved":false,"is_disabled":false,"rental_uris":{"android":"levelo://app?vid=f8a162ab-4b66-4bc7-8984-b44abdaf2e30","ios":"levelo://app?vid=f8a162ab-4b66-4bc7-8984-b44abdaf2e30"},"vehicle_type_id":"4","last_reported":1728511724,"current_range_meters":38000,"station_id":"ce4bhg12rcd13ifvqf60","pricing_plan_id":"cebpf4jnsgd1na2vs0mg"},{"bike_id":"0fc1ebfe-0ef8-4da4-9f7b-9fc488cf19bc","system_id":"levelo_inurba_marseille","lat":43.23189,"lon":5.39986,"is_reserved":false,"is_disabled":false,"rental_uris":{"android":"levelo://app?vid=0fc1ebfe-0ef8-4da4-9f7b-9fc488cf19bc","ios":"levelo://app?vid=0fc1ebfe-0ef8-4da4-9f7b-9fc488cf19bc"},"vehicle_type_id":"4","last_reported":1728511724,"current_range_meters":37600,"station_id":"ce4bhn12rcd13ifvqgqg","pricing_plan_id":"cebpf4jnsgd1na2vs0mg"},{"bike_id":"59a20882-e884-470e-b111-32ed424e7cc3","system_id":"levelo_inurba_marseille","lat":43.33727,"lon":5.39189,"is_reserved":false,"is_disabled":false,"rental_uris":{"android":"levelo://app?vid=59a20882-e884-470e-b111-32ed424e7cc3","ios":"levelo://app?vid=59a20882-e884-470e-b111-32ed424e7cc3"},"vehicle_type_id":"4","last_reported":1728511724,"current_range_meters":28800,"station_id":"ce4bhr92rcd13ifvqhsg","pricing_plan_id":"cebpf4jnsgd1na2vs0mg"},{"bike_id":"77b3f5e8-965b-4f90-a251-15770684e21b","system_id":"levelo_inurba_marseille","lat":43.24182,"lon":5.39709,"is_reserved":false,"is_disabled":false,"rental_uris":{"android":"levelo://app?vid=77b3f5e8-965b-4f90-a251-15770684e21b","ios":"levelo://app?vid=77b3f5e8-965b-4f90-a251-15770684e21b"},"vehicle_type_id":"4","last_reported":1728511724,"current_range_meters":38400,"station_id":"ce4bhn12rcd13ifvqgpg","pricing_plan_id":"cebpf4jnsgd1na2vs0mg"},{"bike_id":"d5f7aaf8-d80c-4a46-bbba-96cbe02b2162","system_id":"levelo_inurba_marseille","lat":43.29516,"lon":5.39033,"is_reserved":false,"is_disabled":false,"rental_uris":{"android":"levelo://app?vid=d5f7aaf8-d80c-4a46-bbba-96cbe02b2162","ios":"levelo://app?vid=d5f7aaf8-d80c-4a46-bbba-96cbe02b2162"},"vehicle_type_id":"4","last_reported":1728511724,"current_range_meters":39200,"station_id":"ce4bh3p2rcd13ifvqdp0","pricing_plan_id":"cebpf4jnsgd1na2vs0mg"},{"bike_id":"72078f29-e154-4c5b-836a-c7e362ba1f09","system_id":"levelo_inurba_marseille","lat":43.33762,"lon":5.37466,"is_reserved":false,"is_disabled":false,"rental_uris":{"android":"levelo://app?vid=72078f29-e154-4c5b-836a-c7e362ba1f09","ios":"levelo://app?vid=72078f29-e154-4c5b-836a-c7e362ba1f09"},"vehicle_type_id":"4","last_reported":1728511724,"current_range_meters":10800,"station_id":"ce4rr2p2rcd13i802rgg","pricing_plan_id":"cebpf4jnsgd1na2vs0mg"},{"bike_id":"7d7ab187-9965-49a4-bf26-b6ade39671fc","system_id":"levelo_inurba_marseille","lat":43.23196,"lon":5.35552,"is_reserved":false,"is_disabled":false,"rental_uris":{"android":"levelo://app?vid=7d7ab187-9965-49a4-bf26-b6ade39671fc","ios":"levelo://app?vid=7d7ab187-9965-49a4-bf26-b6ade39671fc"},"vehicle_type_id":"4","last_reported":1728511724,"current_range_meters":22800,"station_id":"ce4bhu92rcd13ifvqi70","pricing_plan_id":"cebpf4jnsgd1na2vs0mg"},{"bike_id":"d51f0193-0dff-4957-8877-479daabe2300","system_id":"levelo_inurba_marseille","lat":43.337444,"lon":5.374475,"is_reserved":false,"is_disabled":false,"rental_uris":{"android":"levelo://app?vid=d51f0193-0dff-4957-8877-479daabe2300","ios":"levelo://app?vid=d51f0193-0dff-4957-8877-479daabe2300"},"vehicle_type_id":"4","last_reported":1728511724,"current_range_meters":36400,"station_id":"ce4rr2p2rcd13i802rgg","pricing_plan_id":"cebpf4jnsgd1na2vs0mg"},{"bike_id":"7e70f0d6-9e79-4900-9716-d1c5a4b631d9","system_id":"levelo_inurba_marseille","lat":43.32052,"lon":5.41582,"is_reserved":false,"is_disabled":false,"rental_uris":{"android":"levelo://app?vid=7e70f0d6-9e79-4900-9716-d1c5a4b631d9","ios":"levelo://app?vid=7e70f0d6-9e79-4900-9716-d1c5a4b631d9"},"vehicle_type_id":"4","last_reported":1728511724,"current_range_meters":23200,"station_id":"ce4bhq92rcd13ifvqhkg","pricing_plan_id":"cebpf4jnsgd1na2vs0mg"},{"bike_id":"296004e0-5751-4935-8069-bb51f866a7db","system_id":"levelo_inurba_marseille","lat":43.23188,"lon":5.39984,"is_reserved":false,"is_disabled":false,"rental_uris":{"android":"levelo://app?vid=296004e0-5751-4935-8069-bb51f866a7db","ios":"levelo://app?vid=296004e0-5751-4935-8069-bb51f866a7db"},"vehicle_type_id":"4","last_reported":1728511724,"current_range_meters":38800,"station_id":"ce4bhn12rcd13ifvqgqg","pricing_plan_id":"cebpf4jnsgd1na2vs0mg"},{"bike_id":"bd0feaab-3ea1-4388-ac8e-ed1008efa279","system_id":"levelo_inurba_marseille","lat":43.30891,"lon":5.39644,"is_reserved":false,"is_disabled":false,"rental_uris":{"android":"levelo://app?vid=bd0feaab-3ea1-4388-ac8e-ed1008efa279","ios":"levelo://app?vid=bd0feaab-3ea1-4388-ac8e-ed1008efa279"},"vehicle_type_id":"4","last_reported":1728511724,"current_range_meters":39200,"station_id":"ce4bh012rcd13ifvqcv0","pricing_plan_id":"cebpf4jnsgd1na2vs0mg"},{"bike_id":"e5079a8b-46a0-4ba7-9792-46181fa72feb","system_id":"levelo_inurba_marseille","lat":43.30887,"lon":5.39637,"is_reserved":false,"is_disabled":false,"rental_uris":{"android":"levelo://app?vid=e5079a8b-46a0-4ba7-9792-46181fa72feb","ios":"levelo://app?vid=e5079a8b-46a0-4ba7-9792-46181fa72feb"},"vehicle_type_id":"4","last_reported":1728511724,"current_range_meters":38800,"station_id":"ce4bh012rcd13ifvqcv0","pricing_plan_id":"cebpf4jnsgd1na2vs0mg"},{"bike_id":"b149bf8c-24ec-415d-b234-f0b11661de68","system_id":"levelo_inurba_marseille","lat":43.25084,"lon":5.39516,"is_reserved":false,"is_disabled":false,"rental_uris":{"android":"levelo://app?vid=b149bf8c-24ec-415d-b234-f0b11661de68","ios":"levelo://app?vid=b149bf8c-24ec-415d-b234-f0b11661de68"},"vehicle_type_id":"4","last_reported":1728511724,"current_range_meters":39200,"station_id":"ce4bhm12rcd13ifvqgkg","pricing_plan_id":"cebpf4jnsgd1na2vs0mg"},{"bike_id":"2f431856-ad2e-4b18-ad45-3aac3048766e","system_id":"levelo_inurba_marseille","lat":43.30658,"lon":5.40085,"is_reserved":false,"is_disabled":false,"rental_uris":{"android":"levelo://app?vid=2f431856-ad2e-4b18-ad45-3aac3048766e","ios":"levelo://app?vid=2f431856-ad2e-4b18-ad45-3aac3048766e"},"vehicle_type_id":"4","last_reported":1728511724,"current_range_meters":12400,"station_id":"ce4bh112rcd13ifvqda0","pricing_plan_id":"cebpf4jnsgd1na2vs0mg"},{"bike_id":"0b120bd5-f5b0-4a76-bf3c-8b4f69a65c9a","system_id":"levelo_inurba_marseille","lat":43.32489,"lon":5.36622,"is_reserved":false,"is_disabled":false,"rental_uris":{"android":"levelo://app?vid=0b120bd5-f5b0-4a76-bf3c-8b4f69a65c9a","ios":"levelo://app?vid=0b120bd5-f5b0-4a76-bf3c-8b4f69a65c9a"},"vehicle_type_id":"4","last_reported":1728511724,"current_range_meters":27200,"station_id":"ce4bhs12rcd13ifvqhvg","pricing_plan_id":"cebpf4jnsgd1na2vs0mg"},{"bike_id":"1a9a3cc6-2502-4c80-8b31-7bb36d7cba31","system_id":"levelo_inurba_marseille","lat":43.22935,"lon":5.35376,"is_reserved":false,"is_disabled":false,"rental_uris":{"android":"levelo://app?vid=1a9a3cc6-2502-4c80-8b31-7bb36d7cba31","ios":"levelo://app?vid=1a9a3cc6-2502-4c80-8b31-7bb36d7cba31"},"vehicle_type_id":"4","last_reported":1728511724,"current_range_meters":38800,"station_id":"cpo3532slgdg3j2ikp40","pricing_plan_id":"cebpf4jnsgd1na2vs0mg"},{"bike_id":"42a75535-f3eb-42ef-b616-b8fbfba19386","system_id":"levelo_inurba_marseille","lat":43.28108,"lon":5.37834,"is_reserved":false,"is_disabled":false,"rental_uris":{"android":"levelo://app?vid=42a75535-f3eb-42ef-b616-b8fbfba19386","ios":"levelo://app?vid=42a75535-f3eb-42ef-b616-b8fbfba19386"},"vehicle_type_id":"4","last_reported":1728511724,"current_range_meters":28400,"station_id":"ce4bha12rcd13ifvqee0","pricing_plan_id":"cebpf4jnsgd1na2vs0mg"},{"bike_id":"14cc985f-c073-46c4-bce8-9e5e4ec92403","system_id":"levelo_inurba_marseille","lat":43.32345,"lon":5.40612,"is_reserved":false,"is_disabled":false,"rental_uris":{"android":"levelo://app?vid=14cc985f-c073-46c4-bce8-9e5e4ec92403","ios":"levelo://app?vid=14cc985f-c073-46c4-bce8-9e5e4ec92403"},"vehicle_type_id":"4","last_reported":1728511724,"current_range_meters":6800,"station_id":"ce4bhq92rcd13ifvqhjg","pricing_plan_id":"cebpf4jnsgd1na2vs0mg"},{"bike_id":"dd96c50d-1da5-4236-9477-aae37608b2b6","system_id":"levelo_inurba_marseille","lat":43.32337,"lon":5.40617,"is_reserved":false,"is_disabled":false,"rental_uris":{"android":"levelo://app?vid=dd96c50d-1da5-4236-9477-aae37608b2b6","ios":"levelo://app?vid=dd96c50d-1da5-4236-9477-aae37608b2b6"},"vehicle_type_id":"4","last_reported":1728511724,"current_range_meters":4800,"station_id":"ce4bhq92rcd13ifvqhjg","pricing_plan_id":"cebpf4jnsgd1na2vs0mg"},{"bike_id":"e7631295-85e2-4f64-a554-825b3479c0dc","system_id":"levelo_inurba_marseille","lat":43.2749,"lon":5.42452,"is_reserved":false,"is_disabled":false,"rental_uris":{"android":"levelo://app?vid=e7631295-85e2-4f64-a554-825b3479c0dc","ios":"levelo://app?vid=e7631295-85e2-4f64-a554-825b3479c0dc"},"vehicle_type_id":"4","last_reported":1728511724,"current_range_meters":38800,"station_id":"ce4bhn92rcd13ifvqgrg","pricing_plan_id":"cebpf4jnsgd1na2vs0mg"},{"bike_id":"7a65c23a-601e-46de-84eb-31d67aeb4f5d","system_id":"levelo_inurba_marseille","lat":43.29793,"lon":5.3934,"is_reserved":false,"is_disabled":false,"rental_uris":{"android":"levelo://app?vid=7a65c23a-601e-46de-84eb-31d67aeb4f5d","ios":"levelo://app?vid=7a65c23a-601e-46de-84eb-31d67aeb4f5d"},"vehicle_type_id":"4","last_reported":1728511724,"current_range_meters":35600,"station_id":"chh1huq6cuj3fo74tm60","pricing_plan_id":"cebpf4jnsgd1na2vs0mg"},{"bike_id":"b6686461-4b48-4eae-9ce8-8178b8df331b","system_id":"levelo_inurba_marseille","lat":43.24658,"lon":5.38159,"is_reserved":false,"is_disabled":false,"rental_uris":{"android":"levelo://app?vid=b6686461-4b48-4eae-9ce8-8178b8df331b","ios":"levelo://app?vid=b6686461-4b48-4eae-9ce8-8178b8df331b"},"vehicle_type_id":"4","last_reported":1728511724,"current_range_meters":38800,"station_id":"ce4bhih2rcd13ifvqfr0","pricing_plan_id":"cebpf4jnsgd1na2vs0mg"},{"bike_id":"d73bb0d0-cf89-4fc9-be5d-6328443cabd4","system_id":"levelo_inurba_marseille","lat":43.292682,"lon":5.401235,"is_reserved":false,"is_disabled":false,"rental_uris":{"android":"levelo://app?vid=d73bb0d0-cf89-4fc9-be5d-6328443cabd4","ios":"levelo://app?vid=d73bb0d0-cf89-4fc9-be5d-6328443cabd4"},"vehicle_type_id":"4","last_reported":1728511724,"current_range_meters":38800,"station_id":"ce4bh312rcd13ifvqdk0","pricing_plan_id":"cebpf4jnsgd1na2vs0mg"},{"bike_id":"63b9cce1-f3d8-4655-b818-f5ae36bee504","system_id":"levelo_inurba_marseille","lat":43.28668,"lon":5.36357,"is_reserved":false,"is_disabled":false,"rental_uris":{"android":"levelo://app?vid=63b9cce1-f3d8-4655-b818-f5ae36bee504","ios":"levelo://app?vid=63b9cce1-f3d8-4655-b818-f5ae36bee504"},"vehicle_type_id":"4","last_reported":1728511724,"current_range_meters":39200,"station_id":"ce4bhah2rcd13ifvqej0","pricing_plan_id":"cebpf4jnsgd1na2vs0mg"},{"bike_id":"dc45a7d7-2c7b-4e1c-b533-1d6d877ebbe3","system_id":"levelo_inurba_marseille","lat":43.32106,"lon":5.36781,"is_reserved":false,"is_disabled":false,"rental_uris":{"android":"levelo://app?vid=dc45a7d7-2c7b-4e1c-b533-1d6d877ebbe3","ios":"levelo://app?vid=dc45a7d7-2c7b-4e1c-b533-1d6d877ebbe3"},"vehicle_type_id":"4","last_reported":1728511724,"current_range_meters":38400,"station_id":"ce4bhrh2rcd13ifvqhug","pricing_plan_id":"cebpf4jnsgd1na2vs0mg"},{"bike_id":"97c98e27-9337-4b4a-ad7d-97e59c330dee","system_id":"levelo_inurba_marseille","lat":43.31332,"lon":5.39695,"is_reserved":false,"is_disabled":false,"rental_uris":{"android":"levelo://app?vid=97c98e27-9337-4b4a-ad7d-97e59c330dee","ios":"levelo://app?vid=97c98e27-9337-4b4a-ad7d-97e59c330dee"},"vehicle_type_id":"4","last_reported":1728511724,"current_range_meters":39200,"station_id":"ce4bgvp2rcd13ifvqcu0","pricing_plan_id":"cebpf4jnsgd1na2vs0mg"},{"bike_id":"e6358af7-5ea6-4993-a299-078d558f950c","system_id":"levelo_inurba_marseille","lat":43.28937,"lon":5.39636,"is_reserved":false,"is_disabled":false,"rental_uris":{"android":"levelo://app?vid=e6358af7-5ea6-4993-a299-078d558f950c","ios":"levelo://app?vid=e6358af7-5ea6-4993-a299-078d558f950c"},"vehicle_type_id":"4","last_reported":1728511724,"current_range_meters":38800,"station_id":"ce4bh3h2rcd13ifvqdn0","pricing_plan_id":"cebpf4jnsgd1na2vs0mg"},{"bike_id":"41be5fcf-9f4b-425f-8298-427ad3b70a16","system_id":"levelo_inurba_marseille","lat":43.32546,"lon":5.414467,"is_reserved":false,"is_disabled":false,"rental_uris":{"android":"levelo://app?vid=41be5fcf-9f4b-425f-8298-427ad3b70a16","ios":"levelo://app?vid=41be5fcf-9f4b-425f-8298-427ad3b70a16"},"vehicle_type_id":"4","last_reported":1728511724,"current_range_meters":38000,"station_id":"ce4bhq12rcd13ifvqhhg","pricing_plan_id":"cebpf4jnsgd1na2vs0mg"},{"bike_id":"f227e846-4f50-498d-b4d9-a0909876bde5","system_id":"levelo_inurba_marseille","lat":43.3019,"lon":5.36608,"is_reserved":false,"is_disabled":false,"rental_uris":{"android":"levelo://app?vid=f227e846-4f50-498d-b4d9-a0909876bde5","ios":"levelo://app?vid=f227e846-4f50-498d-b4d9-a0909876bde5"},"vehicle_type_id":"4","last_reported":1728511724,"current_range_meters":18800,"station_id":"ce4bgrh2rcd13ifvqc8g","pricing_plan_id":"cebpf4jnsgd1na2vs0mg"},{"bike_id":"83d5c4a7-73f3-451a-baad-d322ba4385ff","system_id":"levelo_inurba_marseille","lat":43.28099,"lon":5.37847,"is_reserved":false,"is_disabled":false,"rental_uris":{"android":"levelo://app?vid=83d5c4a7-73f3-451a-baad-d322ba4385ff","ios":"levelo://app?vid=83d5c4a7-73f3-451a-baad-d322ba4385ff"},"vehicle_type_id":"4","last_reported":1728511724,"current_range_meters":3600,"station_id":"ce4bha12rcd13ifvqee0","pricing_plan_id":"cebpf4jnsgd1na2vs0mg"},{"bike_id":"2c7d09f9-70d1-437c-a3c2-5fae377a8729","system_id":"levelo_inurba_marseille","lat":43.23963,"lon":5.36638,"is_reserved":false,"is_disabled":false,"rental_uris":{"android":"levelo://app?vid=2c7d09f9-70d1-437c-a3c2-5fae377a8729","ios":"levelo://app?vid=2c7d09f9-70d1-437c-a3c2-5fae377a8729"},"vehicle_type_id":"4","last_reported":1728511724,"current_range_meters":18000,"station_id":"ce4bhi12rcd13ifvqfp0","pricing_plan_id":"cebpf4jnsgd1na2vs0mg"},{"bike_id":"70955857-42bc-43d9-b6db-74a38cb7d254","system_id":"levelo_inurba_marseille","lat":43.25935,"lon":5.409,"is_reserved":false,"is_disabled":false,"rental_uris":{"android":"levelo://app?vid=70955857-42bc-43d9-b6db-74a38cb7d254","ios":"levelo://app?vid=70955857-42bc-43d9-b6db-74a38cb7d254"},"vehicle_type_id":"4","last_reported":1728511724,"current_range_meters":38800,"station_id":"ce4bhm92rcd13ifvqglg","pricing_plan_id":"cebpf4jnsgd1na2vs0mg"},{"bike_id":"4be201a3-d22e-4c46-937d-99f607eacfd8","system_id":"levelo_inurba_marseille","lat":43.29586,"lon":5.36747,"is_reserved":false,"is_disabled":false,"rental_uris":{"android":"levelo://app?vid=4be201a3-d22e-4c46-937d-99f607eacfd8","ios":"levelo://app?vid=4be201a3-d22e-4c46-937d-99f607eacfd8"},"vehicle_type_id":"4","last_reported":1728511724,"current_range_meters":32400,"station_id":"ce4bgph2rcd13ifvqc2g","pricing_plan_id":"cebpf4jnsgd1na2vs0mg"},{"bike_id":"14300ca0-46b7-42a6-a36e-a190579be49b","system_id":"levelo_inurba_marseille","lat":43.28144,"lon":5.42623,"is_reserved":false,"is_disabled":false,"rental_uris":{"android":"levelo://app?vid=14300ca0-46b7-42a6-a36e-a190579be49b","ios":"levelo://app?vid=14300ca0-46b7-42a6-a36e-a190579be49b"},"vehicle_type_id":"4","last_reported":1728511724,"current_range_meters":8000,"station_id":"ce4bhnh2rcd13ifvqgug","pricing_plan_id":"cebpf4jnsgd1na2vs0mg"},{"bike_id":"8513be67-a978-4cfc-9563-19285ed6fe5a","system_id":"levelo_inurba_marseille","lat":43.23197,"lon":5.3554,"is_reserved":false,"is_disabled":false,"rental_uris":{"android":"levelo://app?vid=8513be67-a978-4cfc-9563-19285ed6fe5a","ios":"levelo://app?vid=8513be67-a978-4cfc-9563-19285ed6fe5a"},"vehicle_type_id":"4","last_reported":1728511724,"current_range_meters":9600,"station_id":"ce4bhu92rcd13ifvqi70","pricing_plan_id":"cebpf4jnsgd1na2vs0mg"},{"bike_id":"1197f692-639d-4fb0-ae7f-c285068db770","system_id":"levelo_inurba_marseille","lat":43.25093,"lon":5.39512,"is_reserved":false,"is_disabled":false,"rental_uris":{"android":"levelo://app?vid=1197f692-639d-4fb0-ae7f-c285068db770","ios":"levelo://app?vid=1197f692-639d-4fb0-ae7f-c285068db770"},"vehicle_type_id":"4","last_reported":1728511724,"current_range_meters":24400,"station_id":"ce4bhm12rcd13ifvqgkg","pricing_plan_id":"cebpf4jnsgd1na2vs0mg"},{"bike_id":"922252e8-02c2-4987-8eed-1d6d69073568","system_id":"levelo_inurba_marseille","lat":43.26689,"lon":5.38276,"is_reserved":false,"is_disabled":false,"rental_uris":{"android":"levelo://app?vid=922252e8-02c2-4987-8eed-1d6d69073568","ios":"levelo://app?vid=922252e8-02c2-4987-8eed-1d6d69073568"},"vehicle_type_id":"4","last_reported":1728511724,"current_range_meters":30000,"station_id":"ce4bhg92rcd13ifvqf90","pricing_plan_id":"cebpf4jnsgd1na2vs0mg"},{"bike_id":"79c051f6-fee1-42df-ae5f-985be50d40ed","system_id":"levelo_inurba_marseille","lat":43.23962,"lon":5.36627,"is_reserved":false,"is_disabled":false,"rental_uris":{"android":"levelo://app?vid=79c051f6-fee1-42df-ae5f-985be50d40ed","ios":"levelo://app?vid=79c051f6-fee1-42df-ae5f-985be50d40ed"},"vehicle_type_id":"4","last_reported":1728511724,"current_range_meters":6400,"station_id":"ce4bhi12rcd13ifvqfp0","pricing_plan_id":"cebpf4jnsgd1na2vs0mg"},{"bike_id":"372be48e-0fb3-4336-915a-4d35d755f146","system_id":"levelo_inurba_marseille","lat":43.23192,"lon":5.39982,"is_reserved":false,"is_disabled":false,"rental_uris":{"android":"levelo://app?vid=372be48e-0fb3-4336-915a-4d35d755f146","ios":"levelo://app?vid=372be48e-0fb3-4336-915a-4d35d755f146"},"vehicle_type_id":"4","last_reported":1728511724,"current_range_meters":38800,"station_id":"ce4bhn12rcd13ifvqgqg","pricing_plan_id":"cebpf4jnsgd1na2vs0mg"},{"bike_id":"20720041-cdbf-424d-a817-2fb7fa79581d","system_id":"levelo_inurba_marseille","lat":43.29024,"lon":5.3998,"is_reserved":false,"is_disabled":false,"rental_uris":{"android":"levelo://app?vid=20720041-cdbf-424d-a817-2fb7fa79581d","ios":"levelo://app?vid=20720041-cdbf-424d-a817-2fb7fa79581d"},"vehicle_type_id":"4","last_reported":1728511724,"current_range_meters":37600,"station_id":"ce4bh392rcd13ifvqdm0","pricing_plan_id":"cebpf4jnsgd1na2vs0mg"},{"bike_id":"0b1ea9af-c6da-4927-8286-680e49e08a6d","system_id":"levelo_inurba_marseille","lat":43.27053,"lon":5.40256,"is_reserved":false,"is_disabled":false,"rental_uris":{"android":"levelo://app?vid=0b1ea9af-c6da-4927-8286-680e49e08a6d","ios":"levelo://app?vid=0b1ea9af-c6da-4927-8286-680e49e08a6d"},"vehicle_type_id":"4","last_reported":1728511724,"current_range_meters":7200,"station_id":"ce4bhk92rcd13ifvqgc0","pricing_plan_id":"cebpf4jnsgd1na2vs0mg"},{"bike_id":"edb2efd0-eb6a-4d7a-a843-2cb5a96a4a36","system_id":"levelo_inurba_marseille","lat":43.29909,"lon":5.38152,"is_reserved":false,"is_disabled":false,"rental_uris":{"android":"levelo://app?vid=edb2efd0-eb6a-4d7a-a843-2cb5a96a4a36","ios":"levelo://app?vid=edb2efd0-eb6a-4d7a-a843-2cb5a96a4a36"},"vehicle_type_id":"4","last_reported":1728511724,"current_range_meters":8400,"station_id":"ce4bgj12rcd13ifvqbc0","pricing_plan_id":"cebpf4jnsgd1na2vs0mg"},{"bike_id":"7dd16f1e-1e61-4960-9469-4c92ce8b1209","system_id":"levelo_inurba_marseille","lat":43.28359,"lon":5.38645,"is_reserved":false,"is_disabled":false,"rental_uris":{"android":"levelo://app?vid=7dd16f1e-1e61-4960-9469-4c92ce8b1209","ios":"levelo://app?vid=7dd16f1e-1e61-4960-9469-4c92ce8b1209"},"vehicle_type_id":"4","last_reported":1728511724,"current_range_meters":17200,"station_id":"ce4bh492rcd13ifvqdvg","pricing_plan_id":"cebpf4jnsgd1na2vs0mg"},{"bike_id":"b6ab707f-16f9-4a99-b0c6-6d49d10dc066","system_id":"levelo_inurba_marseille","lat":43.29283,"lon":5.40135,"is_reserved":false,"is_disabled":false,"rental_uris":{"android":"levelo://app?vid=b6ab707f-16f9-4a99-b0c6-6d49d10dc066","ios":"levelo://app?vid=b6ab707f-16f9-4a99-b0c6-6d49d10dc066"},"vehicle_type_id":"4","last_reported":1728511724,"current_range_meters":39200,"station_id":"ce4bh312rcd13ifvqdk0","pricing_plan_id":"cebpf4jnsgd1na2vs0mg"},{"bike_id":"424ae5e4-2b9d-4ae9-9b45-f666499b549a","system_id":"levelo_inurba_marseille","lat":43.31533,"lon":5.38029,"is_reserved":false,"is_disabled":false,"rental_uris":{"android":"levelo://app?vid=424ae5e4-2b9d-4ae9-9b45-f666499b549a","ios":"levelo://app?vid=424ae5e4-2b9d-4ae9-9b45-f666499b549a"},"vehicle_type_id":"4","last_reported":1728511724,"current_range_meters":16800,"station_id":"ce4bhsp2rcd13ifvqi50","pricing_plan_id":"cebpf4jnsgd1na2vs0mg"},{"bike_id":"0a1adf47-9c44-4e77-b90b-e425aefb27d3","system_id":"levelo_inurba_marseille","lat":43.27178,"lon":5.40991,"is_reserved":false,"is_disabled":false,"rental_uris":{"android":"levelo://app?vid=0a1adf47-9c44-4e77-b90b-e425aefb27d3","ios":"levelo://app?vid=0a1adf47-9c44-4e77-b90b-e425aefb27d3"},"vehicle_type_id":"4","last_reported":1728511724,"current_range_meters":32800,"station_id":"ce4bhl12rcd13ifvqgf0","pricing_plan_id":"cebpf4jnsgd1na2vs0mg"},{"bike_id":"e62c538a-72cc-41f8-a540-bba9e16db417","system_id":"levelo_inurba_marseille","lat":43.29261,"lon":5.40903,"is_reserved":false,"is_disabled":false,"rental_uris":{"android":"levelo://app?vid=e62c538a-72cc-41f8-a540-bba9e16db417","ios":"levelo://app?vid=e62c538a-72cc-41f8-a540-bba9e16db417"},"vehicle_type_id":"4","last_reported":1728511724,"current_range_meters":28000,"station_id":"ce4bh192rcd13ifvqdc0","pricing_plan_id":"cebpf4jnsgd1na2vs0mg"},{"bike_id":"d38dd870-fb35-4ebe-8242-7b8d175eed8b","system_id":"levelo_inurba_marseille","lat":43.32337,"lon":5.40616,"is_reserved":false,"is_disabled":false,"rental_uris":{"android":"levelo://app?vid=d38dd870-fb35-4ebe-8242-7b8d175eed8b","ios":"levelo://app?vid=d38dd870-fb35-4ebe-8242-7b8d175eed8b"},"vehicle_type_id":"4","last_reported":1728511724,"current_range_meters":9600,"station_id":"ce4bhq92rcd13ifvqhjg","pricing_plan_id":"cebpf4jnsgd1na2vs0mg"},{"bike_id":"943ecad0-8760-43cd-9300-5881601fce33","system_id":"levelo_inurba_marseille","lat":43.25871,"lon":5.39895,"is_reserved":false,"is_disabled":false,"rental_uris":{"android":"levelo://app?vid=943ecad0-8760-43cd-9300-5881601fce33","ios":"levelo://app?vid=943ecad0-8760-43cd-9300-5881601fce33"},"vehicle_type_id":"4","last_reported":1728511724,"current_range_meters":8800,"station_id":"ce4bhl92rcd13ifvqghg","pricing_plan_id":"cebpf4jnsgd1na2vs0mg"},{"bike_id":"1707d01d-1d39-4ce7-b259-b95170fbb162","system_id":"levelo_inurba_marseille","lat":43.30893,"lon":5.39635,"is_reserved":false,"is_disabled":false,"rental_uris":{"android":"levelo://app?vid=1707d01d-1d39-4ce7-b259-b95170fbb162","ios":"levelo://app?vid=1707d01d-1d39-4ce7-b259-b95170fbb162"},"vehicle_type_id":"4","last_reported":1728511724,"current_range_meters":38800,"station_id":"ce4bh012rcd13ifvqcv0","pricing_plan_id":"cebpf4jnsgd1na2vs0mg"},{"bike_id":"5f362996-74f9-45b7-aa85-95ce607a2aa3","system_id":"levelo_inurba_marseille","lat":43.27819,"lon":5.35484,"is_reserved":false,"is_disabled":false,"rental_uris":{"android":"levelo://app?vid=5f362996-74f9-45b7-aa85-95ce607a2aa3","ios":"levelo://app?vid=5f362996-74f9-45b7-aa85-95ce607a2aa3"},"vehicle_type_id":"4","last_reported":1728511724,"current_range_meters":27200,"station_id":"","pricing_plan_id":"cebpf4jnsgd1na2vs0mg"},{"bike_id":"57ab2a3d-5878-4361-8bc9-b1a0550801f4","system_id":"levelo_inurba_marseille","lat":43.30938,"lon":5.40147,"is_reserved":false,"is_disabled":false,"rental_uris":{"android":"levelo://app?vid=57ab2a3d-5878-4361-8bc9-b1a0550801f4","ios":"levelo://app?vid=57ab2a3d-5878-4361-8bc9-b1a0550801f4"},"vehicle_type_id":"4","last_reported":1728511724,"current_range_meters":6800,"station_id":"ce4bgvp2rcd13ifvqct0","pricing_plan_id":"cebpf4jnsgd1na2vs0mg"},{"bike_id":"7e912cba-052f-47e7-bfc0-b47e5b060ca8","system_id":"levelo_inurba_marseille","lat":43.29551,"lon":5.42279,"is_reserved":false,"is_disabled":false,"rental_uris":{"android":"levelo://app?vid=7e912cba-052f-47e7-bfc0-b47e5b060ca8","ios":"levelo://app?vid=7e912cba-052f-47e7-bfc0-b47e5b060ca8"},"vehicle_type_id":"4","last_reported":1728511724,"current_range_meters":38000,"station_id":"ce4bhph2rcd13ifvqhdg","pricing_plan_id":"cebpf4jnsgd1na2vs0mg"},{"bike_id":"2df730a7-89e5-413d-9bed-72b64744a6f2","system_id":"levelo_inurba_marseille","lat":43.22929,"lon":5.35375,"is_reserved":false,"is_disabled":false,"rental_uris":{"android":"levelo://app?vid=2df730a7-89e5-413d-9bed-72b64744a6f2","ios":"levelo://app?vid=2df730a7-89e5-413d-9bed-72b64744a6f2"},"vehicle_type_id":"4","last_reported":1728511724,"current_range_meters":38800,"station_id":"cpo3532slgdg3j2ikp40","pricing_plan_id":"cebpf4jnsgd1na2vs0mg"},{"bike_id":"74dea6e5-f1b2-476b-95da-8353d0ac07f5","system_id":"levelo_inurba_marseille","lat":43.22932,"lon":5.35376,"is_reserved":false,"is_disabled":false,"rental_uris":{"android":"levelo://app?vid=74dea6e5-f1b2-476b-95da-8353d0ac07f5","ios":"levelo://app?vid=74dea6e5-f1b2-476b-95da-8353d0ac07f5"},"vehicle_type_id":"4","last_reported":1728511724,"current_range_meters":38400,"station_id":"cpo3532slgdg3j2ikp40","pricing_plan_id":"cebpf4jnsgd1na2vs0mg"},{"bike_id":"c3666843-f49b-49db-b951-dccb2c688ec0","system_id":"levelo_inurba_marseille","lat":43.30267,"lon":5.37704,"is_reserved":false,"is_disabled":false,"rental_uris":{"android":"levelo://app?vid=c3666843-f49b-49db-b951-dccb2c688ec0","ios":"levelo://app?vid=c3666843-f49b-49db-b951-dccb2c688ec0"},"vehicle_type_id":"4","last_reported":1728511724,"current_range_meters":13600,"station_id":"ce4bguh2rcd13ifvqcj0","pricing_plan_id":"cebpf4jnsgd1na2vs0mg"},{"bike_id":"a1fe1816-1e76-4cbd-926b-4f1fb96fff8f","system_id":"levelo_inurba_marseille","lat":43.27176,"lon":5.40996,"is_reserved":false,"is_disabled":false,"rental_uris":{"android":"levelo://app?vid=a1fe1816-1e76-4cbd-926b-4f1fb96fff8f","ios":"levelo://app?vid=a1fe1816-1e76-4cbd-926b-4f1fb96fff8f"},"vehicle_type_id":"4","last_reported":1728511724,"current_range_meters":38800,"station_id":"ce4bhl12rcd13ifvqgf0","pricing_plan_id":"cebpf4jnsgd1na2vs0mg"},{"bike_id":"f10390a0-efb1-42ae-a373-2247990f3397","system_id":"levelo_inurba_marseille","lat":43.2894,"lon":5.36398,"is_reserved":false,"is_disabled":false,"rental_uris":{"android":"levelo://app?vid=f10390a0-efb1-42ae-a373-2247990f3397","ios":"levelo://app?vid=f10390a0-efb1-42ae-a373-2247990f3397"},"vehicle_type_id":"4","last_reported":1728511724,"current_range_meters":6800,"station_id":"ce4bhc92rcd13ifvqetg","pricing_plan_id":"cebpf4jnsgd1na2vs0mg"},{"bike_id":"02cd4d26-17f4-4175-b3e6-083a7f575f50","system_id":"levelo_inurba_marseille","lat":43.28974,"lon":5.37829,"is_reserved":false,"is_disabled":false,"rental_uris":{"android":"levelo://app?vid=02cd4d26-17f4-4175-b3e6-083a7f575f50","ios":"levelo://app?vid=02cd4d26-17f4-4175-b3e6-083a7f575f50"},"vehicle_type_id":"4","last_reported":1728511724,"current_range_meters":38800,"station_id":"ce4bh9p2rcd13ifvqed0","pricing_plan_id":"cebpf4jnsgd1na2vs0mg"},{"bike_id":"29cb1526-8d04-42cd-afd9-4af7c5cbfad4","system_id":"levelo_inurba_marseille","lat":43.23197,"lon":5.35557,"is_reserved":false,"is_disabled":false,"rental_uris":{"android":"levelo://app?vid=29cb1526-8d04-42cd-afd9-4af7c5cbfad4","ios":"levelo://app?vid=29cb1526-8d04-42cd-afd9-4af7c5cbfad4"},"vehicle_type_id":"4","last_reported":1728511724,"current_range_meters":38400,"station_id":"ce4bhu92rcd13ifvqi70","pricing_plan_id":"cebpf4jnsgd1na2vs0mg"},{"bike_id":"62930a7f-74ee-49d2-82a3-62a466b84fb0","system_id":"levelo_inurba_marseille","lat":43.31624,"lon":5.39437,"is_reserved":false,"is_disabled":false,"rental_uris":{"android":"levelo://app?vid=62930a7f-74ee-49d2-82a3-62a466b84fb0","ios":"levelo://app?vid=62930a7f-74ee-49d2-82a3-62a466b84fb0"},"vehicle_type_id":"4","last_reported":1728511724,"current_range_meters":8000,"station_id":"","pricing_plan_id":"cebpf4jnsgd1na2vs0mg"},{"bike_id":"6d556579-50fb-4062-8d9f-898760e0a98b","system_id":"levelo_inurba_marseille","lat":43.28665,"lon":5.36355,"is_reserved":false,"is_disabled":false,"rental_uris":{"android":"levelo://app?vid=6d556579-50fb-4062-8d9f-898760e0a98b","ios":"levelo://app?vid=6d556579-50fb-4062-8d9f-898760e0a98b"},"vehicle_type_id":"4","last_reported":1728511724,"current_range_meters":35600,"station_id":"ce4bhah2rcd13ifvqej0","pricing_plan_id":"cebpf4jnsgd1na2vs0mg"},{"bike_id":"16ec5b71-6b43-478f-9a9c-b26097d13529","system_id":"levelo_inurba_marseille","lat":43.28704,"lon":5.37378,"is_reserved":false,"is_disabled":false,"rental_uris":{"android":"levelo://app?vid=16ec5b71-6b43-478f-9a9c-b26097d13529","ios":"levelo://app?vid=16ec5b71-6b43-478f-9a9c-b26097d13529"},"vehicle_type_id":"4","last_reported":1728511724,"current_range_meters":7200,"station_id":"ce4bh3p2rcd13ifvqdq0","pricing_plan_id":"cebpf4jnsgd1na2vs0mg"},{"bike_id":"e211b911-33be-417e-a190-299793b2b374","system_id":"levelo_inurba_marseille","lat":43.28036,"lon":5.36951,"is_reserved":false,"is_disabled":false,"rental_uris":{"android":"levelo://app?vid=e211b911-33be-417e-a190-299793b2b374","ios":"levelo://app?vid=e211b911-33be-417e-a190-299793b2b374"},"vehicle_type_id":"4","last_reported":1728511724,"current_range_meters":4000,"station_id":"ce4bha12rcd13ifvqef0","pricing_plan_id":"cebpf4jnsgd1na2vs0mg"},{"bike_id":"0bfa0ee7-df55-48c5-ba71-da82bc4adcc5","system_id":"levelo_inurba_marseille","lat":43.27616,"lon":5.36112,"is_reserved":false,"is_disabled":false,"rental_uris":{"android":"levelo://app?vid=0bfa0ee7-df55-48c5-ba71-da82bc4adcc5","ios":"levelo://app?vid=0bfa0ee7-df55-48c5-ba71-da82bc4adcc5"},"vehicle_type_id":"4","last_reported":1728511724,"current_range_meters":38800,"station_id":"ce4bgj92rcd13ifvqbe0","pricing_plan_id":"cebpf4jnsgd1na2vs0mg"},{"bike_id":"6f79f4d7-964e-42bc-a4bb-5de856123c42","system_id":"levelo_inurba_marseille","lat":43.29581,"lon":5.39978,"is_reserved":false,"is_disabled":false,"rental_uris":{"android":"levelo://app?vid=6f79f4d7-964e-42bc-a4bb-5de856123c42","ios":"levelo://app?vid=6f79f4d7-964e-42bc-a4bb-5de856123c42"},"vehicle_type_id":"4","last_reported":1728511724,"current_range_meters":38800,"station_id":"ce4bh312rcd13ifvqdj0","pricing_plan_id":"cebpf4jnsgd1na2vs0mg"},{"bike_id":"2dbd5c0b-d24b-4301-a262-e7b9fe646130","system_id":"levelo_inurba_marseille","lat":43.32662,"lon":5.40988,"is_reserved":false,"is_disabled":false,"rental_uris":{"android":"levelo://app?vid=2dbd5c0b-d24b-4301-a262-e7b9fe646130","ios":"levelo://app?vid=2dbd5c0b-d24b-4301-a262-e7b9fe646130"},"vehicle_type_id":"4","last_reported":1728511724,"current_range_meters":30800,"station_id":"ce4bhpp2rcd13ifvqhgg","pricing_plan_id":"cebpf4jnsgd1na2vs0mg"},{"bike_id":"a18662f8-7c5d-40ed-a87d-88d8a14f8320","system_id":"levelo_inurba_marseille","lat":43.3176,"lon":5.39011,"is_reserved":false,"is_disabled":false,"rental_uris":{"android":"levelo://app?vid=a18662f8-7c5d-40ed-a87d-88d8a14f8320","ios":"levelo://app?vid=a18662f8-7c5d-40ed-a87d-88d8a14f8320"},"vehicle_type_id":"4","last_reported":1728511724,"current_range_meters":26800,"station_id":"ce4bhqp2rcd13ifvqhng","pricing_plan_id":"cebpf4jnsgd1na2vs0mg"},{"bike_id":"ea4e8f52-908f-4d8f-8a66-b45f45c723f3","system_id":"levelo_inurba_marseille","lat":43.34143,"lon":5.40906,"is_reserved":false,"is_disabled":false,"rental_uris":{"android":"levelo://app?vid=ea4e8f52-908f-4d8f-8a66-b45f45c723f3","ios":"levelo://app?vid=ea4e8f52-908f-4d8f-8a66-b45f45c723f3"},"vehicle_type_id":"4","last_reported":1728511724,"current_range_meters":38000,"station_id":"ce4bhqh2rcd13ifvqhlg","pricing_plan_id":"cebpf4jnsgd1na2vs0mg"},{"bike_id":"cca8712a-0ab7-4693-9592-4b32c15e327e","system_id":"levelo_inurba_marseille","lat":43.33716,"lon":5.39184,"is_reserved":false,"is_disabled":false,"rental_uris":{"android":"levelo://app?vid=cca8712a-0ab7-4693-9592-4b32c15e327e","ios":"levelo://app?vid=cca8712a-0ab7-4693-9592-4b32c15e327e"},"vehicle_type_id":"4","last_reported":1728511724,"current_range_meters":38800,"station_id":"ce4bhr92rcd13ifvqhsg","pricing_plan_id":"cebpf4jnsgd1na2vs0mg"},{"bike_id":"7b31e0c4-09d6-4481-8a20-c61833dab54c","system_id":"levelo_inurba_marseille","lat":43.293287,"lon":5.37834,"is_reserved":false,"is_disabled":false,"rental_uris":{"android":"levelo://app?vid=7b31e0c4-09d6-4481-8a20-c61833dab54c","ios":"levelo://app?vid=7b31e0c4-09d6-4481-8a20-c61833dab54c"},"vehicle_type_id":"4","last_reported":1728511724,"current_range_meters":28800,"station_id":"ce4bgjh2rcd13ifvqbf0","pricing_plan_id":"cebpf4jnsgd1na2vs0mg"},{"bike_id":"ac73cf39-5e0d-41c0-9b62-3d3a6730aa43","system_id":"levelo_inurba_marseille","lat":43.24071,"lon":5.37761,"is_reserved":false,"is_disabled":false,"rental_uris":{"android":"levelo://app?vid=ac73cf39-5e0d-41c0-9b62-3d3a6730aa43","ios":"levelo://app?vid=ac73cf39-5e0d-41c0-9b62-3d3a6730aa43"},"vehicle_type_id":"4","last_reported":1728511724,"current_range_meters":26800,"station_id":"ce4bhnp2rcd13ifvqgvg","pricing_plan_id":"cebpf4jnsgd1na2vs0mg"},{"bike_id":"3c53e08e-ee91-459e-a796-8e1cef11ecde","system_id":"levelo_inurba_marseille","lat":43.27944,"lon":5.41041,"is_reserved":false,"is_disabled":false,"rental_uris":{"android":"levelo://app?vid=3c53e08e-ee91-459e-a796-8e1cef11ecde","ios":"levelo://app?vid=3c53e08e-ee91-459e-a796-8e1cef11ecde"},"vehicle_type_id":"4","last_reported":1728511724,"current_range_meters":38800,"station_id":"ce4bhnp2rcd13ifvqh0g","pricing_plan_id":"cebpf4jnsgd1na2vs0mg"},{"bike_id":"6680e8f2-453b-4747-b4b8-b5e7f1440a05","system_id":"levelo_inurba_marseille","lat":43.28106,"lon":5.37843,"is_reserved":false,"is_disabled":false,"rental_uris":{"android":"levelo://app?vid=6680e8f2-453b-4747-b4b8-b5e7f1440a05","ios":"levelo://app?vid=6680e8f2-453b-4747-b4b8-b5e7f1440a05"},"vehicle_type_id":"4","last_reported":1728511724,"current_range_meters":28800,"station_id":"ce4bha12rcd13ifvqee0","pricing_plan_id":"cebpf4jnsgd1na2vs0mg"},{"bike_id":"17591b68-72ec-463d-917a-7a15d54c2ca6","system_id":"levelo_inurba_marseille","lat":43.24388,"lon":5.37065,"is_reserved":false,"is_disabled":false,"rental_uris":{"android":"levelo://app?vid=17591b68-72ec-463d-917a-7a15d54c2ca6","ios":"levelo://app?vid=17591b68-72ec-463d-917a-7a15d54c2ca6"},"vehicle_type_id":"4","last_reported":1728511724,"current_range_meters":32000,"station_id":"ce4bhhh2rcd13ifvqfk0","pricing_plan_id":"cebpf4jnsgd1na2vs0mg"},{"bike_id":"d8d9e195-0b53-46b7-a4e3-f2b2c532f4ae","system_id":"levelo_inurba_marseille","lat":43.23193,"lon":5.35538,"is_reserved":false,"is_disabled":false,"rental_uris":{"android":"levelo://app?vid=d8d9e195-0b53-46b7-a4e3-f2b2c532f4ae","ios":"levelo://app?vid=d8d9e195-0b53-46b7-a4e3-f2b2c532f4ae"},"vehicle_type_id":"4","last_reported":1728511724,"current_range_meters":38000,"station_id":"ce4bhu92rcd13ifvqi70","pricing_plan_id":"cebpf4jnsgd1na2vs0mg"},{"bike_id":"f07e2f26-416d-46f0-bc05-c8e1d5c39915","system_id":"levelo_inurba_marseille","lat":43.28707,"lon":5.39983,"is_reserved":false,"is_disabled":false,"rental_uris":{"android":"levelo://app?vid=f07e2f26-416d-46f0-bc05-c8e1d5c39915","ios":"levelo://app?vid=f07e2f26-416d-46f0-bc05-c8e1d5c39915"},"vehicle_type_id":"4","last_reported":1728511724,"current_range_meters":36800,"station_id":"ce4bho92rcd13ifvqh3g","pricing_plan_id":"cebpf4jnsgd1na2vs0mg"},{"bike_id":"0a0dfbc4-205b-432f-b2aa-315036f34113","system_id":"levelo_inurba_marseille","lat":43.29563,"lon":5.42286,"is_reserved":false,"is_disabled":false,"rental_uris":{"android":"levelo://app?vid=0a0dfbc4-205b-432f-b2aa-315036f34113","ios":"levelo://app?vid=0a0dfbc4-205b-432f-b2aa-315036f34113"},"vehicle_type_id":"4","last_reported":1728511724,"current_range_meters":28400,"station_id":"ce4bhph2rcd13ifvqhdg","pricing_plan_id":"cebpf4jnsgd1na2vs0mg"},{"bike_id":"c55caa9a-9457-4152-9cf8-2af7ef053b42","system_id":"levelo_inurba_marseille","lat":43.31713,"lon":5.43708,"is_reserved":false,"is_disabled":false,"rental_uris":{"android":"levelo://app?vid=c55caa9a-9457-4152-9cf8-2af7ef053b42","ios":"levelo://app?vid=c55caa9a-9457-4152-9cf8-2af7ef053b42"},"vehicle_type_id":"4","last_reported":1728511724,"current_range_meters":25600,"station_id":"ce4bhp92rcd13ifvqhcg","pricing_plan_id":"cebpf4jnsgd1na2vs0mg"},{"bike_id":"f8b78f20-18f4-442b-aa6b-ae0f37277244","system_id":"levelo_inurba_marseille","lat":43.27176,"lon":5.40991,"is_reserved":false,"is_disabled":false,"rental_uris":{"android":"levelo://app?vid=f8b78f20-18f4-442b-aa6b-ae0f37277244","ios":"levelo://app?vid=f8b78f20-18f4-442b-aa6b-ae0f37277244"},"vehicle_type_id":"4","last_reported":1728511724,"current_range_meters":38400,"station_id":"ce4bhl12rcd13ifvqgf0","pricing_plan_id":"cebpf4jnsgd1na2vs0mg"},{"bike_id":"4b7fd3c2-8fd0-4ec9-a069-da713a2091b9","system_id":"levelo_inurba_marseille","lat":43.29026,"lon":5.35915,"is_reserved":false,"is_disabled":false,"rental_uris":{"android":"levelo://app?vid=4b7fd3c2-8fd0-4ec9-a069-da713a2091b9","ios":"levelo://app?vid=4b7fd3c2-8fd0-4ec9-a069-da713a2091b9"},"vehicle_type_id":"4","last_reported":1728511724,"current_range_meters":35600,"station_id":"ce4bha92rcd13ifvqeg0","pricing_plan_id":"cebpf4jnsgd1na2vs0mg"},{"bike_id":"1aca22d9-bf5a-48af-bf25-161c5a4a28cd","system_id":"levelo_inurba_marseille","lat":43.28716,"lon":5.39985,"is_reserved":false,"is_disabled":false,"rental_uris":{"android":"levelo://app?vid=1aca22d9-bf5a-48af-bf25-161c5a4a28cd","ios":"levelo://app?vid=1aca22d9-bf5a-48af-bf25-161c5a4a28cd"},"vehicle_type_id":"4","last_reported":1728511724,"current_range_meters":9200,"station_id":"ce4bho92rcd13ifvqh3g","pricing_plan_id":"cebpf4jnsgd1na2vs0mg"},{"bike_id":"f82f3d71-2e4a-4801-8aee-7d5623d7ef65","system_id":"levelo_inurba_marseille","lat":43.29964,"lon":5.38491,"is_reserved":false,"is_disabled":false,"rental_uris":{"android":"levelo://app?vid=f82f3d71-2e4a-4801-8aee-7d5623d7ef65","ios":"levelo://app?vid=f82f3d71-2e4a-4801-8aee-7d5623d7ef65"},"vehicle_type_id":"4","last_reported":1728511724,"current_range_meters":36400,"station_id":"ce4bgj92rcd13ifvqbd0","pricing_plan_id":"cebpf4jnsgd1na2vs0mg"},{"bike_id":"3c150316-e8ba-4f0d-9319-e8d2bd0bc57b","system_id":"levelo_inurba_marseille","lat":43.23186,"lon":5.39988,"is_reserved":false,"is_disabled":false,"rental_uris":{"android":"levelo://app?vid=3c150316-e8ba-4f0d-9319-e8d2bd0bc57b","ios":"levelo://app?vid=3c150316-e8ba-4f0d-9319-e8d2bd0bc57b"},"vehicle_type_id":"4","last_reported":1728511724,"current_range_meters":38800,"station_id":"ce4bhn12rcd13ifvqgqg","pricing_plan_id":"cebpf4jnsgd1na2vs0mg"},{"bike_id":"6550a5df-7dfa-4449-96e8-17ab2b2f0253","system_id":"levelo_inurba_marseille","lat":43.26063,"lon":5.39391,"is_reserved":false,"is_disabled":false,"rental_uris":{"android":"levelo://app?vid=6550a5df-7dfa-4449-96e8-17ab2b2f0253","ios":"levelo://app?vid=6550a5df-7dfa-4449-96e8-17ab2b2f0253"},"vehicle_type_id":"4","last_reported":1728511724,"current_range_meters":38400,"station_id":"ce4bhh92rcd13ifvqfj0","pricing_plan_id":"cebpf4jnsgd1na2vs0mg"},{"bike_id":"c408e815-c560-4a49-b6c9-9d4c97b818e6","system_id":"levelo_inurba_marseille","lat":43.23189,"lon":5.39985,"is_reserved":false,"is_disabled":false,"rental_uris":{"android":"levelo://app?vid=c408e815-c560-4a49-b6c9-9d4c97b818e6","ios":"levelo://app?vid=c408e815-c560-4a49-b6c9-9d4c97b818e6"},"vehicle_type_id":"4","last_reported":1728511724,"current_range_meters":24400,"station_id":"ce4bhn12rcd13ifvqgqg","pricing_plan_id":"cebpf4jnsgd1na2vs0mg"},{"bike_id":"88b815fa-1c0a-4856-b23f-27312d03a2d8","system_id":"levelo_inurba_marseille","lat":43.33026,"lon":5.39035,"is_reserved":false,"is_disabled":false,"rental_uris":{"android":"levelo://app?vid=88b815fa-1c0a-4856-b23f-27312d03a2d8","ios":"levelo://app?vid=88b815fa-1c0a-4856-b23f-27312d03a2d8"},"vehicle_type_id":"4","last_reported":1728511724,"current_range_meters":24000,"station_id":"ce4bhr92rcd13ifvqhrg","pricing_plan_id":"cebpf4jnsgd1na2vs0mg"},{"bike_id":"f3535bf1-0333-46d7-a760-97c09e07a0d7","system_id":"levelo_inurba_marseille","lat":43.25116,"lon":5.40322,"is_reserved":false,"is_disabled":false,"rental_uris":{"android":"levelo://app?vid=f3535bf1-0333-46d7-a760-97c09e07a0d7","ios":"levelo://app?vid=f3535bf1-0333-46d7-a760-97c09e07a0d7"},"vehicle_type_id":"4","last_reported":1728511724,"current_range_meters":39200,"station_id":"ce4bhlh2rcd13ifvqgig","pricing_plan_id":"cebpf4jnsgd1na2vs0mg"},{"bike_id":"a5ac65be-92e7-46ab-932d-eb7ef35c24c9","system_id":"levelo_inurba_marseille","lat":43.30932,"lon":5.40151,"is_reserved":false,"is_disabled":false,"rental_uris":{"android":"levelo://app?vid=a5ac65be-92e7-46ab-932d-eb7ef35c24c9","ios":"levelo://app?vid=a5ac65be-92e7-46ab-932d-eb7ef35c24c9"},"vehicle_type_id":"4","last_reported":1728511724,"current_range_meters":37600,"station_id":"ce4bgvp2rcd13ifvqct0","pricing_plan_id":"cebpf4jnsgd1na2vs0mg"},{"bike_id":"1a5acf9a-8efc-4068-97cb-4310adb017fa","system_id":"levelo_inurba_marseille","lat":43.31175,"lon":5.38712,"is_reserved":false,"is_disabled":false,"rental_uris":{"android":"levelo://app?vid=1a5acf9a-8efc-4068-97cb-4310adb017fa","ios":"levelo://app?vid=1a5acf9a-8efc-4068-97cb-4310adb017fa"},"vehicle_type_id":"4","last_reported":1728511724,"current_range_meters":20800,"station_id":"ce4bgv12rcd13ifvqcp0","pricing_plan_id":"cebpf4jnsgd1na2vs0mg"},{"bike_id":"1a48eb59-7c58-42a9-bbc3-4ce88f973909","system_id":"levelo_inurba_marseille","lat":43.330245,"lon":5.390385,"is_reserved":false,"is_disabled":false,"rental_uris":{"android":"levelo://app?vid=1a48eb59-7c58-42a9-bbc3-4ce88f973909","ios":"levelo://app?vid=1a48eb59-7c58-42a9-bbc3-4ce88f973909"},"vehicle_type_id":"4","last_reported":1728511724,"current_range_meters":40000,"station_id":"ce4bhr92rcd13ifvqhrg","pricing_plan_id":"cebpf4jnsgd1na2vs0mg"},{"bike_id":"8dfff532-9b92-441a-9d99-a5f3f7825690","system_id":"levelo_inurba_marseille","lat":43.28466,"lon":5.3589,"is_reserved":false,"is_disabled":false,"rental_uris":{"android":"levelo://app?vid=8dfff532-9b92-441a-9d99-a5f3f7825690","ios":"levelo://app?vid=8dfff532-9b92-441a-9d99-a5f3f7825690"},"vehicle_type_id":"4","last_reported":1728511724,"current_range_meters":17200,"station_id":"ce4bhah2rcd13ifvqei0","pricing_plan_id":"cebpf4jnsgd1na2vs0mg"},{"bike_id":"25afecff-8faf-4ca5-beb4-ce74280dcb13","system_id":"levelo_inurba_marseille","lat":43.231933,"lon":5.355506,"is_reserved":false,"is_disabled":false,"rental_uris":{"android":"levelo://app?vid=25afecff-8faf-4ca5-beb4-ce74280dcb13","ios":"levelo://app?vid=25afecff-8faf-4ca5-beb4-ce74280dcb13"},"vehicle_type_id":"4","last_reported":1728511724,"current_range_meters":38800,"station_id":"ce4bhu92rcd13ifvqi70","pricing_plan_id":"cebpf4jnsgd1na2vs0mg"},{"bike_id":"bc5da530-264e-4907-ad43-308cc5fa4656","system_id":"levelo_inurba_marseille","lat":43.33022,"lon":5.39032,"is_reserved":false,"is_disabled":false,"rental_uris":{"android":"levelo://app?vid=bc5da530-264e-4907-ad43-308cc5fa4656","ios":"levelo://app?vid=bc5da530-264e-4907-ad43-308cc5fa4656"},"vehicle_type_id":"4","last_reported":1728511724,"current_range_meters":28400,"station_id":"ce4bhr92rcd13ifvqhrg","pricing_plan_id":"cebpf4jnsgd1na2vs0mg"},{"bike_id":"144b68bf-1d03-4cf4-8272-f3ab6f506db6","system_id":"levelo_inurba_marseille","lat":43.30786,"lon":5.37652,"is_reserved":false,"is_disabled":false,"rental_uris":{"android":"levelo://app?vid=144b68bf-1d03-4cf4-8272-f3ab6f506db6","ios":"levelo://app?vid=144b68bf-1d03-4cf4-8272-f3ab6f506db6"},"vehicle_type_id":"4","last_reported":1728511724,"current_range_meters":38800,"station_id":"ce4bgv92rcd13ifvqcq0","pricing_plan_id":"cebpf4jnsgd1na2vs0mg"},{"bike_id":"9911ac58-611f-468c-a27d-fab695957465","system_id":"levelo_inurba_marseille","lat":43.28564,"lon":5.39501,"is_reserved":false,"is_disabled":false,"rental_uris":{"android":"levelo://app?vid=9911ac58-611f-468c-a27d-fab695957465","ios":"levelo://app?vid=9911ac58-611f-468c-a27d-fab695957465"},"vehicle_type_id":"4","last_reported":1728511724,"current_range_meters":37600,"station_id":"ce4bh292rcd13ifvqdg0","pricing_plan_id":"cebpf4jnsgd1na2vs0mg"},{"bike_id":"7219fee0-219f-4cfa-8633-b620db7597ae","system_id":"levelo_inurba_marseille","lat":43.29788,"lon":5.37079,"is_reserved":false,"is_disabled":false,"rental_uris":{"android":"levelo://app?vid=7219fee0-219f-4cfa-8633-b620db7597ae","ios":"levelo://app?vid=7219fee0-219f-4cfa-8633-b620db7597ae"},"vehicle_type_id":"4","last_reported":1728511724,"current_range_meters":6400,"station_id":"ce4bgop2rcd13ifvqc1g","pricing_plan_id":"cebpf4jnsgd1na2vs0mg"},{"bike_id":"67adf509-8309-4277-b2b5-22a4a8b5c849","system_id":"levelo_inurba_marseille","lat":43.31692,"lon":5.40472,"is_reserved":false,"is_disabled":false,"rental_uris":{"android":"levelo://app?vid=67adf509-8309-4277-b2b5-22a4a8b5c849","ios":"levelo://app?vid=67adf509-8309-4277-b2b5-22a4a8b5c849"},"vehicle_type_id":"4","last_reported":1728511724,"current_range_meters":38800,"station_id":"ce4bh012rcd13ifvqd00","pricing_plan_id":"cebpf4jnsgd1na2vs0mg"},{"bike_id":"164d759c-141a-449a-94ce-4af95c8d88c5","system_id":"levelo_inurba_marseille","lat":43.30881,"lon":5.39636,"is_reserved":false,"is_disabled":false,"rental_uris":{"android":"levelo://app?vid=164d759c-141a-449a-94ce-4af95c8d88c5","ios":"levelo://app?vid=164d759c-141a-449a-94ce-4af95c8d88c5"},"vehicle_type_id":"4","last_reported":1728511724,"current_range_meters":24800,"station_id":"ce4bh012rcd13ifvqcv0","pricing_plan_id":"cebpf4jnsgd1na2vs0mg"},{"bike_id":"2101d868-2457-46fd-9cea-3824384bd84b","system_id":"levelo_inurba_marseille","lat":43.31495,"lon":5.37308,"is_reserved":false,"is_disabled":false,"rental_uris":{"android":"levelo://app?vid=2101d868-2457-46fd-9cea-3824384bd84b","ios":"levelo://app?vid=2101d868-2457-46fd-9cea-3824384bd84b"},"vehicle_type_id":"4","last_reported":1728511724,"current_range_meters":36800,"station_id":"ce4bgt12rcd13ifvqcd0","pricing_plan_id":"cebpf4jnsgd1na2vs0mg"},{"bike_id":"2a032523-c958-4a4f-89c7-1eb876c0a20b","system_id":"levelo_inurba_marseille","lat":43.31534,"lon":5.38026,"is_reserved":false,"is_disabled":false,"rental_uris":{"android":"levelo://app?vid=2a032523-c958-4a4f-89c7-1eb876c0a20b","ios":"levelo://app?vid=2a032523-c958-4a4f-89c7-1eb876c0a20b"},"vehicle_type_id":"4","last_reported":1728511724,"current_range_meters":21600,"station_id":"ce4bhsp2rcd13ifvqi50","pricing_plan_id":"cebpf4jnsgd1na2vs0mg"},{"bike_id":"19c785c9-d783-48f3-b3bc-0c55ff20bca2","system_id":"levelo_inurba_marseille","lat":43.3042,"lon":5.41283,"is_reserved":false,"is_disabled":false,"rental_uris":{"android":"levelo://app?vid=19c785c9-d783-48f3-b3bc-0c55ff20bca2","ios":"levelo://app?vid=19c785c9-d783-48f3-b3bc-0c55ff20bca2"},"vehicle_type_id":"4","last_reported":1728511724,"current_range_meters":12000,"station_id":"ce4bhop2rcd13ifvqh8g","pricing_plan_id":"cebpf4jnsgd1na2vs0mg"},{"bike_id":"4c264be1-cda6-46cc-a8c2-1593de8c770a","system_id":"levelo_inurba_marseille","lat":43.27183,"lon":5.40985,"is_reserved":false,"is_disabled":false,"rental_uris":{"android":"levelo://app?vid=4c264be1-cda6-46cc-a8c2-1593de8c770a","ios":"levelo://app?vid=4c264be1-cda6-46cc-a8c2-1593de8c770a"},"vehicle_type_id":"4","last_reported":1728511724,"current_range_meters":38400,"station_id":"ce4bhl12rcd13ifvqgf0","pricing_plan_id":"cebpf4jnsgd1na2vs0mg"},{"bike_id":"e784e324-3f5b-4400-a8b6-68b52e27c27f","system_id":"levelo_inurba_marseille","lat":43.28574,"lon":5.39656,"is_reserved":false,"is_disabled":false,"rental_uris":{"android":"levelo://app?vid=e784e324-3f5b-4400-a8b6-68b52e27c27f","ios":"levelo://app?vid=e784e324-3f5b-4400-a8b6-68b52e27c27f"},"vehicle_type_id":"4","last_reported":1728511724,"current_range_meters":24400,"station_id":"ce4bh292rcd13ifvqdg0","pricing_plan_id":"cebpf4jnsgd1na2vs0mg"},{"bike_id":"3dbe8191-351c-4c8f-82e8-4b3f3e083185","system_id":"levelo_inurba_marseille","lat":43.30884,"lon":5.39651,"is_reserved":false,"is_disabled":false,"rental_uris":{"android":"levelo://app?vid=3dbe8191-351c-4c8f-82e8-4b3f3e083185","ios":"levelo://app?vid=3dbe8191-351c-4c8f-82e8-4b3f3e083185"},"vehicle_type_id":"4","last_reported":1728511724,"current_range_meters":17600,"station_id":"ce4bh012rcd13ifvqcv0","pricing_plan_id":"cebpf4jnsgd1na2vs0mg"},{"bike_id":"73a800fb-7a66-4456-8e05-adb596733cb9","system_id":"levelo_inurba_marseille","lat":43.28721,"lon":5.36077,"is_reserved":false,"is_disabled":false,"rental_uris":{"android":"levelo://app?vid=73a800fb-7a66-4456-8e05-adb596733cb9","ios":"levelo://app?vid=73a800fb-7a66-4456-8e05-adb596733cb9"},"vehicle_type_id":"4","last_reported":1728511724,"current_range_meters":4000,"station_id":"cki0cbj6b192h4jlfktg","pricing_plan_id":"cebpf4jnsgd1na2vs0mg"},{"bike_id":"dca7c60b-d25d-4583-83b1-af4390c055f4","system_id":"levelo_inurba_marseille","lat":43.23189,"lon":5.35558,"is_reserved":false,"is_disabled":false,"rental_uris":{"android":"levelo://app?vid=dca7c60b-d25d-4583-83b1-af4390c055f4","ios":"levelo://app?vid=dca7c60b-d25d-4583-83b1-af4390c055f4"},"vehicle_type_id":"4","last_reported":1728511724,"current_range_meters":6400,"station_id":"ce4bhu92rcd13ifvqi70","pricing_plan_id":"cebpf4jnsgd1na2vs0mg"},{"bike_id":"cae9eb62-f22e-46fd-986a-6fd2d419be57","system_id":"levelo_inurba_marseille","lat":43.27942,"lon":5.41043,"is_reserved":false,"is_disabled":false,"rental_uris":{"android":"levelo://app?vid=cae9eb62-f22e-46fd-986a-6fd2d419be57","ios":"levelo://app?vid=cae9eb62-f22e-46fd-986a-6fd2d419be57"},"vehicle_type_id":"4","last_reported":1728511724,"current_range_meters":20000,"station_id":"ce4bhnp2rcd13ifvqh0g","pricing_plan_id":"cebpf4jnsgd1na2vs0mg"},{"bike_id":"d98abc05-22b9-4fd1-ab63-6d0caad7ccf5","system_id":"levelo_inurba_marseille","lat":43.31699,"lon":5.3776,"is_reserved":false,"is_disabled":false,"rental_uris":{"android":"levelo://app?vid=d98abc05-22b9-4fd1-ab63-6d0caad7ccf5","ios":"levelo://app?vid=d98abc05-22b9-4fd1-ab63-6d0caad7ccf5"},"vehicle_type_id":"4","last_reported":1728511724,"current_range_meters":28000,"station_id":"ce4bgth2rcd13ifvqch0","pricing_plan_id":"cebpf4jnsgd1na2vs0mg"},{"bike_id":"732c4c34-5569-46da-9012-7db5b0d931eb","system_id":"levelo_inurba_marseille","lat":43.29038,"lon":5.39964,"is_reserved":false,"is_disabled":false,"rental_uris":{"android":"levelo://app?vid=732c4c34-5569-46da-9012-7db5b0d931eb","ios":"levelo://app?vid=732c4c34-5569-46da-9012-7db5b0d931eb"},"vehicle_type_id":"4","last_reported":1728511724,"current_range_meters":28000,"station_id":"ce4bh392rcd13ifvqdm0","pricing_plan_id":"cebpf4jnsgd1na2vs0mg"},{"bike_id":"b44bddb9-8341-4408-bb5c-2330f2f7cce2","system_id":"levelo_inurba_marseille","lat":43.26055,"lon":5.39395,"is_reserved":false,"is_disabled":false,"rental_uris":{"android":"levelo://app?vid=b44bddb9-8341-4408-bb5c-2330f2f7cce2","ios":"levelo://app?vid=b44bddb9-8341-4408-bb5c-2330f2f7cce2"},"vehicle_type_id":"4","last_reported":1728511724,"current_range_meters":38000,"station_id":"ce4bhh92rcd13ifvqfj0","pricing_plan_id":"cebpf4jnsgd1na2vs0mg"},{"bike_id":"0c5c9827-2d42-4f02-93a7-73411e4c241b","system_id":"levelo_inurba_marseille","lat":43.28671,"lon":5.38653,"is_reserved":false,"is_disabled":false,"rental_uris":{"android":"levelo://app?vid=0c5c9827-2d42-4f02-93a7-73411e4c241b","ios":"levelo://app?vid=0c5c9827-2d42-4f02-93a7-73411e4c241b"},"vehicle_type_id":"4","last_reported":1728511724,"current_range_meters":38800,"station_id":"ce4bh492rcd13ifvqdug","pricing_plan_id":"cebpf4jnsgd1na2vs0mg"},{"bike_id":"2b61eacf-d24d-4302-99c7-7a6054009106","system_id":"levelo_inurba_marseille","lat":43.30902,"lon":5.36842,"is_reserved":false,"is_disabled":false,"rental_uris":{"android":"levelo://app?vid=2b61eacf-d24d-4302-99c7-7a6054009106","ios":"levelo://app?vid=2b61eacf-d24d-4302-99c7-7a6054009106"},"vehicle_type_id":"4","last_reported":1728511724,"current_range_meters":17200,"station_id":"ce4bgn92rcd13ifvqbvg","pricing_plan_id":"cebpf4jnsgd1na2vs0mg"},{"bike_id":"a6f3d0b6-b54c-4d09-9370-d02fe202d86d","system_id":"levelo_inurba_marseille","lat":43.28709,"lon":5.39982,"is_reserved":false,"is_disabled":false,"rental_uris":{"android":"levelo://app?vid=a6f3d0b6-b54c-4d09-9370-d02fe202d86d","ios":"levelo://app?vid=a6f3d0b6-b54c-4d09-9370-d02fe202d86d"},"vehicle_type_id":"4","last_reported":1728511724,"current_range_meters":26000,"station_id":"ce4bho92rcd13ifvqh3g","pricing_plan_id":"cebpf4jnsgd1na2vs0mg"},{"bike_id":"4f2e5b4a-bc46-4dee-82ca-048529cfeab8","system_id":"levelo_inurba_marseille","lat":43.30647,"lon":5.40084,"is_reserved":false,"is_disabled":false,"rental_uris":{"android":"levelo://app?vid=4f2e5b4a-bc46-4dee-82ca-048529cfeab8","ios":"levelo://app?vid=4f2e5b4a-bc46-4dee-82ca-048529cfeab8"},"vehicle_type_id":"4","last_reported":1728511724,"current_range_meters":3600,"station_id":"ce4bh112rcd13ifvqda0","pricing_plan_id":"cebpf4jnsgd1na2vs0mg"},{"bike_id":"73e5476b-e1c9-4a5d-9e10-41361ad16636","system_id":"levelo_inurba_marseille","lat":43.25126,"lon":5.40314,"is_reserved":false,"is_disabled":false,"rental_uris":{"android":"levelo://app?vid=73e5476b-e1c9-4a5d-9e10-41361ad16636","ios":"levelo://app?vid=73e5476b-e1c9-4a5d-9e10-41361ad16636"},"vehicle_type_id":"4","last_reported":1728511724,"current_range_meters":39200,"station_id":"ce4bhlh2rcd13ifvqgig","pricing_plan_id":"cebpf4jnsgd1na2vs0mg"},{"bike_id":"83094c49-8a16-4268-bb3f-b82bc8befb11","system_id":"levelo_inurba_marseille","lat":43.31083,"lon":5.42426,"is_reserved":false,"is_disabled":false,"rental_uris":{"android":"levelo://app?vid=83094c49-8a16-4268-bb3f-b82bc8befb11","ios":"levelo://app?vid=83094c49-8a16-4268-bb3f-b82bc8befb11"},"vehicle_type_id":"4","last_reported":1728511724,"current_range_meters":37600,"station_id":"ce4bhp92rcd13ifvqhag","pricing_plan_id":"cebpf4jnsgd1na2vs0mg"},{"bike_id":"d6b5cfa3-a44a-4b35-a171-f97b144308bc","system_id":"levelo_inurba_marseille","lat":43.31534,"lon":5.38018,"is_reserved":false,"is_disabled":false,"rental_uris":{"android":"levelo://app?vid=d6b5cfa3-a44a-4b35-a171-f97b144308bc","ios":"levelo://app?vid=d6b5cfa3-a44a-4b35-a171-f97b144308bc"},"vehicle_type_id":"4","last_reported":1728511724,"current_range_meters":19600,"station_id":"ce4bhsp2rcd13ifvqi50","pricing_plan_id":"cebpf4jnsgd1na2vs0mg"},{"bike_id":"4cdcd215-fc2e-4af7-9745-559a856b0ae4","system_id":"levelo_inurba_marseille","lat":43.33023,"lon":5.39047,"is_reserved":false,"is_disabled":false,"rental_uris":{"android":"levelo://app?vid=4cdcd215-fc2e-4af7-9745-559a856b0ae4","ios":"levelo://app?vid=4cdcd215-fc2e-4af7-9745-559a856b0ae4"},"vehicle_type_id":"4","last_reported":1728511724,"current_range_meters":34800,"station_id":"ce4bhr92rcd13ifvqhrg","pricing_plan_id":"cebpf4jnsgd1na2vs0mg"},{"bike_id":"6c9d17b9-7587-4e1f-a064-95fc5c59028f","system_id":"levelo_inurba_marseille","lat":43.28461,"lon":5.37487,"is_reserved":false,"is_disabled":false,"rental_uris":{"android":"levelo://app?vid=6c9d17b9-7587-4e1f-a064-95fc5c59028f","ios":"levelo://app?vid=6c9d17b9-7587-4e1f-a064-95fc5c59028f"},"vehicle_type_id":"4","last_reported":1728511724,"current_range_meters":16400,"station_id":"","pricing_plan_id":"cebpf4jnsgd1na2vs0mg"},{"bike_id":"98786e0a-2542-4334-8d5f-3f2e355cde41","system_id":"levelo_inurba_marseille","lat":43.304598,"lon":5.37896,"is_reserved":false,"is_disabled":false,"rental_uris":{"android":"levelo://app?vid=98786e0a-2542-4334-8d5f-3f2e355cde41","ios":"levelo://app?vid=98786e0a-2542-4334-8d5f-3f2e355cde41"},"vehicle_type_id":"4","last_reported":1728511724,"current_range_meters":38000,"station_id":"ce4bgup2rcd13ifvqcn0","pricing_plan_id":"cebpf4jnsgd1na2vs0mg"},{"bike_id":"e737c6da-2fda-41b9-aba8-b1d00ea0817d","system_id":"levelo_inurba_marseille","lat":43.29956,"lon":5.41315,"is_reserved":false,"is_disabled":false,"rental_uris":{"android":"levelo://app?vid=e737c6da-2fda-41b9-aba8-b1d00ea0817d","ios":"levelo://app?vid=e737c6da-2fda-41b9-aba8-b1d00ea0817d"},"vehicle_type_id":"4","last_reported":1728511724,"current_range_meters":38800,"station_id":"ce4bhp12rcd13ifvqh9g","pricing_plan_id":"cebpf4jnsgd1na2vs0mg"},{"bike_id":"6be918ff-776e-400a-8dce-92f1e9e50ca6","system_id":"levelo_inurba_marseille","lat":43.30643,"lon":5.400704,"is_reserved":false,"is_disabled":false,"rental_uris":{"android":"levelo://app?vid=6be918ff-776e-400a-8dce-92f1e9e50ca6","ios":"levelo://app?vid=6be918ff-776e-400a-8dce-92f1e9e50ca6"},"vehicle_type_id":"4","last_reported":1728511724,"current_range_meters":34800,"station_id":"ce4bh112rcd13ifvqda0","pricing_plan_id":"cebpf4jnsgd1na2vs0mg"},{"bike_id":"dcf7fa1a-67f6-4cea-a4a2-70c202568816","system_id":"levelo_inurba_marseille","lat":43.24756,"lon":5.40021,"is_reserved":false,"is_disabled":false,"rental_uris":{"android":"levelo://app?vid=dcf7fa1a-67f6-4cea-a4a2-70c202568816","ios":"levelo://app?vid=dcf7fa1a-67f6-4cea-a4a2-70c202568816"},"vehicle_type_id":"4","last_reported":1728511724,"current_range_meters":24400,"station_id":"","pricing_plan_id":"cebpf4jnsgd1na2vs0mg"},{"bike_id":"12dd3543-9792-411d-a2d3-090844735961","system_id":"levelo_inurba_marseille","lat":43.27936,"lon":5.41037,"is_reserved":false,"is_disabled":false,"rental_uris":{"android":"levelo://app?vid=12dd3543-9792-411d-a2d3-090844735961","ios":"levelo://app?vid=12dd3543-9792-411d-a2d3-090844735961"},"vehicle_type_id":"4","last_reported":1728511724,"current_range_meters":38800,"station_id":"ce4bhnp2rcd13ifvqh0g","pricing_plan_id":"cebpf4jnsgd1na2vs0mg"},{"bike_id":"44e61575-33b3-45e4-9c52-16d46941b0ae","system_id":"levelo_inurba_marseille","lat":43.27948,"lon":5.41042,"is_reserved":false,"is_disabled":false,"rental_uris":{"android":"levelo://app?vid=44e61575-33b3-45e4-9c52-16d46941b0ae","ios":"levelo://app?vid=44e61575-33b3-45e4-9c52-16d46941b0ae"},"vehicle_type_id":"4","last_reported":1728511724,"current_range_meters":38800,"station_id":"ce4bhnp2rcd13ifvqh0g","pricing_plan_id":"cebpf4jnsgd1na2vs0mg"},{"bike_id":"8ab3d839-8f7f-4bb9-aab7-6ea07849175d","system_id":"levelo_inurba_marseille","lat":43.31892,"lon":5.40736,"is_reserved":false,"is_disabled":false,"rental_uris":{"android":"levelo://app?vid=8ab3d839-8f7f-4bb9-aab7-6ea07849175d","ios":"levelo://app?vid=8ab3d839-8f7f-4bb9-aab7-6ea07849175d"},"vehicle_type_id":"4","last_reported":1728511724,"current_range_meters":4000,"station_id":"ce4bhq12rcd13ifvqhig","pricing_plan_id":"cebpf4jnsgd1na2vs0mg"},{"bike_id":"f141fb1c-de96-4fa3-ad02-84eb957e3fc1","system_id":"levelo_inurba_marseille","lat":43.29877,"lon":5.3973,"is_reserved":false,"is_disabled":false,"rental_uris":{"android":"levelo://app?vid=f141fb1c-de96-4fa3-ad02-84eb957e3fc1","ios":"levelo://app?vid=f141fb1c-de96-4fa3-ad02-84eb957e3fc1"},"vehicle_type_id":"4","last_reported":1728511724,"current_range_meters":38000,"station_id":"ce4bh0h2rcd13ifvqd50","pricing_plan_id":"cebpf4jnsgd1na2vs0mg"},{"bike_id":"1230e06c-e562-49b4-8874-629a458917da","system_id":"levelo_inurba_marseille","lat":43.31692,"lon":5.40464,"is_reserved":false,"is_disabled":false,"rental_uris":{"android":"levelo://app?vid=1230e06c-e562-49b4-8874-629a458917da","ios":"levelo://app?vid=1230e06c-e562-49b4-8874-629a458917da"},"vehicle_type_id":"4","last_reported":1728511724,"current_range_meters":19600,"station_id":"ce4bh012rcd13ifvqd00","pricing_plan_id":"cebpf4jnsgd1na2vs0mg"},{"bike_id":"cfdf381a-e1e8-426b-85b9-1a78cba90dc6","system_id":"levelo_inurba_marseille","lat":43.31753,"lon":5.39017,"is_reserved":false,"is_disabled":false,"rental_uris":{"android":"levelo://app?vid=cfdf381a-e1e8-426b-85b9-1a78cba90dc6","ios":"levelo://app?vid=cfdf381a-e1e8-426b-85b9-1a78cba90dc6"},"vehicle_type_id":"4","last_reported":1728511724,"current_range_meters":39200,"station_id":"ce4bhqp2rcd13ifvqhng","pricing_plan_id":"cebpf4jnsgd1na2vs0mg"},{"bike_id":"6caf95ac-909f-41e1-8bc7-0f91444d16fb","system_id":"levelo_inurba_marseille","lat":43.23073,"lon":5.35493,"is_reserved":false,"is_disabled":false,"rental_uris":{"android":"levelo://app?vid=6caf95ac-909f-41e1-8bc7-0f91444d16fb","ios":"levelo://app?vid=6caf95ac-909f-41e1-8bc7-0f91444d16fb"},"vehicle_type_id":"4","last_reported":1728511724,"current_range_meters":16400,"station_id":"cpo3342slgdg3j2ifvpg","pricing_plan_id":"cebpf4jnsgd1na2vs0mg"},{"bike_id":"262f4592-b078-4da6-b5bb-9cb26e28cb3f","system_id":"levelo_inurba_marseille","lat":43.320003,"lon":5.381507,"is_reserved":false,"is_disabled":false,"rental_uris":{"android":"levelo://app?vid=262f4592-b078-4da6-b5bb-9cb26e28cb3f","ios":"levelo://app?vid=262f4592-b078-4da6-b5bb-9cb26e28cb3f"},"vehicle_type_id":"4","last_reported":1728511724,"current_range_meters":38800,"station_id":"ce4bhr12rcd13ifvqhpg","pricing_plan_id":"cebpf4jnsgd1na2vs0mg"},{"bike_id":"3fab305b-1728-4a45-9f4f-fb39052b80d2","system_id":"levelo_inurba_marseille","lat":43.25491,"lon":5.37645,"is_reserved":false,"is_disabled":false,"rental_uris":{"android":"levelo://app?vid=3fab305b-1728-4a45-9f4f-fb39052b80d2","ios":"levelo://app?vid=3fab305b-1728-4a45-9f4f-fb39052b80d2"},"vehicle_type_id":"4","last_reported":1728511724,"current_range_meters":35600,"station_id":"ce4bhh12rcd13ifvqff0","pricing_plan_id":"cebpf4jnsgd1na2vs0mg"},{"bike_id":"2f946788-2ef0-4d95-94d0-374e4bea5849","system_id":"levelo_inurba_marseille","lat":43.33601,"lon":5.41018,"is_reserved":false,"is_disabled":false,"rental_uris":{"android":"levelo://app?vid=2f946788-2ef0-4d95-94d0-374e4bea5849","ios":"levelo://app?vid=2f946788-2ef0-4d95-94d0-374e4bea5849"},"vehicle_type_id":"4","last_reported":1728511724,"current_range_meters":34000,"station_id":"ce4bhqh2rcd13ifvqhmg","pricing_plan_id":"cebpf4jnsgd1na2vs0mg"},{"bike_id":"cb439072-15f2-4299-919f-ba4b86460e53","system_id":"levelo_inurba_marseille","lat":43.28037,"lon":5.36946,"is_reserved":false,"is_disabled":false,"rental_uris":{"android":"levelo://app?vid=cb439072-15f2-4299-919f-ba4b86460e53","ios":"levelo://app?vid=cb439072-15f2-4299-919f-ba4b86460e53"},"vehicle_type_id":"4","last_reported":1728511724,"current_range_meters":39200,"station_id":"ce4bha12rcd13ifvqef0","pricing_plan_id":"cebpf4jnsgd1na2vs0mg"},{"bike_id":"eb2f30ef-4645-44a9-9188-b744d4be0300","system_id":"levelo_inurba_marseille","lat":43.29035,"lon":5.35912,"is_reserved":false,"is_disabled":false,"rental_uris":{"android":"levelo://app?vid=eb2f30ef-4645-44a9-9188-b744d4be0300","ios":"levelo://app?vid=eb2f30ef-4645-44a9-9188-b744d4be0300"},"vehicle_type_id":"4","last_reported":1728511724,"current_range_meters":8000,"station_id":"ce4bha92rcd13ifvqeg0","pricing_plan_id":"cebpf4jnsgd1na2vs0mg"},{"bike_id":"a01e6511-8d04-42fc-9359-9849193889b5","system_id":"levelo_inurba_marseille","lat":43.27182,"lon":5.40986,"is_reserved":false,"is_disabled":false,"rental_uris":{"android":"levelo://app?vid=a01e6511-8d04-42fc-9359-9849193889b5","ios":"levelo://app?vid=a01e6511-8d04-42fc-9359-9849193889b5"},"vehicle_type_id":"4","last_reported":1728511724,"current_range_meters":38800,"station_id":"ce4bhl12rcd13ifvqgf0","pricing_plan_id":"cebpf4jnsgd1na2vs0mg"},{"bike_id":"ede68b2f-f53f-4ad5-a3f5-950bc936b5eb","system_id":"levelo_inurba_marseille","lat":43.33773,"lon":5.37398,"is_reserved":false,"is_disabled":false,"rental_uris":{"android":"levelo://app?vid=ede68b2f-f53f-4ad5-a3f5-950bc936b5eb","ios":"levelo://app?vid=ede68b2f-f53f-4ad5-a3f5-950bc936b5eb"},"vehicle_type_id":"4","last_reported":1728511724,"current_range_meters":32000,"station_id":"","pricing_plan_id":"cebpf4jnsgd1na2vs0mg"},{"bike_id":"dce02e95-c712-4d68-98a4-68a7f35b44b2","system_id":"levelo_inurba_marseille","lat":43.27621,"lon":5.36114,"is_reserved":false,"is_disabled":false,"rental_uris":{"android":"levelo://app?vid=dce02e95-c712-4d68-98a4-68a7f35b44b2","ios":"levelo://app?vid=dce02e95-c712-4d68-98a4-68a7f35b44b2"},"vehicle_type_id":"4","last_reported":1728511724,"current_range_meters":38000,"station_id":"ce4bgj92rcd13ifvqbe0","pricing_plan_id":"cebpf4jnsgd1na2vs0mg"},{"bike_id":"ede11f7e-0841-4d60-b7dc-e38309e6814d","system_id":"levelo_inurba_marseille","lat":43.28451,"lon":5.35901,"is_reserved":false,"is_disabled":false,"rental_uris":{"android":"levelo://app?vid=ede11f7e-0841-4d60-b7dc-e38309e6814d","ios":"levelo://app?vid=ede11f7e-0841-4d60-b7dc-e38309e6814d"},"vehicle_type_id":"4","last_reported":1728511724,"current_range_meters":28400,"station_id":"ce4bhah2rcd13ifvqei0","pricing_plan_id":"cebpf4jnsgd1na2vs0mg"},{"bike_id":"bb2e048a-c55f-4f68-98e0-9f12edc3e4d6","system_id":"levelo_inurba_marseille","lat":43.24178,"lon":5.39738,"is_reserved":false,"is_disabled":false,"rental_uris":{"android":"levelo://app?vid=bb2e048a-c55f-4f68-98e0-9f12edc3e4d6","ios":"levelo://app?vid=bb2e048a-c55f-4f68-98e0-9f12edc3e4d6"},"vehicle_type_id":"4","last_reported":1728511724,"current_range_meters":38800,"station_id":"ce4bhn12rcd13ifvqgpg","pricing_plan_id":"cebpf4jnsgd1na2vs0mg"},{"bike_id":"51ac1468-270a-49d0-8cdb-4ef6fc2d7e71","system_id":"levelo_inurba_marseille","lat":43.33723,"lon":5.39176,"is_reserved":false,"is_disabled":false,"rental_uris":{"android":"levelo://app?vid=51ac1468-270a-49d0-8cdb-4ef6fc2d7e71","ios":"levelo://app?vid=51ac1468-270a-49d0-8cdb-4ef6fc2d7e71"},"vehicle_type_id":"4","last_reported":1728511724,"current_range_meters":16800,"station_id":"ce4bhr92rcd13ifvqhsg","pricing_plan_id":"cebpf4jnsgd1na2vs0mg"},{"bike_id":"f14fcb7d-c0ee-4e3f-84fd-6b5cbb36ab24","system_id":"levelo_inurba_marseille","lat":43.29699,"lon":5.36604,"is_reserved":false,"is_disabled":false,"rental_uris":{"android":"levelo://app?vid=f14fcb7d-c0ee-4e3f-84fd-6b5cbb36ab24","ios":"levelo://app?vid=f14fcb7d-c0ee-4e3f-84fd-6b5cbb36ab24"},"vehicle_type_id":"4","last_reported":1728511724,"current_range_meters":38400,"station_id":"ce4bgn12rcd13ifvqbt0","pricing_plan_id":"cebpf4jnsgd1na2vs0mg"},{"bike_id":"2ca4a4b5-7b22-4790-9f9c-55b8b74a82e9","system_id":"levelo_inurba_marseille","lat":43.27956,"lon":5.41032,"is_reserved":false,"is_disabled":false,"rental_uris":{"android":"levelo://app?vid=2ca4a4b5-7b22-4790-9f9c-55b8b74a82e9","ios":"levelo://app?vid=2ca4a4b5-7b22-4790-9f9c-55b8b74a82e9"},"vehicle_type_id":"4","last_reported":1728511724,"current_range_meters":38400,"station_id":"ce4bhnp2rcd13ifvqh0g","pricing_plan_id":"cebpf4jnsgd1na2vs0mg"},{"bike_id":"154054a2-6c1e-467b-82d8-72e958c45190","system_id":"levelo_inurba_marseille","lat":43.24081,"lon":5.3775,"is_reserved":false,"is_disabled":false,"rental_uris":{"android":"levelo://app?vid=154054a2-6c1e-467b-82d8-72e958c45190","ios":"levelo://app?vid=154054a2-6c1e-467b-82d8-72e958c45190"},"vehicle_type_id":"4","last_reported":1728511724,"current_range_meters":9600,"station_id":"ce4bhnp2rcd13ifvqgvg","pricing_plan_id":"cebpf4jnsgd1na2vs0mg"},{"bike_id":"5d378526-5716-411b-b4b1-79e697cfb815","system_id":"levelo_inurba_marseille","lat":43.30798,"lon":5.43516,"is_reserved":false,"is_disabled":false,"rental_uris":{"android":"levelo://app?vid=5d378526-5716-411b-b4b1-79e697cfb815","ios":"levelo://app?vid=5d378526-5716-411b-b4b1-79e697cfb815"},"vehicle_type_id":"4","last_reported":1728511724,"current_range_meters":30400,"station_id":"ce4bhph2rcd13ifvqheg","pricing_plan_id":"cebpf4jnsgd1na2vs0mg"},{"bike_id":"ce4c5209-8f14-422f-933b-f32f2f1c85af","system_id":"levelo_inurba_marseille","lat":43.25109,"lon":5.40327,"is_reserved":false,"is_disabled":false,"rental_uris":{"android":"levelo://app?vid=ce4c5209-8f14-422f-933b-f32f2f1c85af","ios":"levelo://app?vid=ce4c5209-8f14-422f-933b-f32f2f1c85af"},"vehicle_type_id":"4","last_reported":1728511724,"current_range_meters":39200,"station_id":"ce4bhlh2rcd13ifvqgig","pricing_plan_id":"cebpf4jnsgd1na2vs0mg"},{"bike_id":"8d1945d1-5237-4460-b712-5dcb5cf7c1cf","system_id":"levelo_inurba_marseille","lat":43.30202,"lon":5.36613,"is_reserved":false,"is_disabled":false,"rental_uris":{"android":"levelo://app?vid=8d1945d1-5237-4460-b712-5dcb5cf7c1cf","ios":"levelo://app?vid=8d1945d1-5237-4460-b712-5dcb5cf7c1cf"},"vehicle_type_id":"4","last_reported":1728511724,"current_range_meters":25600,"station_id":"ce4bgrh2rcd13ifvqc8g","pricing_plan_id":"cebpf4jnsgd1na2vs0mg"},{"bike_id":"885b6ad9-0995-4c83-bb2b-01ee09830319","system_id":"levelo_inurba_marseille","lat":43.32288,"lon":5.382788,"is_reserved":false,"is_disabled":false,"rental_uris":{"android":"levelo://app?vid=885b6ad9-0995-4c83-bb2b-01ee09830319","ios":"levelo://app?vid=885b6ad9-0995-4c83-bb2b-01ee09830319"},"vehicle_type_id":"4","last_reported":1728511724,"current_range_meters":39200,"station_id":"ce4bhr12rcd13ifvqhqg","pricing_plan_id":"cebpf4jnsgd1na2vs0mg"},{"bike_id":"0c48bc69-b561-4689-9dc5-ed927b383c0e","system_id":"levelo_inurba_marseille","lat":43.308716,"lon":5.37766,"is_reserved":false,"is_disabled":false,"rental_uris":{"android":"levelo://app?vid=0c48bc69-b561-4689-9dc5-ed927b383c0e","ios":"levelo://app?vid=0c48bc69-b561-4689-9dc5-ed927b383c0e"},"vehicle_type_id":"4","last_reported":1728511724,"current_range_meters":16000,"station_id":"ce4bgn12rcd13ifvqbt0","pricing_plan_id":"cebpf4jnsgd1na2vs0mg"},{"bike_id":"810b32d6-b30c-480b-a6ee-5bd54d112eb8","system_id":"levelo_inurba_marseille","lat":43.33749,"lon":5.37442,"is_reserved":false,"is_disabled":false,"rental_uris":{"android":"levelo://app?vid=810b32d6-b30c-480b-a6ee-5bd54d112eb8","ios":"levelo://app?vid=810b32d6-b30c-480b-a6ee-5bd54d112eb8"},"vehicle_type_id":"4","last_reported":1728511724,"current_range_meters":26000,"station_id":"ce4rr2p2rcd13i802rgg","pricing_plan_id":"cebpf4jnsgd1na2vs0mg"},{"bike_id":"44507ef2-d923-4461-81b5-8367eba8083b","system_id":"levelo_inurba_marseille","lat":43.287029,"lon":5.399772,"is_reserved":false,"is_disabled":false,"rental_uris":{"android":"levelo://app?vid=44507ef2-d923-4461-81b5-8367eba8083b","ios":"levelo://app?vid=44507ef2-d923-4461-81b5-8367eba8083b"},"vehicle_type_id":"4","last_reported":1728511724,"current_range_meters":38800,"station_id":"ce4bho92rcd13ifvqh3g","pricing_plan_id":"cebpf4jnsgd1na2vs0mg"},{"bike_id":"7507b4b6-0e77-4929-840a-43395246c408","system_id":"levelo_inurba_marseille","lat":43.30891,"lon":5.39643,"is_reserved":false,"is_disabled":false,"rental_uris":{"android":"levelo://app?vid=7507b4b6-0e77-4929-840a-43395246c408","ios":"levelo://app?vid=7507b4b6-0e77-4929-840a-43395246c408"},"vehicle_type_id":"4","last_reported":1728511724,"current_range_meters":39200,"station_id":"ce4bh012rcd13ifvqcv0","pricing_plan_id":"cebpf4jnsgd1na2vs0mg"},{"bike_id":"332ad97f-5bed-41c2-8d9d-3cce24e6c5e8","system_id":"levelo_inurba_marseille","lat":43.29781,"lon":5.38172,"is_reserved":false,"is_disabled":false,"rental_uris":{"android":"levelo://app?vid=332ad97f-5bed-41c2-8d9d-3cce24e6c5e8","ios":"levelo://app?vid=332ad97f-5bed-41c2-8d9d-3cce24e6c5e8"},"vehicle_type_id":"4","last_reported":1728511724,"current_range_meters":34000,"station_id":"ce4bgvp2rcd13ifvqct0","pricing_plan_id":"cebpf4jnsgd1na2vs0mg"},{"bike_id":"930d5175-da31-4536-8c17-6a3e08a1658a","system_id":"levelo_inurba_marseille","lat":43.30604,"lon":5.40099,"is_reserved":false,"is_disabled":false,"rental_uris":{"android":"levelo://app?vid=930d5175-da31-4536-8c17-6a3e08a1658a","ios":"levelo://app?vid=930d5175-da31-4536-8c17-6a3e08a1658a"},"vehicle_type_id":"4","last_reported":1728511724,"current_range_meters":24400,"station_id":"ce4bh112rcd13ifvqda0","pricing_plan_id":"cebpf4jnsgd1na2vs0mg"},{"bike_id":"dcac3b1a-b82e-4bfc-8119-44654bbcd2b2","system_id":"levelo_inurba_marseille","lat":43.31175,"lon":5.38714,"is_reserved":false,"is_disabled":false,"rental_uris":{"android":"levelo://app?vid=dcac3b1a-b82e-4bfc-8119-44654bbcd2b2","ios":"levelo://app?vid=dcac3b1a-b82e-4bfc-8119-44654bbcd2b2"},"vehicle_type_id":"4","last_reported":1728511724,"current_range_meters":18000,"station_id":"ce4bgv12rcd13ifvqcp0","pricing_plan_id":"cebpf4jnsgd1na2vs0mg"},{"bike_id":"1cbab8fa-3f4f-412a-ac76-a99edaf0115b","system_id":"levelo_inurba_marseille","lat":43.30463,"lon":5.37896,"is_reserved":false,"is_disabled":false,"rental_uris":{"android":"levelo://app?vid=1cbab8fa-3f4f-412a-ac76-a99edaf0115b","ios":"levelo://app?vid=1cbab8fa-3f4f-412a-ac76-a99edaf0115b"},"vehicle_type_id":"4","last_reported":1728511724,"current_range_meters":37600,"station_id":"ce4bgup2rcd13ifvqcn0","pricing_plan_id":"cebpf4jnsgd1na2vs0mg"},{"bike_id":"7404348e-d582-4212-80c1-ab7d59c5a446","system_id":"levelo_inurba_marseille","lat":43.25859,"lon":5.39903,"is_reserved":false,"is_disabled":false,"rental_uris":{"android":"levelo://app?vid=7404348e-d582-4212-80c1-ab7d59c5a446","ios":"levelo://app?vid=7404348e-d582-4212-80c1-ab7d59c5a446"},"vehicle_type_id":"4","last_reported":1728511724,"current_range_meters":38800,"station_id":"ce4bhl92rcd13ifvqghg","pricing_plan_id":"cebpf4jnsgd1na2vs0mg"},{"bike_id":"7ee00ab1-b7e9-434d-a9a4-228ef323d7f5","system_id":"levelo_inurba_marseille","lat":43.29568,"lon":5.39973,"is_reserved":false,"is_disabled":false,"rental_uris":{"android":"levelo://app?vid=7ee00ab1-b7e9-434d-a9a4-228ef323d7f5","ios":"levelo://app?vid=7ee00ab1-b7e9-434d-a9a4-228ef323d7f5"},"vehicle_type_id":"4","last_reported":1728511724,"current_range_meters":39200,"station_id":"ce4bh312rcd13ifvqdj0","pricing_plan_id":"cebpf4jnsgd1na2vs0mg"},{"bike_id":"6788304e-a293-4cdd-97ad-484d5208b17d","system_id":"levelo_inurba_marseille","lat":43.27815,"lon":5.40708,"is_reserved":false,"is_disabled":false,"rental_uris":{"android":"levelo://app?vid=6788304e-a293-4cdd-97ad-484d5208b17d","ios":"levelo://app?vid=6788304e-a293-4cdd-97ad-484d5208b17d"},"vehicle_type_id":"4","last_reported":1728511724,"current_range_meters":38800,"station_id":"ce4bhnh2rcd13ifvqgtg","pricing_plan_id":"cebpf4jnsgd1na2vs0mg"},{"bike_id":"f12c47c8-0062-4df2-9d07-928dd29498d6","system_id":"levelo_inurba_marseille","lat":43.24182,"lon":5.39732,"is_reserved":false,"is_disabled":false,"rental_uris":{"android":"levelo://app?vid=f12c47c8-0062-4df2-9d07-928dd29498d6","ios":"levelo://app?vid=f12c47c8-0062-4df2-9d07-928dd29498d6"},"vehicle_type_id":"4","last_reported":1728511724,"current_range_meters":9600,"station_id":"ce4bhn12rcd13ifvqgpg","pricing_plan_id":"cebpf4jnsgd1na2vs0mg"},{"bike_id":"4930c6fa-3230-43c6-8506-5239979ced7f","system_id":"levelo_inurba_marseille","lat":43.31713,"lon":5.43705,"is_reserved":false,"is_disabled":false,"rental_uris":{"android":"levelo://app?vid=4930c6fa-3230-43c6-8506-5239979ced7f","ios":"levelo://app?vid=4930c6fa-3230-43c6-8506-5239979ced7f"},"vehicle_type_id":"4","last_reported":1728511724,"current_range_meters":16800,"station_id":"ce4bhp92rcd13ifvqhcg","pricing_plan_id":"cebpf4jnsgd1na2vs0mg"},{"bike_id":"23a14355-8ab8-4f0d-954a-17b2a5e5a064","system_id":"levelo_inurba_marseille","lat":43.3133,"lon":5.39688,"is_reserved":false,"is_disabled":false,"rental_uris":{"android":"levelo://app?vid=23a14355-8ab8-4f0d-954a-17b2a5e5a064","ios":"levelo://app?vid=23a14355-8ab8-4f0d-954a-17b2a5e5a064"},"vehicle_type_id":"4","last_reported":1728511724,"current_range_meters":13600,"station_id":"ce4bgvp2rcd13ifvqcu0","pricing_plan_id":"cebpf4jnsgd1na2vs0mg"},{"bike_id":"6ceea0e8-32b9-476f-85a8-e90de1b533d9","system_id":"levelo_inurba_marseille","lat":43.32659,"lon":5.40994,"is_reserved":false,"is_disabled":false,"rental_uris":{"android":"levelo://app?vid=6ceea0e8-32b9-476f-85a8-e90de1b533d9","ios":"levelo://app?vid=6ceea0e8-32b9-476f-85a8-e90de1b533d9"},"vehicle_type_id":"4","last_reported":1728511724,"current_range_meters":8800,"station_id":"ce4bhpp2rcd13ifvqhgg","pricing_plan_id":"cebpf4jnsgd1na2vs0mg"},{"bike_id":"f751ad88-044e-45de-a34e-8be19b425cdb","system_id":"levelo_inurba_marseille","lat":43.30421,"lon":5.3975,"is_reserved":false,"is_disabled":false,"rental_uris":{"android":"levelo://app?vid=f751ad88-044e-45de-a34e-8be19b425cdb","ios":"levelo://app?vid=f751ad88-044e-45de-a34e-8be19b425cdb"},"vehicle_type_id":"4","last_reported":1728511724,"current_range_meters":39200,"station_id":"ce4bh092rcd13ifvqd20","pricing_plan_id":"cebpf4jnsgd1na2vs0mg"},{"bike_id":"0dcfddc7-8134-4c1d-9ae7-26a59237eba3","system_id":"levelo_inurba_marseille","lat":43.29584,"lon":5.36749,"is_reserved":false,"is_disabled":false,"rental_uris":{"android":"levelo://app?vid=0dcfddc7-8134-4c1d-9ae7-26a59237eba3","ios":"levelo://app?vid=0dcfddc7-8134-4c1d-9ae7-26a59237eba3"},"vehicle_type_id":"4","last_reported":1728511724,"current_range_meters":38000,"station_id":"ce4bgph2rcd13ifvqc2g","pricing_plan_id":"cebpf4jnsgd1na2vs0mg"},{"bike_id":"1f68d2ca-340b-456e-a0fe-37b42fd5f9e8","system_id":"levelo_inurba_marseille","lat":43.2797,"lon":5.38734,"is_reserved":false,"is_disabled":false,"rental_uris":{"android":"levelo://app?vid=1f68d2ca-340b-456e-a0fe-37b42fd5f9e8","ios":"levelo://app?vid=1f68d2ca-340b-456e-a0fe-37b42fd5f9e8"},"vehicle_type_id":"4","last_reported":1728511724,"current_range_meters":34800,"station_id":"ce4bhg12rcd13ifvqf80","pricing_plan_id":"cebpf4jnsgd1na2vs0mg"},{"bike_id":"5c075a6d-02b9-4617-a7db-86cbc272f693","system_id":"levelo_inurba_marseille","lat":43.30765,"lon":5.40156,"is_reserved":false,"is_disabled":false,"rental_uris":{"android":"levelo://app?vid=5c075a6d-02b9-4617-a7db-86cbc272f693","ios":"levelo://app?vid=5c075a6d-02b9-4617-a7db-86cbc272f693"},"vehicle_type_id":"4","last_reported":1728511724,"current_range_meters":24000,"station_id":"","pricing_plan_id":"cebpf4jnsgd1na2vs0mg"},{"bike_id":"c8aafd0a-224f-47ad-b2d2-12b7e2c9220f","system_id":"levelo_inurba_marseille","lat":43.27574,"lon":5.38407,"is_reserved":false,"is_disabled":false,"rental_uris":{"android":"levelo://app?vid=c8aafd0a-224f-47ad-b2d2-12b7e2c9220f","ios":"levelo://app?vid=c8aafd0a-224f-47ad-b2d2-12b7e2c9220f"},"vehicle_type_id":"4","last_reported":1728511724,"current_range_meters":39200,"station_id":"ce4bhh92rcd13ifvqfi0","pricing_plan_id":"cebpf4jnsgd1na2vs0mg"},{"bike_id":"85a048f8-8505-46d4-9d20-ae725d292ea2","system_id":"levelo_inurba_marseille","lat":43.31277,"lon":5.40168,"is_reserved":false,"is_disabled":false,"rental_uris":{"android":"levelo://app?vid=85a048f8-8505-46d4-9d20-ae725d292ea2","ios":"levelo://app?vid=85a048f8-8505-46d4-9d20-ae725d292ea2"},"vehicle_type_id":"4","last_reported":1728511724,"current_range_meters":34800,"station_id":"ce4bh092rcd13ifvqd30","pricing_plan_id":"cebpf4jnsgd1na2vs0mg"},{"bike_id":"7f91e7b6-39c7-4ac1-8823-37439c8b63c6","system_id":"levelo_inurba_marseille","lat":43.26558,"lon":5.37284,"is_reserved":false,"is_disabled":false,"rental_uris":{"android":"levelo://app?vid=7f91e7b6-39c7-4ac1-8823-37439c8b63c6","ios":"levelo://app?vid=7f91e7b6-39c7-4ac1-8823-37439c8b63c6"},"vehicle_type_id":"4","last_reported":1728511724,"current_range_meters":36800,"station_id":"ce4bhg12rcd13ifvqf70","pricing_plan_id":"cebpf4jnsgd1na2vs0mg"},{"bike_id":"88a2001f-3d05-45fa-8ce2-7b6503335a54","system_id":"levelo_inurba_marseille","lat":43.3266,"lon":5.40988,"is_reserved":false,"is_disabled":false,"rental_uris":{"android":"levelo://app?vid=88a2001f-3d05-45fa-8ce2-7b6503335a54","ios":"levelo://app?vid=88a2001f-3d05-45fa-8ce2-7b6503335a54"},"vehicle_type_id":"4","last_reported":1728511724,"current_range_meters":28800,"station_id":"ce4bhpp2rcd13ifvqhgg","pricing_plan_id":"cebpf4jnsgd1na2vs0mg"},{"bike_id":"c2dbdf24-83b9-4d66-80b0-4eee816c4194","system_id":"levelo_inurba_marseille","lat":43.27812,"lon":5.40709,"is_reserved":false,"is_disabled":false,"rental_uris":{"android":"levelo://app?vid=c2dbdf24-83b9-4d66-80b0-4eee816c4194","ios":"levelo://app?vid=c2dbdf24-83b9-4d66-80b0-4eee816c4194"},"vehicle_type_id":"4","last_reported":1728511724,"current_range_meters":38000,"station_id":"ce4bhnh2rcd13ifvqgtg","pricing_plan_id":"cebpf4jnsgd1na2vs0mg"},{"bike_id":"0de967ed-2c01-4abe-b031-b5494b7e106d","system_id":"levelo_inurba_marseille","lat":43.29448,"lon":5.39749,"is_reserved":false,"is_disabled":false,"rental_uris":{"android":"levelo://app?vid=0de967ed-2c01-4abe-b031-b5494b7e106d","ios":"levelo://app?vid=0de967ed-2c01-4abe-b031-b5494b7e106d"},"vehicle_type_id":"4","last_reported":1728511724,"current_range_meters":38400,"station_id":"ce4bh3h2rcd13ifvqdo0","pricing_plan_id":"cebpf4jnsgd1na2vs0mg"},{"bike_id":"2f9e3e08-7baf-4a8c-978a-96205524d38a","system_id":"levelo_inurba_marseille","lat":43.25727,"lon":5.41098,"is_reserved":false,"is_disabled":false,"rental_uris":{"android":"levelo://app?vid=2f9e3e08-7baf-4a8c-978a-96205524d38a","ios":"levelo://app?vid=2f9e3e08-7baf-4a8c-978a-96205524d38a"},"vehicle_type_id":"4","last_reported":1728511724,"current_range_meters":8000,"station_id":"ce4bhkp2rcd13ifvqgd0","pricing_plan_id":"cebpf4jnsgd1na2vs0mg"},{"bike_id":"84eca72f-cc24-491b-8910-9471b1565caf","system_id":"levelo_inurba_marseille","lat":43.31701,"lon":5.3776,"is_reserved":false,"is_disabled":false,"rental_uris":{"android":"levelo://app?vid=84eca72f-cc24-491b-8910-9471b1565caf","ios":"levelo://app?vid=84eca72f-cc24-491b-8910-9471b1565caf"},"vehicle_type_id":"4","last_reported":1728511724,"current_range_meters":38800,"station_id":"ce4bgth2rcd13ifvqch0","pricing_plan_id":"cebpf4jnsgd1na2vs0mg"},{"bike_id":"8caa751b-e512-4765-93aa-06847fdbb171","system_id":"levelo_inurba_marseille","lat":43.27832,"lon":5.39202,"is_reserved":false,"is_disabled":false,"rental_uris":{"android":"levelo://app?vid=8caa751b-e512-4765-93aa-06847fdbb171","ios":"levelo://app?vid=8caa751b-e512-4765-93aa-06847fdbb171"},"vehicle_type_id":"4","last_reported":1728511724,"current_range_meters":11200,"station_id":"ce4bhjp2rcd13ifvqga0","pricing_plan_id":"cebpf4jnsgd1na2vs0mg"},{"bike_id":"2f575926-81fb-4c1b-b2ee-2505b63e91dc","system_id":"levelo_inurba_marseille","lat":43.29715,"lon":5.36616,"is_reserved":false,"is_disabled":false,"rental_uris":{"android":"levelo://app?vid=2f575926-81fb-4c1b-b2ee-2505b63e91dc","ios":"levelo://app?vid=2f575926-81fb-4c1b-b2ee-2505b63e91dc"},"vehicle_type_id":"4","last_reported":1728511724,"current_range_meters":6000,"station_id":"ce4bgn12rcd13ifvqbt0","pricing_plan_id":"cebpf4jnsgd1na2vs0mg"},{"bike_id":"115f99b9-4f17-436d-b64b-539a809a91f1","system_id":"levelo_inurba_marseille","lat":43.33023,"lon":5.39038,"is_reserved":false,"is_disabled":false,"rental_uris":{"android":"levelo://app?vid=115f99b9-4f17-436d-b64b-539a809a91f1","ios":"levelo://app?vid=115f99b9-4f17-436d-b64b-539a809a91f1"},"vehicle_type_id":"4","last_reported":1728511724,"current_range_meters":37600,"station_id":"ce4bhr92rcd13ifvqhrg","pricing_plan_id":"cebpf4jnsgd1na2vs0mg"},{"bike_id":"6ff31732-8687-4a03-800d-084581525e2f","system_id":"levelo_inurba_marseille","lat":43.312191,"lon":5.388121,"is_reserved":false,"is_disabled":false,"rental_uris":{"android":"levelo://app?vid=6ff31732-8687-4a03-800d-084581525e2f","ios":"levelo://app?vid=6ff31732-8687-4a03-800d-084581525e2f"},"vehicle_type_id":"4","last_reported":1728511724,"current_range_meters":38800,"station_id":"ce4bgv12rcd13ifvqcp0","pricing_plan_id":"cebpf4jnsgd1na2vs0mg"},{"bike_id":"b4e3873d-b92a-4ac1-a3d6-78a8e17b362a","system_id":"levelo_inurba_marseille","lat":43.24998,"lon":5.38931,"is_reserved":false,"is_disabled":false,"rental_uris":{"android":"levelo://app?vid=b4e3873d-b92a-4ac1-a3d6-78a8e17b362a","ios":"levelo://app?vid=b4e3873d-b92a-4ac1-a3d6-78a8e17b362a"},"vehicle_type_id":"4","last_reported":1728511724,"current_range_meters":6800,"station_id":"ce4bhgp2rcd13ifvqfd0","pricing_plan_id":"cebpf4jnsgd1na2vs0mg"},{"bike_id":"9700c7b9-3ca1-488a-9a47-d856ceee54c1","system_id":"levelo_inurba_marseille","lat":43.322919,"lon":5.382754,"is_reserved":false,"is_disabled":false,"rental_uris":{"android":"levelo://app?vid=9700c7b9-3ca1-488a-9a47-d856ceee54c1","ios":"levelo://app?vid=9700c7b9-3ca1-488a-9a47-d856ceee54c1"},"vehicle_type_id":"4","last_reported":1728511724,"current_range_meters":39200,"station_id":"ce4bhr12rcd13ifvqhqg","pricing_plan_id":"cebpf4jnsgd1na2vs0mg"},{"bike_id":"5c1a8458-a3a4-4acf-a609-5cf70095ff7a","system_id":"levelo_inurba_marseille","lat":43.25005,"lon":5.38927,"is_reserved":false,"is_disabled":false,"rental_uris":{"android":"levelo://app?vid=5c1a8458-a3a4-4acf-a609-5cf70095ff7a","ios":"levelo://app?vid=5c1a8458-a3a4-4acf-a609-5cf70095ff7a"},"vehicle_type_id":"4","last_reported":1728511724,"current_range_meters":38000,"station_id":"ce4bhgp2rcd13ifvqfd0","pricing_plan_id":"cebpf4jnsgd1na2vs0mg"},{"bike_id":"4745caff-0453-478a-8963-025636bcb912","system_id":"levelo_inurba_marseille","lat":43.33023,"lon":5.3904,"is_reserved":false,"is_disabled":false,"rental_uris":{"android":"levelo://app?vid=4745caff-0453-478a-8963-025636bcb912","ios":"levelo://app?vid=4745caff-0453-478a-8963-025636bcb912"},"vehicle_type_id":"4","last_reported":1728511724,"current_range_meters":17600,"station_id":"ce4bhr92rcd13ifvqhrg","pricing_plan_id":"cebpf4jnsgd1na2vs0mg"},{"bike_id":"5313992a-f6d1-4718-902d-743fe30c7e96","system_id":"levelo_inurba_marseille","lat":43.246535,"lon":5.388943,"is_reserved":false,"is_disabled":false,"rental_uris":{"android":"levelo://app?vid=5313992a-f6d1-4718-902d-743fe30c7e96","ios":"levelo://app?vid=5313992a-f6d1-4718-902d-743fe30c7e96"},"vehicle_type_id":"4","last_reported":1728511724,"current_range_meters":38800,"station_id":"ce4bhg12rcd13ifvqf60","pricing_plan_id":"cebpf4jnsgd1na2vs0mg"},{"bike_id":"3be81f54-e068-494a-9d94-36870d0b625f","system_id":"levelo_inurba_marseille","lat":43.28462,"lon":5.35881,"is_reserved":false,"is_disabled":false,"rental_uris":{"android":"levelo://app?vid=3be81f54-e068-494a-9d94-36870d0b625f","ios":"levelo://app?vid=3be81f54-e068-494a-9d94-36870d0b625f"},"vehicle_type_id":"4","last_reported":1728511724,"current_range_meters":29600,"station_id":"ce4bhah2rcd13ifvqei0","pricing_plan_id":"cebpf4jnsgd1na2vs0mg"},{"bike_id":"b1202e58-596f-4594-b908-3c5c8849ca6a","system_id":"levelo_inurba_marseille","lat":43.30192,"lon":5.36616,"is_reserved":false,"is_disabled":false,"rental_uris":{"android":"levelo://app?vid=b1202e58-596f-4594-b908-3c5c8849ca6a","ios":"levelo://app?vid=b1202e58-596f-4594-b908-3c5c8849ca6a"},"vehicle_type_id":"4","last_reported":1728511724,"current_range_meters":10000,"station_id":"ce4bgrh2rcd13ifvqc8g","pricing_plan_id":"cebpf4jnsgd1na2vs0mg"},{"bike_id":"f0d8c7a2-27b8-469a-b9f8-c2f6cbfd5f73","system_id":"levelo_inurba_marseille","lat":43.25078,"lon":5.39502,"is_reserved":false,"is_disabled":false,"rental_uris":{"android":"levelo://app?vid=f0d8c7a2-27b8-469a-b9f8-c2f6cbfd5f73","ios":"levelo://app?vid=f0d8c7a2-27b8-469a-b9f8-c2f6cbfd5f73"},