{"last_updated":1747256919,"ttl":60,"version":"2.2","data":{"bikes":[{"bike_id":"ce5aa659-18bd-4887-908a-27c53527eb5c","system_id":"levelo_inurba_marseille","lat":43.28157,"lon":5.42646,"is_reserved":false,"is_disabled":false,"rental_uris":{"android":"levelo://app?vid=ce5aa659-18bd-4887-908a-27c53527eb5c","ios":"levelo://app?vid=ce5aa659-18bd-4887-908a-27c53527eb5c"},"vehicle_type_id":"4","last_reported":1747256919,"current_range_meters":2800,"station_id":"ce4bhnh2rcd13ifvqgug","pricing_plan_id":"cebpf4jnsgd1na2vs0mg"},{"bike_id":"05114133-6661-4169-92b9-ccfc743c39f7","system_id":"levelo_inurba_marseille","lat":43.28567,"lon":5.39498,"is_reserved":false,"is_disabled":false,"rental_uris":{"android":"levelo://app?vid=05114133-6661-4169-92b9-ccfc743c39f7","ios":"levelo://app?vid=05114133-6661-4169-92b9-ccfc743c39f7"},"vehicle_type_id":"4","last_reported":1747256919,"current_range_meters":2800,"station_id":"ce4bh292rcd13ifvqdg0","pricing_plan_id":"cebpf4jnsgd1na2vs0mg"},{"bike_id":"28447601-2df0-4e67-a42a-6f72e2590674","system_id":"levelo_inurba_marseille","lat":43.3111,"lon":5.37761,"is_reserved":false,"is_disabled":false,"rental_uris":{"android":"levelo://app?vid=28447601-2df0-4e67-a42a-6f72e2590674","ios":"levelo://app?vid=28447601-2df0-4e67-a42a-6f72e2590674"},"vehicle_type_id":"4","last_reported":1747256919,"current_range_meters":3200,"station_id":"ce4bgt92rcd13ifvqcg0","pricing_plan_id":"cebpf4jnsgd1na2vs0mg"},{"bike_id":"1dba6c1a-2c9d-4f89-a3d0-c80470f3be70","system_id":"levelo_inurba_marseille","lat":43.32339,"lon":5.40605,"is_reserved":false,"is_disabled":false,"rental_uris":{"android":"levelo://app?vid=1dba6c1a-2c9d-4f89-a3d0-c80470f3be70","ios":"levelo://app?vid=1dba6c1a-2c9d-4f89-a3d0-c80470f3be70"},"vehicle_type_id":"4","last_reported":1747256919,"current_range_meters":3200,"station_id":"ce4bhq92rcd13ifvqhjg","pricing_plan_id":"cebpf4jnsgd1na2vs0mg"},{"bike_id":"d737ff0d-2283-4280-abc2-0241a02c9935","system_id":"levelo_inurba_marseille","lat":43.29003,"lon":5.35608,"is_reserved":false,"is_disabled":false,"rental_uris":{"android":"levelo://app?vid=d737ff0d-2283-4280-abc2-0241a02c9935","ios":"levelo://app?vid=d737ff0d-2283-4280-abc2-0241a02c9935"},"vehicle_type_id":"4","last_reported":1747256919,"current_range_meters":3200,"station_id":"ce4bhb92rcd13ifvqen0","pricing_plan_id":"cebpf4jnsgd1na2vs0mg"},{"bike_id":"352bbde9-3ac8-4b32-a419-c1b4851de37a","system_id":"levelo_inurba_marseille","lat":43.24546,"lon":5.39522,"is_reserved":false,"is_disabled":false,"rental_uris":{"android":"levelo://app?vid=352bbde9-3ac8-4b32-a419-c1b4851de37a","ios":"levelo://app?vid=352bbde9-3ac8-4b32-a419-c1b4851de37a"},"vehicle_type_id":"4","last_reported":1747256919,"current_range_meters":3200,"station_id":"ce4bhlp2rcd13ifvqgjg","pricing_plan_id":"cebpf4jnsgd1na2vs0mg"},{"bike_id":"61c35223-1233-4719-ae43-c4f9978951b5","system_id":"levelo_inurba_marseille","lat":43.26065,"lon":5.39398,"is_reserved":false,"is_disabled":false,"rental_uris":{"android":"levelo://app?vid=61c35223-1233-4719-ae43-c4f9978951b5","ios":"levelo://app?vid=61c35223-1233-4719-ae43-c4f9978951b5"},"vehicle_type_id":"4","last_reported":1747256919,"current_range_meters":3200,"station_id":"ce4bhh92rcd13ifvqfj0","pricing_plan_id":"cebpf4jnsgd1na2vs0mg"},{"bike_id":"180c85d8-eac8-48e4-80f0-de479d159f91","system_id":"levelo_inurba_marseille","lat":43.28663,"lon":5.36356,"is_reserved":false,"is_disabled":false,"rental_uris":{"android":"levelo://app?vid=180c85d8-eac8-48e4-80f0-de479d159f91","ios":"levelo://app?vid=180c85d8-eac8-48e4-80f0-de479d159f91"},"vehicle_type_id":"4","last_reported":1747256919,"current_range_meters":3600,"station_id":"ce4bhah2rcd13ifvqej0","pricing_plan_id":"cebpf4jnsgd1na2vs0mg"},{"bike_id":"998c8960-eab4-4f9e-9c26-d54c8f4a4c00","system_id":"levelo_inurba_marseille","lat":43.28419,"lon":5.37506,"is_reserved":false,"is_disabled":false,"rental_uris":{"android":"levelo://app?vid=998c8960-eab4-4f9e-9c26-d54c8f4a4c00","ios":"levelo://app?vid=998c8960-eab4-4f9e-9c26-d54c8f4a4c00"},"vehicle_type_id":"4","last_reported":1747256919,"current_range_meters":3600,"station_id":"ce4bh412rcd13ifvqds0","pricing_plan_id":"cebpf4jnsgd1na2vs0mg"},{"bike_id":"95b9651b-24ca-40ef-a319-3d06e507e536","system_id":"levelo_inurba_marseille","lat":43.31226,"lon":5.38951,"is_reserved":false,"is_disabled":false,"rental_uris":{"android":"levelo://app?vid=95b9651b-24ca-40ef-a319-3d06e507e536","ios":"levelo://app?vid=95b9651b-24ca-40ef-a319-3d06e507e536"},"vehicle_type_id":"4","last_reported":1747256919,"current_range_meters":4000,"station_id":"","pricing_plan_id":"cebpf4jnsgd1na2vs0mg"},{"bike_id":"96d0275a-ccec-4de6-ad25-67ea77d4c332","system_id":"levelo_inurba_marseille","lat":43.29763,"lon":5.40024,"is_reserved":false,"is_disabled":false,"rental_uris":{"android":"levelo://app?vid=96d0275a-ccec-4de6-ad25-67ea77d4c332","ios":"levelo://app?vid=96d0275a-ccec-4de6-ad25-67ea77d4c332"},"vehicle_type_id":"4","last_reported":1747256919,"current_range_meters":4400,"station_id":"","pricing_plan_id":"cebpf4jnsgd1na2vs0mg"},{"bike_id":"6be39f99-e35b-4505-9537-e78e2214aa5f","system_id":"levelo_inurba_marseille","lat":43.28677,"lon":5.38663,"is_reserved":false,"is_disabled":false,"rental_uris":{"android":"levelo://app?vid=6be39f99-e35b-4505-9537-e78e2214aa5f","ios":"levelo://app?vid=6be39f99-e35b-4505-9537-e78e2214aa5f"},"vehicle_type_id":"4","last_reported":1747256919,"current_range_meters":4400,"station_id":"ce4bh492rcd13ifvqdug","pricing_plan_id":"cebpf4jnsgd1na2vs0mg"},{"bike_id":"6c97c974-e829-4150-9e86-3e94c04e4ad6","system_id":"levelo_inurba_marseille","lat":43.287023,"lon":5.379459,"is_reserved":false,"is_disabled":false,"rental_uris":{"android":"levelo://app?vid=6c97c974-e829-4150-9e86-3e94c04e4ad6","ios":"levelo://app?vid=6c97c974-e829-4150-9e86-3e94c04e4ad6"},"vehicle_type_id":"4","last_reported":1747256919,"current_range_meters":4400,"station_id":"ce4bh9p2rcd13ifvqec0","pricing_plan_id":"cebpf4jnsgd1na2vs0mg"},{"bike_id":"893cee9f-22ed-4823-82b3-4da288b81784","system_id":"levelo_inurba_marseille","lat":43.30581,"lon":5.393576,"is_reserved":false,"is_disabled":false,"rental_uris":{"android":"levelo://app?vid=893cee9f-22ed-4823-82b3-4da288b81784","ios":"levelo://app?vid=893cee9f-22ed-4823-82b3-4da288b81784"},"vehicle_type_id":"4","last_reported":1747256919,"current_range_meters":4800,"station_id":"","pricing_plan_id":"cebpf4jnsgd1na2vs0mg"},{"bike_id":"578ebc24-6dd6-4865-84c0-3499a85372e2","system_id":"levelo_inurba_marseille","lat":43.25867,"lon":5.39897,"is_reserved":false,"is_disabled":false,"rental_uris":{"android":"levelo://app?vid=578ebc24-6dd6-4865-84c0-3499a85372e2","ios":"levelo://app?vid=578ebc24-6dd6-4865-84c0-3499a85372e2"},"vehicle_type_id":"4","last_reported":1747256919,"current_range_meters":4800,"station_id":"ce4bhl92rcd13ifvqghg","pricing_plan_id":"cebpf4jnsgd1na2vs0mg"},{"bike_id":"ce4325af-2448-4172-bdec-81d552ee0b62","system_id":"levelo_inurba_marseille","lat":43.261728,"lon":5.420198,"is_reserved":false,"is_disabled":false,"rental_uris":{"android":"levelo://app?vid=ce4325af-2448-4172-bdec-81d552ee0b62","ios":"levelo://app?vid=ce4325af-2448-4172-bdec-81d552ee0b62"},"vehicle_type_id":"4","last_reported":1747256919,"current_range_meters":4800,"station_id":"","pricing_plan_id":"cebpf4jnsgd1na2vs0mg"},{"bike_id":"b6089a2b-dc15-42d8-9f03-c16ad6ebeca3","system_id":"levelo_inurba_marseille","lat":43.241866,"lon":5.363946,"is_reserved":false,"is_disabled":false,"rental_uris":{"android":"levelo://app?vid=b6089a2b-dc15-42d8-9f03-c16ad6ebeca3","ios":"levelo://app?vid=b6089a2b-dc15-42d8-9f03-c16ad6ebeca3"},"vehicle_type_id":"4","last_reported":1747256919,"current_range_meters":4800,"station_id":"cpo36qri1sfpv3e86is0","pricing_plan_id":"cebpf4jnsgd1na2vs0mg"},{"bike_id":"fcc4ef96-c15e-4bef-9606-819e508051db","system_id":"levelo_inurba_marseille","lat":43.2624,"lon":5.42126,"is_reserved":false,"is_disabled":false,"rental_uris":{"android":"levelo://app?vid=fcc4ef96-c15e-4bef-9606-819e508051db","ios":"levelo://app?vid=fcc4ef96-c15e-4bef-9606-819e508051db"},"vehicle_type_id":"4","last_reported":1747256919,"current_range_meters":4800,"station_id":"","pricing_plan_id":"cebpf4jnsgd1na2vs0mg"},{"bike_id":"912bf903-0f2a-432c-bd15-a66ca82953f2","system_id":"levelo_inurba_marseille","lat":43.29543,"lon":5.42286,"is_reserved":false,"is_disabled":true,"rental_uris":{"android":"levelo://app?vid=912bf903-0f2a-432c-bd15-a66ca82953f2","ios":"levelo://app?vid=912bf903-0f2a-432c-bd15-a66ca82953f2"},"vehicle_type_id":"4","last_reported":1747256919,"current_range_meters":4800,"station_id":"ce4bhph2rcd13ifvqhdg","pricing_plan_id":"cebpf4jnsgd1na2vs0mg"},{"bike_id":"bd712a64-b07a-487b-b522-7c79ec3b3302","system_id":"levelo_inurba_marseille","lat":43.30136,"lon":5.39885,"is_reserved":false,"is_disabled":true,"rental_uris":{"android":"levelo://app?vid=bd712a64-b07a-487b-b522-7c79ec3b3302","ios":"levelo://app?vid=bd712a64-b07a-487b-b522-7c79ec3b3302"},"vehicle_type_id":"4","last_reported":1747256919,"current_range_meters":5600,"station_id":"ce4bh0h2rcd13ifvqd40","pricing_plan_id":"cebpf4jnsgd1na2vs0mg"},{"bike_id":"75bc4e83-c3de-45ba-95d5-175cdf321809","system_id":"levelo_inurba_marseille","lat":43.27941,"lon":5.41039,"is_reserved":false,"is_disabled":false,"rental_uris":{"android":"levelo://app?vid=75bc4e83-c3de-45ba-95d5-175cdf321809","ios":"levelo://app?vid=75bc4e83-c3de-45ba-95d5-175cdf321809"},"vehicle_type_id":"4","last_reported":1747256919,"current_range_meters":6000,"station_id":"ce4bhnp2rcd13ifvqh0g","pricing_plan_id":"cebpf4jnsgd1na2vs0mg"},{"bike_id":"f37b7848-b34f-4203-8cd6-ee4ac88ff930","system_id":"levelo_inurba_marseille","lat":43.23962,"lon":5.36625,"is_reserved":false,"is_disabled":false,"rental_uris":{"android":"levelo://app?vid=f37b7848-b34f-4203-8cd6-ee4ac88ff930","ios":"levelo://app?vid=f37b7848-b34f-4203-8cd6-ee4ac88ff930"},"vehicle_type_id":"4","last_reported":1747256919,"current_range_meters":6000,"station_id":"ce4bhi12rcd13ifvqfp0","pricing_plan_id":"cebpf4jnsgd1na2vs0mg"},{"bike_id":"43baa270-f4fd-45f5-9b51-6ee77c87c0f7","system_id":"levelo_inurba_marseille","lat":43.30449,"lon":5.38886,"is_reserved":false,"is_disabled":false,"rental_uris":{"android":"levelo://app?vid=43baa270-f4fd-45f5-9b51-6ee77c87c0f7","ios":"levelo://app?vid=43baa270-f4fd-45f5-9b51-6ee77c87c0f7"},"vehicle_type_id":"4","last_reported":1747256919,"current_range_meters":6000,"station_id":"ce4bgk12rcd13ifvqbi0","pricing_plan_id":"cebpf4jnsgd1na2vs0mg"},{"bike_id":"3a9dd507-dc1a-4df3-89c2-fe6832e2d99a","system_id":"levelo_inurba_marseille","lat":43.308726,"lon":5.396176,"is_reserved":false,"is_disabled":false,"rental_uris":{"android":"levelo://app?vid=3a9dd507-dc1a-4df3-89c2-fe6832e2d99a","ios":"levelo://app?vid=3a9dd507-dc1a-4df3-89c2-fe6832e2d99a"},"vehicle_type_id":"4","last_reported":1747256919,"current_range_meters":6000,"station_id":"ce4bh012rcd13ifvqcv0","pricing_plan_id":"cebpf4jnsgd1na2vs0mg"},{"bike_id":"4efa8b44-eb9d-4752-97e3-3802e8bd3c5d","system_id":"levelo_inurba_marseille","lat":43.25873,"lon":5.39899,"is_reserved":false,"is_disabled":false,"rental_uris":{"android":"levelo://app?vid=4efa8b44-eb9d-4752-97e3-3802e8bd3c5d","ios":"levelo://app?vid=4efa8b44-eb9d-4752-97e3-3802e8bd3c5d"},"vehicle_type_id":"4","last_reported":1747256919,"current_range_meters":6000,"station_id":"ce4bhl92rcd13ifvqghg","pricing_plan_id":"cebpf4jnsgd1na2vs0mg"},{"bike_id":"820781c2-91b3-4296-a92e-b37c784e5d12","system_id":"levelo_inurba_marseille","lat":43.28086,"lon":5.39652,"is_reserved":false,"is_disabled":false,"rental_uris":{"android":"levelo://app?vid=820781c2-91b3-4296-a92e-b37c784e5d12","ios":"levelo://app?vid=820781c2-91b3-4296-a92e-b37c784e5d12"},"vehicle_type_id":"4","last_reported":1747256919,"current_range_meters":6000,"station_id":"ce4bho12rcd13ifvqh2g","pricing_plan_id":"cebpf4jnsgd1na2vs0mg"},{"bike_id":"6953ca09-b1d0-473e-8b94-d568eb1a7f43","system_id":"levelo_inurba_marseille","lat":43.28839,"lon":5.37156,"is_reserved":false,"is_disabled":false,"rental_uris":{"android":"levelo://app?vid=6953ca09-b1d0-473e-8b94-d568eb1a7f43","ios":"levelo://app?vid=6953ca09-b1d0-473e-8b94-d568eb1a7f43"},"vehicle_type_id":"4","last_reported":1747256919,"current_range_meters":6000,"station_id":"","pricing_plan_id":"cebpf4jnsgd1na2vs0mg"},{"bike_id":"d1589fab-2507-42a8-891f-529309a2ec9a","system_id":"levelo_inurba_marseille","lat":43.298,"lon":5.40406,"is_reserved":false,"is_disabled":false,"rental_uris":{"android":"levelo://app?vid=d1589fab-2507-42a8-891f-529309a2ec9a","ios":"levelo://app?vid=d1589fab-2507-42a8-891f-529309a2ec9a"},"vehicle_type_id":"4","last_reported":1747256919,"current_range_meters":6400,"station_id":"ce4bh112rcd13ifvqd90","pricing_plan_id":"cebpf4jnsgd1na2vs0mg"},{"bike_id":"fbf909cb-c8fa-4bb5-adf7-8281eb136f84","system_id":"levelo_inurba_marseille","lat":43.25122,"lon":5.40315,"is_reserved":false,"is_disabled":false,"rental_uris":{"android":"levelo://app?vid=fbf909cb-c8fa-4bb5-adf7-8281eb136f84","ios":"levelo://app?vid=fbf909cb-c8fa-4bb5-adf7-8281eb136f84"},"vehicle_type_id":"4","last_reported":1747256919,"current_range_meters":6400,"station_id":"ce4bhlh2rcd13ifvqgig","pricing_plan_id":"cebpf4jnsgd1na2vs0mg"},{"bike_id":"0a632d8a-c24b-4d25-b06c-4d6aafbc4679","system_id":"levelo_inurba_marseille","lat":43.275691,"lon":5.384257,"is_reserved":false,"is_disabled":false,"rental_uris":{"android":"levelo://app?vid=0a632d8a-c24b-4d25-b06c-4d6aafbc4679","ios":"levelo://app?vid=0a632d8a-c24b-4d25-b06c-4d6aafbc4679"},"vehicle_type_id":"4","last_reported":1747256919,"current_range_meters":6400,"station_id":"ce4bhh92rcd13ifvqfi0","pricing_plan_id":"cebpf4jnsgd1na2vs0mg"},{"bike_id":"5de1e8df-cec1-47cf-b554-41f6e726d337","system_id":"levelo_inurba_marseille","lat":43.27418,"lon":5.40613,"is_reserved":false,"is_disabled":false,"rental_uris":{"android":"levelo://app?vid=5de1e8df-cec1-47cf-b554-41f6e726d337","ios":"levelo://app?vid=5de1e8df-cec1-47cf-b554-41f6e726d337"},"vehicle_type_id":"4","last_reported":1747256919,"current_range_meters":6400,"station_id":"","pricing_plan_id":"cebpf4jnsgd1na2vs0mg"},{"bike_id":"ec076c35-f86e-402a-841e-225ad69c6fd5","system_id":"levelo_inurba_marseille","lat":43.28412,"lon":5.37521,"is_reserved":false,"is_disabled":false,"rental_uris":{"android":"levelo://app?vid=ec076c35-f86e-402a-841e-225ad69c6fd5","ios":"levelo://app?vid=ec076c35-f86e-402a-841e-225ad69c6fd5"},"vehicle_type_id":"4","last_reported":1747256919,"current_range_meters":6800,"station_id":"ce4bh412rcd13ifvqds0","pricing_plan_id":"cebpf4jnsgd1na2vs0mg"},{"bike_id":"c3b77551-336c-45f0-82ca-3df7c550d12c","system_id":"levelo_inurba_marseille","lat":43.30519,"lon":5.36709,"is_reserved":false,"is_disabled":false,"rental_uris":{"android":"levelo://app?vid=c3b77551-336c-45f0-82ca-3df7c550d12c","ios":"levelo://app?vid=c3b77551-336c-45f0-82ca-3df7c550d12c"},"vehicle_type_id":"4","last_reported":1747256919,"current_range_meters":6800,"station_id":"ce4bgrp2rcd13ifvqc9g","pricing_plan_id":"cebpf4jnsgd1na2vs0mg"},{"bike_id":"8e6d6451-a415-4b2f-bc73-95ffb29ead42","system_id":"levelo_inurba_marseille","lat":43.231902,"lon":5.35554,"is_reserved":false,"is_disabled":true,"rental_uris":{"android":"levelo://app?vid=8e6d6451-a415-4b2f-bc73-95ffb29ead42","ios":"levelo://app?vid=8e6d6451-a415-4b2f-bc73-95ffb29ead42"},"vehicle_type_id":"4","last_reported":1747256919,"current_range_meters":7200,"station_id":"ce4bhu92rcd13ifvqi70","pricing_plan_id":"cebpf4jnsgd1na2vs0mg"},{"bike_id":"f85f0f02-3aed-4e45-ab3a-0ff4cf09e33e","system_id":"levelo_inurba_marseille","lat":43.28348,"lon":5.38109,"is_reserved":false,"is_disabled":false,"rental_uris":{"android":"levelo://app?vid=f85f0f02-3aed-4e45-ab3a-0ff4cf09e33e","ios":"levelo://app?vid=f85f0f02-3aed-4e45-ab3a-0ff4cf09e33e"},"vehicle_type_id":"4","last_reported":1747256919,"current_range_meters":7200,"station_id":"ce4bh412rcd13ifvqdr0","pricing_plan_id":"cebpf4jnsgd1na2vs0mg"},{"bike_id":"c2a42521-df09-43ef-ba3b-bd6e3b6ee936","system_id":"levelo_inurba_marseille","lat":43.29185,"lon":5.39291,"is_reserved":false,"is_disabled":false,"rental_uris":{"android":"levelo://app?vid=c2a42521-df09-43ef-ba3b-bd6e3b6ee936","ios":"levelo://app?vid=c2a42521-df09-43ef-ba3b-bd6e3b6ee936"},"vehicle_type_id":"4","last_reported":1747256919,"current_range_meters":7200,"station_id":"ce4bh192rcd13ifvqdd0","pricing_plan_id":"cebpf4jnsgd1na2vs0mg"},{"bike_id":"8cfecad5-6316-48d7-a472-e958d6e9e80d","system_id":"levelo_inurba_marseille","lat":43.24178,"lon":5.39727,"is_reserved":false,"is_disabled":false,"rental_uris":{"android":"levelo://app?vid=8cfecad5-6316-48d7-a472-e958d6e9e80d","ios":"levelo://app?vid=8cfecad5-6316-48d7-a472-e958d6e9e80d"},"vehicle_type_id":"4","last_reported":1747256919,"current_range_meters":7200,"station_id":"ce4bhn12rcd13ifvqgpg","pricing_plan_id":"cebpf4jnsgd1na2vs0mg"},{"bike_id":"eba5d9ca-9b4f-4558-ad40-614f484a93ec","system_id":"levelo_inurba_marseille","lat":43.2656,"lon":5.37276,"is_reserved":false,"is_disabled":false,"rental_uris":{"android":"levelo://app?vid=eba5d9ca-9b4f-4558-ad40-614f484a93ec","ios":"levelo://app?vid=eba5d9ca-9b4f-4558-ad40-614f484a93ec"},"vehicle_type_id":"4","last_reported":1747256919,"current_range_meters":7200,"station_id":"ce4bhg12rcd13ifvqf70","pricing_plan_id":"cebpf4jnsgd1na2vs0mg"},{"bike_id":"bdcd9d1f-8b92-4e97-900e-032c12b32617","system_id":"levelo_inurba_marseille","lat":43.27078,"lon":5.42279,"is_reserved":false,"is_disabled":false,"rental_uris":{"android":"levelo://app?vid=bdcd9d1f-8b92-4e97-900e-032c12b32617","ios":"levelo://app?vid=bdcd9d1f-8b92-4e97-900e-032c12b32617"},"vehicle_type_id":"4","last_reported":1747256919,"current_range_meters":8000,"station_id":"ce4bhk92rcd13ifvqgb0","pricing_plan_id":"cebpf4jnsgd1na2vs0mg"},{"bike_id":"6c5e2750-bf55-4812-bb81-a9df60873a61","system_id":"levelo_inurba_marseille","lat":43.29639,"lon":5.36185,"is_reserved":false,"is_disabled":false,"rental_uris":{"android":"levelo://app?vid=6c5e2750-bf55-4812-bb81-a9df60873a61","ios":"levelo://app?vid=6c5e2750-bf55-4812-bb81-a9df60873a61"},"vehicle_type_id":"4","last_reported":1747256919,"current_range_meters":8000,"station_id":"","pricing_plan_id":"cebpf4jnsgd1na2vs0mg"},{"bike_id":"7ddd34a0-d984-4dc0-a019-37962a1ca7c6","system_id":"levelo_inurba_marseille","lat":43.2514,"lon":5.40319,"is_reserved":false,"is_disabled":false,"rental_uris":{"android":"levelo://app?vid=7ddd34a0-d984-4dc0-a019-37962a1ca7c6","ios":"levelo://app?vid=7ddd34a0-d984-4dc0-a019-37962a1ca7c6"},"vehicle_type_id":"4","last_reported":1747256919,"current_range_meters":8000,"station_id":"ce4bhlh2rcd13ifvqgig","pricing_plan_id":"cebpf4jnsgd1na2vs0mg"},{"bike_id":"ed480fd9-1041-4ab0-9709-fb6b6dc19db2","system_id":"levelo_inurba_marseille","lat":43.27916,"lon":5.39573,"is_reserved":false,"is_disabled":false,"rental_uris":{"android":"levelo://app?vid=ed480fd9-1041-4ab0-9709-fb6b6dc19db2","ios":"levelo://app?vid=ed480fd9-1041-4ab0-9709-fb6b6dc19db2"},"vehicle_type_id":"4","last_reported":1747256919,"current_range_meters":8000,"station_id":"ce4bhf92rcd13ifvqf40","pricing_plan_id":"cebpf4jnsgd1na2vs0mg"},{"bike_id":"759f78fe-a239-48b1-8db2-ee97c9309ec7","system_id":"levelo_inurba_marseille","lat":43.30321,"lon":5.40431,"is_reserved":false,"is_disabled":false,"rental_uris":{"android":"levelo://app?vid=759f78fe-a239-48b1-8db2-ee97c9309ec7","ios":"levelo://app?vid=759f78fe-a239-48b1-8db2-ee97c9309ec7"},"vehicle_type_id":"4","last_reported":1747256919,"current_range_meters":8000,"station_id":"ce4bh012rcd13ifvqd10","pricing_plan_id":"cebpf4jnsgd1na2vs0mg"},{"bike_id":"10996585-5abe-4390-acde-d75d8f22d563","system_id":"levelo_inurba_marseille","lat":43.2416,"lon":5.3641,"is_reserved":false,"is_disabled":false,"rental_uris":{"android":"levelo://app?vid=10996585-5abe-4390-acde-d75d8f22d563","ios":"levelo://app?vid=10996585-5abe-4390-acde-d75d8f22d563"},"vehicle_type_id":"4","last_reported":1747256919,"current_range_meters":8000,"station_id":"cpo36qri1sfpv3e86is0","pricing_plan_id":"cebpf4jnsgd1na2vs0mg"},{"bike_id":"3255c134-1f0a-4de5-b001-987aef916fba","system_id":"levelo_inurba_marseille","lat":43.2407,"lon":5.37756,"is_reserved":false,"is_disabled":false,"rental_uris":{"android":"levelo://app?vid=3255c134-1f0a-4de5-b001-987aef916fba","ios":"levelo://app?vid=3255c134-1f0a-4de5-b001-987aef916fba"},"vehicle_type_id":"4","last_reported":1747256919,"current_range_meters":8000,"station_id":"ce4bhnp2rcd13ifvqgvg","pricing_plan_id":"cebpf4jnsgd1na2vs0mg"},{"bike_id":"1668fff6-b0ac-4bf0-9a6b-0393032efc9f","system_id":"levelo_inurba_marseille","lat":43.26584,"lon":5.39041,"is_reserved":false,"is_disabled":false,"rental_uris":{"android":"levelo://app?vid=1668fff6-b0ac-4bf0-9a6b-0393032efc9f","ios":"levelo://app?vid=1668fff6-b0ac-4bf0-9a6b-0393032efc9f"},"vehicle_type_id":"4","last_reported":1747256919,"current_range_meters":8400,"station_id":"ce4bhe12rcd13ifvqf30","pricing_plan_id":"cebpf4jnsgd1na2vs0mg"},{"bike_id":"f516bdec-657c-46f1-abec-ebfac75025ea","system_id":"levelo_inurba_marseille","lat":43.22937,"lon":5.35379,"is_reserved":false,"is_disabled":false,"rental_uris":{"android":"levelo://app?vid=f516bdec-657c-46f1-abec-ebfac75025ea","ios":"levelo://app?vid=f516bdec-657c-46f1-abec-ebfac75025ea"},"vehicle_type_id":"4","last_reported":1747256919,"current_range_meters":8400,"station_id":"cpo3532slgdg3j2ikp40","pricing_plan_id":"cebpf4jnsgd1na2vs0mg"},{"bike_id":"46df0c00-a602-4e40-894c-06d7f973cc51","system_id":"levelo_inurba_marseille","lat":43.28932,"lon":5.38393,"is_reserved":false,"is_disabled":false,"rental_uris":{"android":"levelo://app?vid=46df0c00-a602-4e40-894c-06d7f973cc51","ios":"levelo://app?vid=46df0c00-a602-4e40-894c-06d7f973cc51"},"vehicle_type_id":"4","last_reported":1747256919,"current_range_meters":8400,"station_id":"ce4bh612rcd13ifvqe6g","pricing_plan_id":"cebpf4jnsgd1na2vs0mg"},{"bike_id":"9eb308d7-4cc6-4bf3-94f5-69e21789ecf2","system_id":"levelo_inurba_marseille","lat":43.2464,"lon":5.38912,"is_reserved":false,"is_disabled":false,"rental_uris":{"android":"levelo://app?vid=9eb308d7-4cc6-4bf3-94f5-69e21789ecf2","ios":"levelo://app?vid=9eb308d7-4cc6-4bf3-94f5-69e21789ecf2"},"vehicle_type_id":"4","last_reported":1747256919,"current_range_meters":8400,"station_id":"ce4bhg12rcd13ifvqf60","pricing_plan_id":"cebpf4jnsgd1na2vs0mg"},{"bike_id":"42e83d77-0f4c-4405-89a0-6614f37be04f","system_id":"levelo_inurba_marseille","lat":43.29958,"lon":5.3718,"is_reserved":false,"is_disabled":false,"rental_uris":{"android":"levelo://app?vid=42e83d77-0f4c-4405-89a0-6614f37be04f","ios":"levelo://app?vid=42e83d77-0f4c-4405-89a0-6614f37be04f"},"vehicle_type_id":"4","last_reported":1747256919,"current_range_meters":8400,"station_id":"ce4bgr92rcd13ifvqc7g","pricing_plan_id":"cebpf4jnsgd1na2vs0mg"},{"bike_id":"dcc1a9b4-3a5d-4b06-9a1f-4153e388d53c","system_id":"levelo_inurba_marseille","lat":43.29442,"lon":5.397549,"is_reserved":false,"is_disabled":false,"rental_uris":{"android":"levelo://app?vid=dcc1a9b4-3a5d-4b06-9a1f-4153e388d53c","ios":"levelo://app?vid=dcc1a9b4-3a5d-4b06-9a1f-4153e388d53c"},"vehicle_type_id":"4","last_reported":1747256919,"current_range_meters":8400,"station_id":"ce4bh3h2rcd13ifvqdo0","pricing_plan_id":"cebpf4jnsgd1na2vs0mg"},{"bike_id":"374ca2b8-a567-4fd7-9e6e-adad3bee711c","system_id":"levelo_inurba_marseille","lat":43.27997,"lon":5.41651,"is_reserved":false,"is_disabled":false,"rental_uris":{"android":"levelo://app?vid=374ca2b8-a567-4fd7-9e6e-adad3bee711c","ios":"levelo://app?vid=374ca2b8-a567-4fd7-9e6e-adad3bee711c"},"vehicle_type_id":"4","last_reported":1747256919,"current_range_meters":8400,"station_id":"ce4bho12rcd13ifvqh1g","pricing_plan_id":"cebpf4jnsgd1na2vs0mg"},{"bike_id":"d2c1d47c-b855-441f-803c-abd860de7f62","system_id":"levelo_inurba_marseille","lat":43.28065,"lon":5.39618,"is_reserved":false,"is_disabled":false,"rental_uris":{"android":"levelo://app?vid=d2c1d47c-b855-441f-803c-abd860de7f62","ios":"levelo://app?vid=d2c1d47c-b855-441f-803c-abd860de7f62"},"vehicle_type_id":"4","last_reported":1747256919,"current_range_meters":8400,"station_id":"ce4bho12rcd13ifvqh2g","pricing_plan_id":"cebpf4jnsgd1na2vs0mg"},{"bike_id":"3ec3792d-1198-4b1d-8ce9-5ce6b8a7ac84","system_id":"levelo_inurba_marseille","lat":43.3064,"lon":5.40092,"is_reserved":false,"is_disabled":false,"rental_uris":{"android":"levelo://app?vid=3ec3792d-1198-4b1d-8ce9-5ce6b8a7ac84","ios":"levelo://app?vid=3ec3792d-1198-4b1d-8ce9-5ce6b8a7ac84"},"vehicle_type_id":"4","last_reported":1747256919,"current_range_meters":8800,"station_id":"ce4bh112rcd13ifvqda0","pricing_plan_id":"cebpf4jnsgd1na2vs0mg"},{"bike_id":"f872a4c2-1be7-49b4-bb7d-e1f71d921d7b","system_id":"levelo_inurba_marseille","lat":43.23189,"lon":5.39989,"is_reserved":false,"is_disabled":false,"rental_uris":{"android":"levelo://app?vid=f872a4c2-1be7-49b4-bb7d-e1f71d921d7b","ios":"levelo://app?vid=f872a4c2-1be7-49b4-bb7d-e1f71d921d7b"},"vehicle_type_id":"4","last_reported":1747256919,"current_range_meters":8800,"station_id":"ce4bhn12rcd13ifvqgqg","pricing_plan_id":"cebpf4jnsgd1na2vs0mg"},{"bike_id":"e01484b1-ac92-41ce-9e4f-42145771e00e","system_id":"levelo_inurba_marseille","lat":43.30811,"lon":5.38144,"is_reserved":false,"is_disabled":false,"rental_uris":{"android":"levelo://app?vid=e01484b1-ac92-41ce-9e4f-42145771e00e","ios":"levelo://app?vid=e01484b1-ac92-41ce-9e4f-42145771e00e"},"vehicle_type_id":"4","last_reported":1747256919,"current_range_meters":8800,"station_id":"ce4bgt12rcd13ifvqce0","pricing_plan_id":"cebpf4jnsgd1na2vs0mg"},{"bike_id":"85c3873c-939a-4e4c-a2ae-470ca56507f9","system_id":"levelo_inurba_marseille","lat":43.28709,"lon":5.37376,"is_reserved":false,"is_disabled":false,"rental_uris":{"android":"levelo://app?vid=85c3873c-939a-4e4c-a2ae-470ca56507f9","ios":"levelo://app?vid=85c3873c-939a-4e4c-a2ae-470ca56507f9"},"vehicle_type_id":"4","last_reported":1747256919,"current_range_meters":8800,"station_id":"ce4bh3p2rcd13ifvqdq0","pricing_plan_id":"cebpf4jnsgd1na2vs0mg"},{"bike_id":"2560ced1-3aa0-4b19-b9ca-c868822cb11c","system_id":"levelo_inurba_marseille","lat":43.31332,"lon":5.39708,"is_reserved":false,"is_disabled":false,"rental_uris":{"android":"levelo://app?vid=2560ced1-3aa0-4b19-b9ca-c868822cb11c","ios":"levelo://app?vid=2560ced1-3aa0-4b19-b9ca-c868822cb11c"},"vehicle_type_id":"4","last_reported":1747256919,"current_range_meters":8800,"station_id":"ce4bgvp2rcd13ifvqcu0","pricing_plan_id":"cebpf4jnsgd1na2vs0mg"},{"bike_id":"84904e41-efc3-4415-8eeb-991ab4c4f68f","system_id":"levelo_inurba_marseille","lat":43.28709,"lon":5.37395,"is_reserved":false,"is_disabled":false,"rental_uris":{"android":"levelo://app?vid=84904e41-efc3-4415-8eeb-991ab4c4f68f","ios":"levelo://app?vid=84904e41-efc3-4415-8eeb-991ab4c4f68f"},"vehicle_type_id":"4","last_reported":1747256919,"current_range_meters":8800,"station_id":"ce4bh3p2rcd13ifvqdq0","pricing_plan_id":"cebpf4jnsgd1na2vs0mg"},{"bike_id":"c64d6fbf-42ee-4bc0-a333-bb7e6abc0c5d","system_id":"levelo_inurba_marseille","lat":43.2867,"lon":5.38665,"is_reserved":false,"is_disabled":false,"rental_uris":{"android":"levelo://app?vid=c64d6fbf-42ee-4bc0-a333-bb7e6abc0c5d","ios":"levelo://app?vid=c64d6fbf-42ee-4bc0-a333-bb7e6abc0c5d"},"vehicle_type_id":"4","last_reported":1747256919,"current_range_meters":8800,"station_id":"ce4bh492rcd13ifvqdug","pricing_plan_id":"cebpf4jnsgd1na2vs0mg"},{"bike_id":"aa8db4ff-ac35-4bf2-a9fa-545ce449f88b","system_id":"levelo_inurba_marseille","lat":43.25113,"lon":5.40347,"is_reserved":false,"is_disabled":false,"rental_uris":{"android":"levelo://app?vid=aa8db4ff-ac35-4bf2-a9fa-545ce449f88b","ios":"levelo://app?vid=aa8db4ff-ac35-4bf2-a9fa-545ce449f88b"},"vehicle_type_id":"4","last_reported":1747256919,"current_range_meters":8800,"station_id":"ce4bhlh2rcd13ifvqgig","pricing_plan_id":"cebpf4jnsgd1na2vs0mg"},{"bike_id":"a1bb8e67-fad9-4c62-8ab8-6a7cd6c22b08","system_id":"levelo_inurba_marseille","lat":43.24188,"lon":5.39721,"is_reserved":false,"is_disabled":false,"rental_uris":{"android":"levelo://app?vid=a1bb8e67-fad9-4c62-8ab8-6a7cd6c22b08","ios":"levelo://app?vid=a1bb8e67-fad9-4c62-8ab8-6a7cd6c22b08"},"vehicle_type_id":"4","last_reported":1747256919,"current_range_meters":8800,"station_id":"ce4bhn12rcd13ifvqgpg","pricing_plan_id":"cebpf4jnsgd1na2vs0mg"},{"bike_id":"cff07eda-0d35-48d7-ae3d-eafcd93e64af","system_id":"levelo_inurba_marseille","lat":43.31902,"lon":5.3946,"is_reserved":false,"is_disabled":false,"rental_uris":{"android":"levelo://app?vid=cff07eda-0d35-48d7-ae3d-eafcd93e64af","ios":"levelo://app?vid=cff07eda-0d35-48d7-ae3d-eafcd93e64af"},"vehicle_type_id":"4","last_reported":1747256919,"current_range_meters":9200,"station_id":"","pricing_plan_id":"cebpf4jnsgd1na2vs0mg"},{"bike_id":"0dc8d66b-f0cb-4c51-970f-b855be3b36ca","system_id":"levelo_inurba_marseille","lat":43.26214,"lon":5.37919,"is_reserved":false,"is_disabled":true,"rental_uris":{"android":"levelo://app?vid=0dc8d66b-f0cb-4c51-970f-b855be3b36ca","ios":"levelo://app?vid=0dc8d66b-f0cb-4c51-970f-b855be3b36ca"},"vehicle_type_id":"4","last_reported":1747256919,"current_range_meters":9200,"station_id":"ce4bhjp2rcd13ifvqg90","pricing_plan_id":"cebpf4jnsgd1na2vs0mg"},{"bike_id":"3faf053c-e846-4d83-83ee-8fd51efc38bb","system_id":"levelo_inurba_marseille","lat":43.32128,"lon":5.36763,"is_reserved":false,"is_disabled":false,"rental_uris":{"android":"levelo://app?vid=3faf053c-e846-4d83-83ee-8fd51efc38bb","ios":"levelo://app?vid=3faf053c-e846-4d83-83ee-8fd51efc38bb"},"vehicle_type_id":"4","last_reported":1747256919,"current_range_meters":9200,"station_id":"ce4bhrh2rcd13ifvqhug","pricing_plan_id":"cebpf4jnsgd1na2vs0mg"},{"bike_id":"9f22b8aa-a9ca-4a2c-ab0b-0a0b10dbe182","system_id":"levelo_inurba_marseille","lat":43.32479,"lon":5.36575,"is_reserved":false,"is_disabled":false,"rental_uris":{"android":"levelo://app?vid=9f22b8aa-a9ca-4a2c-ab0b-0a0b10dbe182","ios":"levelo://app?vid=9f22b8aa-a9ca-4a2c-ab0b-0a0b10dbe182"},"vehicle_type_id":"4","last_reported":1747256919,"current_range_meters":9600,"station_id":"ce4bhs12rcd13ifvqhvg","pricing_plan_id":"cebpf4jnsgd1na2vs0mg"},{"bike_id":"ddaa0f99-41ff-4bfc-8fbc-0ab556a43c75","system_id":"levelo_inurba_marseille","lat":43.2846,"lon":5.35882,"is_reserved":false,"is_disabled":false,"rental_uris":{"android":"levelo://app?vid=ddaa0f99-41ff-4bfc-8fbc-0ab556a43c75","ios":"levelo://app?vid=ddaa0f99-41ff-4bfc-8fbc-0ab556a43c75"},"vehicle_type_id":"4","last_reported":1747256919,"current_range_meters":9600,"station_id":"ce4bhah2rcd13ifvqei0","pricing_plan_id":"cebpf4jnsgd1na2vs0mg"},{"bike_id":"b9bc8f39-83a2-416a-a343-58eccd529567","system_id":"levelo_inurba_marseille","lat":43.25114,"lon":5.40317,"is_reserved":false,"is_disabled":false,"rental_uris":{"android":"levelo://app?vid=b9bc8f39-83a2-416a-a343-58eccd529567","ios":"levelo://app?vid=b9bc8f39-83a2-416a-a343-58eccd529567"},"vehicle_type_id":"4","last_reported":1747256919,"current_range_meters":9600,"station_id":"ce4bhlh2rcd13ifvqgig","pricing_plan_id":"cebpf4jnsgd1na2vs0mg"},{"bike_id":"75696c83-d0f0-4383-b672-b0c92ab728ab","system_id":"levelo_inurba_marseille","lat":43.2921,"lon":5.3933,"is_reserved":false,"is_disabled":false,"rental_uris":{"android":"levelo://app?vid=75696c83-d0f0-4383-b672-b0c92ab728ab","ios":"levelo://app?vid=75696c83-d0f0-4383-b672-b0c92ab728ab"},"vehicle_type_id":"4","last_reported":1747256919,"current_range_meters":9600,"station_id":"ce4bh192rcd13ifvqdd0","pricing_plan_id":"cebpf4jnsgd1na2vs0mg"},{"bike_id":"7334a686-a803-4359-8857-10dc09939f33","system_id":"levelo_inurba_marseille","lat":43.262239,"lon":5.4045,"is_reserved":false,"is_disabled":false,"rental_uris":{"android":"levelo://app?vid=7334a686-a803-4359-8857-10dc09939f33","ios":"levelo://app?vid=7334a686-a803-4359-8857-10dc09939f33"},"vehicle_type_id":"4","last_reported":1747256919,"current_range_meters":9600,"station_id":"ce4bhmh2rcd13ifvqgmg","pricing_plan_id":"cebpf4jnsgd1na2vs0mg"},{"bike_id":"f8464d34-9724-44a9-83a6-c3e71bee035c","system_id":"levelo_inurba_marseille","lat":43.28074,"lon":5.3965,"is_reserved":false,"is_disabled":false,"rental_uris":{"android":"levelo://app?vid=f8464d34-9724-44a9-83a6-c3e71bee035c","ios":"levelo://app?vid=f8464d34-9724-44a9-83a6-c3e71bee035c"},"vehicle_type_id":"4","last_reported":1747256919,"current_range_meters":9600,"station_id":"ce4bho12rcd13ifvqh2g","pricing_plan_id":"cebpf4jnsgd1na2vs0mg"},{"bike_id":"e3faef6f-635a-4b6b-b2b3-c0b918604df6","system_id":"levelo_inurba_marseille","lat":43.299212,"lon":5.436771,"is_reserved":false,"is_disabled":false,"rental_uris":{"android":"levelo://app?vid=e3faef6f-635a-4b6b-b2b3-c0b918604df6","ios":"levelo://app?vid=e3faef6f-635a-4b6b-b2b3-c0b918604df6"},"vehicle_type_id":"4","last_reported":1747256919,"current_range_meters":9600,"station_id":"ce4bhpp2rcd13ifvqhfg","pricing_plan_id":"cebpf4jnsgd1na2vs0mg"},{"bike_id":"6a94c510-06e9-4819-80f4-2a1f66907200","system_id":"levelo_inurba_marseille","lat":43.24332,"lon":5.37986,"is_reserved":false,"is_disabled":false,"rental_uris":{"android":"levelo://app?vid=6a94c510-06e9-4819-80f4-2a1f66907200","ios":"levelo://app?vid=6a94c510-06e9-4819-80f4-2a1f66907200"},"vehicle_type_id":"4","last_reported":1747256919,"current_range_meters":10000,"station_id":"","pricing_plan_id":"cebpf4jnsgd1na2vs0mg"},{"bike_id":"396a44d6-78b2-4b16-b815-2e5286a0e1ae","system_id":"levelo_inurba_marseille","lat":43.29636,"lon":5.40599,"is_reserved":false,"is_disabled":false,"rental_uris":{"android":"levelo://app?vid=396a44d6-78b2-4b16-b815-2e5286a0e1ae","ios":"levelo://app?vid=396a44d6-78b2-4b16-b815-2e5286a0e1ae"},"vehicle_type_id":"4","last_reported":1747256919,"current_range_meters":10000,"station_id":"ce4bh0h2rcd13ifvqd60","pricing_plan_id":"cebpf4jnsgd1na2vs0mg"},{"bike_id":"66ad85e6-52c4-4dd0-800f-59a2eaab9c8f","system_id":"levelo_inurba_marseille","lat":43.29016,"lon":5.38131,"is_reserved":false,"is_disabled":false,"rental_uris":{"android":"levelo://app?vid=66ad85e6-52c4-4dd0-800f-59a2eaab9c8f","ios":"levelo://app?vid=66ad85e6-52c4-4dd0-800f-59a2eaab9c8f"},"vehicle_type_id":"4","last_reported":1747256919,"current_range_meters":10000,"station_id":"ce4bh4p2rcd13ifvqe1g","pricing_plan_id":"cebpf4jnsgd1na2vs0mg"},{"bike_id":"d2e26b24-dc05-434d-9157-b401505c73da","system_id":"levelo_inurba_marseille","lat":43.29027,"lon":5.38639,"is_reserved":false,"is_disabled":false,"rental_uris":{"android":"levelo://app?vid=d2e26b24-dc05-434d-9157-b401505c73da","ios":"levelo://app?vid=d2e26b24-dc05-434d-9157-b401505c73da"},"vehicle_type_id":"4","last_reported":1747256919,"current_range_meters":10000,"station_id":"ce4bh4p2rcd13ifvqe0g","pricing_plan_id":"cebpf4jnsgd1na2vs0mg"},{"bike_id":"af214813-c582-47ac-80a4-5216259c9745","system_id":"levelo_inurba_marseille","lat":43.2926,"lon":5.37622,"is_reserved":false,"is_disabled":false,"rental_uris":{"android":"levelo://app?vid=af214813-c582-47ac-80a4-5216259c9745","ios":"levelo://app?vid=af214813-c582-47ac-80a4-5216259c9745"},"vehicle_type_id":"4","last_reported":1747256919,"current_range_meters":10000,"station_id":"ce4bgi12rcd13ifvqb80","pricing_plan_id":"cebpf4jnsgd1na2vs0mg"},{"bike_id":"353541cc-311f-49fe-9a2f-e32398399634","system_id":"levelo_inurba_marseille","lat":43.30573,"lon":5.39363,"is_reserved":false,"is_disabled":false,"rental_uris":{"android":"levelo://app?vid=353541cc-311f-49fe-9a2f-e32398399634","ios":"levelo://app?vid=353541cc-311f-49fe-9a2f-e32398399634"},"vehicle_type_id":"4","last_reported":1747256919,"current_range_meters":10000,"station_id":"ce4bh0p2rcd13ifvqd80","pricing_plan_id":"cebpf4jnsgd1na2vs0mg"},{"bike_id":"1e2dda2a-24e9-4fd6-9fd3-eb9be4fb8ba1","system_id":"levelo_inurba_marseille","lat":43.29925,"lon":5.37461,"is_reserved":false,"is_disabled":false,"rental_uris":{"android":"levelo://app?vid=1e2dda2a-24e9-4fd6-9fd3-eb9be4fb8ba1","ios":"levelo://app?vid=1e2dda2a-24e9-4fd6-9fd3-eb9be4fb8ba1"},"vehicle_type_id":"4","last_reported":1747256919,"current_range_meters":10000,"station_id":"ce4bgjh2rcd13ifvqbg0","pricing_plan_id":"cebpf4jnsgd1na2vs0mg"},{"bike_id":"c069cd86-ed5e-4281-a906-c1189d1ee23b","system_id":"levelo_inurba_marseille","lat":43.29452,"lon":5.39752,"is_reserved":false,"is_disabled":false,"rental_uris":{"android":"levelo://app?vid=c069cd86-ed5e-4281-a906-c1189d1ee23b","ios":"levelo://app?vid=c069cd86-ed5e-4281-a906-c1189d1ee23b"},"vehicle_type_id":"4","last_reported":1747256919,"current_range_meters":10000,"station_id":"ce4bh3h2rcd13ifvqdo0","pricing_plan_id":"cebpf4jnsgd1na2vs0mg"},{"bike_id":"56a54840-8453-4673-8cc1-64d415eb4281","system_id":"levelo_inurba_marseille","lat":43.32361,"lon":5.38895,"is_reserved":false,"is_disabled":false,"rental_uris":{"android":"levelo://app?vid=56a54840-8453-4673-8cc1-64d415eb4281","ios":"levelo://app?vid=56a54840-8453-4673-8cc1-64d415eb4281"},"vehicle_type_id":"4","last_reported":1747256919,"current_range_meters":10000,"station_id":"ce4bhqp2rcd13ifvqhog","pricing_plan_id":"cebpf4jnsgd1na2vs0mg"},{"bike_id":"d116b1c8-5500-4ca8-9d15-947f446f13da","system_id":"levelo_inurba_marseille","lat":43.313665,"lon":5.38503,"is_reserved":false,"is_disabled":false,"rental_uris":{"android":"levelo://app?vid=d116b1c8-5500-4ca8-9d15-947f446f13da","ios":"levelo://app?vid=d116b1c8-5500-4ca8-9d15-947f446f13da"},"vehicle_type_id":"4","last_reported":1747256919,"current_range_meters":10000,"station_id":"ce4bgt92rcd13ifvqcf0","pricing_plan_id":"cebpf4jnsgd1na2vs0mg"},{"bike_id":"74e087de-c735-4d96-8544-ac3e5274d091","system_id":"levelo_inurba_marseille","lat":43.31713,"lon":5.43707,"is_reserved":false,"is_disabled":false,"rental_uris":{"android":"levelo://app?vid=74e087de-c735-4d96-8544-ac3e5274d091","ios":"levelo://app?vid=74e087de-c735-4d96-8544-ac3e5274d091"},"vehicle_type_id":"4","last_reported":1747256919,"current_range_meters":10000,"station_id":"ce4bhp92rcd13ifvqhcg","pricing_plan_id":"cebpf4jnsgd1na2vs0mg"},{"bike_id":"01cc56f2-e0a1-494c-a32a-c75065ce15de","system_id":"levelo_inurba_marseille","lat":43.3235,"lon":5.38903,"is_reserved":false,"is_disabled":false,"rental_uris":{"android":"levelo://app?vid=01cc56f2-e0a1-494c-a32a-c75065ce15de","ios":"levelo://app?vid=01cc56f2-e0a1-494c-a32a-c75065ce15de"},"vehicle_type_id":"4","last_reported":1747256919,"current_range_meters":10800,"station_id":"ce4bhqp2rcd13ifvqhog","pricing_plan_id":"cebpf4jnsgd1na2vs0mg"},{"bike_id":"d8f09606-f3e1-401b-80ca-0196f668477a","system_id":"levelo_inurba_marseille","lat":43.30186,"lon":5.386,"is_reserved":false,"is_disabled":false,"rental_uris":{"android":"levelo://app?vid=d8f09606-f3e1-401b-80ca-0196f668477a","ios":"levelo://app?vid=d8f09606-f3e1-401b-80ca-0196f668477a"},"vehicle_type_id":"4","last_reported":1747256919,"current_range_meters":10800,"station_id":"","pricing_plan_id":"cebpf4jnsgd1na2vs0mg"},{"bike_id":"18723a66-c97e-4014-a07c-7d79a785c1b9","system_id":"levelo_inurba_marseille","lat":43.317809,"lon":5.390623,"is_reserved":false,"is_disabled":false,"rental_uris":{"android":"levelo://app?vid=18723a66-c97e-4014-a07c-7d79a785c1b9","ios":"levelo://app?vid=18723a66-c97e-4014-a07c-7d79a785c1b9"},"vehicle_type_id":"4","last_reported":1747256919,"current_range_meters":10800,"station_id":"ce4bhqp2rcd13ifvqhng","pricing_plan_id":"cebpf4jnsgd1na2vs0mg"},{"bike_id":"8e54ff22-0290-41ed-84bb-d24b04b30756","system_id":"levelo_inurba_marseille","lat":43.29053,"lon":5.39987,"is_reserved":false,"is_disabled":false,"rental_uris":{"android":"levelo://app?vid=8e54ff22-0290-41ed-84bb-d24b04b30756","ios":"levelo://app?vid=8e54ff22-0290-41ed-84bb-d24b04b30756"},"vehicle_type_id":"4","last_reported":1747256919,"current_range_meters":10800,"station_id":"ce4bh392rcd13ifvqdm0","pricing_plan_id":"cebpf4jnsgd1na2vs0mg"},{"bike_id":"d3c3d8fd-847e-486d-b4bb-d549572408c2","system_id":"levelo_inurba_marseille","lat":43.29224,"lon":5.3642,"is_reserved":false,"is_disabled":false,"rental_uris":{"android":"levelo://app?vid=d3c3d8fd-847e-486d-b4bb-d549572408c2","ios":"levelo://app?vid=d3c3d8fd-847e-486d-b4bb-d549572408c2"},"vehicle_type_id":"4","last_reported":1747256919,"current_range_meters":10800,"station_id":"","pricing_plan_id":"cebpf4jnsgd1na2vs0mg"},{"bike_id":"0879c7af-989f-4e68-9fd6-d134be2b3e7f","system_id":"levelo_inurba_marseille","lat":43.25939,"lon":5.40892,"is_reserved":false,"is_disabled":false,"rental_uris":{"android":"levelo://app?vid=0879c7af-989f-4e68-9fd6-d134be2b3e7f","ios":"levelo://app?vid=0879c7af-989f-4e68-9fd6-d134be2b3e7f"},"vehicle_type_id":"4","last_reported":1747256919,"current_range_meters":10800,"station_id":"ce4bhm92rcd13ifvqglg","pricing_plan_id":"cebpf4jnsgd1na2vs0mg"},{"bike_id":"58759d40-402f-44ad-a9ec-ef71c6f52c01","system_id":"levelo_inurba_marseille","lat":43.301,"lon":5.37832,"is_reserved":false,"is_disabled":false,"rental_uris":{"android":"levelo://app?vid=58759d40-402f-44ad-a9ec-ef71c6f52c01","ios":"levelo://app?vid=58759d40-402f-44ad-a9ec-ef71c6f52c01"},"vehicle_type_id":"4","last_reported":1747256919,"current_range_meters":10800,"station_id":"","pricing_plan_id":"cebpf4jnsgd1na2vs0mg"},{"bike_id":"12a2b4f0-947e-45ce-8f21-181f38cdad5d","system_id":"levelo_inurba_marseille","lat":43.27943,"lon":5.41045,"is_reserved":false,"is_disabled":false,"rental_uris":{"android":"levelo://app?vid=12a2b4f0-947e-45ce-8f21-181f38cdad5d","ios":"levelo://app?vid=12a2b4f0-947e-45ce-8f21-181f38cdad5d"},"vehicle_type_id":"4","last_reported":1747256919,"current_range_meters":10800,"station_id":"ce4bhnp2rcd13ifvqh0g","pricing_plan_id":"cebpf4jnsgd1na2vs0mg"},{"bike_id":"0786f947-1387-43c1-8d60-229140e67e3d","system_id":"levelo_inurba_marseille","lat":43.25136,"lon":5.40387,"is_reserved":false,"is_disabled":false,"rental_uris":{"android":"levelo://app?vid=0786f947-1387-43c1-8d60-229140e67e3d","ios":"levelo://app?vid=0786f947-1387-43c1-8d60-229140e67e3d"},"vehicle_type_id":"4","last_reported":1747256919,"current_range_meters":11200,"station_id":"","pricing_plan_id":"cebpf4jnsgd1na2vs0mg"},{"bike_id":"3bb01f8f-50f7-474f-883f-948400a36ea5","system_id":"levelo_inurba_marseille","lat":43.32613,"lon":5.43003,"is_reserved":false,"is_disabled":false,"rental_uris":{"android":"levelo://app?vid=3bb01f8f-50f7-474f-883f-948400a36ea5","ios":"levelo://app?vid=3bb01f8f-50f7-474f-883f-948400a36ea5"},"vehicle_type_id":"4","last_reported":1747256919,"current_range_meters":11200,"station_id":"","pricing_plan_id":"cebpf4jnsgd1na2vs0mg"},{"bike_id":"4d83a49d-a4f7-4140-bff3-bb3633e6dccc","system_id":"levelo_inurba_marseille","lat":43.32373,"lon":5.38884,"is_reserved":false,"is_disabled":false,"rental_uris":{"android":"levelo://app?vid=4d83a49d-a4f7-4140-bff3-bb3633e6dccc","ios":"levelo://app?vid=4d83a49d-a4f7-4140-bff3-bb3633e6dccc"},"vehicle_type_id":"4","last_reported":1747256919,"current_range_meters":11200,"station_id":"ce4bhqp2rcd13ifvqhog","pricing_plan_id":"cebpf4jnsgd1na2vs0mg"},{"bike_id":"4fe2f449-c5a7-45e1-b3bb-1b2caf94c1a0","system_id":"levelo_inurba_marseille","lat":43.30534,"lon":5.36554,"is_reserved":false,"is_disabled":false,"rental_uris":{"android":"levelo://app?vid=4fe2f449-c5a7-45e1-b3bb-1b2caf94c1a0","ios":"levelo://app?vid=4fe2f449-c5a7-45e1-b3bb-1b2caf94c1a0"},"vehicle_type_id":"4","last_reported":1747256919,"current_range_meters":11200,"station_id":"ce4bgs12rcd13ifvqcag","pricing_plan_id":"cebpf4jnsgd1na2vs0mg"},{"bike_id":"9ed958f3-92af-4909-92cd-506813e7de5e","system_id":"levelo_inurba_marseille","lat":43.31999,"lon":5.38165,"is_reserved":false,"is_disabled":false,"rental_uris":{"android":"levelo://app?vid=9ed958f3-92af-4909-92cd-506813e7de5e","ios":"levelo://app?vid=9ed958f3-92af-4909-92cd-506813e7de5e"},"vehicle_type_id":"4","last_reported":1747256919,"current_range_meters":11600,"station_id":"ce4bhr12rcd13ifvqhpg","pricing_plan_id":"cebpf4jnsgd1na2vs0mg"},{"bike_id":"8321ca4b-d044-4ce8-9848-2a740562d0ea","system_id":"levelo_inurba_marseille","lat":43.308,"lon":5.38156,"is_reserved":false,"is_disabled":false,"rental_uris":{"android":"levelo://app?vid=8321ca4b-d044-4ce8-9848-2a740562d0ea","ios":"levelo://app?vid=8321ca4b-d044-4ce8-9848-2a740562d0ea"},"vehicle_type_id":"4","last_reported":1747256919,"current_range_meters":11600,"station_id":"ce4bgt12rcd13ifvqce0","pricing_plan_id":"cebpf4jnsgd1na2vs0mg"},{"bike_id":"d18abf2b-04c2-4fea-a9fa-a3c6186941fb","system_id":"levelo_inurba_marseille","lat":43.26502,"lon":5.39539,"is_reserved":false,"is_disabled":false,"rental_uris":{"android":"levelo://app?vid=d18abf2b-04c2-4fea-a9fa-a3c6186941fb","ios":"levelo://app?vid=d18abf2b-04c2-4fea-a9fa-a3c6186941fb"},"vehicle_type_id":"4","last_reported":1747256919,"current_range_meters":11600,"station_id":"ce4bhi12rcd13ifvqfq0","pricing_plan_id":"cebpf4jnsgd1na2vs0mg"},{"bike_id":"4a1605c8-9596-4ecb-94b7-2b583c66ecdd","system_id":"levelo_inurba_marseille","lat":43.2467,"lon":5.381,"is_reserved":false,"is_disabled":false,"rental_uris":{"android":"levelo://app?vid=4a1605c8-9596-4ecb-94b7-2b583c66ecdd","ios":"levelo://app?vid=4a1605c8-9596-4ecb-94b7-2b583c66ecdd"},"vehicle_type_id":"4","last_reported":1747256919,"current_range_meters":12000,"station_id":"","pricing_plan_id":"cebpf4jnsgd1na2vs0mg"},{"bike_id":"a5766115-283c-4c7e-8a21-07a4921363ba","system_id":"levelo_inurba_marseille","lat":43.29882,"lon":5.38915,"is_reserved":false,"is_disabled":false,"rental_uris":{"android":"levelo://app?vid=a5766115-283c-4c7e-8a21-07a4921363ba","ios":"levelo://app?vid=a5766115-283c-4c7e-8a21-07a4921363ba"},"vehicle_type_id":"4","last_reported":1747256919,"current_range_meters":12000,"station_id":"ce4bh392rcd13ifvqdl0","pricing_plan_id":"cebpf4jnsgd1na2vs0mg"},{"bike_id":"0d2e3cf8-4d60-4128-9acb-c18ee2c28e38","system_id":"levelo_inurba_marseille","lat":43.29262,"lon":5.40904,"is_reserved":false,"is_disabled":false,"rental_uris":{"android":"levelo://app?vid=0d2e3cf8-4d60-4128-9acb-c18ee2c28e38","ios":"levelo://app?vid=0d2e3cf8-4d60-4128-9acb-c18ee2c28e38"},"vehicle_type_id":"4","last_reported":1747256919,"current_range_meters":12000,"station_id":"ce4bh192rcd13ifvqdc0","pricing_plan_id":"cebpf4jnsgd1na2vs0mg"},{"bike_id":"1b8fcf53-a929-4878-a714-5e795b4cbebb","system_id":"levelo_inurba_marseille","lat":43.28705,"lon":5.4,"is_reserved":false,"is_disabled":false,"rental_uris":{"android":"levelo://app?vid=1b8fcf53-a929-4878-a714-5e795b4cbebb","ios":"levelo://app?vid=1b8fcf53-a929-4878-a714-5e795b4cbebb"},"vehicle_type_id":"4","last_reported":1747256919,"current_range_meters":12000,"station_id":"ce4bho92rcd13ifvqh3g","pricing_plan_id":"cebpf4jnsgd1na2vs0mg"},{"bike_id":"f7a017cb-ca94-4b48-b2ec-145694e6c3b1","system_id":"levelo_inurba_marseille","lat":43.32485,"lon":5.36566,"is_reserved":false,"is_disabled":false,"rental_uris":{"android":"levelo://app?vid=f7a017cb-ca94-4b48-b2ec-145694e6c3b1","ios":"levelo://app?vid=f7a017cb-ca94-4b48-b2ec-145694e6c3b1"},"vehicle_type_id":"4","last_reported":1747256919,"current_range_meters":12000,"station_id":"ce4bhs12rcd13ifvqhvg","pricing_plan_id":"cebpf4jnsgd1na2vs0mg"},{"bike_id":"0ee57cd3-b290-46af-a35a-6f306772e452","system_id":"levelo_inurba_marseille","lat":43.30662,"lon":5.40273,"is_reserved":false,"is_disabled":false,"rental_uris":{"android":"levelo://app?vid=0ee57cd3-b290-46af-a35a-6f306772e452","ios":"levelo://app?vid=0ee57cd3-b290-46af-a35a-6f306772e452"},"vehicle_type_id":"4","last_reported":1747256919,"current_range_meters":12000,"station_id":"","pricing_plan_id":"cebpf4jnsgd1na2vs0mg"},{"bike_id":"1923dd1e-d8a4-4534-a36b-e83150570486","system_id":"levelo_inurba_marseille","lat":43.251159,"lon":5.403184,"is_reserved":false,"is_disabled":false,"rental_uris":{"android":"levelo://app?vid=1923dd1e-d8a4-4534-a36b-e83150570486","ios":"levelo://app?vid=1923dd1e-d8a4-4534-a36b-e83150570486"},"vehicle_type_id":"4","last_reported":1747256919,"current_range_meters":12000,"station_id":"ce4bhlh2rcd13ifvqgig","pricing_plan_id":"cebpf4jnsgd1na2vs0mg"},{"bike_id":"d4abc0f4-75e6-4c24-ab00-0660a88a0c8c","system_id":"levelo_inurba_marseille","lat":43.25115,"lon":5.40316,"is_reserved":false,"is_disabled":false,"rental_uris":{"android":"levelo://app?vid=d4abc0f4-75e6-4c24-ab00-0660a88a0c8c","ios":"levelo://app?vid=d4abc0f4-75e6-4c24-ab00-0660a88a0c8c"},"vehicle_type_id":"4","last_reported":1747256919,"current_range_meters":12400,"station_id":"ce4bhlh2rcd13ifvqgig","pricing_plan_id":"cebpf4jnsgd1na2vs0mg"},{"bike_id":"d3a1c825-461c-4875-9f67-a6d33491348f","system_id":"levelo_inurba_marseille","lat":43.32336,"lon":5.40612,"is_reserved":false,"is_disabled":false,"rental_uris":{"android":"levelo://app?vid=d3a1c825-461c-4875-9f67-a6d33491348f","ios":"levelo://app?vid=d3a1c825-461c-4875-9f67-a6d33491348f"},"vehicle_type_id":"4","last_reported":1747256919,"current_range_meters":12400,"station_id":"ce4bhq92rcd13ifvqhjg","pricing_plan_id":"cebpf4jnsgd1na2vs0mg"},{"bike_id":"128b1567-3883-4e9a-a6b3-03257d52e9b8","system_id":"levelo_inurba_marseille","lat":43.32489,"lon":5.36555,"is_reserved":false,"is_disabled":false,"rental_uris":{"android":"levelo://app?vid=128b1567-3883-4e9a-a6b3-03257d52e9b8","ios":"levelo://app?vid=128b1567-3883-4e9a-a6b3-03257d52e9b8"},"vehicle_type_id":"4","last_reported":1747256919,"current_range_meters":12400,"station_id":"ce4bhs12rcd13ifvqhvg","pricing_plan_id":"cebpf4jnsgd1na2vs0mg"},{"bike_id":"a927d1bc-b619-414d-8814-850ab7668aca","system_id":"levelo_inurba_marseille","lat":43.2885,"lon":5.39354,"is_reserved":false,"is_disabled":true,"rental_uris":{"android":"levelo://app?vid=a927d1bc-b619-414d-8814-850ab7668aca","ios":"levelo://app?vid=a927d1bc-b619-414d-8814-850ab7668aca"},"vehicle_type_id":"4","last_reported":1747256919,"current_range_meters":12400,"station_id":"ce4bh2p2rcd13ifvqdi0","pricing_plan_id":"cebpf4jnsgd1na2vs0mg"},{"bike_id":"c4153ec7-f3be-465d-b284-17c2cab0dc87","system_id":"levelo_inurba_marseille","lat":43.31728,"lon":5.42398,"is_reserved":false,"is_disabled":false,"rental_uris":{"android":"levelo://app?vid=c4153ec7-f3be-465d-b284-17c2cab0dc87","ios":"levelo://app?vid=c4153ec7-f3be-465d-b284-17c2cab0dc87"},"vehicle_type_id":"4","last_reported":1747256919,"current_range_meters":12400,"station_id":"ce4bhp92rcd13ifvqhbg","pricing_plan_id":"cebpf4jnsgd1na2vs0mg"},{"bike_id":"5abc2be0-fe06-42cb-b7be-f3234fd7c9b6","system_id":"levelo_inurba_marseille","lat":43.28416,"lon":5.37522,"is_reserved":false,"is_disabled":false,"rental_uris":{"android":"levelo://app?vid=5abc2be0-fe06-42cb-b7be-f3234fd7c9b6","ios":"levelo://app?vid=5abc2be0-fe06-42cb-b7be-f3234fd7c9b6"},"vehicle_type_id":"4","last_reported":1747256919,"current_range_meters":12400,"station_id":"ce4bh412rcd13ifvqds0","pricing_plan_id":"cebpf4jnsgd1na2vs0mg"},{"bike_id":"b6d31a98-3b69-4971-8c12-cf955836ed52","system_id":"levelo_inurba_marseille","lat":43.28106,"lon":5.37836,"is_reserved":false,"is_disabled":false,"rental_uris":{"android":"levelo://app?vid=b6d31a98-3b69-4971-8c12-cf955836ed52","ios":"levelo://app?vid=b6d31a98-3b69-4971-8c12-cf955836ed52"},"vehicle_type_id":"4","last_reported":1747256919,"current_range_meters":12400,"station_id":"ce4bha12rcd13ifvqee0","pricing_plan_id":"cebpf4jnsgd1na2vs0mg"},{"bike_id":"17d57f58-ffb0-4d77-bbe5-7f462887ac74","system_id":"levelo_inurba_marseille","lat":43.2419,"lon":5.39707,"is_reserved":false,"is_disabled":false,"rental_uris":{"android":"levelo://app?vid=17d57f58-ffb0-4d77-bbe5-7f462887ac74","ios":"levelo://app?vid=17d57f58-ffb0-4d77-bbe5-7f462887ac74"},"vehicle_type_id":"4","last_reported":1747256919,"current_range_meters":12400,"station_id":"ce4bhn12rcd13ifvqgpg","pricing_plan_id":"cebpf4jnsgd1na2vs0mg"},{"bike_id":"0864dc9a-3510-4f6a-87ea-4d83f66cb44e","system_id":"levelo_inurba_marseille","lat":43.30952,"lon":5.3903,"is_reserved":false,"is_disabled":false,"rental_uris":{"android":"levelo://app?vid=0864dc9a-3510-4f6a-87ea-4d83f66cb44e","ios":"levelo://app?vid=0864dc9a-3510-4f6a-87ea-4d83f66cb44e"},"vehicle_type_id":"4","last_reported":1747256919,"current_range_meters":12800,"station_id":"ce4bgup2rcd13ifvqco0","pricing_plan_id":"cebpf4jnsgd1na2vs0mg"},{"bike_id":"ee613623-31e1-44c0-961e-7df0445326d3","system_id":"levelo_inurba_marseille","lat":43.2845,"lon":5.35896,"is_reserved":false,"is_disabled":false,"rental_uris":{"android":"levelo://app?vid=ee613623-31e1-44c0-961e-7df0445326d3","ios":"levelo://app?vid=ee613623-31e1-44c0-961e-7df0445326d3"},"vehicle_type_id":"4","last_reported":1747256919,"current_range_meters":12800,"station_id":"ce4bhah2rcd13ifvqei0","pricing_plan_id":"cebpf4jnsgd1na2vs0mg"},{"bike_id":"29f5dfc5-9c18-43f8-881c-e861a55d617c","system_id":"levelo_inurba_marseille","lat":43.26937,"lon":5.40258,"is_reserved":false,"is_disabled":false,"rental_uris":{"android":"levelo://app?vid=29f5dfc5-9c18-43f8-881c-e861a55d617c","ios":"levelo://app?vid=29f5dfc5-9c18-43f8-881c-e861a55d617c"},"vehicle_type_id":"4","last_reported":1747256919,"current_range_meters":12800,"station_id":"cjm6bp8fraef2m0cb0m0","pricing_plan_id":"cebpf4jnsgd1na2vs0mg"},{"bike_id":"c77b1570-4df9-4e22-80cf-fcdd1cc11fea","system_id":"levelo_inurba_marseille","lat":43.284424,"lon":5.392023,"is_reserved":false,"is_disabled":false,"rental_uris":{"android":"levelo://app?vid=c77b1570-4df9-4e22-80cf-fcdd1cc11fea","ios":"levelo://app?vid=c77b1570-4df9-4e22-80cf-fcdd1cc11fea"},"vehicle_type_id":"4","last_reported":1747256919,"current_range_meters":12800,"station_id":"ce4bhoh2rcd13ifvqh5g","pricing_plan_id":"cebpf4jnsgd1na2vs0mg"},{"bike_id":"ab806e5a-6ddc-4a46-b9b7-5b0e08236007","system_id":"levelo_inurba_marseille","lat":43.28702,"lon":5.374,"is_reserved":false,"is_disabled":false,"rental_uris":{"android":"levelo://app?vid=ab806e5a-6ddc-4a46-b9b7-5b0e08236007","ios":"levelo://app?vid=ab806e5a-6ddc-4a46-b9b7-5b0e08236007"},"vehicle_type_id":"4","last_reported":1747256919,"current_range_meters":12800,"station_id":"ce4bh3p2rcd13ifvqdq0","pricing_plan_id":"cebpf4jnsgd1na2vs0mg"},{"bike_id":"f6b536ed-d227-4e86-a06e-dcd78a93c988","system_id":"levelo_inurba_marseille","lat":43.28932,"lon":5.38386,"is_reserved":false,"is_disabled":false,"rental_uris":{"android":"levelo://app?vid=f6b536ed-d227-4e86-a06e-dcd78a93c988","ios":"levelo://app?vid=f6b536ed-d227-4e86-a06e-dcd78a93c988"},"vehicle_type_id":"4","last_reported":1747256919,"current_range_meters":13600,"station_id":"ce4bh612rcd13ifvqe6g","pricing_plan_id":"cebpf4jnsgd1na2vs0mg"},{"bike_id":"e3549a3f-8a34-4ee4-b160-454a51234f3d","system_id":"levelo_inurba_marseille","lat":43.295092,"lon":5.388893,"is_reserved":false,"is_disabled":false,"rental_uris":{"android":"levelo://app?vid=e3549a3f-8a34-4ee4-b160-454a51234f3d","ios":"levelo://app?vid=e3549a3f-8a34-4ee4-b160-454a51234f3d"},"vehicle_type_id":"4","last_reported":1747256919,"current_range_meters":13600,"station_id":"ce4bh3p2rcd13ifvqdp0","pricing_plan_id":"cebpf4jnsgd1na2vs0mg"},{"bike_id":"aa9c06a6-ff13-46d8-a8b8-e1851805f0cc","system_id":"levelo_inurba_marseille","lat":43.32368,"lon":5.38887,"is_reserved":false,"is_disabled":false,"rental_uris":{"android":"levelo://app?vid=aa9c06a6-ff13-46d8-a8b8-e1851805f0cc","ios":"levelo://app?vid=aa9c06a6-ff13-46d8-a8b8-e1851805f0cc"},"vehicle_type_id":"4","last_reported":1747256919,"current_range_meters":13600,"station_id":"ce4bhqp2rcd13ifvqhog","pricing_plan_id":"cebpf4jnsgd1na2vs0mg"},{"bike_id":"f2fa3917-52e2-462b-8250-01097feb44e5","system_id":"levelo_inurba_marseille","lat":43.241879,"lon":5.397341,"is_reserved":false,"is_disabled":false,"rental_uris":{"android":"levelo://app?vid=f2fa3917-52e2-462b-8250-01097feb44e5","ios":"levelo://app?vid=f2fa3917-52e2-462b-8250-01097feb44e5"},"vehicle_type_id":"4","last_reported":1747256919,"current_range_meters":14000,"station_id":"ce4bhn12rcd13ifvqgpg","pricing_plan_id":"cebpf4jnsgd1na2vs0mg"},{"bike_id":"36c73654-19bc-443a-9132-efdce1bc0516","system_id":"levelo_inurba_marseille","lat":43.31175,"lon":5.38711,"is_reserved":false,"is_disabled":false,"rental_uris":{"android":"levelo://app?vid=36c73654-19bc-443a-9132-efdce1bc0516","ios":"levelo://app?vid=36c73654-19bc-443a-9132-efdce1bc0516"},"vehicle_type_id":"4","last_reported":1747256919,"current_range_meters":14000,"station_id":"ce4bgv12rcd13ifvqcp0","pricing_plan_id":"cebpf4jnsgd1na2vs0mg"},{"bike_id":"f4a29ccd-2645-41bd-91b7-57baafbe4e16","system_id":"levelo_inurba_marseille","lat":43.28999,"lon":5.35627,"is_reserved":false,"is_disabled":true,"rental_uris":{"android":"levelo://app?vid=f4a29ccd-2645-41bd-91b7-57baafbe4e16","ios":"levelo://app?vid=f4a29ccd-2645-41bd-91b7-57baafbe4e16"},"vehicle_type_id":"4","last_reported":1747256919,"current_range_meters":14000,"station_id":"ce4bhb92rcd13ifvqen0","pricing_plan_id":"cebpf4jnsgd1na2vs0mg"},{"bike_id":"cf04a449-8245-40e5-866f-abb00b28cc6f","system_id":"levelo_inurba_marseille","lat":43.22931,"lon":5.35373,"is_reserved":false,"is_disabled":false,"rental_uris":{"android":"levelo://app?vid=cf04a449-8245-40e5-866f-abb00b28cc6f","ios":"levelo://app?vid=cf04a449-8245-40e5-866f-abb00b28cc6f"},"vehicle_type_id":"4","last_reported":1747256919,"current_range_meters":14000,"station_id":"cpo3532slgdg3j2ikp40","pricing_plan_id":"cebpf4jnsgd1na2vs0mg"},{"bike_id":"8c7308bf-84fd-4edb-9b86-07fbeaf5e51b","system_id":"levelo_inurba_marseille","lat":43.31712,"lon":5.42408,"is_reserved":false,"is_disabled":false,"rental_uris":{"android":"levelo://app?vid=8c7308bf-84fd-4edb-9b86-07fbeaf5e51b","ios":"levelo://app?vid=8c7308bf-84fd-4edb-9b86-07fbeaf5e51b"},"vehicle_type_id":"4","last_reported":1747256919,"current_range_meters":14000,"station_id":"ce4bhp92rcd13ifvqhbg","pricing_plan_id":"cebpf4jnsgd1na2vs0mg"},{"bike_id":"de07a4fe-1cb6-4a36-a7a0-8ebd55175d46","system_id":"levelo_inurba_marseille","lat":43.2894,"lon":5.39621,"is_reserved":false,"is_disabled":false,"rental_uris":{"android":"levelo://app?vid=de07a4fe-1cb6-4a36-a7a0-8ebd55175d46","ios":"levelo://app?vid=de07a4fe-1cb6-4a36-a7a0-8ebd55175d46"},"vehicle_type_id":"4","last_reported":1747256919,"current_range_meters":14400,"station_id":"ce4bh3h2rcd13ifvqdn0","pricing_plan_id":"cebpf4jnsgd1na2vs0mg"},{"bike_id":"2fbf9af1-2df2-4aeb-8b20-a4c95e106089","system_id":"levelo_inurba_marseille","lat":43.240685,"lon":5.377586,"is_reserved":false,"is_disabled":false,"rental_uris":{"android":"levelo://app?vid=2fbf9af1-2df2-4aeb-8b20-a4c95e106089","ios":"levelo://app?vid=2fbf9af1-2df2-4aeb-8b20-a4c95e106089"},"vehicle_type_id":"4","last_reported":1747256919,"current_range_meters":14400,"station_id":"ce4bhnp2rcd13ifvqgvg","pricing_plan_id":"cebpf4jnsgd1na2vs0mg"},{"bike_id":"f3e7022b-4ef1-4fe9-b368-f11e5afc12e9","system_id":"levelo_inurba_marseille","lat":43.29444,"lon":5.39763,"is_reserved":false,"is_disabled":false,"rental_uris":{"android":"levelo://app?vid=f3e7022b-4ef1-4fe9-b368-f11e5afc12e9","ios":"levelo://app?vid=f3e7022b-4ef1-4fe9-b368-f11e5afc12e9"},"vehicle_type_id":"4","last_reported":1747256919,"current_range_meters":14400,"station_id":"ce4bh3h2rcd13ifvqdo0","pricing_plan_id":"cebpf4jnsgd1na2vs0mg"},{"bike_id":"8619acca-ecd0-4357-bf7c-0d59e9a78ed8","system_id":"levelo_inurba_marseille","lat":43.2924,"lon":5.37615,"is_reserved":false,"is_disabled":false,"rental_uris":{"android":"levelo://app?vid=8619acca-ecd0-4357-bf7c-0d59e9a78ed8","ios":"levelo://app?vid=8619acca-ecd0-4357-bf7c-0d59e9a78ed8"},"vehicle_type_id":"4","last_reported":1747256919,"current_range_meters":14400,"station_id":"ce4bgi12rcd13ifvqb80","pricing_plan_id":"cebpf4jnsgd1na2vs0mg"},{"bike_id":"00272400-f2c5-4dc9-afcb-637164d4a452","system_id":"levelo_inurba_marseille","lat":43.30589,"lon":5.39356,"is_reserved":false,"is_disabled":false,"rental_uris":{"android":"levelo://app?vid=00272400-f2c5-4dc9-afcb-637164d4a452","ios":"levelo://app?vid=00272400-f2c5-4dc9-afcb-637164d4a452"},"vehicle_type_id":"4","last_reported":1747256919,"current_range_meters":14400,"station_id":"ce4bh0p2rcd13ifvqd80","pricing_plan_id":"cebpf4jnsgd1na2vs0mg"},{"bike_id":"fea1e9ed-f077-45a7-b851-5a7207e6b1c2","system_id":"levelo_inurba_marseille","lat":43.30304,"lon":5.39219,"is_reserved":false,"is_disabled":false,"rental_uris":{"android":"levelo://app?vid=fea1e9ed-f077-45a7-b851-5a7207e6b1c2","ios":"levelo://app?vid=fea1e9ed-f077-45a7-b851-5a7207e6b1c2"},"vehicle_type_id":"4","last_reported":1747256919,"current_range_meters":14400,"station_id":"ce4bgkh2rcd13ifvqbk0","pricing_plan_id":"cebpf4jnsgd1na2vs0mg"},{"bike_id":"251e065c-d743-4244-8459-843930713d33","system_id":"levelo_inurba_marseille","lat":43.24851,"lon":5.37429,"is_reserved":false,"is_disabled":false,"rental_uris":{"android":"levelo://app?vid=251e065c-d743-4244-8459-843930713d33","ios":"levelo://app?vid=251e065c-d743-4244-8459-843930713d33"},"vehicle_type_id":"4","last_reported":1747256919,"current_range_meters":14400,"station_id":"ce4bhgh2rcd13ifvqfb0","pricing_plan_id":"cebpf4jnsgd1na2vs0mg"},{"bike_id":"02a037ca-d5ae-47aa-b051-15ba854bdba7","system_id":"levelo_inurba_marseille","lat":43.30315,"lon":5.36911,"is_reserved":false,"is_disabled":false,"rental_uris":{"android":"levelo://app?vid=02a037ca-d5ae-47aa-b051-15ba854bdba7","ios":"levelo://app?vid=02a037ca-d5ae-47aa-b051-15ba854bdba7"},"vehicle_type_id":"4","last_reported":1747256919,"current_range_meters":14400,"station_id":"ce4bgqh2rcd13ifvqc5g","pricing_plan_id":"cebpf4jnsgd1na2vs0mg"},{"bike_id":"81e24a3f-3ffa-416f-9d89-cce672cb7eab","system_id":"levelo_inurba_marseille","lat":43.25721,"lon":5.41112,"is_reserved":false,"is_disabled":false,"rental_uris":{"android":"levelo://app?vid=81e24a3f-3ffa-416f-9d89-cce672cb7eab","ios":"levelo://app?vid=81e24a3f-3ffa-416f-9d89-cce672cb7eab"},"vehicle_type_id":"4","last_reported":1747256919,"current_range_meters":14800,"station_id":"ce4bhkp2rcd13ifvqgd0","pricing_plan_id":"cebpf4jnsgd1na2vs0mg"},{"bike_id":"15b78ca4-8eda-4012-b392-8e1c04a2c79c","system_id":"levelo_inurba_marseille","lat":43.27991,"lon":5.41665,"is_reserved":false,"is_disabled":true,"rental_uris":{"android":"levelo://app?vid=15b78ca4-8eda-4012-b392-8e1c04a2c79c","ios":"levelo://app?vid=15b78ca4-8eda-4012-b392-8e1c04a2c79c"},"vehicle_type_id":"4","last_reported":1747256919,"current_range_meters":14800,"station_id":"ce4bho12rcd13ifvqh1g","pricing_plan_id":"cebpf4jnsgd1na2vs0mg"},{"bike_id":"2b187d07-5f65-4c1a-8aed-abe559244309","system_id":"levelo_inurba_marseille","lat":43.28571,"lon":5.39498,"is_reserved":false,"is_disabled":false,"rental_uris":{"android":"levelo://app?vid=2b187d07-5f65-4c1a-8aed-abe559244309","ios":"levelo://app?vid=2b187d07-5f65-4c1a-8aed-abe559244309"},"vehicle_type_id":"4","last_reported":1747256919,"current_range_meters":14800,"station_id":"ce4bh292rcd13ifvqdg0","pricing_plan_id":"cebpf4jnsgd1na2vs0mg"},{"bike_id":"68f5b50c-e55a-41be-940e-44e74a81b5ef","system_id":"levelo_inurba_marseille","lat":43.31889,"lon":5.40729,"is_reserved":false,"is_disabled":false,"rental_uris":{"android":"levelo://app?vid=68f5b50c-e55a-41be-940e-44e74a81b5ef","ios":"levelo://app?vid=68f5b50c-e55a-41be-940e-44e74a81b5ef"},"vehicle_type_id":"4","last_reported":1747256919,"current_range_meters":15200,"station_id":"ce4bhq12rcd13ifvqhig","pricing_plan_id":"cebpf4jnsgd1na2vs0mg"},{"bike_id":"907c425e-1976-4342-9d73-4683818bbd0a","system_id":"levelo_inurba_marseille","lat":43.29878,"lon":5.38911,"is_reserved":false,"is_disabled":false,"rental_uris":{"android":"levelo://app?vid=907c425e-1976-4342-9d73-4683818bbd0a","ios":"levelo://app?vid=907c425e-1976-4342-9d73-4683818bbd0a"},"vehicle_type_id":"4","last_reported":1747256919,"current_range_meters":15200,"station_id":"ce4bh392rcd13ifvqdl0","pricing_plan_id":"cebpf4jnsgd1na2vs0mg"},{"bike_id":"886cacb8-a8f2-4a9f-b4ff-ad4500dd1a16","system_id":"levelo_inurba_marseille","lat":43.30227,"lon":5.39468,"is_reserved":false,"is_disabled":false,"rental_uris":{"android":"levelo://app?vid=886cacb8-a8f2-4a9f-b4ff-ad4500dd1a16","ios":"levelo://app?vid=886cacb8-a8f2-4a9f-b4ff-ad4500dd1a16"},"vehicle_type_id":"4","last_reported":1747256919,"current_range_meters":15200,"station_id":"ce4bh0p2rcd13ifvqd70","pricing_plan_id":"cebpf4jnsgd1na2vs0mg"},{"bike_id":"32122cc2-1955-4fa7-b923-e772e4a9638a","system_id":"levelo_inurba_marseille","lat":43.29551,"lon":5.42258,"is_reserved":false,"is_disabled":false,"rental_uris":{"android":"levelo://app?vid=32122cc2-1955-4fa7-b923-e772e4a9638a","ios":"levelo://app?vid=32122cc2-1955-4fa7-b923-e772e4a9638a"},"vehicle_type_id":"4","last_reported":1747256919,"current_range_meters":15200,"station_id":"ce4bhph2rcd13ifvqhdg","pricing_plan_id":"cebpf4jnsgd1na2vs0mg"},{"bike_id":"f7133b1f-3e0d-4f19-b04b-238d453b7ac9","system_id":"levelo_inurba_marseille","lat":43.307933,"lon":5.381517,"is_reserved":false,"is_disabled":false,"rental_uris":{"android":"levelo://app?vid=f7133b1f-3e0d-4f19-b04b-238d453b7ac9","ios":"levelo://app?vid=f7133b1f-3e0d-4f19-b04b-238d453b7ac9"},"vehicle_type_id":"4","last_reported":1747256919,"current_range_meters":15200,"station_id":"ce4bgt12rcd13ifvqce0","pricing_plan_id":"cebpf4jnsgd1na2vs0mg"},{"bike_id":"35d2eb7f-6f7b-4f5a-911f-c59164f1a032","system_id":"levelo_inurba_marseille","lat":43.30254,"lon":5.40079,"is_reserved":false,"is_disabled":false,"rental_uris":{"android":"levelo://app?vid=35d2eb7f-6f7b-4f5a-911f-c59164f1a032","ios":"levelo://app?vid=35d2eb7f-6f7b-4f5a-911f-c59164f1a032"},"vehicle_type_id":"4","last_reported":1747256919,"current_range_meters":15200,"station_id":"ce4bgvh2rcd13ifvqcs0","pricing_plan_id":"cebpf4jnsgd1na2vs0mg"},{"bike_id":"20ae89a2-542c-444a-bba7-d88d163745c3","system_id":"levelo_inurba_marseille","lat":43.29262,"lon":5.409167,"is_reserved":false,"is_disabled":true,"rental_uris":{"android":"levelo://app?vid=20ae89a2-542c-444a-bba7-d88d163745c3","ios":"levelo://app?vid=20ae89a2-542c-444a-bba7-d88d163745c3"},"vehicle_type_id":"4","last_reported":1747256919,"current_range_meters":15200,"station_id":"ce4bh192rcd13ifvqdc0","pricing_plan_id":"cebpf4jnsgd1na2vs0mg"},{"bike_id":"feb4f947-8c6b-40c7-9498-be1ceb9335f1","system_id":"levelo_inurba_marseille","lat":43.31319,"lon":5.39698,"is_reserved":false,"is_disabled":false,"rental_uris":{"android":"levelo://app?vid=feb4f947-8c6b-40c7-9498-be1ceb9335f1","ios":"levelo://app?vid=feb4f947-8c6b-40c7-9498-be1ceb9335f1"},"vehicle_type_id":"4","last_reported":1747256919,"current_range_meters":16000,"station_id":"ce4bgvp2rcd13ifvqcu0","pricing_plan_id":"cebpf4jnsgd1na2vs0mg"},{"bike_id":"359ae975-d9fc-460b-bd0e-2c3e197bf82a","system_id":"levelo_inurba_marseille","lat":43.29578,"lon":5.39981,"is_reserved":false,"is_disabled":false,"rental_uris":{"android":"levelo://app?vid=359ae975-d9fc-460b-bd0e-2c3e197bf82a","ios":"levelo://app?vid=359ae975-d9fc-460b-bd0e-2c3e197bf82a"},"vehicle_type_id":"4","last_reported":1747256919,"current_range_meters":16000,"station_id":"ce4bh312rcd13ifvqdj0","pricing_plan_id":"cebpf4jnsgd1na2vs0mg"},{"bike_id":"7eae8ea7-88da-445b-ad04-3fb302e51aa1","system_id":"levelo_inurba_marseille","lat":43.29262,"lon":5.40901,"is_reserved":false,"is_disabled":false,"rental_uris":{"android":"levelo://app?vid=7eae8ea7-88da-445b-ad04-3fb302e51aa1","ios":"levelo://app?vid=7eae8ea7-88da-445b-ad04-3fb302e51aa1"},"vehicle_type_id":"4","last_reported":1747256919,"current_range_meters":16000,"station_id":"ce4bh192rcd13ifvqdc0","pricing_plan_id":"cebpf4jnsgd1na2vs0mg"},{"bike_id":"77a29338-5556-4205-9db9-a624ab9d00e5","system_id":"levelo_inurba_marseille","lat":43.24547,"lon":5.39525,"is_reserved":false,"is_disabled":false,"rental_uris":{"android":"levelo://app?vid=77a29338-5556-4205-9db9-a624ab9d00e5","ios":"levelo://app?vid=77a29338-5556-4205-9db9-a624ab9d00e5"},"vehicle_type_id":"4","last_reported":1747256919,"current_range_meters":16000,"station_id":"ce4bhlp2rcd13ifvqgjg","pricing_plan_id":"cebpf4jnsgd1na2vs0mg"},{"bike_id":"62d462c8-29ce-4c1c-bada-a7ea3e755284","system_id":"levelo_inurba_marseille","lat":43.284025,"lon":5.37522,"is_reserved":false,"is_disabled":false,"rental_uris":{"android":"levelo://app?vid=62d462c8-29ce-4c1c-bada-a7ea3e755284","ios":"levelo://app?vid=62d462c8-29ce-4c1c-bada-a7ea3e755284"},"vehicle_type_id":"4","last_reported":1747256919,"current_range_meters":16000,"station_id":"ce4bh412rcd13ifvqds0","pricing_plan_id":"cebpf4jnsgd1na2vs0mg"},{"bike_id":"94425245-09df-4108-9a30-610dbcaf2585","system_id":"levelo_inurba_marseille","lat":43.31719,"lon":5.42399,"is_reserved":false,"is_disabled":false,"rental_uris":{"android":"levelo://app?vid=94425245-09df-4108-9a30-610dbcaf2585","ios":"levelo://app?vid=94425245-09df-4108-9a30-610dbcaf2585"},"vehicle_type_id":"4","last_reported":1747256919,"current_range_meters":16000,"station_id":"ce4bhp92rcd13ifvqhbg","pricing_plan_id":"cebpf4jnsgd1na2vs0mg"},{"bike_id":"a7a3d8d2-d4c3-469c-b962-d9c90b2eca97","system_id":"levelo_inurba_marseille","lat":43.28415,"lon":5.37518,"is_reserved":false,"is_disabled":true,"rental_uris":{"android":"levelo://app?vid=a7a3d8d2-d4c3-469c-b962-d9c90b2eca97","ios":"levelo://app?vid=a7a3d8d2-d4c3-469c-b962-d9c90b2eca97"},"vehicle_type_id":"4","last_reported":1747256919,"current_range_meters":16000,"station_id":"ce4bh412rcd13ifvqds0","pricing_plan_id":"cebpf4jnsgd1na2vs0mg"},{"bike_id":"cc377332-c824-4cf8-bc9d-97d1852f3692","system_id":"levelo_inurba_marseille","lat":43.316927,"lon":5.406369,"is_reserved":false,"is_disabled":false,"rental_uris":{"android":"levelo://app?vid=cc377332-c824-4cf8-bc9d-97d1852f3692","ios":"levelo://app?vid=cc377332-c824-4cf8-bc9d-97d1852f3692"},"vehicle_type_id":"4","last_reported":1747256919,"current_range_meters":16000,"station_id":"ce4bh012rcd13ifvqd00","pricing_plan_id":"cebpf4jnsgd1na2vs0mg"},{"bike_id":"3c1b7f30-5d26-4067-beb9-4c40ea2a08b9","system_id":"levelo_inurba_marseille","lat":43.26063,"lon":5.39396,"is_reserved":false,"is_disabled":false,"rental_uris":{"android":"levelo://app?vid=3c1b7f30-5d26-4067-beb9-4c40ea2a08b9","ios":"levelo://app?vid=3c1b7f30-5d26-4067-beb9-4c40ea2a08b9"},"vehicle_type_id":"4","last_reported":1747256919,"current_range_meters":16000,"station_id":"ce4bhh92rcd13ifvqfj0","pricing_plan_id":"cebpf4jnsgd1na2vs0mg"},{"bike_id":"21b06e68-a2e0-441f-9af6-90b8ed2d2a0e","system_id":"levelo_inurba_marseille","lat":43.30325,"lon":5.40434,"is_reserved":false,"is_disabled":false,"rental_uris":{"android":"levelo://app?vid=21b06e68-a2e0-441f-9af6-90b8ed2d2a0e","ios":"levelo://app?vid=21b06e68-a2e0-441f-9af6-90b8ed2d2a0e"},"vehicle_type_id":"4","last_reported":1747256919,"current_range_meters":16000,"station_id":"ce4bh012rcd13ifvqd10","pricing_plan_id":"cebpf4jnsgd1na2vs0mg"},{"bike_id":"2286bd46-de13-4763-9a46-4540518e528a","system_id":"levelo_inurba_marseille","lat":43.2749,"lon":5.42456,"is_reserved":false,"is_disabled":false,"rental_uris":{"android":"levelo://app?vid=2286bd46-de13-4763-9a46-4540518e528a","ios":"levelo://app?vid=2286bd46-de13-4763-9a46-4540518e528a"},"vehicle_type_id":"4","last_reported":1747256919,"current_range_meters":16000,"station_id":"ce4bhn92rcd13ifvqgrg","pricing_plan_id":"cebpf4jnsgd1na2vs0mg"},{"bike_id":"eca226ce-d6d1-48e2-a2bf-1a9108989671","system_id":"levelo_inurba_marseille","lat":43.2589,"lon":5.39925,"is_reserved":false,"is_disabled":false,"rental_uris":{"android":"levelo://app?vid=eca226ce-d6d1-48e2-a2bf-1a9108989671","ios":"levelo://app?vid=eca226ce-d6d1-48e2-a2bf-1a9108989671"},"vehicle_type_id":"4","last_reported":1747256919,"current_range_meters":16000,"station_id":"ce4bhl92rcd13ifvqghg","pricing_plan_id":"cebpf4jnsgd1na2vs0mg"},{"bike_id":"e0503590-09d4-488c-9cc8-cbb12156da35","system_id":"levelo_inurba_marseille","lat":43.30898,"lon":5.37181,"is_reserved":false,"is_disabled":false,"rental_uris":{"android":"levelo://app?vid=e0503590-09d4-488c-9cc8-cbb12156da35","ios":"levelo://app?vid=e0503590-09d4-488c-9cc8-cbb12156da35"},"vehicle_type_id":"4","last_reported":1747256919,"current_range_meters":16000,"station_id":"ce4bguh2rcd13ifvqckg","pricing_plan_id":"cebpf4jnsgd1na2vs0mg"},{"bike_id":"f77de9a8-9a11-48b3-8a2f-527803546e9a","system_id":"levelo_inurba_marseille","lat":43.26563,"lon":5.39003,"is_reserved":false,"is_disabled":false,"rental_uris":{"android":"levelo://app?vid=f77de9a8-9a11-48b3-8a2f-527803546e9a","ios":"levelo://app?vid=f77de9a8-9a11-48b3-8a2f-527803546e9a"},"vehicle_type_id":"4","last_reported":1747256919,"current_range_meters":16000,"station_id":"ce4bhe12rcd13ifvqf30","pricing_plan_id":"cebpf4jnsgd1na2vs0mg"},{"bike_id":"2af0df00-84df-494b-94f3-3f5b86286540","system_id":"levelo_inurba_marseille","lat":43.309208,"lon":5.370136,"is_reserved":false,"is_disabled":false,"rental_uris":{"android":"levelo://app?vid=2af0df00-84df-494b-94f3-3f5b86286540","ios":"levelo://app?vid=2af0df00-84df-494b-94f3-3f5b86286540"},"vehicle_type_id":"4","last_reported":1747256919,"current_range_meters":16000,"station_id":"","pricing_plan_id":"cebpf4jnsgd1na2vs0mg"},{"bike_id":"5293d4aa-0549-458e-ad35-9aeeb53bca11","system_id":"levelo_inurba_marseille","lat":43.29193,"lon":5.39341,"is_reserved":false,"is_disabled":false,"rental_uris":{"android":"levelo://app?vid=5293d4aa-0549-458e-ad35-9aeeb53bca11","ios":"levelo://app?vid=5293d4aa-0549-458e-ad35-9aeeb53bca11"},"vehicle_type_id":"4","last_reported":1747256919,"current_range_meters":16000,"station_id":"ce4bh192rcd13ifvqdd0","pricing_plan_id":"cebpf4jnsgd1na2vs0mg"},{"bike_id":"dea082ac-c4ae-48b8-9c05-60a8d753f39c","system_id":"levelo_inurba_marseille","lat":43.28275,"lon":5.35066,"is_reserved":false,"is_disabled":false,"rental_uris":{"android":"levelo://app?vid=dea082ac-c4ae-48b8-9c05-60a8d753f39c","ios":"levelo://app?vid=dea082ac-c4ae-48b8-9c05-60a8d753f39c"},"vehicle_type_id":"4","last_reported":1747256919,"current_range_meters":16400,"station_id":"ce4bhbp2rcd13ifvqerg","pricing_plan_id":"cebpf4jnsgd1na2vs0mg"},{"bike_id":"21f5a1a4-43c5-4049-8a8d-3146c5c35157","system_id":"levelo_inurba_marseille","lat":43.22938,"lon":5.35381,"is_reserved":false,"is_disabled":false,"rental_uris":{"android":"levelo://app?vid=21f5a1a4-43c5-4049-8a8d-3146c5c35157","ios":"levelo://app?vid=21f5a1a4-43c5-4049-8a8d-3146c5c35157"},"vehicle_type_id":"4","last_reported":1747256919,"current_range_meters":16400,"station_id":"cpo3532slgdg3j2ikp40","pricing_plan_id":"cebpf4jnsgd1na2vs0mg"},{"bike_id":"503b1e6e-2a73-4f04-bb9f-80c3831538b1","system_id":"levelo_inurba_marseille","lat":43.30902,"lon":5.3685,"is_reserved":false,"is_disabled":true,"rental_uris":{"android":"levelo://app?vid=503b1e6e-2a73-4f04-bb9f-80c3831538b1","ios":"levelo://app?vid=503b1e6e-2a73-4f04-bb9f-80c3831538b1"},"vehicle_type_id":"4","last_reported":1747256919,"current_range_meters":16400,"station_id":"ce4bgn92rcd13ifvqbvg","pricing_plan_id":"cebpf4jnsgd1na2vs0mg"},{"bike_id":"1b80681f-9677-44c0-90c9-48d87fc24c7e","system_id":"levelo_inurba_marseille","lat":43.30884,"lon":5.39627,"is_reserved":false,"is_disabled":false,"rental_uris":{"android":"levelo://app?vid=1b80681f-9677-44c0-90c9-48d87fc24c7e","ios":"levelo://app?vid=1b80681f-9677-44c0-90c9-48d87fc24c7e"},"vehicle_type_id":"4","last_reported":1747256919,"current_range_meters":16400,"station_id":"ce4bh012rcd13ifvqcv0","pricing_plan_id":"cebpf4jnsgd1na2vs0mg"},{"bike_id":"48e7d077-bb92-4ccc-b835-dc39f7dde104","system_id":"levelo_inurba_marseille","lat":43.30309,"lon":5.39206,"is_reserved":false,"is_disabled":false,"rental_uris":{"android":"levelo://app?vid=48e7d077-bb92-4ccc-b835-dc39f7dde104","ios":"levelo://app?vid=48e7d077-bb92-4ccc-b835-dc39f7dde104"},"vehicle_type_id":"4","last_reported":1747256919,"current_range_meters":16400,"station_id":"ce4bgkh2rcd13ifvqbk0","pricing_plan_id":"cebpf4jnsgd1na2vs0mg"},{"bike_id":"d3f05add-2399-4930-96be-802df569fbe4","system_id":"levelo_inurba_marseille","lat":43.27572,"lon":5.3841,"is_reserved":false,"is_disabled":false,"rental_uris":{"android":"levelo://app?vid=d3f05add-2399-4930-96be-802df569fbe4","ios":"levelo://app?vid=d3f05add-2399-4930-96be-802df569fbe4"},"vehicle_type_id":"4","last_reported":1747256919,"current_range_meters":16400,"station_id":"ce4bhh92rcd13ifvqfi0","pricing_plan_id":"cebpf4jnsgd1na2vs0mg"},{"bike_id":"9ff1963c-6d7e-4487-9ae2-bbb29170d03d","system_id":"levelo_inurba_marseille","lat":43.28158,"lon":5.42645,"is_reserved":false,"is_disabled":false,"rental_uris":{"android":"levelo://app?vid=9ff1963c-6d7e-4487-9ae2-bbb29170d03d","ios":"levelo://app?vid=9ff1963c-6d7e-4487-9ae2-bbb29170d03d"},"vehicle_type_id":"4","last_reported":1747256919,"current_range_meters":16400,"station_id":"ce4bhnh2rcd13ifvqgug","pricing_plan_id":"cebpf4jnsgd1na2vs0mg"},{"bike_id":"94dd3e6e-a8f1-416c-97d0-b41bea36d63d","system_id":"levelo_inurba_marseille","lat":43.2929,"lon":5.40127,"is_reserved":false,"is_disabled":false,"rental_uris":{"android":"levelo://app?vid=94dd3e6e-a8f1-416c-97d0-b41bea36d63d","ios":"levelo://app?vid=94dd3e6e-a8f1-416c-97d0-b41bea36d63d"},"vehicle_type_id":"4","last_reported":1747256919,"current_range_meters":16400,"station_id":"ce4bh312rcd13ifvqdk0","pricing_plan_id":"cebpf4jnsgd1na2vs0mg"},{"bike_id":"9f3d78f3-d50a-43cd-b62d-45eb26682299","system_id":"levelo_inurba_marseille","lat":43.28441,"lon":5.35895,"is_reserved":false,"is_disabled":false,"rental_uris":{"android":"levelo://app?vid=9f3d78f3-d50a-43cd-b62d-45eb26682299","ios":"levelo://app?vid=9f3d78f3-d50a-43cd-b62d-45eb26682299"},"vehicle_type_id":"4","last_reported":1747256919,"current_range_meters":16400,"station_id":"ce4bhah2rcd13ifvqei0","pricing_plan_id":"cebpf4jnsgd1na2vs0mg"},{"bike_id":"d620ba54-db3f-45bd-9826-a224d3d71ef0","system_id":"levelo_inurba_marseille","lat":43.23179,"lon":5.39998,"is_reserved":false,"is_disabled":false,"rental_uris":{"android":"levelo://app?vid=d620ba54-db3f-45bd-9826-a224d3d71ef0","ios":"levelo://app?vid=d620ba54-db3f-45bd-9826-a224d3d71ef0"},"vehicle_type_id":"4","last_reported":1747256919,"current_range_meters":16400,"station_id":"ce4bhn12rcd13ifvqgqg","pricing_plan_id":"cebpf4jnsgd1na2vs0mg"},{"bike_id":"cfae641a-54c0-4b9b-b874-774267c67373","system_id":"levelo_inurba_marseille","lat":43.2896,"lon":5.43189,"is_reserved":false,"is_disabled":false,"rental_uris":{"android":"levelo://app?vid=cfae641a-54c0-4b9b-b874-774267c67373","ios":"levelo://app?vid=cfae641a-54c0-4b9b-b874-774267c67373"},"vehicle_type_id":"4","last_reported":1747256919,"current_range_meters":16400,"station_id":"","pricing_plan_id":"cebpf4jnsgd1na2vs0mg"},{"bike_id":"e2d91648-e4e9-4d6c-a258-b5dd6dc188c8","system_id":"levelo_inurba_marseille","lat":43.2816,"lon":5.42643,"is_reserved":false,"is_disabled":false,"rental_uris":{"android":"levelo://app?vid=e2d91648-e4e9-4d6c-a258-b5dd6dc188c8","ios":"levelo://app?vid=e2d91648-e4e9-4d6c-a258-b5dd6dc188c8"},"vehicle_type_id":"4","last_reported":1747256919,"current_range_meters":16800,"station_id":"ce4bhnh2rcd13ifvqgug","pricing_plan_id":"cebpf4jnsgd1na2vs0mg"},{"bike_id":"0a5e6cc4-0328-4fd7-9db5-c5029f1cf2d9","system_id":"levelo_inurba_marseille","lat":43.32367,"lon":5.38894,"is_reserved":false,"is_disabled":false,"rental_uris":{"android":"levelo://app?vid=0a5e6cc4-0328-4fd7-9db5-c5029f1cf2d9","ios":"levelo://app?vid=0a5e6cc4-0328-4fd7-9db5-c5029f1cf2d9"},"vehicle_type_id":"4","last_reported":1747256919,"current_range_meters":16800,"station_id":"ce4bhqp2rcd13ifvqhog","pricing_plan_id":"cebpf4jnsgd1na2vs0mg"},{"bike_id":"7bd521b5-756d-405c-9438-d2db26f23023","system_id":"levelo_inurba_marseille","lat":43.2512,"lon":5.4032,"is_reserved":false,"is_disabled":false,"rental_uris":{"android":"levelo://app?vid=7bd521b5-756d-405c-9438-d2db26f23023","ios":"levelo://app?vid=7bd521b5-756d-405c-9438-d2db26f23023"},"vehicle_type_id":"4","last_reported":1747256919,"current_range_meters":16800,"station_id":"ce4bhlh2rcd13ifvqgig","pricing_plan_id":"cebpf4jnsgd1na2vs0mg"},{"bike_id":"cd98fc6a-9f44-4b1e-bb60-10927c342068","system_id":"levelo_inurba_marseille","lat":43.26555,"lon":5.37284,"is_reserved":false,"is_disabled":false,"rental_uris":{"android":"levelo://app?vid=cd98fc6a-9f44-4b1e-bb60-10927c342068","ios":"levelo://app?vid=cd98fc6a-9f44-4b1e-bb60-10927c342068"},"vehicle_type_id":"4","last_reported":1747256919,"current_range_meters":16800,"station_id":"ce4bhg12rcd13ifvqf70","pricing_plan_id":"cebpf4jnsgd1na2vs0mg"},{"bike_id":"d74dda0c-2ae8-4a20-aee3-80ba3b692d64","system_id":"levelo_inurba_marseille","lat":43.30488,"lon":5.37184,"is_reserved":false,"is_disabled":false,"rental_uris":{"android":"levelo://app?vid=d74dda0c-2ae8-4a20-aee3-80ba3b692d64","ios":"levelo://app?vid=d74dda0c-2ae8-4a20-aee3-80ba3b692d64"},"vehicle_type_id":"4","last_reported":1747256919,"current_range_meters":16800,"station_id":"","pricing_plan_id":"cebpf4jnsgd1na2vs0mg"},{"bike_id":"fa4befad-9e1d-4f2a-8cac-8fccb960e5af","system_id":"levelo_inurba_marseille","lat":43.28954,"lon":5.36654,"is_reserved":false,"is_disabled":false,"rental_uris":{"android":"levelo://app?vid=fa4befad-9e1d-4f2a-8cac-8fccb960e5af","ios":"levelo://app?vid=fa4befad-9e1d-4f2a-8cac-8fccb960e5af"},"vehicle_type_id":"4","last_reported":1747256919,"current_range_meters":16800,"station_id":"ce4bhap2rcd13ifvqek0","pricing_plan_id":"cebpf4jnsgd1na2vs0mg"},{"bike_id":"65064f86-3c66-4826-93c2-65566820a8eb","system_id":"levelo_inurba_marseille","lat":43.26578,"lon":5.39026,"is_reserved":false,"is_disabled":false,"rental_uris":{"android":"levelo://app?vid=65064f86-3c66-4826-93c2-65566820a8eb","ios":"levelo://app?vid=65064f86-3c66-4826-93c2-65566820a8eb"},"vehicle_type_id":"4","last_reported":1747256919,"current_range_meters":16800,"station_id":"ce4bhe12rcd13ifvqf30","pricing_plan_id":"cebpf4jnsgd1na2vs0mg"},{"bike_id":"4ca5c04b-83fc-47f0-ba12-ec385416b528","system_id":"levelo_inurba_marseille","lat":43.31427,"lon":5.36965,"is_reserved":false,"is_disabled":false,"rental_uris":{"android":"levelo://app?vid=4ca5c04b-83fc-47f0-ba12-ec385416b528","ios":"levelo://app?vid=4ca5c04b-83fc-47f0-ba12-ec385416b528"},"vehicle_type_id":"4","last_reported":1747256919,"current_range_meters":16800,"station_id":"","pricing_plan_id":"cebpf4jnsgd1na2vs0mg"},{"bike_id":"85229f75-99f9-447a-a3ed-86236028f5a5","system_id":"levelo_inurba_marseille","lat":43.25129,"lon":5.40342,"is_reserved":false,"is_disabled":false,"rental_uris":{"android":"levelo://app?vid=85229f75-99f9-447a-a3ed-86236028f5a5","ios":"levelo://app?vid=85229f75-99f9-447a-a3ed-86236028f5a5"},"vehicle_type_id":"4","last_reported":1747256919,"current_range_meters":16800,"station_id":"ce4bhlh2rcd13ifvqgig","pricing_plan_id":"cebpf4jnsgd1na2vs0mg"},{"bike_id":"b33bce84-ade5-44da-bf0b-0b6ebddf4632","system_id":"levelo_inurba_marseille","lat":43.30445,"lon":5.38882,"is_reserved":false,"is_disabled":false,"rental_uris":{"android":"levelo://app?vid=b33bce84-ade5-44da-bf0b-0b6ebddf4632","ios":"levelo://app?vid=b33bce84-ade5-44da-bf0b-0b6ebddf4632"},"vehicle_type_id":"4","last_reported":1747256919,"current_range_meters":17200,"station_id":"ce4bgk12rcd13ifvqbi0","pricing_plan_id":"cebpf4jnsgd1na2vs0mg"},{"bike_id":"903ab41e-4254-4261-87d7-026f8472b1f3","system_id":"levelo_inurba_marseille","lat":43.28724,"lon":5.37947,"is_reserved":false,"is_disabled":false,"rental_uris":{"android":"levelo://app?vid=903ab41e-4254-4261-87d7-026f8472b1f3","ios":"levelo://app?vid=903ab41e-4254-4261-87d7-026f8472b1f3"},"vehicle_type_id":"4","last_reported":1747256919,"current_range_meters":17200,"station_id":"ce4bh9p2rcd13ifvqec0","pricing_plan_id":"cebpf4jnsgd1na2vs0mg"},{"bike_id":"253e4b78-4947-4b21-9463-55f9d197a50a","system_id":"levelo_inurba_marseille","lat":43.24809,"lon":5.37453,"is_reserved":false,"is_disabled":false,"rental_uris":{"android":"levelo://app?vid=253e4b78-4947-4b21-9463-55f9d197a50a","ios":"levelo://app?vid=253e4b78-4947-4b21-9463-55f9d197a50a"},"vehicle_type_id":"4","last_reported":1747256919,"current_range_meters":17200,"station_id":"ce4bhgh2rcd13ifvqfb0","pricing_plan_id":"cebpf4jnsgd1na2vs0mg"},{"bike_id":"820aa7ba-22d0-40e8-883d-a1ed637a8c01","system_id":"levelo_inurba_marseille","lat":43.28928,"lon":5.38422,"is_reserved":false,"is_disabled":false,"rental_uris":{"android":"levelo://app?vid=820aa7ba-22d0-40e8-883d-a1ed637a8c01","ios":"levelo://app?vid=820aa7ba-22d0-40e8-883d-a1ed637a8c01"},"vehicle_type_id":"4","last_reported":1747256919,"current_range_meters":17200,"station_id":"ce4bh612rcd13ifvqe6g","pricing_plan_id":"cebpf4jnsgd1na2vs0mg"},{"bike_id":"b3dc7ba8-3371-4496-b4ad-370034e7b805","system_id":"levelo_inurba_marseille","lat":43.30891,"lon":5.40182,"is_reserved":false,"is_disabled":false,"rental_uris":{"android":"levelo://app?vid=b3dc7ba8-3371-4496-b4ad-370034e7b805","ios":"levelo://app?vid=b3dc7ba8-3371-4496-b4ad-370034e7b805"},"vehicle_type_id":"4","last_reported":1747256919,"current_range_meters":17200,"station_id":"ce4bgvp2rcd13ifvqct0","pricing_plan_id":"cebpf4jnsgd1na2vs0mg"},{"bike_id":"cdc85d67-a809-46c7-9857-3ce4195beb00","system_id":"levelo_inurba_marseille","lat":43.270506,"lon":5.402411,"is_reserved":false,"is_disabled":false,"rental_uris":{"android":"levelo://app?vid=cdc85d67-a809-46c7-9857-3ce4195beb00","ios":"levelo://app?vid=cdc85d67-a809-46c7-9857-3ce4195beb00"},"vehicle_type_id":"4","last_reported":1747256919,"current_range_meters":17200,"station_id":"ce4bh492rcd13ifvqdvg","pricing_plan_id":"cebpf4jnsgd1na2vs0mg"},{"bike_id":"8537064d-e646-4106-9992-23a8038fe26c","system_id":"levelo_inurba_marseille","lat":43.29958,"lon":5.41318,"is_reserved":false,"is_disabled":false,"rental_uris":{"android":"levelo://app?vid=8537064d-e646-4106-9992-23a8038fe26c","ios":"levelo://app?vid=8537064d-e646-4106-9992-23a8038fe26c"},"vehicle_type_id":"4","last_reported":1747256919,"current_range_meters":17200,"station_id":"ce4bhp12rcd13ifvqh9g","pricing_plan_id":"cebpf4jnsgd1na2vs0mg"},{"bike_id":"88bbba9e-7184-4058-8824-c96a1cc5be7e","system_id":"levelo_inurba_marseille","lat":43.2623,"lon":5.40443,"is_reserved":false,"is_disabled":false,"rental_uris":{"android":"levelo://app?vid=88bbba9e-7184-4058-8824-c96a1cc5be7e","ios":"levelo://app?vid=88bbba9e-7184-4058-8824-c96a1cc5be7e"},"vehicle_type_id":"4","last_reported":1747256919,"current_range_meters":17200,"station_id":"ce4bhmh2rcd13ifvqgmg","pricing_plan_id":"cebpf4jnsgd1na2vs0mg"},{"bike_id":"c682a571-1b8e-42c7-82ff-72c8d128bd01","system_id":"levelo_inurba_marseille","lat":43.29902,"lon":5.38332,"is_reserved":false,"is_disabled":false,"rental_uris":{"android":"levelo://app?vid=c682a571-1b8e-42c7-82ff-72c8d128bd01","ios":"levelo://app?vid=c682a571-1b8e-42c7-82ff-72c8d128bd01"},"vehicle_type_id":"4","last_reported":1747256919,"current_range_meters":17600,"station_id":"","pricing_plan_id":"cebpf4jnsgd1na2vs0mg"},{"bike_id":"0cc46be0-cda7-4d84-a24a-b567a36e5f7e","system_id":"levelo_inurba_marseille","lat":43.30273,"lon":5.36859,"is_reserved":false,"is_disabled":false,"rental_uris":{"android":"levelo://app?vid=0cc46be0-cda7-4d84-a24a-b567a36e5f7e","ios":"levelo://app?vid=0cc46be0-cda7-4d84-a24a-b567a36e5f7e"},"vehicle_type_id":"4","last_reported":1747256919,"current_range_meters":17600,"station_id":"","pricing_plan_id":"cebpf4jnsgd1na2vs0mg"},{"bike_id":"c2871eb7-bb83-4da8-bd9e-21c07b2319d9","system_id":"levelo_inurba_marseille","lat":43.2894,"lon":5.36632,"is_reserved":false,"is_disabled":false,"rental_uris":{"android":"levelo://app?vid=c2871eb7-bb83-4da8-bd9e-21c07b2319d9","ios":"levelo://app?vid=c2871eb7-bb83-4da8-bd9e-21c07b2319d9"},"vehicle_type_id":"4","last_reported":1747256919,"current_range_meters":17600,"station_id":"ce4bhap2rcd13ifvqek0","pricing_plan_id":"cebpf4jnsgd1na2vs0mg"},{"bike_id":"c0b9fd4f-e181-46ce-b0bf-f5119973334f","system_id":"levelo_inurba_marseille","lat":43.33771,"lon":5.37424,"is_reserved":false,"is_disabled":false,"rental_uris":{"android":"levelo://app?vid=c0b9fd4f-e181-46ce-b0bf-f5119973334f","ios":"levelo://app?vid=c0b9fd4f-e181-46ce-b0bf-f5119973334f"},"vehicle_type_id":"4","last_reported":1747256919,"current_range_meters":17600,"station_id":"","pricing_plan_id":"cebpf4jnsgd1na2vs0mg"},{"bike_id":"385c5680-aa17-4953-8596-7f0cb64e8bcd","system_id":"levelo_inurba_marseille","lat":43.32477,"lon":5.36567,"is_reserved":false,"is_disabled":false,"rental_uris":{"android":"levelo://app?vid=385c5680-aa17-4953-8596-7f0cb64e8bcd","ios":"levelo://app?vid=385c5680-aa17-4953-8596-7f0cb64e8bcd"},"vehicle_type_id":"4","last_reported":1747256919,"current_range_meters":18000,"station_id":"ce4bhs12rcd13ifvqhvg","pricing_plan_id":"cebpf4jnsgd1na2vs0mg"},{"bike_id":"c0023606-0d7a-4e87-a1a7-c3d1e1479b8f","system_id":"levelo_inurba_marseille","lat":43.24809,"lon":5.37465,"is_reserved":false,"is_disabled":false,"rental_uris":{"android":"levelo://app?vid=c0023606-0d7a-4e87-a1a7-c3d1e1479b8f","ios":"levelo://app?vid=c0023606-0d7a-4e87-a1a7-c3d1e1479b8f"},"vehicle_type_id":"4","last_reported":1747256919,"current_range_meters":18000,"station_id":"ce4bhgh2rcd13ifvqfb0","pricing_plan_id":"cebpf4jnsgd1na2vs0mg"},{"bike_id":"d932e77c-ef23-4af5-83bf-09241251f768","system_id":"levelo_inurba_marseille","lat":43.23965,"lon":5.36639,"is_reserved":false,"is_disabled":false,"rental_uris":{"android":"levelo://app?vid=d932e77c-ef23-4af5-83bf-09241251f768","ios":"levelo://app?vid=d932e77c-ef23-4af5-83bf-09241251f768"},"vehicle_type_id":"4","last_reported":1747256919,"current_range_meters":18000,"station_id":"ce4bhi12rcd13ifvqfp0","pricing_plan_id":"cebpf4jnsgd1na2vs0mg"},{"bike_id":"1def4d9e-ba54-4554-8279-72b57c0de750","system_id":"levelo_inurba_marseille","lat":43.337444,"lon":5.374475,"is_reserved":false,"is_disabled":false,"rental_uris":{"android":"levelo://app?vid=1def4d9e-ba54-4554-8279-72b57c0de750","ios":"levelo://app?vid=1def4d9e-ba54-4554-8279-72b57c0de750"},"vehicle_type_id":"4","last_reported":1747256919,"current_range_meters":18000,"station_id":"","pricing_plan_id":"cebpf4jnsgd1na2vs0mg"},{"bike_id":"99854a5c-4c94-41df-a0e9-cc01af76f2f0","system_id":"levelo_inurba_marseille","lat":43.28138,"lon":5.40502,"is_reserved":false,"is_disabled":false,"rental_uris":{"android":"levelo://app?vid=99854a5c-4c94-41df-a0e9-cc01af76f2f0","ios":"levelo://app?vid=99854a5c-4c94-41df-a0e9-cc01af76f2f0"},"vehicle_type_id":"4","last_reported":1747256919,"current_range_meters":18000,"station_id":"","pricing_plan_id":"cebpf4jnsgd1na2vs0mg"},{"bike_id":"10bbd1f3-7e41-477f-b1de-a2661607019b","system_id":"levelo_inurba_marseille","lat":43.28702,"lon":5.39988,"is_reserved":false,"is_disabled":false,"rental_uris":{"android":"levelo://app?vid=10bbd1f3-7e41-477f-b1de-a2661607019b","ios":"levelo://app?vid=10bbd1f3-7e41-477f-b1de-a2661607019b"},"vehicle_type_id":"4","last_reported":1747256919,"current_range_meters":18000,"station_id":"ce4bho92rcd13ifvqh3g","pricing_plan_id":"cebpf4jnsgd1na2vs0mg"},{"bike_id":"b064664a-37e6-4027-8d08-cb54eda1e955","system_id":"levelo_inurba_marseille","lat":43.32696,"lon":5.42975,"is_reserved":false,"is_disabled":false,"rental_uris":{"android":"levelo://app?vid=b064664a-37e6-4027-8d08-cb54eda1e955","ios":"levelo://app?vid=b064664a-37e6-4027-8d08-cb54eda1e955"},"vehicle_type_id":"4","last_reported":1747256919,"current_range_meters":18000,"station_id":"","pricing_plan_id":"cebpf4jnsgd1na2vs0mg"},{"bike_id":"506ce359-d7dd-497d-8649-b806f31396e0","system_id":"levelo_inurba_marseille","lat":43.29786,"lon":5.39342,"is_reserved":false,"is_disabled":false,"rental_uris":{"android":"levelo://app?vid=506ce359-d7dd-497d-8649-b806f31396e0","ios":"levelo://app?vid=506ce359-d7dd-497d-8649-b806f31396e0"},"vehicle_type_id":"4","last_reported":1747256919,"current_range_meters":18000,"station_id":"chh1huq6cuj3fo74tm60","pricing_plan_id":"cebpf4jnsgd1na2vs0mg"},{"bike_id":"86c033af-706e-4069-beba-6756cdd575c0","system_id":"levelo_inurba_marseille","lat":43.28971,"lon":5.36387,"is_reserved":false,"is_disabled":false,"rental_uris":{"android":"levelo://app?vid=86c033af-706e-4069-beba-6756cdd575c0","ios":"levelo://app?vid=86c033af-706e-4069-beba-6756cdd575c0"},"vehicle_type_id":"4","last_reported":1747256919,"current_range_meters":18800,"station_id":"ce4bhc92rcd13ifvqetg","pricing_plan_id":"cebpf4jnsgd1na2vs0mg"},{"bike_id":"5b4d94d5-d1fb-4594-8ced-01262346e7e4","system_id":"levelo_inurba_marseille","lat":43.286173,"lon":5.370586,"is_reserved":false,"is_disabled":false,"rental_uris":{"android":"levelo://app?vid=5b4d94d5-d1fb-4594-8ced-01262346e7e4","ios":"levelo://app?vid=5b4d94d5-d1fb-4594-8ced-01262346e7e4"},"vehicle_type_id":"4","last_reported":1747256919,"current_range_meters":18800,"station_id":"ce4bht12rcd13ifvqi60","pricing_plan_id":"cebpf4jnsgd1na2vs0mg"},{"bike_id":"ad60039a-2887-4b9e-b9d4-922130a2cb14","system_id":"levelo_inurba_marseille","lat":43.329373,"lon":5.364,"is_reserved":false,"is_disabled":false,"rental_uris":{"android":"levelo://app?vid=ad60039a-2887-4b9e-b9d4-922130a2cb14","ios":"levelo://app?vid=ad60039a-2887-4b9e-b9d4-922130a2cb14"},"vehicle_type_id":"4","last_reported":1747256919,"current_range_meters":18800,"station_id":"","pricing_plan_id":"cebpf4jnsgd1na2vs0mg"},{"bike_id":"46c3abf7-df93-4181-9244-7044ada5c7f0","system_id":"levelo_inurba_marseille","lat":43.3042,"lon":5.41269,"is_reserved":false,"is_disabled":false,"rental_uris":{"android":"levelo://app?vid=46c3abf7-df93-4181-9244-7044ada5c7f0","ios":"levelo://app?vid=46c3abf7-df93-4181-9244-7044ada5c7f0"},"vehicle_type_id":"4","last_reported":1747256919,"current_range_meters":18800,"station_id":"ce4bhop2rcd13ifvqh8g","pricing_plan_id":"cebpf4jnsgd1na2vs0mg"},{"bike_id":"a97e7f2f-a4bd-43dc-a4a3-f47c4b150cbd","system_id":"levelo_inurba_marseille","lat":43.24187,"lon":5.39726,"is_reserved":false,"is_disabled":false,"rental_uris":{"android":"levelo://app?vid=a97e7f2f-a4bd-43dc-a4a3-f47c4b150cbd","ios":"levelo://app?vid=a97e7f2f-a4bd-43dc-a4a3-f47c4b150cbd"},"vehicle_type_id":"4","last_reported":1747256919,"current_range_meters":18800,"station_id":"ce4bhn12rcd13ifvqgpg","pricing_plan_id":"cebpf4jnsgd1na2vs0mg"},{"bike_id":"2b2f264c-02ca-49f3-b5ee-0214687ba764","system_id":"levelo_inurba_marseille","lat":43.31226,"lon":5.36884,"is_reserved":false,"is_disabled":false,"rental_uris":{"android":"levelo://app?vid=2b2f264c-02ca-49f3-b5ee-0214687ba764","ios":"levelo://app?vid=2b2f264c-02ca-49f3-b5ee-0214687ba764"},"vehicle_type_id":"4","last_reported":1747256919,"current_range_meters":18800,"station_id":"ce4bgl92rcd13ifvqbq0","pricing_plan_id":"cebpf4jnsgd1na2vs0mg"},{"bike_id":"d7050558-65ac-4a68-a76c-6a37942a4b17","system_id":"levelo_inurba_marseille","lat":43.30431,"lon":5.38885,"is_reserved":false,"is_disabled":false,"rental_uris":{"android":"levelo://app?vid=d7050558-65ac-4a68-a76c-6a37942a4b17","ios":"levelo://app?vid=d7050558-65ac-4a68-a76c-6a37942a4b17"},"vehicle_type_id":"4","last_reported":1747256919,"current_range_meters":18800,"station_id":"ce4bgk12rcd13ifvqbi0","pricing_plan_id":"cebpf4jnsgd1na2vs0mg"},{"bike_id":"335ce41f-939e-4323-8ccd-a3ddaed9ae09","system_id":"levelo_inurba_marseille","lat":43.295282,"lon":5.38545,"is_reserved":false,"is_disabled":false,"rental_uris":{"android":"levelo://app?vid=335ce41f-939e-4323-8ccd-a3ddaed9ae09","ios":"levelo://app?vid=335ce41f-939e-4323-8ccd-a3ddaed9ae09"},"vehicle_type_id":"4","last_reported":1747256919,"current_range_meters":18800,"station_id":"ce4bgih2rcd13ifvqba0","pricing_plan_id":"cebpf4jnsgd1na2vs0mg"},{"bike_id":"2c48c5a7-0331-448d-9666-066cdbc9adc2","system_id":"levelo_inurba_marseille","lat":43.21752,"lon":5.34603,"is_reserved":false,"is_disabled":false,"rental_uris":{"android":"levelo://app?vid=2c48c5a7-0331-448d-9666-066cdbc9adc2","ios":"levelo://app?vid=2c48c5a7-0331-448d-9666-066cdbc9adc2"},"vehicle_type_id":"4","last_reported":1747256919,"current_range_meters":18800,"station_id":"st_cvj6r9ubvosntc0bgbag","pricing_plan_id":"cebpf4jnsgd1na2vs0mg"},{"bike_id":"a6002c7f-3b00-4265-bf42-2020668e804b","system_id":"levelo_inurba_marseille","lat":43.30939,"lon":5.40147,"is_reserved":false,"is_disabled":false,"rental_uris":{"android":"levelo://app?vid=a6002c7f-3b00-4265-bf42-2020668e804b","ios":"levelo://app?vid=a6002c7f-3b00-4265-bf42-2020668e804b"},"vehicle_type_id":"4","last_reported":1747256919,"current_range_meters":18800,"station_id":"ce4bgvp2rcd13ifvqct0","pricing_plan_id":"cebpf4jnsgd1na2vs0mg"},{"bike_id":"c2533493-8b6f-47bd-9be4-1eec3ed8b18a","system_id":"levelo_inurba_marseille","lat":43.31094,"lon":5.42422,"is_reserved":false,"is_disabled":false,"rental_uris":{"android":"levelo://app?vid=c2533493-8b6f-47bd-9be4-1eec3ed8b18a","ios":"levelo://app?vid=c2533493-8b6f-47bd-9be4-1eec3ed8b18a"},"vehicle_type_id":"4","last_reported":1747256919,"current_range_meters":19200,"station_id":"ce4bhp92rcd13ifvqhag","pricing_plan_id":"cebpf4jnsgd1na2vs0mg"},{"bike_id":"4a913bd6-1453-4218-8e48-da6c138e4cb3","system_id":"levelo_inurba_marseille","lat":43.29248,"lon":5.40901,"is_reserved":false,"is_disabled":false,"rental_uris":{"android":"levelo://app?vid=4a913bd6-1453-4218-8e48-da6c138e4cb3","ios":"levelo://app?vid=4a913bd6-1453-4218-8e48-da6c138e4cb3"},"vehicle_type_id":"4","last_reported":1747256919,"current_range_meters":19200,"station_id":"ce4bh192rcd13ifvqdc0","pricing_plan_id":"cebpf4jnsgd1na2vs0mg"},{"bike_id":"b9d4a133-c6ad-42b4-a6f8-2b529d40398a","system_id":"levelo_inurba_marseille","lat":43.289827,"lon":5.366538,"is_reserved":false,"is_disabled":false,"rental_uris":{"android":"levelo://app?vid=b9d4a133-c6ad-42b4-a6f8-2b529d40398a","ios":"levelo://app?vid=b9d4a133-c6ad-42b4-a6f8-2b529d40398a"},"vehicle_type_id":"4","last_reported":1747256919,"current_range_meters":19200,"station_id":"","pricing_plan_id":"cebpf4jnsgd1na2vs0mg"},{"bike_id":"9a402898-f116-408b-8709-c62dd77d2b5d","system_id":"levelo_inurba_marseille","lat":43.29359,"lon":5.42825,"is_reserved":false,"is_disabled":false,"rental_uris":{"android":"levelo://app?vid=9a402898-f116-408b-8709-c62dd77d2b5d","ios":"levelo://app?vid=9a402898-f116-408b-8709-c62dd77d2b5d"},"vehicle_type_id":"4","last_reported":1747256919,"current_range_meters":19200,"station_id":"","pricing_plan_id":"cebpf4jnsgd1na2vs0mg"},{"bike_id":"bfd7292f-0dc3-4d16-8393-ce7be3db558b","system_id":"levelo_inurba_marseille","lat":43.30926,"lon":5.40146,"is_reserved":false,"is_disabled":false,"rental_uris":{"android":"levelo://app?vid=bfd7292f-0dc3-4d16-8393-ce7be3db558b","ios":"levelo://app?vid=bfd7292f-0dc3-4d16-8393-ce7be3db558b"},"vehicle_type_id":"4","last_reported":1747256919,"current_range_meters":19200,"station_id":"ce4bgvp2rcd13ifvqct0","pricing_plan_id":"cebpf4jnsgd1na2vs0mg"},{"bike_id":"843a66d5-ff66-4f72-9857-2d8f41369686","system_id":"levelo_inurba_marseille","lat":43.27956,"lon":5.38681,"is_reserved":false,"is_disabled":false,"rental_uris":{"android":"levelo://app?vid=843a66d5-ff66-4f72-9857-2d8f41369686","ios":"levelo://app?vid=843a66d5-ff66-4f72-9857-2d8f41369686"},"vehicle_type_id":"4","last_reported":1747256919,"current_range_meters":19200,"station_id":"","pricing_plan_id":"cebpf4jnsgd1na2vs0mg"},{"bike_id":"70c1c9f7-710d-44b2-9eb2-40dcacaab646","system_id":"levelo_inurba_marseille","lat":43.31078,"lon":5.42428,"is_reserved":false,"is_disabled":false,"rental_uris":{"android":"levelo://app?vid=70c1c9f7-710d-44b2-9eb2-40dcacaab646","ios":"levelo://app?vid=70c1c9f7-710d-44b2-9eb2-40dcacaab646"},"vehicle_type_id":"4","last_reported":1747256919,"current_range_meters":19200,"station_id":"ce4bhp92rcd13ifvqhag","pricing_plan_id":"cebpf4jnsgd1na2vs0mg"},{"bike_id":"a989f7c2-cc47-4dc1-bdc6-cfa743c6bc34","system_id":"levelo_inurba_marseille","lat":43.30435,"lon":5.39749,"is_reserved":false,"is_disabled":false,"rental_uris":{"android":"levelo://app?vid=a989f7c2-cc47-4dc1-bdc6-cfa743c6bc34","ios":"levelo://app?vid=a989f7c2-cc47-4dc1-bdc6-cfa743c6bc34"},"vehicle_type_id":"4","last_reported":1747256919,"current_range_meters":19200,"station_id":"ce4bh092rcd13ifvqd20","pricing_plan_id":"cebpf4jnsgd1na2vs0mg"},{"bike_id":"9fb1895a-1f16-4d91-ab5f-69d036530215","system_id":"levelo_inurba_marseille","lat":43.28347,"lon":5.38107,"is_reserved":false,"is_disabled":false,"rental_uris":{"android":"levelo://app?vid=9fb1895a-1f16-4d91-ab5f-69d036530215","ios":"levelo://app?vid=9fb1895a-1f16-4d91-ab5f-69d036530215"},"vehicle_type_id":"4","last_reported":1747256919,"current_range_meters":19200,"station_id":"ce4bh412rcd13ifvqdr0","pricing_plan_id":"cebpf4jnsgd1na2vs0mg"},{"bike_id":"7922656e-2239-47c0-af52-f0f323542cc6","system_id":"levelo_inurba_marseille","lat":43.24174,"lon":5.36392,"is_reserved":false,"is_disabled":false,"rental_uris":{"android":"levelo://app?vid=7922656e-2239-47c0-af52-f0f323542cc6","ios":"levelo://app?vid=7922656e-2239-47c0-af52-f0f323542cc6"},"vehicle_type_id":"4","last_reported":1747256919,"current_range_meters":19200,"station_id":"cpo36qri1sfpv3e86is0","pricing_plan_id":"cebpf4jnsgd1na2vs0mg"},