{"last_updated":1718215852,"ttl":30,"version":"2.2","data":{"bikes":[{"bike_id":"40ab9838-6f08-4f78-a80f-9a07fcd952b1","system_id":"levelo_inurba_marseille","lat":43.313391,"lon":5.36706,"is_reserved":false,"is_disabled":false,"rental_uris":{"android":"levelo://app?vid=40ab9838-6f08-4f78-a80f-9a07fcd952b1","ios":"levelo://app?vid=40ab9838-6f08-4f78-a80f-9a07fcd952b1"},"vehicle_type_id":"4","last_reported":1718215852,"current_range_meters":25200,"station_id":"ce4bgr92rcd13ifvqc6g","pricing_plan_id":"cebpf4jnsgd1na2vs0mg"},{"bike_id":"e40a4dc9-28e7-45f0-983d-b063551ddcb8","system_id":"levelo_inurba_marseille","lat":43.312239,"lon":5.368562,"is_reserved":false,"is_disabled":false,"rental_uris":{"android":"levelo://app?vid=e40a4dc9-28e7-45f0-983d-b063551ddcb8","ios":"levelo://app?vid=e40a4dc9-28e7-45f0-983d-b063551ddcb8"},"vehicle_type_id":"4","last_reported":1718215852,"current_range_meters":4400,"station_id":"ce4bgl92rcd13ifvqbq0","pricing_plan_id":"cebpf4jnsgd1na2vs0mg"},{"bike_id":"b6485da7-863a-47a0-82c7-1ab0f7ed2636","system_id":"levelo_inurba_marseille","lat":43.312239,"lon":5.368562,"is_reserved":false,"is_disabled":false,"rental_uris":{"android":"levelo://app?vid=b6485da7-863a-47a0-82c7-1ab0f7ed2636","ios":"levelo://app?vid=b6485da7-863a-47a0-82c7-1ab0f7ed2636"},"vehicle_type_id":"4","last_reported":1718215852,"current_range_meters":19600,"station_id":"ce4bgl92rcd13ifvqbq0","pricing_plan_id":"cebpf4jnsgd1na2vs0mg"},{"bike_id":"1bf47f95-9557-454c-a27d-5b502712e17e","system_id":"levelo_inurba_marseille","lat":43.312239,"lon":5.368562,"is_reserved":false,"is_disabled":false,"rental_uris":{"android":"levelo://app?vid=1bf47f95-9557-454c-a27d-5b502712e17e","ios":"levelo://app?vid=1bf47f95-9557-454c-a27d-5b502712e17e"},"vehicle_type_id":"4","last_reported":1718215852,"current_range_meters":7600,"station_id":"ce4bgl92rcd13ifvqbq0","pricing_plan_id":"cebpf4jnsgd1na2vs0mg"},{"bike_id":"de27f82e-81d6-42cc-9854-7ad08b628ee0","system_id":"levelo_inurba_marseille","lat":43.3151,"lon":5.37119,"is_reserved":false,"is_disabled":false,"rental_uris":{"android":"levelo://app?vid=de27f82e-81d6-42cc-9854-7ad08b628ee0","ios":"levelo://app?vid=de27f82e-81d6-42cc-9854-7ad08b628ee0"},"vehicle_type_id":"4","last_reported":1718215852,"current_range_meters":20000,"station_id":"","pricing_plan_id":"cebpf4jnsgd1na2vs0mg"},{"bike_id":"0320f805-e02a-4f3b-9605-a5aa86142c60","system_id":"levelo_inurba_marseille","lat":43.31489,"lon":5.37308,"is_reserved":false,"is_disabled":false,"rental_uris":{"android":"levelo://app?vid=0320f805-e02a-4f3b-9605-a5aa86142c60","ios":"levelo://app?vid=0320f805-e02a-4f3b-9605-a5aa86142c60"},"vehicle_type_id":"4","last_reported":1718215852,"current_range_meters":2000,"station_id":"ce4bgt12rcd13ifvqcd0","pricing_plan_id":"cebpf4jnsgd1na2vs0mg"},{"bike_id":"0791a099-f2fb-4a43-9d9e-2b2a4824afa3","system_id":"levelo_inurba_marseille","lat":43.314811,"lon":5.373103,"is_reserved":false,"is_disabled":false,"rental_uris":{"android":"levelo://app?vid=0791a099-f2fb-4a43-9d9e-2b2a4824afa3","ios":"levelo://app?vid=0791a099-f2fb-4a43-9d9e-2b2a4824afa3"},"vehicle_type_id":"4","last_reported":1718215852,"current_range_meters":20400,"station_id":"ce4bgt12rcd13ifvqcd0","pricing_plan_id":"cebpf4jnsgd1na2vs0mg"},{"bike_id":"6d75b9cd-ff34-4754-b4bc-5618eb692340","system_id":"levelo_inurba_marseille","lat":43.31487,"lon":5.3732,"is_reserved":false,"is_disabled":false,"rental_uris":{"android":"levelo://app?vid=6d75b9cd-ff34-4754-b4bc-5618eb692340","ios":"levelo://app?vid=6d75b9cd-ff34-4754-b4bc-5618eb692340"},"vehicle_type_id":"4","last_reported":1718215852,"current_range_meters":30000,"station_id":"ce4bgt12rcd13ifvqcd0","pricing_plan_id":"cebpf4jnsgd1na2vs0mg"},{"bike_id":"d7a9cd25-b00e-490f-972a-576938e7f00a","system_id":"levelo_inurba_marseille","lat":43.31495,"lon":5.37317,"is_reserved":false,"is_disabled":false,"rental_uris":{"android":"levelo://app?vid=d7a9cd25-b00e-490f-972a-576938e7f00a","ios":"levelo://app?vid=d7a9cd25-b00e-490f-972a-576938e7f00a"},"vehicle_type_id":"4","last_reported":1718215852,"current_range_meters":15200,"station_id":"ce4bgt12rcd13ifvqcd0","pricing_plan_id":"cebpf4jnsgd1na2vs0mg"},{"bike_id":"1e42f9eb-5ec4-4e09-9846-f854f7a78127","system_id":"levelo_inurba_marseille","lat":43.309039,"lon":5.371797,"is_reserved":false,"is_disabled":false,"rental_uris":{"android":"levelo://app?vid=1e42f9eb-5ec4-4e09-9846-f854f7a78127","ios":"levelo://app?vid=1e42f9eb-5ec4-4e09-9846-f854f7a78127"},"vehicle_type_id":"4","last_reported":1718215852,"current_range_meters":1600,"station_id":"ce4bguh2rcd13ifvqckg","pricing_plan_id":"cebpf4jnsgd1na2vs0mg"},{"bike_id":"2b6c1948-7f05-4cb9-a5fa-6ee4e4026032","system_id":"levelo_inurba_marseille","lat":43.305714,"lon":5.365633,"is_reserved":false,"is_disabled":false,"rental_uris":{"android":"levelo://app?vid=2b6c1948-7f05-4cb9-a5fa-6ee4e4026032","ios":"levelo://app?vid=2b6c1948-7f05-4cb9-a5fa-6ee4e4026032"},"vehicle_type_id":"4","last_reported":1718215852,"current_range_meters":2400,"station_id":"ce4bgs12rcd13ifvqcag","pricing_plan_id":"cebpf4jnsgd1na2vs0mg"},{"bike_id":"b8038f12-59aa-4efb-83c4-fc51ac551745","system_id":"levelo_inurba_marseille","lat":43.305989,"lon":5.37225,"is_reserved":false,"is_disabled":false,"rental_uris":{"android":"levelo://app?vid=b8038f12-59aa-4efb-83c4-fc51ac551745","ios":"levelo://app?vid=b8038f12-59aa-4efb-83c4-fc51ac551745"},"vehicle_type_id":"4","last_reported":1718215852,"current_range_meters":9600,"station_id":"ce4bgqh2rcd13ifvqc4g","pricing_plan_id":"cebpf4jnsgd1na2vs0mg"},{"bike_id":"2989b286-4ce5-4a99-8e4c-676ef9a3eb78","system_id":"levelo_inurba_marseille","lat":43.311125,"lon":5.377624,"is_reserved":false,"is_disabled":false,"rental_uris":{"android":"levelo://app?vid=2989b286-4ce5-4a99-8e4c-676ef9a3eb78","ios":"levelo://app?vid=2989b286-4ce5-4a99-8e4c-676ef9a3eb78"},"vehicle_type_id":"4","last_reported":1718215852,"current_range_meters":8400,"station_id":"ce4bgt92rcd13ifvqcg0","pricing_plan_id":"cebpf4jnsgd1na2vs0mg"},{"bike_id":"92dca8d6-596f-4721-90bd-d3a19667d2fb","system_id":"levelo_inurba_marseille","lat":43.30784,"lon":5.37643,"is_reserved":false,"is_disabled":false,"rental_uris":{"android":"levelo://app?vid=92dca8d6-596f-4721-90bd-d3a19667d2fb","ios":"levelo://app?vid=92dca8d6-596f-4721-90bd-d3a19667d2fb"},"vehicle_type_id":"4","last_reported":1718215852,"current_range_meters":0,"station_id":"ce4bgv92rcd13ifvqcq0","pricing_plan_id":"cebpf4jnsgd1na2vs0mg"},{"bike_id":"5a2baa9d-c57e-49ea-b6fc-ffd85f2ac933","system_id":"levelo_inurba_marseille","lat":43.317075,"lon":5.377367,"is_reserved":false,"is_disabled":false,"rental_uris":{"android":"levelo://app?vid=5a2baa9d-c57e-49ea-b6fc-ffd85f2ac933","ios":"levelo://app?vid=5a2baa9d-c57e-49ea-b6fc-ffd85f2ac933"},"vehicle_type_id":"4","last_reported":1718215852,"current_range_meters":1200,"station_id":"ce4bgth2rcd13ifvqch0","pricing_plan_id":"cebpf4jnsgd1na2vs0mg"},{"bike_id":"ec15e0ff-b8b6-48a1-a72e-653672c93fff","system_id":"levelo_inurba_marseille","lat":43.317075,"lon":5.377367,"is_reserved":false,"is_disabled":false,"rental_uris":{"android":"levelo://app?vid=ec15e0ff-b8b6-48a1-a72e-653672c93fff","ios":"levelo://app?vid=ec15e0ff-b8b6-48a1-a72e-653672c93fff"},"vehicle_type_id":"4","last_reported":1718215852,"current_range_meters":1200,"station_id":"ce4bgth2rcd13ifvqch0","pricing_plan_id":"cebpf4jnsgd1na2vs0mg"},{"bike_id":"01ca70b6-4e2c-42cb-9aed-a8b80d5ea29c","system_id":"levelo_inurba_marseille","lat":43.309287,"lon":5.379113,"is_reserved":false,"is_disabled":false,"rental_uris":{"android":"levelo://app?vid=01ca70b6-4e2c-42cb-9aed-a8b80d5ea29c","ios":"levelo://app?vid=01ca70b6-4e2c-42cb-9aed-a8b80d5ea29c"},"vehicle_type_id":"4","last_reported":1718215852,"current_range_meters":7200,"station_id":"","pricing_plan_id":"cebpf4jnsgd1na2vs0mg"},{"bike_id":"b0e90579-c219-400f-8c92-3432480f66c8","system_id":"levelo_inurba_marseille","lat":43.301429,"lon":5.37413,"is_reserved":false,"is_disabled":false,"rental_uris":{"android":"levelo://app?vid=b0e90579-c219-400f-8c92-3432480f66c8","ios":"levelo://app?vid=b0e90579-c219-400f-8c92-3432480f66c8"},"vehicle_type_id":"4","last_reported":1718215852,"current_range_meters":1600,"station_id":"ce4bgs92rcd13ifvqcc0","pricing_plan_id":"cebpf4jnsgd1na2vs0mg"},{"bike_id":"b3bdd376-0629-4829-9482-267364a4edd7","system_id":"levelo_inurba_marseille","lat":43.304606,"lon":5.379026,"is_reserved":false,"is_disabled":false,"rental_uris":{"android":"levelo://app?vid=b3bdd376-0629-4829-9482-267364a4edd7","ios":"levelo://app?vid=b3bdd376-0629-4829-9482-267364a4edd7"},"vehicle_type_id":"4","last_reported":1718215852,"current_range_meters":0,"station_id":"ce4bgup2rcd13ifvqcn0","pricing_plan_id":"cebpf4jnsgd1na2vs0mg"},{"bike_id":"87229c14-6aa8-43f4-8f59-37ee8b567805","system_id":"levelo_inurba_marseille","lat":43.30464,"lon":5.37895,"is_reserved":false,"is_disabled":false,"rental_uris":{"android":"levelo://app?vid=87229c14-6aa8-43f4-8f59-37ee8b567805","ios":"levelo://app?vid=87229c14-6aa8-43f4-8f59-37ee8b567805"},"vehicle_type_id":"4","last_reported":1718215852,"current_range_meters":0,"station_id":"ce4bgup2rcd13ifvqcn0","pricing_plan_id":"cebpf4jnsgd1na2vs0mg"},{"bike_id":"9eedb0de-d9bc-4a5e-b4c5-42754b3b0e26","system_id":"levelo_inurba_marseille","lat":43.310804,"lon":5.38359,"is_reserved":false,"is_disabled":false,"rental_uris":{"android":"levelo://app?vid=9eedb0de-d9bc-4a5e-b4c5-42754b3b0e26","ios":"levelo://app?vid=9eedb0de-d9bc-4a5e-b4c5-42754b3b0e26"},"vehicle_type_id":"4","last_reported":1718215852,"current_range_meters":0,"station_id":"ce4bgv92rcd13ifvqcr0","pricing_plan_id":"cebpf4jnsgd1na2vs0mg"},{"bike_id":"2c6cf80e-248d-4dbf-b16d-1dbdda7b8556","system_id":"levelo_inurba_marseille","lat":43.302784,"lon":5.377158,"is_reserved":false,"is_disabled":false,"rental_uris":{"android":"levelo://app?vid=2c6cf80e-248d-4dbf-b16d-1dbdda7b8556","ios":"levelo://app?vid=2c6cf80e-248d-4dbf-b16d-1dbdda7b8556"},"vehicle_type_id":"4","last_reported":1718215852,"current_range_meters":23200,"station_id":"ce4bguh2rcd13ifvqcj0","pricing_plan_id":"cebpf4jnsgd1na2vs0mg"},{"bike_id":"02c58b23-f02d-46a0-b257-13ee94837aa3","system_id":"levelo_inurba_marseille","lat":43.310804,"lon":5.38359,"is_reserved":false,"is_disabled":false,"rental_uris":{"android":"levelo://app?vid=02c58b23-f02d-46a0-b257-13ee94837aa3","ios":"levelo://app?vid=02c58b23-f02d-46a0-b257-13ee94837aa3"},"vehicle_type_id":"4","last_reported":1718215852,"current_range_meters":4400,"station_id":"ce4bgv92rcd13ifvqcr0","pricing_plan_id":"cebpf4jnsgd1na2vs0mg"},{"bike_id":"dfc032ce-4d81-4589-bc0c-d082fcda3456","system_id":"levelo_inurba_marseille","lat":43.301429,"lon":5.37413,"is_reserved":false,"is_disabled":false,"rental_uris":{"android":"levelo://app?vid=dfc032ce-4d81-4589-bc0c-d082fcda3456","ios":"levelo://app?vid=dfc032ce-4d81-4589-bc0c-d082fcda3456"},"vehicle_type_id":"4","last_reported":1718215852,"current_range_meters":9200,"station_id":"ce4bgs92rcd13ifvqcc0","pricing_plan_id":"cebpf4jnsgd1na2vs0mg"},{"bike_id":"6eab4802-ba13-402a-80ef-1576b085cf38","system_id":"levelo_inurba_marseille","lat":43.302784,"lon":5.377158,"is_reserved":false,"is_disabled":false,"rental_uris":{"android":"levelo://app?vid=6eab4802-ba13-402a-80ef-1576b085cf38","ios":"levelo://app?vid=6eab4802-ba13-402a-80ef-1576b085cf38"},"vehicle_type_id":"4","last_reported":1718215852,"current_range_meters":1600,"station_id":"ce4bguh2rcd13ifvqcj0","pricing_plan_id":"cebpf4jnsgd1na2vs0mg"},{"bike_id":"d2e7f866-3150-4904-9e70-8e8fca76bf32","system_id":"levelo_inurba_marseille","lat":43.302784,"lon":5.377158,"is_reserved":false,"is_disabled":false,"rental_uris":{"android":"levelo://app?vid=d2e7f866-3150-4904-9e70-8e8fca76bf32","ios":"levelo://app?vid=d2e7f866-3150-4904-9e70-8e8fca76bf32"},"vehicle_type_id":"4","last_reported":1718215852,"current_range_meters":20000,"station_id":"ce4bguh2rcd13ifvqcj0","pricing_plan_id":"cebpf4jnsgd1na2vs0mg"},{"bike_id":"e54b9a52-5713-4543-9d37-214df982d783","system_id":"levelo_inurba_marseille","lat":43.302784,"lon":5.377158,"is_reserved":false,"is_disabled":false,"rental_uris":{"android":"levelo://app?vid=e54b9a52-5713-4543-9d37-214df982d783","ios":"levelo://app?vid=e54b9a52-5713-4543-9d37-214df982d783"},"vehicle_type_id":"4","last_reported":1718215852,"current_range_meters":3600,"station_id":"ce4bguh2rcd13ifvqcj0","pricing_plan_id":"cebpf4jnsgd1na2vs0mg"},{"bike_id":"afddd7cd-f1c9-4357-b537-681d8f34d35f","system_id":"levelo_inurba_marseille","lat":43.313571,"lon":5.384829,"is_reserved":false,"is_disabled":false,"rental_uris":{"android":"levelo://app?vid=afddd7cd-f1c9-4357-b537-681d8f34d35f","ios":"levelo://app?vid=afddd7cd-f1c9-4357-b537-681d8f34d35f"},"vehicle_type_id":"4","last_reported":1718215852,"current_range_meters":4800,"station_id":"ce4bgt92rcd13ifvqcf0","pricing_plan_id":"cebpf4jnsgd1na2vs0mg"},{"bike_id":"c7a71ff6-57a7-4f36-8357-9c95cf42b41f","system_id":"levelo_inurba_marseille","lat":43.313571,"lon":5.384829,"is_reserved":false,"is_disabled":false,"rental_uris":{"android":"levelo://app?vid=c7a71ff6-57a7-4f36-8357-9c95cf42b41f","ios":"levelo://app?vid=c7a71ff6-57a7-4f36-8357-9c95cf42b41f"},"vehicle_type_id":"4","last_reported":1718215852,"current_range_meters":9600,"station_id":"ce4bgt92rcd13ifvqcf0","pricing_plan_id":"cebpf4jnsgd1na2vs0mg"},{"bike_id":"442c0cf1-23f6-4f0e-8d81-875cf4f83641","system_id":"levelo_inurba_marseille","lat":43.313571,"lon":5.384829,"is_reserved":false,"is_disabled":false,"rental_uris":{"android":"levelo://app?vid=442c0cf1-23f6-4f0e-8d81-875cf4f83641","ios":"levelo://app?vid=442c0cf1-23f6-4f0e-8d81-875cf4f83641"},"vehicle_type_id":"4","last_reported":1718215852,"current_range_meters":2400,"station_id":"ce4bgt92rcd13ifvqcf0","pricing_plan_id":"cebpf4jnsgd1na2vs0mg"},{"bike_id":"819bc18e-57d6-48e2-997b-c89298a43e1d","system_id":"levelo_inurba_marseille","lat":43.313571,"lon":5.384829,"is_reserved":false,"is_disabled":false,"rental_uris":{"android":"levelo://app?vid=819bc18e-57d6-48e2-997b-c89298a43e1d","ios":"levelo://app?vid=819bc18e-57d6-48e2-997b-c89298a43e1d"},"vehicle_type_id":"4","last_reported":1718215852,"current_range_meters":28400,"station_id":"ce4bgt92rcd13ifvqcf0","pricing_plan_id":"cebpf4jnsgd1na2vs0mg"},{"bike_id":"eb08c245-fe27-42bb-b063-0d1216f785be","system_id":"levelo_inurba_marseille","lat":43.299724,"lon":5.371829,"is_reserved":false,"is_disabled":false,"rental_uris":{"android":"levelo://app?vid=eb08c245-fe27-42bb-b063-0d1216f785be","ios":"levelo://app?vid=eb08c245-fe27-42bb-b063-0d1216f785be"},"vehicle_type_id":"4","last_reported":1718215852,"current_range_meters":5200,"station_id":"ce4bgr92rcd13ifvqc7g","pricing_plan_id":"cebpf4jnsgd1na2vs0mg"},{"bike_id":"f3e59a47-eabe-4074-a66e-e4f5ca58414e","system_id":"levelo_inurba_marseille","lat":43.299724,"lon":5.371829,"is_reserved":false,"is_disabled":false,"rental_uris":{"android":"levelo://app?vid=f3e59a47-eabe-4074-a66e-e4f5ca58414e","ios":"levelo://app?vid=f3e59a47-eabe-4074-a66e-e4f5ca58414e"},"vehicle_type_id":"4","last_reported":1718215852,"current_range_meters":0,"station_id":"ce4bgr92rcd13ifvqc7g","pricing_plan_id":"cebpf4jnsgd1na2vs0mg"},{"bike_id":"08cc66de-1829-4efe-98ae-8d018d9a9d90","system_id":"levelo_inurba_marseille","lat":43.305364,"lon":5.384119,"is_reserved":false,"is_disabled":false,"rental_uris":{"android":"levelo://app?vid=08cc66de-1829-4efe-98ae-8d018d9a9d90","ios":"levelo://app?vid=08cc66de-1829-4efe-98ae-8d018d9a9d90"},"vehicle_type_id":"4","last_reported":1718215852,"current_range_meters":17200,"station_id":"ce4bgg92rcd13ifvqb30","pricing_plan_id":"cebpf4jnsgd1na2vs0mg"},{"bike_id":"db11e0b0-f194-4131-aa98-ad2daddc2b85","system_id":"levelo_inurba_marseille","lat":43.298433,"lon":5.362774,"is_reserved":false,"is_disabled":false,"rental_uris":{"android":"levelo://app?vid=db11e0b0-f194-4131-aa98-ad2daddc2b85","ios":"levelo://app?vid=db11e0b0-f194-4131-aa98-ad2daddc2b85"},"vehicle_type_id":"4","last_reported":1718215852,"current_range_meters":1600,"station_id":"ce4bgpp2rcd13ifvqc3g","pricing_plan_id":"cebpf4jnsgd1na2vs0mg"},{"bike_id":"db4a8f2a-90f3-470f-bfc2-f4c598b2074b","system_id":"levelo_inurba_marseille","lat":43.311722,"lon":5.387247,"is_reserved":false,"is_disabled":false,"rental_uris":{"android":"levelo://app?vid=db4a8f2a-90f3-470f-bfc2-f4c598b2074b","ios":"levelo://app?vid=db4a8f2a-90f3-470f-bfc2-f4c598b2074b"},"vehicle_type_id":"4","last_reported":1718215852,"current_range_meters":5600,"station_id":"ce4bgv12rcd13ifvqcp0","pricing_plan_id":"cebpf4jnsgd1na2vs0mg"},{"bike_id":"8b1a4088-811c-4441-9763-4da5e75a5c17","system_id":"levelo_inurba_marseille","lat":43.311722,"lon":5.387247,"is_reserved":false,"is_disabled":false,"rental_uris":{"android":"levelo://app?vid=8b1a4088-811c-4441-9763-4da5e75a5c17","ios":"levelo://app?vid=8b1a4088-811c-4441-9763-4da5e75a5c17"},"vehicle_type_id":"4","last_reported":1718215852,"current_range_meters":0,"station_id":"ce4bgv12rcd13ifvqcp0","pricing_plan_id":"cebpf4jnsgd1na2vs0mg"},{"bike_id":"72765fd7-253f-4c3c-9163-7eeb8bd6c0c3","system_id":"levelo_inurba_marseille","lat":43.311722,"lon":5.387247,"is_reserved":false,"is_disabled":false,"rental_uris":{"android":"levelo://app?vid=72765fd7-253f-4c3c-9163-7eeb8bd6c0c3","ios":"levelo://app?vid=72765fd7-253f-4c3c-9163-7eeb8bd6c0c3"},"vehicle_type_id":"4","last_reported":1718215852,"current_range_meters":4000,"station_id":"ce4bgv12rcd13ifvqcp0","pricing_plan_id":"cebpf4jnsgd1na2vs0mg"},{"bike_id":"fe596353-de56-426e-af43-aa3533297794","system_id":"levelo_inurba_marseille","lat":43.311722,"lon":5.387247,"is_reserved":false,"is_disabled":false,"rental_uris":{"android":"levelo://app?vid=fe596353-de56-426e-af43-aa3533297794","ios":"levelo://app?vid=fe596353-de56-426e-af43-aa3533297794"},"vehicle_type_id":"4","last_reported":1718215852,"current_range_meters":10800,"station_id":"ce4bgv12rcd13ifvqcp0","pricing_plan_id":"cebpf4jnsgd1na2vs0mg"},{"bike_id":"61b5eddb-b239-42b7-b5fb-1100722fef7b","system_id":"levelo_inurba_marseille","lat":43.311722,"lon":5.387247,"is_reserved":false,"is_disabled":false,"rental_uris":{"android":"levelo://app?vid=61b5eddb-b239-42b7-b5fb-1100722fef7b","ios":"levelo://app?vid=61b5eddb-b239-42b7-b5fb-1100722fef7b"},"vehicle_type_id":"4","last_reported":1718215852,"current_range_meters":16800,"station_id":"ce4bgv12rcd13ifvqcp0","pricing_plan_id":"cebpf4jnsgd1na2vs0mg"},{"bike_id":"bdd3a2fd-417d-4979-997f-5eeec324d139","system_id":"levelo_inurba_marseille","lat":43.311722,"lon":5.387247,"is_reserved":false,"is_disabled":false,"rental_uris":{"android":"levelo://app?vid=bdd3a2fd-417d-4979-997f-5eeec324d139","ios":"levelo://app?vid=bdd3a2fd-417d-4979-997f-5eeec324d139"},"vehicle_type_id":"4","last_reported":1718215852,"current_range_meters":0,"station_id":"ce4bgv12rcd13ifvqcp0","pricing_plan_id":"cebpf4jnsgd1na2vs0mg"},{"bike_id":"f2dd140d-6555-49db-8200-02868e966f47","system_id":"levelo_inurba_marseille","lat":43.301393,"lon":5.38085,"is_reserved":false,"is_disabled":false,"rental_uris":{"android":"levelo://app?vid=f2dd140d-6555-49db-8200-02868e966f47","ios":"levelo://app?vid=f2dd140d-6555-49db-8200-02868e966f47"},"vehicle_type_id":"4","last_reported":1718215852,"current_range_meters":2800,"station_id":"","pricing_plan_id":"cebpf4jnsgd1na2vs0mg"},{"bike_id":"42a4aac4-b12f-4b24-81fa-68e5a45f83c4","system_id":"levelo_inurba_marseille","lat":43.297774,"lon":5.370875,"is_reserved":false,"is_disabled":false,"rental_uris":{"android":"levelo://app?vid=42a4aac4-b12f-4b24-81fa-68e5a45f83c4","ios":"levelo://app?vid=42a4aac4-b12f-4b24-81fa-68e5a45f83c4"},"vehicle_type_id":"4","last_reported":1718215852,"current_range_meters":20800,"station_id":"ce4bgop2rcd13ifvqc1g","pricing_plan_id":"cebpf4jnsgd1na2vs0mg"},{"bike_id":"6793ab27-7874-48a4-ba3a-00d5106a4e8a","system_id":"levelo_inurba_marseille","lat":43.322872,"lon":5.382756,"is_reserved":false,"is_disabled":false,"rental_uris":{"android":"levelo://app?vid=6793ab27-7874-48a4-ba3a-00d5106a4e8a","ios":"levelo://app?vid=6793ab27-7874-48a4-ba3a-00d5106a4e8a"},"vehicle_type_id":"4","last_reported":1718215852,"current_range_meters":15600,"station_id":"ce4bhr12rcd13ifvqhqg","pricing_plan_id":"cebpf4jnsgd1na2vs0mg"},{"bike_id":"c32123cd-eecc-4f9a-a83a-4ec57aa019d5","system_id":"levelo_inurba_marseille","lat":43.322872,"lon":5.382756,"is_reserved":false,"is_disabled":false,"rental_uris":{"android":"levelo://app?vid=c32123cd-eecc-4f9a-a83a-4ec57aa019d5","ios":"levelo://app?vid=c32123cd-eecc-4f9a-a83a-4ec57aa019d5"},"vehicle_type_id":"4","last_reported":1718215852,"current_range_meters":24000,"station_id":"ce4bhr12rcd13ifvqhqg","pricing_plan_id":"cebpf4jnsgd1na2vs0mg"},{"bike_id":"56ae48b9-cb8d-4d94-966b-b3be837fb22c","system_id":"levelo_inurba_marseille","lat":43.322913,"lon":5.382752,"is_reserved":false,"is_disabled":false,"rental_uris":{"android":"levelo://app?vid=56ae48b9-cb8d-4d94-966b-b3be837fb22c","ios":"levelo://app?vid=56ae48b9-cb8d-4d94-966b-b3be837fb22c"},"vehicle_type_id":"4","last_reported":1718215852,"current_range_meters":2800,"station_id":"ce4bhr12rcd13ifvqhqg","pricing_plan_id":"cebpf4jnsgd1na2vs0mg"},{"bike_id":"0910f089-1a74-42f1-be05-ce3a5b6e2b55","system_id":"levelo_inurba_marseille","lat":43.322872,"lon":5.382756,"is_reserved":false,"is_disabled":false,"rental_uris":{"android":"levelo://app?vid=0910f089-1a74-42f1-be05-ce3a5b6e2b55","ios":"levelo://app?vid=0910f089-1a74-42f1-be05-ce3a5b6e2b55"},"vehicle_type_id":"4","last_reported":1718215852,"current_range_meters":4800,"station_id":"ce4bhr12rcd13ifvqhqg","pricing_plan_id":"cebpf4jnsgd1na2vs0mg"},{"bike_id":"4f2afbcf-ffe7-4a2e-8e3e-be152f4cfb04","system_id":"levelo_inurba_marseille","lat":43.322872,"lon":5.382756,"is_reserved":false,"is_disabled":false,"rental_uris":{"android":"levelo://app?vid=4f2afbcf-ffe7-4a2e-8e3e-be152f4cfb04","ios":"levelo://app?vid=4f2afbcf-ffe7-4a2e-8e3e-be152f4cfb04"},"vehicle_type_id":"4","last_reported":1718215852,"current_range_meters":31200,"station_id":"ce4bhr12rcd13ifvqhqg","pricing_plan_id":"cebpf4jnsgd1na2vs0mg"},{"bike_id":"b2511413-9aa7-45a2-abd8-5847aeb839df","system_id":"levelo_inurba_marseille","lat":43.2968,"lon":5.37291,"is_reserved":false,"is_disabled":false,"rental_uris":{"android":"levelo://app?vid=b2511413-9aa7-45a2-abd8-5847aeb839df","ios":"levelo://app?vid=b2511413-9aa7-45a2-abd8-5847aeb839df"},"vehicle_type_id":"4","last_reported":1718215852,"current_range_meters":31200,"station_id":"ce4bgk12rcd13ifvqbj0","pricing_plan_id":"cebpf4jnsgd1na2vs0mg"},{"bike_id":"f12fe903-e430-4a5b-854f-91048e026aaf","system_id":"levelo_inurba_marseille","lat":43.32954,"lon":5.36562,"is_reserved":false,"is_disabled":false,"rental_uris":{"android":"levelo://app?vid=f12fe903-e430-4a5b-854f-91048e026aaf","ios":"levelo://app?vid=f12fe903-e430-4a5b-854f-91048e026aaf"},"vehicle_type_id":"4","last_reported":1718215852,"current_range_meters":6000,"station_id":"","pricing_plan_id":"cebpf4jnsgd1na2vs0mg"},{"bike_id":"734746ba-7845-4b7a-b331-6cf9a3dfe0be","system_id":"levelo_inurba_marseille","lat":43.29722,"lon":5.37694,"is_reserved":false,"is_disabled":false,"rental_uris":{"android":"levelo://app?vid=734746ba-7845-4b7a-b331-6cf9a3dfe0be","ios":"levelo://app?vid=734746ba-7845-4b7a-b331-6cf9a3dfe0be"},"vehicle_type_id":"4","last_reported":1718215852,"current_range_meters":0,"station_id":"ce4bgkh2rcd13ifvqbl0","pricing_plan_id":"cebpf4jnsgd1na2vs0mg"},{"bike_id":"cbeefab4-ae0b-4305-9134-1bc9f18c76a8","system_id":"levelo_inurba_marseille","lat":43.299028,"lon":5.381509,"is_reserved":false,"is_disabled":false,"rental_uris":{"android":"levelo://app?vid=cbeefab4-ae0b-4305-9134-1bc9f18c76a8","ios":"levelo://app?vid=cbeefab4-ae0b-4305-9134-1bc9f18c76a8"},"vehicle_type_id":"4","last_reported":1718215852,"current_range_meters":30800,"station_id":"ce4bgj12rcd13ifvqbc0","pricing_plan_id":"cebpf4jnsgd1na2vs0mg"},{"bike_id":"19085b3f-0a5c-4ecc-8227-9a3892afea95","system_id":"levelo_inurba_marseille","lat":43.299028,"lon":5.381509,"is_reserved":false,"is_disabled":false,"rental_uris":{"android":"levelo://app?vid=19085b3f-0a5c-4ecc-8227-9a3892afea95","ios":"levelo://app?vid=19085b3f-0a5c-4ecc-8227-9a3892afea95"},"vehicle_type_id":"4","last_reported":1718215852,"current_range_meters":16400,"station_id":"ce4bgj12rcd13ifvqbc0","pricing_plan_id":"cebpf4jnsgd1na2vs0mg"},{"bike_id":"9d3ddf02-1936-443d-86f2-9fde79acd8be","system_id":"levelo_inurba_marseille","lat":43.299028,"lon":5.381509,"is_reserved":false,"is_disabled":false,"rental_uris":{"android":"levelo://app?vid=9d3ddf02-1936-443d-86f2-9fde79acd8be","ios":"levelo://app?vid=9d3ddf02-1936-443d-86f2-9fde79acd8be"},"vehicle_type_id":"4","last_reported":1718215852,"current_range_meters":22400,"station_id":"ce4bgj12rcd13ifvqbc0","pricing_plan_id":"cebpf4jnsgd1na2vs0mg"},{"bike_id":"f025546a-cda8-461a-8c5a-1d77562085c8","system_id":"levelo_inurba_marseille","lat":43.299028,"lon":5.381509,"is_reserved":false,"is_disabled":false,"rental_uris":{"android":"levelo://app?vid=f025546a-cda8-461a-8c5a-1d77562085c8","ios":"levelo://app?vid=f025546a-cda8-461a-8c5a-1d77562085c8"},"vehicle_type_id":"4","last_reported":1718215852,"current_range_meters":3200,"station_id":"ce4bgj12rcd13ifvqbc0","pricing_plan_id":"cebpf4jnsgd1na2vs0mg"},{"bike_id":"391f2f2e-a498-401d-8a4b-5b3c88ebe1e3","system_id":"levelo_inurba_marseille","lat":43.299028,"lon":5.381509,"is_reserved":false,"is_disabled":false,"rental_uris":{"android":"levelo://app?vid=391f2f2e-a498-401d-8a4b-5b3c88ebe1e3","ios":"levelo://app?vid=391f2f2e-a498-401d-8a4b-5b3c88ebe1e3"},"vehicle_type_id":"4","last_reported":1718215852,"current_range_meters":12800,"station_id":"ce4bgj12rcd13ifvqbc0","pricing_plan_id":"cebpf4jnsgd1na2vs0mg"},{"bike_id":"2ecce1a5-b22b-4bec-8601-80ba8111ce33","system_id":"levelo_inurba_marseille","lat":43.296921,"lon":5.376579,"is_reserved":false,"is_disabled":false,"rental_uris":{"android":"levelo://app?vid=2ecce1a5-b22b-4bec-8601-80ba8111ce33","ios":"levelo://app?vid=2ecce1a5-b22b-4bec-8601-80ba8111ce33"},"vehicle_type_id":"4","last_reported":1718215852,"current_range_meters":24400,"station_id":"ce4bgkh2rcd13ifvqbl0","pricing_plan_id":"cebpf4jnsgd1na2vs0mg"},{"bike_id":"4ea728f6-844d-4d22-b19e-e95a82fb1cd7","system_id":"levelo_inurba_marseille","lat":43.317557,"lon":5.390173,"is_reserved":false,"is_disabled":false,"rental_uris":{"android":"levelo://app?vid=4ea728f6-844d-4d22-b19e-e95a82fb1cd7","ios":"levelo://app?vid=4ea728f6-844d-4d22-b19e-e95a82fb1cd7"},"vehicle_type_id":"4","last_reported":1718215852,"current_range_meters":23600,"station_id":"ce4bhqp2rcd13ifvqhng","pricing_plan_id":"cebpf4jnsgd1na2vs0mg"},{"bike_id":"7b433841-4b11-450d-9efe-dbc4f89d9fd2","system_id":"levelo_inurba_marseille","lat":43.317557,"lon":5.390173,"is_reserved":false,"is_disabled":false,"rental_uris":{"android":"levelo://app?vid=7b433841-4b11-450d-9efe-dbc4f89d9fd2","ios":"levelo://app?vid=7b433841-4b11-450d-9efe-dbc4f89d9fd2"},"vehicle_type_id":"4","last_reported":1718215852,"current_range_meters":19600,"station_id":"ce4bhqp2rcd13ifvqhng","pricing_plan_id":"cebpf4jnsgd1na2vs0mg"},{"bike_id":"b953ac9c-2eb6-4a4a-94b9-a26ce60b6c5e","system_id":"levelo_inurba_marseille","lat":43.317557,"lon":5.390173,"is_reserved":false,"is_disabled":false,"rental_uris":{"android":"levelo://app?vid=b953ac9c-2eb6-4a4a-94b9-a26ce60b6c5e","ios":"levelo://app?vid=b953ac9c-2eb6-4a4a-94b9-a26ce60b6c5e"},"vehicle_type_id":"4","last_reported":1718215852,"current_range_meters":27600,"station_id":"ce4bhqp2rcd13ifvqhng","pricing_plan_id":"cebpf4jnsgd1na2vs0mg"},{"bike_id":"84a8024c-4aff-4efd-8e31-e16fd48654d8","system_id":"levelo_inurba_marseille","lat":43.317557,"lon":5.390173,"is_reserved":false,"is_disabled":false,"rental_uris":{"android":"levelo://app?vid=84a8024c-4aff-4efd-8e31-e16fd48654d8","ios":"levelo://app?vid=84a8024c-4aff-4efd-8e31-e16fd48654d8"},"vehicle_type_id":"4","last_reported":1718215852,"current_range_meters":18800,"station_id":"ce4bhqp2rcd13ifvqhng","pricing_plan_id":"cebpf4jnsgd1na2vs0mg"},{"bike_id":"22197735-dddf-4427-b1e9-fac111a61696","system_id":"levelo_inurba_marseille","lat":43.295748,"lon":5.37522,"is_reserved":false,"is_disabled":false,"rental_uris":{"android":"levelo://app?vid=22197735-dddf-4427-b1e9-fac111a61696","ios":"levelo://app?vid=22197735-dddf-4427-b1e9-fac111a61696"},"vehicle_type_id":"4","last_reported":1718215852,"current_range_meters":12000,"station_id":"ce4bgh92rcd13ifvqb50","pricing_plan_id":"cebpf4jnsgd1na2vs0mg"},{"bike_id":"02b35ccb-9812-4fe7-b88e-ece7ba026d32","system_id":"levelo_inurba_marseille","lat":43.298037,"lon":5.381066,"is_reserved":false,"is_disabled":false,"rental_uris":{"android":"levelo://app?vid=02b35ccb-9812-4fe7-b88e-ece7ba026d32","ios":"levelo://app?vid=02b35ccb-9812-4fe7-b88e-ece7ba026d32"},"vehicle_type_id":"4","last_reported":1718215852,"current_range_meters":25600,"station_id":"ce4bgip2rcd13ifvqbb0","pricing_plan_id":"cebpf4jnsgd1na2vs0mg"},{"bike_id":"d51789ea-eb04-4e0b-b0d1-a567aa1af80c","system_id":"levelo_inurba_marseille","lat":43.304606,"lon":5.379026,"is_reserved":false,"is_disabled":false,"rental_uris":{"android":"levelo://app?vid=d51789ea-eb04-4e0b-b0d1-a567aa1af80c","ios":"levelo://app?vid=d51789ea-eb04-4e0b-b0d1-a567aa1af80c"},"vehicle_type_id":"4","last_reported":1718215852,"current_range_meters":9600,"station_id":"ce4bgup2rcd13ifvqcn0","pricing_plan_id":"cebpf4jnsgd1na2vs0mg"},{"bike_id":"f96a4db7-e76f-40e2-9565-d48f139bbec1","system_id":"levelo_inurba_marseille","lat":43.304274,"lon":5.388873,"is_reserved":false,"is_disabled":false,"rental_uris":{"android":"levelo://app?vid=f96a4db7-e76f-40e2-9565-d48f139bbec1","ios":"levelo://app?vid=f96a4db7-e76f-40e2-9565-d48f139bbec1"},"vehicle_type_id":"4","last_reported":1718215852,"current_range_meters":27600,"station_id":"ce4bgk12rcd13ifvqbi0","pricing_plan_id":"cebpf4jnsgd1na2vs0mg"},{"bike_id":"736e81c6-64ed-407b-bf8b-9aed84fd563f","system_id":"levelo_inurba_marseille","lat":43.304274,"lon":5.388873,"is_reserved":false,"is_disabled":false,"rental_uris":{"android":"levelo://app?vid=736e81c6-64ed-407b-bf8b-9aed84fd563f","ios":"levelo://app?vid=736e81c6-64ed-407b-bf8b-9aed84fd563f"},"vehicle_type_id":"4","last_reported":1718215852,"current_range_meters":15600,"station_id":"ce4bgk12rcd13ifvqbi0","pricing_plan_id":"cebpf4jnsgd1na2vs0mg"},{"bike_id":"ed073f6c-313c-4b25-b7b3-e8a12e315939","system_id":"levelo_inurba_marseille","lat":43.304278,"lon":5.388868,"is_reserved":false,"is_disabled":false,"rental_uris":{"android":"levelo://app?vid=ed073f6c-313c-4b25-b7b3-e8a12e315939","ios":"levelo://app?vid=ed073f6c-313c-4b25-b7b3-e8a12e315939"},"vehicle_type_id":"4","last_reported":1718215852,"current_range_meters":2400,"station_id":"ce4bgk12rcd13ifvqbi0","pricing_plan_id":"cebpf4jnsgd1na2vs0mg"},{"bike_id":"df6f60e3-693d-4acd-8bcb-f3b4d8012233","system_id":"levelo_inurba_marseille","lat":43.304278,"lon":5.388868,"is_reserved":false,"is_disabled":false,"rental_uris":{"android":"levelo://app?vid=df6f60e3-693d-4acd-8bcb-f3b4d8012233","ios":"levelo://app?vid=df6f60e3-693d-4acd-8bcb-f3b4d8012233"},"vehicle_type_id":"4","last_reported":1718215852,"current_range_meters":5600,"station_id":"ce4bgk12rcd13ifvqbi0","pricing_plan_id":"cebpf4jnsgd1na2vs0mg"},{"bike_id":"a46596c5-4c71-47d8-9be3-57cc0f3f3027","system_id":"levelo_inurba_marseille","lat":43.304278,"lon":5.388868,"is_reserved":false,"is_disabled":false,"rental_uris":{"android":"levelo://app?vid=a46596c5-4c71-47d8-9be3-57cc0f3f3027","ios":"levelo://app?vid=a46596c5-4c71-47d8-9be3-57cc0f3f3027"},"vehicle_type_id":"4","last_reported":1718215852,"current_range_meters":30800,"station_id":"ce4bgk12rcd13ifvqbi0","pricing_plan_id":"cebpf4jnsgd1na2vs0mg"},{"bike_id":"2d37490d-275a-4846-ba92-9932b07475cc","system_id":"levelo_inurba_marseille","lat":43.304278,"lon":5.388868,"is_reserved":false,"is_disabled":false,"rental_uris":{"android":"levelo://app?vid=2d37490d-275a-4846-ba92-9932b07475cc","ios":"levelo://app?vid=2d37490d-275a-4846-ba92-9932b07475cc"},"vehicle_type_id":"4","last_reported":1718215852,"current_range_meters":27200,"station_id":"ce4bgk12rcd13ifvqbi0","pricing_plan_id":"cebpf4jnsgd1na2vs0mg"},{"bike_id":"9d566a07-262e-468b-ab7a-1d6a80987a5a","system_id":"levelo_inurba_marseille","lat":43.296263,"lon":5.377094,"is_reserved":false,"is_disabled":false,"rental_uris":{"android":"levelo://app?vid=9d566a07-262e-468b-ab7a-1d6a80987a5a","ios":"levelo://app?vid=9d566a07-262e-468b-ab7a-1d6a80987a5a"},"vehicle_type_id":"4","last_reported":1718215852,"current_range_meters":6400,"station_id":"ce4bgi92rcd13ifvqb90","pricing_plan_id":"cebpf4jnsgd1na2vs0mg"},{"bike_id":"3e60ee03-295c-4fe5-a464-63652fd18ae7","system_id":"levelo_inurba_marseille","lat":43.296277,"lon":5.377108,"is_reserved":false,"is_disabled":false,"rental_uris":{"android":"levelo://app?vid=3e60ee03-295c-4fe5-a464-63652fd18ae7","ios":"levelo://app?vid=3e60ee03-295c-4fe5-a464-63652fd18ae7"},"vehicle_type_id":"4","last_reported":1718215852,"current_range_meters":0,"station_id":"ce4bgi92rcd13ifvqb90","pricing_plan_id":"cebpf4jnsgd1na2vs0mg"},{"bike_id":"137f068d-261c-4e8a-8cbc-991fd481849a","system_id":"levelo_inurba_marseille","lat":43.299815,"lon":5.38486,"is_reserved":false,"is_disabled":false,"rental_uris":{"android":"levelo://app?vid=137f068d-261c-4e8a-8cbc-991fd481849a","ios":"levelo://app?vid=137f068d-261c-4e8a-8cbc-991fd481849a"},"vehicle_type_id":"4","last_reported":1718215852,"current_range_meters":6800,"station_id":"ce4bgj92rcd13ifvqbd0","pricing_plan_id":"cebpf4jnsgd1na2vs0mg"},{"bike_id":"04f1f0de-2666-4b6b-a730-f3e9eea97c74","system_id":"levelo_inurba_marseille","lat":43.29983,"lon":5.38492,"is_reserved":false,"is_disabled":false,"rental_uris":{"android":"levelo://app?vid=04f1f0de-2666-4b6b-a730-f3e9eea97c74","ios":"levelo://app?vid=04f1f0de-2666-4b6b-a730-f3e9eea97c74"},"vehicle_type_id":"4","last_reported":1718215852,"current_range_meters":9200,"station_id":"ce4bgj92rcd13ifvqbd0","pricing_plan_id":"cebpf4jnsgd1na2vs0mg"},{"bike_id":"494fffe2-1adf-4ad5-ae28-e5552c1cf5e6","system_id":"levelo_inurba_marseille","lat":43.299755,"lon":5.38487,"is_reserved":false,"is_disabled":false,"rental_uris":{"android":"levelo://app?vid=494fffe2-1adf-4ad5-ae28-e5552c1cf5e6","ios":"levelo://app?vid=494fffe2-1adf-4ad5-ae28-e5552c1cf5e6"},"vehicle_type_id":"4","last_reported":1718215852,"current_range_meters":10800,"station_id":"ce4bgj92rcd13ifvqbd0","pricing_plan_id":"cebpf4jnsgd1na2vs0mg"},{"bike_id":"666a1c50-ff49-4b75-ac8f-aa740b089f67","system_id":"levelo_inurba_marseille","lat":43.29974,"lon":5.38492,"is_reserved":false,"is_disabled":false,"rental_uris":{"android":"levelo://app?vid=666a1c50-ff49-4b75-ac8f-aa740b089f67","ios":"levelo://app?vid=666a1c50-ff49-4b75-ac8f-aa740b089f67"},"vehicle_type_id":"4","last_reported":1718215852,"current_range_meters":31200,"station_id":"ce4bgj92rcd13ifvqbd0","pricing_plan_id":"cebpf4jnsgd1na2vs0mg"},{"bike_id":"0e8bd0fa-1d7e-4841-86f5-55fc14b6d228","system_id":"levelo_inurba_marseille","lat":43.299717,"lon":5.384845,"is_reserved":false,"is_disabled":false,"rental_uris":{"android":"levelo://app?vid=0e8bd0fa-1d7e-4841-86f5-55fc14b6d228","ios":"levelo://app?vid=0e8bd0fa-1d7e-4841-86f5-55fc14b6d228"},"vehicle_type_id":"4","last_reported":1718215852,"current_range_meters":18800,"station_id":"ce4bgj92rcd13ifvqbd0","pricing_plan_id":"cebpf4jnsgd1na2vs0mg"},{"bike_id":"34625151-c9e6-4ef0-91ad-1de777bdd7c9","system_id":"levelo_inurba_marseille","lat":43.29974,"lon":5.38495,"is_reserved":false,"is_disabled":false,"rental_uris":{"android":"levelo://app?vid=34625151-c9e6-4ef0-91ad-1de777bdd7c9","ios":"levelo://app?vid=34625151-c9e6-4ef0-91ad-1de777bdd7c9"},"vehicle_type_id":"4","last_reported":1718215852,"current_range_meters":31200,"station_id":"ce4bgj92rcd13ifvqbd0","pricing_plan_id":"cebpf4jnsgd1na2vs0mg"},{"bike_id":"94c2fa9f-3149-4c36-9d79-b118f6810868","system_id":"levelo_inurba_marseille","lat":43.299717,"lon":5.384845,"is_reserved":false,"is_disabled":false,"rental_uris":{"android":"levelo://app?vid=94c2fa9f-3149-4c36-9d79-b118f6810868","ios":"levelo://app?vid=94c2fa9f-3149-4c36-9d79-b118f6810868"},"vehicle_type_id":"4","last_reported":1718215852,"current_range_meters":25200,"station_id":"ce4bgj92rcd13ifvqbd0","pricing_plan_id":"cebpf4jnsgd1na2vs0mg"},{"bike_id":"5a047d27-46fb-4698-908d-e07ecbadaf6d","system_id":"levelo_inurba_marseille","lat":43.299717,"lon":5.384845,"is_reserved":false,"is_disabled":false,"rental_uris":{"android":"levelo://app?vid=5a047d27-46fb-4698-908d-e07ecbadaf6d","ios":"levelo://app?vid=5a047d27-46fb-4698-908d-e07ecbadaf6d"},"vehicle_type_id":"4","last_reported":1718215852,"current_range_meters":28400,"station_id":"ce4bgj92rcd13ifvqbd0","pricing_plan_id":"cebpf4jnsgd1na2vs0mg"},{"bike_id":"df78e93a-de40-4c25-acce-11efcbf7b409","system_id":"levelo_inurba_marseille","lat":43.299717,"lon":5.384845,"is_reserved":false,"is_disabled":false,"rental_uris":{"android":"levelo://app?vid=df78e93a-de40-4c25-acce-11efcbf7b409","ios":"levelo://app?vid=df78e93a-de40-4c25-acce-11efcbf7b409"},"vehicle_type_id":"4","last_reported":1718215852,"current_range_meters":20000,"station_id":"ce4bgj92rcd13ifvqbd0","pricing_plan_id":"cebpf4jnsgd1na2vs0mg"},{"bike_id":"661194d8-e651-4250-bb1e-d9a437cf4c75","system_id":"levelo_inurba_marseille","lat":43.299717,"lon":5.384845,"is_reserved":false,"is_disabled":false,"rental_uris":{"android":"levelo://app?vid=661194d8-e651-4250-bb1e-d9a437cf4c75","ios":"levelo://app?vid=661194d8-e651-4250-bb1e-d9a437cf4c75"},"vehicle_type_id":"4","last_reported":1718215852,"current_range_meters":4400,"station_id":"ce4bgj92rcd13ifvqbd0","pricing_plan_id":"cebpf4jnsgd1na2vs0mg"},{"bike_id":"959028fc-899a-41ca-b4f7-d6c39e43dd06","system_id":"levelo_inurba_marseille","lat":43.299717,"lon":5.384845,"is_reserved":false,"is_disabled":false,"rental_uris":{"android":"levelo://app?vid=959028fc-899a-41ca-b4f7-d6c39e43dd06","ios":"levelo://app?vid=959028fc-899a-41ca-b4f7-d6c39e43dd06"},"vehicle_type_id":"4","last_reported":1718215852,"current_range_meters":8000,"station_id":"ce4bgj92rcd13ifvqbd0","pricing_plan_id":"cebpf4jnsgd1na2vs0mg"},{"bike_id":"abcea17b-2a50-4f24-bf9f-009b09839bdb","system_id":"levelo_inurba_marseille","lat":43.2997,"lon":5.38497,"is_reserved":false,"is_disabled":false,"rental_uris":{"android":"levelo://app?vid=abcea17b-2a50-4f24-bf9f-009b09839bdb","ios":"levelo://app?vid=abcea17b-2a50-4f24-bf9f-009b09839bdb"},"vehicle_type_id":"4","last_reported":1718215852,"current_range_meters":8000,"station_id":"ce4bgj92rcd13ifvqbd0","pricing_plan_id":"cebpf4jnsgd1na2vs0mg"},{"bike_id":"9d1a66d7-6574-430f-9563-0e53bd72f886","system_id":"levelo_inurba_marseille","lat":43.29504,"lon":5.37435,"is_reserved":false,"is_disabled":false,"rental_uris":{"android":"levelo://app?vid=9d1a66d7-6574-430f-9563-0e53bd72f886","ios":"levelo://app?vid=9d1a66d7-6574-430f-9563-0e53bd72f886"},"vehicle_type_id":"4","last_reported":1718215852,"current_range_meters":5600,"station_id":"","pricing_plan_id":"cebpf4jnsgd1na2vs0mg"},{"bike_id":"b195bce6-0d49-4834-a0b2-9613b904def6","system_id":"levelo_inurba_marseille","lat":43.29971,"lon":5.385,"is_reserved":false,"is_disabled":false,"rental_uris":{"android":"levelo://app?vid=b195bce6-0d49-4834-a0b2-9613b904def6","ios":"levelo://app?vid=b195bce6-0d49-4834-a0b2-9613b904def6"},"vehicle_type_id":"4","last_reported":1718215852,"current_range_meters":29600,"station_id":"ce4bgj92rcd13ifvqbd0","pricing_plan_id":"cebpf4jnsgd1na2vs0mg"},{"bike_id":"4dc03c65-f34d-4850-bda9-54a9c5a104d1","system_id":"levelo_inurba_marseille","lat":43.29968,"lon":5.38496,"is_reserved":false,"is_disabled":false,"rental_uris":{"android":"levelo://app?vid=4dc03c65-f34d-4850-bda9-54a9c5a104d1","ios":"levelo://app?vid=4dc03c65-f34d-4850-bda9-54a9c5a104d1"},"vehicle_type_id":"4","last_reported":1718215852,"current_range_meters":31200,"station_id":"ce4bgj92rcd13ifvqbd0","pricing_plan_id":"cebpf4jnsgd1na2vs0mg"},{"bike_id":"00ce111b-6ca8-4994-a152-bc36c8683482","system_id":"levelo_inurba_marseille","lat":43.29967,"lon":5.38496,"is_reserved":false,"is_disabled":false,"rental_uris":{"android":"levelo://app?vid=00ce111b-6ca8-4994-a152-bc36c8683482","ios":"levelo://app?vid=00ce111b-6ca8-4994-a152-bc36c8683482"},"vehicle_type_id":"4","last_reported":1718215852,"current_range_meters":10400,"station_id":"ce4bgj92rcd13ifvqbd0","pricing_plan_id":"cebpf4jnsgd1na2vs0mg"},{"bike_id":"7e70aaec-319c-4b63-b192-ba22deb06333","system_id":"levelo_inurba_marseille","lat":43.299717,"lon":5.384845,"is_reserved":false,"is_disabled":false,"rental_uris":{"android":"levelo://app?vid=7e70aaec-319c-4b63-b192-ba22deb06333","ios":"levelo://app?vid=7e70aaec-319c-4b63-b192-ba22deb06333"},"vehicle_type_id":"4","last_reported":1718215852,"current_range_meters":24800,"station_id":"ce4bgj92rcd13ifvqbd0","pricing_plan_id":"cebpf4jnsgd1na2vs0mg"},{"bike_id":"8bf44eab-d654-4299-b921-f18829a8f0e1","system_id":"levelo_inurba_marseille","lat":43.299724,"lon":5.384848,"is_reserved":false,"is_disabled":false,"rental_uris":{"android":"levelo://app?vid=8bf44eab-d654-4299-b921-f18829a8f0e1","ios":"levelo://app?vid=8bf44eab-d654-4299-b921-f18829a8f0e1"},"vehicle_type_id":"4","last_reported":1718215852,"current_range_meters":27600,"station_id":"ce4bgj92rcd13ifvqbd0","pricing_plan_id":"cebpf4jnsgd1na2vs0mg"},{"bike_id":"5e3064d5-8b18-4d40-9ddc-251fe967c90d","system_id":"levelo_inurba_marseille","lat":43.299724,"lon":5.384848,"is_reserved":false,"is_disabled":false,"rental_uris":{"android":"levelo://app?vid=5e3064d5-8b18-4d40-9ddc-251fe967c90d","ios":"levelo://app?vid=5e3064d5-8b18-4d40-9ddc-251fe967c90d"},"vehicle_type_id":"4","last_reported":1718215852,"current_range_meters":28400,"station_id":"ce4bgj92rcd13ifvqbd0","pricing_plan_id":"cebpf4jnsgd1na2vs0mg"},{"bike_id":"3481877f-5284-43d8-b99f-0d68eaa547eb","system_id":"levelo_inurba_marseille","lat":43.32367,"lon":5.388836,"is_reserved":false,"is_disabled":false,"rental_uris":{"android":"levelo://app?vid=3481877f-5284-43d8-b99f-0d68eaa547eb","ios":"levelo://app?vid=3481877f-5284-43d8-b99f-0d68eaa547eb"},"vehicle_type_id":"4","last_reported":1718215852,"current_range_meters":4800,"station_id":"ce4bhqp2rcd13ifvqhog","pricing_plan_id":"cebpf4jnsgd1na2vs0mg"},{"bike_id":"566ae72f-486f-4ea6-abb4-d3316be8b9c9","system_id":"levelo_inurba_marseille","lat":43.32367,"lon":5.388836,"is_reserved":false,"is_disabled":false,"rental_uris":{"android":"levelo://app?vid=566ae72f-486f-4ea6-abb4-d3316be8b9c9","ios":"levelo://app?vid=566ae72f-486f-4ea6-abb4-d3316be8b9c9"},"vehicle_type_id":"4","last_reported":1718215852,"current_range_meters":20000,"station_id":"ce4bhqp2rcd13ifvqhog","pricing_plan_id":"cebpf4jnsgd1na2vs0mg"},{"bike_id":"ab45907a-0bde-4db6-8f8c-bc4076d90fd3","system_id":"levelo_inurba_marseille","lat":43.32367,"lon":5.388836,"is_reserved":false,"is_disabled":false,"rental_uris":{"android":"levelo://app?vid=ab45907a-0bde-4db6-8f8c-bc4076d90fd3","ios":"levelo://app?vid=ab45907a-0bde-4db6-8f8c-bc4076d90fd3"},"vehicle_type_id":"4","last_reported":1718215852,"current_range_meters":12400,"station_id":"ce4bhqp2rcd13ifvqhog","pricing_plan_id":"cebpf4jnsgd1na2vs0mg"},{"bike_id":"f9233f2b-06d8-4ea1-9fb3-2d50e4b056e4","system_id":"levelo_inurba_marseille","lat":43.2941,"lon":5.37413,"is_reserved":false,"is_disabled":false,"rental_uris":{"android":"levelo://app?vid=f9233f2b-06d8-4ea1-9fb3-2d50e4b056e4","ios":"levelo://app?vid=f9233f2b-06d8-4ea1-9fb3-2d50e4b056e4"},"vehicle_type_id":"4","last_reported":1718215852,"current_range_meters":0,"station_id":"","pricing_plan_id":"cebpf4jnsgd1na2vs0mg"},{"bike_id":"f0e66573-3087-464c-845c-bbad563319f4","system_id":"levelo_inurba_marseille","lat":43.312919,"lon":5.393547,"is_reserved":false,"is_disabled":false,"rental_uris":{"android":"levelo://app?vid=f0e66573-3087-464c-845c-bbad563319f4","ios":"levelo://app?vid=f0e66573-3087-464c-845c-bbad563319f4"},"vehicle_type_id":"4","last_reported":1718215852,"current_range_meters":13600,"station_id":"","pricing_plan_id":"cebpf4jnsgd1na2vs0mg"},{"bike_id":"e47ffb47-8fbc-43e5-8e31-49b5c4640fa7","system_id":"levelo_inurba_marseille","lat":43.292749,"lon":5.368398,"is_reserved":false,"is_disabled":false,"rental_uris":{"android":"levelo://app?vid=e47ffb47-8fbc-43e5-8e31-49b5c4640fa7","ios":"levelo://app?vid=e47ffb47-8fbc-43e5-8e31-49b5c4640fa7"},"vehicle_type_id":"4","last_reported":1718215852,"current_range_meters":0,"station_id":"ce4bhbp2rcd13ifvqesg","pricing_plan_id":"cebpf4jnsgd1na2vs0mg"},{"bike_id":"6d0c5f47-24aa-4794-8876-d99000f716cf","system_id":"levelo_inurba_marseille","lat":43.293105,"lon":5.37182,"is_reserved":false,"is_disabled":false,"rental_uris":{"android":"levelo://app?vid=6d0c5f47-24aa-4794-8876-d99000f716cf","ios":"levelo://app?vid=6d0c5f47-24aa-4794-8876-d99000f716cf"},"vehicle_type_id":"4","last_reported":1718215852,"current_range_meters":16400,"station_id":"ce4bgh92rcd13ifvqb40","pricing_plan_id":"cebpf4jnsgd1na2vs0mg"},{"bike_id":"6273b902-9ce8-44f6-a750-7ea4a8b41987","system_id":"levelo_inurba_marseille","lat":43.29302,"lon":5.37168,"is_reserved":false,"is_disabled":false,"rental_uris":{"android":"levelo://app?vid=6273b902-9ce8-44f6-a750-7ea4a8b41987","ios":"levelo://app?vid=6273b902-9ce8-44f6-a750-7ea4a8b41987"},"vehicle_type_id":"4","last_reported":1718215852,"current_range_meters":0,"station_id":"ce4bgh92rcd13ifvqb40","pricing_plan_id":"cebpf4jnsgd1na2vs0mg"},{"bike_id":"ee0f3b18-47d2-4192-bb1c-5a0e92876c74","system_id":"levelo_inurba_marseille","lat":43.29274,"lon":5.36843,"is_reserved":false,"is_disabled":false,"rental_uris":{"android":"levelo://app?vid=ee0f3b18-47d2-4192-bb1c-5a0e92876c74","ios":"levelo://app?vid=ee0f3b18-47d2-4192-bb1c-5a0e92876c74"},"vehicle_type_id":"4","last_reported":1718215852,"current_range_meters":0,"station_id":"ce4bhbp2rcd13ifvqesg","pricing_plan_id":"cebpf4jnsgd1na2vs0mg"},{"bike_id":"b5a368dd-1336-4810-9ca2-16852f3fab74","system_id":"levelo_inurba_marseille","lat":43.292749,"lon":5.368402,"is_reserved":false,"is_disabled":false,"rental_uris":{"android":"levelo://app?vid=b5a368dd-1336-4810-9ca2-16852f3fab74","ios":"levelo://app?vid=b5a368dd-1336-4810-9ca2-16852f3fab74"},"vehicle_type_id":"4","last_reported":1718215852,"current_range_meters":31200,"station_id":"ce4bhbp2rcd13ifvqesg","pricing_plan_id":"cebpf4jnsgd1na2vs0mg"},{"bike_id":"2a752627-d824-4aee-b879-2686e3c473f3","system_id":"levelo_inurba_marseille","lat":43.292325,"lon":5.36834,"is_reserved":false,"is_disabled":false,"rental_uris":{"android":"levelo://app?vid=2a752627-d824-4aee-b879-2686e3c473f3","ios":"levelo://app?vid=2a752627-d824-4aee-b879-2686e3c473f3"},"vehicle_type_id":"4","last_reported":1718215852,"current_range_meters":8800,"station_id":"","pricing_plan_id":"cebpf4jnsgd1na2vs0mg"},{"bike_id":"ac106697-e9fc-48fc-91a8-28ee5b3d0edf","system_id":"levelo_inurba_marseille","lat":43.29304,"lon":5.37455,"is_reserved":false,"is_disabled":false,"rental_uris":{"android":"levelo://app?vid=ac106697-e9fc-48fc-91a8-28ee5b3d0edf","ios":"levelo://app?vid=ac106697-e9fc-48fc-91a8-28ee5b3d0edf"},"vehicle_type_id":"4","last_reported":1718215852,"current_range_meters":0,"station_id":"ce4bgi12rcd13ifvqb70","pricing_plan_id":"cebpf4jnsgd1na2vs0mg"},{"bike_id":"35025a0e-1acd-4fe5-8e14-3fd081b6d8d9","system_id":"levelo_inurba_marseille","lat":43.29293,"lon":5.37456,"is_reserved":false,"is_disabled":false,"rental_uris":{"android":"levelo://app?vid=35025a0e-1acd-4fe5-8e14-3fd081b6d8d9","ios":"levelo://app?vid=35025a0e-1acd-4fe5-8e14-3fd081b6d8d9"},"vehicle_type_id":"4","last_reported":1718215852,"current_range_meters":0,"station_id":"ce4bgi12rcd13ifvqb70","pricing_plan_id":"cebpf4jnsgd1na2vs0mg"},{"bike_id":"d8b41251-616e-42aa-a967-5ea94ecacf78","system_id":"levelo_inurba_marseille","lat":43.303002,"lon":5.392142,"is_reserved":false,"is_disabled":false,"rental_uris":{"android":"levelo://app?vid=d8b41251-616e-42aa-a967-5ea94ecacf78","ios":"levelo://app?vid=d8b41251-616e-42aa-a967-5ea94ecacf78"},"vehicle_type_id":"4","last_reported":1718215852,"current_range_meters":0,"station_id":"ce4bgkh2rcd13ifvqbk0","pricing_plan_id":"cebpf4jnsgd1na2vs0mg"},{"bike_id":"9eede2d9-bdbf-47bb-b05e-5a3dcee8f7e0","system_id":"levelo_inurba_marseille","lat":43.303002,"lon":5.392142,"is_reserved":false,"is_disabled":false,"rental_uris":{"android":"levelo://app?vid=9eede2d9-bdbf-47bb-b05e-5a3dcee8f7e0","ios":"levelo://app?vid=9eede2d9-bdbf-47bb-b05e-5a3dcee8f7e0"},"vehicle_type_id":"4","last_reported":1718215852,"current_range_meters":11600,"station_id":"ce4bgkh2rcd13ifvqbk0","pricing_plan_id":"cebpf4jnsgd1na2vs0mg"},{"bike_id":"01396234-aa82-4324-87ea-c87a1b2b1a07","system_id":"levelo_inurba_marseille","lat":43.303002,"lon":5.392142,"is_reserved":false,"is_disabled":false,"rental_uris":{"android":"levelo://app?vid=01396234-aa82-4324-87ea-c87a1b2b1a07","ios":"levelo://app?vid=01396234-aa82-4324-87ea-c87a1b2b1a07"},"vehicle_type_id":"4","last_reported":1718215852,"current_range_meters":0,"station_id":"ce4bgkh2rcd13ifvqbk0","pricing_plan_id":"cebpf4jnsgd1na2vs0mg"},{"bike_id":"0bd92fd6-60bb-45d6-8969-fae4dcd39178","system_id":"levelo_inurba_marseille","lat":43.302992,"lon":5.392136,"is_reserved":false,"is_disabled":false,"rental_uris":{"android":"levelo://app?vid=0bd92fd6-60bb-45d6-8969-fae4dcd39178","ios":"levelo://app?vid=0bd92fd6-60bb-45d6-8969-fae4dcd39178"},"vehicle_type_id":"4","last_reported":1718215852,"current_range_meters":10800,"station_id":"ce4bgkh2rcd13ifvqbk0","pricing_plan_id":"cebpf4jnsgd1na2vs0mg"},{"bike_id":"8a3528e1-3556-404e-81fe-727baa718aa2","system_id":"levelo_inurba_marseille","lat":43.2936,"lon":5.37835,"is_reserved":false,"is_disabled":false,"rental_uris":{"android":"levelo://app?vid=8a3528e1-3556-404e-81fe-727baa718aa2","ios":"levelo://app?vid=8a3528e1-3556-404e-81fe-727baa718aa2"},"vehicle_type_id":"4","last_reported":1718215852,"current_range_meters":12400,"station_id":"ce4bgjh2rcd13ifvqbf0","pricing_plan_id":"cebpf4jnsgd1na2vs0mg"},{"bike_id":"46ee6283-adf5-474a-84bd-9123c1a0589f","system_id":"levelo_inurba_marseille","lat":43.29231,"lon":5.36061,"is_reserved":false,"is_disabled":false,"rental_uris":{"android":"levelo://app?vid=46ee6283-adf5-474a-84bd-9123c1a0589f","ios":"levelo://app?vid=46ee6283-adf5-474a-84bd-9123c1a0589f"},"vehicle_type_id":"4","last_reported":1718215852,"current_range_meters":14400,"station_id":"ce4bhbh2rcd13ifvqeqg","pricing_plan_id":"cebpf4jnsgd1na2vs0mg"},{"bike_id":"5e1eea9f-df83-4be9-a8ce-1bf589ab907d","system_id":"levelo_inurba_marseille","lat":43.292311,"lon":5.360731,"is_reserved":false,"is_disabled":false,"rental_uris":{"android":"levelo://app?vid=5e1eea9f-df83-4be9-a8ce-1bf589ab907d","ios":"levelo://app?vid=5e1eea9f-df83-4be9-a8ce-1bf589ab907d"},"vehicle_type_id":"4","last_reported":1718215852,"current_range_meters":0,"station_id":"ce4bhbh2rcd13ifvqeqg","pricing_plan_id":"cebpf4jnsgd1na2vs0mg"},{"bike_id":"4e0fe081-8b99-40f3-a961-e5f68b366a36","system_id":"levelo_inurba_marseille","lat":43.29227,"lon":5.36064,"is_reserved":false,"is_disabled":false,"rental_uris":{"android":"levelo://app?vid=4e0fe081-8b99-40f3-a961-e5f68b366a36","ios":"levelo://app?vid=4e0fe081-8b99-40f3-a961-e5f68b366a36"},"vehicle_type_id":"4","last_reported":1718215852,"current_range_meters":22400,"station_id":"ce4bhbh2rcd13ifvqeqg","pricing_plan_id":"cebpf4jnsgd1na2vs0mg"},{"bike_id":"b3b475d8-c0cf-4f5a-978d-845ed0e47d22","system_id":"levelo_inurba_marseille","lat":43.29226,"lon":5.36068,"is_reserved":false,"is_disabled":false,"rental_uris":{"android":"levelo://app?vid=b3b475d8-c0cf-4f5a-978d-845ed0e47d22","ios":"levelo://app?vid=b3b475d8-c0cf-4f5a-978d-845ed0e47d22"},"vehicle_type_id":"4","last_reported":1718215852,"current_range_meters":31200,"station_id":"ce4bhbh2rcd13ifvqeqg","pricing_plan_id":"cebpf4jnsgd1na2vs0mg"},{"bike_id":"c813272f-3571-4c31-bb7a-372eed2489c1","system_id":"levelo_inurba_marseille","lat":43.29227,"lon":5.36057,"is_reserved":false,"is_disabled":false,"rental_uris":{"android":"levelo://app?vid=c813272f-3571-4c31-bb7a-372eed2489c1","ios":"levelo://app?vid=c813272f-3571-4c31-bb7a-372eed2489c1"},"vehicle_type_id":"4","last_reported":1718215852,"current_range_meters":5600,"station_id":"ce4bhbh2rcd13ifvqeqg","pricing_plan_id":"cebpf4jnsgd1na2vs0mg"},{"bike_id":"3fe022a8-099c-40de-acbb-89cc1973cc8a","system_id":"levelo_inurba_marseille","lat":43.300852,"lon":5.390859,"is_reserved":false,"is_disabled":false,"rental_uris":{"android":"levelo://app?vid=3fe022a8-099c-40de-acbb-89cc1973cc8a","ios":"levelo://app?vid=3fe022a8-099c-40de-acbb-89cc1973cc8a"},"vehicle_type_id":"4","last_reported":1718215852,"current_range_meters":2400,"station_id":"ce4bh192rcd13ifvqdb0","pricing_plan_id":"cebpf4jnsgd1na2vs0mg"},{"bike_id":"e6d4e78b-2f4d-4347-94db-bb2f79ee013e","system_id":"levelo_inurba_marseille","lat":43.300852,"lon":5.390859,"is_reserved":false,"is_disabled":false,"rental_uris":{"android":"levelo://app?vid=e6d4e78b-2f4d-4347-94db-bb2f79ee013e","ios":"levelo://app?vid=e6d4e78b-2f4d-4347-94db-bb2f79ee013e"},"vehicle_type_id":"4","last_reported":1718215852,"current_range_meters":24400,"station_id":"ce4bh192rcd13ifvqdb0","pricing_plan_id":"cebpf4jnsgd1na2vs0mg"},{"bike_id":"0bdd42f6-40a8-4ad6-8492-6d348db50981","system_id":"levelo_inurba_marseille","lat":43.30085,"lon":5.390856,"is_reserved":false,"is_disabled":false,"rental_uris":{"android":"levelo://app?vid=0bdd42f6-40a8-4ad6-8492-6d348db50981","ios":"levelo://app?vid=0bdd42f6-40a8-4ad6-8492-6d348db50981"},"vehicle_type_id":"4","last_reported":1718215852,"current_range_meters":25600,"station_id":"ce4bh192rcd13ifvqdb0","pricing_plan_id":"cebpf4jnsgd1na2vs0mg"},{"bike_id":"820f6c7f-ea22-4ab1-94f7-8d52952425a8","system_id":"levelo_inurba_marseille","lat":43.29225,"lon":5.36052,"is_reserved":false,"is_disabled":false,"rental_uris":{"android":"levelo://app?vid=820f6c7f-ea22-4ab1-94f7-8d52952425a8","ios":"levelo://app?vid=820f6c7f-ea22-4ab1-94f7-8d52952425a8"},"vehicle_type_id":"4","last_reported":1718215852,"current_range_meters":31200,"station_id":"ce4bhbh2rcd13ifvqeqg","pricing_plan_id":"cebpf4jnsgd1na2vs0mg"},{"bike_id":"97ebf088-c00e-455c-b73c-8aca4dd6333e","system_id":"levelo_inurba_marseille","lat":43.29226,"lon":5.36043,"is_reserved":false,"is_disabled":false,"rental_uris":{"android":"levelo://app?vid=97ebf088-c00e-455c-b73c-8aca4dd6333e","ios":"levelo://app?vid=97ebf088-c00e-455c-b73c-8aca4dd6333e"},"vehicle_type_id":"4","last_reported":1718215852,"current_range_meters":31200,"station_id":"ce4bhbh2rcd13ifvqeqg","pricing_plan_id":"cebpf4jnsgd1na2vs0mg"},{"bike_id":"57c86599-bdd2-4d2c-aa6c-7f263d74e1fb","system_id":"levelo_inurba_marseille","lat":43.292311,"lon":5.360731,"is_reserved":false,"is_disabled":false,"rental_uris":{"android":"levelo://app?vid=57c86599-bdd2-4d2c-aa6c-7f263d74e1fb","ios":"levelo://app?vid=57c86599-bdd2-4d2c-aa6c-7f263d74e1fb"},"vehicle_type_id":"4","last_reported":1718215852,"current_range_meters":26000,"station_id":"ce4bhbh2rcd13ifvqeqg","pricing_plan_id":"cebpf4jnsgd1na2vs0mg"},{"bike_id":"6f69f7dd-b421-4988-b6ca-d027e45b070a","system_id":"levelo_inurba_marseille","lat":43.30085,"lon":5.390856,"is_reserved":false,"is_disabled":false,"rental_uris":{"android":"levelo://app?vid=6f69f7dd-b421-4988-b6ca-d027e45b070a","ios":"levelo://app?vid=6f69f7dd-b421-4988-b6ca-d027e45b070a"},"vehicle_type_id":"4","last_reported":1718215852,"current_range_meters":5200,"station_id":"ce4bh192rcd13ifvqdb0","pricing_plan_id":"cebpf4jnsgd1na2vs0mg"},{"bike_id":"c7263bd0-cddc-43e0-b778-805da8baeb45","system_id":"levelo_inurba_marseille","lat":43.29215,"lon":5.36049,"is_reserved":false,"is_disabled":false,"rental_uris":{"android":"levelo://app?vid=c7263bd0-cddc-43e0-b778-805da8baeb45","ios":"levelo://app?vid=c7263bd0-cddc-43e0-b778-805da8baeb45"},"vehicle_type_id":"4","last_reported":1718215852,"current_range_meters":29200,"station_id":"ce4bhbh2rcd13ifvqeqg","pricing_plan_id":"cebpf4jnsgd1na2vs0mg"},{"bike_id":"876a88de-6cc8-4d29-b233-bdafec1baafc","system_id":"levelo_inurba_marseille","lat":43.298764,"lon":5.388973,"is_reserved":false,"is_disabled":false,"rental_uris":{"android":"levelo://app?vid=876a88de-6cc8-4d29-b233-bdafec1baafc","ios":"levelo://app?vid=876a88de-6cc8-4d29-b233-bdafec1baafc"},"vehicle_type_id":"4","last_reported":1718215852,"current_range_meters":24000,"station_id":"ce4bh392rcd13ifvqdl0","pricing_plan_id":"cebpf4jnsgd1na2vs0mg"},{"bike_id":"e683c242-2ebd-42c6-ab37-aa882312021b","system_id":"levelo_inurba_marseille","lat":43.298764,"lon":5.388973,"is_reserved":false,"is_disabled":false,"rental_uris":{"android":"levelo://app?vid=e683c242-2ebd-42c6-ab37-aa882312021b","ios":"levelo://app?vid=e683c242-2ebd-42c6-ab37-aa882312021b"},"vehicle_type_id":"4","last_reported":1718215852,"current_range_meters":0,"station_id":"ce4bh392rcd13ifvqdl0","pricing_plan_id":"cebpf4jnsgd1na2vs0mg"},{"bike_id":"f17e900e-4749-4dff-a661-2e23e900040c","system_id":"levelo_inurba_marseille","lat":43.29871,"lon":5.38909,"is_reserved":false,"is_disabled":false,"rental_uris":{"android":"levelo://app?vid=f17e900e-4749-4dff-a661-2e23e900040c","ios":"levelo://app?vid=f17e900e-4749-4dff-a661-2e23e900040c"},"vehicle_type_id":"4","last_reported":1718215852,"current_range_meters":18400,"station_id":"ce4bh392rcd13ifvqdl0","pricing_plan_id":"cebpf4jnsgd1na2vs0mg"},{"bike_id":"f2894022-9961-4fa1-86fb-043e2bdb2c45","system_id":"levelo_inurba_marseille","lat":43.291994,"lon":5.357886,"is_reserved":false,"is_disabled":false,"rental_uris":{"android":"levelo://app?vid=f2894022-9961-4fa1-86fb-043e2bdb2c45","ios":"levelo://app?vid=f2894022-9961-4fa1-86fb-043e2bdb2c45"},"vehicle_type_id":"4","last_reported":1718215852,"current_range_meters":1200,"station_id":"ce4bhb12rcd13ifvqel0","pricing_plan_id":"cebpf4jnsgd1na2vs0mg"},{"bike_id":"64c254b0-5407-41d2-8e11-f71a1e9ef6c6","system_id":"levelo_inurba_marseille","lat":43.309047,"lon":5.396551,"is_reserved":false,"is_disabled":false,"rental_uris":{"android":"levelo://app?vid=64c254b0-5407-41d2-8e11-f71a1e9ef6c6","ios":"levelo://app?vid=64c254b0-5407-41d2-8e11-f71a1e9ef6c6"},"vehicle_type_id":"4","last_reported":1718215852,"current_range_meters":4800,"station_id":"ce4bh012rcd13ifvqcv0","pricing_plan_id":"cebpf4jnsgd1na2vs0mg"},{"bike_id":"e69573b2-40a4-4181-9680-3d58ac304018","system_id":"levelo_inurba_marseille","lat":43.291994,"lon":5.357886,"is_reserved":false,"is_disabled":false,"rental_uris":{"android":"levelo://app?vid=e69573b2-40a4-4181-9680-3d58ac304018","ios":"levelo://app?vid=e69573b2-40a4-4181-9680-3d58ac304018"},"vehicle_type_id":"4","last_reported":1718215852,"current_range_meters":28400,"station_id":"ce4bhb12rcd13ifvqel0","pricing_plan_id":"cebpf4jnsgd1na2vs0mg"},{"bike_id":"f711bcba-9f31-413d-a703-fa16a8af1753","system_id":"levelo_inurba_marseille","lat":43.309038,"lon":5.396546,"is_reserved":false,"is_disabled":false,"rental_uris":{"android":"levelo://app?vid=f711bcba-9f31-413d-a703-fa16a8af1753","ios":"levelo://app?vid=f711bcba-9f31-413d-a703-fa16a8af1753"},"vehicle_type_id":"4","last_reported":1718215852,"current_range_meters":19200,"station_id":"ce4bh012rcd13ifvqcv0","pricing_plan_id":"cebpf4jnsgd1na2vs0mg"},{"bike_id":"c7fe245c-6dd9-443f-9e4f-6aa3e739692e","system_id":"levelo_inurba_marseille","lat":43.309038,"lon":5.396546,"is_reserved":false,"is_disabled":false,"rental_uris":{"android":"levelo://app?vid=c7fe245c-6dd9-443f-9e4f-6aa3e739692e","ios":"levelo://app?vid=c7fe245c-6dd9-443f-9e4f-6aa3e739692e"},"vehicle_type_id":"4","last_reported":1718215852,"current_range_meters":5200,"station_id":"ce4bh012rcd13ifvqcv0","pricing_plan_id":"cebpf4jnsgd1na2vs0mg"},{"bike_id":"166a54d9-3272-422f-a717-465a6afd7e92","system_id":"levelo_inurba_marseille","lat":43.313291,"lon":5.396838,"is_reserved":false,"is_disabled":false,"rental_uris":{"android":"levelo://app?vid=166a54d9-3272-422f-a717-465a6afd7e92","ios":"levelo://app?vid=166a54d9-3272-422f-a717-465a6afd7e92"},"vehicle_type_id":"4","last_reported":1718215852,"current_range_meters":400,"station_id":"ce4bgvp2rcd13ifvqcu0","pricing_plan_id":"cebpf4jnsgd1na2vs0mg"},{"bike_id":"fad1f035-7e82-4ca9-b33b-158249f7aec5","system_id":"levelo_inurba_marseille","lat":43.309038,"lon":5.396546,"is_reserved":false,"is_disabled":false,"rental_uris":{"android":"levelo://app?vid=fad1f035-7e82-4ca9-b33b-158249f7aec5","ios":"levelo://app?vid=fad1f035-7e82-4ca9-b33b-158249f7aec5"},"vehicle_type_id":"4","last_reported":1718215852,"current_range_meters":18400,"station_id":"ce4bh012rcd13ifvqcv0","pricing_plan_id":"cebpf4jnsgd1na2vs0mg"},{"bike_id":"5344cf65-78f7-499a-a575-01cf6f06cddd","system_id":"levelo_inurba_marseille","lat":43.31329,"lon":5.39696,"is_reserved":false,"is_disabled":false,"rental_uris":{"android":"levelo://app?vid=5344cf65-78f7-499a-a575-01cf6f06cddd","ios":"levelo://app?vid=5344cf65-78f7-499a-a575-01cf6f06cddd"},"vehicle_type_id":"4","last_reported":1718215852,"current_range_meters":18000,"station_id":"ce4bgvp2rcd13ifvqcu0","pricing_plan_id":"cebpf4jnsgd1na2vs0mg"},{"bike_id":"4badb878-f7fe-40d2-ac09-ab732fd35b54","system_id":"levelo_inurba_marseille","lat":43.309047,"lon":5.396551,"is_reserved":false,"is_disabled":false,"rental_uris":{"android":"levelo://app?vid=4badb878-f7fe-40d2-ac09-ab732fd35b54","ios":"levelo://app?vid=4badb878-f7fe-40d2-ac09-ab732fd35b54"},"vehicle_type_id":"4","last_reported":1718215852,"current_range_meters":2800,"station_id":"ce4bh012rcd13ifvqcv0","pricing_plan_id":"cebpf4jnsgd1na2vs0mg"},{"bike_id":"f64e4349-4a97-4eb8-853d-dce3e605b422","system_id":"levelo_inurba_marseille","lat":43.313291,"lon":5.396838,"is_reserved":false,"is_disabled":false,"rental_uris":{"android":"levelo://app?vid=f64e4349-4a97-4eb8-853d-dce3e605b422","ios":"levelo://app?vid=f64e4349-4a97-4eb8-853d-dce3e605b422"},"vehicle_type_id":"4","last_reported":1718215852,"current_range_meters":24800,"station_id":"ce4bgvp2rcd13ifvqcu0","pricing_plan_id":"cebpf4jnsgd1na2vs0mg"},{"bike_id":"b369df08-98eb-4378-82dc-bd0da0cf5c40","system_id":"levelo_inurba_marseille","lat":43.309047,"lon":5.396551,"is_reserved":false,"is_disabled":false,"rental_uris":{"android":"levelo://app?vid=b369df08-98eb-4378-82dc-bd0da0cf5c40","ios":"levelo://app?vid=b369df08-98eb-4378-82dc-bd0da0cf5c40"},"vehicle_type_id":"4","last_reported":1718215852,"current_range_meters":8800,"station_id":"ce4bh012rcd13ifvqcv0","pricing_plan_id":"cebpf4jnsgd1na2vs0mg"},{"bike_id":"8dcf51b6-544b-4195-b5e6-adb1d23ff248","system_id":"levelo_inurba_marseille","lat":43.309038,"lon":5.396546,"is_reserved":false,"is_disabled":false,"rental_uris":{"android":"levelo://app?vid=8dcf51b6-544b-4195-b5e6-adb1d23ff248","ios":"levelo://app?vid=8dcf51b6-544b-4195-b5e6-adb1d23ff248"},"vehicle_type_id":"4","last_reported":1718215852,"current_range_meters":15200,"station_id":"ce4bh012rcd13ifvqcv0","pricing_plan_id":"cebpf4jnsgd1na2vs0mg"},{"bike_id":"96b313b4-08a8-4752-bba1-cf478aa901cb","system_id":"levelo_inurba_marseille","lat":43.29529,"lon":5.385581,"is_reserved":false,"is_disabled":false,"rental_uris":{"android":"levelo://app?vid=96b313b4-08a8-4752-bba1-cf478aa901cb","ios":"levelo://app?vid=96b313b4-08a8-4752-bba1-cf478aa901cb"},"vehicle_type_id":"4","last_reported":1718215852,"current_range_meters":28400,"station_id":"ce4bgih2rcd13ifvqba0","pricing_plan_id":"cebpf4jnsgd1na2vs0mg"},{"bike_id":"5dedbba2-1014-4de6-90b5-5afff12714f4","system_id":"levelo_inurba_marseille","lat":43.29529,"lon":5.385581,"is_reserved":false,"is_disabled":false,"rental_uris":{"android":"levelo://app?vid=5dedbba2-1014-4de6-90b5-5afff12714f4","ios":"levelo://app?vid=5dedbba2-1014-4de6-90b5-5afff12714f4"},"vehicle_type_id":"4","last_reported":1718215852,"current_range_meters":31200,"station_id":"ce4bgih2rcd13ifvqba0","pricing_plan_id":"cebpf4jnsgd1na2vs0mg"},{"bike_id":"a7755e24-f42b-49d3-9044-0239dd700add","system_id":"levelo_inurba_marseille","lat":43.29532,"lon":5.38539,"is_reserved":false,"is_disabled":false,"rental_uris":{"android":"levelo://app?vid=a7755e24-f42b-49d3-9044-0239dd700add","ios":"levelo://app?vid=a7755e24-f42b-49d3-9044-0239dd700add"},"vehicle_type_id":"4","last_reported":1718215852,"current_range_meters":31200,"station_id":"","pricing_plan_id":"cebpf4jnsgd1na2vs0mg"},{"bike_id":"6ad6f710-750d-43fc-8310-f452cc9e1eab","system_id":"levelo_inurba_marseille","lat":43.29529,"lon":5.385581,"is_reserved":false,"is_disabled":false,"rental_uris":{"android":"levelo://app?vid=6ad6f710-750d-43fc-8310-f452cc9e1eab","ios":"levelo://app?vid=6ad6f710-750d-43fc-8310-f452cc9e1eab"},"vehicle_type_id":"4","last_reported":1718215852,"current_range_meters":6000,"station_id":"ce4bgih2rcd13ifvqba0","pricing_plan_id":"cebpf4jnsgd1na2vs0mg"},{"bike_id":"cd824441-0e48-4ec6-b246-58a8ebef6d25","system_id":"levelo_inurba_marseille","lat":43.29529,"lon":5.385581,"is_reserved":false,"is_disabled":false,"rental_uris":{"android":"levelo://app?vid=cd824441-0e48-4ec6-b246-58a8ebef6d25","ios":"levelo://app?vid=cd824441-0e48-4ec6-b246-58a8ebef6d25"},"vehicle_type_id":"4","last_reported":1718215852,"current_range_meters":26000,"station_id":"ce4bgih2rcd13ifvqba0","pricing_plan_id":"cebpf4jnsgd1na2vs0mg"},{"bike_id":"24d8d521-4df7-4023-969b-4ca24a5a06e8","system_id":"levelo_inurba_marseille","lat":43.29529,"lon":5.385581,"is_reserved":false,"is_disabled":false,"rental_uris":{"android":"levelo://app?vid=24d8d521-4df7-4023-969b-4ca24a5a06e8","ios":"levelo://app?vid=24d8d521-4df7-4023-969b-4ca24a5a06e8"},"vehicle_type_id":"4","last_reported":1718215852,"current_range_meters":31200,"station_id":"ce4bgih2rcd13ifvqba0","pricing_plan_id":"cebpf4jnsgd1na2vs0mg"},{"bike_id":"be49bf52-c1a6-492b-a73a-0cad67354a98","system_id":"levelo_inurba_marseille","lat":43.29529,"lon":5.385581,"is_reserved":false,"is_disabled":false,"rental_uris":{"android":"levelo://app?vid=be49bf52-c1a6-492b-a73a-0cad67354a98","ios":"levelo://app?vid=be49bf52-c1a6-492b-a73a-0cad67354a98"},"vehicle_type_id":"4","last_reported":1718215852,"current_range_meters":25200,"station_id":"ce4bgih2rcd13ifvqba0","pricing_plan_id":"cebpf4jnsgd1na2vs0mg"},{"bike_id":"f3545c1a-163e-42e8-8bd9-187fbdf40cd0","system_id":"levelo_inurba_marseille","lat":43.295246,"lon":5.385522,"is_reserved":false,"is_disabled":false,"rental_uris":{"android":"levelo://app?vid=f3545c1a-163e-42e8-8bd9-187fbdf40cd0","ios":"levelo://app?vid=f3545c1a-163e-42e8-8bd9-187fbdf40cd0"},"vehicle_type_id":"4","last_reported":1718215852,"current_range_meters":14800,"station_id":"ce4bgih2rcd13ifvqba0","pricing_plan_id":"cebpf4jnsgd1na2vs0mg"},{"bike_id":"a7f27dad-ce17-4844-80e6-a88436e985fd","system_id":"levelo_inurba_marseille","lat":43.302008,"lon":5.394694,"is_reserved":false,"is_disabled":false,"rental_uris":{"android":"levelo://app?vid=a7f27dad-ce17-4844-80e6-a88436e985fd","ios":"levelo://app?vid=a7f27dad-ce17-4844-80e6-a88436e985fd"},"vehicle_type_id":"4","last_reported":1718215852,"current_range_meters":5200,"station_id":"ce4bh0p2rcd13ifvqd70","pricing_plan_id":"cebpf4jnsgd1na2vs0mg"},{"bike_id":"d93ec433-4485-408e-9b8e-ef45e85d7d42","system_id":"levelo_inurba_marseille","lat":43.302008,"lon":5.394694,"is_reserved":false,"is_disabled":false,"rental_uris":{"android":"levelo://app?vid=d93ec433-4485-408e-9b8e-ef45e85d7d42","ios":"levelo://app?vid=d93ec433-4485-408e-9b8e-ef45e85d7d42"},"vehicle_type_id":"4","last_reported":1718215852,"current_range_meters":25200,"station_id":"ce4bh0p2rcd13ifvqd70","pricing_plan_id":"cebpf4jnsgd1na2vs0mg"},{"bike_id":"721f7798-543f-43f2-80a4-2d50e62f3e3a","system_id":"levelo_inurba_marseille","lat":43.293353,"lon":5.383937,"is_reserved":false,"is_disabled":false,"rental_uris":{"android":"levelo://app?vid=721f7798-543f-43f2-80a4-2d50e62f3e3a","ios":"levelo://app?vid=721f7798-543f-43f2-80a4-2d50e62f3e3a"},"vehicle_type_id":"4","last_reported":1718215852,"current_range_meters":12000,"station_id":"","pricing_plan_id":"cebpf4jnsgd1na2vs0mg"},{"bike_id":"4dba6d82-1364-4f8e-94d1-aebaedc2150e","system_id":"levelo_inurba_marseille","lat":43.290631,"lon":5.359244,"is_reserved":false,"is_disabled":false,"rental_uris":{"android":"levelo://app?vid=4dba6d82-1364-4f8e-94d1-aebaedc2150e","ios":"levelo://app?vid=4dba6d82-1364-4f8e-94d1-aebaedc2150e"},"vehicle_type_id":"4","last_reported":1718215852,"current_range_meters":8400,"station_id":"ce4bha92rcd13ifvqeg0","pricing_plan_id":"cebpf4jnsgd1na2vs0mg"},{"bike_id":"923766cb-6573-4f35-bddf-2a218a6a4ac1","system_id":"levelo_inurba_marseille","lat":43.29046,"lon":5.37556,"is_reserved":false,"is_disabled":false,"rental_uris":{"android":"levelo://app?vid=923766cb-6573-4f35-bddf-2a218a6a4ac1","ios":"levelo://app?vid=923766cb-6573-4f35-bddf-2a218a6a4ac1"},"vehicle_type_id":"4","last_reported":1718215852,"current_range_meters":0,"station_id":"ce4bh692rcd13ifvqe90","pricing_plan_id":"cebpf4jnsgd1na2vs0mg"},{"bike_id":"821f9833-17e4-4024-83c4-cf40a190f95c","system_id":"levelo_inurba_marseille","lat":43.29424,"lon":5.38622,"is_reserved":false,"is_disabled":false,"rental_uris":{"android":"levelo://app?vid=821f9833-17e4-4024-83c4-cf40a190f95c","ios":"levelo://app?vid=821f9833-17e4-4024-83c4-cf40a190f95c"},"vehicle_type_id":"4","last_reported":1718215852,"current_range_meters":0,"station_id":"ce4bh2h2rcd13ifvqdh0","pricing_plan_id":"cebpf4jnsgd1na2vs0mg"},{"bike_id":"4cf331ad-df4b-4e1b-b286-0e21331d7579","system_id":"levelo_inurba_marseille","lat":43.29422,"lon":5.38619,"is_reserved":false,"is_disabled":false,"rental_uris":{"android":"levelo://app?vid=4cf331ad-df4b-4e1b-b286-0e21331d7579","ios":"levelo://app?vid=4cf331ad-df4b-4e1b-b286-0e21331d7579"},"vehicle_type_id":"4","last_reported":1718215852,"current_range_meters":0,"station_id":"ce4bh2h2rcd13ifvqdh0","pricing_plan_id":"cebpf4jnsgd1na2vs0mg"},{"bike_id":"304b809c-8514-4a34-b62b-b2d9612a8e37","system_id":"levelo_inurba_marseille","lat":43.294153,"lon":5.386305,"is_reserved":false,"is_disabled":false,"rental_uris":{"android":"levelo://app?vid=304b809c-8514-4a34-b62b-b2d9612a8e37","ios":"levelo://app?vid=304b809c-8514-4a34-b62b-b2d9612a8e37"},"vehicle_type_id":"4","last_reported":1718215852,"current_range_meters":9600,"station_id":"ce4bh2h2rcd13ifvqdh0","pricing_plan_id":"cebpf4jnsgd1na2vs0mg"},{"bike_id":"1203b1a1-cc8e-42a0-aed3-3b4e4856f619","system_id":"levelo_inurba_marseille","lat":43.2942,"lon":5.38619,"is_reserved":false,"is_disabled":false,"rental_uris":{"android":"levelo://app?vid=1203b1a1-cc8e-42a0-aed3-3b4e4856f619","ios":"levelo://app?vid=1203b1a1-cc8e-42a0-aed3-3b4e4856f619"},"vehicle_type_id":"4","last_reported":1718215852,"current_range_meters":6800,"station_id":"ce4bh2h2rcd13ifvqdh0","pricing_plan_id":"cebpf4jnsgd1na2vs0mg"},{"bike_id":"5e73258d-d18b-4dc0-9c15-d97cf878130c","system_id":"levelo_inurba_marseille","lat":43.294162,"lon":5.386292,"is_reserved":false,"is_disabled":false,"rental_uris":{"android":"levelo://app?vid=5e73258d-d18b-4dc0-9c15-d97cf878130c","ios":"levelo://app?vid=5e73258d-d18b-4dc0-9c15-d97cf878130c"},"vehicle_type_id":"4","last_reported":1718215852,"current_range_meters":8000,"station_id":"ce4bh2h2rcd13ifvqdh0","pricing_plan_id":"cebpf4jnsgd1na2vs0mg"},{"bike_id":"ba4ebdef-7ad9-4eb9-954d-f86486712b73","system_id":"levelo_inurba_marseille","lat":43.29418,"lon":5.38619,"is_reserved":false,"is_disabled":false,"rental_uris":{"android":"levelo://app?vid=ba4ebdef-7ad9-4eb9-954d-f86486712b73","ios":"levelo://app?vid=ba4ebdef-7ad9-4eb9-954d-f86486712b73"},"vehicle_type_id":"4","last_reported":1718215852,"current_range_meters":0,"station_id":"ce4bh2h2rcd13ifvqdh0","pricing_plan_id":"cebpf4jnsgd1na2vs0mg"},{"bike_id":"e89764f2-26d8-4aaa-ac73-8c2c48684255","system_id":"levelo_inurba_marseille","lat":43.29418,"lon":5.38622,"is_reserved":false,"is_disabled":false,"rental_uris":{"android":"levelo://app?vid=e89764f2-26d8-4aaa-ac73-8c2c48684255","ios":"levelo://app?vid=e89764f2-26d8-4aaa-ac73-8c2c48684255"},"vehicle_type_id":"4","last_reported":1718215852,"current_range_meters":0,"station_id":"ce4bh2h2rcd13ifvqdh0","pricing_plan_id":"cebpf4jnsgd1na2vs0mg"},{"bike_id":"be98b68f-23af-4fa4-b51f-0dda6c7322fb","system_id":"levelo_inurba_marseille","lat":43.289184,"lon":5.366408,"is_reserved":false,"is_disabled":false,"rental_uris":{"android":"levelo://app?vid=be98b68f-23af-4fa4-b51f-0dda6c7322fb","ios":"levelo://app?vid=be98b68f-23af-4fa4-b51f-0dda6c7322fb"},"vehicle_type_id":"4","last_reported":1718215852,"current_range_meters":6800,"station_id":"ce4bhap2rcd13ifvqek0","pricing_plan_id":"cebpf4jnsgd1na2vs0mg"},{"bike_id":"c2084b47-9826-4e06-badc-5d2b8c5324f1","system_id":"levelo_inurba_marseille","lat":43.289468,"lon":5.363719,"is_reserved":false,"is_disabled":false,"rental_uris":{"android":"levelo://app?vid=c2084b47-9826-4e06-badc-5d2b8c5324f1","ios":"levelo://app?vid=c2084b47-9826-4e06-badc-5d2b8c5324f1"},"vehicle_type_id":"4","last_reported":1718215852,"current_range_meters":15200,"station_id":"ce4bhc92rcd13ifvqetg","pricing_plan_id":"cebpf4jnsgd1na2vs0mg"},{"bike_id":"a4b03945-a4f5-4c5b-8614-c8eec6873190","system_id":"levelo_inurba_marseille","lat":43.28942,"lon":5.36636,"is_reserved":false,"is_disabled":false,"rental_uris":{"android":"levelo://app?vid=a4b03945-a4f5-4c5b-8614-c8eec6873190","ios":"levelo://app?vid=a4b03945-a4f5-4c5b-8614-c8eec6873190"},"vehicle_type_id":"4","last_reported":1718215852,"current_range_meters":0,"station_id":"ce4bhap2rcd13ifvqek0","pricing_plan_id":"cebpf4jnsgd1na2vs0mg"},{"bike_id":"9fc06527-11e6-4b6f-af49-359637d62334","system_id":"levelo_inurba_marseille","lat":43.29415,"lon":5.38629,"is_reserved":false,"is_disabled":false,"rental_uris":{"android":"levelo://app?vid=9fc06527-11e6-4b6f-af49-359637d62334","ios":"levelo://app?vid=9fc06527-11e6-4b6f-af49-359637d62334"},"vehicle_type_id":"4","last_reported":1718215852,"current_range_meters":5200,"station_id":"ce4bh2h2rcd13ifvqdh0","pricing_plan_id":"cebpf4jnsgd1na2vs0mg"},{"bike_id":"0e957f87-6ee1-40f9-ac48-46257b342b50","system_id":"levelo_inurba_marseille","lat":43.289468,"lon":5.363719,"is_reserved":false,"is_disabled":false,"rental_uris":{"android":"levelo://app?vid=0e957f87-6ee1-40f9-ac48-46257b342b50","ios":"levelo://app?vid=0e957f87-6ee1-40f9-ac48-46257b342b50"},"vehicle_type_id":"4","last_reported":1718215852,"current_range_meters":7600,"station_id":"ce4bhc92rcd13ifvqetg","pricing_plan_id":"cebpf4jnsgd1na2vs0mg"},{"bike_id":"88ed3061-a688-44f9-9e56-433d4ca9bd32","system_id":"levelo_inurba_marseille","lat":43.28939,"lon":5.36643,"is_reserved":false,"is_disabled":false,"rental_uris":{"android":"levelo://app?vid=88ed3061-a688-44f9-9e56-433d4ca9bd32","ios":"levelo://app?vid=88ed3061-a688-44f9-9e56-433d4ca9bd32"},"vehicle_type_id":"4","last_reported":1718215852,"current_range_meters":0,"station_id":"ce4bhap2rcd13ifvqek0","pricing_plan_id":"cebpf4jnsgd1na2vs0mg"},{"bike_id":"3e314cb4-66f7-4558-bee5-db123c8b5538","system_id":"levelo_inurba_marseille","lat":43.28938,"lon":5.36637,"is_reserved":false,"is_disabled":false,"rental_uris":{"android":"levelo://app?vid=3e314cb4-66f7-4558-bee5-db123c8b5538","ios":"levelo://app?vid=3e314cb4-66f7-4558-bee5-db123c8b5538"},"vehicle_type_id":"4","last_reported":1718215852,"current_range_meters":29200,"station_id":"ce4bhap2rcd13ifvqek0","pricing_plan_id":"cebpf4jnsgd1na2vs0mg"},{"bike_id":"d02f4395-4ae7-45cf-bb7e-5c5a2c11105f","system_id":"levelo_inurba_marseille","lat":43.289184,"lon":5.366408,"is_reserved":false,"is_disabled":false,"rental_uris":{"android":"levelo://app?vid=d02f4395-4ae7-45cf-bb7e-5c5a2c11105f","ios":"levelo://app?vid=d02f4395-4ae7-45cf-bb7e-5c5a2c11105f"},"vehicle_type_id":"4","last_reported":1718215852,"current_range_meters":12400,"station_id":"ce4bhap2rcd13ifvqek0","pricing_plan_id":"cebpf4jnsgd1na2vs0mg"},{"bike_id":"e710f3fe-7bd9-4d05-b6c8-9d9c01905540","system_id":"levelo_inurba_marseille","lat":43.289468,"lon":5.363719,"is_reserved":false,"is_disabled":false,"rental_uris":{"android":"levelo://app?vid=e710f3fe-7bd9-4d05-b6c8-9d9c01905540","ios":"levelo://app?vid=e710f3fe-7bd9-4d05-b6c8-9d9c01905540"},"vehicle_type_id":"4","last_reported":1718215852,"current_range_meters":31200,"station_id":"ce4bhc92rcd13ifvqetg","pricing_plan_id":"cebpf4jnsgd1na2vs0mg"},{"bike_id":"36ee384c-3757-4b3e-ba22-aafeb788b506","system_id":"levelo_inurba_marseille","lat":43.289184,"lon":5.366408,"is_reserved":false,"is_disabled":false,"rental_uris":{"android":"levelo://app?vid=36ee384c-3757-4b3e-ba22-aafeb788b506","ios":"levelo://app?vid=36ee384c-3757-4b3e-ba22-aafeb788b506"},"vehicle_type_id":"4","last_reported":1718215852,"current_range_meters":800,"station_id":"ce4bhap2rcd13ifvqek0","pricing_plan_id":"cebpf4jnsgd1na2vs0mg"},{"bike_id":"51642afb-8359-4760-9868-0b12341ce1bc","system_id":"levelo_inurba_marseille","lat":43.289468,"lon":5.363719,"is_reserved":false,"is_disabled":false,"rental_uris":{"android":"levelo://app?vid=51642afb-8359-4760-9868-0b12341ce1bc","ios":"levelo://app?vid=51642afb-8359-4760-9868-0b12341ce1bc"},"vehicle_type_id":"4","last_reported":1718215852,"current_range_meters":31200,"station_id":"ce4bhc92rcd13ifvqetg","pricing_plan_id":"cebpf4jnsgd1na2vs0mg"},{"bike_id":"f2b04d48-ea63-4153-8461-106614848fbe","system_id":"levelo_inurba_marseille","lat":43.28932,"lon":5.36387,"is_reserved":false,"is_disabled":false,"rental_uris":{"android":"levelo://app?vid=f2b04d48-ea63-4153-8461-106614848fbe","ios":"levelo://app?vid=f2b04d48-ea63-4153-8461-106614848fbe"},"vehicle_type_id":"4","last_reported":1718215852,"current_range_meters":18400,"station_id":"ce4bhc92rcd13ifvqetg","pricing_plan_id":"cebpf4jnsgd1na2vs0mg"},{"bike_id":"76cc1d5e-4b3b-41bf-97ae-aea4fbe7d354","system_id":"levelo_inurba_marseille","lat":43.289468,"lon":5.363719,"is_reserved":false,"is_disabled":false,"rental_uris":{"android":"levelo://app?vid=76cc1d5e-4b3b-41bf-97ae-aea4fbe7d354","ios":"levelo://app?vid=76cc1d5e-4b3b-41bf-97ae-aea4fbe7d354"},"vehicle_type_id":"4","last_reported":1718215852,"current_range_meters":16800,"station_id":"ce4bhc92rcd13ifvqetg","pricing_plan_id":"cebpf4jnsgd1na2vs0mg"},{"bike_id":"f2af7422-440a-47c4-a797-34e2693c5507","system_id":"levelo_inurba_marseille","lat":43.29272,"lon":5.38437,"is_reserved":false,"is_disabled":false,"rental_uris":{"android":"levelo://app?vid=f2af7422-440a-47c4-a797-34e2693c5507","ios":"levelo://app?vid=f2af7422-440a-47c4-a797-34e2693c5507"},"vehicle_type_id":"4","last_reported":1718215852,"current_range_meters":0,"station_id":"ce4bh692rcd13ifvqea0","pricing_plan_id":"cebpf4jnsgd1na2vs0mg"},{"bike_id":"c9a06869-e974-4a63-a64d-81258d998fcf","system_id":"levelo_inurba_marseille","lat":43.292644,"lon":5.384257,"is_reserved":false,"is_disabled":false,"rental_uris":{"android":"levelo://app?vid=c9a06869-e974-4a63-a64d-81258d998fcf","ios":"levelo://app?vid=c9a06869-e974-4a63-a64d-81258d998fcf"},"vehicle_type_id":"4","last_reported":1718215852,"current_range_meters":0,"station_id":"ce4bh692rcd13ifvqea0","pricing_plan_id":"cebpf4jnsgd1na2vs0mg"},{"bike_id":"fad50d53-bc48-463c-be08-3fa04d38acf4","system_id":"levelo_inurba_marseille","lat":43.292642,"lon":5.384254,"is_reserved":false,"is_disabled":false,"rental_uris":{"android":"levelo://app?vid=fad50d53-bc48-463c-be08-3fa04d38acf4","ios":"levelo://app?vid=fad50d53-bc48-463c-be08-3fa04d38acf4"},"vehicle_type_id":"4","last_reported":1718215852,"current_range_meters":2400,"station_id":"ce4bh692rcd13ifvqea0","pricing_plan_id":"cebpf4jnsgd1na2vs0mg"},{"bike_id":"7bf525c0-91d9-4540-b621-084704668565","system_id":"levelo_inurba_marseille","lat":43.292643,"lon":5.384333,"is_reserved":false,"is_disabled":false,"rental_uris":{"android":"levelo://app?vid=7bf525c0-91d9-4540-b621-084704668565","ios":"levelo://app?vid=7bf525c0-91d9-4540-b621-084704668565"},"vehicle_type_id":"4","last_reported":1718215852,"current_range_meters":0,"station_id":"ce4bh692rcd13ifvqea0","pricing_plan_id":"cebpf4jnsgd1na2vs0mg"},{"bike_id":"e7819074-dc63-497a-afa2-d170f70d6062","system_id":"levelo_inurba_marseille","lat":43.292644,"lon":5.384257,"is_reserved":false,"is_disabled":false,"rental_uris":{"android":"levelo://app?vid=e7819074-dc63-497a-afa2-d170f70d6062","ios":"levelo://app?vid=e7819074-dc63-497a-afa2-d170f70d6062"},"vehicle_type_id":"4","last_reported":1718215852,"current_range_meters":19600,"station_id":"ce4bh692rcd13ifvqea0","pricing_plan_id":"cebpf4jnsgd1na2vs0mg"},{"bike_id":"d7f62415-6988-4149-b133-1ea084486346","system_id":"levelo_inurba_marseille","lat":43.292644,"lon":5.384257,"is_reserved":false,"is_disabled":false,"rental_uris":{"android":"levelo://app?vid=d7f62415-6988-4149-b133-1ea084486346","ios":"levelo://app?vid=d7f62415-6988-4149-b133-1ea084486346"},"vehicle_type_id":"4","last_reported":1718215852,"current_range_meters":21200,"station_id":"ce4bh692rcd13ifvqea0","pricing_plan_id":"cebpf4jnsgd1na2vs0mg"},{"bike_id":"d6b7f2cf-cd76-4fe5-b57a-056addc0163a","system_id":"levelo_inurba_marseille","lat":43.292644,"lon":5.384257,"is_reserved":false,"is_disabled":false,"rental_uris":{"android":"levelo://app?vid=d6b7f2cf-cd76-4fe5-b57a-056addc0163a","ios":"levelo://app?vid=d6b7f2cf-cd76-4fe5-b57a-056addc0163a"},"vehicle_type_id":"4","last_reported":1718215852,"current_range_meters":2000,"station_id":"ce4bh692rcd13ifvqea0","pricing_plan_id":"cebpf4jnsgd1na2vs0mg"},{"bike_id":"41931eeb-ba7d-42e9-ad09-d59e02d59c7d","system_id":"levelo_inurba_marseille","lat":43.304296,"lon":5.397513,"is_reserved":false,"is_disabled":false,"rental_uris":{"android":"levelo://app?vid=41931eeb-ba7d-42e9-ad09-d59e02d59c7d","ios":"levelo://app?vid=41931eeb-ba7d-42e9-ad09-d59e02d59c7d"},"vehicle_type_id":"4","last_reported":1718215852,"current_range_meters":1200,"station_id":"ce4bh092rcd13ifvqd20","pricing_plan_id":"cebpf4jnsgd1na2vs0mg"},{"bike_id":"fb3933d7-731d-4d64-87de-b07b9ee68204","system_id":"levelo_inurba_marseille","lat":43.304296,"lon":5.397513,"is_reserved":false,"is_disabled":false,"rental_uris":{"android":"levelo://app?vid=fb3933d7-731d-4d64-87de-b07b9ee68204","ios":"levelo://app?vid=fb3933d7-731d-4d64-87de-b07b9ee68204"},"vehicle_type_id":"4","last_reported":1718215852,"current_range_meters":5200,"station_id":"ce4bh092rcd13ifvqd20","pricing_plan_id":"cebpf4jnsgd1na2vs0mg"},{"bike_id":"22b8a6bd-2844-43b5-92c3-349f90883603","system_id":"levelo_inurba_marseille","lat":43.295169,"lon":5.390426,"is_reserved":false,"is_disabled":false,"rental_uris":{"android":"levelo://app?vid=22b8a6bd-2844-43b5-92c3-349f90883603","ios":"levelo://app?vid=22b8a6bd-2844-43b5-92c3-349f90883603"},"vehicle_type_id":"4","last_reported":1718215852,"current_range_meters":15200,"station_id":"ce4bh3p2rcd13ifvqdp0","pricing_plan_id":"cebpf4jnsgd1na2vs0mg"},{"bike_id":"b4ea62b5-ca7d-48a6-b597-9017e0d86252","system_id":"levelo_inurba_marseille","lat":43.290104,"lon":5.356111,"is_reserved":false,"is_disabled":false,"rental_uris":{"android":"levelo://app?vid=b4ea62b5-ca7d-48a6-b597-9017e0d86252","ios":"levelo://app?vid=b4ea62b5-ca7d-48a6-b597-9017e0d86252"},"vehicle_type_id":"4","last_reported":1718215852,"current_range_meters":400,"station_id":"ce4bhb92rcd13ifvqen0","pricing_plan_id":"cebpf4jnsgd1na2vs0mg"},{"bike_id":"36edc226-989b-483c-bb13-a23cd8eaacef","system_id":"levelo_inurba_marseille","lat":43.29002,"lon":5.35615,"is_reserved":false,"is_disabled":false,"rental_uris":{"android":"levelo://app?vid=36edc226-989b-483c-bb13-a23cd8eaacef","ios":"levelo://app?vid=36edc226-989b-483c-bb13-a23cd8eaacef"},"vehicle_type_id":"4","last_reported":1718215852,"current_range_meters":2400,"station_id":"ce4bhb92rcd13ifvqen0","pricing_plan_id":"cebpf4jnsgd1na2vs0mg"},{"bike_id":"8e84971e-fa2f-40c7-a735-93179fedd5e1","system_id":"levelo_inurba_marseille","lat":43.290995,"lon":5.381361,"is_reserved":false,"is_disabled":false,"rental_uris":{"android":"levelo://app?vid=8e84971e-fa2f-40c7-a735-93179fedd5e1","ios":"levelo://app?vid=8e84971e-fa2f-40c7-a735-93179fedd5e1"},"vehicle_type_id":"4","last_reported":1718215852,"current_range_meters":0,"station_id":"ce4bh512rcd13ifvqe2g","pricing_plan_id":"cebpf4jnsgd1na2vs0mg"},{"bike_id":"2885ceb2-bac8-4130-9f10-68fcd583f138","system_id":"levelo_inurba_marseille","lat":43.290995,"lon":5.381361,"is_reserved":false,"is_disabled":false,"rental_uris":{"android":"levelo://app?vid=2885ceb2-bac8-4130-9f10-68fcd583f138","ios":"levelo://app?vid=2885ceb2-bac8-4130-9f10-68fcd583f138"},"vehicle_type_id":"4","last_reported":1718215852,"current_range_meters":2400,"station_id":"ce4bh512rcd13ifvqe2g","pricing_plan_id":"cebpf4jnsgd1na2vs0mg"},{"bike_id":"7bef5aaf-7ccd-4c44-bbe9-aaf13e109562","system_id":"levelo_inurba_marseille","lat":43.290995,"lon":5.381361,"is_reserved":false,"is_disabled":false,"rental_uris":{"android":"levelo://app?vid=7bef5aaf-7ccd-4c44-bbe9-aaf13e109562","ios":"levelo://app?vid=7bef5aaf-7ccd-4c44-bbe9-aaf13e109562"},"vehicle_type_id":"4","last_reported":1718215852,"current_range_meters":10400,"station_id":"ce4bh512rcd13ifvqe2g","pricing_plan_id":"cebpf4jnsgd1na2vs0mg"},{"bike_id":"4a65fdd4-3715-4cdf-901e-21ef8d983f69","system_id":"levelo_inurba_marseille","lat":43.297815,"lon":5.393548,"is_reserved":false,"is_disabled":false,"rental_uris":{"android":"levelo://app?vid=4a65fdd4-3715-4cdf-901e-21ef8d983f69","ios":"levelo://app?vid=4a65fdd4-3715-4cdf-901e-21ef8d983f69"},"vehicle_type_id":"4","last_reported":1718215852,"current_range_meters":18800,"station_id":"chh1huq6cuj3fo74tm60","pricing_plan_id":"cebpf4jnsgd1na2vs0mg"},{"bike_id":"595fa85c-dc85-44fe-af3f-c5bebb8ebe00","system_id":"levelo_inurba_marseille","lat":43.297815,"lon":5.393548,"is_reserved":false,"is_disabled":false,"rental_uris":{"android":"levelo://app?vid=595fa85c-dc85-44fe-af3f-c5bebb8ebe00","ios":"levelo://app?vid=595fa85c-dc85-44fe-af3f-c5bebb8ebe00"},"vehicle_type_id":"4","last_reported":1718215852,"current_range_meters":0,"station_id":"chh1huq6cuj3fo74tm60","pricing_plan_id":"cebpf4jnsgd1na2vs0mg"},{"bike_id":"ac701720-5793-4c75-a14a-3ecb63033612","system_id":"levelo_inurba_marseille","lat":43.297815,"lon":5.393548,"is_reserved":false,"is_disabled":false,"rental_uris":{"android":"levelo://app?vid=ac701720-5793-4c75-a14a-3ecb63033612","ios":"levelo://app?vid=ac701720-5793-4c75-a14a-3ecb63033612"},"vehicle_type_id":"4","last_reported":1718215852,"current_range_meters":2400,"station_id":"chh1huq6cuj3fo74tm60","pricing_plan_id":"cebpf4jnsgd1na2vs0mg"},{"bike_id":"4a6a6c16-b403-47a3-ad20-93844ac1cb94","system_id":"levelo_inurba_marseille","lat":43.29787,"lon":5.39335,"is_reserved":false,"is_disabled":false,"rental_uris":{"android":"levelo://app?vid=4a6a6c16-b403-47a3-ad20-93844ac1cb94","ios":"levelo://app?vid=4a6a6c16-b403-47a3-ad20-93844ac1cb94"},"vehicle_type_id":"4","last_reported":1718215852,"current_range_meters":2400,"station_id":"chh1huq6cuj3fo74tm60","pricing_plan_id":"cebpf4jnsgd1na2vs0mg"},{"bike_id":"db3b4966-f285-4614-8bf6-d357363af5e8","system_id":"levelo_inurba_marseille","lat":43.295169,"lon":5.390426,"is_reserved":false,"is_disabled":false,"rental_uris":{"android":"levelo://app?vid=db3b4966-f285-4614-8bf6-d357363af5e8","ios":"levelo://app?vid=db3b4966-f285-4614-8bf6-d357363af5e8"},"vehicle_type_id":"4","last_reported":1718215852,"current_range_meters":26400,"station_id":"ce4bh3p2rcd13ifvqdp0","pricing_plan_id":"cebpf4jnsgd1na2vs0mg"},{"bike_id":"2c271d0d-e7a9-4f0e-a15b-639ffeb1f8ce","system_id":"levelo_inurba_marseille","lat":43.295169,"lon":5.390426,"is_reserved":false,"is_disabled":false,"rental_uris":{"android":"levelo://app?vid=2c271d0d-e7a9-4f0e-a15b-639ffeb1f8ce","ios":"levelo://app?vid=2c271d0d-e7a9-4f0e-a15b-639ffeb1f8ce"},"vehicle_type_id":"4","last_reported":1718215852,"current_range_meters":8000,"station_id":"ce4bh3p2rcd13ifvqdp0","pricing_plan_id":"cebpf4jnsgd1na2vs0mg"},{"bike_id":"23cc7bb6-79ce-4634-8043-5900811fb156","system_id":"levelo_inurba_marseille","lat":43.295169,"lon":5.390426,"is_reserved":false,"is_disabled":false,"rental_uris":{"android":"levelo://app?vid=23cc7bb6-79ce-4634-8043-5900811fb156","ios":"levelo://app?vid=23cc7bb6-79ce-4634-8043-5900811fb156"},"vehicle_type_id":"4","last_reported":1718215852,"current_range_meters":8800,"station_id":"ce4bh3p2rcd13ifvqdp0","pricing_plan_id":"cebpf4jnsgd1na2vs0mg"},{"bike_id":"926edc9a-41d8-400c-ae3a-042ee32f3b6c","system_id":"levelo_inurba_marseille","lat":43.295169,"lon":5.390426,"is_reserved":false,"is_disabled":false,"rental_uris":{"android":"levelo://app?vid=926edc9a-41d8-400c-ae3a-042ee32f3b6c","ios":"levelo://app?vid=926edc9a-41d8-400c-ae3a-042ee32f3b6c"},"vehicle_type_id":"4","last_reported":1718215852,"current_range_meters":0,"station_id":"ce4bh3p2rcd13ifvqdp0","pricing_plan_id":"cebpf4jnsgd1na2vs0mg"},{"bike_id":"14bd2a95-3021-423c-b799-cd6adb7ebbd3","system_id":"levelo_inurba_marseille","lat":43.33023,"lon":5.39039,"is_reserved":false,"is_disabled":false,"rental_uris":{"android":"levelo://app?vid=14bd2a95-3021-423c-b799-cd6adb7ebbd3","ios":"levelo://app?vid=14bd2a95-3021-423c-b799-cd6adb7ebbd3"},"vehicle_type_id":"4","last_reported":1718215852,"current_range_meters":0,"station_id":"","pricing_plan_id":"cebpf4jnsgd1na2vs0mg"},{"bike_id":"d4c4a678-686a-4cd3-9948-aa7b643962fb","system_id":"levelo_inurba_marseille","lat":43.330442,"lon":5.389148,"is_reserved":false,"is_disabled":false,"rental_uris":{"android":"levelo://app?vid=d4c4a678-686a-4cd3-9948-aa7b643962fb","ios":"levelo://app?vid=d4c4a678-686a-4cd3-9948-aa7b643962fb"},"vehicle_type_id":"4","last_reported":1718215852,"current_range_meters":28800,"station_id":"ce4bhr92rcd13ifvqhrg","pricing_plan_id":"cebpf4jnsgd1na2vs0mg"},{"bike_id":"633c5f56-dead-483d-89ad-34c570258161","system_id":"levelo_inurba_marseille","lat":43.330442,"lon":5.389148,"is_reserved":false,"is_disabled":false,"rental_uris":{"android":"levelo://app?vid=633c5f56-dead-483d-89ad-34c570258161","ios":"levelo://app?vid=633c5f56-dead-483d-89ad-34c570258161"},"vehicle_type_id":"4","last_reported":1718215852,"current_range_meters":2000,"station_id":"ce4bhr92rcd13ifvqhrg","pricing_plan_id":"cebpf4jnsgd1na2vs0mg"},{"bike_id":"61840db6-716f-4188-9194-de6cad4b59a9","system_id":"levelo_inurba_marseille","lat":43.295169,"lon":5.390426,"is_reserved":false,"is_disabled":false,"rental_uris":{"android":"levelo://app?vid=61840db6-716f-4188-9194-de6cad4b59a9","ios":"levelo://app?vid=61840db6-716f-4188-9194-de6cad4b59a9"},"vehicle_type_id":"4","last_reported":1718215852,"current_range_meters":400,"station_id":"ce4bh3p2rcd13ifvqdp0","pricing_plan_id":"cebpf4jnsgd1na2vs0mg"},{"bike_id":"16565b95-ac1b-48f1-9c6c-7dcd090c299f","system_id":"levelo_inurba_marseille","lat":43.330442,"lon":5.389148,"is_reserved":false,"is_disabled":false,"rental_uris":{"android":"levelo://app?vid=16565b95-ac1b-48f1-9c6c-7dcd090c299f","ios":"levelo://app?vid=16565b95-ac1b-48f1-9c6c-7dcd090c299f"},"vehicle_type_id":"4","last_reported":1718215852,"current_range_meters":2800,"station_id":"ce4bhr92rcd13ifvqhrg","pricing_plan_id":"cebpf4jnsgd1na2vs0mg"},{"bike_id":"4c1719df-5418-44e4-8f8f-d4192a8d116e","system_id":"levelo_inurba_marseille","lat":43.295169,"lon":5.390426,"is_reserved":false,"is_disabled":false,"rental_uris":{"android":"levelo://app?vid=4c1719df-5418-44e4-8f8f-d4192a8d116e","ios":"levelo://app?vid=4c1719df-5418-44e4-8f8f-d4192a8d116e"},"vehicle_type_id":"4","last_reported":1718215852,"current_range_meters":0,"station_id":"ce4bh3p2rcd13ifvqdp0","pricing_plan_id":"cebpf4jnsgd1na2vs0mg"},{"bike_id":"dfc54fdd-895c-4d7b-9491-ff22f9872198","system_id":"levelo_inurba_marseille","lat":43.330442,"lon":5.389148,"is_reserved":false,"is_disabled":false,"rental_uris":{"android":"levelo://app?vid=dfc54fdd-895c-4d7b-9491-ff22f9872198","ios":"levelo://app?vid=dfc54fdd-895c-4d7b-9491-ff22f9872198"},"vehicle_type_id":"4","last_reported":1718215852,"current_range_meters":12800,"station_id":"ce4bhr92rcd13ifvqhrg","pricing_plan_id":"cebpf4jnsgd1na2vs0mg"},{"bike_id":"87607f48-04dd-4463-9b79-a7ba8b9706b3","system_id":"levelo_inurba_marseille","lat":43.33029,"lon":5.39041,"is_reserved":false,"is_disabled":false,"rental_uris":{"android":"levelo://app?vid=87607f48-04dd-4463-9b79-a7ba8b9706b3","ios":"levelo://app?vid=87607f48-04dd-4463-9b79-a7ba8b9706b3"},"vehicle_type_id":"4","last_reported":1718215852,"current_range_meters":12400,"station_id":"ce4bhr92rcd13ifvqhrg","pricing_plan_id":"cebpf4jnsgd1na2vs0mg"},{"bike_id":"c2393794-6303-458c-bb9f-778379649b62","system_id":"levelo_inurba_marseille","lat":43.33028,"lon":5.39045,"is_reserved":false,"is_disabled":false,"rental_uris":{"android":"levelo://app?vid=c2393794-6303-458c-bb9f-778379649b62","ios":"levelo://app?vid=c2393794-6303-458c-bb9f-778379649b62"},"vehicle_type_id":"4","last_reported":1718215852,"current_range_meters":18800,"station_id":"ce4bhr92rcd13ifvqhrg","pricing_plan_id":"cebpf4jnsgd1na2vs0mg"},{"bike_id":"8ce72bd3-f2f5-4837-8d58-1c1426ac27f8","system_id":"levelo_inurba_marseille","lat":43.295169,"lon":5.390426,"is_reserved":false,"is_disabled":false,"rental_uris":{"android":"levelo://app?vid=8ce72bd3-f2f5-4837-8d58-1c1426ac27f8","ios":"levelo://app?vid=8ce72bd3-f2f5-4837-8d58-1c1426ac27f8"},"vehicle_type_id":"4","last_reported":1718215852,"current_range_meters":0,"station_id":"ce4bh3p2rcd13ifvqdp0","pricing_plan_id":"cebpf4jnsgd1na2vs0mg"},{"bike_id":"6d5c1ba1-30b7-4293-bdfe-2f5f2a145f52","system_id":"levelo_inurba_marseille","lat":43.33029,"lon":5.39046,"is_reserved":false,"is_disabled":false,"rental_uris":{"android":"levelo://app?vid=6d5c1ba1-30b7-4293-bdfe-2f5f2a145f52","ios":"levelo://app?vid=6d5c1ba1-30b7-4293-bdfe-2f5f2a145f52"},"vehicle_type_id":"4","last_reported":1718215852,"current_range_meters":21600,"station_id":"ce4bhr92rcd13ifvqhrg","pricing_plan_id":"cebpf4jnsgd1na2vs0mg"},{"bike_id":"82385019-b075-4ada-9edd-db95a77ae121","system_id":"levelo_inurba_marseille","lat":43.33029,"lon":5.39047,"is_reserved":false,"is_disabled":false,"rental_uris":{"android":"levelo://app?vid=82385019-b075-4ada-9edd-db95a77ae121","ios":"levelo://app?vid=82385019-b075-4ada-9edd-db95a77ae121"},"vehicle_type_id":"4","last_reported":1718215852,"current_range_meters":8000,"station_id":"ce4bhr92rcd13ifvqhrg","pricing_plan_id":"cebpf4jnsgd1na2vs0mg"},{"bike_id":"f5854e01-f627-494c-b6b2-237cb4f0464d","system_id":"levelo_inurba_marseille","lat":43.2901,"lon":5.381269,"is_reserved":false,"is_disabled":false,"rental_uris":{"android":"levelo://app?vid=f5854e01-f627-494c-b6b2-237cb4f0464d","ios":"levelo://app?vid=f5854e01-f627-494c-b6b2-237cb4f0464d"},"vehicle_type_id":"4","last_reported":1718215852,"current_range_meters":28800,"station_id":"ce4bh4p2rcd13ifvqe1g","pricing_plan_id":"cebpf4jnsgd1na2vs0mg"},{"bike_id":"674438e2-4add-4a21-bc2e-d64f7b8eacf9","system_id":"levelo_inurba_marseille","lat":43.33742,"lon":5.37443,"is_reserved":false,"is_disabled":false,"rental_uris":{"android":"levelo://app?vid=674438e2-4add-4a21-bc2e-d64f7b8eacf9","ios":"levelo://app?vid=674438e2-4add-4a21-bc2e-d64f7b8eacf9"},"vehicle_type_id":"4","last_reported":1718215852,"current_range_meters":24800,"station_id":"","pricing_plan_id":"cebpf4jnsgd1na2vs0mg"},{"bike_id":"6400c349-0e82-42de-9dd9-6f41886b37f3","system_id":"levelo_inurba_marseille","lat":43.309371,"lon":5.401449,"is_reserved":false,"is_disabled":false,"rental_uris":{"android":"levelo://app?vid=6400c349-0e82-42de-9dd9-6f41886b37f3","ios":"levelo://app?vid=6400c349-0e82-42de-9dd9-6f41886b37f3"},"vehicle_type_id":"4","last_reported":1718215852,"current_range_meters":2800,"station_id":"ce4bgvp2rcd13ifvqct0","pricing_plan_id":"cebpf4jnsgd1na2vs0mg"},{"bike_id":"688db2e9-450a-4ebc-81e0-665ec27c1a4c","system_id":"levelo_inurba_marseille","lat":43.337444,"lon":5.374475,"is_reserved":false,"is_disabled":false,"rental_uris":{"android":"levelo://app?vid=688db2e9-450a-4ebc-81e0-665ec27c1a4c","ios":"levelo://app?vid=688db2e9-450a-4ebc-81e0-665ec27c1a4c"},"vehicle_type_id":"4","last_reported":1718215852,"current_range_meters":5600,"station_id":"","pricing_plan_id":"cebpf4jnsgd1na2vs0mg"},{"bike_id":"621f0d48-04c7-4ee6-823e-b62276a943f0","system_id":"levelo_inurba_marseille","lat":43.312609,"lon":5.401662,"is_reserved":false,"is_disabled":false,"rental_uris":{"android":"levelo://app?vid=621f0d48-04c7-4ee6-823e-b62276a943f0","ios":"levelo://app?vid=621f0d48-04c7-4ee6-823e-b62276a943f0"},"vehicle_type_id":"4","last_reported":1718215852,"current_range_meters":17200,"station_id":"ce4bh092rcd13ifvqd30","pricing_plan_id":"cebpf4jnsgd1na2vs0mg"},{"bike_id":"b5f026d0-9aa5-4c2c-bbc0-8327e577649b","system_id":"levelo_inurba_marseille","lat":43.309371,"lon":5.401449,"is_reserved":false,"is_disabled":false,"rental_uris":{"android":"levelo://app?vid=b5f026d0-9aa5-4c2c-bbc0-8327e577649b","ios":"levelo://app?vid=b5f026d0-9aa5-4c2c-bbc0-8327e577649b"},"vehicle_type_id":"4","last_reported":1718215852,"current_range_meters":18400,"station_id":"ce4bgvp2rcd13ifvqct0","pricing_plan_id":"cebpf4jnsgd1na2vs0mg"},{"bike_id":"38747978-69bb-43ab-9210-3d833571b037","system_id":"levelo_inurba_marseille","lat":43.31275,"lon":5.40176,"is_reserved":false,"is_disabled":false,"rental_uris":{"android":"levelo://app?vid=38747978-69bb-43ab-9210-3d833571b037","ios":"levelo://app?vid=38747978-69bb-43ab-9210-3d833571b037"},"vehicle_type_id":"4","last_reported":1718215852,"current_range_meters":0,"station_id":"ce4bh092rcd13ifvqd30","pricing_plan_id":"cebpf4jnsgd1na2vs0mg"},{"bike_id":"102e168f-d5ec-482b-9e4f-07de15e28594","system_id":"levelo_inurba_marseille","lat":43.337471,"lon":5.374557,"is_reserved":false,"is_disabled":false,"rental_uris":{"android":"levelo://app?vid=102e168f-d5ec-482b-9e4f-07de15e28594","ios":"levelo://app?vid=102e168f-d5ec-482b-9e4f-07de15e28594"},"vehicle_type_id":"4","last_reported":1718215852,"current_range_meters":2800,"station_id":"","pricing_plan_id":"cebpf4jnsgd1na2vs0mg"},{"bike_id":"f6ad5a38-da1c-40a5-8ba5-a219615f39cb","system_id":"levelo_inurba_marseille","lat":43.33755,"lon":5.37452,"is_reserved":false,"is_disabled":false,"rental_uris":{"android":"levelo://app?vid=f6ad5a38-da1c-40a5-8ba5-a219615f39cb","ios":"levelo://app?vid=f6ad5a38-da1c-40a5-8ba5-a219615f39cb"},"vehicle_type_id":"4","last_reported":1718215852,"current_range_meters":16800,"station_id":"","pricing_plan_id":"cebpf4jnsgd1na2vs0mg"},{"bike_id":"d1849cda-65d1-466c-89f7-e72de50cdd6f","system_id":"levelo_inurba_marseille","lat":43.33755,"lon":5.37457,"is_reserved":false,"is_disabled":false,"rental_uris":{"android":"levelo://app?vid=d1849cda-65d1-466c-89f7-e72de50cdd6f","ios":"levelo://app?vid=d1849cda-65d1-466c-89f7-e72de50cdd6f"},"vehicle_type_id":"4","last_reported":1718215852,"current_range_meters":24800,"station_id":"","pricing_plan_id":"cebpf4jnsgd1na2vs0mg"},{"bike_id":"cd6fbaa0-3f8c-4b29-beaf-56075c0662d6","system_id":"levelo_inurba_marseille","lat":43.30928,"lon":5.40156,"is_reserved":false,"is_disabled":false,"rental_uris":{"android":"levelo://app?vid=cd6fbaa0-3f8c-4b29-beaf-56075c0662d6","ios":"levelo://app?vid=cd6fbaa0-3f8c-4b29-beaf-56075c0662d6"},"vehicle_type_id":"4","last_reported":1718215852,"current_range_meters":0,"station_id":"ce4bgvp2rcd13ifvqct0","pricing_plan_id":"cebpf4jnsgd1na2vs0mg"},{"bike_id":"b860a93c-70bf-45fa-94ab-f0d211a252fd","system_id":"levelo_inurba_marseille","lat":43.28777,"lon":5.37378,"is_reserved":false,"is_disabled":false,"rental_uris":{"android":"levelo://app?vid=b860a93c-70bf-45fa-94ab-f0d211a252fd","ios":"levelo://app?vid=b860a93c-70bf-45fa-94ab-f0d211a252fd"},"vehicle_type_id":"4","last_reported":1718215852,"current_range_meters":13200,"station_id":"","pricing_plan_id":"cebpf4jnsgd1na2vs0mg"},{"bike_id":"1c134042-d32c-4020-b20f-87fa77c7f504","system_id":"levelo_inurba_marseille","lat":43.28784,"lon":5.359587,"is_reserved":false,"is_disabled":false,"rental_uris":{"android":"levelo://app?vid=1c134042-d32c-4020-b20f-87fa77c7f504","ios":"levelo://app?vid=1c134042-d32c-4020-b20f-87fa77c7f504"},"vehicle_type_id":"4","last_reported":1718215852,"current_range_meters":2800,"station_id":"","pricing_plan_id":"cebpf4jnsgd1na2vs0mg"},{"bike_id":"02e4374d-2331-4500-b388-da39e233d2b9","system_id":"levelo_inurba_marseille","lat":43.30633,"lon":5.4008,"is_reserved":false,"is_disabled":false,"rental_uris":{"android":"levelo://app?vid=02e4374d-2331-4500-b388-da39e233d2b9","ios":"levelo://app?vid=02e4374d-2331-4500-b388-da39e233d2b9"},"vehicle_type_id":"4","last_reported":1718215852,"current_range_meters":18800,"station_id":"ce4bh112rcd13ifvqda0","pricing_plan_id":"cebpf4jnsgd1na2vs0mg"},