{"last_updated":1750529605,"ttl":60,"version":"2.2","data":{"bikes":[{"bike_id":"3da29fb8-fc97-44c6-b9ac-31dd456b2fd4","system_id":"levelo_inurba_marseille","lat":43.33771,"lon":5.37424,"is_reserved":false,"is_disabled":true,"rental_uris":{"android":"levelo://app?vid=3da29fb8-fc97-44c6-b9ac-31dd456b2fd4","ios":"levelo://app?vid=3da29fb8-fc97-44c6-b9ac-31dd456b2fd4"},"vehicle_type_id":"4","last_reported":1750529605,"current_range_meters":0,"station_id":"","pricing_plan_id":"cebpf4jnsgd1na2vs0mg"},{"bike_id":"01861ad8-a8d7-4be6-816e-651927c87584","system_id":"levelo_inurba_marseille","lat":43.33751,"lon":5.37456,"is_reserved":false,"is_disabled":true,"rental_uris":{"android":"levelo://app?vid=01861ad8-a8d7-4be6-816e-651927c87584","ios":"levelo://app?vid=01861ad8-a8d7-4be6-816e-651927c87584"},"vehicle_type_id":"4","last_reported":1750529605,"current_range_meters":0,"station_id":"","pricing_plan_id":"cebpf4jnsgd1na2vs0mg"},{"bike_id":"62a493c7-4534-4419-ad43-0582de34a72a","system_id":"levelo_inurba_marseille","lat":43.21366,"lon":5.355183,"is_reserved":false,"is_disabled":true,"rental_uris":{"android":"levelo://app?vid=62a493c7-4534-4419-ad43-0582de34a72a","ios":"levelo://app?vid=62a493c7-4534-4419-ad43-0582de34a72a"},"vehicle_type_id":"4","last_reported":1750529605,"current_range_meters":0,"station_id":"","pricing_plan_id":"cebpf4jnsgd1na2vs0mg"},{"bike_id":"a85d1cbd-d782-40f2-9935-1c4c0af36539","system_id":"levelo_inurba_marseille","lat":43.292701,"lon":5.38442,"is_reserved":false,"is_disabled":true,"rental_uris":{"android":"levelo://app?vid=a85d1cbd-d782-40f2-9935-1c4c0af36539","ios":"levelo://app?vid=a85d1cbd-d782-40f2-9935-1c4c0af36539"},"vehicle_type_id":"4","last_reported":1750529605,"current_range_meters":0,"station_id":"","pricing_plan_id":"cebpf4jnsgd1na2vs0mg"},{"bike_id":"d6609b4f-333b-43c1-9ebe-8726f5e76e88","system_id":"levelo_inurba_marseille","lat":43.337444,"lon":5.374475,"is_reserved":false,"is_disabled":true,"rental_uris":{"android":"levelo://app?vid=d6609b4f-333b-43c1-9ebe-8726f5e76e88","ios":"levelo://app?vid=d6609b4f-333b-43c1-9ebe-8726f5e76e88"},"vehicle_type_id":"4","last_reported":1750529605,"current_range_meters":0,"station_id":"","pricing_plan_id":"cebpf4jnsgd1na2vs0mg"},{"bike_id":"ebf2b0f2-73a9-4b39-b5b1-d0bf6e18e671","system_id":"levelo_inurba_marseille","lat":43.31833,"lon":5.37388,"is_reserved":false,"is_disabled":true,"rental_uris":{"android":"levelo://app?vid=ebf2b0f2-73a9-4b39-b5b1-d0bf6e18e671","ios":"levelo://app?vid=ebf2b0f2-73a9-4b39-b5b1-d0bf6e18e671"},"vehicle_type_id":"4","last_reported":1750529605,"current_range_meters":0,"station_id":"","pricing_plan_id":"cebpf4jnsgd1na2vs0mg"},{"bike_id":"4cede4cf-7ca9-4e47-9559-f20c44cea124","system_id":"levelo_inurba_marseille","lat":43.24523,"lon":5.37327,"is_reserved":false,"is_disabled":true,"rental_uris":{"android":"levelo://app?vid=4cede4cf-7ca9-4e47-9559-f20c44cea124","ios":"levelo://app?vid=4cede4cf-7ca9-4e47-9559-f20c44cea124"},"vehicle_type_id":"4","last_reported":1750529605,"current_range_meters":0,"station_id":"","pricing_plan_id":"cebpf4jnsgd1na2vs0mg"},{"bike_id":"65631bf4-5e02-409e-96c9-284144038e2d","system_id":"levelo_inurba_marseille","lat":43.2954,"lon":5.38546,"is_reserved":false,"is_disabled":true,"rental_uris":{"android":"levelo://app?vid=65631bf4-5e02-409e-96c9-284144038e2d","ios":"levelo://app?vid=65631bf4-5e02-409e-96c9-284144038e2d"},"vehicle_type_id":"4","last_reported":1750529605,"current_range_meters":0,"station_id":"ce4bgih2rcd13ifvqba0","pricing_plan_id":"cebpf4jnsgd1na2vs0mg"},{"bike_id":"031bb181-afa8-4101-bb17-26d046384dde","system_id":"levelo_inurba_marseille","lat":43.29529,"lon":5.38539,"is_reserved":false,"is_disabled":true,"rental_uris":{"android":"levelo://app?vid=031bb181-afa8-4101-bb17-26d046384dde","ios":"levelo://app?vid=031bb181-afa8-4101-bb17-26d046384dde"},"vehicle_type_id":"4","last_reported":1750529605,"current_range_meters":0,"station_id":"ce4bgih2rcd13ifvqba0","pricing_plan_id":"cebpf4jnsgd1na2vs0mg"},{"bike_id":"11c108e5-79c3-486b-817a-ad76dfe7295a","system_id":"levelo_inurba_marseille","lat":43.294158,"lon":5.386009,"is_reserved":false,"is_disabled":true,"rental_uris":{"android":"levelo://app?vid=11c108e5-79c3-486b-817a-ad76dfe7295a","ios":"levelo://app?vid=11c108e5-79c3-486b-817a-ad76dfe7295a"},"vehicle_type_id":"4","last_reported":1750529605,"current_range_meters":0,"station_id":"ce4bgj92rcd13ifvqbe0","pricing_plan_id":"cebpf4jnsgd1na2vs0mg"},{"bike_id":"246c084b-a8af-4ba6-8d63-cb9b8552de9c","system_id":"levelo_inurba_marseille","lat":43.30436,"lon":5.38888,"is_reserved":false,"is_disabled":true,"rental_uris":{"android":"levelo://app?vid=246c084b-a8af-4ba6-8d63-cb9b8552de9c","ios":"levelo://app?vid=246c084b-a8af-4ba6-8d63-cb9b8552de9c"},"vehicle_type_id":"4","last_reported":1750529605,"current_range_meters":0,"station_id":"ce4bgk12rcd13ifvqbi0","pricing_plan_id":"cebpf4jnsgd1na2vs0mg"},{"bike_id":"f7bd969e-566f-40b6-b5d1-5e0decbd3831","system_id":"levelo_inurba_marseille","lat":43.30887,"lon":5.39637,"is_reserved":false,"is_disabled":true,"rental_uris":{"android":"levelo://app?vid=f7bd969e-566f-40b6-b5d1-5e0decbd3831","ios":"levelo://app?vid=f7bd969e-566f-40b6-b5d1-5e0decbd3831"},"vehicle_type_id":"4","last_reported":1750529605,"current_range_meters":0,"station_id":"ce4bh012rcd13ifvqcv0","pricing_plan_id":"cebpf4jnsgd1na2vs0mg"},{"bike_id":"6cbeb382-9c7a-4556-b8db-19f3912e474e","system_id":"levelo_inurba_marseille","lat":43.296283,"lon":5.40596,"is_reserved":false,"is_disabled":true,"rental_uris":{"android":"levelo://app?vid=6cbeb382-9c7a-4556-b8db-19f3912e474e","ios":"levelo://app?vid=6cbeb382-9c7a-4556-b8db-19f3912e474e"},"vehicle_type_id":"4","last_reported":1750529605,"current_range_meters":0,"station_id":"ce4bh0h2rcd13ifvqd60","pricing_plan_id":"cebpf4jnsgd1na2vs0mg"},{"bike_id":"d42a7a3e-8e26-4d7c-a080-c9754441b29d","system_id":"levelo_inurba_marseille","lat":43.29245,"lon":5.40919,"is_reserved":false,"is_disabled":true,"rental_uris":{"android":"levelo://app?vid=d42a7a3e-8e26-4d7c-a080-c9754441b29d","ios":"levelo://app?vid=d42a7a3e-8e26-4d7c-a080-c9754441b29d"},"vehicle_type_id":"4","last_reported":1750529605,"current_range_meters":0,"station_id":"ce4bh192rcd13ifvqdc0","pricing_plan_id":"cebpf4jnsgd1na2vs0mg"},{"bike_id":"3bebdd81-cbc8-4d73-9edd-13aa1007dc0c","system_id":"levelo_inurba_marseille","lat":43.295371,"lon":5.391896,"is_reserved":false,"is_disabled":true,"rental_uris":{"android":"levelo://app?vid=3bebdd81-cbc8-4d73-9edd-13aa1007dc0c","ios":"levelo://app?vid=3bebdd81-cbc8-4d73-9edd-13aa1007dc0c"},"vehicle_type_id":"4","last_reported":1750529605,"current_range_meters":0,"station_id":"ce4bh3p2rcd13ifvqdp0","pricing_plan_id":"cebpf4jnsgd1na2vs0mg"},{"bike_id":"0e591707-ca29-4195-a15e-e00063a2258b","system_id":"levelo_inurba_marseille","lat":43.28358,"lon":5.38648,"is_reserved":false,"is_disabled":true,"rental_uris":{"android":"levelo://app?vid=0e591707-ca29-4195-a15e-e00063a2258b","ios":"levelo://app?vid=0e591707-ca29-4195-a15e-e00063a2258b"},"vehicle_type_id":"4","last_reported":1750529605,"current_range_meters":0,"station_id":"ce4bh492rcd13ifvqdvg","pricing_plan_id":"cebpf4jnsgd1na2vs0mg"},{"bike_id":"507f66fe-7c74-4f3e-81af-21ebf6abc469","system_id":"levelo_inurba_marseille","lat":43.29269,"lon":5.38444,"is_reserved":false,"is_disabled":true,"rental_uris":{"android":"levelo://app?vid=507f66fe-7c74-4f3e-81af-21ebf6abc469","ios":"levelo://app?vid=507f66fe-7c74-4f3e-81af-21ebf6abc469"},"vehicle_type_id":"4","last_reported":1750529605,"current_range_meters":0,"station_id":"ce4bh692rcd13ifvqea0","pricing_plan_id":"cebpf4jnsgd1na2vs0mg"},{"bike_id":"a521b98f-da1f-4cc4-b945-e29dbd245d97","system_id":"levelo_inurba_marseille","lat":43.28463,"lon":5.35888,"is_reserved":false,"is_disabled":true,"rental_uris":{"android":"levelo://app?vid=a521b98f-da1f-4cc4-b945-e29dbd245d97","ios":"levelo://app?vid=a521b98f-da1f-4cc4-b945-e29dbd245d97"},"vehicle_type_id":"4","last_reported":1750529605,"current_range_meters":0,"station_id":"ce4bhah2rcd13ifvqei0","pricing_plan_id":"cebpf4jnsgd1na2vs0mg"},{"bike_id":"00c13dcf-1281-4e2f-b44d-7d8ddd0c865e","system_id":"levelo_inurba_marseille","lat":43.29194,"lon":5.35796,"is_reserved":false,"is_disabled":true,"rental_uris":{"android":"levelo://app?vid=00c13dcf-1281-4e2f-b44d-7d8ddd0c865e","ios":"levelo://app?vid=00c13dcf-1281-4e2f-b44d-7d8ddd0c865e"},"vehicle_type_id":"4","last_reported":1750529605,"current_range_meters":0,"station_id":"ce4bhb12rcd13ifvqel0","pricing_plan_id":"cebpf4jnsgd1na2vs0mg"},{"bike_id":"c13581c2-09cd-4212-a65c-f84cc509f2c7","system_id":"levelo_inurba_marseille","lat":43.28823,"lon":5.35852,"is_reserved":false,"is_disabled":true,"rental_uris":{"android":"levelo://app?vid=c13581c2-09cd-4212-a65c-f84cc509f2c7","ios":"levelo://app?vid=c13581c2-09cd-4212-a65c-f84cc509f2c7"},"vehicle_type_id":"4","last_reported":1750529605,"current_range_meters":0,"station_id":"ce4bhb12rcd13ifvqem0","pricing_plan_id":"cebpf4jnsgd1na2vs0mg"},{"bike_id":"d80f1042-9c84-4c40-8881-d39c0e9bb648","system_id":"levelo_inurba_marseille","lat":43.29276,"lon":5.36844,"is_reserved":false,"is_disabled":true,"rental_uris":{"android":"levelo://app?vid=d80f1042-9c84-4c40-8881-d39c0e9bb648","ios":"levelo://app?vid=d80f1042-9c84-4c40-8881-d39c0e9bb648"},"vehicle_type_id":"4","last_reported":1750529605,"current_range_meters":0,"station_id":"ce4bhbp2rcd13ifvqesg","pricing_plan_id":"cebpf4jnsgd1na2vs0mg"},{"bike_id":"95d8e863-a783-4451-87a5-53780f7e3ab9","system_id":"levelo_inurba_marseille","lat":43.27966,"lon":5.38745,"is_reserved":false,"is_disabled":true,"rental_uris":{"android":"levelo://app?vid=95d8e863-a783-4451-87a5-53780f7e3ab9","ios":"levelo://app?vid=95d8e863-a783-4451-87a5-53780f7e3ab9"},"vehicle_type_id":"4","last_reported":1750529605,"current_range_meters":0,"station_id":"ce4bhg12rcd13ifvqf80","pricing_plan_id":"cebpf4jnsgd1na2vs0mg"},{"bike_id":"3d297a8d-c340-42cd-acae-829bcd4b9846","system_id":"levelo_inurba_marseille","lat":43.26199,"lon":5.37449,"is_reserved":false,"is_disabled":true,"rental_uris":{"android":"levelo://app?vid=3d297a8d-c340-42cd-acae-829bcd4b9846","ios":"levelo://app?vid=3d297a8d-c340-42cd-acae-829bcd4b9846"},"vehicle_type_id":"4","last_reported":1750529605,"current_range_meters":0,"station_id":"ce4bhgp2rcd13ifvqfc0","pricing_plan_id":"cebpf4jnsgd1na2vs0mg"},{"bike_id":"d8865527-5bcb-4c29-b4d2-f437d3dbf0e2","system_id":"levelo_inurba_marseille","lat":43.261919,"lon":5.374489,"is_reserved":false,"is_disabled":true,"rental_uris":{"android":"levelo://app?vid=d8865527-5bcb-4c29-b4d2-f437d3dbf0e2","ios":"levelo://app?vid=d8865527-5bcb-4c29-b4d2-f437d3dbf0e2"},"vehicle_type_id":"4","last_reported":1750529605,"current_range_meters":0,"station_id":"ce4bhgp2rcd13ifvqfc0","pricing_plan_id":"cebpf4jnsgd1na2vs0mg"},{"bike_id":"19b9a6e8-839f-418f-82cc-8d31728f5300","system_id":"levelo_inurba_marseille","lat":43.26203,"lon":5.37444,"is_reserved":false,"is_disabled":true,"rental_uris":{"android":"levelo://app?vid=19b9a6e8-839f-418f-82cc-8d31728f5300","ios":"levelo://app?vid=19b9a6e8-839f-418f-82cc-8d31728f5300"},"vehicle_type_id":"4","last_reported":1750529605,"current_range_meters":0,"station_id":"ce4bhgp2rcd13ifvqfc0","pricing_plan_id":"cebpf4jnsgd1na2vs0mg"},{"bike_id":"0caabc53-45ac-4ea3-a933-4d112d026f08","system_id":"levelo_inurba_marseille","lat":43.27327,"lon":5.3908,"is_reserved":false,"is_disabled":true,"rental_uris":{"android":"levelo://app?vid=0caabc53-45ac-4ea3-a933-4d112d026f08","ios":"levelo://app?vid=0caabc53-45ac-4ea3-a933-4d112d026f08"},"vehicle_type_id":"4","last_reported":1750529605,"current_range_meters":0,"station_id":"ce4bhgp2rcd13ifvqfe0","pricing_plan_id":"cebpf4jnsgd1na2vs0mg"},{"bike_id":"4e5ca8f3-e330-41c8-98ad-178a8b943f46","system_id":"levelo_inurba_marseille","lat":43.27941,"lon":5.41039,"is_reserved":false,"is_disabled":true,"rental_uris":{"android":"levelo://app?vid=4e5ca8f3-e330-41c8-98ad-178a8b943f46","ios":"levelo://app?vid=4e5ca8f3-e330-41c8-98ad-178a8b943f46"},"vehicle_type_id":"4","last_reported":1750529605,"current_range_meters":0,"station_id":"ce4bhnp2rcd13ifvqh0g","pricing_plan_id":"cebpf4jnsgd1na2vs0mg"},{"bike_id":"a60db54f-1b88-422d-8f42-28f25d872be2","system_id":"levelo_inurba_marseille","lat":43.31727,"lon":5.42396,"is_reserved":false,"is_disabled":true,"rental_uris":{"android":"levelo://app?vid=a60db54f-1b88-422d-8f42-28f25d872be2","ios":"levelo://app?vid=a60db54f-1b88-422d-8f42-28f25d872be2"},"vehicle_type_id":"4","last_reported":1750529605,"current_range_meters":0,"station_id":"ce4bhp92rcd13ifvqhbg","pricing_plan_id":"cebpf4jnsgd1na2vs0mg"},{"bike_id":"f2088bb9-e217-472d-a43e-e4605e1ffd20","system_id":"levelo_inurba_marseille","lat":43.32342,"lon":5.40623,"is_reserved":false,"is_disabled":true,"rental_uris":{"android":"levelo://app?vid=f2088bb9-e217-472d-a43e-e4605e1ffd20","ios":"levelo://app?vid=f2088bb9-e217-472d-a43e-e4605e1ffd20"},"vehicle_type_id":"4","last_reported":1750529605,"current_range_meters":0,"station_id":"ce4bhq92rcd13ifvqhjg","pricing_plan_id":"cebpf4jnsgd1na2vs0mg"},{"bike_id":"0ee9551f-ff81-4c80-aba7-0d986a764594","system_id":"levelo_inurba_marseille","lat":43.32359,"lon":5.36757,"is_reserved":false,"is_disabled":true,"rental_uris":{"android":"levelo://app?vid=0ee9551f-ff81-4c80-aba7-0d986a764594","ios":"levelo://app?vid=0ee9551f-ff81-4c80-aba7-0d986a764594"},"vehicle_type_id":"4","last_reported":1750529605,"current_range_meters":0,"station_id":"ce4bhsh2rcd13ifvqi2g","pricing_plan_id":"cebpf4jnsgd1na2vs0mg"},{"bike_id":"5a9f736b-aed5-4e45-81c9-cf1aa95476ae","system_id":"levelo_inurba_marseille","lat":43.30133,"lon":5.38787,"is_reserved":false,"is_disabled":true,"rental_uris":{"android":"levelo://app?vid=5a9f736b-aed5-4e45-81c9-cf1aa95476ae","ios":"levelo://app?vid=5a9f736b-aed5-4e45-81c9-cf1aa95476ae"},"vehicle_type_id":"4","last_reported":1750529605,"current_range_meters":400,"station_id":"ce4bghh2rcd13ifvqb60","pricing_plan_id":"cebpf4jnsgd1na2vs0mg"},{"bike_id":"3e2adc1c-287f-42fb-9cc8-917dfddb73ba","system_id":"levelo_inurba_marseille","lat":43.29421,"lon":5.38613,"is_reserved":false,"is_disabled":true,"rental_uris":{"android":"levelo://app?vid=3e2adc1c-287f-42fb-9cc8-917dfddb73ba","ios":"levelo://app?vid=3e2adc1c-287f-42fb-9cc8-917dfddb73ba"},"vehicle_type_id":"4","last_reported":1750529605,"current_range_meters":400,"station_id":"ce4bh2h2rcd13ifvqdh0","pricing_plan_id":"cebpf4jnsgd1na2vs0mg"},{"bike_id":"ec534b1c-2005-4a22-9bac-8a6ea5e823fc","system_id":"levelo_inurba_marseille","lat":43.29034,"lon":5.3866,"is_reserved":false,"is_disabled":true,"rental_uris":{"android":"levelo://app?vid=ec534b1c-2005-4a22-9bac-8a6ea5e823fc","ios":"levelo://app?vid=ec534b1c-2005-4a22-9bac-8a6ea5e823fc"},"vehicle_type_id":"4","last_reported":1750529605,"current_range_meters":400,"station_id":"ce4bh4p2rcd13ifvqe0g","pricing_plan_id":"cebpf4jnsgd1na2vs0mg"},{"bike_id":"9ab3c79d-30e8-4006-a0f4-899c88c7d3d9","system_id":"levelo_inurba_marseille","lat":43.2902,"lon":5.38142,"is_reserved":false,"is_disabled":true,"rental_uris":{"android":"levelo://app?vid=9ab3c79d-30e8-4006-a0f4-899c88c7d3d9","ios":"levelo://app?vid=9ab3c79d-30e8-4006-a0f4-899c88c7d3d9"},"vehicle_type_id":"4","last_reported":1750529605,"current_range_meters":400,"station_id":"ce4bh4p2rcd13ifvqe1g","pricing_plan_id":"cebpf4jnsgd1na2vs0mg"},{"bike_id":"3c84331f-ba23-4173-9188-1e8423a4586d","system_id":"levelo_inurba_marseille","lat":43.26203,"lon":5.37445,"is_reserved":false,"is_disabled":true,"rental_uris":{"android":"levelo://app?vid=3c84331f-ba23-4173-9188-1e8423a4586d","ios":"levelo://app?vid=3c84331f-ba23-4173-9188-1e8423a4586d"},"vehicle_type_id":"4","last_reported":1750529605,"current_range_meters":400,"station_id":"ce4bhgp2rcd13ifvqfc0","pricing_plan_id":"cebpf4jnsgd1na2vs0mg"},{"bike_id":"bb6e94f3-6a40-44c0-bd61-5ed245baf9ec","system_id":"levelo_inurba_marseille","lat":43.26792,"lon":5.39409,"is_reserved":false,"is_disabled":true,"rental_uris":{"android":"levelo://app?vid=bb6e94f3-6a40-44c0-bd61-5ed245baf9ec","ios":"levelo://app?vid=bb6e94f3-6a40-44c0-bd61-5ed245baf9ec"},"vehicle_type_id":"4","last_reported":1750529605,"current_range_meters":400,"station_id":"ce4bhh12rcd13ifvqfg0","pricing_plan_id":"cebpf4jnsgd1na2vs0mg"},{"bike_id":"43f3207d-2a05-4f3a-81fd-4b72a345e0b7","system_id":"levelo_inurba_marseille","lat":43.28066,"lon":5.36633,"is_reserved":false,"is_disabled":true,"rental_uris":{"android":"levelo://app?vid=43f3207d-2a05-4f3a-81fd-4b72a345e0b7","ios":"levelo://app?vid=43f3207d-2a05-4f3a-81fd-4b72a345e0b7"},"vehicle_type_id":"4","last_reported":1750529605,"current_range_meters":800,"station_id":"","pricing_plan_id":"cebpf4jnsgd1na2vs0mg"},{"bike_id":"cd3f741a-c689-4b04-812d-4a1216c1ba70","system_id":"levelo_inurba_marseille","lat":43.29598,"lon":5.38098,"is_reserved":false,"is_disabled":true,"rental_uris":{"android":"levelo://app?vid=cd3f741a-c689-4b04-812d-4a1216c1ba70","ios":"levelo://app?vid=cd3f741a-c689-4b04-812d-4a1216c1ba70"},"vehicle_type_id":"4","last_reported":1750529605,"current_range_meters":800,"station_id":"ce4bgl12rcd13ifvqbo0","pricing_plan_id":"cebpf4jnsgd1na2vs0mg"},{"bike_id":"bc9f92e9-8dad-4f77-ac38-8c83cef535fe","system_id":"levelo_inurba_marseille","lat":43.29525,"lon":5.39036,"is_reserved":false,"is_disabled":true,"rental_uris":{"android":"levelo://app?vid=bc9f92e9-8dad-4f77-ac38-8c83cef535fe","ios":"levelo://app?vid=bc9f92e9-8dad-4f77-ac38-8c83cef535fe"},"vehicle_type_id":"4","last_reported":1750529605,"current_range_meters":800,"station_id":"ce4bh3p2rcd13ifvqdp0","pricing_plan_id":"cebpf4jnsgd1na2vs0mg"},{"bike_id":"780ffecd-ecb1-4273-89cd-edd560117e36","system_id":"levelo_inurba_marseille","lat":43.26685,"lon":5.38275,"is_reserved":false,"is_disabled":true,"rental_uris":{"android":"levelo://app?vid=780ffecd-ecb1-4273-89cd-edd560117e36","ios":"levelo://app?vid=780ffecd-ecb1-4273-89cd-edd560117e36"},"vehicle_type_id":"4","last_reported":1750529605,"current_range_meters":800,"station_id":"ce4bhg92rcd13ifvqf90","pricing_plan_id":"cebpf4jnsgd1na2vs0mg"},{"bike_id":"26074393-29d4-4399-af1b-f5b8a80feac9","system_id":"levelo_inurba_marseille","lat":43.26205,"lon":5.37448,"is_reserved":false,"is_disabled":true,"rental_uris":{"android":"levelo://app?vid=26074393-29d4-4399-af1b-f5b8a80feac9","ios":"levelo://app?vid=26074393-29d4-4399-af1b-f5b8a80feac9"},"vehicle_type_id":"4","last_reported":1750529605,"current_range_meters":800,"station_id":"ce4bhgp2rcd13ifvqfc0","pricing_plan_id":"cebpf4jnsgd1na2vs0mg"},{"bike_id":"fcc0d248-6487-4fae-8ee7-f277a38f3302","system_id":"levelo_inurba_marseille","lat":43.21205,"lon":5.35088,"is_reserved":false,"is_disabled":true,"rental_uris":{"android":"levelo://app?vid=fcc0d248-6487-4fae-8ee7-f277a38f3302","ios":"levelo://app?vid=fcc0d248-6487-4fae-8ee7-f277a38f3302"},"vehicle_type_id":"4","last_reported":1750529605,"current_range_meters":800,"station_id":"st_cvj6sg6p6f1abm77japg","pricing_plan_id":"cebpf4jnsgd1na2vs0mg"},{"bike_id":"c2df8f1a-a347-4776-944e-ef2761f9daef","system_id":"levelo_inurba_marseille","lat":43.32745,"lon":5.39272,"is_reserved":false,"is_disabled":true,"rental_uris":{"android":"levelo://app?vid=c2df8f1a-a347-4776-944e-ef2761f9daef","ios":"levelo://app?vid=c2df8f1a-a347-4776-944e-ef2761f9daef"},"vehicle_type_id":"4","last_reported":1750529605,"current_range_meters":1200,"station_id":"","pricing_plan_id":"cebpf4jnsgd1na2vs0mg"},{"bike_id":"ee0a1d2f-9a19-451a-8c0a-5c9bad75e359","system_id":"levelo_inurba_marseille","lat":43.286662,"lon":5.363488,"is_reserved":false,"is_disabled":true,"rental_uris":{"android":"levelo://app?vid=ee0a1d2f-9a19-451a-8c0a-5c9bad75e359","ios":"levelo://app?vid=ee0a1d2f-9a19-451a-8c0a-5c9bad75e359"},"vehicle_type_id":"4","last_reported":1750529605,"current_range_meters":1200,"station_id":"","pricing_plan_id":"cebpf4jnsgd1na2vs0mg"},{"bike_id":"b5640266-fa34-4a30-97e7-3943c63fd3c5","system_id":"levelo_inurba_marseille","lat":43.29425,"lon":5.38598,"is_reserved":false,"is_disabled":true,"rental_uris":{"android":"levelo://app?vid=b5640266-fa34-4a30-97e7-3943c63fd3c5","ios":"levelo://app?vid=b5640266-fa34-4a30-97e7-3943c63fd3c5"},"vehicle_type_id":"4","last_reported":1750529605,"current_range_meters":1200,"station_id":"ce4bh2h2rcd13ifvqdh0","pricing_plan_id":"cebpf4jnsgd1na2vs0mg"},{"bike_id":"dfc95747-906b-4839-aed9-6182ee5bbcee","system_id":"levelo_inurba_marseille","lat":43.27919,"lon":5.39581,"is_reserved":false,"is_disabled":true,"rental_uris":{"android":"levelo://app?vid=dfc95747-906b-4839-aed9-6182ee5bbcee","ios":"levelo://app?vid=dfc95747-906b-4839-aed9-6182ee5bbcee"},"vehicle_type_id":"4","last_reported":1750529605,"current_range_meters":1200,"station_id":"ce4bhf92rcd13ifvqf40","pricing_plan_id":"cebpf4jnsgd1na2vs0mg"},{"bike_id":"76993bef-c670-4a2d-b0b6-2d014078d606","system_id":"levelo_inurba_marseille","lat":43.32799,"lon":5.40714,"is_reserved":false,"is_disabled":true,"rental_uris":{"android":"levelo://app?vid=76993bef-c670-4a2d-b0b6-2d014078d606","ios":"levelo://app?vid=76993bef-c670-4a2d-b0b6-2d014078d606"},"vehicle_type_id":"4","last_reported":1750529605,"current_range_meters":1600,"station_id":"","pricing_plan_id":"cebpf4jnsgd1na2vs0mg"},{"bike_id":"e8b2899a-4211-4f31-b803-6ec5b4d26202","system_id":"levelo_inurba_marseille","lat":43.275656,"lon":5.396767,"is_reserved":false,"is_disabled":true,"rental_uris":{"android":"levelo://app?vid=e8b2899a-4211-4f31-b803-6ec5b4d26202","ios":"levelo://app?vid=e8b2899a-4211-4f31-b803-6ec5b4d26202"},"vehicle_type_id":"4","last_reported":1750529605,"current_range_meters":1600,"station_id":"","pricing_plan_id":"cebpf4jnsgd1na2vs0mg"},{"bike_id":"be83fc12-4b3c-49af-b197-04e2cefe6bd8","system_id":"levelo_inurba_marseille","lat":43.295286,"lon":5.385414,"is_reserved":false,"is_disabled":true,"rental_uris":{"android":"levelo://app?vid=be83fc12-4b3c-49af-b197-04e2cefe6bd8","ios":"levelo://app?vid=be83fc12-4b3c-49af-b197-04e2cefe6bd8"},"vehicle_type_id":"4","last_reported":1750529605,"current_range_meters":1600,"station_id":"ce4bgih2rcd13ifvqba0","pricing_plan_id":"cebpf4jnsgd1na2vs0mg"},{"bike_id":"d99eb8f2-38f4-4728-88ab-8d023f665c0a","system_id":"levelo_inurba_marseille","lat":43.30304,"lon":5.392149,"is_reserved":false,"is_disabled":false,"rental_uris":{"android":"levelo://app?vid=d99eb8f2-38f4-4728-88ab-8d023f665c0a","ios":"levelo://app?vid=d99eb8f2-38f4-4728-88ab-8d023f665c0a"},"vehicle_type_id":"4","last_reported":1750529605,"current_range_meters":1600,"station_id":"ce4bgkh2rcd13ifvqbk0","pricing_plan_id":"cebpf4jnsgd1na2vs0mg"},{"bike_id":"9fb70976-bd0b-40ed-bb2a-3cd22b90bf10","system_id":"levelo_inurba_marseille","lat":43.30893,"lon":5.37185,"is_reserved":false,"is_disabled":true,"rental_uris":{"android":"levelo://app?vid=9fb70976-bd0b-40ed-bb2a-3cd22b90bf10","ios":"levelo://app?vid=9fb70976-bd0b-40ed-bb2a-3cd22b90bf10"},"vehicle_type_id":"4","last_reported":1750529605,"current_range_meters":1600,"station_id":"ce4bguh2rcd13ifvqckg","pricing_plan_id":"cebpf4jnsgd1na2vs0mg"},{"bike_id":"34db3ec8-9e30-43d3-a9c5-3621cd5d90e1","system_id":"levelo_inurba_marseille","lat":43.30135,"lon":5.39844,"is_reserved":false,"is_disabled":true,"rental_uris":{"android":"levelo://app?vid=34db3ec8-9e30-43d3-a9c5-3621cd5d90e1","ios":"levelo://app?vid=34db3ec8-9e30-43d3-a9c5-3621cd5d90e1"},"vehicle_type_id":"4","last_reported":1750529605,"current_range_meters":1600,"station_id":"ce4bh0h2rcd13ifvqd40","pricing_plan_id":"cebpf4jnsgd1na2vs0mg"},{"bike_id":"70492370-be3a-4816-8f30-c5a2b06c3443","system_id":"levelo_inurba_marseille","lat":43.29086,"lon":5.38132,"is_reserved":false,"is_disabled":true,"rental_uris":{"android":"levelo://app?vid=70492370-be3a-4816-8f30-c5a2b06c3443","ios":"levelo://app?vid=70492370-be3a-4816-8f30-c5a2b06c3443"},"vehicle_type_id":"4","last_reported":1750529605,"current_range_meters":1600,"station_id":"ce4bh512rcd13ifvqe2g","pricing_plan_id":"cebpf4jnsgd1na2vs0mg"},{"bike_id":"28b27b40-a9a7-4085-a8d0-4fa6eab85f19","system_id":"levelo_inurba_marseille","lat":43.28718,"lon":5.37934,"is_reserved":false,"is_disabled":true,"rental_uris":{"android":"levelo://app?vid=28b27b40-a9a7-4085-a8d0-4fa6eab85f19","ios":"levelo://app?vid=28b27b40-a9a7-4085-a8d0-4fa6eab85f19"},"vehicle_type_id":"4","last_reported":1750529605,"current_range_meters":1600,"station_id":"ce4bh9p2rcd13ifvqec0","pricing_plan_id":"cebpf4jnsgd1na2vs0mg"},{"bike_id":"c35f018d-fed6-4741-a399-d5a9bfe14699","system_id":"levelo_inurba_marseille","lat":43.29223,"lon":5.3607,"is_reserved":false,"is_disabled":true,"rental_uris":{"android":"levelo://app?vid=c35f018d-fed6-4741-a399-d5a9bfe14699","ios":"levelo://app?vid=c35f018d-fed6-4741-a399-d5a9bfe14699"},"vehicle_type_id":"4","last_reported":1750529605,"current_range_meters":1600,"station_id":"ce4bhbh2rcd13ifvqeqg","pricing_plan_id":"cebpf4jnsgd1na2vs0mg"},{"bike_id":"4aab75c7-57b2-4a3c-8eaf-29723f5822d7","system_id":"levelo_inurba_marseille","lat":43.26212,"lon":5.37438,"is_reserved":false,"is_disabled":true,"rental_uris":{"android":"levelo://app?vid=4aab75c7-57b2-4a3c-8eaf-29723f5822d7","ios":"levelo://app?vid=4aab75c7-57b2-4a3c-8eaf-29723f5822d7"},"vehicle_type_id":"4","last_reported":1750529605,"current_range_meters":1600,"station_id":"ce4bhgp2rcd13ifvqfc0","pricing_plan_id":"cebpf4jnsgd1na2vs0mg"},{"bike_id":"616d22fa-b77d-42d8-8440-cf3c6cfc8367","system_id":"levelo_inurba_marseille","lat":43.25586,"lon":5.38232,"is_reserved":false,"is_disabled":true,"rental_uris":{"android":"levelo://app?vid=616d22fa-b77d-42d8-8440-cf3c6cfc8367","ios":"levelo://app?vid=616d22fa-b77d-42d8-8440-cf3c6cfc8367"},"vehicle_type_id":"4","last_reported":1750529605,"current_range_meters":1600,"station_id":"ce4bhih2rcd13ifvqfs0","pricing_plan_id":"cebpf4jnsgd1na2vs0mg"},{"bike_id":"bd6bef59-4516-4f2f-975d-81cf840c8714","system_id":"levelo_inurba_marseille","lat":43.28424,"lon":5.34973,"is_reserved":false,"is_disabled":true,"rental_uris":{"android":"levelo://app?vid=bd6bef59-4516-4f2f-975d-81cf840c8714","ios":"levelo://app?vid=bd6bef59-4516-4f2f-975d-81cf840c8714"},"vehicle_type_id":"4","last_reported":1750529605,"current_range_meters":2000,"station_id":"ce4bhbh2rcd13ifvqepg","pricing_plan_id":"cebpf4jnsgd1na2vs0mg"},{"bike_id":"35cb0325-70f2-4890-bc7f-a374885a6065","system_id":"levelo_inurba_marseille","lat":43.245825,"lon":5.37342,"is_reserved":false,"is_disabled":false,"rental_uris":{"android":"levelo://app?vid=35cb0325-70f2-4890-bc7f-a374885a6065","ios":"levelo://app?vid=35cb0325-70f2-4890-bc7f-a374885a6065"},"vehicle_type_id":"4","last_reported":1750529605,"current_range_meters":2800,"station_id":"","pricing_plan_id":"cebpf4jnsgd1na2vs0mg"},{"bike_id":"0babc355-5797-4507-b80d-7e00799fd3b2","system_id":"levelo_inurba_marseille","lat":43.29371,"lon":5.37844,"is_reserved":false,"is_disabled":false,"rental_uris":{"android":"levelo://app?vid=0babc355-5797-4507-b80d-7e00799fd3b2","ios":"levelo://app?vid=0babc355-5797-4507-b80d-7e00799fd3b2"},"vehicle_type_id":"4","last_reported":1750529605,"current_range_meters":2800,"station_id":"ce4bgjh2rcd13ifvqbf0","pricing_plan_id":"cebpf4jnsgd1na2vs0mg"},{"bike_id":"b99c851b-158e-4736-8967-ce3706af1a20","system_id":"levelo_inurba_marseille","lat":43.29269,"lon":5.38443,"is_reserved":false,"is_disabled":false,"rental_uris":{"android":"levelo://app?vid=b99c851b-158e-4736-8967-ce3706af1a20","ios":"levelo://app?vid=b99c851b-158e-4736-8967-ce3706af1a20"},"vehicle_type_id":"4","last_reported":1750529605,"current_range_meters":2800,"station_id":"ce4bh692rcd13ifvqea0","pricing_plan_id":"cebpf4jnsgd1na2vs0mg"},{"bike_id":"aabad9f8-1bcf-4587-bf5f-9b05492b708a","system_id":"levelo_inurba_marseille","lat":43.26226,"lon":5.40452,"is_reserved":false,"is_disabled":false,"rental_uris":{"android":"levelo://app?vid=aabad9f8-1bcf-4587-bf5f-9b05492b708a","ios":"levelo://app?vid=aabad9f8-1bcf-4587-bf5f-9b05492b708a"},"vehicle_type_id":"4","last_reported":1750529605,"current_range_meters":2800,"station_id":"ce4bhmh2rcd13ifvqgmg","pricing_plan_id":"cebpf4jnsgd1na2vs0mg"},{"bike_id":"ad524f54-f915-4077-9db8-4ddc70f19822","system_id":"levelo_inurba_marseille","lat":43.32046,"lon":5.41544,"is_reserved":false,"is_disabled":false,"rental_uris":{"android":"levelo://app?vid=ad524f54-f915-4077-9db8-4ddc70f19822","ios":"levelo://app?vid=ad524f54-f915-4077-9db8-4ddc70f19822"},"vehicle_type_id":"4","last_reported":1750529605,"current_range_meters":2800,"station_id":"ce4bhq92rcd13ifvqhkg","pricing_plan_id":"cebpf4jnsgd1na2vs0mg"},{"bike_id":"45b50f00-bef6-4ba3-a8b6-9a773ccac2e1","system_id":"levelo_inurba_marseille","lat":43.29316,"lon":5.3718,"is_reserved":false,"is_disabled":false,"rental_uris":{"android":"levelo://app?vid=45b50f00-bef6-4ba3-a8b6-9a773ccac2e1","ios":"levelo://app?vid=45b50f00-bef6-4ba3-a8b6-9a773ccac2e1"},"vehicle_type_id":"4","last_reported":1750529605,"current_range_meters":3200,"station_id":"ce4bgh92rcd13ifvqb40","pricing_plan_id":"cebpf4jnsgd1na2vs0mg"},{"bike_id":"4f99f4ec-df8b-4f83-80be-c8e4c0cc0394","system_id":"levelo_inurba_marseille","lat":43.29631,"lon":5.377215,"is_reserved":false,"is_disabled":false,"rental_uris":{"android":"levelo://app?vid=4f99f4ec-df8b-4f83-80be-c8e4c0cc0394","ios":"levelo://app?vid=4f99f4ec-df8b-4f83-80be-c8e4c0cc0394"},"vehicle_type_id":"4","last_reported":1750529605,"current_range_meters":3200,"station_id":"ce4bgi92rcd13ifvqb90","pricing_plan_id":"cebpf4jnsgd1na2vs0mg"},{"bike_id":"f8be7058-3032-476b-8beb-a4e9fbb33923","system_id":"levelo_inurba_marseille","lat":43.2621,"lon":5.37439,"is_reserved":false,"is_disabled":false,"rental_uris":{"android":"levelo://app?vid=f8be7058-3032-476b-8beb-a4e9fbb33923","ios":"levelo://app?vid=f8be7058-3032-476b-8beb-a4e9fbb33923"},"vehicle_type_id":"4","last_reported":1750529605,"current_range_meters":3200,"station_id":"ce4bhgp2rcd13ifvqfc0","pricing_plan_id":"cebpf4jnsgd1na2vs0mg"},{"bike_id":"1b62baa0-270b-481f-b442-d0a58f3c069f","system_id":"levelo_inurba_marseille","lat":43.254878,"lon":5.376446,"is_reserved":false,"is_disabled":false,"rental_uris":{"android":"levelo://app?vid=1b62baa0-270b-481f-b442-d0a58f3c069f","ios":"levelo://app?vid=1b62baa0-270b-481f-b442-d0a58f3c069f"},"vehicle_type_id":"4","last_reported":1750529605,"current_range_meters":3600,"station_id":"","pricing_plan_id":"cebpf4jnsgd1na2vs0mg"},{"bike_id":"aeff5fa6-35b7-4d7c-8dd2-a077844d0cec","system_id":"levelo_inurba_marseille","lat":43.29622,"lon":5.38707,"is_reserved":false,"is_disabled":false,"rental_uris":{"android":"levelo://app?vid=aeff5fa6-35b7-4d7c-8dd2-a077844d0cec","ios":"levelo://app?vid=aeff5fa6-35b7-4d7c-8dd2-a077844d0cec"},"vehicle_type_id":"4","last_reported":1750529605,"current_range_meters":3600,"station_id":"ce4bh392rcd13ifvqdl0","pricing_plan_id":"cebpf4jnsgd1na2vs0mg"},{"bike_id":"d7ba3b3b-026d-46bd-8d5f-6e679a545c16","system_id":"levelo_inurba_marseille","lat":43.2952,"lon":5.39048,"is_reserved":false,"is_disabled":false,"rental_uris":{"android":"levelo://app?vid=d7ba3b3b-026d-46bd-8d5f-6e679a545c16","ios":"levelo://app?vid=d7ba3b3b-026d-46bd-8d5f-6e679a545c16"},"vehicle_type_id":"4","last_reported":1750529605,"current_range_meters":3600,"station_id":"ce4bh3p2rcd13ifvqdp0","pricing_plan_id":"cebpf4jnsgd1na2vs0mg"},{"bike_id":"5ba08645-7494-4215-a7a8-48a039950975","system_id":"levelo_inurba_marseille","lat":43.28931,"lon":5.384,"is_reserved":false,"is_disabled":false,"rental_uris":{"android":"levelo://app?vid=5ba08645-7494-4215-a7a8-48a039950975","ios":"levelo://app?vid=5ba08645-7494-4215-a7a8-48a039950975"},"vehicle_type_id":"4","last_reported":1750529605,"current_range_meters":4000,"station_id":"ce4bh612rcd13ifvqe6g","pricing_plan_id":"cebpf4jnsgd1na2vs0mg"},{"bike_id":"5f1fd226-d118-4d12-a504-5d7fb3559cd9","system_id":"levelo_inurba_marseille","lat":43.25503,"lon":5.37647,"is_reserved":false,"is_disabled":false,"rental_uris":{"android":"levelo://app?vid=5f1fd226-d118-4d12-a504-5d7fb3559cd9","ios":"levelo://app?vid=5f1fd226-d118-4d12-a504-5d7fb3559cd9"},"vehicle_type_id":"4","last_reported":1750529605,"current_range_meters":4000,"station_id":"ce4bhh12rcd13ifvqff0","pricing_plan_id":"cebpf4jnsgd1na2vs0mg"},{"bike_id":"fbe532e7-2f52-46dc-822c-1466686be8c5","system_id":"levelo_inurba_marseille","lat":43.30087,"lon":5.40549,"is_reserved":false,"is_disabled":false,"rental_uris":{"android":"levelo://app?vid=fbe532e7-2f52-46dc-822c-1466686be8c5","ios":"levelo://app?vid=fbe532e7-2f52-46dc-822c-1466686be8c5"},"vehicle_type_id":"4","last_reported":1750529605,"current_range_meters":4400,"station_id":"","pricing_plan_id":"cebpf4jnsgd1na2vs0mg"},{"bike_id":"2b09afe0-b19c-433d-ac81-71f380ebaa31","system_id":"levelo_inurba_marseille","lat":43.30133,"lon":5.38783,"is_reserved":false,"is_disabled":false,"rental_uris":{"android":"levelo://app?vid=2b09afe0-b19c-433d-ac81-71f380ebaa31","ios":"levelo://app?vid=2b09afe0-b19c-433d-ac81-71f380ebaa31"},"vehicle_type_id":"4","last_reported":1750529605,"current_range_meters":4400,"station_id":"ce4bghh2rcd13ifvqb60","pricing_plan_id":"cebpf4jnsgd1na2vs0mg"},{"bike_id":"05975db2-8608-4c91-bfe6-1cd8a200db13","system_id":"levelo_inurba_marseille","lat":43.25498,"lon":5.37648,"is_reserved":false,"is_disabled":false,"rental_uris":{"android":"levelo://app?vid=05975db2-8608-4c91-bfe6-1cd8a200db13","ios":"levelo://app?vid=05975db2-8608-4c91-bfe6-1cd8a200db13"},"vehicle_type_id":"4","last_reported":1750529605,"current_range_meters":4400,"station_id":"ce4bhh12rcd13ifvqff0","pricing_plan_id":"cebpf4jnsgd1na2vs0mg"},{"bike_id":"37c521de-cdfb-4d74-a90c-e46ba9abd40b","system_id":"levelo_inurba_marseille","lat":43.29554,"lon":5.42294,"is_reserved":false,"is_disabled":false,"rental_uris":{"android":"levelo://app?vid=37c521de-cdfb-4d74-a90c-e46ba9abd40b","ios":"levelo://app?vid=37c521de-cdfb-4d74-a90c-e46ba9abd40b"},"vehicle_type_id":"4","last_reported":1750529605,"current_range_meters":4400,"station_id":"ce4bhph2rcd13ifvqhdg","pricing_plan_id":"cebpf4jnsgd1na2vs0mg"},{"bike_id":"e0fda8a5-35c2-4a15-bd05-27bd62bb1241","system_id":"levelo_inurba_marseille","lat":43.299713,"lon":5.384869,"is_reserved":false,"is_disabled":false,"rental_uris":{"android":"levelo://app?vid=e0fda8a5-35c2-4a15-bd05-27bd62bb1241","ios":"levelo://app?vid=e0fda8a5-35c2-4a15-bd05-27bd62bb1241"},"vehicle_type_id":"4","last_reported":1750529605,"current_range_meters":4800,"station_id":"ce4bgj92rcd13ifvqbd0","pricing_plan_id":"cebpf4jnsgd1na2vs0mg"},{"bike_id":"49b38407-1a93-4940-9bb9-4aa93a16ed5f","system_id":"levelo_inurba_marseille","lat":43.2953,"lon":5.37504,"is_reserved":false,"is_disabled":false,"rental_uris":{"android":"levelo://app?vid=49b38407-1a93-4940-9bb9-4aa93a16ed5f","ios":"levelo://app?vid=49b38407-1a93-4940-9bb9-4aa93a16ed5f"},"vehicle_type_id":"4","last_reported":1750529605,"current_range_meters":4800,"station_id":"ce4bgkp2rcd13ifvqbmg","pricing_plan_id":"cebpf4jnsgd1na2vs0mg"},{"bike_id":"a64454fa-f096-47e3-924d-7f8f84aaaec4","system_id":"levelo_inurba_marseille","lat":43.24807,"lon":5.37453,"is_reserved":false,"is_disabled":false,"rental_uris":{"android":"levelo://app?vid=a64454fa-f096-47e3-924d-7f8f84aaaec4","ios":"levelo://app?vid=a64454fa-f096-47e3-924d-7f8f84aaaec4"},"vehicle_type_id":"4","last_reported":1750529605,"current_range_meters":4800,"station_id":"ce4bhgh2rcd13ifvqfb0","pricing_plan_id":"cebpf4jnsgd1na2vs0mg"},{"bike_id":"c5ddfcae-8eb8-4c97-98a3-1d5259d5d388","system_id":"levelo_inurba_marseille","lat":43.2549,"lon":5.37639,"is_reserved":false,"is_disabled":false,"rental_uris":{"android":"levelo://app?vid=c5ddfcae-8eb8-4c97-98a3-1d5259d5d388","ios":"levelo://app?vid=c5ddfcae-8eb8-4c97-98a3-1d5259d5d388"},"vehicle_type_id":"4","last_reported":1750529605,"current_range_meters":4800,"station_id":"ce4bhh12rcd13ifvqff0","pricing_plan_id":"cebpf4jnsgd1na2vs0mg"},{"bike_id":"23faf6db-7fec-4f2f-8abd-4684dc28d9bc","system_id":"levelo_inurba_marseille","lat":43.28288,"lon":5.40853,"is_reserved":false,"is_disabled":false,"rental_uris":{"android":"levelo://app?vid=23faf6db-7fec-4f2f-8abd-4684dc28d9bc","ios":"levelo://app?vid=23faf6db-7fec-4f2f-8abd-4684dc28d9bc"},"vehicle_type_id":"4","last_reported":1750529605,"current_range_meters":5600,"station_id":"","pricing_plan_id":"cebpf4jnsgd1na2vs0mg"},{"bike_id":"159f37c6-9f4f-4529-a81e-ffb94d80e507","system_id":"levelo_inurba_marseille","lat":43.29618,"lon":5.37723,"is_reserved":false,"is_disabled":false,"rental_uris":{"android":"levelo://app?vid=159f37c6-9f4f-4529-a81e-ffb94d80e507","ios":"levelo://app?vid=159f37c6-9f4f-4529-a81e-ffb94d80e507"},"vehicle_type_id":"4","last_reported":1750529605,"current_range_meters":5600,"station_id":"ce4bgi92rcd13ifvqb90","pricing_plan_id":"cebpf4jnsgd1na2vs0mg"},{"bike_id":"c57e0d33-a4a6-4e9c-a8c5-f6ce9dab93d9","system_id":"levelo_inurba_marseille","lat":43.262121,"lon":5.374406,"is_reserved":false,"is_disabled":false,"rental_uris":{"android":"levelo://app?vid=c57e0d33-a4a6-4e9c-a8c5-f6ce9dab93d9","ios":"levelo://app?vid=c57e0d33-a4a6-4e9c-a8c5-f6ce9dab93d9"},"vehicle_type_id":"4","last_reported":1750529605,"current_range_meters":5600,"station_id":"ce4bhgp2rcd13ifvqfc0","pricing_plan_id":"cebpf4jnsgd1na2vs0mg"},{"bike_id":"e676dd12-3762-43ef-8057-d5707939c4df","system_id":"levelo_inurba_marseille","lat":43.254983,"lon":5.3765,"is_reserved":false,"is_disabled":false,"rental_uris":{"android":"levelo://app?vid=e676dd12-3762-43ef-8057-d5707939c4df","ios":"levelo://app?vid=e676dd12-3762-43ef-8057-d5707939c4df"},"vehicle_type_id":"4","last_reported":1750529605,"current_range_meters":5600,"station_id":"ce4bhh12rcd13ifvqff0","pricing_plan_id":"cebpf4jnsgd1na2vs0mg"},{"bike_id":"1cb541fc-1041-4ac6-b5a5-a510e3038034","system_id":"levelo_inurba_marseille","lat":43.29785,"lon":5.39345,"is_reserved":false,"is_disabled":false,"rental_uris":{"android":"levelo://app?vid=1cb541fc-1041-4ac6-b5a5-a510e3038034","ios":"levelo://app?vid=1cb541fc-1041-4ac6-b5a5-a510e3038034"},"vehicle_type_id":"4","last_reported":1750529605,"current_range_meters":5600,"station_id":"chh1huq6cuj3fo74tm60","pricing_plan_id":"cebpf4jnsgd1na2vs0mg"},{"bike_id":"4f8e61fa-6944-4ea7-bfff-1b647004d41c","system_id":"levelo_inurba_marseille","lat":43.29532,"lon":5.38543,"is_reserved":false,"is_disabled":false,"rental_uris":{"android":"levelo://app?vid=4f8e61fa-6944-4ea7-bfff-1b647004d41c","ios":"levelo://app?vid=4f8e61fa-6944-4ea7-bfff-1b647004d41c"},"vehicle_type_id":"4","last_reported":1750529605,"current_range_meters":6000,"station_id":"ce4bgih2rcd13ifvqba0","pricing_plan_id":"cebpf4jnsgd1na2vs0mg"},{"bike_id":"368eb894-3020-4381-b1e1-454242963cd2","system_id":"levelo_inurba_marseille","lat":43.29707,"lon":5.37694,"is_reserved":false,"is_disabled":false,"rental_uris":{"android":"levelo://app?vid=368eb894-3020-4381-b1e1-454242963cd2","ios":"levelo://app?vid=368eb894-3020-4381-b1e1-454242963cd2"},"vehicle_type_id":"4","last_reported":1750529605,"current_range_meters":6000,"station_id":"ce4bgkh2rcd13ifvqbl0","pricing_plan_id":"cebpf4jnsgd1na2vs0mg"},{"bike_id":"c614bffa-b40d-481c-bbe8-8c3d0d8a4940","system_id":"levelo_inurba_marseille","lat":43.28621,"lon":5.35101,"is_reserved":false,"is_disabled":false,"rental_uris":{"android":"levelo://app?vid=c614bffa-b40d-481c-bbe8-8c3d0d8a4940","ios":"levelo://app?vid=c614bffa-b40d-481c-bbe8-8c3d0d8a4940"},"vehicle_type_id":"4","last_reported":1750529605,"current_range_meters":6000,"station_id":"ce4bhch2rcd13ifvqeug","pricing_plan_id":"cebpf4jnsgd1na2vs0mg"},{"bike_id":"b233cd34-2b2f-45c0-8bb8-8ea61efc1e06","system_id":"levelo_inurba_marseille","lat":43.26686,"lon":5.38268,"is_reserved":false,"is_disabled":false,"rental_uris":{"android":"levelo://app?vid=b233cd34-2b2f-45c0-8bb8-8ea61efc1e06","ios":"levelo://app?vid=b233cd34-2b2f-45c0-8bb8-8ea61efc1e06"},"vehicle_type_id":"4","last_reported":1750529605,"current_range_meters":6000,"station_id":"ce4bhg92rcd13ifvqf90","pricing_plan_id":"cebpf4jnsgd1na2vs0mg"},{"bike_id":"1efbad94-14ba-411f-9935-293abfa4f949","system_id":"levelo_inurba_marseille","lat":43.26197,"lon":5.37442,"is_reserved":false,"is_disabled":false,"rental_uris":{"android":"levelo://app?vid=1efbad94-14ba-411f-9935-293abfa4f949","ios":"levelo://app?vid=1efbad94-14ba-411f-9935-293abfa4f949"},"vehicle_type_id":"4","last_reported":1750529605,"current_range_meters":6000,"station_id":"ce4bhgp2rcd13ifvqfc0","pricing_plan_id":"cebpf4jnsgd1na2vs0mg"},{"bike_id":"c6d1b4ea-498e-4197-aa1f-5ab0e84b413a","system_id":"levelo_inurba_marseille","lat":43.23151,"lon":5.43717,"is_reserved":false,"is_disabled":false,"rental_uris":{"android":"levelo://app?vid=c6d1b4ea-498e-4197-aa1f-5ab0e84b413a","ios":"levelo://app?vid=c6d1b4ea-498e-4197-aa1f-5ab0e84b413a"},"vehicle_type_id":"4","last_reported":1750529605,"current_range_meters":6000,"station_id":"ce4bhmp2rcd13ifvqgog","pricing_plan_id":"cebpf4jnsgd1na2vs0mg"},{"bike_id":"6f77516d-0514-40da-9e78-6b5def0e8c24","system_id":"levelo_inurba_marseille","lat":43.295322,"lon":5.385416,"is_reserved":false,"is_disabled":false,"rental_uris":{"android":"levelo://app?vid=6f77516d-0514-40da-9e78-6b5def0e8c24","ios":"levelo://app?vid=6f77516d-0514-40da-9e78-6b5def0e8c24"},"vehicle_type_id":"4","last_reported":1750529605,"current_range_meters":6400,"station_id":"ce4bgih2rcd13ifvqba0","pricing_plan_id":"cebpf4jnsgd1na2vs0mg"},{"bike_id":"040977a8-13c0-45f8-878b-41dbebdc1a7e","system_id":"levelo_inurba_marseille","lat":43.299003,"lon":5.436583,"is_reserved":false,"is_disabled":false,"rental_uris":{"android":"levelo://app?vid=040977a8-13c0-45f8-878b-41dbebdc1a7e","ios":"levelo://app?vid=040977a8-13c0-45f8-878b-41dbebdc1a7e"},"vehicle_type_id":"4","last_reported":1750529605,"current_range_meters":6400,"station_id":"ce4bhpp2rcd13ifvqhfg","pricing_plan_id":"cebpf4jnsgd1na2vs0mg"},{"bike_id":"b7e753a6-a215-49f7-95ae-9a0c2beb1382","system_id":"levelo_inurba_marseille","lat":43.3313,"lon":5.38026,"is_reserved":false,"is_disabled":false,"rental_uris":{"android":"levelo://app?vid=b7e753a6-a215-49f7-95ae-9a0c2beb1382","ios":"levelo://app?vid=b7e753a6-a215-49f7-95ae-9a0c2beb1382"},"vehicle_type_id":"4","last_reported":1750529605,"current_range_meters":7200,"station_id":"","pricing_plan_id":"cebpf4jnsgd1na2vs0mg"},{"bike_id":"e3870ed7-f9fd-4e4d-ad74-cef9632fe13e","system_id":"levelo_inurba_marseille","lat":43.29987,"lon":5.39961,"is_reserved":false,"is_disabled":false,"rental_uris":{"android":"levelo://app?vid=e3870ed7-f9fd-4e4d-ad74-cef9632fe13e","ios":"levelo://app?vid=e3870ed7-f9fd-4e4d-ad74-cef9632fe13e"},"vehicle_type_id":"4","last_reported":1750529605,"current_range_meters":7200,"station_id":"","pricing_plan_id":"cebpf4jnsgd1na2vs0mg"},{"bike_id":"16dc22db-6c10-4dc2-ab7b-cc4c6596d23d","system_id":"levelo_inurba_marseille","lat":43.225075,"lon":5.347879,"is_reserved":false,"is_disabled":false,"rental_uris":{"android":"levelo://app?vid=16dc22db-6c10-4dc2-ab7b-cc4c6596d23d","ios":"levelo://app?vid=16dc22db-6c10-4dc2-ab7b-cc4c6596d23d"},"vehicle_type_id":"4","last_reported":1750529605,"current_range_meters":7200,"station_id":"st_cvj5dfep6f1abm77gieg","pricing_plan_id":"cebpf4jnsgd1na2vs0mg"},{"bike_id":"c595d0e1-c778-4abe-9c79-a9dd74f54e27","system_id":"levelo_inurba_marseille","lat":43.244773,"lon":5.37225,"is_reserved":false,"is_disabled":false,"rental_uris":{"android":"levelo://app?vid=c595d0e1-c778-4abe-9c79-a9dd74f54e27","ios":"levelo://app?vid=c595d0e1-c778-4abe-9c79-a9dd74f54e27"},"vehicle_type_id":"4","last_reported":1750529605,"current_range_meters":8000,"station_id":"","pricing_plan_id":"cebpf4jnsgd1na2vs0mg"},{"bike_id":"fd566e21-e5ae-409a-83a5-048e5642b641","system_id":"levelo_inurba_marseille","lat":43.315583,"lon":5.389403,"is_reserved":false,"is_disabled":false,"rental_uris":{"android":"levelo://app?vid=fd566e21-e5ae-409a-83a5-048e5642b641","ios":"levelo://app?vid=fd566e21-e5ae-409a-83a5-048e5642b641"},"vehicle_type_id":"4","last_reported":1750529605,"current_range_meters":8000,"station_id":"","pricing_plan_id":"cebpf4jnsgd1na2vs0mg"},{"bike_id":"b461f96f-1e5d-4ccf-ae2c-49b383fb1de4","system_id":"levelo_inurba_marseille","lat":43.29024,"lon":5.386418,"is_reserved":false,"is_disabled":false,"rental_uris":{"android":"levelo://app?vid=b461f96f-1e5d-4ccf-ae2c-49b383fb1de4","ios":"levelo://app?vid=b461f96f-1e5d-4ccf-ae2c-49b383fb1de4"},"vehicle_type_id":"4","last_reported":1750529605,"current_range_meters":8000,"station_id":"ce4bh4p2rcd13ifvqe0g","pricing_plan_id":"cebpf4jnsgd1na2vs0mg"},{"bike_id":"23cbcf47-d4f3-43a2-a09d-c1959b643c54","system_id":"levelo_inurba_marseille","lat":43.26209,"lon":5.37443,"is_reserved":false,"is_disabled":false,"rental_uris":{"android":"levelo://app?vid=23cbcf47-d4f3-43a2-a09d-c1959b643c54","ios":"levelo://app?vid=23cbcf47-d4f3-43a2-a09d-c1959b643c54"},"vehicle_type_id":"4","last_reported":1750529605,"current_range_meters":8000,"station_id":"ce4bhgp2rcd13ifvqfc0","pricing_plan_id":"cebpf4jnsgd1na2vs0mg"},{"bike_id":"19fb785c-76f5-484a-bfcb-0f75c8115100","system_id":"levelo_inurba_marseille","lat":43.255,"lon":5.37649,"is_reserved":false,"is_disabled":false,"rental_uris":{"android":"levelo://app?vid=19fb785c-76f5-484a-bfcb-0f75c8115100","ios":"levelo://app?vid=19fb785c-76f5-484a-bfcb-0f75c8115100"},"vehicle_type_id":"4","last_reported":1750529605,"current_range_meters":8000,"station_id":"ce4bhh12rcd13ifvqff0","pricing_plan_id":"cebpf4jnsgd1na2vs0mg"},{"bike_id":"428fcb0b-c3aa-4119-aa12-cd281cc585d2","system_id":"levelo_inurba_marseille","lat":43.27901,"lon":5.42277,"is_reserved":false,"is_disabled":false,"rental_uris":{"android":"levelo://app?vid=428fcb0b-c3aa-4119-aa12-cd281cc585d2","ios":"levelo://app?vid=428fcb0b-c3aa-4119-aa12-cd281cc585d2"},"vehicle_type_id":"4","last_reported":1750529605,"current_range_meters":8400,"station_id":"","pricing_plan_id":"cebpf4jnsgd1na2vs0mg"},{"bike_id":"2f561c28-295f-41f5-97fa-4f9a364d6ada","system_id":"levelo_inurba_marseille","lat":43.295357,"lon":5.39044,"is_reserved":false,"is_disabled":false,"rental_uris":{"android":"levelo://app?vid=2f561c28-295f-41f5-97fa-4f9a364d6ada","ios":"levelo://app?vid=2f561c28-295f-41f5-97fa-4f9a364d6ada"},"vehicle_type_id":"4","last_reported":1750529605,"current_range_meters":8400,"station_id":"ce4bh3p2rcd13ifvqdp0","pricing_plan_id":"cebpf4jnsgd1na2vs0mg"},{"bike_id":"164624fa-e49d-4c90-95a7-64ad6861a16f","system_id":"levelo_inurba_marseille","lat":43.261965,"lon":5.374443,"is_reserved":false,"is_disabled":false,"rental_uris":{"android":"levelo://app?vid=164624fa-e49d-4c90-95a7-64ad6861a16f","ios":"levelo://app?vid=164624fa-e49d-4c90-95a7-64ad6861a16f"},"vehicle_type_id":"4","last_reported":1750529605,"current_range_meters":8400,"station_id":"ce4bh3p2rcd13ifvqdp0","pricing_plan_id":"cebpf4jnsgd1na2vs0mg"},{"bike_id":"0bdb1e58-67b5-4ac5-a249-859832eb07d2","system_id":"levelo_inurba_marseille","lat":43.26209,"lon":5.37466,"is_reserved":false,"is_disabled":false,"rental_uris":{"android":"levelo://app?vid=0bdb1e58-67b5-4ac5-a249-859832eb07d2","ios":"levelo://app?vid=0bdb1e58-67b5-4ac5-a249-859832eb07d2"},"vehicle_type_id":"4","last_reported":1750529605,"current_range_meters":8400,"station_id":"ce4bhgp2rcd13ifvqfc0","pricing_plan_id":"cebpf4jnsgd1na2vs0mg"},{"bike_id":"2953e096-82c3-4ac6-9705-c8661fcf7878","system_id":"levelo_inurba_marseille","lat":43.25495,"lon":5.3765,"is_reserved":false,"is_disabled":false,"rental_uris":{"android":"levelo://app?vid=2953e096-82c3-4ac6-9705-c8661fcf7878","ios":"levelo://app?vid=2953e096-82c3-4ac6-9705-c8661fcf7878"},"vehicle_type_id":"4","last_reported":1750529605,"current_range_meters":8400,"station_id":"ce4bhh12rcd13ifvqff0","pricing_plan_id":"cebpf4jnsgd1na2vs0mg"},{"bike_id":"724db72d-e7f1-4ad2-a062-e5364104ca28","system_id":"levelo_inurba_marseille","lat":43.25495,"lon":5.37653,"is_reserved":false,"is_disabled":false,"rental_uris":{"android":"levelo://app?vid=724db72d-e7f1-4ad2-a062-e5364104ca28","ios":"levelo://app?vid=724db72d-e7f1-4ad2-a062-e5364104ca28"},"vehicle_type_id":"4","last_reported":1750529605,"current_range_meters":8400,"station_id":"ce4bhh12rcd13ifvqff0","pricing_plan_id":"cebpf4jnsgd1na2vs0mg"},{"bike_id":"c646b072-2ebf-48ef-938d-86d8785b74ec","system_id":"levelo_inurba_marseille","lat":43.241637,"lon":5.363947,"is_reserved":false,"is_disabled":false,"rental_uris":{"android":"levelo://app?vid=c646b072-2ebf-48ef-938d-86d8785b74ec","ios":"levelo://app?vid=c646b072-2ebf-48ef-938d-86d8785b74ec"},"vehicle_type_id":"4","last_reported":1750529605,"current_range_meters":8400,"station_id":"cpo36qri1sfpv3e86is0","pricing_plan_id":"cebpf4jnsgd1na2vs0mg"},{"bike_id":"728e74e0-84ea-46cb-9736-f17dbf049a85","system_id":"levelo_inurba_marseille","lat":43.260888,"lon":5.375444,"is_reserved":false,"is_disabled":false,"rental_uris":{"android":"levelo://app?vid=728e74e0-84ea-46cb-9736-f17dbf049a85","ios":"levelo://app?vid=728e74e0-84ea-46cb-9736-f17dbf049a85"},"vehicle_type_id":"4","last_reported":1750529605,"current_range_meters":8800,"station_id":"","pricing_plan_id":"cebpf4jnsgd1na2vs0mg"},{"bike_id":"8300812b-c3f4-4460-a462-0c10590e5460","system_id":"levelo_inurba_marseille","lat":43.32992,"lon":5.40535,"is_reserved":false,"is_disabled":false,"rental_uris":{"android":"levelo://app?vid=8300812b-c3f4-4460-a462-0c10590e5460","ios":"levelo://app?vid=8300812b-c3f4-4460-a462-0c10590e5460"},"vehicle_type_id":"4","last_reported":1750529605,"current_range_meters":8800,"station_id":"","pricing_plan_id":"cebpf4jnsgd1na2vs0mg"},{"bike_id":"199c2831-e081-4bc0-9b94-19503817091d","system_id":"levelo_inurba_marseille","lat":43.24918,"lon":5.4068,"is_reserved":false,"is_disabled":false,"rental_uris":{"android":"levelo://app?vid=199c2831-e081-4bc0-9b94-19503817091d","ios":"levelo://app?vid=199c2831-e081-4bc0-9b94-19503817091d"},"vehicle_type_id":"4","last_reported":1750529605,"current_range_meters":8800,"station_id":"","pricing_plan_id":"cebpf4jnsgd1na2vs0mg"},{"bike_id":"ae057311-05d5-48df-a208-46d3070756b0","system_id":"levelo_inurba_marseille","lat":43.29247,"lon":5.38442,"is_reserved":false,"is_disabled":false,"rental_uris":{"android":"levelo://app?vid=ae057311-05d5-48df-a208-46d3070756b0","ios":"levelo://app?vid=ae057311-05d5-48df-a208-46d3070756b0"},"vehicle_type_id":"4","last_reported":1750529605,"current_range_meters":8800,"station_id":"ce4bh692rcd13ifvqea0","pricing_plan_id":"cebpf4jnsgd1na2vs0mg"},{"bike_id":"1d3dcb38-9dc9-40ac-b4ce-13c4880bd35f","system_id":"levelo_inurba_marseille","lat":43.24806,"lon":5.37456,"is_reserved":false,"is_disabled":false,"rental_uris":{"android":"levelo://app?vid=1d3dcb38-9dc9-40ac-b4ce-13c4880bd35f","ios":"levelo://app?vid=1d3dcb38-9dc9-40ac-b4ce-13c4880bd35f"},"vehicle_type_id":"4","last_reported":1750529605,"current_range_meters":8800,"station_id":"ce4bhgh2rcd13ifvqfb0","pricing_plan_id":"cebpf4jnsgd1na2vs0mg"},{"bike_id":"c428b0bc-1026-41ec-b12d-8a985f83ee15","system_id":"levelo_inurba_marseille","lat":43.25493,"lon":5.37656,"is_reserved":false,"is_disabled":false,"rental_uris":{"android":"levelo://app?vid=c428b0bc-1026-41ec-b12d-8a985f83ee15","ios":"levelo://app?vid=c428b0bc-1026-41ec-b12d-8a985f83ee15"},"vehicle_type_id":"4","last_reported":1750529605,"current_range_meters":8800,"station_id":"ce4bhh12rcd13ifvqff0","pricing_plan_id":"cebpf4jnsgd1na2vs0mg"},{"bike_id":"325646b6-b6a1-47f2-b892-d22c8c6a2f54","system_id":"levelo_inurba_marseille","lat":43.25498,"lon":5.37651,"is_reserved":false,"is_disabled":false,"rental_uris":{"android":"levelo://app?vid=325646b6-b6a1-47f2-b892-d22c8c6a2f54","ios":"levelo://app?vid=325646b6-b6a1-47f2-b892-d22c8c6a2f54"},"vehicle_type_id":"4","last_reported":1750529605,"current_range_meters":8800,"station_id":"ce4bhh12rcd13ifvqff0","pricing_plan_id":"cebpf4jnsgd1na2vs0mg"},{"bike_id":"48514498-2182-4064-bafb-565868275fd5","system_id":"levelo_inurba_marseille","lat":43.23964,"lon":5.36633,"is_reserved":false,"is_disabled":false,"rental_uris":{"android":"levelo://app?vid=48514498-2182-4064-bafb-565868275fd5","ios":"levelo://app?vid=48514498-2182-4064-bafb-565868275fd5"},"vehicle_type_id":"4","last_reported":1750529605,"current_range_meters":8800,"station_id":"ce4bhi12rcd13ifvqfp0","pricing_plan_id":"cebpf4jnsgd1na2vs0mg"},{"bike_id":"cb0bc988-f6fe-47bb-bace-8ba3933859c0","system_id":"levelo_inurba_marseille","lat":43.26804,"lon":5.40265,"is_reserved":false,"is_disabled":false,"rental_uris":{"android":"levelo://app?vid=cb0bc988-f6fe-47bb-bace-8ba3933859c0","ios":"levelo://app?vid=cb0bc988-f6fe-47bb-bace-8ba3933859c0"},"vehicle_type_id":"4","last_reported":1750529605,"current_range_meters":8800,"station_id":"ce501612rcd8frsf0b60","pricing_plan_id":"cebpf4jnsgd1na2vs0mg"},{"bike_id":"afd91135-e069-46c2-a245-abcaf4b4e326","system_id":"levelo_inurba_marseille","lat":43.30951,"lon":5.39027,"is_reserved":false,"is_disabled":false,"rental_uris":{"android":"levelo://app?vid=afd91135-e069-46c2-a245-abcaf4b4e326","ios":"levelo://app?vid=afd91135-e069-46c2-a245-abcaf4b4e326"},"vehicle_type_id":"4","last_reported":1750529605,"current_range_meters":9200,"station_id":"ce4bgup2rcd13ifvqco0","pricing_plan_id":"cebpf4jnsgd1na2vs0mg"},{"bike_id":"a3aaa7a7-30e4-48af-9efa-4204ce4a96e7","system_id":"levelo_inurba_marseille","lat":43.31076,"lon":5.38359,"is_reserved":false,"is_disabled":false,"rental_uris":{"android":"levelo://app?vid=a3aaa7a7-30e4-48af-9efa-4204ce4a96e7","ios":"levelo://app?vid=a3aaa7a7-30e4-48af-9efa-4204ce4a96e7"},"vehicle_type_id":"4","last_reported":1750529605,"current_range_meters":9200,"station_id":"ce4bgv92rcd13ifvqcr0","pricing_plan_id":"cebpf4jnsgd1na2vs0mg"},{"bike_id":"23ebca5b-d774-4094-8022-46747d9a3832","system_id":"levelo_inurba_marseille","lat":43.29252,"lon":5.38435,"is_reserved":false,"is_disabled":false,"rental_uris":{"android":"levelo://app?vid=23ebca5b-d774-4094-8022-46747d9a3832","ios":"levelo://app?vid=23ebca5b-d774-4094-8022-46747d9a3832"},"vehicle_type_id":"4","last_reported":1750529605,"current_range_meters":9200,"station_id":"ce4bh692rcd13ifvqea0","pricing_plan_id":"cebpf4jnsgd1na2vs0mg"},{"bike_id":"69aac864-a333-4f10-ba7d-ab4ecd5e6a70","system_id":"levelo_inurba_marseille","lat":43.28668,"lon":5.36347,"is_reserved":false,"is_disabled":false,"rental_uris":{"android":"levelo://app?vid=69aac864-a333-4f10-ba7d-ab4ecd5e6a70","ios":"levelo://app?vid=69aac864-a333-4f10-ba7d-ab4ecd5e6a70"},"vehicle_type_id":"4","last_reported":1750529605,"current_range_meters":9200,"station_id":"ce4bhah2rcd13ifvqej0","pricing_plan_id":"cebpf4jnsgd1na2vs0mg"},{"bike_id":"49d1085f-6fc7-40c2-be72-4374f99774b8","system_id":"levelo_inurba_marseille","lat":43.26217,"lon":5.37436,"is_reserved":false,"is_disabled":false,"rental_uris":{"android":"levelo://app?vid=49d1085f-6fc7-40c2-be72-4374f99774b8","ios":"levelo://app?vid=49d1085f-6fc7-40c2-be72-4374f99774b8"},"vehicle_type_id":"4","last_reported":1750529605,"current_range_meters":9200,"station_id":"ce4bhgp2rcd13ifvqfc0","pricing_plan_id":"cebpf4jnsgd1na2vs0mg"},{"bike_id":"d4e02133-012f-4cea-9693-694599d816a4","system_id":"levelo_inurba_marseille","lat":43.25504,"lon":5.37661,"is_reserved":false,"is_disabled":false,"rental_uris":{"android":"levelo://app?vid=d4e02133-012f-4cea-9693-694599d816a4","ios":"levelo://app?vid=d4e02133-012f-4cea-9693-694599d816a4"},"vehicle_type_id":"4","last_reported":1750529605,"current_range_meters":9200,"station_id":"ce4bhh12rcd13ifvqff0","pricing_plan_id":"cebpf4jnsgd1na2vs0mg"},{"bike_id":"bfc8e91e-fc85-4ba6-b881-0535d7bbf65b","system_id":"levelo_inurba_marseille","lat":43.255,"lon":5.37649,"is_reserved":false,"is_disabled":false,"rental_uris":{"android":"levelo://app?vid=bfc8e91e-fc85-4ba6-b881-0535d7bbf65b","ios":"levelo://app?vid=bfc8e91e-fc85-4ba6-b881-0535d7bbf65b"},"vehicle_type_id":"4","last_reported":1750529605,"current_range_meters":9200,"station_id":"ce4bhh12rcd13ifvqff0","pricing_plan_id":"cebpf4jnsgd1na2vs0mg"},{"bike_id":"4d71b6c6-cc08-4531-8779-125c53dc53ff","system_id":"levelo_inurba_marseille","lat":43.32003,"lon":5.38159,"is_reserved":false,"is_disabled":false,"rental_uris":{"android":"levelo://app?vid=4d71b6c6-cc08-4531-8779-125c53dc53ff","ios":"levelo://app?vid=4d71b6c6-cc08-4531-8779-125c53dc53ff"},"vehicle_type_id":"4","last_reported":1750529605,"current_range_meters":9200,"station_id":"ce4bhr12rcd13ifvqhpg","pricing_plan_id":"cebpf4jnsgd1na2vs0mg"},{"bike_id":"9962e0a9-3bda-4420-97cb-18bb66db3759","system_id":"levelo_inurba_marseille","lat":43.32126,"lon":5.36759,"is_reserved":false,"is_disabled":false,"rental_uris":{"android":"levelo://app?vid=9962e0a9-3bda-4420-97cb-18bb66db3759","ios":"levelo://app?vid=9962e0a9-3bda-4420-97cb-18bb66db3759"},"vehicle_type_id":"4","last_reported":1750529605,"current_range_meters":9200,"station_id":"ce4bhrh2rcd13ifvqhug","pricing_plan_id":"cebpf4jnsgd1na2vs0mg"},{"bike_id":"cdad3616-6d2a-4c29-a0b8-b5bc84209c59","system_id":"levelo_inurba_marseille","lat":43.32725,"lon":5.39214,"is_reserved":false,"is_disabled":false,"rental_uris":{"android":"levelo://app?vid=cdad3616-6d2a-4c29-a0b8-b5bc84209c59","ios":"levelo://app?vid=cdad3616-6d2a-4c29-a0b8-b5bc84209c59"},"vehicle_type_id":"4","last_reported":1750529605,"current_range_meters":9600,"station_id":"","pricing_plan_id":"cebpf4jnsgd1na2vs0mg"},{"bike_id":"bd27fe72-6fbc-453f-8b77-bee10ab3b13c","system_id":"levelo_inurba_marseille","lat":43.29533,"lon":5.4236,"is_reserved":false,"is_disabled":false,"rental_uris":{"android":"levelo://app?vid=bd27fe72-6fbc-453f-8b77-bee10ab3b13c","ios":"levelo://app?vid=bd27fe72-6fbc-453f-8b77-bee10ab3b13c"},"vehicle_type_id":"4","last_reported":1750529605,"current_range_meters":9600,"station_id":"","pricing_plan_id":"cebpf4jnsgd1na2vs0mg"},{"bike_id":"d5a70806-23b9-41b2-ae90-c702b6ff3b25","system_id":"levelo_inurba_marseille","lat":43.29944,"lon":5.38124,"is_reserved":false,"is_disabled":false,"rental_uris":{"android":"levelo://app?vid=d5a70806-23b9-41b2-ae90-c702b6ff3b25","ios":"levelo://app?vid=d5a70806-23b9-41b2-ae90-c702b6ff3b25"},"vehicle_type_id":"4","last_reported":1750529605,"current_range_meters":9600,"station_id":"ce4bgj12rcd13ifvqbc0","pricing_plan_id":"cebpf4jnsgd1na2vs0mg"},{"bike_id":"43336385-9998-40c0-ba4e-7131ba6d9180","system_id":"levelo_inurba_marseille","lat":43.292625,"lon":5.384273,"is_reserved":false,"is_disabled":false,"rental_uris":{"android":"levelo://app?vid=43336385-9998-40c0-ba4e-7131ba6d9180","ios":"levelo://app?vid=43336385-9998-40c0-ba4e-7131ba6d9180"},"vehicle_type_id":"4","last_reported":1750529605,"current_range_meters":9600,"station_id":"ce4bh692rcd13ifvqea0","pricing_plan_id":"cebpf4jnsgd1na2vs0mg"},{"bike_id":"ad024c4f-f2b9-42c7-9230-7b5f8acec921","system_id":"levelo_inurba_marseille","lat":43.2738,"lon":5.36254,"is_reserved":false,"is_disabled":false,"rental_uris":{"android":"levelo://app?vid=ad024c4f-f2b9-42c7-9230-7b5f8acec921","ios":"levelo://app?vid=ad024c4f-f2b9-42c7-9230-7b5f8acec921"},"vehicle_type_id":"4","last_reported":1750529605,"current_range_meters":9600,"station_id":"ce4bhbh2rcd13ifvqeo0","pricing_plan_id":"cebpf4jnsgd1na2vs0mg"},{"bike_id":"66ad7aba-6ba7-4771-815e-36fe8ce98cd8","system_id":"levelo_inurba_marseille","lat":43.27377,"lon":5.36253,"is_reserved":false,"is_disabled":false,"rental_uris":{"android":"levelo://app?vid=66ad7aba-6ba7-4771-815e-36fe8ce98cd8","ios":"levelo://app?vid=66ad7aba-6ba7-4771-815e-36fe8ce98cd8"},"vehicle_type_id":"4","last_reported":1750529605,"current_range_meters":9600,"station_id":"ce4bhbh2rcd13ifvqeo0","pricing_plan_id":"cebpf4jnsgd1na2vs0mg"},{"bike_id":"e51bef14-ef35-4513-9d1f-e2769ae74226","system_id":"levelo_inurba_marseille","lat":43.26039,"lon":5.37544,"is_reserved":false,"is_disabled":false,"rental_uris":{"android":"levelo://app?vid=e51bef14-ef35-4513-9d1f-e2769ae74226","ios":"levelo://app?vid=e51bef14-ef35-4513-9d1f-e2769ae74226"},"vehicle_type_id":"4","last_reported":1750529605,"current_range_meters":9600,"station_id":"ce4bhgh2rcd13ifvqfa0","pricing_plan_id":"cebpf4jnsgd1na2vs0mg"},{"bike_id":"b43dd87e-b296-4299-8374-eb747fb46bf2","system_id":"levelo_inurba_marseille","lat":43.2622,"lon":5.37437,"is_reserved":false,"is_disabled":false,"rental_uris":{"android":"levelo://app?vid=b43dd87e-b296-4299-8374-eb747fb46bf2","ios":"levelo://app?vid=b43dd87e-b296-4299-8374-eb747fb46bf2"},"vehicle_type_id":"4","last_reported":1750529605,"current_range_meters":9600,"station_id":"ce4bhgp2rcd13ifvqfc0","pricing_plan_id":"cebpf4jnsgd1na2vs0mg"},{"bike_id":"acc7cb2b-3ff8-4bd0-9225-36c20b25a152","system_id":"levelo_inurba_marseille","lat":43.255,"lon":5.37648,"is_reserved":false,"is_disabled":false,"rental_uris":{"android":"levelo://app?vid=acc7cb2b-3ff8-4bd0-9225-36c20b25a152","ios":"levelo://app?vid=acc7cb2b-3ff8-4bd0-9225-36c20b25a152"},"vehicle_type_id":"4","last_reported":1750529605,"current_range_meters":9600,"station_id":"ce4bhh12rcd13ifvqff0","pricing_plan_id":"cebpf4jnsgd1na2vs0mg"},{"bike_id":"a2c878c7-87a5-40cd-a0ea-818a464a83bd","system_id":"levelo_inurba_marseille","lat":43.29268,"lon":5.38449,"is_reserved":false,"is_disabled":false,"rental_uris":{"android":"levelo://app?vid=a2c878c7-87a5-40cd-a0ea-818a464a83bd","ios":"levelo://app?vid=a2c878c7-87a5-40cd-a0ea-818a464a83bd"},"vehicle_type_id":"4","last_reported":1750529605,"current_range_meters":10000,"station_id":"ce4bh692rcd13ifvqea0","pricing_plan_id":"cebpf4jnsgd1na2vs0mg"},{"bike_id":"da74b973-8cbd-47f9-a188-d5b536bd7689","system_id":"levelo_inurba_marseille","lat":43.26188,"lon":5.37448,"is_reserved":false,"is_disabled":false,"rental_uris":{"android":"levelo://app?vid=da74b973-8cbd-47f9-a188-d5b536bd7689","ios":"levelo://app?vid=da74b973-8cbd-47f9-a188-d5b536bd7689"},"vehicle_type_id":"4","last_reported":1750529605,"current_range_meters":10000,"station_id":"ce4bhgp2rcd13ifvqfc0","pricing_plan_id":"cebpf4jnsgd1na2vs0mg"},{"bike_id":"a3eb4488-cef3-4c10-bcfa-18a5d06404a5","system_id":"levelo_inurba_marseille","lat":43.25493,"lon":5.37649,"is_reserved":false,"is_disabled":false,"rental_uris":{"android":"levelo://app?vid=a3eb4488-cef3-4c10-bcfa-18a5d06404a5","ios":"levelo://app?vid=a3eb4488-cef3-4c10-bcfa-18a5d06404a5"},"vehicle_type_id":"4","last_reported":1750529605,"current_range_meters":10000,"station_id":"ce4bhh12rcd13ifvqff0","pricing_plan_id":"cebpf4jnsgd1na2vs0mg"},{"bike_id":"65203f58-2ea2-4124-b1f7-e387af606d4a","system_id":"levelo_inurba_marseille","lat":43.23964,"lon":5.36632,"is_reserved":false,"is_disabled":false,"rental_uris":{"android":"levelo://app?vid=65203f58-2ea2-4124-b1f7-e387af606d4a","ios":"levelo://app?vid=65203f58-2ea2-4124-b1f7-e387af606d4a"},"vehicle_type_id":"4","last_reported":1750529605,"current_range_meters":10000,"station_id":"ce4bhi12rcd13ifvqfp0","pricing_plan_id":"cebpf4jnsgd1na2vs0mg"},{"bike_id":"416eb0a1-af9a-48e2-9a81-27d7af4bb04f","system_id":"levelo_inurba_marseille","lat":43.3211,"lon":5.36761,"is_reserved":false,"is_disabled":false,"rental_uris":{"android":"levelo://app?vid=416eb0a1-af9a-48e2-9a81-27d7af4bb04f","ios":"levelo://app?vid=416eb0a1-af9a-48e2-9a81-27d7af4bb04f"},"vehicle_type_id":"4","last_reported":1750529605,"current_range_meters":10000,"station_id":"ce4bhrh2rcd13ifvqhug","pricing_plan_id":"cebpf4jnsgd1na2vs0mg"},{"bike_id":"8ef11a45-504d-45b0-a2b5-97fef9594218","system_id":"levelo_inurba_marseille","lat":43.295509,"lon":5.381451,"is_reserved":false,"is_disabled":false,"rental_uris":{"android":"levelo://app?vid=8ef11a45-504d-45b0-a2b5-97fef9594218","ios":"levelo://app?vid=8ef11a45-504d-45b0-a2b5-97fef9594218"},"vehicle_type_id":"4","last_reported":1750529605,"current_range_meters":10800,"station_id":"","pricing_plan_id":"cebpf4jnsgd1na2vs0mg"},{"bike_id":"878c4672-f93e-4a55-b2be-184dde5dcfe9","system_id":"levelo_inurba_marseille","lat":43.26034,"lon":5.37546,"is_reserved":false,"is_disabled":false,"rental_uris":{"android":"levelo://app?vid=878c4672-f93e-4a55-b2be-184dde5dcfe9","ios":"levelo://app?vid=878c4672-f93e-4a55-b2be-184dde5dcfe9"},"vehicle_type_id":"4","last_reported":1750529605,"current_range_meters":10800,"station_id":"ce4bhgh2rcd13ifvqfa0","pricing_plan_id":"cebpf4jnsgd1na2vs0mg"},{"bike_id":"538b06be-19aa-4a75-bb3d-7b8d2f6e22b8","system_id":"levelo_inurba_marseille","lat":43.24813,"lon":5.37458,"is_reserved":false,"is_disabled":false,"rental_uris":{"android":"levelo://app?vid=538b06be-19aa-4a75-bb3d-7b8d2f6e22b8","ios":"levelo://app?vid=538b06be-19aa-4a75-bb3d-7b8d2f6e22b8"},"vehicle_type_id":"4","last_reported":1750529605,"current_range_meters":10800,"station_id":"ce4bhgh2rcd13ifvqfb0","pricing_plan_id":"cebpf4jnsgd1na2vs0mg"},{"bike_id":"fcb084f5-5b68-4d62-ada5-fa25b8f44a85","system_id":"levelo_inurba_marseille","lat":43.2621,"lon":5.37445,"is_reserved":false,"is_disabled":false,"rental_uris":{"android":"levelo://app?vid=fcb084f5-5b68-4d62-ada5-fa25b8f44a85","ios":"levelo://app?vid=fcb084f5-5b68-4d62-ada5-fa25b8f44a85"},"vehicle_type_id":"4","last_reported":1750529605,"current_range_meters":10800,"station_id":"ce4bhgp2rcd13ifvqfc0","pricing_plan_id":"cebpf4jnsgd1na2vs0mg"},{"bike_id":"b96dfba6-cd64-42ae-b561-205e310dea85","system_id":"levelo_inurba_marseille","lat":43.25502,"lon":5.37641,"is_reserved":false,"is_disabled":false,"rental_uris":{"android":"levelo://app?vid=b96dfba6-cd64-42ae-b561-205e310dea85","ios":"levelo://app?vid=b96dfba6-cd64-42ae-b561-205e310dea85"},"vehicle_type_id":"4","last_reported":1750529605,"current_range_meters":10800,"station_id":"ce4bhh12rcd13ifvqff0","pricing_plan_id":"cebpf4jnsgd1na2vs0mg"},{"bike_id":"185a8cf3-16bf-496e-94d3-64640a9f84af","system_id":"levelo_inurba_marseille","lat":43.32098,"lon":5.36787,"is_reserved":false,"is_disabled":false,"rental_uris":{"android":"levelo://app?vid=185a8cf3-16bf-496e-94d3-64640a9f84af","ios":"levelo://app?vid=185a8cf3-16bf-496e-94d3-64640a9f84af"},"vehicle_type_id":"4","last_reported":1750529605,"current_range_meters":10800,"station_id":"ce4bhrh2rcd13ifvqhug","pricing_plan_id":"cebpf4jnsgd1na2vs0mg"},{"bike_id":"cb16cb99-c598-4e23-885f-df970d1f55c2","system_id":"levelo_inurba_marseille","lat":43.30467,"lon":5.37324,"is_reserved":false,"is_disabled":false,"rental_uris":{"android":"levelo://app?vid=cb16cb99-c598-4e23-885f-df970d1f55c2","ios":"levelo://app?vid=cb16cb99-c598-4e23-885f-df970d1f55c2"},"vehicle_type_id":"4","last_reported":1750529605,"current_range_meters":11200,"station_id":"","pricing_plan_id":"cebpf4jnsgd1na2vs0mg"},{"bike_id":"d40af265-11b5-43a6-9bb6-f910f57901ba","system_id":"levelo_inurba_marseille","lat":43.33033,"lon":5.38002,"is_reserved":false,"is_disabled":false,"rental_uris":{"android":"levelo://app?vid=d40af265-11b5-43a6-9bb6-f910f57901ba","ios":"levelo://app?vid=d40af265-11b5-43a6-9bb6-f910f57901ba"},"vehicle_type_id":"4","last_reported":1750529605,"current_range_meters":11200,"station_id":"","pricing_plan_id":"cebpf4jnsgd1na2vs0mg"},{"bike_id":"89004e78-8edb-4103-a850-97b33396bad4","system_id":"levelo_inurba_marseille","lat":43.32725,"lon":5.40789,"is_reserved":false,"is_disabled":false,"rental_uris":{"android":"levelo://app?vid=89004e78-8edb-4103-a850-97b33396bad4","ios":"levelo://app?vid=89004e78-8edb-4103-a850-97b33396bad4"},"vehicle_type_id":"4","last_reported":1750529605,"current_range_meters":11200,"station_id":"","pricing_plan_id":"cebpf4jnsgd1na2vs0mg"},{"bike_id":"21cc429c-4907-41fb-b5ed-46517ee3d666","system_id":"levelo_inurba_marseille","lat":43.29895,"lon":5.38895,"is_reserved":false,"is_disabled":false,"rental_uris":{"android":"levelo://app?vid=21cc429c-4907-41fb-b5ed-46517ee3d666","ios":"levelo://app?vid=21cc429c-4907-41fb-b5ed-46517ee3d666"},"vehicle_type_id":"4","last_reported":1750529605,"current_range_meters":11200,"station_id":"ce4bh392rcd13ifvqdl0","pricing_plan_id":"cebpf4jnsgd1na2vs0mg"},{"bike_id":"246f729f-dbcd-4920-b592-513ea31f6d2e","system_id":"levelo_inurba_marseille","lat":43.28491,"lon":5.38416,"is_reserved":false,"is_disabled":false,"rental_uris":{"android":"levelo://app?vid=246f729f-dbcd-4920-b592-513ea31f6d2e","ios":"levelo://app?vid=246f729f-dbcd-4920-b592-513ea31f6d2e"},"vehicle_type_id":"4","last_reported":1750529605,"current_range_meters":11200,"station_id":"ce4bh512rcd13ifvqe3g","pricing_plan_id":"cebpf4jnsgd1na2vs0mg"},{"bike_id":"18aa578a-31cc-4ee6-861e-9074cf885bc1","system_id":"levelo_inurba_marseille","lat":43.27375,"lon":5.36264,"is_reserved":false,"is_disabled":false,"rental_uris":{"android":"levelo://app?vid=18aa578a-31cc-4ee6-861e-9074cf885bc1","ios":"levelo://app?vid=18aa578a-31cc-4ee6-861e-9074cf885bc1"},"vehicle_type_id":"4","last_reported":1750529605,"current_range_meters":11200,"station_id":"ce4bhbh2rcd13ifvqeo0","pricing_plan_id":"cebpf4jnsgd1na2vs0mg"},{"bike_id":"a1d4826e-6578-46e6-8183-f5c3518437d3","system_id":"levelo_inurba_marseille","lat":43.25503,"lon":5.37649,"is_reserved":false,"is_disabled":false,"rental_uris":{"android":"levelo://app?vid=a1d4826e-6578-46e6-8183-f5c3518437d3","ios":"levelo://app?vid=a1d4826e-6578-46e6-8183-f5c3518437d3"},"vehicle_type_id":"4","last_reported":1750529605,"current_range_meters":11200,"station_id":"ce4bhh12rcd13ifvqff0","pricing_plan_id":"cebpf4jnsgd1na2vs0mg"},{"bike_id":"b3b57ffe-8c08-4fb9-b2cf-0844144e6795","system_id":"levelo_inurba_marseille","lat":43.25495,"lon":5.37652,"is_reserved":false,"is_disabled":false,"rental_uris":{"android":"levelo://app?vid=b3b57ffe-8c08-4fb9-b2cf-0844144e6795","ios":"levelo://app?vid=b3b57ffe-8c08-4fb9-b2cf-0844144e6795"},"vehicle_type_id":"4","last_reported":1750529605,"current_range_meters":11200,"station_id":"ce4bhh12rcd13ifvqff0","pricing_plan_id":"cebpf4jnsgd1na2vs0mg"},{"bike_id":"4643bc90-1bac-4c4b-98b1-e2d500830573","system_id":"levelo_inurba_marseille","lat":43.31339,"lon":5.37621,"is_reserved":false,"is_disabled":false,"rental_uris":{"android":"levelo://app?vid=4643bc90-1bac-4c4b-98b1-e2d500830573","ios":"levelo://app?vid=4643bc90-1bac-4c4b-98b1-e2d500830573"},"vehicle_type_id":"4","last_reported":1750529605,"current_range_meters":11600,"station_id":"","pricing_plan_id":"cebpf4jnsgd1na2vs0mg"},{"bike_id":"a22aa312-0025-4f42-88e2-b1e95e79340f","system_id":"levelo_inurba_marseille","lat":43.316633,"lon":5.383293,"is_reserved":false,"is_disabled":false,"rental_uris":{"android":"levelo://app?vid=a22aa312-0025-4f42-88e2-b1e95e79340f","ios":"levelo://app?vid=a22aa312-0025-4f42-88e2-b1e95e79340f"},"vehicle_type_id":"4","last_reported":1750529605,"current_range_meters":11600,"station_id":"","pricing_plan_id":"cebpf4jnsgd1na2vs0mg"},{"bike_id":"8c1c8a1d-4f75-4ab5-99a2-918c0a8e0644","system_id":"levelo_inurba_marseille","lat":43.30192,"lon":5.36623,"is_reserved":false,"is_disabled":false,"rental_uris":{"android":"levelo://app?vid=8c1c8a1d-4f75-4ab5-99a2-918c0a8e0644","ios":"levelo://app?vid=8c1c8a1d-4f75-4ab5-99a2-918c0a8e0644"},"vehicle_type_id":"4","last_reported":1750529605,"current_range_meters":11600,"station_id":"ce4bgrh2rcd13ifvqc8g","pricing_plan_id":"cebpf4jnsgd1na2vs0mg"},{"bike_id":"42508b69-e12c-4989-8013-4508e061d6db","system_id":"levelo_inurba_marseille","lat":43.292617,"lon":5.384337,"is_reserved":false,"is_disabled":false,"rental_uris":{"android":"levelo://app?vid=42508b69-e12c-4989-8013-4508e061d6db","ios":"levelo://app?vid=42508b69-e12c-4989-8013-4508e061d6db"},"vehicle_type_id":"4","last_reported":1750529605,"current_range_meters":11600,"station_id":"ce4bh692rcd13ifvqea0","pricing_plan_id":"cebpf4jnsgd1na2vs0mg"},{"bike_id":"247b80b7-10fe-40f5-848b-d8ff192ca5b8","system_id":"levelo_inurba_marseille","lat":43.28033,"lon":5.36947,"is_reserved":false,"is_disabled":false,"rental_uris":{"android":"levelo://app?vid=247b80b7-10fe-40f5-848b-d8ff192ca5b8","ios":"levelo://app?vid=247b80b7-10fe-40f5-848b-d8ff192ca5b8"},"vehicle_type_id":"4","last_reported":1750529605,"current_range_meters":11600,"station_id":"ce4bha12rcd13ifvqef0","pricing_plan_id":"cebpf4jnsgd1na2vs0mg"},{"bike_id":"f366ae90-4b34-4a15-a88b-10aee5446ef5","system_id":"levelo_inurba_marseille","lat":43.26205,"lon":5.37452,"is_reserved":false,"is_disabled":false,"rental_uris":{"android":"levelo://app?vid=f366ae90-4b34-4a15-a88b-10aee5446ef5","ios":"levelo://app?vid=f366ae90-4b34-4a15-a88b-10aee5446ef5"},"vehicle_type_id":"4","last_reported":1750529605,"current_range_meters":11600,"station_id":"ce4bhgp2rcd13ifvqfc0","pricing_plan_id":"cebpf4jnsgd1na2vs0mg"},{"bike_id":"cadf008a-bf32-4169-aa31-4d53bf482531","system_id":"levelo_inurba_marseille","lat":43.25497,"lon":5.37652,"is_reserved":false,"is_disabled":false,"rental_uris":{"android":"levelo://app?vid=cadf008a-bf32-4169-aa31-4d53bf482531","ios":"levelo://app?vid=cadf008a-bf32-4169-aa31-4d53bf482531"},"vehicle_type_id":"4","last_reported":1750529605,"current_range_meters":11600,"station_id":"ce4bhh12rcd13ifvqff0","pricing_plan_id":"cebpf4jnsgd1na2vs0mg"},{"bike_id":"92d5f319-bafc-4e23-89e6-7b522f89ec7e","system_id":"levelo_inurba_marseille","lat":43.276,"lon":5.42194,"is_reserved":false,"is_disabled":false,"rental_uris":{"android":"levelo://app?vid=92d5f319-bafc-4e23-89e6-7b522f89ec7e","ios":"levelo://app?vid=92d5f319-bafc-4e23-89e6-7b522f89ec7e"},"vehicle_type_id":"4","last_reported":1750529605,"current_range_meters":12000,"station_id":"","pricing_plan_id":"cebpf4jnsgd1na2vs0mg"},{"bike_id":"9620f043-8348-41ca-b66d-a8dee7c12b58","system_id":"levelo_inurba_marseille","lat":43.261923,"lon":5.374537,"is_reserved":false,"is_disabled":false,"rental_uris":{"android":"levelo://app?vid=9620f043-8348-41ca-b66d-a8dee7c12b58","ios":"levelo://app?vid=9620f043-8348-41ca-b66d-a8dee7c12b58"},"vehicle_type_id":"4","last_reported":1750529605,"current_range_meters":12000,"station_id":"ce4bhgp2rcd13ifvqfc0","pricing_plan_id":"cebpf4jnsgd1na2vs0mg"},{"bike_id":"8f1841e4-01dd-4539-827b-96f8b5fb0215","system_id":"levelo_inurba_marseille","lat":43.25476,"lon":5.37657,"is_reserved":false,"is_disabled":false,"rental_uris":{"android":"levelo://app?vid=8f1841e4-01dd-4539-827b-96f8b5fb0215","ios":"levelo://app?vid=8f1841e4-01dd-4539-827b-96f8b5fb0215"},"vehicle_type_id":"4","last_reported":1750529605,"current_range_meters":12000,"station_id":"ce4bhh12rcd13ifvqff0","pricing_plan_id":"cebpf4jnsgd1na2vs0mg"},{"bike_id":"f7af4bd3-066e-45f5-ad89-48141cc1d10e","system_id":"levelo_inurba_marseille","lat":43.25488,"lon":5.37655,"is_reserved":false,"is_disabled":false,"rental_uris":{"android":"levelo://app?vid=f7af4bd3-066e-45f5-ad89-48141cc1d10e","ios":"levelo://app?vid=f7af4bd3-066e-45f5-ad89-48141cc1d10e"},"vehicle_type_id":"4","last_reported":1750529605,"current_range_meters":12000,"station_id":"ce4bhh12rcd13ifvqff0","pricing_plan_id":"cebpf4jnsgd1na2vs0mg"},{"bike_id":"fd6ceaed-f45c-4ee4-9c0f-ec00856a62fb","system_id":"levelo_inurba_marseille","lat":43.29531,"lon":5.38542,"is_reserved":false,"is_disabled":false,"rental_uris":{"android":"levelo://app?vid=fd6ceaed-f45c-4ee4-9c0f-ec00856a62fb","ios":"levelo://app?vid=fd6ceaed-f45c-4ee4-9c0f-ec00856a62fb"},"vehicle_type_id":"4","last_reported":1750529605,"current_range_meters":12400,"station_id":"ce4bgih2rcd13ifvqba0","pricing_plan_id":"cebpf4jnsgd1na2vs0mg"},{"bike_id":"713b88bc-b042-4456-a1f3-9872beb3ae8c","system_id":"levelo_inurba_marseille","lat":43.25499,"lon":5.37646,"is_reserved":false,"is_disabled":false,"rental_uris":{"android":"levelo://app?vid=713b88bc-b042-4456-a1f3-9872beb3ae8c","ios":"levelo://app?vid=713b88bc-b042-4456-a1f3-9872beb3ae8c"},"vehicle_type_id":"4","last_reported":1750529605,"current_range_meters":12400,"station_id":"ce4bhh12rcd13ifvqff0","pricing_plan_id":"cebpf4jnsgd1na2vs0mg"},{"bike_id":"0183650a-1a9f-4726-bd15-878bef7cc7e3","system_id":"levelo_inurba_marseille","lat":43.23967,"lon":5.36622,"is_reserved":false,"is_disabled":false,"rental_uris":{"android":"levelo://app?vid=0183650a-1a9f-4726-bd15-878bef7cc7e3","ios":"levelo://app?vid=0183650a-1a9f-4726-bd15-878bef7cc7e3"},"vehicle_type_id":"4","last_reported":1750529605,"current_range_meters":12400,"station_id":"ce4bhi12rcd13ifvqfp0","pricing_plan_id":"cebpf4jnsgd1na2vs0mg"},{"bike_id":"f5e1f535-995e-41d5-9817-ee3fbd5b334e","system_id":"levelo_inurba_marseille","lat":43.33025,"lon":5.39034,"is_reserved":false,"is_disabled":false,"rental_uris":{"android":"levelo://app?vid=f5e1f535-995e-41d5-9817-ee3fbd5b334e","ios":"levelo://app?vid=f5e1f535-995e-41d5-9817-ee3fbd5b334e"},"vehicle_type_id":"4","last_reported":1750529605,"current_range_meters":12400,"station_id":"ce4bhr92rcd13ifvqhrg","pricing_plan_id":"cebpf4jnsgd1na2vs0mg"},{"bike_id":"aa5769d7-c43e-4bb2-b3a5-f81f29dc96d1","system_id":"levelo_inurba_marseille","lat":43.29608,"lon":5.370046,"is_reserved":false,"is_disabled":false,"rental_uris":{"android":"levelo://app?vid=aa5769d7-c43e-4bb2-b3a5-f81f29dc96d1","ios":"levelo://app?vid=aa5769d7-c43e-4bb2-b3a5-f81f29dc96d1"},"vehicle_type_id":"4","last_reported":1750529605,"current_range_meters":12800,"station_id":"","pricing_plan_id":"cebpf4jnsgd1na2vs0mg"},{"bike_id":"63b14372-9901-4c5c-8cbb-3e726ae6213e","system_id":"levelo_inurba_marseille","lat":43.29541,"lon":5.38564,"is_reserved":false,"is_disabled":false,"rental_uris":{"android":"levelo://app?vid=63b14372-9901-4c5c-8cbb-3e726ae6213e","ios":"levelo://app?vid=63b14372-9901-4c5c-8cbb-3e726ae6213e"},"vehicle_type_id":"4","last_reported":1750529605,"current_range_meters":12800,"station_id":"ce4bgih2rcd13ifvqba0","pricing_plan_id":"cebpf4jnsgd1na2vs0mg"},{"bike_id":"1bc0e563-d17f-470f-8ae5-5f696f9d6b36","system_id":"levelo_inurba_marseille","lat":43.29269,"lon":5.38439,"is_reserved":false,"is_disabled":false,"rental_uris":{"android":"levelo://app?vid=1bc0e563-d17f-470f-8ae5-5f696f9d6b36","ios":"levelo://app?vid=1bc0e563-d17f-470f-8ae5-5f696f9d6b36"},"vehicle_type_id":"4","last_reported":1750529605,"current_range_meters":12800,"station_id":"ce4bh692rcd13ifvqea0","pricing_plan_id":"cebpf4jnsgd1na2vs0mg"},{"bike_id":"47b0e8ed-1505-41e8-9bb6-271f11e0cd62","system_id":"levelo_inurba_marseille","lat":43.28033,"lon":5.36933,"is_reserved":false,"is_disabled":false,"rental_uris":{"android":"levelo://app?vid=47b0e8ed-1505-41e8-9bb6-271f11e0cd62","ios":"levelo://app?vid=47b0e8ed-1505-41e8-9bb6-271f11e0cd62"},"vehicle_type_id":"4","last_reported":1750529605,"current_range_meters":12800,"station_id":"ce4bha12rcd13ifvqef0","pricing_plan_id":"cebpf4jnsgd1na2vs0mg"},{"bike_id":"8b499c04-8dde-4c05-8dcf-01ce074f9af5","system_id":"levelo_inurba_marseille","lat":43.26197,"lon":5.37445,"is_reserved":false,"is_disabled":false,"rental_uris":{"android":"levelo://app?vid=8b499c04-8dde-4c05-8dcf-01ce074f9af5","ios":"levelo://app?vid=8b499c04-8dde-4c05-8dcf-01ce074f9af5"},"vehicle_type_id":"4","last_reported":1750529605,"current_range_meters":13600,"station_id":"ce4bhgp2rcd13ifvqfc0","pricing_plan_id":"cebpf4jnsgd1na2vs0mg"},{"bike_id":"585530f6-4167-43c7-b6b8-288eb7520142","system_id":"levelo_inurba_marseille","lat":43.26212,"lon":5.37448,"is_reserved":false,"is_disabled":false,"rental_uris":{"android":"levelo://app?vid=585530f6-4167-43c7-b6b8-288eb7520142","ios":"levelo://app?vid=585530f6-4167-43c7-b6b8-288eb7520142"},"vehicle_type_id":"4","last_reported":1750529605,"current_range_meters":13600,"station_id":"ce4bhgp2rcd13ifvqfc0","pricing_plan_id":"cebpf4jnsgd1na2vs0mg"},{"bike_id":"14e5a118-9329-49b0-9f0b-29d4986d8e88","system_id":"levelo_inurba_marseille","lat":43.32346,"lon":5.36735,"is_reserved":false,"is_disabled":false,"rental_uris":{"android":"levelo://app?vid=14e5a118-9329-49b0-9f0b-29d4986d8e88","ios":"levelo://app?vid=14e5a118-9329-49b0-9f0b-29d4986d8e88"},"vehicle_type_id":"4","last_reported":1750529605,"current_range_meters":13600,"station_id":"ce4bhsh2rcd13ifvqi2g","pricing_plan_id":"cebpf4jnsgd1na2vs0mg"},{"bike_id":"5031eb6b-9cc2-494b-802d-46258c16644d","system_id":"levelo_inurba_marseille","lat":43.30303,"lon":5.39208,"is_reserved":false,"is_disabled":false,"rental_uris":{"android":"levelo://app?vid=5031eb6b-9cc2-494b-802d-46258c16644d","ios":"levelo://app?vid=5031eb6b-9cc2-494b-802d-46258c16644d"},"vehicle_type_id":"4","last_reported":1750529605,"current_range_meters":14000,"station_id":"ce4bgkh2rcd13ifvqbk0","pricing_plan_id":"cebpf4jnsgd1na2vs0mg"},{"bike_id":"903a7bc2-af61-4cff-a24e-7733c1689bf6","system_id":"levelo_inurba_marseille","lat":43.29263,"lon":5.38441,"is_reserved":false,"is_disabled":false,"rental_uris":{"android":"levelo://app?vid=903a7bc2-af61-4cff-a24e-7733c1689bf6","ios":"levelo://app?vid=903a7bc2-af61-4cff-a24e-7733c1689bf6"},"vehicle_type_id":"4","last_reported":1750529605,"current_range_meters":14000,"station_id":"ce4bh692rcd13ifvqea0","pricing_plan_id":"cebpf4jnsgd1na2vs0mg"},{"bike_id":"132ccc2c-a654-4d2c-a236-ed2137055904","system_id":"levelo_inurba_marseille","lat":43.26213,"lon":5.37443,"is_reserved":false,"is_disabled":false,"rental_uris":{"android":"levelo://app?vid=132ccc2c-a654-4d2c-a236-ed2137055904","ios":"levelo://app?vid=132ccc2c-a654-4d2c-a236-ed2137055904"},"vehicle_type_id":"4","last_reported":1750529605,"current_range_meters":14000,"station_id":"ce4bhgp2rcd13ifvqfc0","pricing_plan_id":"cebpf4jnsgd1na2vs0mg"},{"bike_id":"d7553263-b470-4ddb-bd46-f0c644267fa8","system_id":"levelo_inurba_marseille","lat":43.26216,"lon":5.37438,"is_reserved":false,"is_disabled":false,"rental_uris":{"android":"levelo://app?vid=d7553263-b470-4ddb-bd46-f0c644267fa8","ios":"levelo://app?vid=d7553263-b470-4ddb-bd46-f0c644267fa8"},"vehicle_type_id":"4","last_reported":1750529605,"current_range_meters":14000,"station_id":"ce4bhgp2rcd13ifvqfc0","pricing_plan_id":"cebpf4jnsgd1na2vs0mg"},{"bike_id":"9a8de4f3-8323-4654-a5ab-1d863263f174","system_id":"levelo_inurba_marseille","lat":43.26188,"lon":5.37456,"is_reserved":false,"is_disabled":false,"rental_uris":{"android":"levelo://app?vid=9a8de4f3-8323-4654-a5ab-1d863263f174","ios":"levelo://app?vid=9a8de4f3-8323-4654-a5ab-1d863263f174"},"vehicle_type_id":"4","last_reported":1750529605,"current_range_meters":14000,"station_id":"ce4bhgp2rcd13ifvqfc0","pricing_plan_id":"cebpf4jnsgd1na2vs0mg"},{"bike_id":"235f2c04-d2f8-4d5c-a247-d287f1a2a90f","system_id":"levelo_inurba_marseille","lat":43.2551,"lon":5.37679,"is_reserved":false,"is_disabled":false,"rental_uris":{"android":"levelo://app?vid=235f2c04-d2f8-4d5c-a247-d287f1a2a90f","ios":"levelo://app?vid=235f2c04-d2f8-4d5c-a247-d287f1a2a90f"},"vehicle_type_id":"4","last_reported":1750529605,"current_range_meters":14000,"station_id":"ce4bhh12rcd13ifvqff0","pricing_plan_id":"cebpf4jnsgd1na2vs0mg"},{"bike_id":"809ef5aa-63e2-42bb-8c0b-6b40df649b03","system_id":"levelo_inurba_marseille","lat":43.27997,"lon":5.40006,"is_reserved":false,"is_disabled":false,"rental_uris":{"android":"levelo://app?vid=809ef5aa-63e2-42bb-8c0b-6b40df649b03","ios":"levelo://app?vid=809ef5aa-63e2-42bb-8c0b-6b40df649b03"},"vehicle_type_id":"4","last_reported":1750529605,"current_range_meters":14000,"station_id":"ce4bho92rcd13ifvqh4g","pricing_plan_id":"cebpf4jnsgd1na2vs0mg"},{"bike_id":"47ebed95-620d-4ddb-bdef-0c341da1b458","system_id":"levelo_inurba_marseille","lat":43.26955,"lon":5.40261,"is_reserved":false,"is_disabled":false,"rental_uris":{"android":"levelo://app?vid=47ebed95-620d-4ddb-bdef-0c341da1b458","ios":"levelo://app?vid=47ebed95-620d-4ddb-bdef-0c341da1b458"},"vehicle_type_id":"4","last_reported":1750529605,"current_range_meters":14000,"station_id":"cjm6bp8fraef2m0cb0m0","pricing_plan_id":"cebpf4jnsgd1na2vs0mg"},{"bike_id":"5264c55d-6b40-4d98-8e16-1d3d436b01e7","system_id":"levelo_inurba_marseille","lat":43.248075,"lon":5.37457,"is_reserved":false,"is_disabled":false,"rental_uris":{"android":"levelo://app?vid=5264c55d-6b40-4d98-8e16-1d3d436b01e7","ios":"levelo://app?vid=5264c55d-6b40-4d98-8e16-1d3d436b01e7"},"vehicle_type_id":"4","last_reported":1750529605,"current_range_meters":14400,"station_id":"","pricing_plan_id":"cebpf4jnsgd1na2vs0mg"},{"bike_id":"aedde1eb-00a6-440e-9ae8-c45804176ab7","system_id":"levelo_inurba_marseille","lat":43.293052,"lon":5.374462,"is_reserved":false,"is_disabled":false,"rental_uris":{"android":"levelo://app?vid=aedde1eb-00a6-440e-9ae8-c45804176ab7","ios":"levelo://app?vid=aedde1eb-00a6-440e-9ae8-c45804176ab7"},"vehicle_type_id":"4","last_reported":1750529605,"current_range_meters":14400,"station_id":"ce4bgi12rcd13ifvqb70","pricing_plan_id":"cebpf4jnsgd1na2vs0mg"},{"bike_id":"d521bdd5-15c5-445d-8b36-9a7b570f884c","system_id":"levelo_inurba_marseille","lat":43.296006,"lon":5.380809,"is_reserved":false,"is_disabled":false,"rental_uris":{"android":"levelo://app?vid=d521bdd5-15c5-445d-8b36-9a7b570f884c","ios":"levelo://app?vid=d521bdd5-15c5-445d-8b36-9a7b570f884c"},"vehicle_type_id":"4","last_reported":1750529605,"current_range_meters":14400,"station_id":"ce4bgl12rcd13ifvqbo0","pricing_plan_id":"cebpf4jnsgd1na2vs0mg"},{"bike_id":"03e2cf58-5da3-4d23-815e-29639b65b4ea","system_id":"levelo_inurba_marseille","lat":43.30211,"lon":5.39468,"is_reserved":false,"is_disabled":false,"rental_uris":{"android":"levelo://app?vid=03e2cf58-5da3-4d23-815e-29639b65b4ea","ios":"levelo://app?vid=03e2cf58-5da3-4d23-815e-29639b65b4ea"},"vehicle_type_id":"4","last_reported":1750529605,"current_range_meters":14400,"station_id":"ce4bh0p2rcd13ifvqd70","pricing_plan_id":"cebpf4jnsgd1na2vs0mg"},{"bike_id":"f88f66c2-a73e-4c0b-90f9-8ebddb3e3b73","system_id":"levelo_inurba_marseille","lat":43.26206,"lon":5.37429,"is_reserved":false,"is_disabled":false,"rental_uris":{"android":"levelo://app?vid=f88f66c2-a73e-4c0b-90f9-8ebddb3e3b73","ios":"levelo://app?vid=f88f66c2-a73e-4c0b-90f9-8ebddb3e3b73"},"vehicle_type_id":"4","last_reported":1750529605,"current_range_meters":14400,"station_id":"ce4bhgp2rcd13ifvqfc0","pricing_plan_id":"cebpf4jnsgd1na2vs0mg"},{"bike_id":"b08f5dee-fc0c-4ed9-8b8e-0fa481996794","system_id":"levelo_inurba_marseille","lat":43.26211,"lon":5.37448,"is_reserved":false,"is_disabled":false,"rental_uris":{"android":"levelo://app?vid=b08f5dee-fc0c-4ed9-8b8e-0fa481996794","ios":"levelo://app?vid=b08f5dee-fc0c-4ed9-8b8e-0fa481996794"},"vehicle_type_id":"4","last_reported":1750529605,"current_range_meters":14400,"station_id":"ce4bhgp2rcd13ifvqfc0","pricing_plan_id":"cebpf4jnsgd1na2vs0mg"},{"bike_id":"13377482-91eb-447b-a7f4-c03fda220035","system_id":"levelo_inurba_marseille","lat":43.26195,"lon":5.37454,"is_reserved":false,"is_disabled":false,"rental_uris":{"android":"levelo://app?vid=13377482-91eb-447b-a7f4-c03fda220035","ios":"levelo://app?vid=13377482-91eb-447b-a7f4-c03fda220035"},"vehicle_type_id":"4","last_reported":1750529605,"current_range_meters":14800,"station_id":"ce4bhgp2rcd13ifvqfc0","pricing_plan_id":"cebpf4jnsgd1na2vs0mg"},{"bike_id":"05a7790f-8506-4822-a71c-618989b1a8f7","system_id":"levelo_inurba_marseille","lat":43.29543,"lon":5.38545,"is_reserved":false,"is_disabled":false,"rental_uris":{"android":"levelo://app?vid=05a7790f-8506-4822-a71c-618989b1a8f7","ios":"levelo://app?vid=05a7790f-8506-4822-a71c-618989b1a8f7"},"vehicle_type_id":"4","last_reported":1750529605,"current_range_meters":15200,"station_id":"ce4bgih2rcd13ifvqba0","pricing_plan_id":"cebpf4jnsgd1na2vs0mg"},{"bike_id":"562c525e-da28-45b6-b9a0-97aac8bca779","system_id":"levelo_inurba_marseille","lat":43.295316,"lon":5.385443,"is_reserved":false,"is_disabled":false,"rental_uris":{"android":"levelo://app?vid=562c525e-da28-45b6-b9a0-97aac8bca779","ios":"levelo://app?vid=562c525e-da28-45b6-b9a0-97aac8bca779"},"vehicle_type_id":"4","last_reported":1750529605,"current_range_meters":15200,"station_id":"ce4bgih2rcd13ifvqba0","pricing_plan_id":"cebpf4jnsgd1na2vs0mg"},{"bike_id":"d059b231-54bd-4007-9fb7-fa1e56ccadfd","system_id":"levelo_inurba_marseille","lat":43.29604,"lon":5.38101,"is_reserved":false,"is_disabled":false,"rental_uris":{"android":"levelo://app?vid=d059b231-54bd-4007-9fb7-fa1e56ccadfd","ios":"levelo://app?vid=d059b231-54bd-4007-9fb7-fa1e56ccadfd"},"vehicle_type_id":"4","last_reported":1750529605,"current_range_meters":15200,"station_id":"ce4bgl12rcd13ifvqbo0","pricing_plan_id":"cebpf4jnsgd1na2vs0mg"},{"bike_id":"9d13bbdc-a7cd-4154-b762-98f90a29dfcc","system_id":"levelo_inurba_marseille","lat":43.28571,"lon":5.395,"is_reserved":false,"is_disabled":false,"rental_uris":{"android":"levelo://app?vid=9d13bbdc-a7cd-4154-b762-98f90a29dfcc","ios":"levelo://app?vid=9d13bbdc-a7cd-4154-b762-98f90a29dfcc"},"vehicle_type_id":"4","last_reported":1750529605,"current_range_meters":15200,"station_id":"ce4bh292rcd13ifvqdg0","pricing_plan_id":"cebpf4jnsgd1na2vs0mg"},{"bike_id":"a8a48d77-37b5-4731-a3ca-805b6d175792","system_id":"levelo_inurba_marseille","lat":43.28156,"lon":5.42643,"is_reserved":false,"is_disabled":false,"rental_uris":{"android":"levelo://app?vid=a8a48d77-37b5-4731-a3ca-805b6d175792","ios":"levelo://app?vid=a8a48d77-37b5-4731-a3ca-805b6d175792"},"vehicle_type_id":"4","last_reported":1750529605,"current_range_meters":15200,"station_id":"ce4bhnh2rcd13ifvqgug","pricing_plan_id":"cebpf4jnsgd1na2vs0mg"},{"bike_id":"db76ccd8-7907-4d3d-8ebd-ea0cdadbca52","system_id":"levelo_inurba_marseille","lat":43.27273,"lon":5.39165,"is_reserved":false,"is_disabled":false,"rental_uris":{"android":"levelo://app?vid=db76ccd8-7907-4d3d-8ebd-ea0cdadbca52","ios":"levelo://app?vid=db76ccd8-7907-4d3d-8ebd-ea0cdadbca52"},"vehicle_type_id":"4","last_reported":1750529605,"current_range_meters":16000,"station_id":"","pricing_plan_id":"cebpf4jnsgd1na2vs0mg"},{"bike_id":"32ce7720-880c-469d-8048-027c8631c176","system_id":"levelo_inurba_marseille","lat":43.25505,"lon":5.37658,"is_reserved":false,"is_disabled":false,"rental_uris":{"android":"levelo://app?vid=32ce7720-880c-469d-8048-027c8631c176","ios":"levelo://app?vid=32ce7720-880c-469d-8048-027c8631c176"},"vehicle_type_id":"4","last_reported":1750529605,"current_range_meters":16000,"station_id":"ce4bhh12rcd13ifvqff0","pricing_plan_id":"cebpf4jnsgd1na2vs0mg"},{"bike_id":"ea62ee86-cfef-471c-bb1d-87f1bd6b2360","system_id":"levelo_inurba_marseille","lat":43.307991,"lon":5.435279,"is_reserved":false,"is_disabled":false,"rental_uris":{"android":"levelo://app?vid=ea62ee86-cfef-471c-bb1d-87f1bd6b2360","ios":"levelo://app?vid=ea62ee86-cfef-471c-bb1d-87f1bd6b2360"},"vehicle_type_id":"4","last_reported":1750529605,"current_range_meters":16000,"station_id":"ce4bhph2rcd13ifvqheg","pricing_plan_id":"cebpf4jnsgd1na2vs0mg"},{"bike_id":"7c3434e7-ecd7-4565-9a0f-952b018128a9","system_id":"levelo_inurba_marseille","lat":43.21194,"lon":5.35077,"is_reserved":false,"is_disabled":false,"rental_uris":{"android":"levelo://app?vid=7c3434e7-ecd7-4565-9a0f-952b018128a9","ios":"levelo://app?vid=7c3434e7-ecd7-4565-9a0f-952b018128a9"},"vehicle_type_id":"4","last_reported":1750529605,"current_range_meters":16000,"station_id":"st_cvj6sg6p6f1abm77japg","pricing_plan_id":"cebpf4jnsgd1na2vs0mg"},{"bike_id":"ffbb0c22-3f4e-4cdb-a0e5-79e3b9f3e1a2","system_id":"levelo_inurba_marseille","lat":43.33769,"lon":5.37469,"is_reserved":false,"is_disabled":false,"rental_uris":{"android":"levelo://app?vid=ffbb0c22-3f4e-4cdb-a0e5-79e3b9f3e1a2","ios":"levelo://app?vid=ffbb0c22-3f4e-4cdb-a0e5-79e3b9f3e1a2"},"vehicle_type_id":"4","last_reported":1750529605,"current_range_meters":16400,"station_id":"","pricing_plan_id":"cebpf4jnsgd1na2vs0mg"},{"bike_id":"3ffb63a2-45b1-4aea-bdb5-40a873b26ca9","system_id":"levelo_inurba_marseille","lat":43.295395,"lon":5.385493,"is_reserved":false,"is_disabled":false,"rental_uris":{"android":"levelo://app?vid=3ffb63a2-45b1-4aea-bdb5-40a873b26ca9","ios":"levelo://app?vid=3ffb63a2-45b1-4aea-bdb5-40a873b26ca9"},"vehicle_type_id":"4","last_reported":1750529605,"current_range_meters":16400,"station_id":"ce4bgih2rcd13ifvqba0","pricing_plan_id":"cebpf4jnsgd1na2vs0mg"},{"bike_id":"ebcf0875-dfeb-4040-8868-fa2dafb48cca","system_id":"levelo_inurba_marseille","lat":43.29785,"lon":5.38104,"is_reserved":false,"is_disabled":false,"rental_uris":{"android":"levelo://app?vid=ebcf0875-dfeb-4040-8868-fa2dafb48cca","ios":"levelo://app?vid=ebcf0875-dfeb-4040-8868-fa2dafb48cca"},"vehicle_type_id":"4","last_reported":1750529605,"current_range_meters":16400,"station_id":"ce4bgip2rcd13ifvqbb0","pricing_plan_id":"cebpf4jnsgd1na2vs0mg"},{"bike_id":"da3b539f-6219-477b-aa77-292de60991cf","system_id":"levelo_inurba_marseille","lat":43.29257,"lon":5.3844,"is_reserved":false,"is_disabled":false,"rental_uris":{"android":"levelo://app?vid=da3b539f-6219-477b-aa77-292de60991cf","ios":"levelo://app?vid=da3b539f-6219-477b-aa77-292de60991cf"},"vehicle_type_id":"4","last_reported":1750529605,"current_range_meters":16400,"station_id":"ce4bh692rcd13ifvqea0","pricing_plan_id":"cebpf4jnsgd1na2vs0mg"},{"bike_id":"a5398043-7aae-44c8-9b88-8fbe6e3477ec","system_id":"levelo_inurba_marseille","lat":43.26214,"lon":5.37439,"is_reserved":false,"is_disabled":false,"rental_uris":{"android":"levelo://app?vid=a5398043-7aae-44c8-9b88-8fbe6e3477ec","ios":"levelo://app?vid=a5398043-7aae-44c8-9b88-8fbe6e3477ec"},"vehicle_type_id":"4","last_reported":1750529605,"current_range_meters":16400,"station_id":"ce4bhgp2rcd13ifvqfc0","pricing_plan_id":"cebpf4jnsgd1na2vs0mg"},{"bike_id":"8b49680a-49fe-4d51-b436-29076fe9b0ee","system_id":"levelo_inurba_marseille","lat":43.26202,"lon":5.37449,"is_reserved":false,"is_disabled":false,"rental_uris":{"android":"levelo://app?vid=8b49680a-49fe-4d51-b436-29076fe9b0ee","ios":"levelo://app?vid=8b49680a-49fe-4d51-b436-29076fe9b0ee"},"vehicle_type_id":"4","last_reported":1750529605,"current_range_meters":16400,"station_id":"ce4bhgp2rcd13ifvqfc0","pricing_plan_id":"cebpf4jnsgd1na2vs0mg"},{"bike_id":"4d80d21e-3dc9-4004-a3c0-eb7b371a8ccf","system_id":"levelo_inurba_marseille","lat":43.33039,"lon":5.3934,"is_reserved":false,"is_disabled":false,"rental_uris":{"android":"levelo://app?vid=4d80d21e-3dc9-4004-a3c0-eb7b371a8ccf","ios":"levelo://app?vid=4d80d21e-3dc9-4004-a3c0-eb7b371a8ccf"},"vehicle_type_id":"4","last_reported":1750529605,"current_range_meters":16800,"station_id":"","pricing_plan_id":"cebpf4jnsgd1na2vs0mg"},{"bike_id":"fbb88e1e-457b-4658-9478-0fd7ab554e6b","system_id":"levelo_inurba_marseille","lat":43.29533,"lon":5.38545,"is_reserved":false,"is_disabled":false,"rental_uris":{"android":"levelo://app?vid=fbb88e1e-457b-4658-9478-0fd7ab554e6b","ios":"levelo://app?vid=fbb88e1e-457b-4658-9478-0fd7ab554e6b"},"vehicle_type_id":"4","last_reported":1750529605,"current_range_meters":16800,"station_id":"ce4bgih2rcd13ifvqba0","pricing_plan_id":"cebpf4jnsgd1na2vs0mg"},{"bike_id":"cec49eff-983e-4b9e-bdd4-d795c0c7b2d8","system_id":"levelo_inurba_marseille","lat":43.29966,"lon":5.38507,"is_reserved":false,"is_disabled":false,"rental_uris":{"android":"levelo://app?vid=cec49eff-983e-4b9e-bdd4-d795c0c7b2d8","ios":"levelo://app?vid=cec49eff-983e-4b9e-bdd4-d795c0c7b2d8"},"vehicle_type_id":"4","last_reported":1750529605,"current_range_meters":16800,"station_id":"ce4bgj92rcd13ifvqbd0","pricing_plan_id":"cebpf4jnsgd1na2vs0mg"},{"bike_id":"8508f004-c0c2-4c2a-b590-f229d356df21","system_id":"levelo_inurba_marseille","lat":43.29419,"lon":5.38607,"is_reserved":false,"is_disabled":false,"rental_uris":{"android":"levelo://app?vid=8508f004-c0c2-4c2a-b590-f229d356df21","ios":"levelo://app?vid=8508f004-c0c2-4c2a-b590-f229d356df21"},"vehicle_type_id":"4","last_reported":1750529605,"current_range_meters":16800,"station_id":"ce4bh2h2rcd13ifvqdh0","pricing_plan_id":"cebpf4jnsgd1na2vs0mg"},{"bike_id":"b6dfc812-e07b-4c7e-824d-cba1bb295a99","system_id":"levelo_inurba_marseille","lat":43.29268,"lon":5.38431,"is_reserved":false,"is_disabled":false,"rental_uris":{"android":"levelo://app?vid=b6dfc812-e07b-4c7e-824d-cba1bb295a99","ios":"levelo://app?vid=b6dfc812-e07b-4c7e-824d-cba1bb295a99"},"vehicle_type_id":"4","last_reported":1750529605,"current_range_meters":16800,"station_id":"ce4bh692rcd13ifvqea0","pricing_plan_id":"cebpf4jnsgd1na2vs0mg"},{"bike_id":"22174934-12b8-4eb3-8d3a-c6adcc86bacf","system_id":"levelo_inurba_marseille","lat":43.26186,"lon":5.37452,"is_reserved":false,"is_disabled":false,"rental_uris":{"android":"levelo://app?vid=22174934-12b8-4eb3-8d3a-c6adcc86bacf","ios":"levelo://app?vid=22174934-12b8-4eb3-8d3a-c6adcc86bacf"},"vehicle_type_id":"4","last_reported":1750529605,"current_range_meters":16800,"station_id":"ce4bhgp2rcd13ifvqfc0","pricing_plan_id":"cebpf4jnsgd1na2vs0mg"},{"bike_id":"f9c996cc-0bf5-45c9-b0ec-d0b25f72dfff","system_id":"levelo_inurba_marseille","lat":43.27201,"lon":5.39179,"is_reserved":false,"is_disabled":false,"rental_uris":{"android":"levelo://app?vid=f9c996cc-0bf5-45c9-b0ec-d0b25f72dfff","ios":"levelo://app?vid=f9c996cc-0bf5-45c9-b0ec-d0b25f72dfff"},"vehicle_type_id":"4","last_reported":1750529605,"current_range_meters":16800,"station_id":"ce4bhhp2rcd13ifvqfm0","pricing_plan_id":"cebpf4jnsgd1na2vs0mg"},{"bike_id":"4d4df371-4a07-4078-b66c-0646e04ad4bf","system_id":"levelo_inurba_marseille","lat":43.298981,"lon":5.436584,"is_reserved":false,"is_disabled":false,"rental_uris":{"android":"levelo://app?vid=4d4df371-4a07-4078-b66c-0646e04ad4bf","ios":"levelo://app?vid=4d4df371-4a07-4078-b66c-0646e04ad4bf"},"vehicle_type_id":"4","last_reported":1750529605,"current_range_meters":16800,"station_id":"ce4bhpp2rcd13ifvqhfg","pricing_plan_id":"cebpf4jnsgd1na2vs0mg"},{"bike_id":"90a8e007-0a73-4704-b9a9-9233017dc190","system_id":"levelo_inurba_marseille","lat":43.23063,"lon":5.35491,"is_reserved":false,"is_disabled":false,"rental_uris":{"android":"levelo://app?vid=90a8e007-0a73-4704-b9a9-9233017dc190","ios":"levelo://app?vid=90a8e007-0a73-4704-b9a9-9233017dc190"},"vehicle_type_id":"4","last_reported":1750529605,"current_range_meters":16800,"station_id":"cpo3342slgdg3j2ifvpg","pricing_plan_id":"cebpf4jnsgd1na2vs0mg"},{"bike_id":"e7dbbb8e-521c-402e-8a1e-edd7f7fe8d33","system_id":"levelo_inurba_marseille","lat":43.29549,"lon":5.38525,"is_reserved":false,"is_disabled":false,"rental_uris":{"android":"levelo://app?vid=e7dbbb8e-521c-402e-8a1e-edd7f7fe8d33","ios":"levelo://app?vid=e7dbbb8e-521c-402e-8a1e-edd7f7fe8d33"},"vehicle_type_id":"4","last_reported":1750529605,"current_range_meters":17200,"station_id":"ce4bgih2rcd13ifvqba0","pricing_plan_id":"cebpf4jnsgd1na2vs0mg"},{"bike_id":"fdc7c028-34e4-4e60-949b-c755f77dfff9","system_id":"levelo_inurba_marseille","lat":43.29844,"lon":5.36271,"is_reserved":false,"is_disabled":false,"rental_uris":{"android":"levelo://app?vid=fdc7c028-34e4-4e60-949b-c755f77dfff9","ios":"levelo://app?vid=fdc7c028-34e4-4e60-949b-c755f77dfff9"},"vehicle_type_id":"4","last_reported":1750529605,"current_range_meters":17200,"station_id":"ce4bgpp2rcd13ifvqc3g","pricing_plan_id":"cebpf4jnsgd1na2vs0mg"},{"bike_id":"f009867c-6667-46db-8b4f-cdb7f766412f","system_id":"levelo_inurba_marseille","lat":43.29262,"lon":5.38444,"is_reserved":false,"is_disabled":false,"rental_uris":{"android":"levelo://app?vid=f009867c-6667-46db-8b4f-cdb7f766412f","ios":"levelo://app?vid=f009867c-6667-46db-8b4f-cdb7f766412f"},"vehicle_type_id":"4","last_reported":1750529605,"current_range_meters":17200,"station_id":"ce4bh692rcd13ifvqea0","pricing_plan_id":"cebpf4jnsgd1na2vs0mg"},{"bike_id":"f0fbacbb-6a43-4a05-8cf6-e284ab404964","system_id":"levelo_inurba_marseille","lat":43.262057,"lon":5.374443,"is_reserved":false,"is_disabled":false,"rental_uris":{"android":"levelo://app?vid=f0fbacbb-6a43-4a05-8cf6-e284ab404964","ios":"levelo://app?vid=f0fbacbb-6a43-4a05-8cf6-e284ab404964"},"vehicle_type_id":"4","last_reported":1750529605,"current_range_meters":17200,"station_id":"ce4bhgp2rcd13ifvqfc0","pricing_plan_id":"cebpf4jnsgd1na2vs0mg"},{"bike_id":"862d278e-6c50-44e0-99fd-2576444a456f","system_id":"levelo_inurba_marseille","lat":43.25502,"lon":5.37653,"is_reserved":false,"is_disabled":false,"rental_uris":{"android":"levelo://app?vid=862d278e-6c50-44e0-99fd-2576444a456f","ios":"levelo://app?vid=862d278e-6c50-44e0-99fd-2576444a456f"},"vehicle_type_id":"4","last_reported":1750529605,"current_range_meters":17200,"station_id":"ce4bhh12rcd13ifvqff0","pricing_plan_id":"cebpf4jnsgd1na2vs0mg"},{"bike_id":"474070ff-c6ea-485a-b4dc-eab62b3bd8ff","system_id":"levelo_inurba_marseille","lat":43.31725,"lon":5.42395,"is_reserved":false,"is_disabled":false,"rental_uris":{"android":"levelo://app?vid=474070ff-c6ea-485a-b4dc-eab62b3bd8ff","ios":"levelo://app?vid=474070ff-c6ea-485a-b4dc-eab62b3bd8ff"},"vehicle_type_id":"4","last_reported":1750529605,"current_range_meters":17200,"station_id":"ce4bhp92rcd13ifvqhbg","pricing_plan_id":"cebpf4jnsgd1na2vs0mg"},{"bike_id":"ee6fddf9-6863-4a13-a31b-2f3228223d7e","system_id":"levelo_inurba_marseille","lat":43.2119,"lon":5.35101,"is_reserved":false,"is_disabled":false,"rental_uris":{"android":"levelo://app?vid=ee6fddf9-6863-4a13-a31b-2f3228223d7e","ios":"levelo://app?vid=ee6fddf9-6863-4a13-a31b-2f3228223d7e"},