{"last_updated":1748776045,"ttl":60,"version":"2.2","data":{"bikes":[{"bike_id":"2a3e37a7-b43b-4b42-84e8-d445631044d7","system_id":"levelo_inurba_marseille","lat":43.29807,"lon":5.38109,"is_reserved":false,"is_disabled":false,"rental_uris":{"android":"levelo://app?vid=2a3e37a7-b43b-4b42-84e8-d445631044d7","ios":"levelo://app?vid=2a3e37a7-b43b-4b42-84e8-d445631044d7"},"vehicle_type_id":"4","last_reported":1748776046,"current_range_meters":2800,"station_id":"ce4bgip2rcd13ifvqbb0","pricing_plan_id":"cebpf4jnsgd1na2vs0mg"},{"bike_id":"2374ba62-3d11-4dd3-be35-8e550fbfd162","system_id":"levelo_inurba_marseille","lat":43.28863,"lon":5.35824,"is_reserved":false,"is_disabled":false,"rental_uris":{"android":"levelo://app?vid=2374ba62-3d11-4dd3-be35-8e550fbfd162","ios":"levelo://app?vid=2374ba62-3d11-4dd3-be35-8e550fbfd162"},"vehicle_type_id":"4","last_reported":1748776046,"current_range_meters":2800,"station_id":"ce4bhb12rcd13ifvqem0","pricing_plan_id":"cebpf4jnsgd1na2vs0mg"},{"bike_id":"c29b34f4-cff8-4f00-b66f-dcd5649a7131","system_id":"levelo_inurba_marseille","lat":43.21198,"lon":5.35057,"is_reserved":false,"is_disabled":false,"rental_uris":{"android":"levelo://app?vid=c29b34f4-cff8-4f00-b66f-dcd5649a7131","ios":"levelo://app?vid=c29b34f4-cff8-4f00-b66f-dcd5649a7131"},"vehicle_type_id":"4","last_reported":1748776046,"current_range_meters":2800,"station_id":"","pricing_plan_id":"cebpf4jnsgd1na2vs0mg"},{"bike_id":"2c732044-8fff-438d-8a88-24e59dcb5faa","system_id":"levelo_inurba_marseille","lat":43.323647,"lon":5.388817,"is_reserved":false,"is_disabled":false,"rental_uris":{"android":"levelo://app?vid=2c732044-8fff-438d-8a88-24e59dcb5faa","ios":"levelo://app?vid=2c732044-8fff-438d-8a88-24e59dcb5faa"},"vehicle_type_id":"4","last_reported":1748776046,"current_range_meters":3200,"station_id":"ce4bhqp2rcd13ifvqhog","pricing_plan_id":"cebpf4jnsgd1na2vs0mg"},{"bike_id":"ef152c6c-fa5d-4969-88c5-1429a81ccd7a","system_id":"levelo_inurba_marseille","lat":43.31768,"lon":5.39014,"is_reserved":false,"is_disabled":false,"rental_uris":{"android":"levelo://app?vid=ef152c6c-fa5d-4969-88c5-1429a81ccd7a","ios":"levelo://app?vid=ef152c6c-fa5d-4969-88c5-1429a81ccd7a"},"vehicle_type_id":"4","last_reported":1748776046,"current_range_meters":3200,"station_id":"ce4bhqp2rcd13ifvqhng","pricing_plan_id":"cebpf4jnsgd1na2vs0mg"},{"bike_id":"c2c0c293-ae72-4560-8bb3-ac18688ee339","system_id":"levelo_inurba_marseille","lat":43.30906,"lon":5.40153,"is_reserved":false,"is_disabled":false,"rental_uris":{"android":"levelo://app?vid=c2c0c293-ae72-4560-8bb3-ac18688ee339","ios":"levelo://app?vid=c2c0c293-ae72-4560-8bb3-ac18688ee339"},"vehicle_type_id":"4","last_reported":1748776046,"current_range_meters":3200,"station_id":"ce4bgvp2rcd13ifvqct0","pricing_plan_id":"cebpf4jnsgd1na2vs0mg"},{"bike_id":"a7a27803-7689-4a70-814b-cb031b68e04b","system_id":"levelo_inurba_marseille","lat":43.25502,"lon":5.37645,"is_reserved":false,"is_disabled":false,"rental_uris":{"android":"levelo://app?vid=a7a27803-7689-4a70-814b-cb031b68e04b","ios":"levelo://app?vid=a7a27803-7689-4a70-814b-cb031b68e04b"},"vehicle_type_id":"4","last_reported":1748776046,"current_range_meters":3200,"station_id":"ce4bhh12rcd13ifvqff0","pricing_plan_id":"cebpf4jnsgd1na2vs0mg"},{"bike_id":"1ed59268-a36d-4b19-87ff-763bd5e25f86","system_id":"levelo_inurba_marseille","lat":43.255046,"lon":5.37648,"is_reserved":false,"is_disabled":false,"rental_uris":{"android":"levelo://app?vid=1ed59268-a36d-4b19-87ff-763bd5e25f86","ios":"levelo://app?vid=1ed59268-a36d-4b19-87ff-763bd5e25f86"},"vehicle_type_id":"4","last_reported":1748776046,"current_range_meters":3600,"station_id":"ce4bhh12rcd13ifvqff0","pricing_plan_id":"cebpf4jnsgd1na2vs0mg"},{"bike_id":"7744b0bc-9255-402e-8dd0-6b3090927fb9","system_id":"levelo_inurba_marseille","lat":43.269569,"lon":5.402698,"is_reserved":false,"is_disabled":true,"rental_uris":{"android":"levelo://app?vid=7744b0bc-9255-402e-8dd0-6b3090927fb9","ios":"levelo://app?vid=7744b0bc-9255-402e-8dd0-6b3090927fb9"},"vehicle_type_id":"4","last_reported":1748776046,"current_range_meters":3600,"station_id":"cjm6bp8fraef2m0cb0m0","pricing_plan_id":"cebpf4jnsgd1na2vs0mg"},{"bike_id":"bcd74814-190e-494b-989a-66bd5b3478e0","system_id":"levelo_inurba_marseille","lat":43.23317,"lon":5.3688,"is_reserved":false,"is_disabled":false,"rental_uris":{"android":"levelo://app?vid=bcd74814-190e-494b-989a-66bd5b3478e0","ios":"levelo://app?vid=bcd74814-190e-494b-989a-66bd5b3478e0"},"vehicle_type_id":"4","last_reported":1748776046,"current_range_meters":3600,"station_id":"","pricing_plan_id":"cebpf4jnsgd1na2vs0mg"},{"bike_id":"b35d2e70-c221-4224-ae31-8c6795a7d24f","system_id":"levelo_inurba_marseille","lat":43.31493,"lon":5.37295,"is_reserved":false,"is_disabled":false,"rental_uris":{"android":"levelo://app?vid=b35d2e70-c221-4224-ae31-8c6795a7d24f","ios":"levelo://app?vid=b35d2e70-c221-4224-ae31-8c6795a7d24f"},"vehicle_type_id":"4","last_reported":1748776046,"current_range_meters":4000,"station_id":"ce4bgt12rcd13ifvqcd0","pricing_plan_id":"cebpf4jnsgd1na2vs0mg"},{"bike_id":"ea1f019a-11dc-43d8-9095-9a5b356bf87d","system_id":"levelo_inurba_marseille","lat":43.26219,"lon":5.40439,"is_reserved":false,"is_disabled":false,"rental_uris":{"android":"levelo://app?vid=ea1f019a-11dc-43d8-9095-9a5b356bf87d","ios":"levelo://app?vid=ea1f019a-11dc-43d8-9095-9a5b356bf87d"},"vehicle_type_id":"4","last_reported":1748776046,"current_range_meters":4000,"station_id":"ce4bhmh2rcd13ifvqgmg","pricing_plan_id":"cebpf4jnsgd1na2vs0mg"},{"bike_id":"f2a9d16c-47c0-4612-8bf1-88597c5b6853","system_id":"levelo_inurba_marseille","lat":43.299024,"lon":5.375089,"is_reserved":false,"is_disabled":false,"rental_uris":{"android":"levelo://app?vid=f2a9d16c-47c0-4612-8bf1-88597c5b6853","ios":"levelo://app?vid=f2a9d16c-47c0-4612-8bf1-88597c5b6853"},"vehicle_type_id":"4","last_reported":1748776046,"current_range_meters":4000,"station_id":"ce4bgjh2rcd13ifvqbg0","pricing_plan_id":"cebpf4jnsgd1na2vs0mg"},{"bike_id":"780110d7-56b0-46f4-9c98-95dc54740b50","system_id":"levelo_inurba_marseille","lat":43.30935,"lon":5.40127,"is_reserved":false,"is_disabled":true,"rental_uris":{"android":"levelo://app?vid=780110d7-56b0-46f4-9c98-95dc54740b50","ios":"levelo://app?vid=780110d7-56b0-46f4-9c98-95dc54740b50"},"vehicle_type_id":"4","last_reported":1748776046,"current_range_meters":4400,"station_id":"ce4bgvp2rcd13ifvqct0","pricing_plan_id":"cebpf4jnsgd1na2vs0mg"},{"bike_id":"11f94997-18a9-4bf0-ab9a-f9ad878abd53","system_id":"levelo_inurba_marseille","lat":43.29587,"lon":5.36733,"is_reserved":false,"is_disabled":false,"rental_uris":{"android":"levelo://app?vid=11f94997-18a9-4bf0-ab9a-f9ad878abd53","ios":"levelo://app?vid=11f94997-18a9-4bf0-ab9a-f9ad878abd53"},"vehicle_type_id":"4","last_reported":1748776046,"current_range_meters":4400,"station_id":"ce4bgph2rcd13ifvqc2g","pricing_plan_id":"cebpf4jnsgd1na2vs0mg"},{"bike_id":"c47a6416-796e-4ee4-a3f8-f15537702354","system_id":"levelo_inurba_marseille","lat":43.28619,"lon":5.35109,"is_reserved":false,"is_disabled":false,"rental_uris":{"android":"levelo://app?vid=c47a6416-796e-4ee4-a3f8-f15537702354","ios":"levelo://app?vid=c47a6416-796e-4ee4-a3f8-f15537702354"},"vehicle_type_id":"4","last_reported":1748776046,"current_range_meters":4400,"station_id":"ce4bhch2rcd13ifvqeug","pricing_plan_id":"cebpf4jnsgd1na2vs0mg"},{"bike_id":"e7734b93-af1e-4f8f-9240-788afe3133cb","system_id":"levelo_inurba_marseille","lat":43.25097,"lon":5.40327,"is_reserved":false,"is_disabled":false,"rental_uris":{"android":"levelo://app?vid=e7734b93-af1e-4f8f-9240-788afe3133cb","ios":"levelo://app?vid=e7734b93-af1e-4f8f-9240-788afe3133cb"},"vehicle_type_id":"4","last_reported":1748776046,"current_range_meters":4400,"station_id":"ce4bhlh2rcd13ifvqgig","pricing_plan_id":"cebpf4jnsgd1na2vs0mg"},{"bike_id":"12a0baac-0b13-468e-a2b2-bdc7511afcaa","system_id":"levelo_inurba_marseille","lat":43.27062,"lon":5.40243,"is_reserved":false,"is_disabled":false,"rental_uris":{"android":"levelo://app?vid=12a0baac-0b13-468e-a2b2-bdc7511afcaa","ios":"levelo://app?vid=12a0baac-0b13-468e-a2b2-bdc7511afcaa"},"vehicle_type_id":"4","last_reported":1748776046,"current_range_meters":4800,"station_id":"ce4bhk92rcd13ifvqgc0","pricing_plan_id":"cebpf4jnsgd1na2vs0mg"},{"bike_id":"c2060c13-f4e1-4af9-b3fd-a07c2420d8fc","system_id":"levelo_inurba_marseille","lat":43.32484,"lon":5.36562,"is_reserved":false,"is_disabled":false,"rental_uris":{"android":"levelo://app?vid=c2060c13-f4e1-4af9-b3fd-a07c2420d8fc","ios":"levelo://app?vid=c2060c13-f4e1-4af9-b3fd-a07c2420d8fc"},"vehicle_type_id":"4","last_reported":1748776046,"current_range_meters":4400,"station_id":"ce4bhs12rcd13ifvqhvg","pricing_plan_id":"cebpf4jnsgd1na2vs0mg"},{"bike_id":"2a3251b9-f92b-44cb-9281-bfa58e538996","system_id":"levelo_inurba_marseille","lat":43.314893,"lon":5.373003,"is_reserved":false,"is_disabled":false,"rental_uris":{"android":"levelo://app?vid=2a3251b9-f92b-44cb-9281-bfa58e538996","ios":"levelo://app?vid=2a3251b9-f92b-44cb-9281-bfa58e538996"},"vehicle_type_id":"4","last_reported":1748776046,"current_range_meters":5600,"station_id":"ce4bgt12rcd13ifvqcd0","pricing_plan_id":"cebpf4jnsgd1na2vs0mg"},{"bike_id":"e4c599e2-e5cb-4c31-b902-57e85d9e517c","system_id":"levelo_inurba_marseille","lat":43.29079,"lon":5.37153,"is_reserved":false,"is_disabled":false,"rental_uris":{"android":"levelo://app?vid=e4c599e2-e5cb-4c31-b902-57e85d9e517c","ios":"levelo://app?vid=e4c599e2-e5cb-4c31-b902-57e85d9e517c"},"vehicle_type_id":"4","last_reported":1748776046,"current_range_meters":5600,"station_id":"ce4bh5p2rcd13ifvqe4g","pricing_plan_id":"cebpf4jnsgd1na2vs0mg"},{"bike_id":"19b67f28-9a92-4281-9ee0-253fd546496e","system_id":"levelo_inurba_marseille","lat":43.25091,"lon":5.3952,"is_reserved":false,"is_disabled":false,"rental_uris":{"android":"levelo://app?vid=19b67f28-9a92-4281-9ee0-253fd546496e","ios":"levelo://app?vid=19b67f28-9a92-4281-9ee0-253fd546496e"},"vehicle_type_id":"4","last_reported":1748776046,"current_range_meters":6000,"station_id":"ce4bhm12rcd13ifvqgkg","pricing_plan_id":"cebpf4jnsgd1na2vs0mg"},{"bike_id":"b5f68c24-93e5-4ccf-94d7-3bf2c185517a","system_id":"levelo_inurba_marseille","lat":43.24075,"lon":5.37738,"is_reserved":false,"is_disabled":false,"rental_uris":{"android":"levelo://app?vid=b5f68c24-93e5-4ccf-94d7-3bf2c185517a","ios":"levelo://app?vid=b5f68c24-93e5-4ccf-94d7-3bf2c185517a"},"vehicle_type_id":"4","last_reported":1748776046,"current_range_meters":6000,"station_id":"ce4bhnp2rcd13ifvqgvg","pricing_plan_id":"cebpf4jnsgd1na2vs0mg"},{"bike_id":"0c01818c-777d-4bcb-bdcf-beb5aeccab16","system_id":"levelo_inurba_marseille","lat":43.27378,"lon":5.36253,"is_reserved":false,"is_disabled":false,"rental_uris":{"android":"levelo://app?vid=0c01818c-777d-4bcb-bdcf-beb5aeccab16","ios":"levelo://app?vid=0c01818c-777d-4bcb-bdcf-beb5aeccab16"},"vehicle_type_id":"4","last_reported":1748776046,"current_range_meters":6000,"station_id":"ce4bhbh2rcd13ifvqeo0","pricing_plan_id":"cebpf4jnsgd1na2vs0mg"},{"bike_id":"3fd855b2-a157-4ce4-896b-5eeb41e3d07a","system_id":"levelo_inurba_marseille","lat":43.29196,"lon":5.35804,"is_reserved":false,"is_disabled":false,"rental_uris":{"android":"levelo://app?vid=3fd855b2-a157-4ce4-896b-5eeb41e3d07a","ios":"levelo://app?vid=3fd855b2-a157-4ce4-896b-5eeb41e3d07a"},"vehicle_type_id":"4","last_reported":1748776046,"current_range_meters":6000,"station_id":"ce4bhb12rcd13ifvqel0","pricing_plan_id":"cebpf4jnsgd1na2vs0mg"},{"bike_id":"70f70429-b3a4-4bd4-900e-7624fcef71b2","system_id":"levelo_inurba_marseille","lat":43.31506,"lon":5.38872,"is_reserved":false,"is_disabled":false,"rental_uris":{"android":"levelo://app?vid=70f70429-b3a4-4bd4-900e-7624fcef71b2","ios":"levelo://app?vid=70f70429-b3a4-4bd4-900e-7624fcef71b2"},"vehicle_type_id":"4","last_reported":1748776046,"current_range_meters":6400,"station_id":"","pricing_plan_id":"cebpf4jnsgd1na2vs0mg"},{"bike_id":"7ddb5d40-775a-484a-93a2-1c89510f7aad","system_id":"levelo_inurba_marseille","lat":43.26783,"lon":5.39412,"is_reserved":false,"is_disabled":false,"rental_uris":{"android":"levelo://app?vid=7ddb5d40-775a-484a-93a2-1c89510f7aad","ios":"levelo://app?vid=7ddb5d40-775a-484a-93a2-1c89510f7aad"},"vehicle_type_id":"4","last_reported":1748776046,"current_range_meters":6400,"station_id":"ce4bhh12rcd13ifvqfg0","pricing_plan_id":"cebpf4jnsgd1na2vs0mg"},{"bike_id":"8bdca9a8-bf42-4837-a353-cd2b0b67d55e","system_id":"levelo_inurba_marseille","lat":43.28412,"lon":5.37511,"is_reserved":false,"is_disabled":false,"rental_uris":{"android":"levelo://app?vid=8bdca9a8-bf42-4837-a353-cd2b0b67d55e","ios":"levelo://app?vid=8bdca9a8-bf42-4837-a353-cd2b0b67d55e"},"vehicle_type_id":"4","last_reported":1748776046,"current_range_meters":6400,"station_id":"ce4bh412rcd13ifvqds0","pricing_plan_id":"cebpf4jnsgd1na2vs0mg"},{"bike_id":"2b201de7-06ee-44b6-9c85-dda11376754f","system_id":"levelo_inurba_marseille","lat":43.24349,"lon":5.38015,"is_reserved":false,"is_disabled":false,"rental_uris":{"android":"levelo://app?vid=2b201de7-06ee-44b6-9c85-dda11376754f","ios":"levelo://app?vid=2b201de7-06ee-44b6-9c85-dda11376754f"},"vehicle_type_id":"4","last_reported":1748776046,"current_range_meters":6400,"station_id":"","pricing_plan_id":"cebpf4jnsgd1na2vs0mg"},{"bike_id":"3a085488-4aae-4226-a279-89bb81fa55fc","system_id":"levelo_inurba_marseille","lat":43.2706,"lon":5.40254,"is_reserved":false,"is_disabled":false,"rental_uris":{"android":"levelo://app?vid=3a085488-4aae-4226-a279-89bb81fa55fc","ios":"levelo://app?vid=3a085488-4aae-4226-a279-89bb81fa55fc"},"vehicle_type_id":"4","last_reported":1748776046,"current_range_meters":6800,"station_id":"ce4bhk92rcd13ifvqgc0","pricing_plan_id":"cebpf4jnsgd1na2vs0mg"},{"bike_id":"742ea022-7ec3-403b-ab76-b027020c7592","system_id":"levelo_inurba_marseille","lat":43.3225,"lon":5.38295,"is_reserved":false,"is_disabled":false,"rental_uris":{"android":"levelo://app?vid=742ea022-7ec3-403b-ab76-b027020c7592","ios":"levelo://app?vid=742ea022-7ec3-403b-ab76-b027020c7592"},"vehicle_type_id":"4","last_reported":1748776046,"current_range_meters":6800,"station_id":"ce4bhr12rcd13ifvqhqg","pricing_plan_id":"cebpf4jnsgd1na2vs0mg"},{"bike_id":"2e5d65dc-7b75-4e49-9e17-db185fe11321","system_id":"levelo_inurba_marseille","lat":43.31208,"lon":5.36842,"is_reserved":false,"is_disabled":true,"rental_uris":{"android":"levelo://app?vid=2e5d65dc-7b75-4e49-9e17-db185fe11321","ios":"levelo://app?vid=2e5d65dc-7b75-4e49-9e17-db185fe11321"},"vehicle_type_id":"4","last_reported":1748776046,"current_range_meters":6800,"station_id":"ce4bgl92rcd13ifvqbq0","pricing_plan_id":"cebpf4jnsgd1na2vs0mg"},{"bike_id":"8d48119e-760e-4c00-b401-59af0a322afa","system_id":"levelo_inurba_marseille","lat":43.256599,"lon":5.408493,"is_reserved":false,"is_disabled":false,"rental_uris":{"android":"levelo://app?vid=8d48119e-760e-4c00-b401-59af0a322afa","ios":"levelo://app?vid=8d48119e-760e-4c00-b401-59af0a322afa"},"vehicle_type_id":"4","last_reported":1748776046,"current_range_meters":6800,"station_id":"","pricing_plan_id":"cebpf4jnsgd1na2vs0mg"},{"bike_id":"c25a717c-2e3e-4f40-ac35-ffc9e9bd5efd","system_id":"levelo_inurba_marseille","lat":43.24173,"lon":5.36362,"is_reserved":false,"is_disabled":false,"rental_uris":{"android":"levelo://app?vid=c25a717c-2e3e-4f40-ac35-ffc9e9bd5efd","ios":"levelo://app?vid=c25a717c-2e3e-4f40-ac35-ffc9e9bd5efd"},"vehicle_type_id":"4","last_reported":1748776046,"current_range_meters":6800,"station_id":"cpo36qri1sfpv3e86is0","pricing_plan_id":"cebpf4jnsgd1na2vs0mg"},{"bike_id":"26885ed1-9536-4a61-9763-13e548c8e05e","system_id":"levelo_inurba_marseille","lat":43.28494,"lon":5.38543,"is_reserved":false,"is_disabled":false,"rental_uris":{"android":"levelo://app?vid=26885ed1-9536-4a61-9763-13e548c8e05e","ios":"levelo://app?vid=26885ed1-9536-4a61-9763-13e548c8e05e"},"vehicle_type_id":"4","last_reported":1748776046,"current_range_meters":6800,"station_id":"ce4bh8p2rcd13ifvqeb0","pricing_plan_id":"cebpf4jnsgd1na2vs0mg"},{"bike_id":"0d3bab2f-26cf-41f1-82dd-bb5db963b288","system_id":"levelo_inurba_marseille","lat":43.32542,"lon":5.36483,"is_reserved":false,"is_disabled":true,"rental_uris":{"android":"levelo://app?vid=0d3bab2f-26cf-41f1-82dd-bb5db963b288","ios":"levelo://app?vid=0d3bab2f-26cf-41f1-82dd-bb5db963b288"},"vehicle_type_id":"4","last_reported":1748776046,"current_range_meters":6800,"station_id":"","pricing_plan_id":"cebpf4jnsgd1na2vs0mg"},{"bike_id":"6dbec55b-fee0-4a3a-9ed2-723f9ae1c783","system_id":"levelo_inurba_marseille","lat":43.29893,"lon":5.436495,"is_reserved":false,"is_disabled":true,"rental_uris":{"android":"levelo://app?vid=6dbec55b-fee0-4a3a-9ed2-723f9ae1c783","ios":"levelo://app?vid=6dbec55b-fee0-4a3a-9ed2-723f9ae1c783"},"vehicle_type_id":"4","last_reported":1748776046,"current_range_meters":7200,"station_id":"ce4bhpp2rcd13ifvqhfg","pricing_plan_id":"cebpf4jnsgd1na2vs0mg"},{"bike_id":"0622324e-8b4f-4afb-943e-50d75c5c5ded","system_id":"levelo_inurba_marseille","lat":43.23067,"lon":5.35487,"is_reserved":false,"is_disabled":false,"rental_uris":{"android":"levelo://app?vid=0622324e-8b4f-4afb-943e-50d75c5c5ded","ios":"levelo://app?vid=0622324e-8b4f-4afb-943e-50d75c5c5ded"},"vehicle_type_id":"4","last_reported":1748776046,"current_range_meters":7200,"station_id":"cpo3342slgdg3j2ifvpg","pricing_plan_id":"cebpf4jnsgd1na2vs0mg"},{"bike_id":"ef323aa9-256e-4f07-8057-c340cef24f12","system_id":"levelo_inurba_marseille","lat":43.29904,"lon":5.43667,"is_reserved":false,"is_disabled":false,"rental_uris":{"android":"levelo://app?vid=ef323aa9-256e-4f07-8057-c340cef24f12","ios":"levelo://app?vid=ef323aa9-256e-4f07-8057-c340cef24f12"},"vehicle_type_id":"4","last_reported":1748776046,"current_range_meters":7200,"station_id":"ce4bhpp2rcd13ifvqhfg","pricing_plan_id":"cebpf4jnsgd1na2vs0mg"},{"bike_id":"8159ea0f-20d8-4658-a5f5-ec8fd303169b","system_id":"levelo_inurba_marseille","lat":43.25125,"lon":5.40292,"is_reserved":false,"is_disabled":false,"rental_uris":{"android":"levelo://app?vid=8159ea0f-20d8-4658-a5f5-ec8fd303169b","ios":"levelo://app?vid=8159ea0f-20d8-4658-a5f5-ec8fd303169b"},"vehicle_type_id":"4","last_reported":1748776046,"current_range_meters":7200,"station_id":"ce4bhlh2rcd13ifvqgig","pricing_plan_id":"cebpf4jnsgd1na2vs0mg"},{"bike_id":"c663f627-a14e-4063-b0b1-5bbc0999bc43","system_id":"levelo_inurba_marseille","lat":43.31735,"lon":5.40445,"is_reserved":false,"is_disabled":false,"rental_uris":{"android":"levelo://app?vid=c663f627-a14e-4063-b0b1-5bbc0999bc43","ios":"levelo://app?vid=c663f627-a14e-4063-b0b1-5bbc0999bc43"},"vehicle_type_id":"4","last_reported":1748776046,"current_range_meters":7200,"station_id":"","pricing_plan_id":"cebpf4jnsgd1na2vs0mg"},{"bike_id":"ebc4824c-a693-4aaa-963c-9dfc3ce2c0d0","system_id":"levelo_inurba_marseille","lat":43.24811,"lon":5.37451,"is_reserved":false,"is_disabled":false,"rental_uris":{"android":"levelo://app?vid=ebc4824c-a693-4aaa-963c-9dfc3ce2c0d0","ios":"levelo://app?vid=ebc4824c-a693-4aaa-963c-9dfc3ce2c0d0"},"vehicle_type_id":"4","last_reported":1748776046,"current_range_meters":7200,"station_id":"ce4bhgh2rcd13ifvqfb0","pricing_plan_id":"cebpf4jnsgd1na2vs0mg"},{"bike_id":"b20c940d-236e-4529-922f-ae57017c3055","system_id":"levelo_inurba_marseille","lat":43.2979,"lon":5.37102,"is_reserved":false,"is_disabled":false,"rental_uris":{"android":"levelo://app?vid=b20c940d-236e-4529-922f-ae57017c3055","ios":"levelo://app?vid=b20c940d-236e-4529-922f-ae57017c3055"},"vehicle_type_id":"4","last_reported":1748776046,"current_range_meters":7200,"station_id":"ce4bgop2rcd13ifvqc1g","pricing_plan_id":"cebpf4jnsgd1na2vs0mg"},{"bike_id":"8705aff5-c0af-44e7-9a73-da499d636bee","system_id":"levelo_inurba_marseille","lat":43.317637,"lon":5.390091,"is_reserved":false,"is_disabled":false,"rental_uris":{"android":"levelo://app?vid=8705aff5-c0af-44e7-9a73-da499d636bee","ios":"levelo://app?vid=8705aff5-c0af-44e7-9a73-da499d636bee"},"vehicle_type_id":"4","last_reported":1748776046,"current_range_meters":8000,"station_id":"ce4bhqp2rcd13ifvqhng","pricing_plan_id":"cebpf4jnsgd1na2vs0mg"},{"bike_id":"f4e49996-ce0c-42e7-9a15-35b5f4497b3e","system_id":"levelo_inurba_marseille","lat":43.32298,"lon":5.38277,"is_reserved":false,"is_disabled":false,"rental_uris":{"android":"levelo://app?vid=f4e49996-ce0c-42e7-9a15-35b5f4497b3e","ios":"levelo://app?vid=f4e49996-ce0c-42e7-9a15-35b5f4497b3e"},"vehicle_type_id":"4","last_reported":1748776046,"current_range_meters":8000,"station_id":"ce4bhr12rcd13ifvqhqg","pricing_plan_id":"cebpf4jnsgd1na2vs0mg"},{"bike_id":"f252f3c0-a745-43ae-8552-0d3a46b00d5f","system_id":"levelo_inurba_marseille","lat":43.27567,"lon":5.38428,"is_reserved":false,"is_disabled":false,"rental_uris":{"android":"levelo://app?vid=f252f3c0-a745-43ae-8552-0d3a46b00d5f","ios":"levelo://app?vid=f252f3c0-a745-43ae-8552-0d3a46b00d5f"},"vehicle_type_id":"4","last_reported":1748776046,"current_range_meters":8000,"station_id":"ce4bhh92rcd13ifvqfi0","pricing_plan_id":"cebpf4jnsgd1na2vs0mg"},{"bike_id":"91eb2bab-c3cf-49db-b643-1e076e91d0b8","system_id":"levelo_inurba_marseille","lat":43.27068,"lon":5.42266,"is_reserved":false,"is_disabled":false,"rental_uris":{"android":"levelo://app?vid=91eb2bab-c3cf-49db-b643-1e076e91d0b8","ios":"levelo://app?vid=91eb2bab-c3cf-49db-b643-1e076e91d0b8"},"vehicle_type_id":"4","last_reported":1748776046,"current_range_meters":8000,"station_id":"ce4bhk92rcd13ifvqgb0","pricing_plan_id":"cebpf4jnsgd1na2vs0mg"},{"bike_id":"a7a6a556-de50-4467-b93a-62198dcf80e3","system_id":"levelo_inurba_marseille","lat":43.21754,"lon":5.34596,"is_reserved":false,"is_disabled":false,"rental_uris":{"android":"levelo://app?vid=a7a6a556-de50-4467-b93a-62198dcf80e3","ios":"levelo://app?vid=a7a6a556-de50-4467-b93a-62198dcf80e3"},"vehicle_type_id":"4","last_reported":1748776046,"current_range_meters":8000,"station_id":"","pricing_plan_id":"cebpf4jnsgd1na2vs0mg"},{"bike_id":"59ae54bb-ea00-4726-8c0c-f78e033628de","system_id":"levelo_inurba_marseille","lat":43.320116,"lon":5.394646,"is_reserved":false,"is_disabled":false,"rental_uris":{"android":"levelo://app?vid=59ae54bb-ea00-4726-8c0c-f78e033628de","ios":"levelo://app?vid=59ae54bb-ea00-4726-8c0c-f78e033628de"},"vehicle_type_id":"4","last_reported":1748776046,"current_range_meters":8000,"station_id":"","pricing_plan_id":"cebpf4jnsgd1na2vs0mg"},{"bike_id":"8ae16160-9348-492b-9270-6bee880ca5e3","system_id":"levelo_inurba_marseille","lat":43.35986,"lon":5.3235,"is_reserved":false,"is_disabled":false,"rental_uris":{"android":"levelo://app?vid=8ae16160-9348-492b-9270-6bee880ca5e3","ios":"levelo://app?vid=8ae16160-9348-492b-9270-6bee880ca5e3"},"vehicle_type_id":"4","last_reported":1748776046,"current_range_meters":8000,"station_id":"","pricing_plan_id":"cebpf4jnsgd1na2vs0mg"},{"bike_id":"39c30834-140a-4375-850c-22aefa03482a","system_id":"levelo_inurba_marseille","lat":43.25085,"lon":5.4032,"is_reserved":false,"is_disabled":false,"rental_uris":{"android":"levelo://app?vid=39c30834-140a-4375-850c-22aefa03482a","ios":"levelo://app?vid=39c30834-140a-4375-850c-22aefa03482a"},"vehicle_type_id":"4","last_reported":1748776046,"current_range_meters":8000,"station_id":"ce4bhlh2rcd13ifvqgig","pricing_plan_id":"cebpf4jnsgd1na2vs0mg"},{"bike_id":"79a5f6b8-3eb7-4888-b9a1-76e848c5f305","system_id":"levelo_inurba_marseille","lat":43.295161,"lon":5.393891,"is_reserved":false,"is_disabled":true,"rental_uris":{"android":"levelo://app?vid=79a5f6b8-3eb7-4888-b9a1-76e848c5f305","ios":"levelo://app?vid=79a5f6b8-3eb7-4888-b9a1-76e848c5f305"},"vehicle_type_id":"4","last_reported":1748776046,"current_range_meters":8000,"station_id":"ce4bh292rcd13ifvqdf0","pricing_plan_id":"cebpf4jnsgd1na2vs0mg"},{"bike_id":"16956ecc-ed47-44a5-bf64-7ac7c0de85fa","system_id":"levelo_inurba_marseille","lat":43.3157,"lon":5.36909,"is_reserved":false,"is_disabled":false,"rental_uris":{"android":"levelo://app?vid=16956ecc-ed47-44a5-bf64-7ac7c0de85fa","ios":"levelo://app?vid=16956ecc-ed47-44a5-bf64-7ac7c0de85fa"},"vehicle_type_id":"4","last_reported":1748776046,"current_range_meters":8000,"station_id":"","pricing_plan_id":"cebpf4jnsgd1na2vs0mg"},{"bike_id":"1ab0b21c-b8ca-4d09-88ab-da4cb2d2ec46","system_id":"levelo_inurba_marseille","lat":43.23188,"lon":5.39982,"is_reserved":false,"is_disabled":false,"rental_uris":{"android":"levelo://app?vid=1ab0b21c-b8ca-4d09-88ab-da4cb2d2ec46","ios":"levelo://app?vid=1ab0b21c-b8ca-4d09-88ab-da4cb2d2ec46"},"vehicle_type_id":"4","last_reported":1748776046,"current_range_meters":6000,"station_id":"ce4bhn12rcd13ifvqgqg","pricing_plan_id":"cebpf4jnsgd1na2vs0mg"},{"bike_id":"5153daa1-9f0d-448f-9a7d-2510905dcced","system_id":"levelo_inurba_marseille","lat":43.27064,"lon":5.4025,"is_reserved":false,"is_disabled":false,"rental_uris":{"android":"levelo://app?vid=5153daa1-9f0d-448f-9a7d-2510905dcced","ios":"levelo://app?vid=5153daa1-9f0d-448f-9a7d-2510905dcced"},"vehicle_type_id":"4","last_reported":1748776046,"current_range_meters":8400,"station_id":"ce4bhk92rcd13ifvqgc0","pricing_plan_id":"cebpf4jnsgd1na2vs0mg"},{"bike_id":"ad003176-c19d-4b30-bcd8-c5f8c968c6dc","system_id":"levelo_inurba_marseille","lat":43.23966,"lon":5.36621,"is_reserved":false,"is_disabled":false,"rental_uris":{"android":"levelo://app?vid=ad003176-c19d-4b30-bcd8-c5f8c968c6dc","ios":"levelo://app?vid=ad003176-c19d-4b30-bcd8-c5f8c968c6dc"},"vehicle_type_id":"4","last_reported":1748776046,"current_range_meters":8400,"station_id":"ce4bhi12rcd13ifvqfp0","pricing_plan_id":"cebpf4jnsgd1na2vs0mg"},{"bike_id":"eccaeb0a-8525-43d8-8a49-c7dbfd37fc70","system_id":"levelo_inurba_marseille","lat":43.26065,"lon":5.39395,"is_reserved":false,"is_disabled":false,"rental_uris":{"android":"levelo://app?vid=eccaeb0a-8525-43d8-8a49-c7dbfd37fc70","ios":"levelo://app?vid=eccaeb0a-8525-43d8-8a49-c7dbfd37fc70"},"vehicle_type_id":"4","last_reported":1748776046,"current_range_meters":8000,"station_id":"ce4bhh92rcd13ifvqfj0","pricing_plan_id":"cebpf4jnsgd1na2vs0mg"},{"bike_id":"2535efab-6a29-436e-bfc9-17963e2cb58d","system_id":"levelo_inurba_marseille","lat":43.250829,"lon":5.395159,"is_reserved":false,"is_disabled":false,"rental_uris":{"android":"levelo://app?vid=2535efab-6a29-436e-bfc9-17963e2cb58d","ios":"levelo://app?vid=2535efab-6a29-436e-bfc9-17963e2cb58d"},"vehicle_type_id":"4","last_reported":1748776046,"current_range_meters":8400,"station_id":"ce4bhm12rcd13ifvqgkg","pricing_plan_id":"cebpf4jnsgd1na2vs0mg"},{"bike_id":"76a945ba-9ba8-414f-963a-73e1a106e0fc","system_id":"levelo_inurba_marseille","lat":43.26218,"lon":5.40434,"is_reserved":false,"is_disabled":false,"rental_uris":{"android":"levelo://app?vid=76a945ba-9ba8-414f-963a-73e1a106e0fc","ios":"levelo://app?vid=76a945ba-9ba8-414f-963a-73e1a106e0fc"},"vehicle_type_id":"4","last_reported":1748776046,"current_range_meters":8400,"station_id":"ce4bhmh2rcd13ifvqgmg","pricing_plan_id":"cebpf4jnsgd1na2vs0mg"},{"bike_id":"fd46a80b-8b93-49cf-a34b-8cffcb0fc192","system_id":"levelo_inurba_marseille","lat":43.26228,"lon":5.40453,"is_reserved":false,"is_disabled":false,"rental_uris":{"android":"levelo://app?vid=fd46a80b-8b93-49cf-a34b-8cffcb0fc192","ios":"levelo://app?vid=fd46a80b-8b93-49cf-a34b-8cffcb0fc192"},"vehicle_type_id":"4","last_reported":1748776046,"current_range_meters":8400,"station_id":"ce4bhmh2rcd13ifvqgmg","pricing_plan_id":"cebpf4jnsgd1na2vs0mg"},{"bike_id":"424abc49-7098-476e-9563-b7acdbab96ad","system_id":"levelo_inurba_marseille","lat":43.25119,"lon":5.40308,"is_reserved":false,"is_disabled":false,"rental_uris":{"android":"levelo://app?vid=424abc49-7098-476e-9563-b7acdbab96ad","ios":"levelo://app?vid=424abc49-7098-476e-9563-b7acdbab96ad"},"vehicle_type_id":"4","last_reported":1748776046,"current_range_meters":8800,"station_id":"ce4bhlh2rcd13ifvqgig","pricing_plan_id":"cebpf4jnsgd1na2vs0mg"},{"bike_id":"ad6f47cd-8c88-4407-9927-40e17b78d68e","system_id":"levelo_inurba_marseille","lat":43.251207,"lon":5.403227,"is_reserved":false,"is_disabled":false,"rental_uris":{"android":"levelo://app?vid=ad6f47cd-8c88-4407-9927-40e17b78d68e","ios":"levelo://app?vid=ad6f47cd-8c88-4407-9927-40e17b78d68e"},"vehicle_type_id":"4","last_reported":1748776046,"current_range_meters":8800,"station_id":"ce4bhlh2rcd13ifvqgig","pricing_plan_id":"cebpf4jnsgd1na2vs0mg"},{"bike_id":"acfbab2f-8c03-44c7-8a2f-cb74efcc20a6","system_id":"levelo_inurba_marseille","lat":43.3025,"lon":5.37257,"is_reserved":false,"is_disabled":false,"rental_uris":{"android":"levelo://app?vid=acfbab2f-8c03-44c7-8a2f-cb74efcc20a6","ios":"levelo://app?vid=acfbab2f-8c03-44c7-8a2f-cb74efcc20a6"},"vehicle_type_id":"4","last_reported":1748776046,"current_range_meters":8800,"station_id":"","pricing_plan_id":"cebpf4jnsgd1na2vs0mg"},{"bike_id":"800dbf28-174a-4fca-8ebd-66c6028201a2","system_id":"levelo_inurba_marseille","lat":43.29324,"lon":5.40898,"is_reserved":false,"is_disabled":false,"rental_uris":{"android":"levelo://app?vid=800dbf28-174a-4fca-8ebd-66c6028201a2","ios":"levelo://app?vid=800dbf28-174a-4fca-8ebd-66c6028201a2"},"vehicle_type_id":"4","last_reported":1748776046,"current_range_meters":8800,"station_id":"ce4bh192rcd13ifvqdc0","pricing_plan_id":"cebpf4jnsgd1na2vs0mg"},{"bike_id":"e96a88c3-b418-45a4-b526-866f173539a6","system_id":"levelo_inurba_marseille","lat":43.29555,"lon":5.37491,"is_reserved":false,"is_disabled":false,"rental_uris":{"android":"levelo://app?vid=e96a88c3-b418-45a4-b526-866f173539a6","ios":"levelo://app?vid=e96a88c3-b418-45a4-b526-866f173539a6"},"vehicle_type_id":"4","last_reported":1748776046,"current_range_meters":8800,"station_id":"ce4bgkp2rcd13ifvqbmg","pricing_plan_id":"cebpf4jnsgd1na2vs0mg"},{"bike_id":"43b21adc-2a02-4bff-be41-9ecb960c6646","system_id":"levelo_inurba_marseille","lat":43.27944,"lon":5.41043,"is_reserved":false,"is_disabled":false,"rental_uris":{"android":"levelo://app?vid=43b21adc-2a02-4bff-be41-9ecb960c6646","ios":"levelo://app?vid=43b21adc-2a02-4bff-be41-9ecb960c6646"},"vehicle_type_id":"4","last_reported":1748776046,"current_range_meters":8800,"station_id":"ce4bhnp2rcd13ifvqh0g","pricing_plan_id":"cebpf4jnsgd1na2vs0mg"},{"bike_id":"e8879307-9be7-441b-96ca-1f22c1893f9a","system_id":"levelo_inurba_marseille","lat":43.301456,"lon":5.380591,"is_reserved":false,"is_disabled":false,"rental_uris":{"android":"levelo://app?vid=e8879307-9be7-441b-96ca-1f22c1893f9a","ios":"levelo://app?vid=e8879307-9be7-441b-96ca-1f22c1893f9a"},"vehicle_type_id":"4","last_reported":1748776046,"current_range_meters":8400,"station_id":"ce4bgjp2rcd13ifvqbh0","pricing_plan_id":"cebpf4jnsgd1na2vs0mg"},{"bike_id":"7f08a69a-2d5b-48e6-8e97-32333e7c1f12","system_id":"levelo_inurba_marseille","lat":43.2546,"lon":5.37527,"is_reserved":false,"is_disabled":false,"rental_uris":{"android":"levelo://app?vid=7f08a69a-2d5b-48e6-8e97-32333e7c1f12","ios":"levelo://app?vid=7f08a69a-2d5b-48e6-8e97-32333e7c1f12"},"vehicle_type_id":"4","last_reported":1748776046,"current_range_meters":9200,"station_id":"","pricing_plan_id":"cebpf4jnsgd1na2vs0mg"},{"bike_id":"24161b2c-555a-4e52-8c4f-367f158ef634","system_id":"levelo_inurba_marseille","lat":43.29274,"lon":5.40104,"is_reserved":false,"is_disabled":false,"rental_uris":{"android":"levelo://app?vid=24161b2c-555a-4e52-8c4f-367f158ef634","ios":"levelo://app?vid=24161b2c-555a-4e52-8c4f-367f158ef634"},"vehicle_type_id":"4","last_reported":1748776046,"current_range_meters":9200,"station_id":"ce4bh312rcd13ifvqdk0","pricing_plan_id":"cebpf4jnsgd1na2vs0mg"},{"bike_id":"87b0fc15-5979-44c1-a651-9b0adf59a939","system_id":"levelo_inurba_marseille","lat":43.25159,"lon":5.4032,"is_reserved":false,"is_disabled":false,"rental_uris":{"android":"levelo://app?vid=87b0fc15-5979-44c1-a651-9b0adf59a939","ios":"levelo://app?vid=87b0fc15-5979-44c1-a651-9b0adf59a939"},"vehicle_type_id":"4","last_reported":1748776046,"current_range_meters":9200,"station_id":"","pricing_plan_id":"cebpf4jnsgd1na2vs0mg"},{"bike_id":"1cbc3454-ff5d-4ea4-b25c-b28e2bf616a9","system_id":"levelo_inurba_marseille","lat":43.25134,"lon":5.40301,"is_reserved":false,"is_disabled":false,"rental_uris":{"android":"levelo://app?vid=1cbc3454-ff5d-4ea4-b25c-b28e2bf616a9","ios":"levelo://app?vid=1cbc3454-ff5d-4ea4-b25c-b28e2bf616a9"},"vehicle_type_id":"4","last_reported":1748776046,"current_range_meters":9200,"station_id":"ce4bhlh2rcd13ifvqgig","pricing_plan_id":"cebpf4jnsgd1na2vs0mg"},{"bike_id":"ae2c918a-d2e2-439b-aa6f-16e6722edd86","system_id":"levelo_inurba_marseille","lat":43.243324,"lon":5.380172,"is_reserved":false,"is_disabled":false,"rental_uris":{"android":"levelo://app?vid=ae2c918a-d2e2-439b-aa6f-16e6722edd86","ios":"levelo://app?vid=ae2c918a-d2e2-439b-aa6f-16e6722edd86"},"vehicle_type_id":"4","last_reported":1748776046,"current_range_meters":9600,"station_id":"","pricing_plan_id":"cebpf4jnsgd1na2vs0mg"},{"bike_id":"a138f32e-15c7-4167-8f1c-a0b5b93c1ea8","system_id":"levelo_inurba_marseille","lat":43.2828,"lon":5.35076,"is_reserved":false,"is_disabled":false,"rental_uris":{"android":"levelo://app?vid=a138f32e-15c7-4167-8f1c-a0b5b93c1ea8","ios":"levelo://app?vid=a138f32e-15c7-4167-8f1c-a0b5b93c1ea8"},"vehicle_type_id":"4","last_reported":1748776046,"current_range_meters":9600,"station_id":"ce4bhbp2rcd13ifvqerg","pricing_plan_id":"cebpf4jnsgd1na2vs0mg"},{"bike_id":"e6bf0c37-d2a0-4cf7-bda5-bdec7e2a1f23","system_id":"levelo_inurba_marseille","lat":43.32287,"lon":5.382768,"is_reserved":false,"is_disabled":false,"rental_uris":{"android":"levelo://app?vid=e6bf0c37-d2a0-4cf7-bda5-bdec7e2a1f23","ios":"levelo://app?vid=e6bf0c37-d2a0-4cf7-bda5-bdec7e2a1f23"},"vehicle_type_id":"4","last_reported":1748776046,"current_range_meters":9600,"station_id":"ce4bhr12rcd13ifvqhqg","pricing_plan_id":"cebpf4jnsgd1na2vs0mg"},{"bike_id":"823a2611-9e4e-4938-83e1-63bacff8634d","system_id":"levelo_inurba_marseille","lat":43.32361,"lon":5.38859,"is_reserved":false,"is_disabled":false,"rental_uris":{"android":"levelo://app?vid=823a2611-9e4e-4938-83e1-63bacff8634d","ios":"levelo://app?vid=823a2611-9e4e-4938-83e1-63bacff8634d"},"vehicle_type_id":"4","last_reported":1748776046,"current_range_meters":9600,"station_id":"ce4bhqp2rcd13ifvqhog","pricing_plan_id":"cebpf4jnsgd1na2vs0mg"},{"bike_id":"395725b1-48e3-44c2-879e-2f9d260a4d1a","system_id":"levelo_inurba_marseille","lat":43.312369,"lon":5.368641,"is_reserved":false,"is_disabled":false,"rental_uris":{"android":"levelo://app?vid=395725b1-48e3-44c2-879e-2f9d260a4d1a","ios":"levelo://app?vid=395725b1-48e3-44c2-879e-2f9d260a4d1a"},"vehicle_type_id":"4","last_reported":1748776046,"current_range_meters":9600,"station_id":"ce4bgl92rcd13ifvqbq0","pricing_plan_id":"cebpf4jnsgd1na2vs0mg"},{"bike_id":"f2d24b18-d214-4b88-99a9-26c99e5fd23c","system_id":"levelo_inurba_marseille","lat":43.24628,"lon":5.39312,"is_reserved":false,"is_disabled":false,"rental_uris":{"android":"levelo://app?vid=f2d24b18-d214-4b88-99a9-26c99e5fd23c","ios":"levelo://app?vid=f2d24b18-d214-4b88-99a9-26c99e5fd23c"},"vehicle_type_id":"4","last_reported":1748776046,"current_range_meters":9600,"station_id":"","pricing_plan_id":"cebpf4jnsgd1na2vs0mg"},{"bike_id":"0accf2fb-7186-4f60-a781-cc5337f307fa","system_id":"levelo_inurba_marseille","lat":43.25871,"lon":5.40968,"is_reserved":false,"is_disabled":false,"rental_uris":{"android":"levelo://app?vid=0accf2fb-7186-4f60-a781-cc5337f307fa","ios":"levelo://app?vid=0accf2fb-7186-4f60-a781-cc5337f307fa"},"vehicle_type_id":"4","last_reported":1748776046,"current_range_meters":9600,"station_id":"ce4bhm92rcd13ifvqglg","pricing_plan_id":"cebpf4jnsgd1na2vs0mg"},{"bike_id":"06e5a763-45a3-43ab-9044-a9baef1947b0","system_id":"levelo_inurba_marseille","lat":43.25494,"lon":5.37646,"is_reserved":false,"is_disabled":false,"rental_uris":{"android":"levelo://app?vid=06e5a763-45a3-43ab-9044-a9baef1947b0","ios":"levelo://app?vid=06e5a763-45a3-43ab-9044-a9baef1947b0"},"vehicle_type_id":"4","last_reported":1748776046,"current_range_meters":9600,"station_id":"ce4bhh12rcd13ifvqff0","pricing_plan_id":"cebpf4jnsgd1na2vs0mg"},{"bike_id":"5e4cf6f1-c1b6-4bb0-a018-629de3512c8d","system_id":"levelo_inurba_marseille","lat":43.24184,"lon":5.39709,"is_reserved":false,"is_disabled":false,"rental_uris":{"android":"levelo://app?vid=5e4cf6f1-c1b6-4bb0-a018-629de3512c8d","ios":"levelo://app?vid=5e4cf6f1-c1b6-4bb0-a018-629de3512c8d"},"vehicle_type_id":"4","last_reported":1748776046,"current_range_meters":10000,"station_id":"ce4bhn12rcd13ifvqgpg","pricing_plan_id":"cebpf4jnsgd1na2vs0mg"},{"bike_id":"138f76c7-af28-412e-8d82-764c6aca3bed","system_id":"levelo_inurba_marseille","lat":43.23192,"lon":5.35542,"is_reserved":false,"is_disabled":false,"rental_uris":{"android":"levelo://app?vid=138f76c7-af28-412e-8d82-764c6aca3bed","ios":"levelo://app?vid=138f76c7-af28-412e-8d82-764c6aca3bed"},"vehicle_type_id":"4","last_reported":1748776046,"current_range_meters":10000,"station_id":"ce4bhu92rcd13ifvqi70","pricing_plan_id":"cebpf4jnsgd1na2vs0mg"},{"bike_id":"30698ebb-2c2f-4dcf-8dbd-b595f410de1e","system_id":"levelo_inurba_marseille","lat":43.25941,"lon":5.40895,"is_reserved":false,"is_disabled":false,"rental_uris":{"android":"levelo://app?vid=30698ebb-2c2f-4dcf-8dbd-b595f410de1e","ios":"levelo://app?vid=30698ebb-2c2f-4dcf-8dbd-b595f410de1e"},"vehicle_type_id":"4","last_reported":1748776046,"current_range_meters":10000,"station_id":"ce4bhm92rcd13ifvqglg","pricing_plan_id":"cebpf4jnsgd1na2vs0mg"},{"bike_id":"c213034b-f9a3-48e8-9a07-6d97a3c51b73","system_id":"levelo_inurba_marseille","lat":43.25117,"lon":5.40318,"is_reserved":false,"is_disabled":false,"rental_uris":{"android":"levelo://app?vid=c213034b-f9a3-48e8-9a07-6d97a3c51b73","ios":"levelo://app?vid=c213034b-f9a3-48e8-9a07-6d97a3c51b73"},"vehicle_type_id":"4","last_reported":1748776046,"current_range_meters":10000,"station_id":"ce4bhlh2rcd13ifvqgig","pricing_plan_id":"cebpf4jnsgd1na2vs0mg"},{"bike_id":"5ef067e7-b281-4ef9-ad2a-1c6b02a54c04","system_id":"levelo_inurba_marseille","lat":43.319214,"lon":5.440421,"is_reserved":false,"is_disabled":false,"rental_uris":{"android":"levelo://app?vid=5ef067e7-b281-4ef9-ad2a-1c6b02a54c04","ios":"levelo://app?vid=5ef067e7-b281-4ef9-ad2a-1c6b02a54c04"},"vehicle_type_id":"4","last_reported":1748776046,"current_range_meters":10000,"station_id":"","pricing_plan_id":"cebpf4jnsgd1na2vs0mg"},{"bike_id":"18673bf5-a58f-4e67-a6d3-2b37ff9d5b91","system_id":"levelo_inurba_marseille","lat":43.30901,"lon":5.37177,"is_reserved":false,"is_disabled":false,"rental_uris":{"android":"levelo://app?vid=18673bf5-a58f-4e67-a6d3-2b37ff9d5b91","ios":"levelo://app?vid=18673bf5-a58f-4e67-a6d3-2b37ff9d5b91"},"vehicle_type_id":"4","last_reported":1748776046,"current_range_meters":10000,"station_id":"ce4bguh2rcd13ifvqckg","pricing_plan_id":"cebpf4jnsgd1na2vs0mg"},{"bike_id":"1b7c7a02-05d0-474e-ae80-6bf4033f417a","system_id":"levelo_inurba_marseille","lat":43.27623,"lon":5.36107,"is_reserved":false,"is_disabled":false,"rental_uris":{"android":"levelo://app?vid=1b7c7a02-05d0-474e-ae80-6bf4033f417a","ios":"levelo://app?vid=1b7c7a02-05d0-474e-ae80-6bf4033f417a"},"vehicle_type_id":"4","last_reported":1748776046,"current_range_meters":10800,"station_id":"ce4bgj92rcd13ifvqbe0","pricing_plan_id":"cebpf4jnsgd1na2vs0mg"},{"bike_id":"5df05316-524d-4046-90a8-d4f2dfb87ecf","system_id":"levelo_inurba_marseille","lat":43.24373,"lon":5.38009,"is_reserved":false,"is_disabled":false,"rental_uris":{"android":"levelo://app?vid=5df05316-524d-4046-90a8-d4f2dfb87ecf","ios":"levelo://app?vid=5df05316-524d-4046-90a8-d4f2dfb87ecf"},"vehicle_type_id":"4","last_reported":1748776046,"current_range_meters":10800,"station_id":"","pricing_plan_id":"cebpf4jnsgd1na2vs0mg"},{"bike_id":"d95a8927-9413-4ee6-b8dd-9b96d5af8d5e","system_id":"levelo_inurba_marseille","lat":43.28374,"lon":5.35038,"is_reserved":false,"is_disabled":false,"rental_uris":{"android":"levelo://app?vid=d95a8927-9413-4ee6-b8dd-9b96d5af8d5e","ios":"levelo://app?vid=d95a8927-9413-4ee6-b8dd-9b96d5af8d5e"},"vehicle_type_id":"4","last_reported":1748776046,"current_range_meters":10800,"station_id":"","pricing_plan_id":"cebpf4jnsgd1na2vs0mg"},{"bike_id":"e210be7e-07b8-44d3-ae09-6702f28e2ae8","system_id":"levelo_inurba_marseille","lat":43.25127,"lon":5.39346,"is_reserved":false,"is_disabled":false,"rental_uris":{"android":"levelo://app?vid=e210be7e-07b8-44d3-ae09-6702f28e2ae8","ios":"levelo://app?vid=e210be7e-07b8-44d3-ae09-6702f28e2ae8"},"vehicle_type_id":"4","last_reported":1748776046,"current_range_meters":10800,"station_id":"","pricing_plan_id":"cebpf4jnsgd1na2vs0mg"},{"bike_id":"be587459-abc0-420d-8a95-c8ed831a0824","system_id":"levelo_inurba_marseille","lat":43.29725,"lon":5.3768,"is_reserved":false,"is_disabled":false,"rental_uris":{"android":"levelo://app?vid=be587459-abc0-420d-8a95-c8ed831a0824","ios":"levelo://app?vid=be587459-abc0-420d-8a95-c8ed831a0824"},"vehicle_type_id":"4","last_reported":1748776046,"current_range_meters":10800,"station_id":"ce4bgkh2rcd13ifvqbl0","pricing_plan_id":"cebpf4jnsgd1na2vs0mg"},{"bike_id":"5d275565-2d08-4b67-b808-4c0fd3d7335f","system_id":"levelo_inurba_marseille","lat":43.24182,"lon":5.39723,"is_reserved":false,"is_disabled":false,"rental_uris":{"android":"levelo://app?vid=5d275565-2d08-4b67-b808-4c0fd3d7335f","ios":"levelo://app?vid=5d275565-2d08-4b67-b808-4c0fd3d7335f"},"vehicle_type_id":"4","last_reported":1748776046,"current_range_meters":11200,"station_id":"ce4bhn12rcd13ifvqgpg","pricing_plan_id":"cebpf4jnsgd1na2vs0mg"},{"bike_id":"32503fa7-7208-4269-b40f-34ba3dae0f9e","system_id":"levelo_inurba_marseille","lat":43.308652,"lon":5.403671,"is_reserved":false,"is_disabled":false,"rental_uris":{"android":"levelo://app?vid=32503fa7-7208-4269-b40f-34ba3dae0f9e","ios":"levelo://app?vid=32503fa7-7208-4269-b40f-34ba3dae0f9e"},"vehicle_type_id":"4","last_reported":1748776046,"current_range_meters":11200,"station_id":"","pricing_plan_id":"cebpf4jnsgd1na2vs0mg"},{"bike_id":"62b9fb40-b3b6-4001-a515-0c87ced39043","system_id":"levelo_inurba_marseille","lat":43.23971,"lon":5.36626,"is_reserved":false,"is_disabled":true,"rental_uris":{"android":"levelo://app?vid=62b9fb40-b3b6-4001-a515-0c87ced39043","ios":"levelo://app?vid=62b9fb40-b3b6-4001-a515-0c87ced39043"},"vehicle_type_id":"4","last_reported":1748776046,"current_range_meters":11200,"station_id":"ce4bhi12rcd13ifvqfp0","pricing_plan_id":"cebpf4jnsgd1na2vs0mg"},{"bike_id":"2c42b63d-7bb5-48d5-9ebc-14631a3a5130","system_id":"levelo_inurba_marseille","lat":43.2319,"lon":5.39987,"is_reserved":false,"is_disabled":false,"rental_uris":{"android":"levelo://app?vid=2c42b63d-7bb5-48d5-9ebc-14631a3a5130","ios":"levelo://app?vid=2c42b63d-7bb5-48d5-9ebc-14631a3a5130"},"vehicle_type_id":"4","last_reported":1748776046,"current_range_meters":11200,"station_id":"ce4bhn12rcd13ifvqgqg","pricing_plan_id":"cebpf4jnsgd1na2vs0mg"},{"bike_id":"f8d6271e-8143-4c0a-a2b0-f0ef9bd8dfab","system_id":"levelo_inurba_marseille","lat":43.27478,"lon":5.42442,"is_reserved":false,"is_disabled":false,"rental_uris":{"android":"levelo://app?vid=f8d6271e-8143-4c0a-a2b0-f0ef9bd8dfab","ios":"levelo://app?vid=f8d6271e-8143-4c0a-a2b0-f0ef9bd8dfab"},"vehicle_type_id":"4","last_reported":1748776046,"current_range_meters":11200,"station_id":"ce4bhn92rcd13ifvqgrg","pricing_plan_id":"cebpf4jnsgd1na2vs0mg"},{"bike_id":"d449cc1d-4391-4016-8c94-f6774be1d7eb","system_id":"levelo_inurba_marseille","lat":43.31732,"lon":5.40435,"is_reserved":false,"is_disabled":false,"rental_uris":{"android":"levelo://app?vid=d449cc1d-4391-4016-8c94-f6774be1d7eb","ios":"levelo://app?vid=d449cc1d-4391-4016-8c94-f6774be1d7eb"},"vehicle_type_id":"4","last_reported":1748776046,"current_range_meters":11200,"station_id":"ce4bh012rcd13ifvqd00","pricing_plan_id":"cebpf4jnsgd1na2vs0mg"},{"bike_id":"aee594fd-c4c4-4fe3-9b51-a57116370c59","system_id":"levelo_inurba_marseille","lat":43.30138,"lon":5.39867,"is_reserved":false,"is_disabled":false,"rental_uris":{"android":"levelo://app?vid=aee594fd-c4c4-4fe3-9b51-a57116370c59","ios":"levelo://app?vid=aee594fd-c4c4-4fe3-9b51-a57116370c59"},"vehicle_type_id":"4","last_reported":1748776046,"current_range_meters":11200,"station_id":"ce4bh0h2rcd13ifvqd40","pricing_plan_id":"cebpf4jnsgd1na2vs0mg"},{"bike_id":"4020df04-632b-4ee7-9c6c-7254b0c7be04","system_id":"levelo_inurba_marseille","lat":43.32341,"lon":5.40592,"is_reserved":false,"is_disabled":false,"rental_uris":{"android":"levelo://app?vid=4020df04-632b-4ee7-9c6c-7254b0c7be04","ios":"levelo://app?vid=4020df04-632b-4ee7-9c6c-7254b0c7be04"},"vehicle_type_id":"4","last_reported":1748776046,"current_range_meters":11200,"station_id":"ce4bhq92rcd13ifvqhjg","pricing_plan_id":"cebpf4jnsgd1na2vs0mg"},{"bike_id":"2190c100-2a90-4ba0-b080-a3cd68c5f6d8","system_id":"levelo_inurba_marseille","lat":43.2976,"lon":5.46,"is_reserved":false,"is_disabled":false,"rental_uris":{"android":"levelo://app?vid=2190c100-2a90-4ba0-b080-a3cd68c5f6d8","ios":"levelo://app?vid=2190c100-2a90-4ba0-b080-a3cd68c5f6d8"},"vehicle_type_id":"4","last_reported":1748776046,"current_range_meters":11200,"station_id":"","pricing_plan_id":"cebpf4jnsgd1na2vs0mg"},{"bike_id":"a350e501-bb1e-4afd-80f7-8b8347a57112","system_id":"levelo_inurba_marseille","lat":43.34145,"lon":5.40904,"is_reserved":false,"is_disabled":false,"rental_uris":{"android":"levelo://app?vid=a350e501-bb1e-4afd-80f7-8b8347a57112","ios":"levelo://app?vid=a350e501-bb1e-4afd-80f7-8b8347a57112"},"vehicle_type_id":"4","last_reported":1748776046,"current_range_meters":11200,"station_id":"ce4bhqh2rcd13ifvqhlg","pricing_plan_id":"cebpf4jnsgd1na2vs0mg"},{"bike_id":"9a189ee8-27ed-444b-b171-f705371af28f","system_id":"levelo_inurba_marseille","lat":43.282593,"lon":5.349109,"is_reserved":false,"is_disabled":false,"rental_uris":{"android":"levelo://app?vid=9a189ee8-27ed-444b-b171-f705371af28f","ios":"levelo://app?vid=9a189ee8-27ed-444b-b171-f705371af28f"},"vehicle_type_id":"4","last_reported":1748776046,"current_range_meters":11600,"station_id":"","pricing_plan_id":"cebpf4jnsgd1na2vs0mg"},{"bike_id":"0083226b-8e6b-4f87-91cf-90103f9dfbc4","system_id":"levelo_inurba_marseille","lat":43.27178,"lon":5.40986,"is_reserved":false,"is_disabled":false,"rental_uris":{"android":"levelo://app?vid=0083226b-8e6b-4f87-91cf-90103f9dfbc4","ios":"levelo://app?vid=0083226b-8e6b-4f87-91cf-90103f9dfbc4"},"vehicle_type_id":"4","last_reported":1748776046,"current_range_meters":11600,"station_id":"ce4bhl12rcd13ifvqgf0","pricing_plan_id":"cebpf4jnsgd1na2vs0mg"},{"bike_id":"21ff3fb6-d282-4e8f-8c65-749c73573e4b","system_id":"levelo_inurba_marseille","lat":43.337386,"lon":5.391882,"is_reserved":false,"is_disabled":false,"rental_uris":{"android":"levelo://app?vid=21ff3fb6-d282-4e8f-8c65-749c73573e4b","ios":"levelo://app?vid=21ff3fb6-d282-4e8f-8c65-749c73573e4b"},"vehicle_type_id":"4","last_reported":1748776046,"current_range_meters":11600,"station_id":"ce4bhr92rcd13ifvqhsg","pricing_plan_id":"cebpf4jnsgd1na2vs0mg"},{"bike_id":"8f0e4559-b14c-49d0-95bc-d98211394270","system_id":"levelo_inurba_marseille","lat":43.25087,"lon":5.39514,"is_reserved":false,"is_disabled":false,"rental_uris":{"android":"levelo://app?vid=8f0e4559-b14c-49d0-95bc-d98211394270","ios":"levelo://app?vid=8f0e4559-b14c-49d0-95bc-d98211394270"},"vehicle_type_id":"4","last_reported":1748776046,"current_range_meters":11600,"station_id":"ce4bhm12rcd13ifvqgkg","pricing_plan_id":"cebpf4jnsgd1na2vs0mg"},{"bike_id":"be5dbdde-de3f-4b65-b06a-202bd8593fba","system_id":"levelo_inurba_marseille","lat":43.23189,"lon":5.39976,"is_reserved":false,"is_disabled":false,"rental_uris":{"android":"levelo://app?vid=be5dbdde-de3f-4b65-b06a-202bd8593fba","ios":"levelo://app?vid=be5dbdde-de3f-4b65-b06a-202bd8593fba"},"vehicle_type_id":"4","last_reported":1748776046,"current_range_meters":11600,"station_id":"ce4bhn12rcd13ifvqgqg","pricing_plan_id":"cebpf4jnsgd1na2vs0mg"},{"bike_id":"4072473f-49e0-43de-8a1a-7d968b23644f","system_id":"levelo_inurba_marseille","lat":43.28483,"lon":5.3841,"is_reserved":false,"is_disabled":false,"rental_uris":{"android":"levelo://app?vid=4072473f-49e0-43de-8a1a-7d968b23644f","ios":"levelo://app?vid=4072473f-49e0-43de-8a1a-7d968b23644f"},"vehicle_type_id":"4","last_reported":1748776046,"current_range_meters":11200,"station_id":"ce4bh512rcd13ifvqe3g","pricing_plan_id":"cebpf4jnsgd1na2vs0mg"},{"bike_id":"19acb86c-d41f-4c99-95c0-a1f69c0413f6","system_id":"levelo_inurba_marseille","lat":43.25102,"lon":5.40317,"is_reserved":false,"is_disabled":false,"rental_uris":{"android":"levelo://app?vid=19acb86c-d41f-4c99-95c0-a1f69c0413f6","ios":"levelo://app?vid=19acb86c-d41f-4c99-95c0-a1f69c0413f6"},"vehicle_type_id":"4","last_reported":1748776046,"current_range_meters":11600,"station_id":"ce4bhlh2rcd13ifvqgig","pricing_plan_id":"cebpf4jnsgd1na2vs0mg"},{"bike_id":"84e94b65-0704-41b9-b45c-33b81545a7c4","system_id":"levelo_inurba_marseille","lat":43.30305,"lon":5.369,"is_reserved":false,"is_disabled":true,"rental_uris":{"android":"levelo://app?vid=84e94b65-0704-41b9-b45c-33b81545a7c4","ios":"levelo://app?vid=84e94b65-0704-41b9-b45c-33b81545a7c4"},"vehicle_type_id":"4","last_reported":1748776046,"current_range_meters":12000,"station_id":"ce4bgqh2rcd13ifvqc5g","pricing_plan_id":"cebpf4jnsgd1na2vs0mg"},{"bike_id":"1942d928-9a3b-4e04-a8fe-cb79dff37084","system_id":"levelo_inurba_marseille","lat":43.29621,"lon":5.37147,"is_reserved":false,"is_disabled":false,"rental_uris":{"android":"levelo://app?vid=1942d928-9a3b-4e04-a8fe-cb79dff37084","ios":"levelo://app?vid=1942d928-9a3b-4e04-a8fe-cb79dff37084"},"vehicle_type_id":"4","last_reported":1748776046,"current_range_meters":12000,"station_id":"ce4bgnh2rcd13ifvqc0g","pricing_plan_id":"cebpf4jnsgd1na2vs0mg"},{"bike_id":"8f8d1470-9bfc-4b14-b2b8-57a2b1273776","system_id":"levelo_inurba_marseille","lat":43.21197,"lon":5.35076,"is_reserved":false,"is_disabled":false,"rental_uris":{"android":"levelo://app?vid=8f8d1470-9bfc-4b14-b2b8-57a2b1273776","ios":"levelo://app?vid=8f8d1470-9bfc-4b14-b2b8-57a2b1273776"},"vehicle_type_id":"4","last_reported":1748776046,"current_range_meters":12000,"station_id":"","pricing_plan_id":"cebpf4jnsgd1na2vs0mg"},{"bike_id":"e76852b9-c96d-4901-9bd8-11e5bc082a3b","system_id":"levelo_inurba_marseille","lat":43.23196,"lon":5.35549,"is_reserved":false,"is_disabled":false,"rental_uris":{"android":"levelo://app?vid=e76852b9-c96d-4901-9bd8-11e5bc082a3b","ios":"levelo://app?vid=e76852b9-c96d-4901-9bd8-11e5bc082a3b"},"vehicle_type_id":"4","last_reported":1748776046,"current_range_meters":12400,"station_id":"ce4bhu92rcd13ifvqi70","pricing_plan_id":"cebpf4jnsgd1na2vs0mg"},{"bike_id":"f5a90625-b7e8-48a8-90c6-777efe255a32","system_id":"levelo_inurba_marseille","lat":43.251026,"lon":5.409664,"is_reserved":false,"is_disabled":false,"rental_uris":{"android":"levelo://app?vid=f5a90625-b7e8-48a8-90c6-777efe255a32","ios":"levelo://app?vid=f5a90625-b7e8-48a8-90c6-777efe255a32"},"vehicle_type_id":"4","last_reported":1748776046,"current_range_meters":12400,"station_id":"","pricing_plan_id":"cebpf4jnsgd1na2vs0mg"},{"bike_id":"c6851f9e-c0cf-43e8-af9e-c3f0221923ad","system_id":"levelo_inurba_marseille","lat":43.30316,"lon":5.39211,"is_reserved":false,"is_disabled":false,"rental_uris":{"android":"levelo://app?vid=c6851f9e-c0cf-43e8-af9e-c3f0221923ad","ios":"levelo://app?vid=c6851f9e-c0cf-43e8-af9e-c3f0221923ad"},"vehicle_type_id":"4","last_reported":1748776046,"current_range_meters":12400,"station_id":"ce4bgkh2rcd13ifvqbk0","pricing_plan_id":"cebpf4jnsgd1na2vs0mg"},{"bike_id":"994696bc-3349-4bbf-98c9-e5bf5dad7511","system_id":"levelo_inurba_marseille","lat":43.29625,"lon":5.37145,"is_reserved":false,"is_disabled":false,"rental_uris":{"android":"levelo://app?vid=994696bc-3349-4bbf-98c9-e5bf5dad7511","ios":"levelo://app?vid=994696bc-3349-4bbf-98c9-e5bf5dad7511"},"vehicle_type_id":"4","last_reported":1748776046,"current_range_meters":12400,"station_id":"ce4bgnh2rcd13ifvqc0g","pricing_plan_id":"cebpf4jnsgd1na2vs0mg"},{"bike_id":"6f567e6b-fa78-4ee9-9ebe-7a2b38b3e565","system_id":"levelo_inurba_marseille","lat":43.23192,"lon":5.35551,"is_reserved":false,"is_disabled":false,"rental_uris":{"android":"levelo://app?vid=6f567e6b-fa78-4ee9-9ebe-7a2b38b3e565","ios":"levelo://app?vid=6f567e6b-fa78-4ee9-9ebe-7a2b38b3e565"},"vehicle_type_id":"4","last_reported":1748776046,"current_range_meters":12400,"station_id":"","pricing_plan_id":"cebpf4jnsgd1na2vs0mg"},{"bike_id":"9f079562-e2fe-45eb-9fb0-0738e6112895","system_id":"levelo_inurba_marseille","lat":43.2738,"lon":5.36247,"is_reserved":false,"is_disabled":false,"rental_uris":{"android":"levelo://app?vid=9f079562-e2fe-45eb-9fb0-0738e6112895","ios":"levelo://app?vid=9f079562-e2fe-45eb-9fb0-0738e6112895"},"vehicle_type_id":"4","last_reported":1748776046,"current_range_meters":12400,"station_id":"ce4bhbh2rcd13ifvqeo0","pricing_plan_id":"cebpf4jnsgd1na2vs0mg"},{"bike_id":"e68c660c-49c8-42cf-b1d7-b9d7773426fb","system_id":"levelo_inurba_marseille","lat":43.23187,"lon":5.3998,"is_reserved":false,"is_disabled":false,"rental_uris":{"android":"levelo://app?vid=e68c660c-49c8-42cf-b1d7-b9d7773426fb","ios":"levelo://app?vid=e68c660c-49c8-42cf-b1d7-b9d7773426fb"},"vehicle_type_id":"4","last_reported":1748776046,"current_range_meters":11200,"station_id":"ce4bhn12rcd13ifvqgqg","pricing_plan_id":"cebpf4jnsgd1na2vs0mg"},{"bike_id":"ac08a224-e278-4da8-b823-4e8d52ac1e4b","system_id":"levelo_inurba_marseille","lat":43.23195,"lon":5.39963,"is_reserved":false,"is_disabled":false,"rental_uris":{"android":"levelo://app?vid=ac08a224-e278-4da8-b823-4e8d52ac1e4b","ios":"levelo://app?vid=ac08a224-e278-4da8-b823-4e8d52ac1e4b"},"vehicle_type_id":"4","last_reported":1748776046,"current_range_meters":12800,"station_id":"ce4bhn12rcd13ifvqgqg","pricing_plan_id":"cebpf4jnsgd1na2vs0mg"},{"bike_id":"dbeea99c-24bf-4664-8252-d8ba653cb111","system_id":"levelo_inurba_marseille","lat":43.28858,"lon":5.39317,"is_reserved":false,"is_disabled":false,"rental_uris":{"android":"levelo://app?vid=dbeea99c-24bf-4664-8252-d8ba653cb111","ios":"levelo://app?vid=dbeea99c-24bf-4664-8252-d8ba653cb111"},"vehicle_type_id":"4","last_reported":1748776046,"current_range_meters":12800,"station_id":"ce4bh2p2rcd13ifvqdi0","pricing_plan_id":"cebpf4jnsgd1na2vs0mg"},{"bike_id":"a6e8c261-cba7-4222-a39b-1f565c7288fd","system_id":"levelo_inurba_marseille","lat":43.29281,"lon":5.38449,"is_reserved":false,"is_disabled":false,"rental_uris":{"android":"levelo://app?vid=a6e8c261-cba7-4222-a39b-1f565c7288fd","ios":"levelo://app?vid=a6e8c261-cba7-4222-a39b-1f565c7288fd"},"vehicle_type_id":"4","last_reported":1748776046,"current_range_meters":12400,"station_id":"ce4bh692rcd13ifvqea0","pricing_plan_id":"cebpf4jnsgd1na2vs0mg"},{"bike_id":"c77e2041-5746-4f18-8b9d-2fab5c7ae1f2","system_id":"levelo_inurba_marseille","lat":43.21194,"lon":5.35058,"is_reserved":false,"is_disabled":false,"rental_uris":{"android":"levelo://app?vid=c77e2041-5746-4f18-8b9d-2fab5c7ae1f2","ios":"levelo://app?vid=c77e2041-5746-4f18-8b9d-2fab5c7ae1f2"},"vehicle_type_id":"4","last_reported":1748776046,"current_range_meters":12800,"station_id":"st_cvj6sg6p6f1abm77japg","pricing_plan_id":"cebpf4jnsgd1na2vs0mg"},{"bike_id":"8d0dc2bd-d579-4174-be71-d7fd28c50439","system_id":"levelo_inurba_marseille","lat":43.28617,"lon":5.35096,"is_reserved":false,"is_disabled":false,"rental_uris":{"android":"levelo://app?vid=8d0dc2bd-d579-4174-be71-d7fd28c50439","ios":"levelo://app?vid=8d0dc2bd-d579-4174-be71-d7fd28c50439"},"vehicle_type_id":"4","last_reported":1748776046,"current_range_meters":12800,"station_id":"ce4bhch2rcd13ifvqeug","pricing_plan_id":"cebpf4jnsgd1na2vs0mg"},{"bike_id":"52138315-f13b-4871-ab78-9e5155a1008c","system_id":"levelo_inurba_marseille","lat":43.322889,"lon":5.382624,"is_reserved":false,"is_disabled":false,"rental_uris":{"android":"levelo://app?vid=52138315-f13b-4871-ab78-9e5155a1008c","ios":"levelo://app?vid=52138315-f13b-4871-ab78-9e5155a1008c"},"vehicle_type_id":"4","last_reported":1748776046,"current_range_meters":12800,"station_id":"ce4bhr12rcd13ifvqhqg","pricing_plan_id":"cebpf4jnsgd1na2vs0mg"},{"bike_id":"3c714906-76f2-42cc-b185-ab332f5426c2","system_id":"levelo_inurba_marseille","lat":43.23033,"lon":5.40168,"is_reserved":false,"is_disabled":false,"rental_uris":{"android":"levelo://app?vid=3c714906-76f2-42cc-b185-ab332f5426c2","ios":"levelo://app?vid=3c714906-76f2-42cc-b185-ab332f5426c2"},"vehicle_type_id":"4","last_reported":1748776046,"current_range_meters":12800,"station_id":"","pricing_plan_id":"cebpf4jnsgd1na2vs0mg"},{"bike_id":"76f771a0-d27e-462d-a1fe-7bd311768559","system_id":"levelo_inurba_marseille","lat":43.28426,"lon":5.34974,"is_reserved":false,"is_disabled":true,"rental_uris":{"android":"levelo://app?vid=76f771a0-d27e-462d-a1fe-7bd311768559","ios":"levelo://app?vid=76f771a0-d27e-462d-a1fe-7bd311768559"},"vehicle_type_id":"4","last_reported":1748776046,"current_range_meters":12800,"station_id":"ce4bhbh2rcd13ifvqepg","pricing_plan_id":"cebpf4jnsgd1na2vs0mg"},{"bike_id":"d1c4b609-d8f6-4720-9f4e-1255d9197b0e","system_id":"levelo_inurba_marseille","lat":43.24174,"lon":5.36383,"is_reserved":false,"is_disabled":false,"rental_uris":{"android":"levelo://app?vid=d1c4b609-d8f6-4720-9f4e-1255d9197b0e","ios":"levelo://app?vid=d1c4b609-d8f6-4720-9f4e-1255d9197b0e"},"vehicle_type_id":"4","last_reported":1748776046,"current_range_meters":13600,"station_id":"cpo36qri1sfpv3e86is0","pricing_plan_id":"cebpf4jnsgd1na2vs0mg"},{"bike_id":"7b035263-dce3-4f7e-8c9a-8a156516801f","system_id":"levelo_inurba_marseille","lat":43.2973,"lon":5.37677,"is_reserved":false,"is_disabled":false,"rental_uris":{"android":"levelo://app?vid=7b035263-dce3-4f7e-8c9a-8a156516801f","ios":"levelo://app?vid=7b035263-dce3-4f7e-8c9a-8a156516801f"},"vehicle_type_id":"4","last_reported":1748776046,"current_range_meters":12800,"station_id":"ce4bgkh2rcd13ifvqbl0","pricing_plan_id":"cebpf4jnsgd1na2vs0mg"},{"bike_id":"77520d45-03bf-4b26-9f9b-8ac6c162ce6b","system_id":"levelo_inurba_marseille","lat":43.243649,"lon":5.411388,"is_reserved":false,"is_disabled":false,"rental_uris":{"android":"levelo://app?vid=77520d45-03bf-4b26-9f9b-8ac6c162ce6b","ios":"levelo://app?vid=77520d45-03bf-4b26-9f9b-8ac6c162ce6b"},"vehicle_type_id":"4","last_reported":1748776046,"current_range_meters":13600,"station_id":"","pricing_plan_id":"cebpf4jnsgd1na2vs0mg"},{"bike_id":"98191139-f67d-4445-89e0-a6dccc60cfdd","system_id":"levelo_inurba_marseille","lat":43.29846,"lon":5.3626,"is_reserved":false,"is_disabled":false,"rental_uris":{"android":"levelo://app?vid=98191139-f67d-4445-89e0-a6dccc60cfdd","ios":"levelo://app?vid=98191139-f67d-4445-89e0-a6dccc60cfdd"},"vehicle_type_id":"4","last_reported":1748776046,"current_range_meters":13600,"station_id":"ce4bgpp2rcd13ifvqc3g","pricing_plan_id":"cebpf4jnsgd1na2vs0mg"},{"bike_id":"1fb0e14c-2ed2-49a1-9b22-dc8a7a1f919b","system_id":"levelo_inurba_marseille","lat":43.29251,"lon":5.40125,"is_reserved":false,"is_disabled":true,"rental_uris":{"android":"levelo://app?vid=1fb0e14c-2ed2-49a1-9b22-dc8a7a1f919b","ios":"levelo://app?vid=1fb0e14c-2ed2-49a1-9b22-dc8a7a1f919b"},"vehicle_type_id":"4","last_reported":1748776046,"current_range_meters":13600,"station_id":"ce4bh312rcd13ifvqdk0","pricing_plan_id":"cebpf4jnsgd1na2vs0mg"},{"bike_id":"3d43f809-d317-4bad-b40e-2cb777aad9e4","system_id":"levelo_inurba_marseille","lat":43.21192,"lon":5.3507,"is_reserved":false,"is_disabled":false,"rental_uris":{"android":"levelo://app?vid=3d43f809-d317-4bad-b40e-2cb777aad9e4","ios":"levelo://app?vid=3d43f809-d317-4bad-b40e-2cb777aad9e4"},"vehicle_type_id":"4","last_reported":1748776046,"current_range_meters":13600,"station_id":"st_cvj6sg6p6f1abm77japg","pricing_plan_id":"cebpf4jnsgd1na2vs0mg"},{"bike_id":"1b32c743-adac-450b-ab57-ae591ac0916a","system_id":"levelo_inurba_marseille","lat":43.23965,"lon":5.3662,"is_reserved":false,"is_disabled":false,"rental_uris":{"android":"levelo://app?vid=1b32c743-adac-450b-ab57-ae591ac0916a","ios":"levelo://app?vid=1b32c743-adac-450b-ab57-ae591ac0916a"},"vehicle_type_id":"4","last_reported":1748776046,"current_range_meters":13600,"station_id":"ce4bhi12rcd13ifvqfp0","pricing_plan_id":"cebpf4jnsgd1na2vs0mg"},{"bike_id":"d787cfdb-50c2-451d-8448-0eff07939f1e","system_id":"levelo_inurba_marseille","lat":43.2316,"lon":5.4369,"is_reserved":false,"is_disabled":true,"rental_uris":{"android":"levelo://app?vid=d787cfdb-50c2-451d-8448-0eff07939f1e","ios":"levelo://app?vid=d787cfdb-50c2-451d-8448-0eff07939f1e"},"vehicle_type_id":"4","last_reported":1748776046,"current_range_meters":14000,"station_id":"ce4bhmp2rcd13ifvqgog","pricing_plan_id":"cebpf4jnsgd1na2vs0mg"},{"bike_id":"904b8e58-dbaa-4a30-b89a-655bc9ec33af","system_id":"levelo_inurba_marseille","lat":43.29191,"lon":5.35791,"is_reserved":false,"is_disabled":false,"rental_uris":{"android":"levelo://app?vid=904b8e58-dbaa-4a30-b89a-655bc9ec33af","ios":"levelo://app?vid=904b8e58-dbaa-4a30-b89a-655bc9ec33af"},"vehicle_type_id":"4","last_reported":1748776046,"current_range_meters":13600,"station_id":"ce4bhb12rcd13ifvqel0","pricing_plan_id":"cebpf4jnsgd1na2vs0mg"},{"bike_id":"c0b307e2-f759-4feb-a351-9c4251bc7010","system_id":"levelo_inurba_marseille","lat":43.31328,"lon":5.39685,"is_reserved":false,"is_disabled":false,"rental_uris":{"android":"levelo://app?vid=c0b307e2-f759-4feb-a351-9c4251bc7010","ios":"levelo://app?vid=c0b307e2-f759-4feb-a351-9c4251bc7010"},"vehicle_type_id":"4","last_reported":1748776046,"current_range_meters":14000,"station_id":"ce4bgvp2rcd13ifvqcu0","pricing_plan_id":"cebpf4jnsgd1na2vs0mg"},{"bike_id":"93e91924-3502-4317-b65f-9960558ae7ef","system_id":"levelo_inurba_marseille","lat":43.25584,"lon":5.38246,"is_reserved":false,"is_disabled":false,"rental_uris":{"android":"levelo://app?vid=93e91924-3502-4317-b65f-9960558ae7ef","ios":"levelo://app?vid=93e91924-3502-4317-b65f-9960558ae7ef"},"vehicle_type_id":"4","last_reported":1748776046,"current_range_meters":14000,"station_id":"ce4bhih2rcd13ifvqfs0","pricing_plan_id":"cebpf4jnsgd1na2vs0mg"},{"bike_id":"af3eb817-f0ea-45f5-89e4-a3f9984b653b","system_id":"levelo_inurba_marseille","lat":43.30898,"lon":5.37192,"is_reserved":false,"is_disabled":false,"rental_uris":{"android":"levelo://app?vid=af3eb817-f0ea-45f5-89e4-a3f9984b653b","ios":"levelo://app?vid=af3eb817-f0ea-45f5-89e4-a3f9984b653b"},"vehicle_type_id":"4","last_reported":1748776046,"current_range_meters":14000,"station_id":"ce4bguh2rcd13ifvqckg","pricing_plan_id":"cebpf4jnsgd1na2vs0mg"},{"bike_id":"744b402f-92b9-4a60-8dd8-309fa5de10ce","system_id":"levelo_inurba_marseille","lat":43.30099,"lon":5.39074,"is_reserved":false,"is_disabled":false,"rental_uris":{"android":"levelo://app?vid=744b402f-92b9-4a60-8dd8-309fa5de10ce","ios":"levelo://app?vid=744b402f-92b9-4a60-8dd8-309fa5de10ce"},"vehicle_type_id":"4","last_reported":1748776046,"current_range_meters":16400,"station_id":"ce4bh192rcd13ifvqdb0","pricing_plan_id":"cebpf4jnsgd1na2vs0mg"},{"bike_id":"bfc6dce9-77ca-4235-96b6-63b5fbc4d6e2","system_id":"levelo_inurba_marseille","lat":43.33683,"lon":5.38558,"is_reserved":false,"is_disabled":false,"rental_uris":{"android":"levelo://app?vid=bfc6dce9-77ca-4235-96b6-63b5fbc4d6e2","ios":"levelo://app?vid=bfc6dce9-77ca-4235-96b6-63b5fbc4d6e2"},"vehicle_type_id":"4","last_reported":1748776046,"current_range_meters":14400,"station_id":"","pricing_plan_id":"cebpf4jnsgd1na2vs0mg"},{"bike_id":"5e91ceb4-050f-4401-911f-a50b5966dfb4","system_id":"levelo_inurba_marseille","lat":43.2862,"lon":5.35096,"is_reserved":false,"is_disabled":false,"rental_uris":{"android":"levelo://app?vid=5e91ceb4-050f-4401-911f-a50b5966dfb4","ios":"levelo://app?vid=5e91ceb4-050f-4401-911f-a50b5966dfb4"},"vehicle_type_id":"4","last_reported":1748776046,"current_range_meters":14800,"station_id":"ce4bhch2rcd13ifvqeug","pricing_plan_id":"cebpf4jnsgd1na2vs0mg"},{"bike_id":"0e5817e7-2532-424e-9e9c-9768af9de8a9","system_id":"levelo_inurba_marseille","lat":43.232,"lon":5.39973,"is_reserved":false,"is_disabled":false,"rental_uris":{"android":"levelo://app?vid=0e5817e7-2532-424e-9e9c-9768af9de8a9","ios":"levelo://app?vid=0e5817e7-2532-424e-9e9c-9768af9de8a9"},"vehicle_type_id":"4","last_reported":1748776046,"current_range_meters":15200,"station_id":"ce4bhn12rcd13ifvqgqg","pricing_plan_id":"cebpf4jnsgd1na2vs0mg"},{"bike_id":"54c3128d-720d-47ff-b7ac-bc29f1f74f4f","system_id":"levelo_inurba_marseille","lat":43.314883,"lon":5.372962,"is_reserved":false,"is_disabled":false,"rental_uris":{"android":"levelo://app?vid=54c3128d-720d-47ff-b7ac-bc29f1f74f4f","ios":"levelo://app?vid=54c3128d-720d-47ff-b7ac-bc29f1f74f4f"},"vehicle_type_id":"4","last_reported":1748776046,"current_range_meters":14800,"station_id":"ce4bgt12rcd13ifvqcd0","pricing_plan_id":"cebpf4jnsgd1na2vs0mg"},{"bike_id":"6327a378-f239-4ddf-aa21-15250eb706bc","system_id":"levelo_inurba_marseille","lat":43.28619,"lon":5.35098,"is_reserved":false,"is_disabled":false,"rental_uris":{"android":"levelo://app?vid=6327a378-f239-4ddf-aa21-15250eb706bc","ios":"levelo://app?vid=6327a378-f239-4ddf-aa21-15250eb706bc"},"vehicle_type_id":"4","last_reported":1748776046,"current_range_meters":15200,"station_id":"ce4bhch2rcd13ifvqeug","pricing_plan_id":"cebpf4jnsgd1na2vs0mg"},{"bike_id":"0912a16e-5702-4e43-8297-9417fe01afa4","system_id":"levelo_inurba_marseille","lat":43.286102,"lon":5.351051,"is_reserved":false,"is_disabled":false,"rental_uris":{"android":"levelo://app?vid=0912a16e-5702-4e43-8297-9417fe01afa4","ios":"levelo://app?vid=0912a16e-5702-4e43-8297-9417fe01afa4"},"vehicle_type_id":"4","last_reported":1748776046,"current_range_meters":15200,"station_id":"ce4bhch2rcd13ifvqeug","pricing_plan_id":"cebpf4jnsgd1na2vs0mg"},{"bike_id":"62670da9-6b32-448b-b4bd-64c968b29682","system_id":"levelo_inurba_marseille","lat":43.29724,"lon":5.37681,"is_reserved":false,"is_disabled":false,"rental_uris":{"android":"levelo://app?vid=62670da9-6b32-448b-b4bd-64c968b29682","ios":"levelo://app?vid=62670da9-6b32-448b-b4bd-64c968b29682"},"vehicle_type_id":"4","last_reported":1748776046,"current_range_meters":15200,"station_id":"ce4bgkh2rcd13ifvqbl0","pricing_plan_id":"cebpf4jnsgd1na2vs0mg"},{"bike_id":"a863b8e4-3636-439d-8e68-9e00be284497","system_id":"levelo_inurba_marseille","lat":43.317099,"lon":5.436996,"is_reserved":false,"is_disabled":false,"rental_uris":{"android":"levelo://app?vid=a863b8e4-3636-439d-8e68-9e00be284497","ios":"levelo://app?vid=a863b8e4-3636-439d-8e68-9e00be284497"},"vehicle_type_id":"4","last_reported":1748776046,"current_range_meters":15200,"station_id":"ce4bhp92rcd13ifvqhcg","pricing_plan_id":"cebpf4jnsgd1na2vs0mg"},{"bike_id":"6194bd11-cbbb-4e68-a441-7b6e267c9cf8","system_id":"levelo_inurba_marseille","lat":43.26337,"lon":5.37599,"is_reserved":false,"is_disabled":false,"rental_uris":{"android":"levelo://app?vid=6194bd11-cbbb-4e68-a441-7b6e267c9cf8","ios":"levelo://app?vid=6194bd11-cbbb-4e68-a441-7b6e267c9cf8"},"vehicle_type_id":"4","last_reported":1748776046,"current_range_meters":15200,"station_id":"","pricing_plan_id":"cebpf4jnsgd1na2vs0mg"},{"bike_id":"ed03de36-1f11-4dc7-8c19-8d890ffd717f","system_id":"levelo_inurba_marseille","lat":43.23183,"lon":5.39982,"is_reserved":false,"is_disabled":false,"rental_uris":{"android":"levelo://app?vid=ed03de36-1f11-4dc7-8c19-8d890ffd717f","ios":"levelo://app?vid=ed03de36-1f11-4dc7-8c19-8d890ffd717f"},"vehicle_type_id":"4","last_reported":1748776046,"current_range_meters":14800,"station_id":"ce4bhn12rcd13ifvqgqg","pricing_plan_id":"cebpf4jnsgd1na2vs0mg"},{"bike_id":"b5806e8c-065c-41e5-8415-4e8c05eadebe","system_id":"levelo_inurba_marseille","lat":43.29226,"lon":5.36025,"is_reserved":false,"is_disabled":true,"rental_uris":{"android":"levelo://app?vid=b5806e8c-065c-41e5-8415-4e8c05eadebe","ios":"levelo://app?vid=b5806e8c-065c-41e5-8415-4e8c05eadebe"},"vehicle_type_id":"4","last_reported":1748776046,"current_range_meters":15200,"station_id":"ce4bhbh2rcd13ifvqeqg","pricing_plan_id":"cebpf4jnsgd1na2vs0mg"},{"bike_id":"90569407-bca1-41dc-905c-8b3bfbc15260","system_id":"levelo_inurba_marseille","lat":43.273817,"lon":5.362496,"is_reserved":false,"is_disabled":false,"rental_uris":{"android":"levelo://app?vid=90569407-bca1-41dc-905c-8b3bfbc15260","ios":"levelo://app?vid=90569407-bca1-41dc-905c-8b3bfbc15260"},"vehicle_type_id":"4","last_reported":1748776046,"current_range_meters":15200,"station_id":"ce4bhbh2rcd13ifvqeo0","pricing_plan_id":"cebpf4jnsgd1na2vs0mg"},{"bike_id":"ae319d06-2cb4-418c-9880-d174a521cda9","system_id":"levelo_inurba_marseille","lat":43.217474,"lon":5.346009,"is_reserved":false,"is_disabled":false,"rental_uris":{"android":"levelo://app?vid=ae319d06-2cb4-418c-9880-d174a521cda9","ios":"levelo://app?vid=ae319d06-2cb4-418c-9880-d174a521cda9"},"vehicle_type_id":"4","last_reported":1748776046,"current_range_meters":16000,"station_id":"","pricing_plan_id":"cebpf4jnsgd1na2vs0mg"},{"bike_id":"8fff50f2-ff01-4137-af01-db6c5d522319","system_id":"levelo_inurba_marseille","lat":43.27566,"lon":5.3842,"is_reserved":false,"is_disabled":false,"rental_uris":{"android":"levelo://app?vid=8fff50f2-ff01-4137-af01-db6c5d522319","ios":"levelo://app?vid=8fff50f2-ff01-4137-af01-db6c5d522319"},"vehicle_type_id":"4","last_reported":1748776046,"current_range_meters":16000,"station_id":"ce4bhh92rcd13ifvqfi0","pricing_plan_id":"cebpf4jnsgd1na2vs0mg"},{"bike_id":"e57d454f-275a-41a6-a18d-7a3fd7f047a3","system_id":"levelo_inurba_marseille","lat":43.25582,"lon":5.38246,"is_reserved":false,"is_disabled":false,"rental_uris":{"android":"levelo://app?vid=e57d454f-275a-41a6-a18d-7a3fd7f047a3","ios":"levelo://app?vid=e57d454f-275a-41a6-a18d-7a3fd7f047a3"},"vehicle_type_id":"4","last_reported":1748776046,"current_range_meters":16000,"station_id":"ce4bhih2rcd13ifvqfs0","pricing_plan_id":"cebpf4jnsgd1na2vs0mg"},{"bike_id":"97a58472-f76b-47e3-a716-281b120ccffa","system_id":"levelo_inurba_marseille","lat":43.27922,"lon":5.39568,"is_reserved":false,"is_disabled":true,"rental_uris":{"android":"levelo://app?vid=97a58472-f76b-47e3-a716-281b120ccffa","ios":"levelo://app?vid=97a58472-f76b-47e3-a716-281b120ccffa"},"vehicle_type_id":"4","last_reported":1748776046,"current_range_meters":16000,"station_id":"ce4bhf92rcd13ifvqf40","pricing_plan_id":"cebpf4jnsgd1na2vs0mg"},{"bike_id":"56a82e03-2118-4920-8b59-3795928c0c5d","system_id":"levelo_inurba_marseille","lat":43.27818,"lon":5.40708,"is_reserved":false,"is_disabled":false,"rental_uris":{"android":"levelo://app?vid=56a82e03-2118-4920-8b59-3795928c0c5d","ios":"levelo://app?vid=56a82e03-2118-4920-8b59-3795928c0c5d"},"vehicle_type_id":"4","last_reported":1748776046,"current_range_meters":16000,"station_id":"ce4bhnh2rcd13ifvqgtg","pricing_plan_id":"cebpf4jnsgd1na2vs0mg"},{"bike_id":"f50fbd8a-c9a3-4a00-a664-b1416fd2c18e","system_id":"levelo_inurba_marseille","lat":43.29713,"lon":5.37668,"is_reserved":false,"is_disabled":false,"rental_uris":{"android":"levelo://app?vid=f50fbd8a-c9a3-4a00-a664-b1416fd2c18e","ios":"levelo://app?vid=f50fbd8a-c9a3-4a00-a664-b1416fd2c18e"},"vehicle_type_id":"4","last_reported":1748776046,"current_range_meters":16000,"station_id":"ce4bgkh2rcd13ifvqbl0","pricing_plan_id":"cebpf4jnsgd1na2vs0mg"},{"bike_id":"ebee0f67-7511-4815-9dee-441ef33f2f9f","system_id":"levelo_inurba_marseille","lat":43.23217,"lon":5.39956,"is_reserved":false,"is_disabled":false,"rental_uris":{"android":"levelo://app?vid=ebee0f67-7511-4815-9dee-441ef33f2f9f","ios":"levelo://app?vid=ebee0f67-7511-4815-9dee-441ef33f2f9f"},"vehicle_type_id":"4","last_reported":1748776046,"current_range_meters":16000,"station_id":"","pricing_plan_id":"cebpf4jnsgd1na2vs0mg"},{"bike_id":"48fc97c0-ee1c-4249-a115-30bee53aa7ae","system_id":"levelo_inurba_marseille","lat":43.29229,"lon":5.36056,"is_reserved":false,"is_disabled":false,"rental_uris":{"android":"levelo://app?vid=48fc97c0-ee1c-4249-a115-30bee53aa7ae","ios":"levelo://app?vid=48fc97c0-ee1c-4249-a115-30bee53aa7ae"},"vehicle_type_id":"4","last_reported":1748776046,"current_range_meters":16000,"station_id":"ce4bhbh2rcd13ifvqeqg","pricing_plan_id":"cebpf4jnsgd1na2vs0mg"},{"bike_id":"a7b3cacf-41fa-4618-bf9f-4bbdea0db8e1","system_id":"levelo_inurba_marseille","lat":43.24089,"lon":5.37738,"is_reserved":false,"is_disabled":false,"rental_uris":{"android":"levelo://app?vid=a7b3cacf-41fa-4618-bf9f-4bbdea0db8e1","ios":"levelo://app?vid=a7b3cacf-41fa-4618-bf9f-4bbdea0db8e1"},"vehicle_type_id":"4","last_reported":1748776046,"current_range_meters":16400,"station_id":"ce4bhnp2rcd13ifvqgvg","pricing_plan_id":"cebpf4jnsgd1na2vs0mg"},{"bike_id":"20463a4d-f7a7-411a-9761-d59585ff217f","system_id":"levelo_inurba_marseille","lat":43.30141,"lon":5.39859,"is_reserved":false,"is_disabled":false,"rental_uris":{"android":"levelo://app?vid=20463a4d-f7a7-411a-9761-d59585ff217f","ios":"levelo://app?vid=20463a4d-f7a7-411a-9761-d59585ff217f"},"vehicle_type_id":"4","last_reported":1748776046,"current_range_meters":16400,"station_id":"ce4bh0h2rcd13ifvqd40","pricing_plan_id":"cebpf4jnsgd1na2vs0mg"},{"bike_id":"7c3e8ed6-154a-4e39-b355-40d7b04e4416","system_id":"levelo_inurba_marseille","lat":43.31725,"lon":5.42396,"is_reserved":false,"is_disabled":false,"rental_uris":{"android":"levelo://app?vid=7c3e8ed6-154a-4e39-b355-40d7b04e4416","ios":"levelo://app?vid=7c3e8ed6-154a-4e39-b355-40d7b04e4416"},"vehicle_type_id":"4","last_reported":1748776046,"current_range_meters":16400,"station_id":"ce4bhp92rcd13ifvqhbg","pricing_plan_id":"cebpf4jnsgd1na2vs0mg"},{"bike_id":"0d14ac70-68c2-460a-afb8-073ba6a764e7","system_id":"levelo_inurba_marseille","lat":43.29624,"lon":5.3716,"is_reserved":false,"is_disabled":false,"rental_uris":{"android":"levelo://app?vid=0d14ac70-68c2-460a-afb8-073ba6a764e7","ios":"levelo://app?vid=0d14ac70-68c2-460a-afb8-073ba6a764e7"},"vehicle_type_id":"4","last_reported":1748776046,"current_range_meters":16400,"station_id":"ce4bgnh2rcd13ifvqc0g","pricing_plan_id":"cebpf4jnsgd1na2vs0mg"},{"bike_id":"c2429b28-c4ab-4c5a-952b-4656120c21b2","system_id":"levelo_inurba_marseille","lat":43.316965,"lon":5.40452,"is_reserved":false,"is_disabled":false,"rental_uris":{"android":"levelo://app?vid=c2429b28-c4ab-4c5a-952b-4656120c21b2","ios":"levelo://app?vid=c2429b28-c4ab-4c5a-952b-4656120c21b2"},"vehicle_type_id":"4","last_reported":1748776046,"current_range_meters":16400,"station_id":"ce4bh012rcd13ifvqd00","pricing_plan_id":"cebpf4jnsgd1na2vs0mg"},{"bike_id":"d698a491-2f13-4a4d-ada2-0f302f8e678a","system_id":"levelo_inurba_marseille","lat":43.28626,"lon":5.35129,"is_reserved":false,"is_disabled":false,"rental_uris":{"android":"levelo://app?vid=d698a491-2f13-4a4d-ada2-0f302f8e678a","ios":"levelo://app?vid=d698a491-2f13-4a4d-ada2-0f302f8e678a"},"vehicle_type_id":"4","last_reported":1748776046,"current_range_meters":16400,"station_id":"ce4bhch2rcd13ifvqeug","pricing_plan_id":"cebpf4jnsgd1na2vs0mg"},{"bike_id":"3135d829-6363-42a4-bdfc-7b782c3c708e","system_id":"levelo_inurba_marseille","lat":43.286608,"lon":5.363458,"is_reserved":false,"is_disabled":true,"rental_uris":{"android":"levelo://app?vid=3135d829-6363-42a4-bdfc-7b782c3c708e","ios":"levelo://app?vid=3135d829-6363-42a4-bdfc-7b782c3c708e"},"vehicle_type_id":"4","last_reported":1748776046,"current_range_meters":16400,"station_id":"ce4bhah2rcd13ifvqej0","pricing_plan_id":"cebpf4jnsgd1na2vs0mg"},{"bike_id":"77251605-7152-47a6-8432-cec7c4dc3a07","system_id":"levelo_inurba_marseille","lat":43.26509,"lon":5.39544,"is_reserved":false,"is_disabled":false,"rental_uris":{"android":"levelo://app?vid=77251605-7152-47a6-8432-cec7c4dc3a07","ios":"levelo://app?vid=77251605-7152-47a6-8432-cec7c4dc3a07"},"vehicle_type_id":"4","last_reported":1748776046,"current_range_meters":16400,"station_id":"ce4bhi12rcd13ifvqfq0","pricing_plan_id":"cebpf4jnsgd1na2vs0mg"},{"bike_id":"99fc0013-49ba-4e69-9175-49e177d9845c","system_id":"levelo_inurba_marseille","lat":43.23965,"lon":5.36617,"is_reserved":false,"is_disabled":false,"rental_uris":{"android":"levelo://app?vid=99fc0013-49ba-4e69-9175-49e177d9845c","ios":"levelo://app?vid=99fc0013-49ba-4e69-9175-49e177d9845c"},"vehicle_type_id":"4","last_reported":1748776046,"current_range_meters":16800,"station_id":"ce4bhi12rcd13ifvqfp0","pricing_plan_id":"cebpf4jnsgd1na2vs0mg"},{"bike_id":"9d166f89-4853-4abc-9129-61b3862b6ac8","system_id":"levelo_inurba_marseille","lat":43.2842,"lon":5.34996,"is_reserved":false,"is_disabled":false,"rental_uris":{"android":"levelo://app?vid=9d166f89-4853-4abc-9129-61b3862b6ac8","ios":"levelo://app?vid=9d166f89-4853-4abc-9129-61b3862b6ac8"},"vehicle_type_id":"4","last_reported":1748776046,"current_range_meters":16800,"station_id":"ce4bhbh2rcd13ifvqepg","pricing_plan_id":"cebpf4jnsgd1na2vs0mg"},{"bike_id":"9baf5bdf-cb79-46a7-b530-77520322783a","system_id":"levelo_inurba_marseille","lat":43.24398,"lon":5.37032,"is_reserved":false,"is_disabled":false,"rental_uris":{"android":"levelo://app?vid=9baf5bdf-cb79-46a7-b530-77520322783a","ios":"levelo://app?vid=9baf5bdf-cb79-46a7-b530-77520322783a"},"vehicle_type_id":"4","last_reported":1748776046,"current_range_meters":16800,"station_id":"ce4bhhh2rcd13ifvqfk0","pricing_plan_id":"cebpf4jnsgd1na2vs0mg"},{"bike_id":"773df2ef-590d-4954-996c-ac2e8a152fed","system_id":"levelo_inurba_marseille","lat":43.31241,"lon":5.36843,"is_reserved":false,"is_disabled":false,"rental_uris":{"android":"levelo://app?vid=773df2ef-590d-4954-996c-ac2e8a152fed","ios":"levelo://app?vid=773df2ef-590d-4954-996c-ac2e8a152fed"},"vehicle_type_id":"4","last_reported":1748776046,"current_range_meters":16800,"station_id":"ce4bgl92rcd13ifvqbq0","pricing_plan_id":"cebpf4jnsgd1na2vs0mg"},{"bike_id":"bee91618-6266-48b2-ae30-f7f89e154756","system_id":"levelo_inurba_marseille","lat":43.24179,"lon":5.39724,"is_reserved":false,"is_disabled":false,"rental_uris":{"android":"levelo://app?vid=bee91618-6266-48b2-ae30-f7f89e154756","ios":"levelo://app?vid=bee91618-6266-48b2-ae30-f7f89e154756"},"vehicle_type_id":"4","last_reported":1748776046,"current_range_meters":16800,"station_id":"ce4bhn12rcd13ifvqgpg","pricing_plan_id":"cebpf4jnsgd1na2vs0mg"},{"bike_id":"e4f2e553-75d1-42a7-95cb-b18b90074a93","system_id":"levelo_inurba_marseille","lat":43.31748,"lon":5.38762,"is_reserved":false,"is_disabled":false,"rental_uris":{"android":"levelo://app?vid=e4f2e553-75d1-42a7-95cb-b18b90074a93","ios":"levelo://app?vid=e4f2e553-75d1-42a7-95cb-b18b90074a93"},"vehicle_type_id":"4","last_reported":1748776046,"current_range_meters":16800,"station_id":"","pricing_plan_id":"cebpf4jnsgd1na2vs0mg"},{"bike_id":"084e393d-5e7a-437a-b364-1d492dfb669c","system_id":"levelo_inurba_marseille","lat":43.28276,"lon":5.35053,"is_reserved":false,"is_disabled":false,"rental_uris":{"android":"levelo://app?vid=084e393d-5e7a-437a-b364-1d492dfb669c","ios":"levelo://app?vid=084e393d-5e7a-437a-b364-1d492dfb669c"},"vehicle_type_id":"4","last_reported":1748776046,"current_range_meters":16800,"station_id":"ce4bhbp2rcd13ifvqerg","pricing_plan_id":"cebpf4jnsgd1na2vs0mg"},{"bike_id":"231bbc6b-a804-4f8a-b0c7-cabc7799e07f","system_id":"levelo_inurba_marseille","lat":43.23183,"lon":5.39988,"is_reserved":false,"is_disabled":false,"rental_uris":{"android":"levelo://app?vid=231bbc6b-a804-4f8a-b0c7-cabc7799e07f","ios":"levelo://app?vid=231bbc6b-a804-4f8a-b0c7-cabc7799e07f"},"vehicle_type_id":"4","last_reported":1748776046,"current_range_meters":16800,"station_id":"ce4bhn12rcd13ifvqgqg","pricing_plan_id":"cebpf4jnsgd1na2vs0mg"},{"bike_id":"eeec1ab4-e7e1-4281-8f31-817621443bb7","system_id":"levelo_inurba_marseille","lat":43.307078,"lon":5.373264,"is_reserved":false,"is_disabled":false,"rental_uris":{"android":"levelo://app?vid=eeec1ab4-e7e1-4281-8f31-817621443bb7","ios":"levelo://app?vid=eeec1ab4-e7e1-4281-8f31-817621443bb7"},"vehicle_type_id":"4","last_reported":1748776046,"current_range_meters":16800,"station_id":"","pricing_plan_id":"cebpf4jnsgd1na2vs0mg"},{"bike_id":"7809b006-8cdc-4ae9-b980-fa2a5162dc64","system_id":"levelo_inurba_marseille","lat":43.24172,"lon":5.36391,"is_reserved":false,"is_disabled":false,"rental_uris":{"android":"levelo://app?vid=7809b006-8cdc-4ae9-b980-fa2a5162dc64","ios":"levelo://app?vid=7809b006-8cdc-4ae9-b980-fa2a5162dc64"},"vehicle_type_id":"4","last_reported":1748776046,"current_range_meters":16800,"station_id":"cpo36qri1sfpv3e86is0","pricing_plan_id":"cebpf4jnsgd1na2vs0mg"},{"bike_id":"2e0367d8-c2b4-4d07-813d-b30be29efeb1","system_id":"levelo_inurba_marseille","lat":43.29553,"lon":5.39393,"is_reserved":false,"is_disabled":false,"rental_uris":{"android":"levelo://app?vid=2e0367d8-c2b4-4d07-813d-b30be29efeb1","ios":"levelo://app?vid=2e0367d8-c2b4-4d07-813d-b30be29efeb1"},"vehicle_type_id":"4","last_reported":1748776046,"current_range_meters":16800,"station_id":"ce4bh292rcd13ifvqdf0","pricing_plan_id":"cebpf4jnsgd1na2vs0mg"},{"bike_id":"484f862c-d1bd-4d89-b2b3-0537cc578e08","system_id":"levelo_inurba_marseille","lat":43.30793,"lon":5.38159,"is_reserved":false,"is_disabled":false,"rental_uris":{"android":"levelo://app?vid=484f862c-d1bd-4d89-b2b3-0537cc578e08","ios":"levelo://app?vid=484f862c-d1bd-4d89-b2b3-0537cc578e08"},"vehicle_type_id":"4","last_reported":1748776046,"current_range_meters":17200,"station_id":"ce4bgt12rcd13ifvqce0","pricing_plan_id":"cebpf4jnsgd1na2vs0mg"},{"bike_id":"f245d46b-e332-4c52-b195-3d47b2dbbda7","system_id":"levelo_inurba_marseille","lat":43.29003,"lon":5.35609,"is_reserved":false,"is_disabled":false,"rental_uris":{"android":"levelo://app?vid=f245d46b-e332-4c52-b195-3d47b2dbbda7","ios":"levelo://app?vid=f245d46b-e332-4c52-b195-3d47b2dbbda7"},"vehicle_type_id":"4","last_reported":1748776046,"current_range_meters":17200,"station_id":"ce4bhb92rcd13ifvqen0","pricing_plan_id":"cebpf4jnsgd1na2vs0mg"},{"bike_id":"ad74a644-57ab-466b-815d-76b8fa127ec8","system_id":"levelo_inurba_marseille","lat":43.31304,"lon":5.39955,"is_reserved":false,"is_disabled":false,"rental_uris":{"android":"levelo://app?vid=ad74a644-57ab-466b-815d-76b8fa127ec8","ios":"levelo://app?vid=ad74a644-57ab-466b-815d-76b8fa127ec8"},"vehicle_type_id":"4","last_reported":1748776046,"current_range_meters":17200,"station_id":"","pricing_plan_id":"cebpf4jnsgd1na2vs0mg"},{"bike_id":"33c35359-5524-4058-83ce-91ea8fac1ba0","system_id":"levelo_inurba_marseille","lat":43.24169,"lon":5.36389,"is_reserved":false,"is_disabled":false,"rental_uris":{"android":"levelo://app?vid=33c35359-5524-4058-83ce-91ea8fac1ba0","ios":"levelo://app?vid=33c35359-5524-4058-83ce-91ea8fac1ba0"},"vehicle_type_id":"4","last_reported":1748776046,"current_range_meters":17200,"station_id":"cpo36qri1sfpv3e86is0","pricing_plan_id":"cebpf4jnsgd1na2vs0mg"},{"bike_id":"d9edca53-1065-47a2-9b52-0241f50707f2","system_id":"levelo_inurba_marseille","lat":43.2417,"lon":5.36394,"is_reserved":false,"is_disabled":false,"rental_uris":{"android":"levelo://app?vid=d9edca53-1065-47a2-9b52-0241f50707f2","ios":"levelo://app?vid=d9edca53-1065-47a2-9b52-0241f50707f2"},"vehicle_type_id":"4","last_reported":1748776046,"current_range_meters":17200,"station_id":"cpo36qri1sfpv3e86is0","pricing_plan_id":"cebpf4jnsgd1na2vs0mg"},{"bike_id":"19151703-9e09-41ec-9e52-453d4dd14611","system_id":"levelo_inurba_marseille","lat":43.24171,"lon":5.36392,"is_reserved":false,"is_disabled":false,"rental_uris":{"android":"levelo://app?vid=19151703-9e09-41ec-9e52-453d4dd14611","ios":"levelo://app?vid=19151703-9e09-41ec-9e52-453d4dd14611"},"vehicle_type_id":"4","last_reported":1748776046,"current_range_meters":17200,"station_id":"cpo36qri1sfpv3e86is0","pricing_plan_id":"cebpf4jnsgd1na2vs0mg"},{"bike_id":"01d51a3b-bd36-4bae-b70d-feca5edf1a87","system_id":"levelo_inurba_marseille","lat":43.28131,"lon":5.39864,"is_reserved":false,"is_disabled":false,"rental_uris":{"android":"levelo://app?vid=01d51a3b-bd36-4bae-b70d-feca5edf1a87","ios":"levelo://app?vid=01d51a3b-bd36-4bae-b70d-feca5edf1a87"},"vehicle_type_id":"4","last_reported":1748776046,"current_range_meters":17200,"station_id":"","pricing_plan_id":"cebpf4jnsgd1na2vs0mg"},{"bike_id":"acb04c05-7db2-4740-aa48-2ebab1b63353","system_id":"levelo_inurba_marseille","lat":43.25132,"lon":5.403473,"is_reserved":false,"is_disabled":false,"rental_uris":{"android":"levelo://app?vid=acb04c05-7db2-4740-aa48-2ebab1b63353","ios":"levelo://app?vid=acb04c05-7db2-4740-aa48-2ebab1b63353"},"vehicle_type_id":"4","last_reported":1748776046,"current_range_meters":17200,"station_id":"ce4bhlh2rcd13ifvqgig","pricing_plan_id":"cebpf4jnsgd1na2vs0mg"},{"bike_id":"ab1c1e46-3f96-4349-b80e-a18a37124a34","system_id":"levelo_inurba_marseille","lat":43.29038,"lon":5.37564,"is_reserved":false,"is_disabled":false,"rental_uris":{"android":"levelo://app?vid=ab1c1e46-3f96-4349-b80e-a18a37124a34","ios":"levelo://app?vid=ab1c1e46-3f96-4349-b80e-a18a37124a34"},"vehicle_type_id":"4","last_reported":1748776046,"current_range_meters":16800,"station_id":"ce4bh692rcd13ifvqe90","pricing_plan_id":"cebpf4jnsgd1na2vs0mg"},{"bike_id":"59273f64-4b0b-4745-9cad-a7cf896ec233","system_id":"levelo_inurba_marseille","lat":43.23191,"lon":5.35548,"is_reserved":false,"is_disabled":false,"rental_uris":{"android":"levelo://app?vid=59273f64-4b0b-4745-9cad-a7cf896ec233","ios":"levelo://app?vid=59273f64-4b0b-4745-9cad-a7cf896ec233"},"vehicle_type_id":"4","last_reported":1748776046,"current_range_meters":17600,"station_id":"ce4bhu92rcd13ifvqi70","pricing_plan_id":"cebpf4jnsgd1na2vs0mg"},{"bike_id":"f6b91c75-ca0e-47d6-b234-e3d6fe1e8fde","system_id":"levelo_inurba_marseille","lat":43.29274,"lon":5.3764,"is_reserved":false,"is_disabled":false,"rental_uris":{"android":"levelo://app?vid=f6b91c75-ca0e-47d6-b234-e3d6fe1e8fde","ios":"levelo://app?vid=f6b91c75-ca0e-47d6-b234-e3d6fe1e8fde"},"vehicle_type_id":"4","last_reported":1748776046,"current_range_meters":17600,"station_id":"ce4bgi12rcd13ifvqb80","pricing_plan_id":"cebpf4jnsgd1na2vs0mg"},{"bike_id":"0a529f92-6849-4a90-829e-f7ae89522b3f","system_id":"levelo_inurba_marseille","lat":43.29609,"lon":5.38103,"is_reserved":false,"is_disabled":false,"rental_uris":{"android":"levelo://app?vid=0a529f92-6849-4a90-829e-f7ae89522b3f","ios":"levelo://app?vid=0a529f92-6849-4a90-829e-f7ae89522b3f"},"vehicle_type_id":"4","last_reported":1748776046,"current_range_meters":17600,"station_id":"ce4bgl12rcd13ifvqbo0","pricing_plan_id":"cebpf4jnsgd1na2vs0mg"},{"bike_id":"254e030c-a78f-41be-9494-6c89fd4aac35","system_id":"levelo_inurba_marseille","lat":43.284541,"lon":5.358954,"is_reserved":false,"is_disabled":true,"rental_uris":{"android":"levelo://app?vid=254e030c-a78f-41be-9494-6c89fd4aac35","ios":"levelo://app?vid=254e030c-a78f-41be-9494-6c89fd4aac35"},"vehicle_type_id":"4","last_reported":1748776046,"current_range_meters":17600,"station_id":"ce4bhah2rcd13ifvqei0","pricing_plan_id":"cebpf4jnsgd1na2vs0mg"},{"bike_id":"f9707e64-f3a2-4626-8e27-5509f44d3427","system_id":"levelo_inurba_marseille","lat":43.24175,"lon":5.36384,"is_reserved":false,"is_disabled":true,"rental_uris":{"android":"levelo://app?vid=f9707e64-f3a2-4626-8e27-5509f44d3427","ios":"levelo://app?vid=f9707e64-f3a2-4626-8e27-5509f44d3427"},"vehicle_type_id":"4","last_reported":1748776046,"current_range_meters":17600,"station_id":"cpo36qri1sfpv3e86is0","pricing_plan_id":"cebpf4jnsgd1na2vs0mg"},{"bike_id":"cd6b9dba-2cb3-46bd-93d0-099439bb89bd","system_id":"levelo_inurba_marseille","lat":43.27706,"lon":5.35692,"is_reserved":false,"is_disabled":false,"rental_uris":{"android":"levelo://app?vid=cd6b9dba-2cb3-46bd-93d0-099439bb89bd","ios":"levelo://app?vid=cd6b9dba-2cb3-46bd-93d0-099439bb89bd"},"vehicle_type_id":"4","last_reported":1748776046,"current_range_meters":17600,"station_id":"ce4bh492rcd13ifvqdug","pricing_plan_id":"cebpf4jnsgd1na2vs0mg"},{"bike_id":"3f45b21f-fbd3-4ded-86e6-74f22f2b89c5","system_id":"levelo_inurba_marseille","lat":43.27815,"lon":5.40703,"is_reserved":false,"is_disabled":false,"rental_uris":{"android":"levelo://app?vid=3f45b21f-fbd3-4ded-86e6-74f22f2b89c5","ios":"levelo://app?vid=3f45b21f-fbd3-4ded-86e6-74f22f2b89c5"},"vehicle_type_id":"4","last_reported":1748776046,"current_range_meters":17600,"station_id":"ce4bhnh2rcd13ifvqgtg","pricing_plan_id":"cebpf4jnsgd1na2vs0mg"},{"bike_id":"ffcf5e75-be4e-415b-af74-1536e9150171","system_id":"levelo_inurba_marseille","lat":43.30536,"lon":5.38411,"is_reserved":false,"is_disabled":false,"rental_uris":{"android":"levelo://app?vid=ffcf5e75-be4e-415b-af74-1536e9150171","ios":"levelo://app?vid=ffcf5e75-be4e-415b-af74-1536e9150171"},"vehicle_type_id":"4","last_reported":1748776046,"current_range_meters":18000,"station_id":"ce4bgg92rcd13ifvqb30","pricing_plan_id":"cebpf4jnsgd1na2vs0mg"},{"bike_id":"db90e230-9275-48d9-a8e1-bc7e7d5da86e","system_id":"levelo_inurba_marseille","lat":43.26487,"lon":5.38342,"is_reserved":false,"is_disabled":false,"rental_uris":{"android":"levelo://app?vid=db90e230-9275-48d9-a8e1-bc7e7d5da86e","ios":"levelo://app?vid=db90e230-9275-48d9-a8e1-bc7e7d5da86e"},"vehicle_type_id":"4","last_reported":1748776046,"current_range_meters":18000,"station_id":"","pricing_plan_id":"cebpf4jnsgd1na2vs0mg"},{"bike_id":"ef7e9c23-56d6-4bb2-8fb8-a1e2286d881e","system_id":"levelo_inurba_marseille","lat":43.273378,"lon":5.362597,"is_reserved":false,"is_disabled":false,"rental_uris":{"android":"levelo://app?vid=ef7e9c23-56d6-4bb2-8fb8-a1e2286d881e","ios":"levelo://app?vid=ef7e9c23-56d6-4bb2-8fb8-a1e2286d881e"},"vehicle_type_id":"4","last_reported":1748776046,"current_range_meters":18000,"station_id":"","pricing_plan_id":"cebpf4jnsgd1na2vs0mg"},{"bike_id":"89afe3be-62bc-43f4-9a13-5822af12e086","system_id":"levelo_inurba_marseille","lat":43.28616,"lon":5.35095,"is_reserved":false,"is_disabled":false,"rental_uris":{"android":"levelo://app?vid=89afe3be-62bc-43f4-9a13-5822af12e086","ios":"levelo://app?vid=89afe3be-62bc-43f4-9a13-5822af12e086"},"vehicle_type_id":"4","last_reported":1748776046,"current_range_meters":18000,"station_id":"ce4bhch2rcd13ifvqeug","pricing_plan_id":"cebpf4jnsgd1na2vs0mg"},{"bike_id":"6706f589-1e8f-4aac-b035-9267ef5002d6","system_id":"levelo_inurba_marseille","lat":43.23062,"lon":5.35494,"is_reserved":false,"is_disabled":false,"rental_uris":{"android":"levelo://app?vid=6706f589-1e8f-4aac-b035-9267ef5002d6","ios":"levelo://app?vid=6706f589-1e8f-4aac-b035-9267ef5002d6"},"vehicle_type_id":"4","last_reported":1748776046,"current_range_meters":18000,"station_id":"cpo3342slgdg3j2ifvpg","pricing_plan_id":"cebpf4jnsgd1na2vs0mg"},{"bike_id":"292b76f9-85ce-4766-b6ec-f24f346057dd","system_id":"levelo_inurba_marseille","lat":43.231823,"lon":5.399925,"is_reserved":false,"is_disabled":false,"rental_uris":{"android":"levelo://app?vid=292b76f9-85ce-4766-b6ec-f24f346057dd","ios":"levelo://app?vid=292b76f9-85ce-4766-b6ec-f24f346057dd"},"vehicle_type_id":"4","last_reported":1748776046,"current_range_meters":18000,"station_id":"ce4bhn12rcd13ifvqgqg","pricing_plan_id":"cebpf4jnsgd1na2vs0mg"},{"bike_id":"37741ffa-d5b0-4259-b30d-dfe0049368e2","system_id":"levelo_inurba_marseille","lat":43.29271,"lon":5.38426,"is_reserved":false,"is_disabled":false,"rental_uris":{"android":"levelo://app?vid=37741ffa-d5b0-4259-b30d-dfe0049368e2","ios":"levelo://app?vid=37741ffa-d5b0-4259-b30d-dfe0049368e2"},"vehicle_type_id":"4","last_reported":1748776046,"current_range_meters":18000,"station_id":"ce4bh692rcd13ifvqea0","pricing_plan_id":"cebpf4jnsgd1na2vs0mg"},{"bike_id":"8189ca33-df11-4bec-b1ee-5d277f376b31","system_id":"levelo_inurba_marseille","lat":43.273798,"lon":5.362529,"is_reserved":false,"is_disabled":false,"rental_uris":{"android":"levelo://app?vid=8189ca33-df11-4bec-b1ee-5d277f376b31","ios":"levelo://app?vid=8189ca33-df11-4bec-b1ee-5d277f376b31"},"vehicle_type_id":"4","last_reported":1748776046,"current_range_meters":18000,"station_id":"ce4bhb12rcd13ifvqel0","pricing_plan_id":"cebpf4jnsgd1na2vs0mg"},{"bike_id":"2e00230e-967f-4d74-bc59-72de1bc6c933","system_id":"levelo_inurba_marseille","lat":43.30583,"lon":5.37201,"is_reserved":false,"is_disabled":false,"rental_uris":{"android":"levelo://app?vid=2e00230e-967f-4d74-bc59-72de1bc6c933","ios":"levelo://app?vid=2e00230e-967f-4d74-bc59-72de1bc6c933"},"vehicle_type_id":"4","last_reported":1748776046,"current_range_meters":18000,"station_id":"ce4bgqh2rcd13ifvqc4g","pricing_plan_id":"cebpf4jnsgd1na2vs0mg"},{"bike_id":"8741956a-cea2-406f-9f68-e76f20ab0e71","system_id":"levelo_inurba_marseille","lat":43.305537,"lon":5.36528,"is_reserved":false,"is_disabled":false,"rental_uris":{"android":"levelo://app?vid=8741956a-cea2-406f-9f68-e76f20ab0e71","ios":"levelo://app?vid=8741956a-cea2-406f-9f68-e76f20ab0e71"},"vehicle_type_id":"4","last_reported":1748776046,"current_range_meters":18800,"station_id":"ce4bgs12rcd13ifvqcag","pricing_plan_id":"cebpf4jnsgd1na2vs0mg"},{"bike_id":"b4bf2f2c-f0ec-45fb-bc3c-6fb7cc0ec230","system_id":"levelo_inurba_marseille","lat":43.23152,"lon":5.43706,"is_reserved":false,"is_disabled":false,"rental_uris":{"android":"levelo://app?vid=b4bf2f2c-f0ec-45fb-bc3c-6fb7cc0ec230","ios":"levelo://app?vid=b4bf2f2c-f0ec-45fb-bc3c-6fb7cc0ec230"},"vehicle_type_id":"4","last_reported":1748776046,"current_range_meters":18800,"station_id":"ce4bhmp2rcd13ifvqgog","pricing_plan_id":"cebpf4jnsgd1na2vs0mg"},{"bike_id":"395c6529-57db-45f9-b924-761e15fc77d0","system_id":"levelo_inurba_marseille","lat":43.26224,"lon":5.40445,"is_reserved":false,"is_disabled":false,"rental_uris":{"android":"levelo://app?vid=395c6529-57db-45f9-b924-761e15fc77d0","ios":"levelo://app?vid=395c6529-57db-45f9-b924-761e15fc77d0"},"vehicle_type_id":"4","last_reported":1748776046,"current_range_meters":18800,"station_id":"ce4bhmh2rcd13ifvqgmg","pricing_plan_id":"cebpf4jnsgd1na2vs0mg"},{"bike_id":"1a55e1bd-86e0-4f2a-af59-99c6a5410434","system_id":"levelo_inurba_marseille","lat":43.29909,"lon":5.43669,"is_reserved":false,"is_disabled":false,"rental_uris":{"android":"levelo://app?vid=1a55e1bd-86e0-4f2a-af59-99c6a5410434","ios":"levelo://app?vid=1a55e1bd-86e0-4f2a-af59-99c6a5410434"},"vehicle_type_id":"4","last_reported":1748776046,"current_range_meters":18800,"station_id":"ce4bhpp2rcd13ifvqhfg","pricing_plan_id":"cebpf4jnsgd1na2vs0mg"},{"bike_id":"da95f25b-27df-45f4-ae30-9fbde1b4f1a5","system_id":"levelo_inurba_marseille","lat":43.288162,"lon":5.505862,"is_reserved":false,"is_disabled":false,"rental_uris":{"android":"levelo://app?vid=da95f25b-27df-45f4-ae30-9fbde1b4f1a5","ios":"levelo://app?vid=da95f25b-27df-45f4-ae30-9fbde1b4f1a5"},"vehicle_type_id":"4","last_reported":1748776046,"current_range_meters":18800,"station_id":"","pricing_plan_id":"cebpf4jnsgd1na2vs0mg"},{"bike_id":"0022d8d5-2fb6-4bad-926b-639b015cb52d","system_id":"levelo_inurba_marseille","lat":43.287337,"lon":5.360883,"is_reserved":false,"is_disabled":false,"rental_uris":{"android":"levelo://app?vid=0022d8d5-2fb6-4bad-926b-639b015cb52d","ios":"levelo://app?vid=0022d8d5-2fb6-4bad-926b-639b015cb52d"},"vehicle_type_id":"4","last_reported":1748776046,"current_range_meters":18000,"station_id":"cki0cbj6b192h4jlfktg","pricing_plan_id":"cebpf4jnsgd1na2vs0mg"},{"bike_id":"f16329b0-9f11-47e2-8f66-7cb359a33b9d","system_id":"levelo_inurba_marseille","lat":43.2957,"lon":5.39965,"is_reserved":false,"is_disabled":false,"rental_uris":{"android":"levelo://app?vid=f16329b0-9f11-47e2-8f66-7cb359a33b9d","ios":"levelo://app?vid=f16329b0-9f11-47e2-8f66-7cb359a33b9d"},"vehicle_type_id":"4","last_reported":1748776046,"current_range_meters":18000,"station_id":"ce4bh312rcd13ifvqdj0","pricing_plan_id":"cebpf4jnsgd1na2vs0mg"},{"bike_id":"7f8ab202-46c1-466e-a93d-685dd3763063","system_id":"levelo_inurba_marseille","lat":43.24166,"lon":5.36397,"is_reserved":false,"is_disabled":false,"rental_uris":{"android":"levelo://app?vid=7f8ab202-46c1-466e-a93d-685dd3763063","ios":"levelo://app?vid=7f8ab202-46c1-466e-a93d-685dd3763063"},"vehicle_type_id":"4","last_reported":1748776046,"current_range_meters":18800,"station_id":"cpo36qri1sfpv3e86is0","pricing_plan_id":"cebpf4jnsgd1na2vs0mg"},{"bike_id":"e8c8946d-7d3a-4df0-ab4d-c9c5b180c30c","system_id":"levelo_inurba_marseille","lat":43.30759,"lon":5.37638,"is_reserved":false,"is_disabled":true,"rental_uris":{"android":"levelo://app?vid=e8c8946d-7d3a-4df0-ab4d-c9c5b180c30c","ios":"levelo://app?vid=e8c8946d-7d3a-4df0-ab4d-c9c5b180c30c"},"vehicle_type_id":"4","last_reported":1748776046,"current_range_meters":19200,"station_id":"ce4bgv92rcd13ifvqcq0","pricing_plan_id":"cebpf4jnsgd1na2vs0mg"},{"bike_id":"14530add-b8bc-4e8c-aaea-ed23066503de","system_id":"levelo_inurba_marseille","lat":43.211992,"lon":5.350597,"is_reserved":false,"is_disabled":false,"rental_uris":{"android":"levelo://app?vid=14530add-b8bc-4e8c-aaea-ed23066503de","ios":"levelo://app?vid=14530add-b8bc-4e8c-aaea-ed23066503de"},"vehicle_type_id":"4","last_reported":1748776046,"current_range_meters":19200,"station_id":"st_cvj6sg6p6f1abm77japg","pricing_plan_id":"cebpf4jnsgd1na2vs0mg"},{"bike_id":"157fac85-2c74-46dc-8373-f61ea8482be2","system_id":"levelo_inurba_marseille","lat":43.246718,"lon":5.38172,"is_reserved":false,"is_disabled":true,"rental_uris":{"android":"levelo://app?vid=157fac85-2c74-46dc-8373-f61ea8482be2","ios":"levelo://app?vid=157fac85-2c74-46dc-8373-f61ea8482be2"},"vehicle_type_id":"4","last_reported":1748776046,"current_range_meters":19200,"station_id":"ce4bhih2rcd13ifvqfr0","pricing_plan_id":"cebpf4jnsgd1na2vs0mg"},{"bike_id":"007d31f6-8a68-466a-a0b8-9953d1f293c0","system_id":"levelo_inurba_marseille","lat":43.295657,"lon":5.399727,"is_reserved":false,"is_disabled":true,"rental_uris":{"android":"levelo://app?vid=007d31f6-8a68-466a-a0b8-9953d1f293c0","ios":"levelo://app?vid=007d31f6-8a68-466a-a0b8-9953d1f293c0"},"vehicle_type_id":"4","last_reported":1748776046,"current_range_meters":19200,"station_id":"","pricing_plan_id":"cebpf4jnsgd1na2vs0mg"},{"bike_id":"cb1aac20-660d-4e28-a3b9-e9200dc658a2","system_id":"levelo_inurba_marseille","lat":43.29393,"lon":5.37849,"is_reserved":false,"is_disabled":true,"rental_uris":{"android":"levelo://app?vid=cb1aac20-660d-4e28-a3b9-e9200dc658a2","ios":"levelo://app?vid=cb1aac20-660d-4e28-a3b9-e9200dc658a2"},"vehicle_type_id":"4","last_reported":1748776046,"current_range_meters":19200,"station_id":"ce4bgjh2rcd13ifvqbf0","pricing_plan_id":"cebpf4jnsgd1na2vs0mg"},{"bike_id":"6f8a9e94-496d-4888-a910-f9b9ba7460e2","system_id":"levelo_inurba_marseille","lat":43.24169,"lon":5.36387,"is_reserved":false,"is_disabled":false,"rental_uris":{"android":"levelo://app?vid=6f8a9e94-496d-4888-a910-f9b9ba7460e2","ios":"levelo://app?vid=6f8a9e94-496d-4888-a910-f9b9ba7460e2"},"vehicle_type_id":"4","last_reported":1748776046,"current_range_meters":19200,"station_id":"cpo36qri1sfpv3e86is0","pricing_plan_id":"cebpf4jnsgd1na2vs0mg"},{"bike_id":"812d3e39-c87f-416f-a6bf-446be3562e01","system_id":"levelo_inurba_marseille","lat":43.30466,"lon":5.37907,"is_reserved":false,"is_disabled":false,"rental_uris":{"android":"levelo://app?vid=812d3e39-c87f-416f-a6bf-446be3562e01","ios":"levelo://app?vid=812d3e39-c87f-416f-a6bf-446be3562e01"},"vehicle_type_id":"4","last_reported":1748776046,"current_range_meters":19600,"station_id":"ce4bgup2rcd13ifvqcn0","pricing_plan_id":"cebpf4jnsgd1na2vs0mg"},{"bike_id":"10bce9a9-1208-4b02-9ace-6b5b3cbdf887","system_id":"levelo_inurba_marseille","lat":43.32284,"lon":5.39082,"is_reserved":false,"is_disabled":false,"rental_uris":{"android":"levelo://app?vid=10bce9a9-1208-4b02-9ace-6b5b3cbdf887","ios":"levelo://app?vid=10bce9a9-1208-4b02-9ace-6b5b3cbdf887"},"vehicle_type_id":"4","last_reported":1748776046,"current_range_meters":19600,"station_id":"","pricing_plan_id":"cebpf4jnsgd1na2vs0mg"},{"bike_id":"d9fd69cc-7475-4e15-b529-ea8e7669b4c4","system_id":"levelo_inurba_marseille","lat":43.2481,"lon":5.37453,"is_reserved":false,"is_disabled":false,"rental_uris":{"android":"levelo://app?vid=d9fd69cc-7475-4e15-b529-ea8e7669b4c4","ios":"levelo://app?vid=d9fd69cc-7475-4e15-b529-ea8e7669b4c4"},"vehicle_type_id":"4","last_reported":1748776046,"current_range_meters":19600,"station_id":"ce4bhgh2rcd13ifvqfb0","pricing_plan_id":"cebpf4jnsgd1na2vs0mg"},{"bike_id":"acce2cca-f401-46ac-a905-4ffab3d338ce","system_id":"levelo_inurba_marseille","lat":43.23068,"lon":5.35486,"is_reserved":false,"is_disabled":false,"rental_uris":{"android":"levelo://app?vid=acce2cca-f401-46ac-a905-4ffab3d338ce","ios":"levelo://app?vid=acce2cca-f401-46ac-a905-4ffab3d338ce"},"vehicle_type_id":"4","last_reported":1748776046,"current_range_meters":19600,"station_id":"cpo3342slgdg3j2ifvpg","pricing_plan_id":"cebpf4jnsgd1na2vs0mg"},