{"last_updated":1740377661,"ttl":60,"version":"2.2","data":{"bikes":[{"bike_id":"71174ddc-595a-46a9-ad92-3fd94195403d","system_id":"levelo_inurba_marseille","lat":43.3229,"lon":5.38268,"is_reserved":false,"is_disabled":false,"rental_uris":{"android":"levelo://app?vid=71174ddc-595a-46a9-ad92-3fd94195403d","ios":"levelo://app?vid=71174ddc-595a-46a9-ad92-3fd94195403d"},"vehicle_type_id":"4","last_reported":1740377661,"current_range_meters":2800,"station_id":"ce4bhr12rcd13ifvqhqg","pricing_plan_id":"cebpf4jnsgd1na2vs0mg"},{"bike_id":"2a7165b4-60a1-4418-90cd-83d9915280e2","system_id":"levelo_inurba_marseille","lat":43.27971,"lon":5.40584,"is_reserved":false,"is_disabled":false,"rental_uris":{"android":"levelo://app?vid=2a7165b4-60a1-4418-90cd-83d9915280e2","ios":"levelo://app?vid=2a7165b4-60a1-4418-90cd-83d9915280e2"},"vehicle_type_id":"4","last_reported":1740377661,"current_range_meters":2800,"station_id":"","pricing_plan_id":"cebpf4jnsgd1na2vs0mg"},{"bike_id":"2277c4b4-4610-40d9-bc21-009d6cf537b9","system_id":"levelo_inurba_marseille","lat":43.29544,"lon":5.39513,"is_reserved":false,"is_disabled":false,"rental_uris":{"android":"levelo://app?vid=2277c4b4-4610-40d9-bc21-009d6cf537b9","ios":"levelo://app?vid=2277c4b4-4610-40d9-bc21-009d6cf537b9"},"vehicle_type_id":"4","last_reported":1740377661,"current_range_meters":3200,"station_id":"","pricing_plan_id":"cebpf4jnsgd1na2vs0mg"},{"bike_id":"5be81403-e80e-49df-8f5d-218571205bc6","system_id":"levelo_inurba_marseille","lat":43.28398,"lon":5.37527,"is_reserved":false,"is_disabled":true,"rental_uris":{"android":"levelo://app?vid=5be81403-e80e-49df-8f5d-218571205bc6","ios":"levelo://app?vid=5be81403-e80e-49df-8f5d-218571205bc6"},"vehicle_type_id":"4","last_reported":1740377661,"current_range_meters":3200,"station_id":"ce4bh412rcd13ifvqds0","pricing_plan_id":"cebpf4jnsgd1na2vs0mg"},{"bike_id":"2e4d9ef6-4dd9-45eb-8687-42db3850d70a","system_id":"levelo_inurba_marseille","lat":43.27464,"lon":5.40742,"is_reserved":false,"is_disabled":false,"rental_uris":{"android":"levelo://app?vid=2e4d9ef6-4dd9-45eb-8687-42db3850d70a","ios":"levelo://app?vid=2e4d9ef6-4dd9-45eb-8687-42db3850d70a"},"vehicle_type_id":"4","last_reported":1740377661,"current_range_meters":3200,"station_id":"","pricing_plan_id":"cebpf4jnsgd1na2vs0mg"},{"bike_id":"9e8fa14a-d007-4b8d-88f7-566624153558","system_id":"levelo_inurba_marseille","lat":43.32338,"lon":5.4063,"is_reserved":false,"is_disabled":false,"rental_uris":{"android":"levelo://app?vid=9e8fa14a-d007-4b8d-88f7-566624153558","ios":"levelo://app?vid=9e8fa14a-d007-4b8d-88f7-566624153558"},"vehicle_type_id":"4","last_reported":1740377661,"current_range_meters":4000,"station_id":"ce4bhq92rcd13ifvqhjg","pricing_plan_id":"cebpf4jnsgd1na2vs0mg"},{"bike_id":"2d28c2ad-8481-45c3-bb6b-0db53117a622","system_id":"levelo_inurba_marseille","lat":43.26204,"lon":5.37454,"is_reserved":false,"is_disabled":false,"rental_uris":{"android":"levelo://app?vid=2d28c2ad-8481-45c3-bb6b-0db53117a622","ios":"levelo://app?vid=2d28c2ad-8481-45c3-bb6b-0db53117a622"},"vehicle_type_id":"4","last_reported":1740377661,"current_range_meters":4400,"station_id":"ce4bhgp2rcd13ifvqfc0","pricing_plan_id":"cebpf4jnsgd1na2vs0mg"},{"bike_id":"7292c1e5-6964-4d8a-a212-eddc90011189","system_id":"levelo_inurba_marseille","lat":43.31117,"lon":5.37758,"is_reserved":false,"is_disabled":false,"rental_uris":{"android":"levelo://app?vid=7292c1e5-6964-4d8a-a212-eddc90011189","ios":"levelo://app?vid=7292c1e5-6964-4d8a-a212-eddc90011189"},"vehicle_type_id":"4","last_reported":1740377661,"current_range_meters":4400,"station_id":"ce4bgt92rcd13ifvqcg0","pricing_plan_id":"cebpf4jnsgd1na2vs0mg"},{"bike_id":"68eaf70c-86da-4a55-b86e-08db94ec71f8","system_id":"levelo_inurba_marseille","lat":43.30886,"lon":5.39629,"is_reserved":false,"is_disabled":false,"rental_uris":{"android":"levelo://app?vid=68eaf70c-86da-4a55-b86e-08db94ec71f8","ios":"levelo://app?vid=68eaf70c-86da-4a55-b86e-08db94ec71f8"},"vehicle_type_id":"4","last_reported":1740377661,"current_range_meters":4800,"station_id":"ce4bh012rcd13ifvqcv0","pricing_plan_id":"cebpf4jnsgd1na2vs0mg"},{"bike_id":"1284377d-613e-4b0e-b8b9-30807af03316","system_id":"levelo_inurba_marseille","lat":43.27864,"lon":5.39179,"is_reserved":false,"is_disabled":true,"rental_uris":{"android":"levelo://app?vid=1284377d-613e-4b0e-b8b9-30807af03316","ios":"levelo://app?vid=1284377d-613e-4b0e-b8b9-30807af03316"},"vehicle_type_id":"4","last_reported":1740377661,"current_range_meters":4800,"station_id":"ce4bhjp2rcd13ifvqga0","pricing_plan_id":"cebpf4jnsgd1na2vs0mg"},{"bike_id":"519c0d90-c598-4074-9c80-d5e1565ff705","system_id":"levelo_inurba_marseille","lat":43.23072,"lon":5.35494,"is_reserved":false,"is_disabled":false,"rental_uris":{"android":"levelo://app?vid=519c0d90-c598-4074-9c80-d5e1565ff705","ios":"levelo://app?vid=519c0d90-c598-4074-9c80-d5e1565ff705"},"vehicle_type_id":"4","last_reported":1740377661,"current_range_meters":5600,"station_id":"cpo3342slgdg3j2ifvpg","pricing_plan_id":"cebpf4jnsgd1na2vs0mg"},{"bike_id":"f4c73116-43d3-41d9-88bb-9461dbbb405f","system_id":"levelo_inurba_marseille","lat":43.25409,"lon":5.41577,"is_reserved":false,"is_disabled":false,"rental_uris":{"android":"levelo://app?vid=f4c73116-43d3-41d9-88bb-9461dbbb405f","ios":"levelo://app?vid=f4c73116-43d3-41d9-88bb-9461dbbb405f"},"vehicle_type_id":"4","last_reported":1740377661,"current_range_meters":5600,"station_id":"","pricing_plan_id":"cebpf4jnsgd1na2vs0mg"},{"bike_id":"0bce59ed-e475-4201-847e-db5e8f22455a","system_id":"levelo_inurba_marseille","lat":43.2454,"lon":5.39544,"is_reserved":false,"is_disabled":false,"rental_uris":{"android":"levelo://app?vid=0bce59ed-e475-4201-847e-db5e8f22455a","ios":"levelo://app?vid=0bce59ed-e475-4201-847e-db5e8f22455a"},"vehicle_type_id":"4","last_reported":1740377661,"current_range_meters":6000,"station_id":"ce4bhlp2rcd13ifvqgjg","pricing_plan_id":"cebpf4jnsgd1na2vs0mg"},{"bike_id":"21c03b67-4f1c-47ef-9bf8-29d8898d16e5","system_id":"levelo_inurba_marseille","lat":43.30893,"lon":5.39651,"is_reserved":false,"is_disabled":false,"rental_uris":{"android":"levelo://app?vid=21c03b67-4f1c-47ef-9bf8-29d8898d16e5","ios":"levelo://app?vid=21c03b67-4f1c-47ef-9bf8-29d8898d16e5"},"vehicle_type_id":"4","last_reported":1740377661,"current_range_meters":6000,"station_id":"ce4bh012rcd13ifvqcv0","pricing_plan_id":"cebpf4jnsgd1na2vs0mg"},{"bike_id":"022e8fbc-78ed-4518-8454-5d05a14e7093","system_id":"levelo_inurba_marseille","lat":43.30869,"lon":5.39664,"is_reserved":false,"is_disabled":false,"rental_uris":{"android":"levelo://app?vid=022e8fbc-78ed-4518-8454-5d05a14e7093","ios":"levelo://app?vid=022e8fbc-78ed-4518-8454-5d05a14e7093"},"vehicle_type_id":"4","last_reported":1740377661,"current_range_meters":6000,"station_id":"ce4bh012rcd13ifvqcv0","pricing_plan_id":"cebpf4jnsgd1na2vs0mg"},{"bike_id":"dc77dcb0-8d96-4d41-a0b2-1107c98a9048","system_id":"levelo_inurba_marseille","lat":43.31335,"lon":5.39701,"is_reserved":false,"is_disabled":false,"rental_uris":{"android":"levelo://app?vid=dc77dcb0-8d96-4d41-a0b2-1107c98a9048","ios":"levelo://app?vid=dc77dcb0-8d96-4d41-a0b2-1107c98a9048"},"vehicle_type_id":"4","last_reported":1740377661,"current_range_meters":6400,"station_id":"ce4bgvp2rcd13ifvqcu0","pricing_plan_id":"cebpf4jnsgd1na2vs0mg"},{"bike_id":"80e30e07-59ff-4807-b06b-c6dc1a9e08e2","system_id":"levelo_inurba_marseille","lat":43.33618,"lon":5.41045,"is_reserved":false,"is_disabled":true,"rental_uris":{"android":"levelo://app?vid=80e30e07-59ff-4807-b06b-c6dc1a9e08e2","ios":"levelo://app?vid=80e30e07-59ff-4807-b06b-c6dc1a9e08e2"},"vehicle_type_id":"4","last_reported":1740377661,"current_range_meters":6400,"station_id":"ce4bhqh2rcd13ifvqhmg","pricing_plan_id":"cebpf4jnsgd1na2vs0mg"},{"bike_id":"09486dc5-7654-4904-afc6-3b8a40308aeb","system_id":"levelo_inurba_marseille","lat":43.25446,"lon":5.41475,"is_reserved":false,"is_disabled":false,"rental_uris":{"android":"levelo://app?vid=09486dc5-7654-4904-afc6-3b8a40308aeb","ios":"levelo://app?vid=09486dc5-7654-4904-afc6-3b8a40308aeb"},"vehicle_type_id":"4","last_reported":1740377661,"current_range_meters":6400,"station_id":"","pricing_plan_id":"cebpf4jnsgd1na2vs0mg"},{"bike_id":"1af71967-b274-4269-9655-88715abf61c6","system_id":"levelo_inurba_marseille","lat":43.26555,"lon":5.37292,"is_reserved":false,"is_disabled":true,"rental_uris":{"android":"levelo://app?vid=1af71967-b274-4269-9655-88715abf61c6","ios":"levelo://app?vid=1af71967-b274-4269-9655-88715abf61c6"},"vehicle_type_id":"4","last_reported":1740377661,"current_range_meters":6400,"station_id":"ce4bhg12rcd13ifvqf70","pricing_plan_id":"cebpf4jnsgd1na2vs0mg"},{"bike_id":"26a2d076-f5f2-45a7-98f5-29542790fe7d","system_id":"levelo_inurba_marseille","lat":43.323613,"lon":5.367611,"is_reserved":false,"is_disabled":false,"rental_uris":{"android":"levelo://app?vid=26a2d076-f5f2-45a7-98f5-29542790fe7d","ios":"levelo://app?vid=26a2d076-f5f2-45a7-98f5-29542790fe7d"},"vehicle_type_id":"4","last_reported":1740377661,"current_range_meters":6400,"station_id":"ce4bhsh2rcd13ifvqi2g","pricing_plan_id":"cebpf4jnsgd1na2vs0mg"},{"bike_id":"1cae9033-1bf7-4d82-81f9-77b1b3109d17","system_id":"levelo_inurba_marseille","lat":43.28407,"lon":5.37506,"is_reserved":false,"is_disabled":false,"rental_uris":{"android":"levelo://app?vid=1cae9033-1bf7-4d82-81f9-77b1b3109d17","ios":"levelo://app?vid=1cae9033-1bf7-4d82-81f9-77b1b3109d17"},"vehicle_type_id":"4","last_reported":1740377661,"current_range_meters":6800,"station_id":"ce4bh412rcd13ifvqds0","pricing_plan_id":"cebpf4jnsgd1na2vs0mg"},{"bike_id":"d3dc4114-38c6-48d5-81b2-55fe1924872f","system_id":"levelo_inurba_marseille","lat":43.23188,"lon":5.40002,"is_reserved":false,"is_disabled":false,"rental_uris":{"android":"levelo://app?vid=d3dc4114-38c6-48d5-81b2-55fe1924872f","ios":"levelo://app?vid=d3dc4114-38c6-48d5-81b2-55fe1924872f"},"vehicle_type_id":"4","last_reported":1740377661,"current_range_meters":6800,"station_id":"ce4bhn12rcd13ifvqgqg","pricing_plan_id":"cebpf4jnsgd1na2vs0mg"},{"bike_id":"2f9eb60a-d824-49a7-9f15-9fb9848578b3","system_id":"levelo_inurba_marseille","lat":43.25085,"lon":5.40347,"is_reserved":false,"is_disabled":false,"rental_uris":{"android":"levelo://app?vid=2f9eb60a-d824-49a7-9f15-9fb9848578b3","ios":"levelo://app?vid=2f9eb60a-d824-49a7-9f15-9fb9848578b3"},"vehicle_type_id":"4","last_reported":1740377661,"current_range_meters":6800,"station_id":"ce4bhlh2rcd13ifvqgig","pricing_plan_id":"cebpf4jnsgd1na2vs0mg"},{"bike_id":"49e1c317-c43a-4e17-be08-ea23dc8d6739","system_id":"levelo_inurba_marseille","lat":43.30126,"lon":5.39578,"is_reserved":false,"is_disabled":true,"rental_uris":{"android":"levelo://app?vid=49e1c317-c43a-4e17-be08-ea23dc8d6739","ios":"levelo://app?vid=49e1c317-c43a-4e17-be08-ea23dc8d6739"},"vehicle_type_id":"4","last_reported":1740377661,"current_range_meters":7200,"station_id":"","pricing_plan_id":"cebpf4jnsgd1na2vs0mg"},{"bike_id":"e0c1d965-9bb5-48f6-93c4-81a00c3e7849","system_id":"levelo_inurba_marseille","lat":43.27071,"lon":5.42289,"is_reserved":false,"is_disabled":false,"rental_uris":{"android":"levelo://app?vid=e0c1d965-9bb5-48f6-93c4-81a00c3e7849","ios":"levelo://app?vid=e0c1d965-9bb5-48f6-93c4-81a00c3e7849"},"vehicle_type_id":"4","last_reported":1740377661,"current_range_meters":7200,"station_id":"ce4bhk92rcd13ifvqgb0","pricing_plan_id":"cebpf4jnsgd1na2vs0mg"},{"bike_id":"7cbc38a5-68b9-4c0e-b227-488aa85ec6d7","system_id":"levelo_inurba_marseille","lat":43.2481,"lon":5.37457,"is_reserved":false,"is_disabled":false,"rental_uris":{"android":"levelo://app?vid=7cbc38a5-68b9-4c0e-b227-488aa85ec6d7","ios":"levelo://app?vid=7cbc38a5-68b9-4c0e-b227-488aa85ec6d7"},"vehicle_type_id":"4","last_reported":1740377661,"current_range_meters":8000,"station_id":"ce4bhgh2rcd13ifvqfb0","pricing_plan_id":"cebpf4jnsgd1na2vs0mg"},{"bike_id":"1f7411cd-9379-4bab-a8bc-411b928d8602","system_id":"levelo_inurba_marseille","lat":43.27496,"lon":5.42463,"is_reserved":false,"is_disabled":false,"rental_uris":{"android":"levelo://app?vid=1f7411cd-9379-4bab-a8bc-411b928d8602","ios":"levelo://app?vid=1f7411cd-9379-4bab-a8bc-411b928d8602"},"vehicle_type_id":"4","last_reported":1740377661,"current_range_meters":8000,"station_id":"ce4bhn92rcd13ifvqgrg","pricing_plan_id":"cebpf4jnsgd1na2vs0mg"},{"bike_id":"8dc51aab-29d3-43fa-a37e-6c47cc4c2e69","system_id":"levelo_inurba_marseille","lat":43.24155,"lon":5.36401,"is_reserved":false,"is_disabled":false,"rental_uris":{"android":"levelo://app?vid=8dc51aab-29d3-43fa-a37e-6c47cc4c2e69","ios":"levelo://app?vid=8dc51aab-29d3-43fa-a37e-6c47cc4c2e69"},"vehicle_type_id":"4","last_reported":1740377661,"current_range_meters":8000,"station_id":"cpo36qri1sfpv3e86is0","pricing_plan_id":"cebpf4jnsgd1na2vs0mg"},{"bike_id":"b562f71c-8ec8-40f9-a53b-da018ff4f3c0","system_id":"levelo_inurba_marseille","lat":43.30865,"lon":5.39637,"is_reserved":false,"is_disabled":false,"rental_uris":{"android":"levelo://app?vid=b562f71c-8ec8-40f9-a53b-da018ff4f3c0","ios":"levelo://app?vid=b562f71c-8ec8-40f9-a53b-da018ff4f3c0"},"vehicle_type_id":"4","last_reported":1740377661,"current_range_meters":8000,"station_id":"ce4bh012rcd13ifvqcv0","pricing_plan_id":"cebpf4jnsgd1na2vs0mg"},{"bike_id":"62202325-0dc9-44aa-9739-89d11f4951da","system_id":"levelo_inurba_marseille","lat":43.31748,"lon":5.39011,"is_reserved":false,"is_disabled":false,"rental_uris":{"android":"levelo://app?vid=62202325-0dc9-44aa-9739-89d11f4951da","ios":"levelo://app?vid=62202325-0dc9-44aa-9739-89d11f4951da"},"vehicle_type_id":"4","last_reported":1740377661,"current_range_meters":8000,"station_id":"ce4bhqp2rcd13ifvqhng","pricing_plan_id":"cebpf4jnsgd1na2vs0mg"},{"bike_id":"9a2aa4dd-64da-4ff9-80ee-f00c626d69dc","system_id":"levelo_inurba_marseille","lat":43.31254,"lon":5.40192,"is_reserved":false,"is_disabled":false,"rental_uris":{"android":"levelo://app?vid=9a2aa4dd-64da-4ff9-80ee-f00c626d69dc","ios":"levelo://app?vid=9a2aa4dd-64da-4ff9-80ee-f00c626d69dc"},"vehicle_type_id":"4","last_reported":1740377661,"current_range_meters":8000,"station_id":"ce4bh092rcd13ifvqd30","pricing_plan_id":"cebpf4jnsgd1na2vs0mg"},{"bike_id":"8e2bfb48-bb79-46ae-aaf2-7dfe609cce0e","system_id":"levelo_inurba_marseille","lat":43.31122,"lon":5.37759,"is_reserved":false,"is_disabled":false,"rental_uris":{"android":"levelo://app?vid=8e2bfb48-bb79-46ae-aaf2-7dfe609cce0e","ios":"levelo://app?vid=8e2bfb48-bb79-46ae-aaf2-7dfe609cce0e"},"vehicle_type_id":"4","last_reported":1740377661,"current_range_meters":8400,"station_id":"ce4bgt92rcd13ifvqcg0","pricing_plan_id":"cebpf4jnsgd1na2vs0mg"},{"bike_id":"c8ab2732-97c7-4e83-a3de-581686152e68","system_id":"levelo_inurba_marseille","lat":43.24822,"lon":5.37464,"is_reserved":false,"is_disabled":true,"rental_uris":{"android":"levelo://app?vid=c8ab2732-97c7-4e83-a3de-581686152e68","ios":"levelo://app?vid=c8ab2732-97c7-4e83-a3de-581686152e68"},"vehicle_type_id":"4","last_reported":1740377661,"current_range_meters":8400,"station_id":"ce4bhgh2rcd13ifvqfb0","pricing_plan_id":"cebpf4jnsgd1na2vs0mg"},{"bike_id":"095d5026-b6cb-411c-ab71-6c60703e2b2f","system_id":"levelo_inurba_marseille","lat":43.23047,"lon":5.355,"is_reserved":false,"is_disabled":true,"rental_uris":{"android":"levelo://app?vid=095d5026-b6cb-411c-ab71-6c60703e2b2f","ios":"levelo://app?vid=095d5026-b6cb-411c-ab71-6c60703e2b2f"},"vehicle_type_id":"4","last_reported":1740377661,"current_range_meters":8400,"station_id":"cpo3342slgdg3j2ifvpg","pricing_plan_id":"cebpf4jnsgd1na2vs0mg"},{"bike_id":"8caed3ad-4e29-426a-93b0-9833a295a962","system_id":"levelo_inurba_marseille","lat":43.27046,"lon":5.40271,"is_reserved":false,"is_disabled":false,"rental_uris":{"android":"levelo://app?vid=8caed3ad-4e29-426a-93b0-9833a295a962","ios":"levelo://app?vid=8caed3ad-4e29-426a-93b0-9833a295a962"},"vehicle_type_id":"4","last_reported":1740377661,"current_range_meters":8400,"station_id":"ce4bhk92rcd13ifvqgc0","pricing_plan_id":"cebpf4jnsgd1na2vs0mg"},{"bike_id":"9db3baf7-6bbf-4f1e-b2ba-31897cecf4e5","system_id":"levelo_inurba_marseille","lat":43.30159,"lon":5.38083,"is_reserved":false,"is_disabled":false,"rental_uris":{"android":"levelo://app?vid=9db3baf7-6bbf-4f1e-b2ba-31897cecf4e5","ios":"levelo://app?vid=9db3baf7-6bbf-4f1e-b2ba-31897cecf4e5"},"vehicle_type_id":"4","last_reported":1740377661,"current_range_meters":8400,"station_id":"ce4bgjp2rcd13ifvqbh0","pricing_plan_id":"cebpf4jnsgd1na2vs0mg"},{"bike_id":"ea7e3de9-37ca-4851-8757-99555fe7bbaf","system_id":"levelo_inurba_marseille","lat":43.25099,"lon":5.39515,"is_reserved":false,"is_disabled":false,"rental_uris":{"android":"levelo://app?vid=ea7e3de9-37ca-4851-8757-99555fe7bbaf","ios":"levelo://app?vid=ea7e3de9-37ca-4851-8757-99555fe7bbaf"},"vehicle_type_id":"4","last_reported":1740377661,"current_range_meters":8400,"station_id":"ce4bhm12rcd13ifvqgkg","pricing_plan_id":"cebpf4jnsgd1na2vs0mg"},{"bike_id":"e5146a24-3648-4344-bddc-8da8bf8e9d55","system_id":"levelo_inurba_marseille","lat":43.3093,"lon":5.40161,"is_reserved":false,"is_disabled":false,"rental_uris":{"android":"levelo://app?vid=e5146a24-3648-4344-bddc-8da8bf8e9d55","ios":"levelo://app?vid=e5146a24-3648-4344-bddc-8da8bf8e9d55"},"vehicle_type_id":"4","last_reported":1740377661,"current_range_meters":8800,"station_id":"ce4bgvp2rcd13ifvqct0","pricing_plan_id":"cebpf4jnsgd1na2vs0mg"},{"bike_id":"a34024d2-bd78-4aa2-b9dd-e4711b4f4101","system_id":"levelo_inurba_marseille","lat":43.24396,"lon":5.37054,"is_reserved":false,"is_disabled":false,"rental_uris":{"android":"levelo://app?vid=a34024d2-bd78-4aa2-b9dd-e4711b4f4101","ios":"levelo://app?vid=a34024d2-bd78-4aa2-b9dd-e4711b4f4101"},"vehicle_type_id":"4","last_reported":1740377661,"current_range_meters":8800,"station_id":"ce4bhhh2rcd13ifvqfk0","pricing_plan_id":"cebpf4jnsgd1na2vs0mg"},{"bike_id":"8cd8e855-556a-49bb-858e-094e7857f894","system_id":"levelo_inurba_marseille","lat":43.29195,"lon":5.35797,"is_reserved":false,"is_disabled":true,"rental_uris":{"android":"levelo://app?vid=8cd8e855-556a-49bb-858e-094e7857f894","ios":"levelo://app?vid=8cd8e855-556a-49bb-858e-094e7857f894"},"vehicle_type_id":"4","last_reported":1740377661,"current_range_meters":8800,"station_id":"ce4bhb12rcd13ifvqel0","pricing_plan_id":"cebpf4jnsgd1na2vs0mg"},{"bike_id":"331722d8-2645-4b84-81df-6a2aef51a19e","system_id":"levelo_inurba_marseille","lat":43.25106,"lon":5.40357,"is_reserved":false,"is_disabled":false,"rental_uris":{"android":"levelo://app?vid=331722d8-2645-4b84-81df-6a2aef51a19e","ios":"levelo://app?vid=331722d8-2645-4b84-81df-6a2aef51a19e"},"vehicle_type_id":"4","last_reported":1740377661,"current_range_meters":9200,"station_id":"ce4bhlh2rcd13ifvqgig","pricing_plan_id":"cebpf4jnsgd1na2vs0mg"},{"bike_id":"ccd21cf5-a7c7-47ce-9e1d-5d11c20e14f8","system_id":"levelo_inurba_marseille","lat":43.31311,"lon":5.39633,"is_reserved":false,"is_disabled":false,"rental_uris":{"android":"levelo://app?vid=ccd21cf5-a7c7-47ce-9e1d-5d11c20e14f8","ios":"levelo://app?vid=ccd21cf5-a7c7-47ce-9e1d-5d11c20e14f8"},"vehicle_type_id":"4","last_reported":1740377661,"current_range_meters":9200,"station_id":"ce4bgvp2rcd13ifvqcu0","pricing_plan_id":"cebpf4jnsgd1na2vs0mg"},{"bike_id":"e61c2b74-4ece-46bf-bf8e-6ea12dcb1ec2","system_id":"levelo_inurba_marseille","lat":43.30592,"lon":5.39379,"is_reserved":false,"is_disabled":true,"rental_uris":{"android":"levelo://app?vid=e61c2b74-4ece-46bf-bf8e-6ea12dcb1ec2","ios":"levelo://app?vid=e61c2b74-4ece-46bf-bf8e-6ea12dcb1ec2"},"vehicle_type_id":"4","last_reported":1740377661,"current_range_meters":9200,"station_id":"ce4bh0p2rcd13ifvqd80","pricing_plan_id":"cebpf4jnsgd1na2vs0mg"},{"bike_id":"d8fe9461-3f19-4646-9471-9345bfd53bad","system_id":"levelo_inurba_marseille","lat":43.24396,"lon":5.37061,"is_reserved":false,"is_disabled":false,"rental_uris":{"android":"levelo://app?vid=d8fe9461-3f19-4646-9471-9345bfd53bad","ios":"levelo://app?vid=d8fe9461-3f19-4646-9471-9345bfd53bad"},"vehicle_type_id":"4","last_reported":1740377661,"current_range_meters":9200,"station_id":"ce4bhhh2rcd13ifvqfk0","pricing_plan_id":"cebpf4jnsgd1na2vs0mg"},{"bike_id":"fb44b31f-7afc-4a5c-8b14-6d56005aa669","system_id":"levelo_inurba_marseille","lat":43.289819,"lon":5.432618,"is_reserved":false,"is_disabled":false,"rental_uris":{"android":"levelo://app?vid=fb44b31f-7afc-4a5c-8b14-6d56005aa669","ios":"levelo://app?vid=fb44b31f-7afc-4a5c-8b14-6d56005aa669"},"vehicle_type_id":"4","last_reported":1740377661,"current_range_meters":9200,"station_id":"","pricing_plan_id":"cebpf4jnsgd1na2vs0mg"},{"bike_id":"618f913e-cba8-4c50-a313-a42d4485f0ce","system_id":"levelo_inurba_marseille","lat":43.30524,"lon":5.36706,"is_reserved":false,"is_disabled":true,"rental_uris":{"android":"levelo://app?vid=618f913e-cba8-4c50-a313-a42d4485f0ce","ios":"levelo://app?vid=618f913e-cba8-4c50-a313-a42d4485f0ce"},"vehicle_type_id":"4","last_reported":1740377661,"current_range_meters":9200,"station_id":"ce4bgrp2rcd13ifvqc9g","pricing_plan_id":"cebpf4jnsgd1na2vs0mg"},{"bike_id":"1127a561-55dc-461d-840d-fc4e71e9155a","system_id":"levelo_inurba_marseille","lat":43.29905,"lon":5.43668,"is_reserved":false,"is_disabled":false,"rental_uris":{"android":"levelo://app?vid=1127a561-55dc-461d-840d-fc4e71e9155a","ios":"levelo://app?vid=1127a561-55dc-461d-840d-fc4e71e9155a"},"vehicle_type_id":"4","last_reported":1740377661,"current_range_meters":9600,"station_id":"ce4bhpp2rcd13ifvqhfg","pricing_plan_id":"cebpf4jnsgd1na2vs0mg"},{"bike_id":"ab7da9df-c7ed-482b-9961-43b5cca3e34b","system_id":"levelo_inurba_marseille","lat":43.31125,"lon":5.37751,"is_reserved":false,"is_disabled":true,"rental_uris":{"android":"levelo://app?vid=ab7da9df-c7ed-482b-9961-43b5cca3e34b","ios":"levelo://app?vid=ab7da9df-c7ed-482b-9961-43b5cca3e34b"},"vehicle_type_id":"4","last_reported":1740377661,"current_range_meters":9600,"station_id":"ce4bgt92rcd13ifvqcg0","pricing_plan_id":"cebpf4jnsgd1na2vs0mg"},{"bike_id":"9ec8cc63-14ea-41e2-a32b-68a8e86d1e16","system_id":"levelo_inurba_marseille","lat":43.28706,"lon":5.37925,"is_reserved":false,"is_disabled":false,"rental_uris":{"android":"levelo://app?vid=9ec8cc63-14ea-41e2-a32b-68a8e86d1e16","ios":"levelo://app?vid=9ec8cc63-14ea-41e2-a32b-68a8e86d1e16"},"vehicle_type_id":"4","last_reported":1740377661,"current_range_meters":9600,"station_id":"ce4bh9p2rcd13ifvqec0","pricing_plan_id":"cebpf4jnsgd1na2vs0mg"},{"bike_id":"e57c5085-1c6a-4256-80dd-11cc62fbc037","system_id":"levelo_inurba_marseille","lat":43.29196,"lon":5.39309,"is_reserved":false,"is_disabled":false,"rental_uris":{"android":"levelo://app?vid=e57c5085-1c6a-4256-80dd-11cc62fbc037","ios":"levelo://app?vid=e57c5085-1c6a-4256-80dd-11cc62fbc037"},"vehicle_type_id":"4","last_reported":1740377661,"current_range_meters":9600,"station_id":"ce4bh192rcd13ifvqdd0","pricing_plan_id":"cebpf4jnsgd1na2vs0mg"},{"bike_id":"eb850902-e7ba-4744-97b3-5fc05dd74d38","system_id":"levelo_inurba_marseille","lat":43.31125,"lon":5.37757,"is_reserved":false,"is_disabled":false,"rental_uris":{"android":"levelo://app?vid=eb850902-e7ba-4744-97b3-5fc05dd74d38","ios":"levelo://app?vid=eb850902-e7ba-4744-97b3-5fc05dd74d38"},"vehicle_type_id":"4","last_reported":1740377661,"current_range_meters":9600,"station_id":"ce4bgt92rcd13ifvqcg0","pricing_plan_id":"cebpf4jnsgd1na2vs0mg"},{"bike_id":"9c19ed5c-9da5-477e-a3ab-9b57c502f36e","system_id":"levelo_inurba_marseille","lat":43.2483,"lon":5.37478,"is_reserved":false,"is_disabled":false,"rental_uris":{"android":"levelo://app?vid=9c19ed5c-9da5-477e-a3ab-9b57c502f36e","ios":"levelo://app?vid=9c19ed5c-9da5-477e-a3ab-9b57c502f36e"},"vehicle_type_id":"4","last_reported":1740377661,"current_range_meters":10000,"station_id":"","pricing_plan_id":"cebpf4jnsgd1na2vs0mg"},{"bike_id":"8144d768-d95e-483c-8771-5a5a78fc17ce","system_id":"levelo_inurba_marseille","lat":43.24655,"lon":5.38162,"is_reserved":false,"is_disabled":false,"rental_uris":{"android":"levelo://app?vid=8144d768-d95e-483c-8771-5a5a78fc17ce","ios":"levelo://app?vid=8144d768-d95e-483c-8771-5a5a78fc17ce"},"vehicle_type_id":"4","last_reported":1740377661,"current_range_meters":10000,"station_id":"ce4bhih2rcd13ifvqfr0","pricing_plan_id":"cebpf4jnsgd1na2vs0mg"},{"bike_id":"0e17628e-77f1-4b2d-9900-e51a8c9f0181","system_id":"levelo_inurba_marseille","lat":43.28883,"lon":5.44993,"is_reserved":false,"is_disabled":false,"rental_uris":{"android":"levelo://app?vid=0e17628e-77f1-4b2d-9900-e51a8c9f0181","ios":"levelo://app?vid=0e17628e-77f1-4b2d-9900-e51a8c9f0181"},"vehicle_type_id":"4","last_reported":1740377661,"current_range_meters":10000,"station_id":"","pricing_plan_id":"cebpf4jnsgd1na2vs0mg"},{"bike_id":"a8dc7729-6589-4862-ac61-2b20487771e6","system_id":"levelo_inurba_marseille","lat":43.32128,"lon":5.36739,"is_reserved":false,"is_disabled":false,"rental_uris":{"android":"levelo://app?vid=a8dc7729-6589-4862-ac61-2b20487771e6","ios":"levelo://app?vid=a8dc7729-6589-4862-ac61-2b20487771e6"},"vehicle_type_id":"4","last_reported":1740377661,"current_range_meters":10000,"station_id":"ce4bhrh2rcd13ifvqhug","pricing_plan_id":"cebpf4jnsgd1na2vs0mg"},{"bike_id":"26d9d838-7ad3-4668-83f6-9b650ee7d840","system_id":"levelo_inurba_marseille","lat":43.25109,"lon":5.40326,"is_reserved":false,"is_disabled":false,"rental_uris":{"android":"levelo://app?vid=26d9d838-7ad3-4668-83f6-9b650ee7d840","ios":"levelo://app?vid=26d9d838-7ad3-4668-83f6-9b650ee7d840"},"vehicle_type_id":"4","last_reported":1740377661,"current_range_meters":10000,"station_id":"ce4bhlh2rcd13ifvqgig","pricing_plan_id":"cebpf4jnsgd1na2vs0mg"},{"bike_id":"35f7fe5f-b05d-405c-a155-dda0758733e2","system_id":"levelo_inurba_marseille","lat":43.28143,"lon":5.42642,"is_reserved":false,"is_disabled":true,"rental_uris":{"android":"levelo://app?vid=35f7fe5f-b05d-405c-a155-dda0758733e2","ios":"levelo://app?vid=35f7fe5f-b05d-405c-a155-dda0758733e2"},"vehicle_type_id":"4","last_reported":1740377661,"current_range_meters":10000,"station_id":"ce4bhnh2rcd13ifvqgug","pricing_plan_id":"cebpf4jnsgd1na2vs0mg"},{"bike_id":"9fdc5228-e835-4793-ad30-e5834cfd975b","system_id":"levelo_inurba_marseille","lat":43.25846,"lon":5.39945,"is_reserved":false,"is_disabled":false,"rental_uris":{"android":"levelo://app?vid=9fdc5228-e835-4793-ad30-e5834cfd975b","ios":"levelo://app?vid=9fdc5228-e835-4793-ad30-e5834cfd975b"},"vehicle_type_id":"4","last_reported":1740377661,"current_range_meters":10000,"station_id":"ce4bhl92rcd13ifvqghg","pricing_plan_id":"cebpf4jnsgd1na2vs0mg"},{"bike_id":"65b24aaf-95c9-4e3d-8265-052f02587eee","system_id":"levelo_inurba_marseille","lat":43.290489,"lon":5.375556,"is_reserved":false,"is_disabled":false,"rental_uris":{"android":"levelo://app?vid=65b24aaf-95c9-4e3d-8265-052f02587eee","ios":"levelo://app?vid=65b24aaf-95c9-4e3d-8265-052f02587eee"},"vehicle_type_id":"4","last_reported":1740377661,"current_range_meters":10000,"station_id":"","pricing_plan_id":"cebpf4jnsgd1na2vs0mg"},{"bike_id":"a3610751-bbe4-4d3e-a717-1a0eebd2fb2a","system_id":"levelo_inurba_marseille","lat":43.30767,"lon":5.37505,"is_reserved":false,"is_disabled":false,"rental_uris":{"android":"levelo://app?vid=a3610751-bbe4-4d3e-a717-1a0eebd2fb2a","ios":"levelo://app?vid=a3610751-bbe4-4d3e-a717-1a0eebd2fb2a"},"vehicle_type_id":"4","last_reported":1740377661,"current_range_meters":10000,"station_id":"","pricing_plan_id":"cebpf4jnsgd1na2vs0mg"},{"bike_id":"7ca97e69-d258-4d13-b7d3-f8a5e2d4295c","system_id":"levelo_inurba_marseille","lat":43.292085,"lon":5.39333,"is_reserved":false,"is_disabled":false,"rental_uris":{"android":"levelo://app?vid=7ca97e69-d258-4d13-b7d3-f8a5e2d4295c","ios":"levelo://app?vid=7ca97e69-d258-4d13-b7d3-f8a5e2d4295c"},"vehicle_type_id":"4","last_reported":1740377661,"current_range_meters":10000,"station_id":"ce4bh192rcd13ifvqdd0","pricing_plan_id":"cebpf4jnsgd1na2vs0mg"},{"bike_id":"a4c0cd21-d532-4b6f-8473-de05733ce764","system_id":"levelo_inurba_marseille","lat":43.25861,"lon":5.3995,"is_reserved":false,"is_disabled":false,"rental_uris":{"android":"levelo://app?vid=a4c0cd21-d532-4b6f-8473-de05733ce764","ios":"levelo://app?vid=a4c0cd21-d532-4b6f-8473-de05733ce764"},"vehicle_type_id":"4","last_reported":1740377661,"current_range_meters":10800,"station_id":"ce4bhl92rcd13ifvqghg","pricing_plan_id":"cebpf4jnsgd1na2vs0mg"},{"bike_id":"e49c1f93-a8d1-465e-acdc-b45fbca21be8","system_id":"levelo_inurba_marseille","lat":43.31171,"lon":5.38712,"is_reserved":false,"is_disabled":false,"rental_uris":{"android":"levelo://app?vid=e49c1f93-a8d1-465e-acdc-b45fbca21be8","ios":"levelo://app?vid=e49c1f93-a8d1-465e-acdc-b45fbca21be8"},"vehicle_type_id":"4","last_reported":1740377661,"current_range_meters":10800,"station_id":"ce4bgt12rcd13ifvqcd0","pricing_plan_id":"cebpf4jnsgd1na2vs0mg"},{"bike_id":"66571020-a42c-4d13-95d8-1223aa811dfd","system_id":"levelo_inurba_marseille","lat":43.27917,"lon":5.39595,"is_reserved":false,"is_disabled":false,"rental_uris":{"android":"levelo://app?vid=66571020-a42c-4d13-95d8-1223aa811dfd","ios":"levelo://app?vid=66571020-a42c-4d13-95d8-1223aa811dfd"},"vehicle_type_id":"4","last_reported":1740377661,"current_range_meters":10800,"station_id":"ce4bhf92rcd13ifvqf40","pricing_plan_id":"cebpf4jnsgd1na2vs0mg"},{"bike_id":"be29424e-ef5d-4d80-ad26-ba74ad9eed3b","system_id":"levelo_inurba_marseille","lat":43.28335,"lon":5.38105,"is_reserved":false,"is_disabled":false,"rental_uris":{"android":"levelo://app?vid=be29424e-ef5d-4d80-ad26-ba74ad9eed3b","ios":"levelo://app?vid=be29424e-ef5d-4d80-ad26-ba74ad9eed3b"},"vehicle_type_id":"4","last_reported":1740377661,"current_range_meters":10800,"station_id":"ce4bh412rcd13ifvqdr0","pricing_plan_id":"cebpf4jnsgd1na2vs0mg"},{"bike_id":"0733b99c-14c1-4744-99a7-4c59b20e9afc","system_id":"levelo_inurba_marseille","lat":43.27185,"lon":5.40991,"is_reserved":false,"is_disabled":false,"rental_uris":{"android":"levelo://app?vid=0733b99c-14c1-4744-99a7-4c59b20e9afc","ios":"levelo://app?vid=0733b99c-14c1-4744-99a7-4c59b20e9afc"},"vehicle_type_id":"4","last_reported":1740377661,"current_range_meters":10800,"station_id":"ce4bhl12rcd13ifvqgf0","pricing_plan_id":"cebpf4jnsgd1na2vs0mg"},{"bike_id":"bd3cd35d-8872-4079-b434-dfe718238ac3","system_id":"levelo_inurba_marseille","lat":43.32365,"lon":5.38888,"is_reserved":false,"is_disabled":false,"rental_uris":{"android":"levelo://app?vid=bd3cd35d-8872-4079-b434-dfe718238ac3","ios":"levelo://app?vid=bd3cd35d-8872-4079-b434-dfe718238ac3"},"vehicle_type_id":"4","last_reported":1740377661,"current_range_meters":10800,"station_id":"ce4bhqp2rcd13ifvqhog","pricing_plan_id":"cebpf4jnsgd1na2vs0mg"},{"bike_id":"59cee8b2-041d-483f-9014-53e4c3fcc3d2","system_id":"levelo_inurba_marseille","lat":43.28264,"lon":5.35071,"is_reserved":false,"is_disabled":true,"rental_uris":{"android":"levelo://app?vid=59cee8b2-041d-483f-9014-53e4c3fcc3d2","ios":"levelo://app?vid=59cee8b2-041d-483f-9014-53e4c3fcc3d2"},"vehicle_type_id":"4","last_reported":1740377661,"current_range_meters":10800,"station_id":"ce4bhbp2rcd13ifvqerg","pricing_plan_id":"cebpf4jnsgd1na2vs0mg"},{"bike_id":"34b60e4e-03ef-486b-8103-9545ecdbc1e1","system_id":"levelo_inurba_marseille","lat":43.26781,"lon":5.39456,"is_reserved":false,"is_disabled":true,"rental_uris":{"android":"levelo://app?vid=34b60e4e-03ef-486b-8103-9545ecdbc1e1","ios":"levelo://app?vid=34b60e4e-03ef-486b-8103-9545ecdbc1e1"},"vehicle_type_id":"4","last_reported":1740377661,"current_range_meters":10800,"station_id":"ce4bhh12rcd13ifvqfg0","pricing_plan_id":"cebpf4jnsgd1na2vs0mg"},{"bike_id":"8cd1f271-73ec-41dd-8cbc-8b259ddd312c","system_id":"levelo_inurba_marseille","lat":43.30911,"lon":5.37195,"is_reserved":false,"is_disabled":false,"rental_uris":{"android":"levelo://app?vid=8cd1f271-73ec-41dd-8cbc-8b259ddd312c","ios":"levelo://app?vid=8cd1f271-73ec-41dd-8cbc-8b259ddd312c"},"vehicle_type_id":"4","last_reported":1740377661,"current_range_meters":10800,"station_id":"ce4bguh2rcd13ifvqckg","pricing_plan_id":"cebpf4jnsgd1na2vs0mg"},{"bike_id":"89490642-2775-458c-9b34-f89d03f16831","system_id":"levelo_inurba_marseille","lat":43.25085,"lon":5.39524,"is_reserved":false,"is_disabled":false,"rental_uris":{"android":"levelo://app?vid=89490642-2775-458c-9b34-f89d03f16831","ios":"levelo://app?vid=89490642-2775-458c-9b34-f89d03f16831"},"vehicle_type_id":"4","last_reported":1740377661,"current_range_meters":10800,"station_id":"ce4bhm12rcd13ifvqgkg","pricing_plan_id":"cebpf4jnsgd1na2vs0mg"},{"bike_id":"c05d3f08-1991-4bd2-ba78-ddccd44aebc5","system_id":"levelo_inurba_marseille","lat":43.26921,"lon":5.40273,"is_reserved":false,"is_disabled":false,"rental_uris":{"android":"levelo://app?vid=c05d3f08-1991-4bd2-ba78-ddccd44aebc5","ios":"levelo://app?vid=c05d3f08-1991-4bd2-ba78-ddccd44aebc5"},"vehicle_type_id":"4","last_reported":1740377661,"current_range_meters":10800,"station_id":"cjm6bp8fraef2m0cb0m0","pricing_plan_id":"cebpf4jnsgd1na2vs0mg"},{"bike_id":"b49d5e52-ea0b-48d3-8a70-3d9ea3251436","system_id":"levelo_inurba_marseille","lat":43.30129,"lon":5.39875,"is_reserved":false,"is_disabled":true,"rental_uris":{"android":"levelo://app?vid=b49d5e52-ea0b-48d3-8a70-3d9ea3251436","ios":"levelo://app?vid=b49d5e52-ea0b-48d3-8a70-3d9ea3251436"},"vehicle_type_id":"4","last_reported":1740377661,"current_range_meters":11200,"station_id":"ce4bh0h2rcd13ifvqd40","pricing_plan_id":"cebpf4jnsgd1na2vs0mg"},{"bike_id":"82b824a8-fb32-45d2-8660-b872ef1c48e5","system_id":"levelo_inurba_marseille","lat":43.33619,"lon":5.40936,"is_reserved":false,"is_disabled":false,"rental_uris":{"android":"levelo://app?vid=82b824a8-fb32-45d2-8660-b872ef1c48e5","ios":"levelo://app?vid=82b824a8-fb32-45d2-8660-b872ef1c48e5"},"vehicle_type_id":"4","last_reported":1740377661,"current_range_meters":11200,"station_id":"ce4bhqh2rcd13ifvqhmg","pricing_plan_id":"cebpf4jnsgd1na2vs0mg"},{"bike_id":"860eff15-4aff-4d92-8690-98414ae73df2","system_id":"levelo_inurba_marseille","lat":43.26507,"lon":5.3906,"is_reserved":false,"is_disabled":true,"rental_uris":{"android":"levelo://app?vid=860eff15-4aff-4d92-8690-98414ae73df2","ios":"levelo://app?vid=860eff15-4aff-4d92-8690-98414ae73df2"},"vehicle_type_id":"4","last_reported":1740377661,"current_range_meters":11200,"station_id":"ce4bhe12rcd13ifvqf30","pricing_plan_id":"cebpf4jnsgd1na2vs0mg"},{"bike_id":"5c89da34-efd7-46ec-88fb-42cf783587ce","system_id":"levelo_inurba_marseille","lat":43.28293,"lon":5.43227,"is_reserved":false,"is_disabled":false,"rental_uris":{"android":"levelo://app?vid=5c89da34-efd7-46ec-88fb-42cf783587ce","ios":"levelo://app?vid=5c89da34-efd7-46ec-88fb-42cf783587ce"},"vehicle_type_id":"4","last_reported":1740377661,"current_range_meters":11200,"station_id":"","pricing_plan_id":"cebpf4jnsgd1na2vs0mg"},{"bike_id":"fa5ef085-ddb3-4ecc-a8bc-4bef34bfe151","system_id":"levelo_inurba_marseille","lat":43.26213,"lon":5.4045,"is_reserved":false,"is_disabled":false,"rental_uris":{"android":"levelo://app?vid=fa5ef085-ddb3-4ecc-a8bc-4bef34bfe151","ios":"levelo://app?vid=fa5ef085-ddb3-4ecc-a8bc-4bef34bfe151"},"vehicle_type_id":"4","last_reported":1740377661,"current_range_meters":11600,"station_id":"ce4bhmh2rcd13ifvqgmg","pricing_plan_id":"cebpf4jnsgd1na2vs0mg"},{"bike_id":"6d3a28fb-ad8e-4099-ab7e-2f1842cf0da6","system_id":"levelo_inurba_marseille","lat":43.31996,"lon":5.38159,"is_reserved":false,"is_disabled":false,"rental_uris":{"android":"levelo://app?vid=6d3a28fb-ad8e-4099-ab7e-2f1842cf0da6","ios":"levelo://app?vid=6d3a28fb-ad8e-4099-ab7e-2f1842cf0da6"},"vehicle_type_id":"4","last_reported":1740377661,"current_range_meters":11600,"station_id":"ce4bhr12rcd13ifvqhpg","pricing_plan_id":"cebpf4jnsgd1na2vs0mg"},{"bike_id":"9faf844a-413f-419f-bdea-64830f7f2bfb","system_id":"levelo_inurba_marseille","lat":43.29919,"lon":5.37853,"is_reserved":false,"is_disabled":false,"rental_uris":{"android":"levelo://app?vid=9faf844a-413f-419f-bdea-64830f7f2bfb","ios":"levelo://app?vid=9faf844a-413f-419f-bdea-64830f7f2bfb"},"vehicle_type_id":"4","last_reported":1740377661,"current_range_meters":11600,"station_id":"","pricing_plan_id":"cebpf4jnsgd1na2vs0mg"},{"bike_id":"87cd03be-0ff7-48bc-9ce2-8c3c9f1d1312","system_id":"levelo_inurba_marseille","lat":43.30889,"lon":5.39636,"is_reserved":false,"is_disabled":false,"rental_uris":{"android":"levelo://app?vid=87cd03be-0ff7-48bc-9ce2-8c3c9f1d1312","ios":"levelo://app?vid=87cd03be-0ff7-48bc-9ce2-8c3c9f1d1312"},"vehicle_type_id":"4","last_reported":1740377661,"current_range_meters":11600,"station_id":"ce4bh012rcd13ifvqcv0","pricing_plan_id":"cebpf4jnsgd1na2vs0mg"},{"bike_id":"35bcd0df-0cf8-4c59-99ae-63b0e8b992cf","system_id":"levelo_inurba_marseille","lat":43.28723,"lon":5.36091,"is_reserved":false,"is_disabled":false,"rental_uris":{"android":"levelo://app?vid=35bcd0df-0cf8-4c59-99ae-63b0e8b992cf","ios":"levelo://app?vid=35bcd0df-0cf8-4c59-99ae-63b0e8b992cf"},"vehicle_type_id":"4","last_reported":1740377661,"current_range_meters":11600,"station_id":"cki0cbj6b192h4jlfktg","pricing_plan_id":"cebpf4jnsgd1na2vs0mg"},{"bike_id":"6a07a7ed-7faa-4984-ac4f-901711ae817f","system_id":"levelo_inurba_marseille","lat":43.28254,"lon":5.35091,"is_reserved":false,"is_disabled":false,"rental_uris":{"android":"levelo://app?vid=6a07a7ed-7faa-4984-ac4f-901711ae817f","ios":"levelo://app?vid=6a07a7ed-7faa-4984-ac4f-901711ae817f"},"vehicle_type_id":"4","last_reported":1740377661,"current_range_meters":11600,"station_id":"ce4bhbp2rcd13ifvqerg","pricing_plan_id":"cebpf4jnsgd1na2vs0mg"},{"bike_id":"22d9f0af-6d0a-4a97-b0a4-b0db01ae57e4","system_id":"levelo_inurba_marseille","lat":43.292521,"lon":5.409031,"is_reserved":false,"is_disabled":false,"rental_uris":{"android":"levelo://app?vid=22d9f0af-6d0a-4a97-b0a4-b0db01ae57e4","ios":"levelo://app?vid=22d9f0af-6d0a-4a97-b0a4-b0db01ae57e4"},"vehicle_type_id":"4","last_reported":1740377661,"current_range_meters":12000,"station_id":"ce4bh192rcd13ifvqdc0","pricing_plan_id":"cebpf4jnsgd1na2vs0mg"},{"bike_id":"f3796124-833f-4465-95f3-ed1407466995","system_id":"levelo_inurba_marseille","lat":43.30943,"lon":5.3905,"is_reserved":false,"is_disabled":false,"rental_uris":{"android":"levelo://app?vid=f3796124-833f-4465-95f3-ed1407466995","ios":"levelo://app?vid=f3796124-833f-4465-95f3-ed1407466995"},"vehicle_type_id":"4","last_reported":1740377661,"current_range_meters":12000,"station_id":"ce4bgup2rcd13ifvqco0","pricing_plan_id":"cebpf4jnsgd1na2vs0mg"},{"bike_id":"5ca04e06-abd0-4c06-847d-0b70eb7a9340","system_id":"levelo_inurba_marseille","lat":43.31363,"lon":5.38509,"is_reserved":false,"is_disabled":false,"rental_uris":{"android":"levelo://app?vid=5ca04e06-abd0-4c06-847d-0b70eb7a9340","ios":"levelo://app?vid=5ca04e06-abd0-4c06-847d-0b70eb7a9340"},"vehicle_type_id":"4","last_reported":1740377661,"current_range_meters":12000,"station_id":"ce4bgt92rcd13ifvqcf0","pricing_plan_id":"cebpf4jnsgd1na2vs0mg"},{"bike_id":"fc93a0cd-d658-4fe7-9e6a-52a49333f268","system_id":"levelo_inurba_marseille","lat":43.308104,"lon":5.381916,"is_reserved":false,"is_disabled":false,"rental_uris":{"android":"levelo://app?vid=fc93a0cd-d658-4fe7-9e6a-52a49333f268","ios":"levelo://app?vid=fc93a0cd-d658-4fe7-9e6a-52a49333f268"},"vehicle_type_id":"4","last_reported":1740377661,"current_range_meters":12000,"station_id":"ce4bgt12rcd13ifvqce0","pricing_plan_id":"cebpf4jnsgd1na2vs0mg"},{"bike_id":"fe7bf3ad-4f35-4114-875e-18cd8334315b","system_id":"levelo_inurba_marseille","lat":43.28578,"lon":5.39482,"is_reserved":false,"is_disabled":false,"rental_uris":{"android":"levelo://app?vid=fe7bf3ad-4f35-4114-875e-18cd8334315b","ios":"levelo://app?vid=fe7bf3ad-4f35-4114-875e-18cd8334315b"},"vehicle_type_id":"4","last_reported":1740377661,"current_range_meters":12400,"station_id":"ce4bh292rcd13ifvqdg0","pricing_plan_id":"cebpf4jnsgd1na2vs0mg"},{"bike_id":"3fe402df-efb2-421d-9441-7aab75d83404","system_id":"levelo_inurba_marseille","lat":43.23154,"lon":5.43735,"is_reserved":false,"is_disabled":false,"rental_uris":{"android":"levelo://app?vid=3fe402df-efb2-421d-9441-7aab75d83404","ios":"levelo://app?vid=3fe402df-efb2-421d-9441-7aab75d83404"},"vehicle_type_id":"4","last_reported":1740377661,"current_range_meters":12400,"station_id":"ce4bhmp2rcd13ifvqgog","pricing_plan_id":"cebpf4jnsgd1na2vs0mg"},{"bike_id":"87c93845-143c-4613-9a0d-08836448a26d","system_id":"levelo_inurba_marseille","lat":43.23963,"lon":5.36619,"is_reserved":false,"is_disabled":false,"rental_uris":{"android":"levelo://app?vid=87c93845-143c-4613-9a0d-08836448a26d","ios":"levelo://app?vid=87c93845-143c-4613-9a0d-08836448a26d"},"vehicle_type_id":"4","last_reported":1740377661,"current_range_meters":12400,"station_id":"ce4bhi12rcd13ifvqfp0","pricing_plan_id":"cebpf4jnsgd1na2vs0mg"},{"bike_id":"10a9365f-072c-4bc6-9967-75e3cf71bc73","system_id":"levelo_inurba_marseille","lat":43.2635,"lon":5.39653,"is_reserved":false,"is_disabled":false,"rental_uris":{"android":"levelo://app?vid=10a9365f-072c-4bc6-9967-75e3cf71bc73","ios":"levelo://app?vid=10a9365f-072c-4bc6-9967-75e3cf71bc73"},"vehicle_type_id":"4","last_reported":1740377661,"current_range_meters":12400,"station_id":"","pricing_plan_id":"cebpf4jnsgd1na2vs0mg"},{"bike_id":"3414b944-a9b7-4b1e-b288-cbf493bce065","system_id":"levelo_inurba_marseille","lat":43.29878,"lon":5.38921,"is_reserved":false,"is_disabled":false,"rental_uris":{"android":"levelo://app?vid=3414b944-a9b7-4b1e-b288-cbf493bce065","ios":"levelo://app?vid=3414b944-a9b7-4b1e-b288-cbf493bce065"},"vehicle_type_id":"4","last_reported":1740377661,"current_range_meters":12800,"station_id":"ce4bh392rcd13ifvqdl0","pricing_plan_id":"cebpf4jnsgd1na2vs0mg"},{"bike_id":"51c7c09f-82e9-4a4b-a201-54869c0fba8f","system_id":"levelo_inurba_marseille","lat":43.25083,"lon":5.3953,"is_reserved":false,"is_disabled":true,"rental_uris":{"android":"levelo://app?vid=51c7c09f-82e9-4a4b-a201-54869c0fba8f","ios":"levelo://app?vid=51c7c09f-82e9-4a4b-a201-54869c0fba8f"},"vehicle_type_id":"4","last_reported":1740377661,"current_range_meters":12800,"station_id":"ce4bhm12rcd13ifvqgkg","pricing_plan_id":"cebpf4jnsgd1na2vs0mg"},{"bike_id":"05cae556-abef-4663-96ad-02d3c608ca77","system_id":"levelo_inurba_marseille","lat":43.246633,"lon":5.381695,"is_reserved":false,"is_disabled":false,"rental_uris":{"android":"levelo://app?vid=05cae556-abef-4663-96ad-02d3c608ca77","ios":"levelo://app?vid=05cae556-abef-4663-96ad-02d3c608ca77"},"vehicle_type_id":"4","last_reported":1740377661,"current_range_meters":12800,"station_id":"ce4bhih2rcd13ifvqfr0","pricing_plan_id":"cebpf4jnsgd1na2vs0mg"},{"bike_id":"a85dea3d-d4f1-4002-bf3e-2b6ec1fa25b3","system_id":"levelo_inurba_marseille","lat":43.26213,"lon":5.40433,"is_reserved":false,"is_disabled":false,"rental_uris":{"android":"levelo://app?vid=a85dea3d-d4f1-4002-bf3e-2b6ec1fa25b3","ios":"levelo://app?vid=a85dea3d-d4f1-4002-bf3e-2b6ec1fa25b3"},"vehicle_type_id":"4","last_reported":1740377661,"current_range_meters":12800,"station_id":"ce4bhmh2rcd13ifvqgmg","pricing_plan_id":"cebpf4jnsgd1na2vs0mg"},{"bike_id":"68c1cb49-7da1-4934-a025-4e78e338d091","system_id":"levelo_inurba_marseille","lat":43.337638,"lon":5.374412,"is_reserved":false,"is_disabled":false,"rental_uris":{"android":"levelo://app?vid=68c1cb49-7da1-4934-a025-4e78e338d091","ios":"levelo://app?vid=68c1cb49-7da1-4934-a025-4e78e338d091"},"vehicle_type_id":"4","last_reported":1740377661,"current_range_meters":12800,"station_id":"","pricing_plan_id":"cebpf4jnsgd1na2vs0mg"},{"bike_id":"77e2a727-5e32-4608-a3f2-9f5a60be0a14","system_id":"levelo_inurba_marseille","lat":43.30464,"lon":5.37905,"is_reserved":false,"is_disabled":false,"rental_uris":{"android":"levelo://app?vid=77e2a727-5e32-4608-a3f2-9f5a60be0a14","ios":"levelo://app?vid=77e2a727-5e32-4608-a3f2-9f5a60be0a14"},"vehicle_type_id":"4","last_reported":1740377661,"current_range_meters":13600,"station_id":"ce4bgup2rcd13ifvqcn0","pricing_plan_id":"cebpf4jnsgd1na2vs0mg"},{"bike_id":"a5c93db5-c687-41cb-9df7-2ad4cfddcd7c","system_id":"levelo_inurba_marseille","lat":43.31343,"lon":5.3968,"is_reserved":false,"is_disabled":false,"rental_uris":{"android":"levelo://app?vid=a5c93db5-c687-41cb-9df7-2ad4cfddcd7c","ios":"levelo://app?vid=a5c93db5-c687-41cb-9df7-2ad4cfddcd7c"},"vehicle_type_id":"4","last_reported":1740377661,"current_range_meters":13600,"station_id":"ce4bgvp2rcd13ifvqcu0","pricing_plan_id":"cebpf4jnsgd1na2vs0mg"},{"bike_id":"326a47ae-69a1-486d-a329-1375c540a38d","system_id":"levelo_inurba_marseille","lat":43.30911,"lon":5.40177,"is_reserved":false,"is_disabled":false,"rental_uris":{"android":"levelo://app?vid=326a47ae-69a1-486d-a329-1375c540a38d","ios":"levelo://app?vid=326a47ae-69a1-486d-a329-1375c540a38d"},"vehicle_type_id":"4","last_reported":1740377661,"current_range_meters":13600,"station_id":"ce4bgvp2rcd13ifvqct0","pricing_plan_id":"cebpf4jnsgd1na2vs0mg"},{"bike_id":"a3391fb6-e4a0-4539-95d1-ca746f07bcfe","system_id":"levelo_inurba_marseille","lat":43.29055,"lon":5.35915,"is_reserved":false,"is_disabled":false,"rental_uris":{"android":"levelo://app?vid=a3391fb6-e4a0-4539-95d1-ca746f07bcfe","ios":"levelo://app?vid=a3391fb6-e4a0-4539-95d1-ca746f07bcfe"},"vehicle_type_id":"4","last_reported":1740377661,"current_range_meters":15200,"station_id":"ce4bha92rcd13ifvqeg0","pricing_plan_id":"cebpf4jnsgd1na2vs0mg"},{"bike_id":"b71f5752-c890-416d-90df-2b38a153e41b","system_id":"levelo_inurba_marseille","lat":43.26234,"lon":5.40476,"is_reserved":false,"is_disabled":false,"rental_uris":{"android":"levelo://app?vid=b71f5752-c890-416d-90df-2b38a153e41b","ios":"levelo://app?vid=b71f5752-c890-416d-90df-2b38a153e41b"},"vehicle_type_id":"4","last_reported":1740377661,"current_range_meters":14000,"station_id":"ce4bhmh2rcd13ifvqgmg","pricing_plan_id":"cebpf4jnsgd1na2vs0mg"},{"bike_id":"470f98cd-8647-49a8-afe8-e9668886a2db","system_id":"levelo_inurba_marseille","lat":43.2796,"lon":5.41099,"is_reserved":false,"is_disabled":false,"rental_uris":{"android":"levelo://app?vid=470f98cd-8647-49a8-afe8-e9668886a2db","ios":"levelo://app?vid=470f98cd-8647-49a8-afe8-e9668886a2db"},"vehicle_type_id":"4","last_reported":1740377661,"current_range_meters":14000,"station_id":"ce4bhnp2rcd13ifvqh0g","pricing_plan_id":"cebpf4jnsgd1na2vs0mg"},{"bike_id":"9a4a2d20-d6fb-4142-97c2-47a44afc45bd","system_id":"levelo_inurba_marseille","lat":43.30223,"lon":5.40042,"is_reserved":false,"is_disabled":false,"rental_uris":{"android":"levelo://app?vid=9a4a2d20-d6fb-4142-97c2-47a44afc45bd","ios":"levelo://app?vid=9a4a2d20-d6fb-4142-97c2-47a44afc45bd"},"vehicle_type_id":"4","last_reported":1740377661,"current_range_meters":14000,"station_id":"","pricing_plan_id":"cebpf4jnsgd1na2vs0mg"},{"bike_id":"55a5fc88-1447-4049-b91a-ded2d1a4e7cd","system_id":"levelo_inurba_marseille","lat":43.28264,"lon":5.35083,"is_reserved":false,"is_disabled":false,"rental_uris":{"android":"levelo://app?vid=55a5fc88-1447-4049-b91a-ded2d1a4e7cd","ios":"levelo://app?vid=55a5fc88-1447-4049-b91a-ded2d1a4e7cd"},"vehicle_type_id":"4","last_reported":1740377661,"current_range_meters":14000,"station_id":"ce4bhbp2rcd13ifvqerg","pricing_plan_id":"cebpf4jnsgd1na2vs0mg"},{"bike_id":"25ef5a1f-5aec-48a2-a786-541af88b2004","system_id":"levelo_inurba_marseille","lat":43.30362,"lon":5.39443,"is_reserved":false,"is_disabled":false,"rental_uris":{"android":"levelo://app?vid=25ef5a1f-5aec-48a2-a786-541af88b2004","ios":"levelo://app?vid=25ef5a1f-5aec-48a2-a786-541af88b2004"},"vehicle_type_id":"4","last_reported":1740377661,"current_range_meters":14400,"station_id":"","pricing_plan_id":"cebpf4jnsgd1na2vs0mg"},{"bike_id":"41a2216f-8b22-4f4f-9eac-5e2283bcdb4b","system_id":"levelo_inurba_marseille","lat":43.28138,"lon":5.42662,"is_reserved":false,"is_disabled":true,"rental_uris":{"android":"levelo://app?vid=41a2216f-8b22-4f4f-9eac-5e2283bcdb4b","ios":"levelo://app?vid=41a2216f-8b22-4f4f-9eac-5e2283bcdb4b"},"vehicle_type_id":"4","last_reported":1740377661,"current_range_meters":14400,"station_id":"ce4bhnh2rcd13ifvqgug","pricing_plan_id":"cebpf4jnsgd1na2vs0mg"},{"bike_id":"e1e121af-d40b-414a-8c6b-b46f9538a374","system_id":"levelo_inurba_marseille","lat":43.24798,"lon":5.37463,"is_reserved":false,"is_disabled":false,"rental_uris":{"android":"levelo://app?vid=e1e121af-d40b-414a-8c6b-b46f9538a374","ios":"levelo://app?vid=e1e121af-d40b-414a-8c6b-b46f9538a374"},"vehicle_type_id":"4","last_reported":1740377661,"current_range_meters":14400,"station_id":"ce4bhgh2rcd13ifvqfb0","pricing_plan_id":"cebpf4jnsgd1na2vs0mg"},{"bike_id":"7fe0996e-2e24-4a3a-b975-03a2a20f6506","system_id":"levelo_inurba_marseille","lat":43.323651,"lon":5.367634,"is_reserved":false,"is_disabled":false,"rental_uris":{"android":"levelo://app?vid=7fe0996e-2e24-4a3a-b975-03a2a20f6506","ios":"levelo://app?vid=7fe0996e-2e24-4a3a-b975-03a2a20f6506"},"vehicle_type_id":"4","last_reported":1740377661,"current_range_meters":14400,"station_id":"ce4bhsh2rcd13ifvqi2g","pricing_plan_id":"cebpf4jnsgd1na2vs0mg"},{"bike_id":"14ffb6e4-664c-4b2b-9ade-80857a77e357","system_id":"levelo_inurba_marseille","lat":43.28913,"lon":5.36628,"is_reserved":false,"is_disabled":false,"rental_uris":{"android":"levelo://app?vid=14ffb6e4-664c-4b2b-9ade-80857a77e357","ios":"levelo://app?vid=14ffb6e4-664c-4b2b-9ade-80857a77e357"},"vehicle_type_id":"4","last_reported":1740377661,"current_range_meters":14400,"station_id":"ce4bhap2rcd13ifvqek0","pricing_plan_id":"cebpf4jnsgd1na2vs0mg"},{"bike_id":"dc54d4c7-bc24-4392-9110-799e297e7337","system_id":"levelo_inurba_marseille","lat":43.2931,"lon":5.37249,"is_reserved":false,"is_disabled":false,"rental_uris":{"android":"levelo://app?vid=dc54d4c7-bc24-4392-9110-799e297e7337","ios":"levelo://app?vid=dc54d4c7-bc24-4392-9110-799e297e7337"},"vehicle_type_id":"4","last_reported":1740377661,"current_range_meters":14400,"station_id":"","pricing_plan_id":"cebpf4jnsgd1na2vs0mg"},{"bike_id":"1ef41376-cd3a-40a3-ae4a-f23a2a34fc30","system_id":"levelo_inurba_marseille","lat":43.27675,"lon":5.38924,"is_reserved":false,"is_disabled":true,"rental_uris":{"android":"levelo://app?vid=1ef41376-cd3a-40a3-ae4a-f23a2a34fc30","ios":"levelo://app?vid=1ef41376-cd3a-40a3-ae4a-f23a2a34fc30"},"vehicle_type_id":"4","last_reported":1740377661,"current_range_meters":14800,"station_id":"ce4bhi12rcd13ifvqfo0","pricing_plan_id":"cebpf4jnsgd1na2vs0mg"},{"bike_id":"55e8dfe4-3690-4fe4-a013-f8375845b432","system_id":"levelo_inurba_marseille","lat":43.25924,"lon":5.40884,"is_reserved":false,"is_disabled":false,"rental_uris":{"android":"levelo://app?vid=55e8dfe4-3690-4fe4-a013-f8375845b432","ios":"levelo://app?vid=55e8dfe4-3690-4fe4-a013-f8375845b432"},"vehicle_type_id":"4","last_reported":1740377661,"current_range_meters":14800,"station_id":"ce4bhm92rcd13ifvqglg","pricing_plan_id":"cebpf4jnsgd1na2vs0mg"},{"bike_id":"4827c7e0-5feb-4891-9d73-6ba382bb3f0b","system_id":"levelo_inurba_marseille","lat":43.26196,"lon":5.37932,"is_reserved":false,"is_disabled":false,"rental_uris":{"android":"levelo://app?vid=4827c7e0-5feb-4891-9d73-6ba382bb3f0b","ios":"levelo://app?vid=4827c7e0-5feb-4891-9d73-6ba382bb3f0b"},"vehicle_type_id":"4","last_reported":1740377661,"current_range_meters":14800,"station_id":"ce4bhjp2rcd13ifvqg90","pricing_plan_id":"cebpf4jnsgd1na2vs0mg"},{"bike_id":"a2d6ae3f-66f4-4649-ba0a-99967149441d","system_id":"levelo_inurba_marseille","lat":43.29547,"lon":5.3611,"is_reserved":false,"is_disabled":false,"rental_uris":{"android":"levelo://app?vid=a2d6ae3f-66f4-4649-ba0a-99967149441d","ios":"levelo://app?vid=a2d6ae3f-66f4-4649-ba0a-99967149441d"},"vehicle_type_id":"4","last_reported":1740377661,"current_range_meters":14800,"station_id":"","pricing_plan_id":"cebpf4jnsgd1na2vs0mg"},{"bike_id":"d5259184-ba3a-4ef8-baa9-a623b2d430bd","system_id":"levelo_inurba_marseille","lat":43.2926,"lon":5.40905,"is_reserved":false,"is_disabled":false,"rental_uris":{"android":"levelo://app?vid=d5259184-ba3a-4ef8-baa9-a623b2d430bd","ios":"levelo://app?vid=d5259184-ba3a-4ef8-baa9-a623b2d430bd"},"vehicle_type_id":"4","last_reported":1740377661,"current_range_meters":14800,"station_id":"ce4bh192rcd13ifvqdc0","pricing_plan_id":"cebpf4jnsgd1na2vs0mg"},{"bike_id":"fbf68de0-1719-414c-9a6e-a36a5884f5e5","system_id":"levelo_inurba_marseille","lat":43.26946,"lon":5.3865,"is_reserved":false,"is_disabled":false,"rental_uris":{"android":"levelo://app?vid=fbf68de0-1719-414c-9a6e-a36a5884f5e5","ios":"levelo://app?vid=fbf68de0-1719-414c-9a6e-a36a5884f5e5"},"vehicle_type_id":"4","last_reported":1740377661,"current_range_meters":15200,"station_id":"ce4bhh92rcd13ifvqfh0","pricing_plan_id":"cebpf4jnsgd1na2vs0mg"},{"bike_id":"9ec80d5d-5365-4fe8-b1b8-741c81741c1c","system_id":"levelo_inurba_marseille","lat":43.27707,"lon":5.40821,"is_reserved":false,"is_disabled":false,"rental_uris":{"android":"levelo://app?vid=9ec80d5d-5365-4fe8-b1b8-741c81741c1c","ios":"levelo://app?vid=9ec80d5d-5365-4fe8-b1b8-741c81741c1c"},"vehicle_type_id":"4","last_reported":1740377661,"current_range_meters":15200,"station_id":"","pricing_plan_id":"cebpf4jnsgd1na2vs0mg"},{"bike_id":"38d4b5b8-d8a2-46ef-87ba-e5cf58e153b6","system_id":"levelo_inurba_marseille","lat":43.30355,"lon":5.41873,"is_reserved":false,"is_disabled":false,"rental_uris":{"android":"levelo://app?vid=38d4b5b8-d8a2-46ef-87ba-e5cf58e153b6","ios":"levelo://app?vid=38d4b5b8-d8a2-46ef-87ba-e5cf58e153b6"},"vehicle_type_id":"4","last_reported":1740377661,"current_range_meters":15200,"station_id":"ce4bhop2rcd13ifvqh7g","pricing_plan_id":"cebpf4jnsgd1na2vs0mg"},{"bike_id":"738d7062-e684-48a6-b108-52fbc1509e4e","system_id":"levelo_inurba_marseille","lat":43.292111,"lon":5.393291,"is_reserved":false,"is_disabled":false,"rental_uris":{"android":"levelo://app?vid=738d7062-e684-48a6-b108-52fbc1509e4e","ios":"levelo://app?vid=738d7062-e684-48a6-b108-52fbc1509e4e"},"vehicle_type_id":"4","last_reported":1740377661,"current_range_meters":15200,"station_id":"ce4bh192rcd13ifvqdd0","pricing_plan_id":"cebpf4jnsgd1na2vs0mg"},{"bike_id":"b5a1d484-9e63-43b3-9bbc-06f2df1a2c91","system_id":"levelo_inurba_marseille","lat":43.292101,"lon":5.393133,"is_reserved":false,"is_disabled":false,"rental_uris":{"android":"levelo://app?vid=b5a1d484-9e63-43b3-9bbc-06f2df1a2c91","ios":"levelo://app?vid=b5a1d484-9e63-43b3-9bbc-06f2df1a2c91"},"vehicle_type_id":"4","last_reported":1740377661,"current_range_meters":16000,"station_id":"ce4bh192rcd13ifvqdd0","pricing_plan_id":"cebpf4jnsgd1na2vs0mg"},{"bike_id":"9722404f-fe53-4cca-a8f9-6c587b8c420d","system_id":"levelo_inurba_marseille","lat":43.295243,"lon":5.394076,"is_reserved":false,"is_disabled":false,"rental_uris":{"android":"levelo://app?vid=9722404f-fe53-4cca-a8f9-6c587b8c420d","ios":"levelo://app?vid=9722404f-fe53-4cca-a8f9-6c587b8c420d"},"vehicle_type_id":"4","last_reported":1740377661,"current_range_meters":16000,"station_id":"ce4bh292rcd13ifvqdf0","pricing_plan_id":"cebpf4jnsgd1na2vs0mg"},{"bike_id":"cd1ed5da-4193-4b1f-828e-88308d393b06","system_id":"levelo_inurba_marseille","lat":43.33617,"lon":5.41016,"is_reserved":false,"is_disabled":false,"rental_uris":{"android":"levelo://app?vid=cd1ed5da-4193-4b1f-828e-88308d393b06","ios":"levelo://app?vid=cd1ed5da-4193-4b1f-828e-88308d393b06"},"vehicle_type_id":"4","last_reported":1740377661,"current_range_meters":16000,"station_id":"ce4bhqh2rcd13ifvqhmg","pricing_plan_id":"cebpf4jnsgd1na2vs0mg"},{"bike_id":"b17e5ed9-6143-4a15-8968-367fc0b46e2c","system_id":"levelo_inurba_marseille","lat":43.30859,"lon":5.3964,"is_reserved":false,"is_disabled":false,"rental_uris":{"android":"levelo://app?vid=b17e5ed9-6143-4a15-8968-367fc0b46e2c","ios":"levelo://app?vid=b17e5ed9-6143-4a15-8968-367fc0b46e2c"},"vehicle_type_id":"4","last_reported":1740377661,"current_range_meters":16000,"station_id":"","pricing_plan_id":"cebpf4jnsgd1na2vs0mg"},{"bike_id":"da805173-c32f-4615-b8c5-69bdaf0f2e7f","system_id":"levelo_inurba_marseille","lat":43.28975,"lon":5.35634,"is_reserved":false,"is_disabled":true,"rental_uris":{"android":"levelo://app?vid=da805173-c32f-4615-b8c5-69bdaf0f2e7f","ios":"levelo://app?vid=da805173-c32f-4615-b8c5-69bdaf0f2e7f"},"vehicle_type_id":"4","last_reported":1740377661,"current_range_meters":16000,"station_id":"ce4bhb92rcd13ifvqen0","pricing_plan_id":"cebpf4jnsgd1na2vs0mg"},{"bike_id":"ec6547c1-b07c-4c37-a061-60796a7363ff","system_id":"levelo_inurba_marseille","lat":43.2922,"lon":5.36064,"is_reserved":false,"is_disabled":false,"rental_uris":{"android":"levelo://app?vid=ec6547c1-b07c-4c37-a061-60796a7363ff","ios":"levelo://app?vid=ec6547c1-b07c-4c37-a061-60796a7363ff"},"vehicle_type_id":"4","last_reported":1740377661,"current_range_meters":16000,"station_id":"ce4bhbh2rcd13ifvqeqg","pricing_plan_id":"cebpf4jnsgd1na2vs0mg"},{"bike_id":"41b8905f-5d71-47d2-981b-cd5802ac227d","system_id":"levelo_inurba_marseille","lat":43.28154,"lon":5.42641,"is_reserved":false,"is_disabled":false,"rental_uris":{"android":"levelo://app?vid=41b8905f-5d71-47d2-981b-cd5802ac227d","ios":"levelo://app?vid=41b8905f-5d71-47d2-981b-cd5802ac227d"},"vehicle_type_id":"4","last_reported":1740377661,"current_range_meters":16000,"station_id":"ce4bhnh2rcd13ifvqgug","pricing_plan_id":"cebpf4jnsgd1na2vs0mg"},{"bike_id":"6511950d-bf7d-429e-8400-a235713a0f4a","system_id":"levelo_inurba_marseille","lat":43.29227,"lon":5.36062,"is_reserved":false,"is_disabled":false,"rental_uris":{"android":"levelo://app?vid=6511950d-bf7d-429e-8400-a235713a0f4a","ios":"levelo://app?vid=6511950d-bf7d-429e-8400-a235713a0f4a"},"vehicle_type_id":"4","last_reported":1740377661,"current_range_meters":16000,"station_id":"ce4bhbh2rcd13ifvqeqg","pricing_plan_id":"cebpf4jnsgd1na2vs0mg"},{"bike_id":"615a02a6-6646-4df1-8ade-8686d89d8747","system_id":"levelo_inurba_marseille","lat":43.31322,"lon":5.39705,"is_reserved":false,"is_disabled":true,"rental_uris":{"android":"levelo://app?vid=615a02a6-6646-4df1-8ade-8686d89d8747","ios":"levelo://app?vid=615a02a6-6646-4df1-8ade-8686d89d8747"},"vehicle_type_id":"4","last_reported":1740377661,"current_range_meters":16000,"station_id":"ce4bgvp2rcd13ifvqcu0","pricing_plan_id":"cebpf4jnsgd1na2vs0mg"},{"bike_id":"eea472cb-2671-45b0-b045-98192029998b","system_id":"levelo_inurba_marseille","lat":43.28337,"lon":5.38118,"is_reserved":false,"is_disabled":false,"rental_uris":{"android":"levelo://app?vid=eea472cb-2671-45b0-b045-98192029998b","ios":"levelo://app?vid=eea472cb-2671-45b0-b045-98192029998b"},"vehicle_type_id":"4","last_reported":1740377661,"current_range_meters":16400,"station_id":"ce4bh412rcd13ifvqdr0","pricing_plan_id":"cebpf4jnsgd1na2vs0mg"},{"bike_id":"dc1a26b3-dd64-4aaf-bd10-07214bc38395","system_id":"levelo_inurba_marseille","lat":43.25864,"lon":5.39902,"is_reserved":false,"is_disabled":false,"rental_uris":{"android":"levelo://app?vid=dc1a26b3-dd64-4aaf-bd10-07214bc38395","ios":"levelo://app?vid=dc1a26b3-dd64-4aaf-bd10-07214bc38395"},"vehicle_type_id":"4","last_reported":1740377661,"current_range_meters":16400,"station_id":"ce4bhl92rcd13ifvqghg","pricing_plan_id":"cebpf4jnsgd1na2vs0mg"},{"bike_id":"8ad0a955-9da8-44b2-92a5-11d0e58cb50d","system_id":"levelo_inurba_marseille","lat":43.311701,"lon":5.387121,"is_reserved":false,"is_disabled":false,"rental_uris":{"android":"levelo://app?vid=8ad0a955-9da8-44b2-92a5-11d0e58cb50d","ios":"levelo://app?vid=8ad0a955-9da8-44b2-92a5-11d0e58cb50d"},"vehicle_type_id":"4","last_reported":1740377661,"current_range_meters":16400,"station_id":"ce4bgv12rcd13ifvqcp0","pricing_plan_id":"cebpf4jnsgd1na2vs0mg"},{"bike_id":"2c226df1-fd18-49fa-937a-6cfcc5f50412","system_id":"levelo_inurba_marseille","lat":43.28687,"lon":5.39988,"is_reserved":false,"is_disabled":false,"rental_uris":{"android":"levelo://app?vid=2c226df1-fd18-49fa-937a-6cfcc5f50412","ios":"levelo://app?vid=2c226df1-fd18-49fa-937a-6cfcc5f50412"},"vehicle_type_id":"4","last_reported":1740377661,"current_range_meters":16400,"station_id":"ce4bho92rcd13ifvqh3g","pricing_plan_id":"cebpf4jnsgd1na2vs0mg"},{"bike_id":"ab698752-509c-4a82-9d65-3c53e3a2b523","system_id":"levelo_inurba_marseille","lat":43.28989,"lon":5.36701,"is_reserved":false,"is_disabled":false,"rental_uris":{"android":"levelo://app?vid=ab698752-509c-4a82-9d65-3c53e3a2b523","ios":"levelo://app?vid=ab698752-509c-4a82-9d65-3c53e3a2b523"},"vehicle_type_id":"4","last_reported":1740377661,"current_range_meters":16400,"station_id":"ce4bhap2rcd13ifvqek0","pricing_plan_id":"cebpf4jnsgd1na2vs0mg"},{"bike_id":"b6c67d47-6b6c-433b-9cf7-69638e23cd88","system_id":"levelo_inurba_marseille","lat":43.28409,"lon":5.37527,"is_reserved":false,"is_disabled":false,"rental_uris":{"android":"levelo://app?vid=b6c67d47-6b6c-433b-9cf7-69638e23cd88","ios":"levelo://app?vid=b6c67d47-6b6c-433b-9cf7-69638e23cd88"},"vehicle_type_id":"4","last_reported":1740377661,"current_range_meters":16400,"station_id":"ce4bh412rcd13ifvqds0","pricing_plan_id":"cebpf4jnsgd1na2vs0mg"},{"bike_id":"2cb3f284-7b8f-46db-a012-ff6c476270a8","system_id":"levelo_inurba_marseille","lat":43.23187,"lon":5.35558,"is_reserved":false,"is_disabled":false,"rental_uris":{"android":"levelo://app?vid=2cb3f284-7b8f-46db-a012-ff6c476270a8","ios":"levelo://app?vid=2cb3f284-7b8f-46db-a012-ff6c476270a8"},"vehicle_type_id":"4","last_reported":1740377661,"current_range_meters":16400,"station_id":"ce4bhu92rcd13ifvqi70","pricing_plan_id":"cebpf4jnsgd1na2vs0mg"},{"bike_id":"e635de05-4efb-4b34-8abf-ae671d27753c","system_id":"levelo_inurba_marseille","lat":43.31535,"lon":5.3801,"is_reserved":false,"is_disabled":false,"rental_uris":{"android":"levelo://app?vid=e635de05-4efb-4b34-8abf-ae671d27753c","ios":"levelo://app?vid=e635de05-4efb-4b34-8abf-ae671d27753c"},"vehicle_type_id":"4","last_reported":1740377661,"current_range_meters":16400,"station_id":"ce4bhsp2rcd13ifvqi50","pricing_plan_id":"cebpf4jnsgd1na2vs0mg"},{"bike_id":"9492c448-793d-406d-bc2b-7022c1925bc3","system_id":"levelo_inurba_marseille","lat":43.29727,"lon":5.36602,"is_reserved":false,"is_disabled":false,"rental_uris":{"android":"levelo://app?vid=9492c448-793d-406d-bc2b-7022c1925bc3","ios":"levelo://app?vid=9492c448-793d-406d-bc2b-7022c1925bc3"},"vehicle_type_id":"4","last_reported":1740377661,"current_range_meters":16400,"station_id":"ce4bgn12rcd13ifvqbt0","pricing_plan_id":"cebpf4jnsgd1na2vs0mg"},{"bike_id":"10f42660-2599-493d-ab3d-95e9e390723e","system_id":"levelo_inurba_marseille","lat":43.29029,"lon":5.39983,"is_reserved":false,"is_disabled":false,"rental_uris":{"android":"levelo://app?vid=10f42660-2599-493d-ab3d-95e9e390723e","ios":"levelo://app?vid=10f42660-2599-493d-ab3d-95e9e390723e"},"vehicle_type_id":"4","last_reported":1740377661,"current_range_meters":16400,"station_id":"ce4bh392rcd13ifvqdm0","pricing_plan_id":"cebpf4jnsgd1na2vs0mg"},{"bike_id":"c0553ce2-1e21-4424-ae14-30f158e9755d","system_id":"levelo_inurba_marseille","lat":43.2987,"lon":5.38915,"is_reserved":false,"is_disabled":true,"rental_uris":{"android":"levelo://app?vid=c0553ce2-1e21-4424-ae14-30f158e9755d","ios":"levelo://app?vid=c0553ce2-1e21-4424-ae14-30f158e9755d"},"vehicle_type_id":"4","last_reported":1740377661,"current_range_meters":16400,"station_id":"ce4bh392rcd13ifvqdl0","pricing_plan_id":"cebpf4jnsgd1na2vs0mg"},{"bike_id":"c97f5ab1-20b5-4c00-b657-8a7a3dfc639d","system_id":"levelo_inurba_marseille","lat":43.31222,"lon":5.37226,"is_reserved":false,"is_disabled":false,"rental_uris":{"android":"levelo://app?vid=c97f5ab1-20b5-4c00-b657-8a7a3dfc639d","ios":"levelo://app?vid=c97f5ab1-20b5-4c00-b657-8a7a3dfc639d"},"vehicle_type_id":"4","last_reported":1740377661,"current_range_meters":16800,"station_id":"","pricing_plan_id":"cebpf4jnsgd1na2vs0mg"},{"bike_id":"eddbdbfe-4ab6-4461-94f2-70979571ce52","system_id":"levelo_inurba_marseille","lat":43.30453,"lon":5.37903,"is_reserved":false,"is_disabled":false,"rental_uris":{"android":"levelo://app?vid=eddbdbfe-4ab6-4461-94f2-70979571ce52","ios":"levelo://app?vid=eddbdbfe-4ab6-4461-94f2-70979571ce52"},"vehicle_type_id":"4","last_reported":1740377661,"current_range_meters":16800,"station_id":"ce4bgup2rcd13ifvqcn0","pricing_plan_id":"cebpf4jnsgd1na2vs0mg"},{"bike_id":"34953fce-97d9-4ccf-8eef-5fbc7fb03376","system_id":"levelo_inurba_marseille","lat":43.25693,"lon":5.41111,"is_reserved":false,"is_disabled":false,"rental_uris":{"android":"levelo://app?vid=34953fce-97d9-4ccf-8eef-5fbc7fb03376","ios":"levelo://app?vid=34953fce-97d9-4ccf-8eef-5fbc7fb03376"},"vehicle_type_id":"4","last_reported":1740377661,"current_range_meters":16800,"station_id":"ce4bhkp2rcd13ifvqgd0","pricing_plan_id":"cebpf4jnsgd1na2vs0mg"},{"bike_id":"8f211608-37d3-4f56-89e5-c6537a32e18e","system_id":"levelo_inurba_marseille","lat":43.27493,"lon":5.42449,"is_reserved":false,"is_disabled":false,"rental_uris":{"android":"levelo://app?vid=8f211608-37d3-4f56-89e5-c6537a32e18e","ios":"levelo://app?vid=8f211608-37d3-4f56-89e5-c6537a32e18e"},"vehicle_type_id":"4","last_reported":1740377661,"current_range_meters":17200,"station_id":"ce4bhn92rcd13ifvqgrg","pricing_plan_id":"cebpf4jnsgd1na2vs0mg"},{"bike_id":"98ee55f8-f3af-433a-86d4-ad5a74b5654c","system_id":"levelo_inurba_marseille","lat":43.27325,"lon":5.3911,"is_reserved":false,"is_disabled":true,"rental_uris":{"android":"levelo://app?vid=98ee55f8-f3af-433a-86d4-ad5a74b5654c","ios":"levelo://app?vid=98ee55f8-f3af-433a-86d4-ad5a74b5654c"},"vehicle_type_id":"4","last_reported":1740377661,"current_range_meters":16800,"station_id":"ce4bhgp2rcd13ifvqfe0","pricing_plan_id":"cebpf4jnsgd1na2vs0mg"},{"bike_id":"cec8b2cb-c0be-4285-ae05-73f30f35b61d","system_id":"levelo_inurba_marseille","lat":43.29874,"lon":5.39775,"is_reserved":false,"is_disabled":false,"rental_uris":{"android":"levelo://app?vid=cec8b2cb-c0be-4285-ae05-73f30f35b61d","ios":"levelo://app?vid=cec8b2cb-c0be-4285-ae05-73f30f35b61d"},"vehicle_type_id":"4","last_reported":1740377661,"current_range_meters":16800,"station_id":"ce4bh0h2rcd13ifvqd50","pricing_plan_id":"cebpf4jnsgd1na2vs0mg"},{"bike_id":"1e0d4f58-91fa-434f-90bb-ae9022b8bbe3","system_id":"levelo_inurba_marseille","lat":43.25869,"lon":5.39895,"is_reserved":false,"is_disabled":false,"rental_uris":{"android":"levelo://app?vid=1e0d4f58-91fa-434f-90bb-ae9022b8bbe3","ios":"levelo://app?vid=1e0d4f58-91fa-434f-90bb-ae9022b8bbe3"},"vehicle_type_id":"4","last_reported":1740377661,"current_range_meters":16800,"station_id":"ce4bhl92rcd13ifvqghg","pricing_plan_id":"cebpf4jnsgd1na2vs0mg"},{"bike_id":"035c237b-16c5-4c4f-94e9-8a6ba9d28779","system_id":"levelo_inurba_marseille","lat":43.28399,"lon":5.37528,"is_reserved":false,"is_disabled":false,"rental_uris":{"android":"levelo://app?vid=035c237b-16c5-4c4f-94e9-8a6ba9d28779","ios":"levelo://app?vid=035c237b-16c5-4c4f-94e9-8a6ba9d28779"},"vehicle_type_id":"4","last_reported":1740377661,"current_range_meters":16800,"station_id":"ce4bh412rcd13ifvqds0","pricing_plan_id":"cebpf4jnsgd1na2vs0mg"},{"bike_id":"4508c765-2ecb-4e37-ac1f-ccb10d73bfd2","system_id":"levelo_inurba_marseille","lat":43.28013,"lon":5.39983,"is_reserved":false,"is_disabled":false,"rental_uris":{"android":"levelo://app?vid=4508c765-2ecb-4e37-ac1f-ccb10d73bfd2","ios":"levelo://app?vid=4508c765-2ecb-4e37-ac1f-ccb10d73bfd2"},"vehicle_type_id":"4","last_reported":1740377661,"current_range_meters":17200,"station_id":"ce4bho92rcd13ifvqh4g","pricing_plan_id":"cebpf4jnsgd1na2vs0mg"},{"bike_id":"16383675-fc5d-4252-93cf-d4c3ee1829f6","system_id":"levelo_inurba_marseille","lat":43.26222,"lon":5.37606,"is_reserved":false,"is_disabled":false,"rental_uris":{"android":"levelo://app?vid=16383675-fc5d-4252-93cf-d4c3ee1829f6","ios":"levelo://app?vid=16383675-fc5d-4252-93cf-d4c3ee1829f6"},"vehicle_type_id":"4","last_reported":1740377661,"current_range_meters":17200,"station_id":"","pricing_plan_id":"cebpf4jnsgd1na2vs0mg"},{"bike_id":"1983fefe-681b-4bf6-bc3e-9e5a51871fe5","system_id":"levelo_inurba_marseille","lat":43.30516,"lon":5.36703,"is_reserved":false,"is_disabled":false,"rental_uris":{"android":"levelo://app?vid=1983fefe-681b-4bf6-bc3e-9e5a51871fe5","ios":"levelo://app?vid=1983fefe-681b-4bf6-bc3e-9e5a51871fe5"},"vehicle_type_id":"4","last_reported":1740377661,"current_range_meters":17600,"station_id":"ce4bgrp2rcd13ifvqc9g","pricing_plan_id":"cebpf4jnsgd1na2vs0mg"},{"bike_id":"d4730943-c8a0-45ac-a541-8183607370d1","system_id":"levelo_inurba_marseille","lat":43.25014,"lon":5.38927,"is_reserved":false,"is_disabled":false,"rental_uris":{"android":"levelo://app?vid=d4730943-c8a0-45ac-a541-8183607370d1","ios":"levelo://app?vid=d4730943-c8a0-45ac-a541-8183607370d1"},"vehicle_type_id":"4","last_reported":1740377661,"current_range_meters":17200,"station_id":"ce4bhgp2rcd13ifvqfd0","pricing_plan_id":"cebpf4jnsgd1na2vs0mg"},{"bike_id":"05d0cb4a-a256-4bdc-84b8-3d118cd62f0f","system_id":"levelo_inurba_marseille","lat":43.30469,"lon":5.37924,"is_reserved":false,"is_disabled":false,"rental_uris":{"android":"levelo://app?vid=05d0cb4a-a256-4bdc-84b8-3d118cd62f0f","ios":"levelo://app?vid=05d0cb4a-a256-4bdc-84b8-3d118cd62f0f"},"vehicle_type_id":"4","last_reported":1740377661,"current_range_meters":17200,"station_id":"ce4bgup2rcd13ifvqcn0","pricing_plan_id":"cebpf4jnsgd1na2vs0mg"},{"bike_id":"b49a36cc-b75d-4e2c-b565-4dc9f46fd5af","system_id":"levelo_inurba_marseille","lat":43.29676,"lon":5.38701,"is_reserved":false,"is_disabled":false,"rental_uris":{"android":"levelo://app?vid=b49a36cc-b75d-4e2c-b565-4dc9f46fd5af","ios":"levelo://app?vid=b49a36cc-b75d-4e2c-b565-4dc9f46fd5af"},"vehicle_type_id":"4","last_reported":1740377661,"current_range_meters":17200,"station_id":"","pricing_plan_id":"cebpf4jnsgd1na2vs0mg"},{"bike_id":"c7cc387c-023d-4c68-a570-ad56853a323d","system_id":"levelo_inurba_marseille","lat":43.28709,"lon":5.37926,"is_reserved":false,"is_disabled":false,"rental_uris":{"android":"levelo://app?vid=c7cc387c-023d-4c68-a570-ad56853a323d","ios":"levelo://app?vid=c7cc387c-023d-4c68-a570-ad56853a323d"},"vehicle_type_id":"4","last_reported":1740377661,"current_range_meters":17200,"station_id":"ce4bh9p2rcd13ifvqec0","pricing_plan_id":"cebpf4jnsgd1na2vs0mg"},{"bike_id":"27068228-7ec6-4512-87fa-dcb51515ec3c","system_id":"levelo_inurba_marseille","lat":43.30905,"lon":5.37188,"is_reserved":false,"is_disabled":false,"rental_uris":{"android":"levelo://app?vid=27068228-7ec6-4512-87fa-dcb51515ec3c","ios":"levelo://app?vid=27068228-7ec6-4512-87fa-dcb51515ec3c"},"vehicle_type_id":"4","last_reported":1740377661,"current_range_meters":17600,"station_id":"ce4bguh2rcd13ifvqckg","pricing_plan_id":"cebpf4jnsgd1na2vs0mg"},{"bike_id":"5684b800-be3f-427a-a4f6-29b35eadfeb6","system_id":"levelo_inurba_marseille","lat":43.29306,"lon":5.40152,"is_reserved":false,"is_disabled":false,"rental_uris":{"android":"levelo://app?vid=5684b800-be3f-427a-a4f6-29b35eadfeb6","ios":"levelo://app?vid=5684b800-be3f-427a-a4f6-29b35eadfeb6"},"vehicle_type_id":"4","last_reported":1740377661,"current_range_meters":17600,"station_id":"ce4bh312rcd13ifvqdk0","pricing_plan_id":"cebpf4jnsgd1na2vs0mg"},{"bike_id":"8e18b074-d96c-447a-8fb6-093da4b1ea48","system_id":"levelo_inurba_marseille","lat":43.29877,"lon":5.38945,"is_reserved":false,"is_disabled":false,"rental_uris":{"android":"levelo://app?vid=8e18b074-d96c-447a-8fb6-093da4b1ea48","ios":"levelo://app?vid=8e18b074-d96c-447a-8fb6-093da4b1ea48"},"vehicle_type_id":"4","last_reported":1740377661,"current_range_meters":17600,"station_id":"ce4bh392rcd13ifvqdl0","pricing_plan_id":"cebpf4jnsgd1na2vs0mg"},{"bike_id":"adeeeb81-4f0a-4083-9054-a0dae332fd81","system_id":"levelo_inurba_marseille","lat":43.30863,"lon":5.39636,"is_reserved":false,"is_disabled":false,"rental_uris":{"android":"levelo://app?vid=adeeeb81-4f0a-4083-9054-a0dae332fd81","ios":"levelo://app?vid=adeeeb81-4f0a-4083-9054-a0dae332fd81"},"vehicle_type_id":"4","last_reported":1740377661,"current_range_meters":17600,"station_id":"ce4bh012rcd13ifvqcv0","pricing_plan_id":"cebpf4jnsgd1na2vs0mg"},{"bike_id":"67b8b3f6-1135-41e1-9b4f-c98e6799dec8","system_id":"levelo_inurba_marseille","lat":43.30782,"lon":5.4353,"is_reserved":false,"is_disabled":false,"rental_uris":{"android":"levelo://app?vid=67b8b3f6-1135-41e1-9b4f-c98e6799dec8","ios":"levelo://app?vid=67b8b3f6-1135-41e1-9b4f-c98e6799dec8"},"vehicle_type_id":"4","last_reported":1740377661,"current_range_meters":17600,"station_id":"ce4bhph2rcd13ifvqheg","pricing_plan_id":"cebpf4jnsgd1na2vs0mg"},{"bike_id":"44475497-a899-45ed-8bf3-abd1a45672e8","system_id":"levelo_inurba_marseille","lat":43.31321,"lon":5.39691,"is_reserved":false,"is_disabled":false,"rental_uris":{"android":"levelo://app?vid=44475497-a899-45ed-8bf3-abd1a45672e8","ios":"levelo://app?vid=44475497-a899-45ed-8bf3-abd1a45672e8"},"vehicle_type_id":"4","last_reported":1740377661,"current_range_meters":17600,"station_id":"ce4bgvp2rcd13ifvqcu0","pricing_plan_id":"cebpf4jnsgd1na2vs0mg"},{"bike_id":"53899e2c-901f-4684-921b-47370fcd206b","system_id":"levelo_inurba_marseille","lat":43.30099,"lon":5.39084,"is_reserved":false,"is_disabled":true,"rental_uris":{"android":"levelo://app?vid=53899e2c-901f-4684-921b-47370fcd206b","ios":"levelo://app?vid=53899e2c-901f-4684-921b-47370fcd206b"},"vehicle_type_id":"4","last_reported":1740377661,"current_range_meters":17600,"station_id":"ce4bh192rcd13ifvqdb0","pricing_plan_id":"cebpf4jnsgd1na2vs0mg"},{"bike_id":"cdf89f84-1d45-4ce1-b985-6a2c8b69ccf3","system_id":"levelo_inurba_marseille","lat":43.30573,"lon":5.36609,"is_reserved":false,"is_disabled":true,"rental_uris":{"android":"levelo://app?vid=cdf89f84-1d45-4ce1-b985-6a2c8b69ccf3","ios":"levelo://app?vid=cdf89f84-1d45-4ce1-b985-6a2c8b69ccf3"},"vehicle_type_id":"4","last_reported":1740377661,"current_range_meters":17600,"station_id":"ce4bgs12rcd13ifvqcag","pricing_plan_id":"cebpf4jnsgd1na2vs0mg"},{"bike_id":"ebbf6217-465f-4269-8ee4-4515a862b241","system_id":"levelo_inurba_marseille","lat":43.29869,"lon":5.38902,"is_reserved":false,"is_disabled":true,"rental_uris":{"android":"levelo://app?vid=ebbf6217-465f-4269-8ee4-4515a862b241","ios":"levelo://app?vid=ebbf6217-465f-4269-8ee4-4515a862b241"},"vehicle_type_id":"4","last_reported":1740377661,"current_range_meters":17600,"station_id":"ce4bh392rcd13ifvqdl0","pricing_plan_id":"cebpf4jnsgd1na2vs0mg"},{"bike_id":"86669f33-8519-423e-9dec-1b624217baeb","system_id":"levelo_inurba_marseille","lat":43.25081,"lon":5.39523,"is_reserved":false,"is_disabled":true,"rental_uris":{"android":"levelo://app?vid=86669f33-8519-423e-9dec-1b624217baeb","ios":"levelo://app?vid=86669f33-8519-423e-9dec-1b624217baeb"},"vehicle_type_id":"4","last_reported":1740377661,"current_range_meters":17600,"station_id":"ce4bhm12rcd13ifvqgkg","pricing_plan_id":"cebpf4jnsgd1na2vs0mg"},{"bike_id":"a01f5c6f-5aea-4ddc-8287-05dfd53152b4","system_id":"levelo_inurba_marseille","lat":43.292081,"lon":5.393116,"is_reserved":false,"is_disabled":false,"rental_uris":{"android":"levelo://app?vid=a01f5c6f-5aea-4ddc-8287-05dfd53152b4","ios":"levelo://app?vid=a01f5c6f-5aea-4ddc-8287-05dfd53152b4"},"vehicle_type_id":"4","last_reported":1740377661,"current_range_meters":17600,"station_id":"ce4bh192rcd13ifvqdd0","pricing_plan_id":"cebpf4jnsgd1na2vs0mg"},{"bike_id":"23178496-a57c-41b6-bd38-ef29e888818d","system_id":"levelo_inurba_marseille","lat":43.30532,"lon":5.36564,"is_reserved":false,"is_disabled":false,"rental_uris":{"android":"levelo://app?vid=23178496-a57c-41b6-bd38-ef29e888818d","ios":"levelo://app?vid=23178496-a57c-41b6-bd38-ef29e888818d"},"vehicle_type_id":"4","last_reported":1740377661,"current_range_meters":17600,"station_id":"ce4bgs12rcd13ifvqcag","pricing_plan_id":"cebpf4jnsgd1na2vs0mg"},{"bike_id":"67350e3b-ced3-434f-8df5-0f50029c572e","system_id":"levelo_inurba_marseille","lat":43.23189,"lon":5.3555,"is_reserved":false,"is_disabled":false,"rental_uris":{"android":"levelo://app?vid=67350e3b-ced3-434f-8df5-0f50029c572e","ios":"levelo://app?vid=67350e3b-ced3-434f-8df5-0f50029c572e"},"vehicle_type_id":"4","last_reported":1740377661,"current_range_meters":18000,"station_id":"ce4bhu92rcd13ifvqi70","pricing_plan_id":"cebpf4jnsgd1na2vs0mg"},{"bike_id":"073518a5-4dc0-447e-9477-a67f73b2a5a2","system_id":"levelo_inurba_marseille","lat":43.32374,"lon":5.3676,"is_reserved":false,"is_disabled":false,"rental_uris":{"android":"levelo://app?vid=073518a5-4dc0-447e-9477-a67f73b2a5a2","ios":"levelo://app?vid=073518a5-4dc0-447e-9477-a67f73b2a5a2"},"vehicle_type_id":"4","last_reported":1740377661,"current_range_meters":18000,"station_id":"ce4bhsh2rcd13ifvqi2g","pricing_plan_id":"cebpf4jnsgd1na2vs0mg"},{"bike_id":"e0a974b6-ebb6-4643-b3b6-b282d529bc0a","system_id":"levelo_inurba_marseille","lat":43.31708,"lon":5.43711,"is_reserved":false,"is_disabled":true,"rental_uris":{"android":"levelo://app?vid=e0a974b6-ebb6-4643-b3b6-b282d529bc0a","ios":"levelo://app?vid=e0a974b6-ebb6-4643-b3b6-b282d529bc0a"},"vehicle_type_id":"4","last_reported":1740377661,"current_range_meters":18000,"station_id":"ce4bhp92rcd13ifvqhcg","pricing_plan_id":"cebpf4jnsgd1na2vs0mg"},{"bike_id":"f36faf02-762d-4ff7-a66f-4079fb1336d4","system_id":"levelo_inurba_marseille","lat":43.30601,"lon":5.37248,"is_reserved":false,"is_disabled":false,"rental_uris":{"android":"levelo://app?vid=f36faf02-762d-4ff7-a66f-4079fb1336d4","ios":"levelo://app?vid=f36faf02-762d-4ff7-a66f-4079fb1336d4"},"vehicle_type_id":"4","last_reported":1740377661,"current_range_meters":18000,"station_id":"ce4bgqh2rcd13ifvqc4g","pricing_plan_id":"cebpf4jnsgd1na2vs0mg"},{"bike_id":"9fabdfa7-a0ef-44ff-b626-33a9b5d52aad","system_id":"levelo_inurba_marseille","lat":43.3013,"lon":5.38789,"is_reserved":false,"is_disabled":true,"rental_uris":{"android":"levelo://app?vid=9fabdfa7-a0ef-44ff-b626-33a9b5d52aad","ios":"levelo://app?vid=9fabdfa7-a0ef-44ff-b626-33a9b5d52aad"},"vehicle_type_id":"4","last_reported":1740377661,"current_range_meters":18000,"station_id":"ce4bghh2rcd13ifvqb60","pricing_plan_id":"cebpf4jnsgd1na2vs0mg"},{"bike_id":"67353ec5-ce91-46f3-8df8-86128e85fd44","system_id":"levelo_inurba_marseille","lat":43.28137,"lon":5.42645,"is_reserved":false,"is_disabled":true,"rental_uris":{"android":"levelo://app?vid=67353ec5-ce91-46f3-8df8-86128e85fd44","ios":"levelo://app?vid=67353ec5-ce91-46f3-8df8-86128e85fd44"},"vehicle_type_id":"4","last_reported":1740377661,"current_range_meters":18000,"station_id":"ce4bhnh2rcd13ifvqgug","pricing_plan_id":"cebpf4jnsgd1na2vs0mg"},{"bike_id":"c51fbff7-6a2a-4b56-8c2e-57a8978764b4","system_id":"levelo_inurba_marseille","lat":43.27988,"lon":5.40011,"is_reserved":false,"is_disabled":true,"rental_uris":{"android":"levelo://app?vid=c51fbff7-6a2a-4b56-8c2e-57a8978764b4","ios":"levelo://app?vid=c51fbff7-6a2a-4b56-8c2e-57a8978764b4"},"vehicle_type_id":"4","last_reported":1740377661,"current_range_meters":18800,"station_id":"ce4bho92rcd13ifvqh4g","pricing_plan_id":"cebpf4jnsgd1na2vs0mg"},{"bike_id":"a437ce3e-94c1-4d80-949a-3eb291854603","system_id":"levelo_inurba_marseille","lat":43.30942,"lon":5.40102,"is_reserved":false,"is_disabled":true,"rental_uris":{"android":"levelo://app?vid=a437ce3e-94c1-4d80-949a-3eb291854603","ios":"levelo://app?vid=a437ce3e-94c1-4d80-949a-3eb291854603"},"vehicle_type_id":"4","last_reported":1740377661,"current_range_meters":18800,"station_id":"ce4bgvp2rcd13ifvqct0","pricing_plan_id":"cebpf4jnsgd1na2vs0mg"},{"bike_id":"c540f754-d0a3-4f53-a7c0-09bed36cd1bb","system_id":"levelo_inurba_marseille","lat":43.26629,"lon":5.38357,"is_reserved":false,"is_disabled":false,"rental_uris":{"android":"levelo://app?vid=c540f754-d0a3-4f53-a7c0-09bed36cd1bb","ios":"levelo://app?vid=c540f754-d0a3-4f53-a7c0-09bed36cd1bb"},"vehicle_type_id":"4","last_reported":1740377661,"current_range_meters":18800,"station_id":"ce4bhg92rcd13ifvqf90","pricing_plan_id":"cebpf4jnsgd1na2vs0mg"},{"bike_id":"f373858c-4bfe-491d-8681-185b20c75a86","system_id":"levelo_inurba_marseille","lat":43.30653,"lon":5.40087,"is_reserved":false,"is_disabled":true,"rental_uris":{"android":"levelo://app?vid=f373858c-4bfe-491d-8681-185b20c75a86","ios":"levelo://app?vid=f373858c-4bfe-491d-8681-185b20c75a86"},"vehicle_type_id":"4","last_reported":1740377661,"current_range_meters":18800,"station_id":"ce4bh112rcd13ifvqda0","pricing_plan_id":"cebpf4jnsgd1na2vs0mg"},{"bike_id":"876aa59c-c91a-4ffc-81c7-21dd319d2cb2","system_id":"levelo_inurba_marseille","lat":43.29213,"lon":5.40536,"is_reserved":false,"is_disabled":false,"rental_uris":{"android":"levelo://app?vid=876aa59c-c91a-4ffc-81c7-21dd319d2cb2","ios":"levelo://app?vid=876aa59c-c91a-4ffc-81c7-21dd319d2cb2"},"vehicle_type_id":"4","last_reported":1740377661,"current_range_meters":18800,"station_id":"","pricing_plan_id":"cebpf4jnsgd1na2vs0mg"},{"bike_id":"53c250d8-2df3-441a-ade7-521012287108","system_id":"levelo_inurba_marseille","lat":43.24065,"lon":5.37756,"is_reserved":false,"is_disabled":false,"rental_uris":{"android":"levelo://app?vid=53c250d8-2df3-441a-ade7-521012287108","ios":"levelo://app?vid=53c250d8-2df3-441a-ade7-521012287108"},"vehicle_type_id":"4","last_reported":1740377661,"current_range_meters":18800,"station_id":"ce4bhnp2rcd13ifvqgvg","pricing_plan_id":"cebpf4jnsgd1na2vs0mg"},{"bike_id":"7a77d093-66c2-4697-b915-942a88c318bb","system_id":"levelo_inurba_marseille","lat":43.320067,"lon":5.381514,"is_reserved":false,"is_disabled":false,"rental_uris":{"android":"levelo://app?vid=7a77d093-66c2-4697-b915-942a88c318bb","ios":"levelo://app?vid=7a77d093-66c2-4697-b915-942a88c318bb"},"vehicle_type_id":"4","last_reported":1740377661,"current_range_meters":18800,"station_id":"ce4bhr12rcd13ifvqhpg","pricing_plan_id":"cebpf4jnsgd1na2vs0mg"},{"bike_id":"6ecefc8b-8ad5-4cef-a47d-d4d4e9a483d8","system_id":"levelo_inurba_marseille","lat":43.30898,"lon":5.39622,"is_reserved":false,"is_disabled":false,"rental_uris":{"android":"levelo://app?vid=6ecefc8b-8ad5-4cef-a47d-d4d4e9a483d8","ios":"levelo://app?vid=6ecefc8b-8ad5-4cef-a47d-d4d4e9a483d8"},"vehicle_type_id":"4","last_reported":1740377661,"current_range_meters":18800,"station_id":"ce4bh012rcd13ifvqcv0","pricing_plan_id":"cebpf4jnsgd1na2vs0mg"},{"bike_id":"82851fbe-f880-44f7-a72a-9bf4bddb2008","system_id":"levelo_inurba_marseille","lat":43.30865,"lon":5.39647,"is_reserved":false,"is_disabled":false,"rental_uris":{"android":"levelo://app?vid=82851fbe-f880-44f7-a72a-9bf4bddb2008","ios":"levelo://app?vid=82851fbe-f880-44f7-a72a-9bf4bddb2008"},"vehicle_type_id":"4","last_reported":1740377661,"current_range_meters":19200,"station_id":"ce4bh012rcd13ifvqcv0","pricing_plan_id":"cebpf4jnsgd1na2vs0mg"},{"bike_id":"4990227f-b486-4336-9fc6-2f188fa2f25e","system_id":"levelo_inurba_marseille","lat":43.28698,"lon":5.37407,"is_reserved":false,"is_disabled":false,"rental_uris":{"android":"levelo://app?vid=4990227f-b486-4336-9fc6-2f188fa2f25e","ios":"levelo://app?vid=4990227f-b486-4336-9fc6-2f188fa2f25e"},"vehicle_type_id":"4","last_reported":1740377661,"current_range_meters":19200,"station_id":"ce4bh3p2rcd13ifvqdq0","pricing_plan_id":"cebpf4jnsgd1na2vs0mg"},{"bike_id":"88acaa08-23f2-4b90-a395-ea0685098820","system_id":"levelo_inurba_marseille","lat":43.27816,"lon":5.40712,"is_reserved":false,"is_disabled":false,"rental_uris":{"android":"levelo://app?vid=88acaa08-23f2-4b90-a395-ea0685098820","ios":"levelo://app?vid=88acaa08-23f2-4b90-a395-ea0685098820"},"vehicle_type_id":"4","last_reported":1740377661,"current_range_meters":19200,"station_id":"ce4bhnh2rcd13ifvqgtg","pricing_plan_id":"cebpf4jnsgd1na2vs0mg"},{"bike_id":"306c8afe-27f2-42dd-9d3c-74d43bc1f2cb","system_id":"levelo_inurba_marseille","lat":43.27497,"lon":5.42457,"is_reserved":false,"is_disabled":false,"rental_uris":{"android":"levelo://app?vid=306c8afe-27f2-42dd-9d3c-74d43bc1f2cb","ios":"levelo://app?vid=306c8afe-27f2-42dd-9d3c-74d43bc1f2cb"},"vehicle_type_id":"4","last_reported":1740377661,"current_range_meters":19200,"station_id":"ce4bhn92rcd13ifvqgrg","pricing_plan_id":"cebpf4jnsgd1na2vs0mg"},{"bike_id":"619725b6-3641-4718-b85c-896d33843eae","system_id":"levelo_inurba_marseille","lat":43.25117,"lon":5.40323,"is_reserved":false,"is_disabled":false,"rental_uris":{"android":"levelo://app?vid=619725b6-3641-4718-b85c-896d33843eae","ios":"levelo://app?vid=619725b6-3641-4718-b85c-896d33843eae"},"vehicle_type_id":"4","last_reported":1740377661,"current_range_meters":19200,"station_id":"ce4bhlh2rcd13ifvqgig","pricing_plan_id":"cebpf4jnsgd1na2vs0mg"},{"bike_id":"e813f92c-4fd3-41c9-ae0a-6879c319e323","system_id":"levelo_inurba_marseille","lat":43.29631,"lon":5.37148,"is_reserved":false,"is_disabled":false,"rental_uris":{"android":"levelo://app?vid=e813f92c-4fd3-41c9-ae0a-6879c319e323","ios":"levelo://app?vid=e813f92c-4fd3-41c9-ae0a-6879c319e323"},"vehicle_type_id":"4","last_reported":1740377661,"current_range_meters":19200,"station_id":"ce4bgnh2rcd13ifvqc0g","pricing_plan_id":"cebpf4jnsgd1na2vs0mg"},{"bike_id":"d50e4f91-8ef9-43a5-99a5-97bb8cdfd626","system_id":"levelo_inurba_marseille","lat":43.28723,"lon":5.36077,"is_reserved":false,"is_disabled":false,"rental_uris":{"android":"levelo://app?vid=d50e4f91-8ef9-43a5-99a5-97bb8cdfd626","ios":"levelo://app?vid=d50e4f91-8ef9-43a5-99a5-97bb8cdfd626"},"vehicle_type_id":"4","last_reported":1740377661,"current_range_meters":19200,"station_id":"cki0cbj6b192h4jlfktg","pricing_plan_id":"cebpf4jnsgd1na2vs0mg"},{"bike_id":"2096dd32-b2f1-40be-af82-6f0ca2f96ac9","system_id":"levelo_inurba_marseille","lat":43.29842,"lon":5.38712,"is_reserved":false,"is_disabled":false,"rental_uris":{"android":"levelo://app?vid=2096dd32-b2f1-40be-af82-6f0ca2f96ac9","ios":"levelo://app?vid=2096dd32-b2f1-40be-af82-6f0ca2f96ac9"},"vehicle_type_id":"4","last_reported":1740377661,"current_range_meters":19200,"station_id":"ce4bh392rcd13ifvqdl0","pricing_plan_id":"cebpf4jnsgd1na2vs0mg"},{"bike_id":"181e14ed-4e9f-4874-8710-1b5c1fed90a1","system_id":"levelo_inurba_marseille","lat":43.25832,"lon":5.39417,"is_reserved":false,"is_disabled":false,"rental_uris":{"android":"levelo://app?vid=181e14ed-4e9f-4874-8710-1b5c1fed90a1","ios":"levelo://app?vid=181e14ed-4e9f-4874-8710-1b5c1fed90a1"},"vehicle_type_id":"4","last_reported":1740377661,"current_range_meters":20000,"station_id":"ce4bhip2rcd13ifvqft0","pricing_plan_id":"cebpf4jnsgd1na2vs0mg"},{"bike_id":"56a0cb01-fc13-42c8-94be-4f8cad837efb","system_id":"levelo_inurba_marseille","lat":43.30307,"lon":5.3691,"is_reserved":false,"is_disabled":true,"rental_uris":{"android":"levelo://app?vid=56a0cb01-fc13-42c8-94be-4f8cad837efb","ios":"levelo://app?vid=56a0cb01-fc13-42c8-94be-4f8cad837efb"},"vehicle_type_id":"4","last_reported":1740377661,"current_range_meters":19600,"station_id":"ce4bgqh2rcd13ifvqc5g","pricing_plan_id":"cebpf4jnsgd1na2vs0mg"},{"bike_id":"8bf12691-80c8-4498-a07f-38de529f3092","system_id":"levelo_inurba_marseille","lat":43.289365,"lon":5.366437,"is_reserved":false,"is_disabled":false,"rental_uris":{"android":"levelo://app?vid=8bf12691-80c8-4498-a07f-38de529f3092","ios":"levelo://app?vid=8bf12691-80c8-4498-a07f-38de529f3092"},"vehicle_type_id":"4","last_reported":1740377661,"current_range_meters":19600,"station_id":"","pricing_plan_id":"cebpf4jnsgd1na2vs0mg"},{"bike_id":"dea65a2a-42e1-443b-9b1d-1b05397fcc96","system_id":"levelo_inurba_marseille","lat":43.27174,"lon":5.41003,"is_reserved":false,"is_disabled":false,"rental_uris":{"android":"levelo://app?vid=dea65a2a-42e1-443b-9b1d-1b05397fcc96","ios":"levelo://app?vid=dea65a2a-42e1-443b-9b1d-1b05397fcc96"},"vehicle_type_id":"4","last_reported":1740377661,"current_range_meters":19600,"station_id":"ce4bhl12rcd13ifvqgf0","pricing_plan_id":"cebpf4jnsgd1na2vs0mg"},{"bike_id":"7ac02330-70fe-4e82-b68e-85c67f35e64e","system_id":"levelo_inurba_marseille","lat":43.29274,"lon":5.40119,"is_reserved":false,"is_disabled":false,"rental_uris":{"android":"levelo://app?vid=7ac02330-70fe-4e82-b68e-85c67f35e64e","ios":"levelo://app?vid=7ac02330-70fe-4e82-b68e-85c67f35e64e"},"vehicle_type_id":"4","last_reported":1740377661,"current_range_meters":20000,"station_id":"ce4bh312rcd13ifvqdk0","pricing_plan_id":"cebpf4jnsgd1na2vs0mg"},{"bike_id":"cae5183b-e04c-488b-bbc2-8a88557ef0cd","system_id":"levelo_inurba_marseille","lat":43.30078,"lon":5.3906,"is_reserved":false,"is_disabled":true,"rental_uris":{"android":"levelo://app?vid=cae5183b-e04c-488b-bbc2-8a88557ef0cd","ios":"levelo://app?vid=cae5183b-e04c-488b-bbc2-8a88557ef0cd"},"vehicle_type_id":"4","last_reported":1740377661,"current_range_meters":20000,"station_id":"ce4bh192rcd13ifvqdb0","pricing_plan_id":"cebpf4jnsgd1na2vs0mg"},{"bike_id":"63afb1fc-974d-4ad7-9aeb-1f34144b4f49","system_id":"levelo_inurba_marseille","lat":43.23148,"lon":5.43698,"is_reserved":false,"is_disabled":false,"rental_uris":{"android":"levelo://app?vid=63afb1fc-974d-4ad7-9aeb-1f34144b4f49","ios":"levelo://app?vid=63afb1fc-974d-4ad7-9aeb-1f34144b4f49"},"vehicle_type_id":"4","last_reported":1740377661,"current_range_meters":20000,"station_id":"ce4bhmp2rcd13ifvqgog","pricing_plan_id":"cebpf4jnsgd1na2vs0mg"},{"bike_id":"d15bab97-415a-42d4-b817-ae269ea37219","system_id":"levelo_inurba_marseille","lat":43.29407,"lon":5.38629,"is_reserved":false,"is_disabled":true,"rental_uris":{"android":"levelo://app?vid=d15bab97-415a-42d4-b817-ae269ea37219","ios":"levelo://app?vid=d15bab97-415a-42d4-b817-ae269ea37219"},"vehicle_type_id":"4","last_reported":1740377661,"current_range_meters":20000,"station_id":"ce4bh2h2rcd13ifvqdh0","pricing_plan_id":"cebpf4jnsgd1na2vs0mg"},{"bike_id":"4449701b-be22-48bb-a45c-5457e79137b3","system_id":"levelo_inurba_marseille","lat":43.30807,"lon":5.3815,"is_reserved":false,"is_disabled":false,"rental_uris":{"android":"levelo://app?vid=4449701b-be22-48bb-a45c-5457e79137b3","ios":"levelo://app?vid=4449701b-be22-48bb-a45c-5457e79137b3"},"vehicle_type_id":"4","last_reported":1740377661,"current_range_meters":20000,"station_id":"ce4bgt12rcd13ifvqce0","pricing_plan_id":"cebpf4jnsgd1na2vs0mg"},{"bike_id":"ae3d3997-9872-4807-a0a3-3512c509af71","system_id":"levelo_inurba_marseille","lat":43.30085,"lon":5.39999,"is_reserved":false,"is_disabled":true,"rental_uris":{"android":"levelo://app?vid=ae3d3997-9872-4807-a0a3-3512c509af71","ios":"levelo://app?vid=ae3d3997-9872-4807-a0a3-3512c509af71"},"vehicle_type_id":"4","last_reported":1740377661,"current_range_meters":20400,"station_id":"","pricing_plan_id":"cebpf4jnsgd1na2vs0mg"},{"bike_id":"bad02665-ebb5-404a-8d35-46d83d550f85","system_id":"levelo_inurba_marseille","lat":43.269996,"lon":5.403123,"is_reserved":false,"is_disabled":false,"rental_uris":{"android":"levelo://app?vid=bad02665-ebb5-404a-8d35-46d83d550f85","ios":"levelo://app?vid=bad02665-ebb5-404a-8d35-46d83d550f85"},"vehicle_type_id":"4","last_reported":1740377661,"current_range_meters":20400,"station_id":"ce4bhk92rcd13ifvqgc0","pricing_plan_id":"cebpf4jnsgd1na2vs0mg"},{"bike_id":"b9f8f878-f63f-4ae4-8e0a-47e0d0977b01","system_id":"levelo_inurba_marseille","lat":43.28702,"lon":5.37401,"is_reserved":false,"is_disabled":false,"rental_uris":{"android":"levelo://app?vid=b9f8f878-f63f-4ae4-8e0a-47e0d0977b01","ios":"levelo://app?vid=b9f8f878-f63f-4ae4-8e0a-47e0d0977b01"},"vehicle_type_id":"4","last_reported":1740377661,"current_range_meters":20400,"station_id":"ce4bh3p2rcd13ifvqdq0","pricing_plan_id":"cebpf4jnsgd1na2vs0mg"},{"bike_id":"196e3f9e-3d37-4710-a41f-2556664534f8","system_id":"levelo_inurba_marseille","lat":43.306,"lon":5.37248,"is_reserved":false,"is_disabled":true,"rental_uris":{"android":"levelo://app?vid=196e3f9e-3d37-4710-a41f-2556664534f8","ios":"levelo://app?vid=196e3f9e-3d37-4710-a41f-2556664534f8"},"vehicle_type_id":"4","last_reported":1740377661,"current_range_meters":20400,"station_id":"ce4bgqh2rcd13ifvqc4g","pricing_plan_id":"cebpf4jnsgd1na2vs0mg"},{"bike_id":"543be7a8-d463-426f-8c70-1262bacd6bd9","system_id":"levelo_inurba_marseille","lat":43.3199,"lon":5.38124,"is_reserved":false,"is_disabled":false,"rental_uris":{"android":"levelo://app?vid=543be7a8-d463-426f-8c70-1262bacd6bd9","ios":"levelo://app?vid=543be7a8-d463-426f-8c70-1262bacd6bd9"},"vehicle_type_id":"4","last_reported":1740377661,"current_range_meters":20400,"station_id":"ce4bhr12rcd13ifvqhpg","pricing_plan_id":"cebpf4jnsgd1na2vs0mg"},{"bike_id":"bbc4386e-8016-457d-913c-552cdf6d6b64","system_id":"levelo_inurba_marseille","lat":43.28418,"lon":5.37511,"is_reserved":false,"is_disabled":false,"rental_uris":{"android":"levelo://app?vid=bbc4386e-8016-457d-913c-552cdf6d6b64","ios":"levelo://app?vid=bbc4386e-8016-457d-913c-552cdf6d6b64"},"vehicle_type_id":"4","last_reported":1740377661,"current_range_meters":20400,"station_id":"ce4bh412rcd13ifvqds0","pricing_plan_id":"cebpf4jnsgd1na2vs0mg"},{"bike_id":"7ee7f826-dc37-4344-ad19-a7d227aa9e57","system_id":"levelo_inurba_marseille","lat":43.33397,"lon":5.44112,"is_reserved":false,"is_disabled":false,"rental_uris":{"android":"levelo://app?vid=7ee7f826-dc37-4344-ad19-a7d227aa9e57","ios":"levelo://app?vid=7ee7f826-dc37-4344-ad19-a7d227aa9e57"},"vehicle_type_id":"4","last_reported":1740377661,"current_range_meters":20800,"station_id":"","pricing_plan_id":"cebpf4jnsgd1na2vs0mg"},{"bike_id":"7e00f6cd-348d-4eb2-b595-42a596c47d81","system_id":"levelo_inurba_marseille","lat":43.29253,"lon":5.40126,"is_reserved":false,"is_disabled":true,"rental_uris":{"android":"levelo://app?vid=7e00f6cd-348d-4eb2-b595-42a596c47d81","ios":"levelo://app?vid=7e00f6cd-348d-4eb2-b595-42a596c47d81"},"vehicle_type_id":"4","last_reported":1740377661,"current_range_meters":20800,"station_id":"ce4bh312rcd13ifvqdk0","pricing_plan_id":"cebpf4jnsgd1na2vs0mg"},{"bike_id":"07c3fd25-be25-4cc3-8722-dd5a7fe76e04","system_id":"levelo_inurba_marseille","lat":43.29578,"lon":5.38801,"is_reserved":false,"is_disabled":false,"rental_uris":{"android":"levelo://app?vid=07c3fd25-be25-4cc3-8722-dd5a7fe76e04","ios":"levelo://app?vid=07c3fd25-be25-4cc3-8722-dd5a7fe76e04"},"vehicle_type_id":"4","last_reported":1740377661,"current_range_meters":20800,"station_id":"","pricing_plan_id":"cebpf4jnsgd1na2vs0mg"},{"bike_id":"0d6ccb42-a21f-497c-b438-fc48532a3ef9","system_id":"levelo_inurba_marseille","lat":43.25082,"lon":5.3953,"is_reserved":false,"is_disabled":false,"rental_uris":{"android":"levelo://app?vid=0d6ccb42-a21f-497c-b438-fc48532a3ef9","ios":"levelo://app?vid=0d6ccb42-a21f-497c-b438-fc48532a3ef9"},"vehicle_type_id":"4","last_reported":1740377661,"current_range_meters":20800,"station_id":"ce4bhm12rcd13ifvqgkg","pricing_plan_id":"cebpf4jnsgd1na2vs0mg"},{"bike_id":"7b0b006d-b013-401b-bf1d-4e9e52969f7c","system_id":"levelo_inurba_marseille","lat":43.30153,"lon":5.38077,"is_reserved":false,"is_disabled":false,"rental_uris":{"android":"levelo://app?vid=7b0b006d-b013-401b-bf1d-4e9e52969f7c","ios":"levelo://app?vid=7b0b006d-b013-401b-bf1d-4e9e52969f7c"},"vehicle_type_id":"4","last_reported":1740377661,"current_range_meters":20800,"station_id":"ce4bgjp2rcd13ifvqbh0","pricing_plan_id":"cebpf4jnsgd1na2vs0mg"},{"bike_id":"9e106413-6843-4cd1-b384-550802c26cbe","system_id":"levelo_inurba_marseille","lat":43.30882,"lon":5.39637,"is_reserved":false,"is_disabled":false,"rental_uris":{"android":"levelo://app?vid=9e106413-6843-4cd1-b384-550802c26cbe","ios":"levelo://app?vid=9e106413-6843-4cd1-b384-550802c26cbe"},"vehicle_type_id":"4","last_reported":1740377661,"current_range_meters":20800,"station_id":"ce4bh012rcd13ifvqcv0","pricing_plan_id":"cebpf4jnsgd1na2vs0mg"},{"bike_id":"18961af0-3c29-415a-9a8d-421bac26f749","system_id":"levelo_inurba_marseille","lat":43.30997,"lon":5.38462,"is_reserved":false,"is_disabled":false,"rental_uris":{"android":"levelo://app?vid=18961af0-3c29-415a-9a8d-421bac26f749","ios":"levelo://app?vid=18961af0-3c29-415a-9a8d-421bac26f749"},"vehicle_type_id":"4","last_reported":1740377661,"current_range_meters":20800,"station_id":"","pricing_plan_id":"cebpf4jnsgd1na2vs0mg"},{"bike_id":"41c02980-2d5d-4ec8-b439-0a197839dea1","system_id":"levelo_inurba_marseille","lat":43.29902,"lon":5.4366,"is_reserved":false,"is_disabled":false,"rental_uris":{"android":"levelo://app?vid=41c02980-2d5d-4ec8-b439-0a197839dea1","ios":"levelo://app?vid=41c02980-2d5d-4ec8-b439-0a197839dea1"},"vehicle_type_id":"4","last_reported":1740377661,"current_range_meters":21600,"station_id":"ce4bhpp2rcd13ifvqhfg","pricing_plan_id":"cebpf4jnsgd1na2vs0mg"},{"bike_id":"12b3b3f8-5ec4-4b36-933f-377f405e0a18","system_id":"levelo_inurba_marseille","lat":43.30482,"lon":5.37908,"is_reserved":false,"is_disabled":false,"rental_uris":{"android":"levelo://app?vid=12b3b3f8-5ec4-4b36-933f-377f405e0a18","ios":"levelo://app?vid=12b3b3f8-5ec4-4b36-933f-377f405e0a18"},"vehicle_type_id":"4","last_reported":1740377661,"current_range_meters":21600,"station_id":"ce4bgup2rcd13ifvqcn0","pricing_plan_id":"cebpf4jnsgd1na2vs0mg"},{"bike_id":"90ef06f0-c578-4afd-96c3-e972b424a569","system_id":"levelo_inurba_marseille","lat":43.24172,"lon":5.39738,"is_reserved":false,"is_disabled":false,"rental_uris":{"android":"levelo://app?vid=90ef06f0-c578-4afd-96c3-e972b424a569","ios":"levelo://app?vid=90ef06f0-c578-4afd-96c3-e972b424a569"},"vehicle_type_id":"4","last_reported":1740377661,"current_range_meters":21600,"station_id":"ce4bhn12rcd13ifvqgpg","pricing_plan_id":"cebpf4jnsgd1na2vs0mg"},{"bike_id":"26e67349-8270-4806-aad3-839f545a79a4","system_id":"levelo_inurba_marseille","lat":43.3058,"lon":5.3934,"is_reserved":false,"is_disabled":true,"rental_uris":{"android":"levelo://app?vid=26e67349-8270-4806-aad3-839f545a79a4","ios":"levelo://app?vid=26e67349-8270-4806-aad3-839f545a79a4"},"vehicle_type_id":"4","last_reported":1740377661,"current_range_meters":22000,"station_id":"ce4bh0p2rcd13ifvqd80","pricing_plan_id":"cebpf4jnsgd1na2vs0mg"},{"bike_id":"b7aa87b8-a3e9-4f8f-9f0b-8c74166d84dc","system_id":"levelo_inurba_marseille","lat":43.23136,"lon":5.35506,"is_reserved":false,"is_disabled":false,"rental_uris":{"android":"levelo://app?vid=b7aa87b8-a3e9-4f8f-9f0b-8c74166d84dc","ios":"levelo://app?vid=b7aa87b8-a3e9-4f8f-9f0b-8c74166d84dc"},"vehicle_type_id":"4","last_reported":1740377661,"current_range_meters":22000,"station_id":"","pricing_plan_id":"cebpf4jnsgd1na2vs0mg"},{"bike_id":"c67cf995-381f-47d0-8a85-da6ae893279f","system_id":"levelo_inurba_marseille","lat":43.32341,"lon":5.36768,"is_reserved":false,"is_disabled":false,"rental_uris":{"android":"levelo://app?vid=c67cf995-381f-47d0-8a85-da6ae893279f","ios":"levelo://app?vid=c67cf995-381f-47d0-8a85-da6ae893279f"},"vehicle_type_id":"4","last_reported":1740377661,"current_range_meters":22000,"station_id":"ce4bhsh2rcd13ifvqi2g","pricing_plan_id":"cebpf4jnsgd1na2vs0mg"},{"bike_id":"48566022-5b0c-4205-96fe-18c07c8d9e74","system_id":"levelo_inurba_marseille","lat":43.27555,"lon":5.38452,"is_reserved":false,"is_disabled":false,"rental_uris":{"android":"levelo://app?vid=48566022-5b0c-4205-96fe-18c07c8d9e74","ios":"levelo://app?vid=48566022-5b0c-4205-96fe-18c07c8d9e74"},"vehicle_type_id":"4","last_reported":1740377661,"current_range_meters":22400,"station_id":"ce4bhh92rcd13ifvqfi0","pricing_plan_id":"cebpf4jnsgd1na2vs0mg"},{"bike_id":"6ef3548c-5f63-48fd-a714-96b12aa3e2b8","system_id":"levelo_inurba_marseille","lat":43.308834,"lon":5.39644,"is_reserved":false,"is_disabled":false,"rental_uris":{"android":"levelo://app?vid=6ef3548c-5f63-48fd-a714-96b12aa3e2b8","ios":"levelo://app?vid=6ef3548c-5f63-48fd-a714-96b12aa3e2b8"},"vehicle_type_id":"4","last_reported":1740377661,"current_range_meters":22400,"station_id":"ce4bh012rcd13ifvqcv0","pricing_plan_id":"cebpf4jnsgd1na2vs0mg"},{"bike_id":"48320515-1da7-4072-b834-35cf4d0d3af7","system_id":"levelo_inurba_marseille","lat":43.30875,"lon":5.39653,"is_reserved":false,"is_disabled":false,"rental_uris":{"android":"levelo://app?vid=48320515-1da7-4072-b834-35cf4d0d3af7","ios":"levelo://app?vid=48320515-1da7-4072-b834-35cf4d0d3af7"},"vehicle_type_id":"4","last_reported":1740377661,"current_range_meters":22400,"station_id":"ce4bh012rcd13ifvqcv0","pricing_plan_id":"cebpf4jnsgd1na2vs0mg"},{"bike_id":"ba116aa4-9a2c-4951-b196-63e0a40889ed","system_id":"levelo_inurba_marseille","lat":43.32359,"lon":5.36755,"is_reserved":false,"is_disabled":false,"rental_uris":{"android":"levelo://app?vid=ba116aa4-9a2c-4951-b196-63e0a40889ed","ios":"levelo://app?vid=ba116aa4-9a2c-4951-b196-63e0a40889ed"},"vehicle_type_id":"4","last_reported":1740377661,"current_range_meters":22400,"station_id":"ce4bhsh2rcd13ifvqi2g","pricing_plan_id":"cebpf4jnsgd1na2vs0mg"},{"bike_id":"fc3502fa-34c8-48c2-8c8b-0a4d5562ce06","system_id":"levelo_inurba_marseille","lat":43.24082,"lon":5.37746,"is_reserved":false,"is_disabled":false,"rental_uris":{"android":"levelo://app?vid=fc3502fa-34c8-48c2-8c8b-0a4d5562ce06","ios":"levelo://app?vid=fc3502fa-34c8-48c2-8c8b-0a4d5562ce06"},"vehicle_type_id":"4","last_reported":1740377661,"current_range_meters":22400,"station_id":"ce4bhnp2rcd13ifvqgvg","pricing_plan_id":"cebpf4jnsgd1na2vs0mg"},