{"last_updated":1700640608,"ttl":30,"version":"2.2","data":{"bikes":[{"bike_id":"e05fd166-a1a7-4a0b-b5e4-794b75a91dcd","system_id":"levelo_inurba_marseille","lat":43.313391,"lon":5.36706,"is_reserved":false,"is_disabled":false,"rental_uris":{"android":"levelo://app?vid=e05fd166-a1a7-4a0b-b5e4-794b75a91dcd","ios":"levelo://app?vid=e05fd166-a1a7-4a0b-b5e4-794b75a91dcd"},"vehicle_type_id":"4","last_reported":1700640608,"current_range_meters":16000,"station_id":"ce4bgr92rcd13ifvqc6g","pricing_plan_id":"free"},{"bike_id":"286e0339-7f06-41d5-a215-8d12ffdf9f38","system_id":"levelo_inurba_marseille","lat":43.313391,"lon":5.36706,"is_reserved":false,"is_disabled":false,"rental_uris":{"android":"levelo://app?vid=286e0339-7f06-41d5-a215-8d12ffdf9f38","ios":"levelo://app?vid=286e0339-7f06-41d5-a215-8d12ffdf9f38"},"vehicle_type_id":"4","last_reported":1700640608,"current_range_meters":800,"station_id":"ce4bgr92rcd13ifvqc6g","pricing_plan_id":"free"},{"bike_id":"2b65a3fc-bc50-4027-9264-60c60baf4c63","system_id":"levelo_inurba_marseille","lat":43.313391,"lon":5.36706,"is_reserved":false,"is_disabled":false,"rental_uris":{"android":"levelo://app?vid=2b65a3fc-bc50-4027-9264-60c60baf4c63","ios":"levelo://app?vid=2b65a3fc-bc50-4027-9264-60c60baf4c63"},"vehicle_type_id":"4","last_reported":1700640608,"current_range_meters":12800,"station_id":"ce4bgr92rcd13ifvqc6g","pricing_plan_id":"free"},{"bike_id":"3b7def55-9f8b-4f62-ac47-b95d0d5f4f2c","system_id":"levelo_inurba_marseille","lat":43.31341,"lon":5.367098,"is_reserved":false,"is_disabled":false,"rental_uris":{"android":"levelo://app?vid=3b7def55-9f8b-4f62-ac47-b95d0d5f4f2c","ios":"levelo://app?vid=3b7def55-9f8b-4f62-ac47-b95d0d5f4f2c"},"vehicle_type_id":"4","last_reported":1700640608,"current_range_meters":24000,"station_id":"ce4bgr92rcd13ifvqc6g","pricing_plan_id":"free"},{"bike_id":"7893b2f7-170c-4a93-9d67-f85243438042","system_id":"levelo_inurba_marseille","lat":43.313391,"lon":5.36706,"is_reserved":false,"is_disabled":false,"rental_uris":{"android":"levelo://app?vid=7893b2f7-170c-4a93-9d67-f85243438042","ios":"levelo://app?vid=7893b2f7-170c-4a93-9d67-f85243438042"},"vehicle_type_id":"4","last_reported":1700640608,"current_range_meters":23200,"station_id":"ce4bgr92rcd13ifvqc6g","pricing_plan_id":"free"},{"bike_id":"9bbb70a8-fa30-45ce-a73d-1c317ca21259","system_id":"levelo_inurba_marseille","lat":43.31341,"lon":5.367098,"is_reserved":false,"is_disabled":false,"rental_uris":{"android":"levelo://app?vid=9bbb70a8-fa30-45ce-a73d-1c317ca21259","ios":"levelo://app?vid=9bbb70a8-fa30-45ce-a73d-1c317ca21259"},"vehicle_type_id":"4","last_reported":1700640608,"current_range_meters":6400,"station_id":"ce4bgr92rcd13ifvqc6g","pricing_plan_id":"free"},{"bike_id":"e6f5a60f-9c04-4f62-8db7-f7f16b4ae10c","system_id":"levelo_inurba_marseille","lat":43.313391,"lon":5.36706,"is_reserved":false,"is_disabled":false,"rental_uris":{"android":"levelo://app?vid=e6f5a60f-9c04-4f62-8db7-f7f16b4ae10c","ios":"levelo://app?vid=e6f5a60f-9c04-4f62-8db7-f7f16b4ae10c"},"vehicle_type_id":"4","last_reported":1700640608,"current_range_meters":28000,"station_id":"ce4bgr92rcd13ifvqc6g","pricing_plan_id":"free"},{"bike_id":"f0a22989-b17d-4e93-915d-5c11ab022af4","system_id":"levelo_inurba_marseille","lat":43.313391,"lon":5.36706,"is_reserved":false,"is_disabled":false,"rental_uris":{"android":"levelo://app?vid=f0a22989-b17d-4e93-915d-5c11ab022af4","ios":"levelo://app?vid=f0a22989-b17d-4e93-915d-5c11ab022af4"},"vehicle_type_id":"4","last_reported":1700640608,"current_range_meters":26800,"station_id":"ce4bgr92rcd13ifvqc6g","pricing_plan_id":"free"},{"bike_id":"3884a088-af18-46fe-8e18-558686e70f22","system_id":"levelo_inurba_marseille","lat":43.313391,"lon":5.36706,"is_reserved":false,"is_disabled":false,"rental_uris":{"android":"levelo://app?vid=3884a088-af18-46fe-8e18-558686e70f22","ios":"levelo://app?vid=3884a088-af18-46fe-8e18-558686e70f22"},"vehicle_type_id":"4","last_reported":1700640608,"current_range_meters":31200,"station_id":"ce4bgr92rcd13ifvqc6g","pricing_plan_id":"free"},{"bike_id":"452d0500-0114-4433-86a9-63d9b0ac3b65","system_id":"levelo_inurba_marseille","lat":43.313391,"lon":5.36706,"is_reserved":false,"is_disabled":false,"rental_uris":{"android":"levelo://app?vid=452d0500-0114-4433-86a9-63d9b0ac3b65","ios":"levelo://app?vid=452d0500-0114-4433-86a9-63d9b0ac3b65"},"vehicle_type_id":"4","last_reported":1700640608,"current_range_meters":31200,"station_id":"ce4bgr92rcd13ifvqc6g","pricing_plan_id":"free"},{"bike_id":"9a011f9d-370c-411b-9519-3db400a82ef5","system_id":"levelo_inurba_marseille","lat":43.313391,"lon":5.36706,"is_reserved":false,"is_disabled":false,"rental_uris":{"android":"levelo://app?vid=9a011f9d-370c-411b-9519-3db400a82ef5","ios":"levelo://app?vid=9a011f9d-370c-411b-9519-3db400a82ef5"},"vehicle_type_id":"4","last_reported":1700640608,"current_range_meters":6800,"station_id":"ce4bgr92rcd13ifvqc6g","pricing_plan_id":"free"},{"bike_id":"1f2c298b-e220-4891-92cc-865591d9335a","system_id":"levelo_inurba_marseille","lat":43.312239,"lon":5.368562,"is_reserved":false,"is_disabled":false,"rental_uris":{"android":"levelo://app?vid=1f2c298b-e220-4891-92cc-865591d9335a","ios":"levelo://app?vid=1f2c298b-e220-4891-92cc-865591d9335a"},"vehicle_type_id":"4","last_reported":1700640608,"current_range_meters":24000,"station_id":"ce4bgl92rcd13ifvqbq0","pricing_plan_id":"free"},{"bike_id":"25cb2c18-b51e-4023-8a5b-77a62ad1c0e9","system_id":"levelo_inurba_marseille","lat":43.312239,"lon":5.368562,"is_reserved":false,"is_disabled":false,"rental_uris":{"android":"levelo://app?vid=25cb2c18-b51e-4023-8a5b-77a62ad1c0e9","ios":"levelo://app?vid=25cb2c18-b51e-4023-8a5b-77a62ad1c0e9"},"vehicle_type_id":"4","last_reported":1700640608,"current_range_meters":13600,"station_id":"ce4bgl92rcd13ifvqbq0","pricing_plan_id":"free"},{"bike_id":"eeef4dbc-7602-4f26-b2c1-c3771c9b5dae","system_id":"levelo_inurba_marseille","lat":43.3115,"lon":5.36889,"is_reserved":false,"is_disabled":false,"rental_uris":{"android":"levelo://app?vid=eeef4dbc-7602-4f26-b2c1-c3771c9b5dae","ios":"levelo://app?vid=eeef4dbc-7602-4f26-b2c1-c3771c9b5dae"},"vehicle_type_id":"4","last_reported":1700640608,"current_range_meters":0,"station_id":"","pricing_plan_id":"free"},{"bike_id":"4dfef464-900b-4a1d-bf5f-a566eb856063","system_id":"levelo_inurba_marseille","lat":43.31341,"lon":5.367098,"is_reserved":false,"is_disabled":false,"rental_uris":{"android":"levelo://app?vid=4dfef464-900b-4a1d-bf5f-a566eb856063","ios":"levelo://app?vid=4dfef464-900b-4a1d-bf5f-a566eb856063"},"vehicle_type_id":"4","last_reported":1700640608,"current_range_meters":23200,"station_id":"ce4bgr92rcd13ifvqc6g","pricing_plan_id":"free"},{"bike_id":"cbe10345-e61d-43aa-88ef-52b384c6e8c9","system_id":"levelo_inurba_marseille","lat":43.31341,"lon":5.367098,"is_reserved":false,"is_disabled":false,"rental_uris":{"android":"levelo://app?vid=cbe10345-e61d-43aa-88ef-52b384c6e8c9","ios":"levelo://app?vid=cbe10345-e61d-43aa-88ef-52b384c6e8c9"},"vehicle_type_id":"4","last_reported":1700640608,"current_range_meters":30000,"station_id":"ce4bgr92rcd13ifvqc6g","pricing_plan_id":"free"},{"bike_id":"b54b906a-3d26-41b2-8723-37975fa71413","system_id":"levelo_inurba_marseille","lat":43.31341,"lon":5.367098,"is_reserved":false,"is_disabled":false,"rental_uris":{"android":"levelo://app?vid=b54b906a-3d26-41b2-8723-37975fa71413","ios":"levelo://app?vid=b54b906a-3d26-41b2-8723-37975fa71413"},"vehicle_type_id":"4","last_reported":1700640608,"current_range_meters":12000,"station_id":"ce4bgr92rcd13ifvqc6g","pricing_plan_id":"free"},{"bike_id":"28af8b7b-60a6-44df-af2d-a4c6d21c9d06","system_id":"levelo_inurba_marseille","lat":43.309076,"lon":5.368465,"is_reserved":false,"is_disabled":false,"rental_uris":{"android":"levelo://app?vid=28af8b7b-60a6-44df-af2d-a4c6d21c9d06","ios":"levelo://app?vid=28af8b7b-60a6-44df-af2d-a4c6d21c9d06"},"vehicle_type_id":"4","last_reported":1700640608,"current_range_meters":30800,"station_id":"ce4bgn92rcd13ifvqbvg","pricing_plan_id":"free"},{"bike_id":"38420851-1864-4ad9-ac53-8b32b053c3a7","system_id":"levelo_inurba_marseille","lat":43.309076,"lon":5.368465,"is_reserved":false,"is_disabled":false,"rental_uris":{"android":"levelo://app?vid=38420851-1864-4ad9-ac53-8b32b053c3a7","ios":"levelo://app?vid=38420851-1864-4ad9-ac53-8b32b053c3a7"},"vehicle_type_id":"4","last_reported":1700640608,"current_range_meters":12800,"station_id":"ce4bgn92rcd13ifvqbvg","pricing_plan_id":"free"},{"bike_id":"f761b894-7ba5-41ba-b4b0-32cf36608618","system_id":"levelo_inurba_marseille","lat":43.309076,"lon":5.368465,"is_reserved":false,"is_disabled":false,"rental_uris":{"android":"levelo://app?vid=f761b894-7ba5-41ba-b4b0-32cf36608618","ios":"levelo://app?vid=f761b894-7ba5-41ba-b4b0-32cf36608618"},"vehicle_type_id":"4","last_reported":1700640608,"current_range_meters":17600,"station_id":"ce4bgn92rcd13ifvqbvg","pricing_plan_id":"free"},{"bike_id":"52c5c30b-43e3-45e8-ba05-4e4247fde3ef","system_id":"levelo_inurba_marseille","lat":43.309076,"lon":5.368465,"is_reserved":false,"is_disabled":false,"rental_uris":{"android":"levelo://app?vid=52c5c30b-43e3-45e8-ba05-4e4247fde3ef","ios":"levelo://app?vid=52c5c30b-43e3-45e8-ba05-4e4247fde3ef"},"vehicle_type_id":"4","last_reported":1700640608,"current_range_meters":13600,"station_id":"ce4bgn92rcd13ifvqbvg","pricing_plan_id":"free"},{"bike_id":"0ec46c7f-5e28-4d05-9fb2-1d418160c73d","system_id":"levelo_inurba_marseille","lat":43.309039,"lon":5.371797,"is_reserved":false,"is_disabled":false,"rental_uris":{"android":"levelo://app?vid=0ec46c7f-5e28-4d05-9fb2-1d418160c73d","ios":"levelo://app?vid=0ec46c7f-5e28-4d05-9fb2-1d418160c73d"},"vehicle_type_id":"4","last_reported":1700640608,"current_range_meters":800,"station_id":"ce4bguh2rcd13ifvqckg","pricing_plan_id":"free"},{"bike_id":"2bc311dc-da0b-403e-8cae-84f8764bc67c","system_id":"levelo_inurba_marseille","lat":43.30679,"lon":5.3679,"is_reserved":false,"is_disabled":false,"rental_uris":{"android":"levelo://app?vid=2bc311dc-da0b-403e-8cae-84f8764bc67c","ios":"levelo://app?vid=2bc311dc-da0b-403e-8cae-84f8764bc67c"},"vehicle_type_id":"4","last_reported":1700640608,"current_range_meters":0,"station_id":"","pricing_plan_id":"free"},{"bike_id":"558a57f1-256d-4696-a3b0-61fb74536e21","system_id":"levelo_inurba_marseille","lat":43.305712,"lon":5.365641,"is_reserved":false,"is_disabled":false,"rental_uris":{"android":"levelo://app?vid=558a57f1-256d-4696-a3b0-61fb74536e21","ios":"levelo://app?vid=558a57f1-256d-4696-a3b0-61fb74536e21"},"vehicle_type_id":"4","last_reported":1700640608,"current_range_meters":4000,"station_id":"ce4bgs12rcd13ifvqcag","pricing_plan_id":"free"},{"bike_id":"498e4793-5975-4fd3-abd7-6609b7278436","system_id":"levelo_inurba_marseille","lat":43.305714,"lon":5.365633,"is_reserved":false,"is_disabled":false,"rental_uris":{"android":"levelo://app?vid=498e4793-5975-4fd3-abd7-6609b7278436","ios":"levelo://app?vid=498e4793-5975-4fd3-abd7-6609b7278436"},"vehicle_type_id":"4","last_reported":1700640608,"current_range_meters":26800,"station_id":"ce4bgs12rcd13ifvqcag","pricing_plan_id":"free"},{"bike_id":"7a759d83-dcef-464c-84a3-1f8a57ffa542","system_id":"levelo_inurba_marseille","lat":43.305714,"lon":5.365633,"is_reserved":false,"is_disabled":false,"rental_uris":{"android":"levelo://app?vid=7a759d83-dcef-464c-84a3-1f8a57ffa542","ios":"levelo://app?vid=7a759d83-dcef-464c-84a3-1f8a57ffa542"},"vehicle_type_id":"4","last_reported":1700640608,"current_range_meters":21600,"station_id":"ce4bgs12rcd13ifvqcag","pricing_plan_id":"free"},{"bike_id":"4fdc8957-f88a-4534-92c3-2224f7f27145","system_id":"levelo_inurba_marseille","lat":43.305712,"lon":5.365641,"is_reserved":false,"is_disabled":false,"rental_uris":{"android":"levelo://app?vid=4fdc8957-f88a-4534-92c3-2224f7f27145","ios":"levelo://app?vid=4fdc8957-f88a-4534-92c3-2224f7f27145"},"vehicle_type_id":"4","last_reported":1700640608,"current_range_meters":23200,"station_id":"ce4bgs12rcd13ifvqcag","pricing_plan_id":"free"},{"bike_id":"95583d67-b9fc-4ff1-93fd-5e2fbf3996b7","system_id":"levelo_inurba_marseille","lat":43.31961,"lon":5.3706,"is_reserved":false,"is_disabled":false,"rental_uris":{"android":"levelo://app?vid=95583d67-b9fc-4ff1-93fd-5e2fbf3996b7","ios":"levelo://app?vid=95583d67-b9fc-4ff1-93fd-5e2fbf3996b7"},"vehicle_type_id":"4","last_reported":1700640608,"current_range_meters":0,"station_id":"","pricing_plan_id":"free"},{"bike_id":"f60eef49-6fa8-449c-8ced-f2a12cd4949b","system_id":"levelo_inurba_marseille","lat":43.305348,"lon":5.367038,"is_reserved":false,"is_disabled":false,"rental_uris":{"android":"levelo://app?vid=f60eef49-6fa8-449c-8ced-f2a12cd4949b","ios":"levelo://app?vid=f60eef49-6fa8-449c-8ced-f2a12cd4949b"},"vehicle_type_id":"4","last_reported":1700640608,"current_range_meters":17200,"station_id":"ce4bgrp2rcd13ifvqc9g","pricing_plan_id":"free"},{"bike_id":"3b752292-7e21-4e2b-847c-515d4a4f1dea","system_id":"levelo_inurba_marseille","lat":43.305368,"lon":5.367343,"is_reserved":false,"is_disabled":false,"rental_uris":{"android":"levelo://app?vid=3b752292-7e21-4e2b-847c-515d4a4f1dea","ios":"levelo://app?vid=3b752292-7e21-4e2b-847c-515d4a4f1dea"},"vehicle_type_id":"4","last_reported":1700640608,"current_range_meters":11600,"station_id":"ce4bgrp2rcd13ifvqc9g","pricing_plan_id":"free"},{"bike_id":"53d66c72-3068-4fae-be6a-376427810ee7","system_id":"levelo_inurba_marseille","lat":43.305368,"lon":5.367343,"is_reserved":false,"is_disabled":false,"rental_uris":{"android":"levelo://app?vid=53d66c72-3068-4fae-be6a-376427810ee7","ios":"levelo://app?vid=53d66c72-3068-4fae-be6a-376427810ee7"},"vehicle_type_id":"4","last_reported":1700640608,"current_range_meters":5200,"station_id":"ce4bgrp2rcd13ifvqc9g","pricing_plan_id":"free"},{"bike_id":"0723b510-f9a1-431a-8214-824c7934c858","system_id":"levelo_inurba_marseille","lat":43.305706,"lon":5.365654,"is_reserved":false,"is_disabled":false,"rental_uris":{"android":"levelo://app?vid=0723b510-f9a1-431a-8214-824c7934c858","ios":"levelo://app?vid=0723b510-f9a1-431a-8214-824c7934c858"},"vehicle_type_id":"4","last_reported":1700640608,"current_range_meters":20800,"station_id":"ce4bgs12rcd13ifvqcag","pricing_plan_id":"free"},{"bike_id":"34f14c99-4545-4246-916e-19dc2b4be312","system_id":"levelo_inurba_marseille","lat":43.305706,"lon":5.365654,"is_reserved":false,"is_disabled":false,"rental_uris":{"android":"levelo://app?vid=34f14c99-4545-4246-916e-19dc2b4be312","ios":"levelo://app?vid=34f14c99-4545-4246-916e-19dc2b4be312"},"vehicle_type_id":"4","last_reported":1700640608,"current_range_meters":8800,"station_id":"ce4bgs12rcd13ifvqcag","pricing_plan_id":"free"},{"bike_id":"4d519ffa-2c65-4df1-b222-ee04db08df5b","system_id":"levelo_inurba_marseille","lat":43.305706,"lon":5.365654,"is_reserved":false,"is_disabled":false,"rental_uris":{"android":"levelo://app?vid=4d519ffa-2c65-4df1-b222-ee04db08df5b","ios":"levelo://app?vid=4d519ffa-2c65-4df1-b222-ee04db08df5b"},"vehicle_type_id":"4","last_reported":1700640608,"current_range_meters":24400,"station_id":"ce4bgs12rcd13ifvqcag","pricing_plan_id":"free"},{"bike_id":"9dc1db1b-f4c0-422d-97d3-9806f04b651f","system_id":"levelo_inurba_marseille","lat":43.305706,"lon":5.365654,"is_reserved":false,"is_disabled":false,"rental_uris":{"android":"levelo://app?vid=9dc1db1b-f4c0-422d-97d3-9806f04b651f","ios":"levelo://app?vid=9dc1db1b-f4c0-422d-97d3-9806f04b651f"},"vehicle_type_id":"4","last_reported":1700640608,"current_range_meters":31600,"station_id":"ce4bgs12rcd13ifvqcag","pricing_plan_id":"free"},{"bike_id":"a422bd8e-e62b-43bd-8991-7b2857de7601","system_id":"levelo_inurba_marseille","lat":43.305989,"lon":5.37225,"is_reserved":false,"is_disabled":false,"rental_uris":{"android":"levelo://app?vid=a422bd8e-e62b-43bd-8991-7b2857de7601","ios":"levelo://app?vid=a422bd8e-e62b-43bd-8991-7b2857de7601"},"vehicle_type_id":"4","last_reported":1700640608,"current_range_meters":0,"station_id":"ce4bgqh2rcd13ifvqc4g","pricing_plan_id":"free"},{"bike_id":"0f6d0fd0-df42-49c9-8359-2c51137f43d5","system_id":"levelo_inurba_marseille","lat":43.311131,"lon":5.377651,"is_reserved":false,"is_disabled":false,"rental_uris":{"android":"levelo://app?vid=0f6d0fd0-df42-49c9-8359-2c51137f43d5","ios":"levelo://app?vid=0f6d0fd0-df42-49c9-8359-2c51137f43d5"},"vehicle_type_id":"4","last_reported":1700640608,"current_range_meters":16800,"station_id":"ce4bgt92rcd13ifvqcg0","pricing_plan_id":"free"},{"bike_id":"a01947ce-d3f1-4178-a24b-0cddef23cdbe","system_id":"levelo_inurba_marseille","lat":43.303259,"lon":5.366233,"is_reserved":false,"is_disabled":false,"rental_uris":{"android":"levelo://app?vid=a01947ce-d3f1-4178-a24b-0cddef23cdbe","ios":"levelo://app?vid=a01947ce-d3f1-4178-a24b-0cddef23cdbe"},"vehicle_type_id":"4","last_reported":1700640608,"current_range_meters":0,"station_id":"","pricing_plan_id":"free"},{"bike_id":"24bb6c0d-d5da-463a-9344-c3415cb99a6b","system_id":"levelo_inurba_marseille","lat":43.30309,"lon":5.36911,"is_reserved":false,"is_disabled":false,"rental_uris":{"android":"levelo://app?vid=24bb6c0d-d5da-463a-9344-c3415cb99a6b","ios":"levelo://app?vid=24bb6c0d-d5da-463a-9344-c3415cb99a6b"},"vehicle_type_id":"4","last_reported":1700640608,"current_range_meters":24000,"station_id":"ce4bgqh2rcd13ifvqc5g","pricing_plan_id":"free"},{"bike_id":"867c7df6-9411-4bd7-9529-403ffe27d9ef","system_id":"levelo_inurba_marseille","lat":43.315333,"lon":5.380323,"is_reserved":false,"is_disabled":false,"rental_uris":{"android":"levelo://app?vid=867c7df6-9411-4bd7-9529-403ffe27d9ef","ios":"levelo://app?vid=867c7df6-9411-4bd7-9529-403ffe27d9ef"},"vehicle_type_id":"4","last_reported":1700640608,"current_range_meters":22000,"station_id":"ce4bhsp2rcd13ifvqi50","pricing_plan_id":"free"},{"bike_id":"8754fbd4-dafd-4362-90f6-6405d0f99a7f","system_id":"levelo_inurba_marseille","lat":43.30193,"lon":5.36618,"is_reserved":false,"is_disabled":false,"rental_uris":{"android":"levelo://app?vid=8754fbd4-dafd-4362-90f6-6405d0f99a7f","ios":"levelo://app?vid=8754fbd4-dafd-4362-90f6-6405d0f99a7f"},"vehicle_type_id":"4","last_reported":1700640608,"current_range_meters":0,"station_id":"ce4bgrh2rcd13ifvqc8g","pricing_plan_id":"free"},{"bike_id":"0327687b-f51e-4077-bf49-2ec73a6de092","system_id":"levelo_inurba_marseille","lat":43.32233,"lon":5.37561,"is_reserved":false,"is_disabled":false,"rental_uris":{"android":"levelo://app?vid=0327687b-f51e-4077-bf49-2ec73a6de092","ios":"levelo://app?vid=0327687b-f51e-4077-bf49-2ec73a6de092"},"vehicle_type_id":"4","last_reported":1700640608,"current_range_meters":17200,"station_id":"","pricing_plan_id":"free"},{"bike_id":"24b5da77-6d52-4678-92e2-92927d605ba4","system_id":"levelo_inurba_marseille","lat":43.30465,"lon":5.379,"is_reserved":false,"is_disabled":false,"rental_uris":{"android":"levelo://app?vid=24b5da77-6d52-4678-92e2-92927d605ba4","ios":"levelo://app?vid=24b5da77-6d52-4678-92e2-92927d605ba4"},"vehicle_type_id":"4","last_reported":1700640608,"current_range_meters":0,"station_id":"ce4bgup2rcd13ifvqcn0","pricing_plan_id":"free"},{"bike_id":"a037806c-504f-410e-8380-5102d23eea79","system_id":"levelo_inurba_marseille","lat":43.324771,"lon":5.36557,"is_reserved":false,"is_disabled":false,"rental_uris":{"android":"levelo://app?vid=a037806c-504f-410e-8380-5102d23eea79","ios":"levelo://app?vid=a037806c-504f-410e-8380-5102d23eea79"},"vehicle_type_id":"4","last_reported":1700640608,"current_range_meters":27200,"station_id":"ce4bhs12rcd13ifvqhvg","pricing_plan_id":"free"},{"bike_id":"afa921fc-ca50-4532-aeb1-1de14ee2fe50","system_id":"levelo_inurba_marseille","lat":43.324771,"lon":5.36557,"is_reserved":false,"is_disabled":false,"rental_uris":{"android":"levelo://app?vid=afa921fc-ca50-4532-aeb1-1de14ee2fe50","ios":"levelo://app?vid=afa921fc-ca50-4532-aeb1-1de14ee2fe50"},"vehicle_type_id":"4","last_reported":1700640608,"current_range_meters":22400,"station_id":"ce4bhs12rcd13ifvqhvg","pricing_plan_id":"free"},{"bike_id":"24c1c1a9-b388-43fd-a96f-844a89779dd4","system_id":"levelo_inurba_marseille","lat":43.302864,"lon":5.376926,"is_reserved":false,"is_disabled":false,"rental_uris":{"android":"levelo://app?vid=24c1c1a9-b388-43fd-a96f-844a89779dd4","ios":"levelo://app?vid=24c1c1a9-b388-43fd-a96f-844a89779dd4"},"vehicle_type_id":"4","last_reported":1700640608,"current_range_meters":22400,"station_id":"ce4bguh2rcd13ifvqcj0","pricing_plan_id":"free"},{"bike_id":"8bd41d5c-91d4-4d31-aa77-23da53539974","system_id":"levelo_inurba_marseille","lat":43.301429,"lon":5.37413,"is_reserved":false,"is_disabled":false,"rental_uris":{"android":"levelo://app?vid=8bd41d5c-91d4-4d31-aa77-23da53539974","ios":"levelo://app?vid=8bd41d5c-91d4-4d31-aa77-23da53539974"},"vehicle_type_id":"4","last_reported":1700640608,"current_range_meters":0,"station_id":"ce4bgs92rcd13ifvqcc0","pricing_plan_id":"free"},{"bike_id":"845ca6e6-80a2-4500-ba1c-794f1ff89133","system_id":"levelo_inurba_marseille","lat":43.301429,"lon":5.37413,"is_reserved":false,"is_disabled":false,"rental_uris":{"android":"levelo://app?vid=845ca6e6-80a2-4500-ba1c-794f1ff89133","ios":"levelo://app?vid=845ca6e6-80a2-4500-ba1c-794f1ff89133"},"vehicle_type_id":"4","last_reported":1700640608,"current_range_meters":21600,"station_id":"ce4bgs92rcd13ifvqcc0","pricing_plan_id":"free"},{"bike_id":"68ccbba2-e7d2-4761-afa3-edfa70cd9805","system_id":"levelo_inurba_marseille","lat":43.30143,"lon":5.37413,"is_reserved":false,"is_disabled":false,"rental_uris":{"android":"levelo://app?vid=68ccbba2-e7d2-4761-afa3-edfa70cd9805","ios":"levelo://app?vid=68ccbba2-e7d2-4761-afa3-edfa70cd9805"},"vehicle_type_id":"4","last_reported":1700640608,"current_range_meters":12000,"station_id":"ce4bgs92rcd13ifvqcc0","pricing_plan_id":"free"},{"bike_id":"d7774252-0f1e-41ea-93d2-0cdbc2da8092","system_id":"levelo_inurba_marseille","lat":43.302784,"lon":5.377158,"is_reserved":false,"is_disabled":false,"rental_uris":{"android":"levelo://app?vid=d7774252-0f1e-41ea-93d2-0cdbc2da8092","ios":"levelo://app?vid=d7774252-0f1e-41ea-93d2-0cdbc2da8092"},"vehicle_type_id":"4","last_reported":1700640608,"current_range_meters":18400,"station_id":"ce4bguh2rcd13ifvqcj0","pricing_plan_id":"free"},{"bike_id":"d0e8a2d6-0429-4226-a935-7657d878e04f","system_id":"levelo_inurba_marseille","lat":43.302784,"lon":5.377158,"is_reserved":false,"is_disabled":false,"rental_uris":{"android":"levelo://app?vid=d0e8a2d6-0429-4226-a935-7657d878e04f","ios":"levelo://app?vid=d0e8a2d6-0429-4226-a935-7657d878e04f"},"vehicle_type_id":"4","last_reported":1700640608,"current_range_meters":26800,"station_id":"ce4bguh2rcd13ifvqcj0","pricing_plan_id":"free"},{"bike_id":"9d528f61-4c46-4e53-9b46-e2123b4dc5aa","system_id":"levelo_inurba_marseille","lat":43.302784,"lon":5.377158,"is_reserved":false,"is_disabled":false,"rental_uris":{"android":"levelo://app?vid=9d528f61-4c46-4e53-9b46-e2123b4dc5aa","ios":"levelo://app?vid=9d528f61-4c46-4e53-9b46-e2123b4dc5aa"},"vehicle_type_id":"4","last_reported":1700640608,"current_range_meters":23200,"station_id":"ce4bguh2rcd13ifvqcj0","pricing_plan_id":"free"},{"bike_id":"c794d227-e8f1-4873-a725-5ecd90f2069b","system_id":"levelo_inurba_marseille","lat":43.31998,"lon":5.38165,"is_reserved":false,"is_disabled":false,"rental_uris":{"android":"levelo://app?vid=c794d227-e8f1-4873-a725-5ecd90f2069b","ios":"levelo://app?vid=c794d227-e8f1-4873-a725-5ecd90f2069b"},"vehicle_type_id":"4","last_reported":1700640608,"current_range_meters":8800,"station_id":"ce4bhr12rcd13ifvqhpg","pricing_plan_id":"free"},{"bike_id":"e93bd933-400d-4aaf-8b10-c9a0ef9e2dd1","system_id":"levelo_inurba_marseille","lat":43.29975,"lon":5.371822,"is_reserved":false,"is_disabled":false,"rental_uris":{"android":"levelo://app?vid=e93bd933-400d-4aaf-8b10-c9a0ef9e2dd1","ios":"levelo://app?vid=e93bd933-400d-4aaf-8b10-c9a0ef9e2dd1"},"vehicle_type_id":"4","last_reported":1700640608,"current_range_meters":29200,"station_id":"","pricing_plan_id":"free"},{"bike_id":"672caa06-241f-4444-8014-0a95268b4c88","system_id":"levelo_inurba_marseille","lat":43.298433,"lon":5.362774,"is_reserved":false,"is_disabled":false,"rental_uris":{"android":"levelo://app?vid=672caa06-241f-4444-8014-0a95268b4c88","ios":"levelo://app?vid=672caa06-241f-4444-8014-0a95268b4c88"},"vehicle_type_id":"4","last_reported":1700640608,"current_range_meters":15200,"station_id":"ce4bgpp2rcd13ifvqc3g","pricing_plan_id":"free"},{"bike_id":"01d92ae0-0bcc-48f6-b9d3-ef7ed0dfefc0","system_id":"levelo_inurba_marseille","lat":43.31173,"lon":5.38712,"is_reserved":false,"is_disabled":false,"rental_uris":{"android":"levelo://app?vid=01d92ae0-0bcc-48f6-b9d3-ef7ed0dfefc0","ios":"levelo://app?vid=01d92ae0-0bcc-48f6-b9d3-ef7ed0dfefc0"},"vehicle_type_id":"4","last_reported":1700640608,"current_range_meters":23600,"station_id":"ce4bgv12rcd13ifvqcp0","pricing_plan_id":"free"},{"bike_id":"c33efa77-ea33-4c22-ad7f-b790b29e570e","system_id":"levelo_inurba_marseille","lat":43.305706,"lon":5.365654,"is_reserved":false,"is_disabled":false,"rental_uris":{"android":"levelo://app?vid=c33efa77-ea33-4c22-ad7f-b790b29e570e","ios":"levelo://app?vid=c33efa77-ea33-4c22-ad7f-b790b29e570e"},"vehicle_type_id":"4","last_reported":1700640608,"current_range_meters":27200,"station_id":"ce4bgs12rcd13ifvqcag","pricing_plan_id":"free"},{"bike_id":"81e92415-4502-4ded-8068-68978de28a34","system_id":"levelo_inurba_marseille","lat":43.32826,"lon":5.36691,"is_reserved":false,"is_disabled":false,"rental_uris":{"android":"levelo://app?vid=81e92415-4502-4ded-8068-68978de28a34","ios":"levelo://app?vid=81e92415-4502-4ded-8068-68978de28a34"},"vehicle_type_id":"4","last_reported":1700640608,"current_range_meters":16000,"station_id":"ce4bhs92rcd13ifvqi0g","pricing_plan_id":"free"},{"bike_id":"d42732ee-3d1a-47b1-9598-db3afd7b4663","system_id":"levelo_inurba_marseille","lat":43.32828,"lon":5.36676,"is_reserved":false,"is_disabled":false,"rental_uris":{"android":"levelo://app?vid=d42732ee-3d1a-47b1-9598-db3afd7b4663","ios":"levelo://app?vid=d42732ee-3d1a-47b1-9598-db3afd7b4663"},"vehicle_type_id":"4","last_reported":1700640608,"current_range_meters":3600,"station_id":"ce4bhs92rcd13ifvqi0g","pricing_plan_id":"free"},{"bike_id":"69a91a93-657b-4159-bd9e-e19ad5a7ab42","system_id":"levelo_inurba_marseille","lat":43.328371,"lon":5.366909,"is_reserved":false,"is_disabled":false,"rental_uris":{"android":"levelo://app?vid=69a91a93-657b-4159-bd9e-e19ad5a7ab42","ios":"levelo://app?vid=69a91a93-657b-4159-bd9e-e19ad5a7ab42"},"vehicle_type_id":"4","last_reported":1700640608,"current_range_meters":11600,"station_id":"ce4bhs92rcd13ifvqi0g","pricing_plan_id":"free"},{"bike_id":"6152776f-9b5a-4ba2-8519-780d74b2e6da","system_id":"levelo_inurba_marseille","lat":43.296996,"lon":5.365846,"is_reserved":false,"is_disabled":false,"rental_uris":{"android":"levelo://app?vid=6152776f-9b5a-4ba2-8519-780d74b2e6da","ios":"levelo://app?vid=6152776f-9b5a-4ba2-8519-780d74b2e6da"},"vehicle_type_id":"4","last_reported":1700640608,"current_range_meters":0,"station_id":"ce4bgn12rcd13ifvqbt0","pricing_plan_id":"free"},{"bike_id":"5bef9300-96c0-4b0e-83e2-dd5ce643a17a","system_id":"levelo_inurba_marseille","lat":43.309589,"lon":5.390258,"is_reserved":false,"is_disabled":false,"rental_uris":{"android":"levelo://app?vid=5bef9300-96c0-4b0e-83e2-dd5ce643a17a","ios":"levelo://app?vid=5bef9300-96c0-4b0e-83e2-dd5ce643a17a"},"vehicle_type_id":"4","last_reported":1700640608,"current_range_meters":9600,"station_id":"ce4bgup2rcd13ifvqco0","pricing_plan_id":"free"},{"bike_id":"9fb402a7-7a41-4473-81d2-1fec663a6035","system_id":"levelo_inurba_marseille","lat":43.305616,"lon":5.388674,"is_reserved":false,"is_disabled":false,"rental_uris":{"android":"levelo://app?vid=9fb402a7-7a41-4473-81d2-1fec663a6035","ios":"levelo://app?vid=9fb402a7-7a41-4473-81d2-1fec663a6035"},"vehicle_type_id":"4","last_reported":1700640608,"current_range_meters":25600,"station_id":"","pricing_plan_id":"free"},{"bike_id":"b2c245c2-88c9-4f8d-85a5-49fabeac695e","system_id":"levelo_inurba_marseille","lat":43.309589,"lon":5.390258,"is_reserved":false,"is_disabled":false,"rental_uris":{"android":"levelo://app?vid=b2c245c2-88c9-4f8d-85a5-49fabeac695e","ios":"levelo://app?vid=b2c245c2-88c9-4f8d-85a5-49fabeac695e"},"vehicle_type_id":"4","last_reported":1700640608,"current_range_meters":24400,"station_id":"ce4bgup2rcd13ifvqco0","pricing_plan_id":"free"},{"bike_id":"cacbdb3c-0b76-4eb6-8c70-53a15456aa49","system_id":"levelo_inurba_marseille","lat":43.317557,"lon":5.390173,"is_reserved":false,"is_disabled":false,"rental_uris":{"android":"levelo://app?vid=cacbdb3c-0b76-4eb6-8c70-53a15456aa49","ios":"levelo://app?vid=cacbdb3c-0b76-4eb6-8c70-53a15456aa49"},"vehicle_type_id":"4","last_reported":1700640608,"current_range_meters":23600,"station_id":"ce4bhqp2rcd13ifvqhng","pricing_plan_id":"free"},{"bike_id":"ae8b64f6-15c6-4044-8001-d5751b94cdff","system_id":"levelo_inurba_marseille","lat":43.317557,"lon":5.390173,"is_reserved":false,"is_disabled":false,"rental_uris":{"android":"levelo://app?vid=ae8b64f6-15c6-4044-8001-d5751b94cdff","ios":"levelo://app?vid=ae8b64f6-15c6-4044-8001-d5751b94cdff"},"vehicle_type_id":"4","last_reported":1700640608,"current_range_meters":22400,"station_id":"ce4bhqp2rcd13ifvqhng","pricing_plan_id":"free"},{"bike_id":"e254f568-2bef-4422-af91-b88853c9c5e3","system_id":"levelo_inurba_marseille","lat":43.30425,"lon":5.38889,"is_reserved":false,"is_disabled":false,"rental_uris":{"android":"levelo://app?vid=e254f568-2bef-4422-af91-b88853c9c5e3","ios":"levelo://app?vid=e254f568-2bef-4422-af91-b88853c9c5e3"},"vehicle_type_id":"4","last_reported":1700640608,"current_range_meters":23200,"station_id":"ce4bgk12rcd13ifvqbi0","pricing_plan_id":"free"},{"bike_id":"ea2fc8c4-314b-4b7c-a36d-3aa135f12042","system_id":"levelo_inurba_marseille","lat":43.29566,"lon":5.37521,"is_reserved":false,"is_disabled":false,"rental_uris":{"android":"levelo://app?vid=ea2fc8c4-314b-4b7c-a36d-3aa135f12042","ios":"levelo://app?vid=ea2fc8c4-314b-4b7c-a36d-3aa135f12042"},"vehicle_type_id":"4","last_reported":1700640608,"current_range_meters":10400,"station_id":"ce4bgh92rcd13ifvqb50","pricing_plan_id":"free"},{"bike_id":"3059d4c1-3d42-4321-a339-0fea9a03ef82","system_id":"levelo_inurba_marseille","lat":43.328154,"lon":5.380034,"is_reserved":false,"is_disabled":false,"rental_uris":{"android":"levelo://app?vid=3059d4c1-3d42-4321-a339-0fea9a03ef82","ios":"levelo://app?vid=3059d4c1-3d42-4321-a339-0fea9a03ef82"},"vehicle_type_id":"4","last_reported":1700640608,"current_range_meters":0,"station_id":"","pricing_plan_id":"free"},{"bike_id":"be9bbd80-cde7-4da7-9f25-64d901e185db","system_id":"levelo_inurba_marseille","lat":43.299717,"lon":5.384845,"is_reserved":false,"is_disabled":false,"rental_uris":{"android":"levelo://app?vid=be9bbd80-cde7-4da7-9f25-64d901e185db","ios":"levelo://app?vid=be9bbd80-cde7-4da7-9f25-64d901e185db"},"vehicle_type_id":"4","last_reported":1700640608,"current_range_meters":18400,"station_id":"ce4bgj92rcd13ifvqbd0","pricing_plan_id":"free"},{"bike_id":"0a7b3d68-8a4f-40e3-8846-b1c2a9444310","system_id":"levelo_inurba_marseille","lat":43.309589,"lon":5.390258,"is_reserved":false,"is_disabled":false,"rental_uris":{"android":"levelo://app?vid=0a7b3d68-8a4f-40e3-8846-b1c2a9444310","ios":"levelo://app?vid=0a7b3d68-8a4f-40e3-8846-b1c2a9444310"},"vehicle_type_id":"4","last_reported":1700640608,"current_range_meters":14000,"station_id":"ce4bgup2rcd13ifvqco0","pricing_plan_id":"free"},{"bike_id":"6b621983-5e9e-42f7-990d-ad5a093820d2","system_id":"levelo_inurba_marseille","lat":43.293801,"lon":5.363066,"is_reserved":false,"is_disabled":false,"rental_uris":{"android":"levelo://app?vid=6b621983-5e9e-42f7-990d-ad5a093820d2","ios":"levelo://app?vid=6b621983-5e9e-42f7-990d-ad5a093820d2"},"vehicle_type_id":"4","last_reported":1700640608,"current_range_meters":12800,"station_id":"","pricing_plan_id":"free"},{"bike_id":"89b29b5a-d802-43db-962f-ffe92f87d98e","system_id":"levelo_inurba_marseille","lat":43.29672,"lon":5.38156,"is_reserved":false,"is_disabled":false,"rental_uris":{"android":"levelo://app?vid=89b29b5a-d802-43db-962f-ffe92f87d98e","ios":"levelo://app?vid=89b29b5a-d802-43db-962f-ffe92f87d98e"},"vehicle_type_id":"4","last_reported":1700640608,"current_range_meters":19600,"station_id":"","pricing_plan_id":"free"},{"bike_id":"d08f04bf-d1cb-49fb-9aa7-04e7f7676b3c","system_id":"levelo_inurba_marseille","lat":43.323405,"lon":5.389588,"is_reserved":false,"is_disabled":false,"rental_uris":{"android":"levelo://app?vid=d08f04bf-d1cb-49fb-9aa7-04e7f7676b3c","ios":"levelo://app?vid=d08f04bf-d1cb-49fb-9aa7-04e7f7676b3c"},"vehicle_type_id":"4","last_reported":1700640608,"current_range_meters":0,"station_id":"","pricing_plan_id":"free"},{"bike_id":"54da8a55-2e42-4123-abca-749db393b99f","system_id":"levelo_inurba_marseille","lat":43.293259,"lon":5.371586,"is_reserved":false,"is_disabled":false,"rental_uris":{"android":"levelo://app?vid=54da8a55-2e42-4123-abca-749db393b99f","ios":"levelo://app?vid=54da8a55-2e42-4123-abca-749db393b99f"},"vehicle_type_id":"4","last_reported":1700640608,"current_range_meters":24000,"station_id":"ce4bgh92rcd13ifvqb40","pricing_plan_id":"free"},{"bike_id":"5adae164-79b5-45da-b574-c9334c2557e4","system_id":"levelo_inurba_marseille","lat":43.295847,"lon":5.38234,"is_reserved":false,"is_disabled":false,"rental_uris":{"android":"levelo://app?vid=5adae164-79b5-45da-b574-c9334c2557e4","ios":"levelo://app?vid=5adae164-79b5-45da-b574-c9334c2557e4"},"vehicle_type_id":"4","last_reported":1700640608,"current_range_meters":30000,"station_id":"","pricing_plan_id":"free"},{"bike_id":"ce5a7d26-b45f-4cdc-a0c8-9942446aede5","system_id":"levelo_inurba_marseille","lat":43.30595,"lon":5.39359,"is_reserved":false,"is_disabled":false,"rental_uris":{"android":"levelo://app?vid=ce5a7d26-b45f-4cdc-a0c8-9942446aede5","ios":"levelo://app?vid=ce5a7d26-b45f-4cdc-a0c8-9942446aede5"},"vehicle_type_id":"4","last_reported":1700640608,"current_range_meters":0,"station_id":"ce4bh0p2rcd13ifvqd80","pricing_plan_id":"free"},{"bike_id":"bea60c0d-0146-4af7-860c-b5b8d47d464a","system_id":"levelo_inurba_marseille","lat":43.302992,"lon":5.392136,"is_reserved":false,"is_disabled":false,"rental_uris":{"android":"levelo://app?vid=bea60c0d-0146-4af7-860c-b5b8d47d464a","ios":"levelo://app?vid=bea60c0d-0146-4af7-860c-b5b8d47d464a"},"vehicle_type_id":"4","last_reported":1700640608,"current_range_meters":25200,"station_id":"ce4bgkh2rcd13ifvqbk0","pricing_plan_id":"free"},{"bike_id":"d83798ce-4f8f-4867-8e5d-22ad32f548eb","system_id":"levelo_inurba_marseille","lat":43.2936,"lon":5.37835,"is_reserved":false,"is_disabled":false,"rental_uris":{"android":"levelo://app?vid=d83798ce-4f8f-4867-8e5d-22ad32f548eb","ios":"levelo://app?vid=d83798ce-4f8f-4867-8e5d-22ad32f548eb"},"vehicle_type_id":"4","last_reported":1700640608,"current_range_meters":22000,"station_id":"ce4bgjh2rcd13ifvqbf0","pricing_plan_id":"free"},{"bike_id":"ec197c94-4a21-4983-a8f3-acc422951125","system_id":"levelo_inurba_marseille","lat":43.29231,"lon":5.360493,"is_reserved":false,"is_disabled":false,"rental_uris":{"android":"levelo://app?vid=ec197c94-4a21-4983-a8f3-acc422951125","ios":"levelo://app?vid=ec197c94-4a21-4983-a8f3-acc422951125"},"vehicle_type_id":"4","last_reported":1700640608,"current_range_meters":30800,"station_id":"","pricing_plan_id":"free"},{"bike_id":"07ffc688-5737-49c4-a5ce-674f62e38de9","system_id":"levelo_inurba_marseille","lat":43.298764,"lon":5.388973,"is_reserved":false,"is_disabled":false,"rental_uris":{"android":"levelo://app?vid=07ffc688-5737-49c4-a5ce-674f62e38de9","ios":"levelo://app?vid=07ffc688-5737-49c4-a5ce-674f62e38de9"},"vehicle_type_id":"4","last_reported":1700640608,"current_range_meters":6400,"station_id":"ce4bh392rcd13ifvqdl0","pricing_plan_id":"free"},{"bike_id":"fdad0145-7cf8-4d4f-ba67-91fd014f0b36","system_id":"levelo_inurba_marseille","lat":43.291671,"lon":5.371575,"is_reserved":false,"is_disabled":false,"rental_uris":{"android":"levelo://app?vid=fdad0145-7cf8-4d4f-ba67-91fd014f0b36","ios":"levelo://app?vid=fdad0145-7cf8-4d4f-ba67-91fd014f0b36"},"vehicle_type_id":"4","last_reported":1700640608,"current_range_meters":25600,"station_id":"ce4bha92rcd13ifvqeh0","pricing_plan_id":"free"},{"bike_id":"cb33dfcd-9a60-46f4-871d-6659c3334182","system_id":"levelo_inurba_marseille","lat":43.30981,"lon":5.3961,"is_reserved":false,"is_disabled":false,"rental_uris":{"android":"levelo://app?vid=cb33dfcd-9a60-46f4-871d-6659c3334182","ios":"levelo://app?vid=cb33dfcd-9a60-46f4-871d-6659c3334182"},"vehicle_type_id":"4","last_reported":1700640608,"current_range_meters":8000,"station_id":"","pricing_plan_id":"free"},{"bike_id":"87e99050-de82-4e31-a598-b4fcc6151a1c","system_id":"levelo_inurba_marseille","lat":43.291675,"lon":5.371583,"is_reserved":false,"is_disabled":false,"rental_uris":{"android":"levelo://app?vid=87e99050-de82-4e31-a598-b4fcc6151a1c","ios":"levelo://app?vid=87e99050-de82-4e31-a598-b4fcc6151a1c"},"vehicle_type_id":"4","last_reported":1700640608,"current_range_meters":20800,"station_id":"ce4bha92rcd13ifvqeh0","pricing_plan_id":"free"},{"bike_id":"1d10a1b1-d55f-4279-928a-9c6858f32ca9","system_id":"levelo_inurba_marseille","lat":43.33211,"lon":5.38112,"is_reserved":false,"is_disabled":false,"rental_uris":{"android":"levelo://app?vid=1d10a1b1-d55f-4279-928a-9c6858f32ca9","ios":"levelo://app?vid=1d10a1b1-d55f-4279-928a-9c6858f32ca9"},"vehicle_type_id":"4","last_reported":1700640608,"current_range_meters":4400,"station_id":"","pricing_plan_id":"free"},{"bike_id":"f9dd81a9-95f8-424d-a0db-8aa50803d6f1","system_id":"levelo_inurba_marseille","lat":43.29521,"lon":5.38555,"is_reserved":false,"is_disabled":false,"rental_uris":{"android":"levelo://app?vid=f9dd81a9-95f8-424d-a0db-8aa50803d6f1","ios":"levelo://app?vid=f9dd81a9-95f8-424d-a0db-8aa50803d6f1"},"vehicle_type_id":"4","last_reported":1700640608,"current_range_meters":9600,"station_id":"","pricing_plan_id":"free"},{"bike_id":"795c1e9a-b080-4337-b2c6-839b4221f5a6","system_id":"levelo_inurba_marseille","lat":43.290327,"lon":5.375711,"is_reserved":false,"is_disabled":false,"rental_uris":{"android":"levelo://app?vid=795c1e9a-b080-4337-b2c6-839b4221f5a6","ios":"levelo://app?vid=795c1e9a-b080-4337-b2c6-839b4221f5a6"},"vehicle_type_id":"4","last_reported":1700640608,"current_range_meters":25600,"station_id":"ce4bh692rcd13ifvqe90","pricing_plan_id":"free"},{"bike_id":"be0da5a4-52cd-49d4-bcbe-53e9966632e6","system_id":"levelo_inurba_marseille","lat":43.28949,"lon":5.3642,"is_reserved":false,"is_disabled":false,"rental_uris":{"android":"levelo://app?vid=be0da5a4-52cd-49d4-bcbe-53e9966632e6","ios":"levelo://app?vid=be0da5a4-52cd-49d4-bcbe-53e9966632e6"},"vehicle_type_id":"4","last_reported":1700640608,"current_range_meters":2800,"station_id":"ce4bhc92rcd13ifvqetg","pricing_plan_id":"free"},{"bike_id":"677f3e2e-ef5d-420c-b47d-d2bbf62c47e8","system_id":"levelo_inurba_marseille","lat":43.289184,"lon":5.366408,"is_reserved":false,"is_disabled":false,"rental_uris":{"android":"levelo://app?vid=677f3e2e-ef5d-420c-b47d-d2bbf62c47e8","ios":"levelo://app?vid=677f3e2e-ef5d-420c-b47d-d2bbf62c47e8"},"vehicle_type_id":"4","last_reported":1700640608,"current_range_meters":14800,"station_id":"ce4bhap2rcd13ifvqek0","pricing_plan_id":"free"},{"bike_id":"99a88bb7-e68e-4715-8e88-60f57ef3f172","system_id":"levelo_inurba_marseille","lat":43.289184,"lon":5.366408,"is_reserved":false,"is_disabled":false,"rental_uris":{"android":"levelo://app?vid=99a88bb7-e68e-4715-8e88-60f57ef3f172","ios":"levelo://app?vid=99a88bb7-e68e-4715-8e88-60f57ef3f172"},"vehicle_type_id":"4","last_reported":1700640608,"current_range_meters":22400,"station_id":"ce4bhap2rcd13ifvqek0","pricing_plan_id":"free"},{"bike_id":"f20d4707-c9f7-4db3-abf0-d0792e0e120e","system_id":"levelo_inurba_marseille","lat":43.289184,"lon":5.366408,"is_reserved":false,"is_disabled":false,"rental_uris":{"android":"levelo://app?vid=f20d4707-c9f7-4db3-abf0-d0792e0e120e","ios":"levelo://app?vid=f20d4707-c9f7-4db3-abf0-d0792e0e120e"},"vehicle_type_id":"4","last_reported":1700640608,"current_range_meters":20800,"station_id":"ce4bhap2rcd13ifvqek0","pricing_plan_id":"free"},{"bike_id":"2c223fdc-bab8-4020-bee4-82c6404cf471","system_id":"levelo_inurba_marseille","lat":43.289403,"lon":5.364193,"is_reserved":false,"is_disabled":false,"rental_uris":{"android":"levelo://app?vid=2c223fdc-bab8-4020-bee4-82c6404cf471","ios":"levelo://app?vid=2c223fdc-bab8-4020-bee4-82c6404cf471"},"vehicle_type_id":"4","last_reported":1700640608,"current_range_meters":9200,"station_id":"ce4bhc92rcd13ifvqetg","pricing_plan_id":"free"},{"bike_id":"e1d204f0-9ec5-4251-8d54-9dd17ac65deb","system_id":"levelo_inurba_marseille","lat":43.3304,"lon":5.38919,"is_reserved":false,"is_disabled":false,"rental_uris":{"android":"levelo://app?vid=e1d204f0-9ec5-4251-8d54-9dd17ac65deb","ios":"levelo://app?vid=e1d204f0-9ec5-4251-8d54-9dd17ac65deb"},"vehicle_type_id":"4","last_reported":1700640608,"current_range_meters":28000,"station_id":"ce4bhr92rcd13ifvqhrg","pricing_plan_id":"free"},{"bike_id":"fb4c77ea-a415-4589-bc22-162308f4f5ef","system_id":"levelo_inurba_marseille","lat":43.330442,"lon":5.389148,"is_reserved":false,"is_disabled":false,"rental_uris":{"android":"levelo://app?vid=fb4c77ea-a415-4589-bc22-162308f4f5ef","ios":"levelo://app?vid=fb4c77ea-a415-4589-bc22-162308f4f5ef"},"vehicle_type_id":"4","last_reported":1700640608,"current_range_meters":13600,"station_id":"ce4bhr92rcd13ifvqhrg","pricing_plan_id":"free"},{"bike_id":"8996603a-04e2-49d3-9f6a-114bc4ded946","system_id":"levelo_inurba_marseille","lat":43.289743,"lon":5.378304,"is_reserved":false,"is_disabled":false,"rental_uris":{"android":"levelo://app?vid=8996603a-04e2-49d3-9f6a-114bc4ded946","ios":"levelo://app?vid=8996603a-04e2-49d3-9f6a-114bc4ded946"},"vehicle_type_id":"4","last_reported":1700640608,"current_range_meters":10400,"station_id":"ce4bh9p2rcd13ifvqed0","pricing_plan_id":"free"},{"bike_id":"d14b12e5-2a21-4551-a944-570e7ca4da0c","system_id":"levelo_inurba_marseille","lat":43.2901,"lon":5.381269,"is_reserved":false,"is_disabled":false,"rental_uris":{"android":"levelo://app?vid=d14b12e5-2a21-4551-a944-570e7ca4da0c","ios":"levelo://app?vid=d14b12e5-2a21-4551-a944-570e7ca4da0c"},"vehicle_type_id":"4","last_reported":1700640608,"current_range_meters":13600,"station_id":"ce4bh4p2rcd13ifvqe1g","pricing_plan_id":"free"},{"bike_id":"aad9a792-6976-4183-919a-aef819ff2e25","system_id":"levelo_inurba_marseille","lat":43.31251,"lon":5.40162,"is_reserved":false,"is_disabled":false,"rental_uris":{"android":"levelo://app?vid=aad9a792-6976-4183-919a-aef819ff2e25","ios":"levelo://app?vid=aad9a792-6976-4183-919a-aef819ff2e25"},"vehicle_type_id":"4","last_reported":1700640608,"current_range_meters":400,"station_id":"","pricing_plan_id":"free"},{"bike_id":"50300339-5229-48b3-bcaa-28ab0b38f9c2","system_id":"levelo_inurba_marseille","lat":43.301117,"lon":5.398795,"is_reserved":false,"is_disabled":false,"rental_uris":{"android":"levelo://app?vid=50300339-5229-48b3-bcaa-28ab0b38f9c2","ios":"levelo://app?vid=50300339-5229-48b3-bcaa-28ab0b38f9c2"},"vehicle_type_id":"4","last_reported":1700640608,"current_range_meters":9600,"station_id":"ce4bh0h2rcd13ifvqd40","pricing_plan_id":"free"},{"bike_id":"9a5f5826-0a27-4b81-9ffd-58814e53293a","system_id":"levelo_inurba_marseille","lat":43.286961,"lon":5.373785,"is_reserved":false,"is_disabled":false,"rental_uris":{"android":"levelo://app?vid=9a5f5826-0a27-4b81-9ffd-58814e53293a","ios":"levelo://app?vid=9a5f5826-0a27-4b81-9ffd-58814e53293a"},"vehicle_type_id":"4","last_reported":1700640608,"current_range_meters":0,"station_id":"ce4bh3p2rcd13ifvqdq0","pricing_plan_id":"free"},{"bike_id":"18b8c9e3-2000-4316-8935-2b8ed2851297","system_id":"levelo_inurba_marseille","lat":43.286961,"lon":5.373785,"is_reserved":false,"is_disabled":false,"rental_uris":{"android":"levelo://app?vid=18b8c9e3-2000-4316-8935-2b8ed2851297","ios":"levelo://app?vid=18b8c9e3-2000-4316-8935-2b8ed2851297"},"vehicle_type_id":"4","last_reported":1700640608,"current_range_meters":28400,"station_id":"ce4bh3p2rcd13ifvqdq0","pricing_plan_id":"free"},{"bike_id":"ddd3a0c7-69df-4c17-92c5-89ee77db789b","system_id":"levelo_inurba_marseille","lat":43.29509,"lon":5.39403,"is_reserved":false,"is_disabled":false,"rental_uris":{"android":"levelo://app?vid=ddd3a0c7-69df-4c17-92c5-89ee77db789b","ios":"levelo://app?vid=ddd3a0c7-69df-4c17-92c5-89ee77db789b"},"vehicle_type_id":"4","last_reported":1700640608,"current_range_meters":0,"station_id":"ce4bh292rcd13ifvqdf0","pricing_plan_id":"free"},{"bike_id":"934faeb4-e586-4052-9f9c-dd85810f6d4a","system_id":"levelo_inurba_marseille","lat":43.289307,"lon":5.38406,"is_reserved":false,"is_disabled":false,"rental_uris":{"android":"levelo://app?vid=934faeb4-e586-4052-9f9c-dd85810f6d4a","ios":"levelo://app?vid=934faeb4-e586-4052-9f9c-dd85810f6d4a"},"vehicle_type_id":"4","last_reported":1700640608,"current_range_meters":14400,"station_id":"ce4bh612rcd13ifvqe6g","pricing_plan_id":"free"},{"bike_id":"365cdea8-ccf5-46d8-9a25-8383a626f8fe","system_id":"levelo_inurba_marseille","lat":43.322872,"lon":5.382756,"is_reserved":false,"is_disabled":false,"rental_uris":{"android":"levelo://app?vid=365cdea8-ccf5-46d8-9a25-8383a626f8fe","ios":"levelo://app?vid=365cdea8-ccf5-46d8-9a25-8383a626f8fe"},"vehicle_type_id":"4","last_reported":1700640608,"current_range_meters":24000,"station_id":"ce4bhr12rcd13ifvqhqg","pricing_plan_id":"free"},{"bike_id":"26284a77-2f55-4264-b753-a37add8d0f53","system_id":"levelo_inurba_marseille","lat":43.28713,"lon":5.37935,"is_reserved":false,"is_disabled":false,"rental_uris":{"android":"levelo://app?vid=26284a77-2f55-4264-b753-a37add8d0f53","ios":"levelo://app?vid=26284a77-2f55-4264-b753-a37add8d0f53"},"vehicle_type_id":"4","last_reported":1700640608,"current_range_meters":13600,"station_id":"ce4bh9p2rcd13ifvqec0","pricing_plan_id":"free"},{"bike_id":"090c4452-81b4-4992-ab9c-8d66d5be1f0e","system_id":"levelo_inurba_marseille","lat":43.316517,"lon":5.404375,"is_reserved":false,"is_disabled":false,"rental_uris":{"android":"levelo://app?vid=090c4452-81b4-4992-ab9c-8d66d5be1f0e","ios":"levelo://app?vid=090c4452-81b4-4992-ab9c-8d66d5be1f0e"},"vehicle_type_id":"4","last_reported":1700640608,"current_range_meters":0,"station_id":"ce4bh012rcd13ifvqd00","pricing_plan_id":"free"},{"bike_id":"24109f69-d8d0-4f57-96c8-e0318db422e4","system_id":"levelo_inurba_marseille","lat":43.286086,"lon":5.351127,"is_reserved":false,"is_disabled":false,"rental_uris":{"android":"levelo://app?vid=24109f69-d8d0-4f57-96c8-e0318db422e4","ios":"levelo://app?vid=24109f69-d8d0-4f57-96c8-e0318db422e4"},"vehicle_type_id":"4","last_reported":1700640608,"current_range_meters":24000,"station_id":"ce4bhch2rcd13ifvqeug","pricing_plan_id":"free"},{"bike_id":"d53f1476-4e7b-4d09-8511-d599df06e9db","system_id":"levelo_inurba_marseille","lat":43.295713,"lon":5.399639,"is_reserved":false,"is_disabled":false,"rental_uris":{"android":"levelo://app?vid=d53f1476-4e7b-4d09-8511-d599df06e9db","ios":"levelo://app?vid=d53f1476-4e7b-4d09-8511-d599df06e9db"},"vehicle_type_id":"4","last_reported":1700640608,"current_range_meters":1600,"station_id":"ce4bh312rcd13ifvqdj0","pricing_plan_id":"free"},{"bike_id":"c39c3ac7-ccfe-4146-aad8-48d06d3214c0","system_id":"levelo_inurba_marseille","lat":43.319179,"lon":5.407725,"is_reserved":false,"is_disabled":false,"rental_uris":{"android":"levelo://app?vid=c39c3ac7-ccfe-4146-aad8-48d06d3214c0","ios":"levelo://app?vid=c39c3ac7-ccfe-4146-aad8-48d06d3214c0"},"vehicle_type_id":"4","last_reported":1700640608,"current_range_meters":12000,"station_id":"ce4bhq12rcd13ifvqhig","pricing_plan_id":"free"},{"bike_id":"a2cf2219-9c13-4e0c-8e62-4c0ebe1dd459","system_id":"levelo_inurba_marseille","lat":43.337168,"lon":5.391825,"is_reserved":false,"is_disabled":false,"rental_uris":{"android":"levelo://app?vid=a2cf2219-9c13-4e0c-8e62-4c0ebe1dd459","ios":"levelo://app?vid=a2cf2219-9c13-4e0c-8e62-4c0ebe1dd459"},"vehicle_type_id":"4","last_reported":1700640608,"current_range_meters":4000,"station_id":"ce4bhr92rcd13ifvqhsg","pricing_plan_id":"free"},{"bike_id":"236cfedc-da20-4f90-bb10-ae24c9f87f7a","system_id":"levelo_inurba_marseille","lat":43.323464,"lon":5.406297,"is_reserved":false,"is_disabled":false,"rental_uris":{"android":"levelo://app?vid=236cfedc-da20-4f90-bb10-ae24c9f87f7a","ios":"levelo://app?vid=236cfedc-da20-4f90-bb10-ae24c9f87f7a"},"vehicle_type_id":"4","last_reported":1700640608,"current_range_meters":26400,"station_id":"ce4bhq92rcd13ifvqhjg","pricing_plan_id":"free"},{"bike_id":"88e61f55-049c-4771-b9ee-6c56ef153396","system_id":"levelo_inurba_marseille","lat":43.323431,"lon":5.40627,"is_reserved":false,"is_disabled":false,"rental_uris":{"android":"levelo://app?vid=88e61f55-049c-4771-b9ee-6c56ef153396","ios":"levelo://app?vid=88e61f55-049c-4771-b9ee-6c56ef153396"},"vehicle_type_id":"4","last_reported":1700640608,"current_range_meters":26400,"station_id":"ce4bhq92rcd13ifvqhjg","pricing_plan_id":"free"},{"bike_id":"2a41fac7-1f30-4d55-a6c5-5380cde75405","system_id":"levelo_inurba_marseille","lat":43.284217,"lon":5.349697,"is_reserved":false,"is_disabled":false,"rental_uris":{"android":"levelo://app?vid=2a41fac7-1f30-4d55-a6c5-5380cde75405","ios":"levelo://app?vid=2a41fac7-1f30-4d55-a6c5-5380cde75405"},"vehicle_type_id":"4","last_reported":1700640608,"current_range_meters":26000,"station_id":"ce4bhbh2rcd13ifvqepg","pricing_plan_id":"free"},{"bike_id":"a915fd1c-9128-4c2f-bc4f-b0c446622785","system_id":"levelo_inurba_marseille","lat":43.284217,"lon":5.349697,"is_reserved":false,"is_disabled":false,"rental_uris":{"android":"levelo://app?vid=a915fd1c-9128-4c2f-bc4f-b0c446622785","ios":"levelo://app?vid=a915fd1c-9128-4c2f-bc4f-b0c446622785"},"vehicle_type_id":"4","last_reported":1700640608,"current_range_meters":28400,"station_id":"ce4bhbh2rcd13ifvqepg","pricing_plan_id":"free"},{"bike_id":"b0795789-ae2a-44e5-a376-842df496b9e7","system_id":"levelo_inurba_marseille","lat":43.289363,"lon":5.396322,"is_reserved":false,"is_disabled":false,"rental_uris":{"android":"levelo://app?vid=b0795789-ae2a-44e5-a376-842df496b9e7","ios":"levelo://app?vid=b0795789-ae2a-44e5-a376-842df496b9e7"},"vehicle_type_id":"4","last_reported":1700640608,"current_range_meters":15200,"station_id":"ce4bh3h2rcd13ifvqdn0","pricing_plan_id":"free"},{"bike_id":"3043d242-2257-4b23-8a38-9a7b85373bc3","system_id":"levelo_inurba_marseille","lat":43.292724,"lon":5.401131,"is_reserved":false,"is_disabled":false,"rental_uris":{"android":"levelo://app?vid=3043d242-2257-4b23-8a38-9a7b85373bc3","ios":"levelo://app?vid=3043d242-2257-4b23-8a38-9a7b85373bc3"},"vehicle_type_id":"4","last_reported":1700640608,"current_range_meters":19200,"station_id":"ce4bh312rcd13ifvqdk0","pricing_plan_id":"free"},{"bike_id":"a4b35ff6-f2c5-4611-8f79-09b4740654d2","system_id":"levelo_inurba_marseille","lat":43.29265,"lon":5.40117,"is_reserved":false,"is_disabled":false,"rental_uris":{"android":"levelo://app?vid=a4b35ff6-f2c5-4611-8f79-09b4740654d2","ios":"levelo://app?vid=a4b35ff6-f2c5-4611-8f79-09b4740654d2"},"vehicle_type_id":"4","last_reported":1700640608,"current_range_meters":0,"station_id":"ce4bh312rcd13ifvqdk0","pricing_plan_id":"free"},{"bike_id":"6d068ae4-8aba-4958-a002-11c2ac3f318a","system_id":"levelo_inurba_marseille","lat":43.282754,"lon":5.350519,"is_reserved":false,"is_disabled":false,"rental_uris":{"android":"levelo://app?vid=6d068ae4-8aba-4958-a002-11c2ac3f318a","ios":"levelo://app?vid=6d068ae4-8aba-4958-a002-11c2ac3f318a"},"vehicle_type_id":"4","last_reported":1700640608,"current_range_meters":31200,"station_id":"ce4bhbp2rcd13ifvqerg","pricing_plan_id":"free"},{"bike_id":"3e5e3059-083a-49d0-9b09-b52e942c9fc3","system_id":"levelo_inurba_marseille","lat":43.282754,"lon":5.350519,"is_reserved":false,"is_disabled":false,"rental_uris":{"android":"levelo://app?vid=3e5e3059-083a-49d0-9b09-b52e942c9fc3","ios":"levelo://app?vid=3e5e3059-083a-49d0-9b09-b52e942c9fc3"},"vehicle_type_id":"4","last_reported":1700640608,"current_range_meters":18400,"station_id":"ce4bhbp2rcd13ifvqerg","pricing_plan_id":"free"},{"bike_id":"49b4c011-618e-45f7-b321-5a2afe0f4e49","system_id":"levelo_inurba_marseille","lat":43.282754,"lon":5.350519,"is_reserved":false,"is_disabled":false,"rental_uris":{"android":"levelo://app?vid=49b4c011-618e-45f7-b321-5a2afe0f4e49","ios":"levelo://app?vid=49b4c011-618e-45f7-b321-5a2afe0f4e49"},"vehicle_type_id":"4","last_reported":1700640608,"current_range_meters":31200,"station_id":"ce4bhbp2rcd13ifvqerg","pricing_plan_id":"free"},{"bike_id":"0571e252-5acc-4741-aa6f-ba8321e320f8","system_id":"levelo_inurba_marseille","lat":43.282744,"lon":5.350533,"is_reserved":false,"is_disabled":false,"rental_uris":{"android":"levelo://app?vid=0571e252-5acc-4741-aa6f-ba8321e320f8","ios":"levelo://app?vid=0571e252-5acc-4741-aa6f-ba8321e320f8"},"vehicle_type_id":"4","last_reported":1700640608,"current_range_meters":31200,"station_id":"ce4bhbp2rcd13ifvqerg","pricing_plan_id":"free"},{"bike_id":"64472a25-55ab-4764-8f63-10322fb9fc2b","system_id":"levelo_inurba_marseille","lat":43.283502,"lon":5.386471,"is_reserved":false,"is_disabled":false,"rental_uris":{"android":"levelo://app?vid=64472a25-55ab-4764-8f63-10322fb9fc2b","ios":"levelo://app?vid=64472a25-55ab-4764-8f63-10322fb9fc2b"},"vehicle_type_id":"4","last_reported":1700640608,"current_range_meters":0,"station_id":"ce4bh492rcd13ifvqdvg","pricing_plan_id":"free"},{"bike_id":"41d739a0-e77f-49d2-9169-924d54ec6764","system_id":"levelo_inurba_marseille","lat":43.282744,"lon":5.350533,"is_reserved":false,"is_disabled":false,"rental_uris":{"android":"levelo://app?vid=41d739a0-e77f-49d2-9169-924d54ec6764","ios":"levelo://app?vid=41d739a0-e77f-49d2-9169-924d54ec6764"},"vehicle_type_id":"4","last_reported":1700640608,"current_range_meters":19200,"station_id":"ce4bhbp2rcd13ifvqerg","pricing_plan_id":"free"},{"bike_id":"7c530e59-4059-45fb-bf83-06c2f5ee1a22","system_id":"levelo_inurba_marseille","lat":43.326605,"lon":5.409903,"is_reserved":false,"is_disabled":false,"rental_uris":{"android":"levelo://app?vid=7c530e59-4059-45fb-bf83-06c2f5ee1a22","ios":"levelo://app?vid=7c530e59-4059-45fb-bf83-06c2f5ee1a22"},"vehicle_type_id":"4","last_reported":1700640608,"current_range_meters":26400,"station_id":"ce4bhpp2rcd13ifvqhgg","pricing_plan_id":"free"},{"bike_id":"a2324537-cd29-496c-866b-2739821c383f","system_id":"levelo_inurba_marseille","lat":43.279065,"lon":5.38022,"is_reserved":false,"is_disabled":false,"rental_uris":{"android":"levelo://app?vid=a2324537-cd29-496c-866b-2739821c383f","ios":"levelo://app?vid=a2324537-cd29-496c-866b-2739821c383f"},"vehicle_type_id":"4","last_reported":1700640608,"current_range_meters":20800,"station_id":"ce4bhf92rcd13ifvqf50","pricing_plan_id":"free"},{"bike_id":"cf7c6503-d761-4e4a-b826-f55f74848caf","system_id":"levelo_inurba_marseille","lat":43.348807,"lon":5.375098,"is_reserved":false,"is_disabled":false,"rental_uris":{"android":"levelo://app?vid=cf7c6503-d761-4e4a-b826-f55f74848caf","ios":"levelo://app?vid=cf7c6503-d761-4e4a-b826-f55f74848caf"},"vehicle_type_id":"4","last_reported":1700640608,"current_range_meters":6000,"station_id":"","pricing_plan_id":"free"},{"bike_id":"b3871324-9d0d-4e42-8f19-3e4848484cbb","system_id":"levelo_inurba_marseille","lat":43.325233,"lon":5.414318,"is_reserved":false,"is_disabled":false,"rental_uris":{"android":"levelo://app?vid=b3871324-9d0d-4e42-8f19-3e4848484cbb","ios":"levelo://app?vid=b3871324-9d0d-4e42-8f19-3e4848484cbb"},"vehicle_type_id":"4","last_reported":1700640608,"current_range_meters":21200,"station_id":"ce4bhq12rcd13ifvqhhg","pricing_plan_id":"free"},{"bike_id":"4f4eb560-a0f0-4e58-ba95-804cd5e5b204","system_id":"levelo_inurba_marseille","lat":43.325233,"lon":5.414318,"is_reserved":false,"is_disabled":false,"rental_uris":{"android":"levelo://app?vid=4f4eb560-a0f0-4e58-ba95-804cd5e5b204","ios":"levelo://app?vid=4f4eb560-a0f0-4e58-ba95-804cd5e5b204"},"vehicle_type_id":"4","last_reported":1700640608,"current_range_meters":31600,"station_id":"ce4bhq12rcd13ifvqhhg","pricing_plan_id":"free"},{"bike_id":"e709c08e-6284-4689-a9d6-07caf9663a54","system_id":"levelo_inurba_marseille","lat":43.292542,"lon":5.409049,"is_reserved":false,"is_disabled":false,"rental_uris":{"android":"levelo://app?vid=e709c08e-6284-4689-a9d6-07caf9663a54","ios":"levelo://app?vid=e709c08e-6284-4689-a9d6-07caf9663a54"},"vehicle_type_id":"4","last_reported":1700640608,"current_range_meters":0,"station_id":"ce4bh192rcd13ifvqdc0","pricing_plan_id":"free"},{"bike_id":"964c7dd0-959c-4948-b5b4-36dbdfe4fb8a","system_id":"levelo_inurba_marseille","lat":43.325233,"lon":5.414318,"is_reserved":false,"is_disabled":false,"rental_uris":{"android":"levelo://app?vid=964c7dd0-959c-4948-b5b4-36dbdfe4fb8a","ios":"levelo://app?vid=964c7dd0-959c-4948-b5b4-36dbdfe4fb8a"},"vehicle_type_id":"4","last_reported":1700640608,"current_range_meters":19600,"station_id":"ce4bhq12rcd13ifvqhhg","pricing_plan_id":"free"},{"bike_id":"4f9c3b73-2fb7-4d4c-bd48-cf9a96083e81","system_id":"levelo_inurba_marseille","lat":43.325233,"lon":5.414318,"is_reserved":false,"is_disabled":false,"rental_uris":{"android":"levelo://app?vid=4f9c3b73-2fb7-4d4c-bd48-cf9a96083e81","ios":"levelo://app?vid=4f9c3b73-2fb7-4d4c-bd48-cf9a96083e81"},"vehicle_type_id":"4","last_reported":1700640608,"current_range_meters":17600,"station_id":"ce4bhq12rcd13ifvqhhg","pricing_plan_id":"free"},{"bike_id":"371968aa-d4dd-4079-a1d9-a172af8161de","system_id":"levelo_inurba_marseille","lat":43.325233,"lon":5.414318,"is_reserved":false,"is_disabled":false,"rental_uris":{"android":"levelo://app?vid=371968aa-d4dd-4079-a1d9-a172af8161de","ios":"levelo://app?vid=371968aa-d4dd-4079-a1d9-a172af8161de"},"vehicle_type_id":"4","last_reported":1700640608,"current_range_meters":27600,"station_id":"ce4bhq12rcd13ifvqhhg","pricing_plan_id":"free"},{"bike_id":"99b7b3e2-fb47-4e03-b5b8-5bf5b8fd0d6c","system_id":"levelo_inurba_marseille","lat":43.29365,"lon":5.41254,"is_reserved":false,"is_disabled":false,"rental_uris":{"android":"levelo://app?vid=99b7b3e2-fb47-4e03-b5b8-5bf5b8fd0d6c","ios":"levelo://app?vid=99b7b3e2-fb47-4e03-b5b8-5bf5b8fd0d6c"},"vehicle_type_id":"4","last_reported":1700640608,"current_range_meters":800,"station_id":"","pricing_plan_id":"free"},{"bike_id":"a3d2c6c7-a908-41ec-a6ee-2b09e32b8850","system_id":"levelo_inurba_marseille","lat":43.273609,"lon":5.362708,"is_reserved":false,"is_disabled":false,"rental_uris":{"android":"levelo://app?vid=a3d2c6c7-a908-41ec-a6ee-2b09e32b8850","ios":"levelo://app?vid=a3d2c6c7-a908-41ec-a6ee-2b09e32b8850"},"vehicle_type_id":"4","last_reported":1700640608,"current_range_meters":30800,"station_id":"ce4bhbh2rcd13ifvqeo0","pricing_plan_id":"free"},{"bike_id":"932741b9-1ed6-49d7-954f-cbd15ad2bccc","system_id":"levelo_inurba_marseille","lat":43.276771,"lon":5.388799,"is_reserved":false,"is_disabled":false,"rental_uris":{"android":"levelo://app?vid=932741b9-1ed6-49d7-954f-cbd15ad2bccc","ios":"levelo://app?vid=932741b9-1ed6-49d7-954f-cbd15ad2bccc"},"vehicle_type_id":"4","last_reported":1700640608,"current_range_meters":26400,"station_id":"ce4bhi12rcd13ifvqfo0","pricing_plan_id":"free"},{"bike_id":"42b4bce7-7e05-4149-b05e-ca0b4437ba2e","system_id":"levelo_inurba_marseille","lat":43.27553,"lon":5.38431,"is_reserved":false,"is_disabled":false,"rental_uris":{"android":"levelo://app?vid=42b4bce7-7e05-4149-b05e-ca0b4437ba2e","ios":"levelo://app?vid=42b4bce7-7e05-4149-b05e-ca0b4437ba2e"},"vehicle_type_id":"4","last_reported":1700640608,"current_range_meters":20000,"station_id":"ce4bhh92rcd13ifvqfi0","pricing_plan_id":"free"},{"bike_id":"42a80cba-a51b-49a1-97bf-1d4b38306a47","system_id":"levelo_inurba_marseille","lat":43.275625,"lon":5.384392,"is_reserved":false,"is_disabled":false,"rental_uris":{"android":"levelo://app?vid=42a80cba-a51b-49a1-97bf-1d4b38306a47","ios":"levelo://app?vid=42a80cba-a51b-49a1-97bf-1d4b38306a47"},"vehicle_type_id":"4","last_reported":1700640608,"current_range_meters":28000,"station_id":"ce4bhh92rcd13ifvqfi0","pricing_plan_id":"free"},{"bike_id":"9e2abd53-1d99-44c4-adc0-30ed39200552","system_id":"levelo_inurba_marseille","lat":43.276771,"lon":5.388799,"is_reserved":false,"is_disabled":false,"rental_uris":{"android":"levelo://app?vid=9e2abd53-1d99-44c4-adc0-30ed39200552","ios":"levelo://app?vid=9e2abd53-1d99-44c4-adc0-30ed39200552"},"vehicle_type_id":"4","last_reported":1700640608,"current_range_meters":17200,"station_id":"ce4bhi12rcd13ifvqfo0","pricing_plan_id":"free"},{"bike_id":"114187af-32af-4dba-9a5b-7cf8db15d20c","system_id":"levelo_inurba_marseille","lat":43.310785,"lon":5.424305,"is_reserved":false,"is_disabled":false,"rental_uris":{"android":"levelo://app?vid=114187af-32af-4dba-9a5b-7cf8db15d20c","ios":"levelo://app?vid=114187af-32af-4dba-9a5b-7cf8db15d20c"},"vehicle_type_id":"4","last_reported":1700640608,"current_range_meters":31600,"station_id":"ce4bhp92rcd13ifvqhag","pricing_plan_id":"free"},{"bike_id":"26d47646-6bc9-4aed-9935-26c9ee95ac8e","system_id":"levelo_inurba_marseille","lat":43.310785,"lon":5.424305,"is_reserved":false,"is_disabled":false,"rental_uris":{"android":"levelo://app?vid=26d47646-6bc9-4aed-9935-26c9ee95ac8e","ios":"levelo://app?vid=26d47646-6bc9-4aed-9935-26c9ee95ac8e"},"vehicle_type_id":"4","last_reported":1700640608,"current_range_meters":19200,"station_id":"ce4bhp92rcd13ifvqhag","pricing_plan_id":"free"},{"bike_id":"047064be-c3a7-4470-8d35-33830f8d085d","system_id":"levelo_inurba_marseille","lat":43.295511,"lon":5.422926,"is_reserved":false,"is_disabled":false,"rental_uris":{"android":"levelo://app?vid=047064be-c3a7-4470-8d35-33830f8d085d","ios":"levelo://app?vid=047064be-c3a7-4470-8d35-33830f8d085d"},"vehicle_type_id":"4","last_reported":1700640608,"current_range_meters":30400,"station_id":"ce4bhph2rcd13ifvqhdg","pricing_plan_id":"free"},{"bike_id":"d7fdf25e-3330-493d-8260-0a6b9fbf9102","system_id":"levelo_inurba_marseille","lat":43.295511,"lon":5.422926,"is_reserved":false,"is_disabled":false,"rental_uris":{"android":"levelo://app?vid=d7fdf25e-3330-493d-8260-0a6b9fbf9102","ios":"levelo://app?vid=d7fdf25e-3330-493d-8260-0a6b9fbf9102"},"vehicle_type_id":"4","last_reported":1700640608,"current_range_meters":0,"station_id":"ce4bhph2rcd13ifvqhdg","pricing_plan_id":"free"},{"bike_id":"d63f0213-db4d-4ade-9fb5-b0161bcbc51a","system_id":"levelo_inurba_marseille","lat":43.27216,"lon":5.392658,"is_reserved":false,"is_disabled":false,"rental_uris":{"android":"levelo://app?vid=d63f0213-db4d-4ade-9fb5-b0161bcbc51a","ios":"levelo://app?vid=d63f0213-db4d-4ade-9fb5-b0161bcbc51a"},"vehicle_type_id":"4","last_reported":1700640608,"current_range_meters":0,"station_id":"","pricing_plan_id":"free"},{"bike_id":"d0bb53f7-f1b8-4609-a668-27efdac67f66","system_id":"levelo_inurba_marseille","lat":43.27195,"lon":5.39248,"is_reserved":false,"is_disabled":false,"rental_uris":{"android":"levelo://app?vid=d0bb53f7-f1b8-4609-a668-27efdac67f66","ios":"levelo://app?vid=d0bb53f7-f1b8-4609-a668-27efdac67f66"},"vehicle_type_id":"4","last_reported":1700640608,"current_range_meters":0,"station_id":"","pricing_plan_id":"free"},{"bike_id":"cbc2fb9f-e1d7-438a-87af-611b36f7eeb3","system_id":"levelo_inurba_marseille","lat":43.271891,"lon":5.392412,"is_reserved":false,"is_disabled":false,"rental_uris":{"android":"levelo://app?vid=cbc2fb9f-e1d7-438a-87af-611b36f7eeb3","ios":"levelo://app?vid=cbc2fb9f-e1d7-438a-87af-611b36f7eeb3"},"vehicle_type_id":"4","last_reported":1700640608,"current_range_meters":0,"station_id":"","pricing_plan_id":"free"},{"bike_id":"b2ac42ff-31ab-4ac5-9e40-567a547522dd","system_id":"levelo_inurba_marseille","lat":43.269467,"lon":5.386439,"is_reserved":false,"is_disabled":false,"rental_uris":{"android":"levelo://app?vid=b2ac42ff-31ab-4ac5-9e40-567a547522dd","ios":"levelo://app?vid=b2ac42ff-31ab-4ac5-9e40-567a547522dd"},"vehicle_type_id":"4","last_reported":1700640608,"current_range_meters":26800,"station_id":"ce4bhh92rcd13ifvqfh0","pricing_plan_id":"free"},{"bike_id":"70a1350a-bf54-4b0f-ae00-1c127c10d388","system_id":"levelo_inurba_marseille","lat":43.27944,"lon":5.41051,"is_reserved":false,"is_disabled":false,"rental_uris":{"android":"levelo://app?vid=70a1350a-bf54-4b0f-ae00-1c127c10d388","ios":"levelo://app?vid=70a1350a-bf54-4b0f-ae00-1c127c10d388"},"vehicle_type_id":"4","last_reported":1700640608,"current_range_meters":5200,"station_id":"ce4bhnp2rcd13ifvqh0g","pricing_plan_id":"free"},{"bike_id":"50071d3f-bafb-4373-9275-ef49bff13b1f","system_id":"levelo_inurba_marseille","lat":43.269319,"lon":5.389397,"is_reserved":false,"is_disabled":false,"rental_uris":{"android":"levelo://app?vid=50071d3f-bafb-4373-9275-ef49bff13b1f","ios":"levelo://app?vid=50071d3f-bafb-4373-9275-ef49bff13b1f"},"vehicle_type_id":"4","last_reported":1700640608,"current_range_meters":28000,"station_id":"ce4bhhh2rcd13ifvqfl0","pricing_plan_id":"free"},{"bike_id":"ef37fdaf-18c3-4e77-9160-ec5a0008cc0b","system_id":"levelo_inurba_marseille","lat":43.26681,"lon":5.382694,"is_reserved":false,"is_disabled":false,"rental_uris":{"android":"levelo://app?vid=ef37fdaf-18c3-4e77-9160-ec5a0008cc0b","ios":"levelo://app?vid=ef37fdaf-18c3-4e77-9160-ec5a0008cc0b"},"vehicle_type_id":"4","last_reported":1700640608,"current_range_meters":24000,"station_id":"ce4bhg92rcd13ifvqf90","pricing_plan_id":"free"},{"bike_id":"732d8685-be6d-4240-97c2-659e634d0f60","system_id":"levelo_inurba_marseille","lat":43.26683,"lon":5.38266,"is_reserved":false,"is_disabled":false,"rental_uris":{"android":"levelo://app?vid=732d8685-be6d-4240-97c2-659e634d0f60","ios":"levelo://app?vid=732d8685-be6d-4240-97c2-659e634d0f60"},"vehicle_type_id":"4","last_reported":1700640608,"current_range_meters":6400,"station_id":"ce4bhg92rcd13ifvqf90","pricing_plan_id":"free"},{"bike_id":"67e401fd-6d6d-4c1d-9b12-69033ed661d0","system_id":"levelo_inurba_marseille","lat":43.26681,"lon":5.382694,"is_reserved":false,"is_disabled":false,"rental_uris":{"android":"levelo://app?vid=67e401fd-6d6d-4c1d-9b12-69033ed661d0","ios":"levelo://app?vid=67e401fd-6d6d-4c1d-9b12-69033ed661d0"},"vehicle_type_id":"4","last_reported":1700640608,"current_range_meters":22000,"station_id":"ce4bhg92rcd13ifvqf90","pricing_plan_id":"free"},{"bike_id":"a0665b30-5c20-4c3e-a32e-3bb2cacdf164","system_id":"levelo_inurba_marseille","lat":43.26681,"lon":5.382694,"is_reserved":false,"is_disabled":false,"rental_uris":{"android":"levelo://app?vid=a0665b30-5c20-4c3e-a32e-3bb2cacdf164","ios":"levelo://app?vid=a0665b30-5c20-4c3e-a32e-3bb2cacdf164"},"vehicle_type_id":"4","last_reported":1700640608,"current_range_meters":31200,"station_id":"ce4bhg92rcd13ifvqf90","pricing_plan_id":"free"},{"bike_id":"5603db1e-c946-4d9f-a2df-928678f679ad","system_id":"levelo_inurba_marseille","lat":43.26681,"lon":5.382694,"is_reserved":false,"is_disabled":false,"rental_uris":{"android":"levelo://app?vid=5603db1e-c946-4d9f-a2df-928678f679ad","ios":"levelo://app?vid=5603db1e-c946-4d9f-a2df-928678f679ad"},"vehicle_type_id":"4","last_reported":1700640608,"current_range_meters":31600,"station_id":"ce4bhg92rcd13ifvqf90","pricing_plan_id":"free"},{"bike_id":"03c25a1d-f09c-4a3c-8404-c319d12659f1","system_id":"levelo_inurba_marseille","lat":43.26681,"lon":5.382694,"is_reserved":false,"is_disabled":false,"rental_uris":{"android":"levelo://app?vid=03c25a1d-f09c-4a3c-8404-c319d12659f1","ios":"levelo://app?vid=03c25a1d-f09c-4a3c-8404-c319d12659f1"},"vehicle_type_id":"4","last_reported":1700640608,"current_range_meters":15600,"station_id":"ce4bhg92rcd13ifvqf90","pricing_plan_id":"free"},{"bike_id":"033163db-13d1-4d9e-8e5c-8e03b0cdf1af","system_id":"levelo_inurba_marseille","lat":43.26681,"lon":5.382694,"is_reserved":false,"is_disabled":false,"rental_uris":{"android":"levelo://app?vid=033163db-13d1-4d9e-8e5c-8e03b0cdf1af","ios":"levelo://app?vid=033163db-13d1-4d9e-8e5c-8e03b0cdf1af"},"vehicle_type_id":"4","last_reported":1700640608,"current_range_meters":26000,"station_id":"ce4bhg92rcd13ifvqf90","pricing_plan_id":"free"},{"bike_id":"da45bf45-fa56-4d06-a6d7-9a21a4380f7a","system_id":"levelo_inurba_marseille","lat":43.26681,"lon":5.382694,"is_reserved":false,"is_disabled":false,"rental_uris":{"android":"levelo://app?vid=da45bf45-fa56-4d06-a6d7-9a21a4380f7a","ios":"levelo://app?vid=da45bf45-fa56-4d06-a6d7-9a21a4380f7a"},"vehicle_type_id":"4","last_reported":1700640608,"current_range_meters":18000,"station_id":"ce4bhg92rcd13ifvqf90","pricing_plan_id":"free"},{"bike_id":"28e8ce00-6b21-4e06-9930-c7c4408cc650","system_id":"levelo_inurba_marseille","lat":43.326174,"lon":5.430584,"is_reserved":false,"is_disabled":false,"rental_uris":{"android":"levelo://app?vid=28e8ce00-6b21-4e06-9930-c7c4408cc650","ios":"levelo://app?vid=28e8ce00-6b21-4e06-9930-c7c4408cc650"},"vehicle_type_id":"4","last_reported":1700640608,"current_range_meters":7600,"station_id":"","pricing_plan_id":"free"},{"bike_id":"aef9c91e-64ad-450a-ba65-be259ec0106e","system_id":"levelo_inurba_marseille","lat":43.267966,"lon":5.393976,"is_reserved":false,"is_disabled":false,"rental_uris":{"android":"levelo://app?vid=aef9c91e-64ad-450a-ba65-be259ec0106e","ios":"levelo://app?vid=aef9c91e-64ad-450a-ba65-be259ec0106e"},"vehicle_type_id":"4","last_reported":1700640608,"current_range_meters":17200,"station_id":"ce4bhh12rcd13ifvqfg0","pricing_plan_id":"free"},{"bike_id":"a6341670-f46d-4234-8597-52bb0a5b9903","system_id":"levelo_inurba_marseille","lat":43.265714,"lon":5.372891,"is_reserved":false,"is_disabled":false,"rental_uris":{"android":"levelo://app?vid=a6341670-f46d-4234-8597-52bb0a5b9903","ios":"levelo://app?vid=a6341670-f46d-4234-8597-52bb0a5b9903"},"vehicle_type_id":"4","last_reported":1700640608,"current_range_meters":7200,"station_id":"ce4bhg12rcd13ifvqf70","pricing_plan_id":"free"},{"bike_id":"4a2e6843-e3a8-45cb-9d2d-1fdbab9ccb65","system_id":"levelo_inurba_marseille","lat":43.265714,"lon":5.372891,"is_reserved":false,"is_disabled":false,"rental_uris":{"android":"levelo://app?vid=4a2e6843-e3a8-45cb-9d2d-1fdbab9ccb65","ios":"levelo://app?vid=4a2e6843-e3a8-45cb-9d2d-1fdbab9ccb65"},"vehicle_type_id":"4","last_reported":1700640608,"current_range_meters":30000,"station_id":"ce4bhg12rcd13ifvqf70","pricing_plan_id":"free"},{"bike_id":"b130f559-ead2-4085-83b5-ce8d7c8544ac","system_id":"levelo_inurba_marseille","lat":43.265714,"lon":5.372891,"is_reserved":false,"is_disabled":false,"rental_uris":{"android":"levelo://app?vid=b130f559-ead2-4085-83b5-ce8d7c8544ac","ios":"levelo://app?vid=b130f559-ead2-4085-83b5-ce8d7c8544ac"},"vehicle_type_id":"4","last_reported":1700640608,"current_range_meters":25200,"station_id":"ce4bhg12rcd13ifvqf70","pricing_plan_id":"free"},{"bike_id":"8efad410-c039-4b41-b4f5-17ff20042d10","system_id":"levelo_inurba_marseille","lat":43.267966,"lon":5.393976,"is_reserved":false,"is_disabled":false,"rental_uris":{"android":"levelo://app?vid=8efad410-c039-4b41-b4f5-17ff20042d10","ios":"levelo://app?vid=8efad410-c039-4b41-b4f5-17ff20042d10"},"vehicle_type_id":"4","last_reported":1700640608,"current_range_meters":2000,"station_id":"ce4bhh12rcd13ifvqfg0","pricing_plan_id":"free"},{"bike_id":"adfad79a-23d0-4253-b225-6be24241e12b","system_id":"levelo_inurba_marseille","lat":43.26774,"lon":5.39421,"is_reserved":false,"is_disabled":false,"rental_uris":{"android":"levelo://app?vid=adfad79a-23d0-4253-b225-6be24241e12b","ios":"levelo://app?vid=adfad79a-23d0-4253-b225-6be24241e12b"},"vehicle_type_id":"4","last_reported":1700640608,"current_range_meters":5600,"station_id":"ce4bhh12rcd13ifvqfg0","pricing_plan_id":"free"},{"bike_id":"388b462a-877b-45bd-b8fa-ea83a67dfbc7","system_id":"levelo_inurba_marseille","lat":43.26575,"lon":5.39005,"is_reserved":false,"is_disabled":false,"rental_uris":{"android":"levelo://app?vid=388b462a-877b-45bd-b8fa-ea83a67dfbc7","ios":"levelo://app?vid=388b462a-877b-45bd-b8fa-ea83a67dfbc7"},"vehicle_type_id":"4","last_reported":1700640608,"current_range_meters":28000,"station_id":"ce4bhe12rcd13ifvqf30","pricing_plan_id":"free"},{"bike_id":"f53102f2-3fbc-45a4-9e6e-1a3c3b06419b","system_id":"levelo_inurba_marseille","lat":43.30806,"lon":5.43528,"is_reserved":false,"is_disabled":false,"rental_uris":{"android":"levelo://app?vid=f53102f2-3fbc-45a4-9e6e-1a3c3b06419b","ios":"levelo://app?vid=f53102f2-3fbc-45a4-9e6e-1a3c3b06419b"},"vehicle_type_id":"4","last_reported":1700640608,"current_range_meters":21600,"station_id":"ce4bhph2rcd13ifvqheg","pricing_plan_id":"free"},{"bike_id":"a7a7eb6b-0a36-407f-bca4-3abe96942049","system_id":"levelo_inurba_marseille","lat":43.265569,"lon":5.390047,"is_reserved":false,"is_disabled":false,"rental_uris":{"android":"levelo://app?vid=a7a7eb6b-0a36-407f-bca4-3abe96942049","ios":"levelo://app?vid=a7a7eb6b-0a36-407f-bca4-3abe96942049"},"vehicle_type_id":"4","last_reported":1700640608,"current_range_meters":28000,"station_id":"ce4bhe12rcd13ifvqf30","pricing_plan_id":"free"},{"bike_id":"e72cef50-100c-46c9-a154-4198bc61956e","system_id":"levelo_inurba_marseille","lat":43.26567,"lon":5.39013,"is_reserved":false,"is_disabled":false,"rental_uris":{"android":"levelo://app?vid=e72cef50-100c-46c9-a154-4198bc61956e","ios":"levelo://app?vid=e72cef50-100c-46c9-a154-4198bc61956e"},"vehicle_type_id":"4","last_reported":1700640608,"current_range_meters":7200,"station_id":"ce4bhe12rcd13ifvqf30","pricing_plan_id":"free"},{"bike_id":"b4e8f8e9-0ad2-4794-8304-b376ea6e8498","system_id":"levelo_inurba_marseille","lat":43.26564,"lon":5.39004,"is_reserved":false,"is_disabled":false,"rental_uris":{"android":"levelo://app?vid=b4e8f8e9-0ad2-4794-8304-b376ea6e8498","ios":"levelo://app?vid=b4e8f8e9-0ad2-4794-8304-b376ea6e8498"},"vehicle_type_id":"4","last_reported":1700640608,"current_range_meters":26000,"station_id":"ce4bhe12rcd13ifvqf30","pricing_plan_id":"free"},{"bike_id":"67843368-be6e-4796-a313-e5246873386d","system_id":"levelo_inurba_marseille","lat":43.26944,"lon":5.40246,"is_reserved":false,"is_disabled":false,"rental_uris":{"android":"levelo://app?vid=67843368-be6e-4796-a313-e5246873386d","ios":"levelo://app?vid=67843368-be6e-4796-a313-e5246873386d"},"vehicle_type_id":"4","last_reported":1700640608,"current_range_meters":0,"station_id":"cjm6bp8fraef2m0cb0m0","pricing_plan_id":"free"},{"bike_id":"e6b54654-4233-4eb2-a10c-1796affe0279","system_id":"levelo_inurba_marseille","lat":43.262012,"lon":5.379307,"is_reserved":false,"is_disabled":false,"rental_uris":{"android":"levelo://app?vid=e6b54654-4233-4eb2-a10c-1796affe0279","ios":"levelo://app?vid=e6b54654-4233-4eb2-a10c-1796affe0279"},"vehicle_type_id":"4","last_reported":1700640608,"current_range_meters":24800,"station_id":"ce4bhjp2rcd13ifvqg90","pricing_plan_id":"free"},{"bike_id":"cb16d7ee-4d8d-44c4-bc7a-142b1234ab63","system_id":"levelo_inurba_marseille","lat":43.31725,"lon":5.43786,"is_reserved":false,"is_disabled":false,"rental_uris":{"android":"levelo://app?vid=cb16d7ee-4d8d-44c4-bc7a-142b1234ab63","ios":"levelo://app?vid=cb16d7ee-4d8d-44c4-bc7a-142b1234ab63"},"vehicle_type_id":"4","last_reported":1700640608,"current_range_meters":4000,"station_id":"","pricing_plan_id":"free"},{"bike_id":"c521421c-191b-434d-a3fd-732c502af0ef","system_id":"levelo_inurba_marseille","lat":43.298768,"lon":5.43643,"is_reserved":false,"is_disabled":false,"rental_uris":{"android":"levelo://app?vid=c521421c-191b-434d-a3fd-732c502af0ef","ios":"levelo://app?vid=c521421c-191b-434d-a3fd-732c502af0ef"},"vehicle_type_id":"4","last_reported":1700640608,"current_range_meters":30800,"station_id":"ce4bhpp2rcd13ifvqhfg","pricing_plan_id":"free"},{"bike_id":"cb70a0a7-a3ba-40be-8f5b-54253a525851","system_id":"levelo_inurba_marseille","lat":43.29897,"lon":5.4368,"is_reserved":false,"is_disabled":false,"rental_uris":{"android":"levelo://app?vid=cb70a0a7-a3ba-40be-8f5b-54253a525851","ios":"levelo://app?vid=cb70a0a7-a3ba-40be-8f5b-54253a525851"},"vehicle_type_id":"4","last_reported":1700640608,"current_range_meters":0,"station_id":"ce4bhpp2rcd13ifvqhfg","pricing_plan_id":"free"},{"bike_id":"6cb403bb-6eca-4a0d-8b6f-365a2ec38992","system_id":"levelo_inurba_marseille","lat":43.28155,"lon":5.42638,"is_reserved":false,"is_disabled":false,"rental_uris":{"android":"levelo://app?vid=6cb403bb-6eca-4a0d-8b6f-365a2ec38992","ios":"levelo://app?vid=6cb403bb-6eca-4a0d-8b6f-365a2ec38992"},"vehicle_type_id":"4","last_reported":1700640608,"current_range_meters":26800,"station_id":"ce4bhnh2rcd13ifvqgug","pricing_plan_id":"free"},{"bike_id":"f1b5a1af-d9e8-494f-8433-37350cc06b0c","system_id":"levelo_inurba_marseille","lat":43.2607,"lon":5.393983,"is_reserved":false,"is_disabled":false,"rental_uris":{"android":"levelo://app?vid=f1b5a1af-d9e8-494f-8433-37350cc06b0c","ios":"levelo://app?vid=f1b5a1af-d9e8-494f-8433-37350cc06b0c"},"vehicle_type_id":"4","last_reported":1700640608,"current_range_meters":28400,"station_id":"ce4bhh92rcd13ifvqfj0","pricing_plan_id":"free"},{"bike_id":"c3fc1e0e-aca5-47ca-9637-a5b1253e0309","system_id":"levelo_inurba_marseille","lat":43.275028,"lon":5.424534,"is_reserved":false,"is_disabled":false,"rental_uris":{"android":"levelo://app?vid=c3fc1e0e-aca5-47ca-9637-a5b1253e0309","ios":"levelo://app?vid=c3fc1e0e-aca5-47ca-9637-a5b1253e0309"},"vehicle_type_id":"4","last_reported":1700640608,"current_range_meters":17200,"station_id":"ce4bhn92rcd13ifvqgrg","pricing_plan_id":"free"},{"bike_id":"ce6750e7-a385-4f32-8fcc-a7ccbfaf13ef","system_id":"levelo_inurba_marseille","lat":43.275028,"lon":5.424534,"is_reserved":false,"is_disabled":false,"rental_uris":{"android":"levelo://app?vid=ce6750e7-a385-4f32-8fcc-a7ccbfaf13ef","ios":"levelo://app?vid=ce6750e7-a385-4f32-8fcc-a7ccbfaf13ef"},"vehicle_type_id":"4","last_reported":1700640608,"current_range_meters":4400,"station_id":"ce4bhn92rcd13ifvqgrg","pricing_plan_id":"free"},{"bike_id":"b3c75916-995d-4823-b86e-7b610885f7c9","system_id":"levelo_inurba_marseille","lat":43.275028,"lon":5.424534,"is_reserved":false,"is_disabled":false,"rental_uris":{"android":"levelo://app?vid=b3c75916-995d-4823-b86e-7b610885f7c9","ios":"levelo://app?vid=b3c75916-995d-4823-b86e-7b610885f7c9"},"vehicle_type_id":"4","last_reported":1700640608,"current_range_meters":7200,"station_id":"ce4bhn92rcd13ifvqgrg","pricing_plan_id":"free"},{"bike_id":"12601f8a-76b2-41e0-8874-e706ff3fc464","system_id":"levelo_inurba_marseille","lat":43.275028,"lon":5.424534,"is_reserved":false,"is_disabled":false,"rental_uris":{"android":"levelo://app?vid=12601f8a-76b2-41e0-8874-e706ff3fc464","ios":"levelo://app?vid=12601f8a-76b2-41e0-8874-e706ff3fc464"},"vehicle_type_id":"4","last_reported":1700640608,"current_range_meters":23600,"station_id":"ce4bhn92rcd13ifvqgrg","pricing_plan_id":"free"},{"bike_id":"b73b9567-7a96-43bf-8f6f-7778370f40a4","system_id":"levelo_inurba_marseille","lat":43.275028,"lon":5.424534,"is_reserved":false,"is_disabled":false,"rental_uris":{"android":"levelo://app?vid=b73b9567-7a96-43bf-8f6f-7778370f40a4","ios":"levelo://app?vid=b73b9567-7a96-43bf-8f6f-7778370f40a4"},"vehicle_type_id":"4","last_reported":1700640608,"current_range_meters":29600,"station_id":"ce4bhn92rcd13ifvqgrg","pricing_plan_id":"free"},{"bike_id":"5d9a4797-c5bf-4fa0-aebd-ddf71a1a80b6","system_id":"levelo_inurba_marseille","lat":43.275028,"lon":5.424534,"is_reserved":false,"is_disabled":false,"rental_uris":{"android":"levelo://app?vid=5d9a4797-c5bf-4fa0-aebd-ddf71a1a80b6","ios":"levelo://app?vid=5d9a4797-c5bf-4fa0-aebd-ddf71a1a80b6"},"vehicle_type_id":"4","last_reported":1700640608,"current_range_meters":3200,"station_id":"ce4bhn92rcd13ifvqgrg","pricing_plan_id":"free"},{"bike_id":"9b1d5df9-0408-4106-9c9d-efe73d549af4","system_id":"levelo_inurba_marseille","lat":43.275028,"lon":5.424534,"is_reserved":false,"is_disabled":false,"rental_uris":{"android":"levelo://app?vid=9b1d5df9-0408-4106-9c9d-efe73d549af4","ios":"levelo://app?vid=9b1d5df9-0408-4106-9c9d-efe73d549af4"},"vehicle_type_id":"4","last_reported":1700640608,"current_range_meters":24800,"station_id":"ce4bhn92rcd13ifvqgrg","pricing_plan_id":"free"},{"bike_id":"169902c5-9150-4c60-951b-0a7412e66e30","system_id":"levelo_inurba_marseille","lat":43.275028,"lon":5.424534,"is_reserved":false,"is_disabled":false,"rental_uris":{"android":"levelo://app?vid=169902c5-9150-4c60-951b-0a7412e66e30","ios":"levelo://app?vid=169902c5-9150-4c60-951b-0a7412e66e30"},"vehicle_type_id":"4","last_reported":1700640608,"current_range_meters":20800,"station_id":"ce4bhn92rcd13ifvqgrg","pricing_plan_id":"free"},{"bike_id":"15cccaa3-5e1a-4345-a3c8-2f660ff37b77","system_id":"levelo_inurba_marseille","lat":43.275028,"lon":5.424534,"is_reserved":false,"is_disabled":false,"rental_uris":{"android":"levelo://app?vid=15cccaa3-5e1a-4345-a3c8-2f660ff37b77","ios":"levelo://app?vid=15cccaa3-5e1a-4345-a3c8-2f660ff37b77"},"vehicle_type_id":"4","last_reported":1700640608,"current_range_meters":18800,"station_id":"ce4bhn92rcd13ifvqgrg","pricing_plan_id":"free"},{"bike_id":"f71cf548-f0f6-4180-82e7-43781d34a7e3","system_id":"levelo_inurba_marseille","lat":43.275028,"lon":5.424534,"is_reserved":false,"is_disabled":false,"rental_uris":{"android":"levelo://app?vid=f71cf548-f0f6-4180-82e7-43781d34a7e3","ios":"levelo://app?vid=f71cf548-f0f6-4180-82e7-43781d34a7e3"},"vehicle_type_id":"4","last_reported":1700640608,"current_range_meters":20800,"station_id":"ce4bhn92rcd13ifvqgrg","pricing_plan_id":"free"},{"bike_id":"852950a4-b37a-4cd8-95d0-591e4321138e","system_id":"levelo_inurba_marseille","lat":43.275028,"lon":5.424534,"is_reserved":false,"is_disabled":false,"rental_uris":{"android":"levelo://app?vid=852950a4-b37a-4cd8-95d0-591e4321138e","ios":"levelo://app?vid=852950a4-b37a-4cd8-95d0-591e4321138e"},"vehicle_type_id":"4","last_reported":1700640608,"current_range_meters":5200,"station_id":"ce4bhn92rcd13ifvqgrg","pricing_plan_id":"free"},{"bike_id":"b3b8a0b6-df57-4797-9772-4b7f8364c3c4","system_id":"levelo_inurba_marseille","lat":43.275028,"lon":5.424534,"is_reserved":false,"is_disabled":false,"rental_uris":{"android":"levelo://app?vid=b3b8a0b6-df57-4797-9772-4b7f8364c3c4","ios":"levelo://app?vid=b3b8a0b6-df57-4797-9772-4b7f8364c3c4"},"vehicle_type_id":"4","last_reported":1700640608,"current_range_meters":24800,"station_id":"ce4bhn92rcd13ifvqgrg","pricing_plan_id":"free"},{"bike_id":"a7e6dfaf-9024-4a99-aa23-c67959292c3a","system_id":"levelo_inurba_marseille","lat":43.275028,"lon":5.424534,"is_reserved":false,"is_disabled":false,"rental_uris":{"android":"levelo://app?vid=a7e6dfaf-9024-4a99-aa23-c67959292c3a","ios":"levelo://app?vid=a7e6dfaf-9024-4a99-aa23-c67959292c3a"},"vehicle_type_id":"4","last_reported":1700640608,"current_range_meters":10800,"station_id":"ce4bhn92rcd13ifvqgrg","pricing_plan_id":"free"},{"bike_id":"7db83573-28cb-4a58-af02-c563af6101a6","system_id":"levelo_inurba_marseille","lat":43.275028,"lon":5.424534,"is_reserved":false,"is_disabled":false,"rental_uris":{"android":"levelo://app?vid=7db83573-28cb-4a58-af02-c563af6101a6","ios":"levelo://app?vid=7db83573-28cb-4a58-af02-c563af6101a6"},"vehicle_type_id":"4","last_reported":1700640608,"current_range_meters":14000,"station_id":"ce4bhn92rcd13ifvqgrg","pricing_plan_id":"free"},{"bike_id":"45f2601d-fd80-4374-baa6-a1ef45b995b9","system_id":"levelo_inurba_marseille","lat":43.275028,"lon":5.424534,"is_reserved":false,"is_disabled":false,"rental_uris":{"android":"levelo://app?vid=45f2601d-fd80-4374-baa6-a1ef45b995b9","ios":"levelo://app?vid=45f2601d-fd80-4374-baa6-a1ef45b995b9"},"vehicle_type_id":"4","last_reported":1700640608,"current_range_meters":30400,"station_id":"ce4bhn92rcd13ifvqgrg","pricing_plan_id":"free"},{"bike_id":"6b188708-9907-4cc6-a7fa-bcdecbd5a74b","system_id":"levelo_inurba_marseille","lat":43.27495,"lon":5.42454,"is_reserved":false,"is_disabled":false,"rental_uris":{"android":"levelo://app?vid=6b188708-9907-4cc6-a7fa-bcdecbd5a74b","ios":"levelo://app?vid=6b188708-9907-4cc6-a7fa-bcdecbd5a74b"},"vehicle_type_id":"4","last_reported":1700640608,"current_range_meters":2400,"station_id":"ce4bhn92rcd13ifvqgrg","pricing_plan_id":"free"},{"bike_id":"27f68421-d382-487e-9871-fca44cb7abb5","system_id":"levelo_inurba_marseille","lat":43.275028,"lon":5.424534,"is_reserved":false,"is_disabled":false,"rental_uris":{"android":"levelo://app?vid=27f68421-d382-487e-9871-fca44cb7abb5","ios":"levelo://app?vid=27f68421-d382-487e-9871-fca44cb7abb5"},"vehicle_type_id":"4","last_reported":1700640608,"current_range_meters":21600,"station_id":"ce4bhn92rcd13ifvqgrg","pricing_plan_id":"free"},{"bike_id":"a5eefd59-1e11-4a3a-aa18-f295a07e0215","system_id":"levelo_inurba_marseille","lat":43.275028,"lon":5.424534,"is_reserved":false,"is_disabled":false,"rental_uris":{"android":"levelo://app?vid=a5eefd59-1e11-4a3a-aa18-f295a07e0215","ios":"levelo://app?vid=a5eefd59-1e11-4a3a-aa18-f295a07e0215"},"vehicle_type_id":"4","last_reported":1700640608,"current_range_meters":17200,"station_id":"ce4bhn92rcd13ifvqgrg","pricing_plan_id":"free"},{"bike_id":"3f2696f0-a4fc-4009-8f57-de0eb6faec35","system_id":"levelo_inurba_marseille","lat":43.275028,"lon":5.424534,"is_reserved":false,"is_disabled":false,"rental_uris":{"android":"levelo://app?vid=3f2696f0-a4fc-4009-8f57-de0eb6faec35","ios":"levelo://app?vid=3f2696f0-a4fc-4009-8f57-de0eb6faec35"},"vehicle_type_id":"4","last_reported":1700640608,"current_range_meters":28000,"station_id":"ce4bhn92rcd13ifvqgrg","pricing_plan_id":"free"},{"bike_id":"02bb2d19-49bb-4e5e-869f-b2b509b2d4dd","system_id":"levelo_inurba_marseille","lat":43.260912,"lon":5.397584,"is_reserved":false,"is_disabled":false,"rental_uris":{"android":"levelo://app?vid=02bb2d19-49bb-4e5e-869f-b2b509b2d4dd","ios":"levelo://app?vid=02bb2d19-49bb-4e5e-869f-b2b509b2d4dd"},"vehicle_type_id":"4","last_reported":1700640608,"current_range_meters":22000,"station_id":"ce4bhi12rcd13ifvqfq0","pricing_plan_id":"free"},{"bike_id":"7f4ad96b-f539-4335-a746-fc0505d13ad6","system_id":"levelo_inurba_marseille","lat":43.2558,"lon":5.38229,"is_reserved":false,"is_disabled":false,"rental_uris":{"android":"levelo://app?vid=7f4ad96b-f539-4335-a746-fc0505d13ad6","ios":"levelo://app?vid=7f4ad96b-f539-4335-a746-fc0505d13ad6"},"vehicle_type_id":"4","last_reported":1700640608,"current_range_meters":16000,"station_id":"","pricing_plan_id":"free"},{"bike_id":"25727f94-776a-4f6f-850b-305b160ed105","system_id":"levelo_inurba_marseille","lat":43.258224,"lon":5.394369,"is_reserved":false,"is_disabled":false,"rental_uris":{"android":"levelo://app?vid=25727f94-776a-4f6f-850b-305b160ed105","ios":"levelo://app?vid=25727f94-776a-4f6f-850b-305b160ed105"},"vehicle_type_id":"4","last_reported":1700640608,"current_range_meters":11600,"station_id":"ce4bhip2rcd13ifvqft0","pricing_plan_id":"free"},{"bike_id":"0335010d-1554-4400-be0d-5dde43de1e1d","system_id":"levelo_inurba_marseille","lat":43.25577,"lon":5.38229,"is_reserved":false,"is_disabled":false,"rental_uris":{"android":"levelo://app?vid=0335010d-1554-4400-be0d-5dde43de1e1d","ios":"levelo://app?vid=0335010d-1554-4400-be0d-5dde43de1e1d"},"vehicle_type_id":"4","last_reported":1700640608,"current_range_meters":14800,"station_id":"ce4bhih2rcd13ifvqfs0","pricing_plan_id":"free"},{"bike_id":"9a9c09d3-3ca2-489b-b9f7-465660c351c0","system_id":"levelo_inurba_marseille","lat":43.258224,"lon":5.394369,"is_reserved":false,"is_disabled":false,"rental_uris":{"android":"levelo://app?vid=9a9c09d3-3ca2-489b-b9f7-465660c351c0","ios":"levelo://app?vid=9a9c09d3-3ca2-489b-b9f7-465660c351c0"},"vehicle_type_id":"4","last_reported":1700640608,"current_range_meters":16400,"station_id":"ce4bhip2rcd13ifvqft0","pricing_plan_id":"free"},{"bike_id":"ef9c66fc-5266-450b-82a4-3ba5befdbecf","system_id":"levelo_inurba_marseille","lat":43.254993,"lon":5.376492,"is_reserved":false,"is_disabled":false,"rental_uris":{"android":"levelo://app?vid=ef9c66fc-5266-450b-82a4-3ba5befdbecf","ios":"levelo://app?vid=ef9c66fc-5266-450b-82a4-3ba5befdbecf"},"vehicle_type_id":"4","last_reported":1700640608,"current_range_meters":28400,"station_id":"","pricing_plan_id":"free"},{"bike_id":"1e21c8c1-475b-4b09-a35c-22701f2cc9be","system_id":"levelo_inurba_marseille","lat":43.254977,"lon":5.376412,"is_reserved":false,"is_disabled":false,"rental_uris":{"android":"levelo://app?vid=1e21c8c1-475b-4b09-a35c-22701f2cc9be","ios":"levelo://app?vid=1e21c8c1-475b-4b09-a35c-22701f2cc9be"},"vehicle_type_id":"4","last_reported":1700640608,"current_range_meters":22400,"station_id":"ce4bhh12rcd13ifvqff0","pricing_plan_id":"free"},{"bike_id":"6d539d4f-6e0b-4607-992e-8d79621ee45f","system_id":"levelo_inurba_marseille","lat":43.25496,"lon":5.37647,"is_reserved":false,"is_disabled":false,"rental_uris":{"android":"levelo://app?vid=6d539d4f-6e0b-4607-992e-8d79621ee45f","ios":"levelo://app?vid=6d539d4f-6e0b-4607-992e-8d79621ee45f"},"vehicle_type_id":"4","last_reported":1700640608,"current_range_meters":24000,"station_id":"ce4bhh12rcd13ifvqff0","pricing_plan_id":"free"},{"bike_id":"bd12aecc-9ba3-4b95-950e-2cec3d6826a1","system_id":"levelo_inurba_marseille","lat":43.254947,"lon":5.376454,"is_reserved":false,"is_disabled":false,"rental_uris":{"android":"levelo://app?vid=bd12aecc-9ba3-4b95-950e-2cec3d6826a1","ios":"levelo://app?vid=bd12aecc-9ba3-4b95-950e-2cec3d6826a1"},"vehicle_type_id":"4","last_reported":1700640608,"current_range_meters":29600,"station_id":"ce4bhh12rcd13ifvqff0","pricing_plan_id":"free"},{"bike_id":"7216229c-a8da-4167-8ffe-5c900b721e74","system_id":"levelo_inurba_marseille","lat":43.254947,"lon":5.376454,"is_reserved":false,"is_disabled":false,"rental_uris":{"android":"levelo://app?vid=7216229c-a8da-4167-8ffe-5c900b721e74","ios":"levelo://app?vid=7216229c-a8da-4167-8ffe-5c900b721e74"},"vehicle_type_id":"4","last_reported":1700640608,"current_range_meters":16800,"station_id":"ce4bhh12rcd13ifvqff0","pricing_plan_id":"free"},{"bike_id":"643b5169-da99-48e1-8688-bd95adc3ca3f","system_id":"levelo_inurba_marseille","lat":43.254947,"lon":5.376454,"is_reserved":false,"is_disabled":false,"rental_uris":{"android":"levelo://app?vid=643b5169-da99-48e1-8688-bd95adc3ca3f","ios":"levelo://app?vid=643b5169-da99-48e1-8688-bd95adc3ca3f"},"vehicle_type_id":"4","last_reported":1700640608,"current_range_meters":22000,"station_id":"ce4bhh12rcd13ifvqff0","pricing_plan_id":"free"},{"bike_id":"058733eb-6a65-4705-ab65-46d8e58fb382","system_id":"levelo_inurba_marseille","lat":43.258658,"lon":5.398935,"is_reserved":false,"is_disabled":false,"rental_uris":{"android":"levelo://app?vid=058733eb-6a65-4705-ab65-46d8e58fb382","ios":"levelo://app?vid=058733eb-6a65-4705-ab65-46d8e58fb382"},"vehicle_type_id":"4","last_reported":1700640608,"current_range_meters":24000,"station_id":"ce4bhl92rcd13ifvqghg","pricing_plan_id":"free"},{"bike_id":"2761af64-2c39-49db-b8b0-a598b0913e1d","system_id":"levelo_inurba_marseille","lat":43.25286,"lon":5.37814,"is_reserved":false,"is_disabled":false,"rental_uris":{"android":"levelo://app?vid=2761af64-2c39-49db-b8b0-a598b0913e1d","ios":"levelo://app?vid=2761af64-2c39-49db-b8b0-a598b0913e1d"},"vehicle_type_id":"4","last_reported":1700640608,"current_range_meters":0,"station_id":"","pricing_plan_id":"free"},{"bike_id":"8a09ed9a-31ed-4d62-b7be-fffbbd4d49e8","system_id":"levelo_inurba_marseille","lat":43.259323,"lon":5.408947,"is_reserved":false,"is_disabled":false,"rental_uris":{"android":"levelo://app?vid=8a09ed9a-31ed-4d62-b7be-fffbbd4d49e8","ios":"levelo://app?vid=8a09ed9a-31ed-4d62-b7be-fffbbd4d49e8"},"vehicle_type_id":"4","last_reported":1700640608,"current_range_meters":21600,"station_id":"ce4bhm92rcd13ifvqglg","pricing_plan_id":"free"},{"bike_id":"cba4b183-4717-494b-b8c8-78bd4ba283f7","system_id":"levelo_inurba_marseille","lat":43.25933,"lon":5.4091,"is_reserved":false,"is_disabled":false,"rental_uris":{"android":"levelo://app?vid=cba4b183-4717-494b-b8c8-78bd4ba283f7","ios":"levelo://app?vid=cba4b183-4717-494b-b8c8-78bd4ba283f7"},"vehicle_type_id":"4","last_reported":1700640608,"current_range_meters":12000,"station_id":"ce4bhm92rcd13ifvqglg","pricing_plan_id":"free"},{"bike_id":"ce1dd411-4d96-4c05-984b-40253993a13a","system_id":"levelo_inurba_marseille","lat":43.25929,"lon":5.40908,"is_reserved":false,"is_disabled":false,"rental_uris":{"android":"levelo://app?vid=ce1dd411-4d96-4c05-984b-40253993a13a","ios":"levelo://app?vid=ce1dd411-4d96-4c05-984b-40253993a13a"},"vehicle_type_id":"4","last_reported":1700640608,"current_range_meters":4800,"station_id":"ce4bhm92rcd13ifvqglg","pricing_plan_id":"free"},{"bike_id":"eedf2e51-beb6-448c-9be8-f02e29717301","system_id":"levelo_inurba_marseille","lat":43.257079,"lon":5.411051,"is_reserved":false,"is_disabled":false,"rental_uris":{"android":"levelo://app?vid=eedf2e51-beb6-448c-9be8-f02e29717301","ios":"levelo://app?vid=eedf2e51-beb6-448c-9be8-f02e29717301"},"vehicle_type_id":"4","last_reported":1700640608,"current_range_meters":31200,"station_id":"ce4bhkp2rcd13ifvqgd0","pricing_plan_id":"free"},{"bike_id":"a739a42d-b276-4f20-9d82-3e16557f04a0","system_id":"levelo_inurba_marseille","lat":43.257079,"lon":5.411051,"is_reserved":false,"is_disabled":false,"rental_uris":{"android":"levelo://app?vid=a739a42d-b276-4f20-9d82-3e16557f04a0","ios":"levelo://app?vid=a739a42d-b276-4f20-9d82-3e16557f04a0"},"vehicle_type_id":"4","last_reported":1700640608,"current_range_meters":30400,"station_id":"ce4bhkp2rcd13ifvqgd0","pricing_plan_id":"free"},{"bike_id":"e0f0120a-ca66-4df9-91cd-0c7193cc61a0","system_id":"levelo_inurba_marseille","lat":43.257079,"lon":5.411051,"is_reserved":false,"is_disabled":false,"rental_uris":{"android":"levelo://app?vid=e0f0120a-ca66-4df9-91cd-0c7193cc61a0","ios":"levelo://app?vid=e0f0120a-ca66-4df9-91cd-0c7193cc61a0"},"vehicle_type_id":"4","last_reported":1700640608,"current_range_meters":31200,"station_id":"ce4bhkp2rcd13ifvqgd0","pricing_plan_id":"free"},{"bike_id":"576d681f-25d9-43ad-8c10-5b39de675394","system_id":"levelo_inurba_marseille","lat":43.250009,"lon":5.389195,"is_reserved":false,"is_disabled":false,"rental_uris":{"android":"levelo://app?vid=576d681f-25d9-43ad-8c10-5b39de675394","ios":"levelo://app?vid=576d681f-25d9-43ad-8c10-5b39de675394"},"vehicle_type_id":"4","last_reported":1700640608,"current_range_meters":22000,"station_id":"ce4bhgp2rcd13ifvqfd0","pricing_plan_id":"free"},{"bike_id":"413e315b-e1d6-4c00-b5d8-1ccf03c5853d","system_id":"levelo_inurba_marseille","lat":43.250009,"lon":5.389195,"is_reserved":false,"is_disabled":false,"rental_uris":{"android":"levelo://app?vid=413e315b-e1d6-4c00-b5d8-1ccf03c5853d","ios":"levelo://app?vid=413e315b-e1d6-4c00-b5d8-1ccf03c5853d"},"vehicle_type_id":"4","last_reported":1700640608,"current_range_meters":14000,"station_id":"ce4bhgp2rcd13ifvqfd0","pricing_plan_id":"free"},{"bike_id":"904bd473-5f59-4996-bf52-a948d61af61e","system_id":"levelo_inurba_marseille","lat":43.250009,"lon":5.389195,"is_reserved":false,"is_disabled":false,"rental_uris":{"android":"levelo://app?vid=904bd473-5f59-4996-bf52-a948d61af61e","ios":"levelo://app?vid=904bd473-5f59-4996-bf52-a948d61af61e"},"vehicle_type_id":"4","last_reported":1700640608,"current_range_meters":20400,"station_id":"ce4bhgp2rcd13ifvqfd0","pricing_plan_id":"free"},{"bike_id":"97dd4fc0-5a65-4e7d-b2c1-7f1ef39e1f67","system_id":"levelo_inurba_marseille","lat":43.250023,"lon":5.38919,"is_reserved":false,"is_disabled":false,"rental_uris":{"android":"levelo://app?vid=97dd4fc0-5a65-4e7d-b2c1-7f1ef39e1f67","ios":"levelo://app?vid=97dd4fc0-5a65-4e7d-b2c1-7f1ef39e1f67"},"vehicle_type_id":"4","last_reported":1700640608,"current_range_meters":16800,"station_id":"ce4bhgp2rcd13ifvqfd0","pricing_plan_id":"free"},{"bike_id":"95d0ab05-04d5-4a6d-8037-0302373af8a7","system_id":"levelo_inurba_marseille","lat":43.2479,"lon":5.374457,"is_reserved":false,"is_disabled":false,"rental_uris":{"android":"levelo://app?vid=95d0ab05-04d5-4a6d-8037-0302373af8a7","ios":"levelo://app?vid=95d0ab05-04d5-4a6d-8037-0302373af8a7"},"vehicle_type_id":"4","last_reported":1700640608,"current_range_meters":24000,"station_id":"ce4bhgh2rcd13ifvqfb0","pricing_plan_id":"free"},{"bike_id":"be77136d-4109-4798-9b47-f4baabf068d9","system_id":"levelo_inurba_marseille","lat":43.2479,"lon":5.374457,"is_reserved":false,"is_disabled":false,"rental_uris":{"android":"levelo://app?vid=be77136d-4109-4798-9b47-f4baabf068d9","ios":"levelo://app?vid=be77136d-4109-4798-9b47-f4baabf068d9"},"vehicle_type_id":"4","last_reported":1700640608,"current_range_meters":17600,"station_id":"ce4bhgh2rcd13ifvqfb0","pricing_plan_id":"free"},{"bike_id":"512e3b54-d05e-4fbf-ac87-f9ad50c9e6e3","system_id":"levelo_inurba_marseille","lat":43.243884,"lon":5.370736,"is_reserved":false,"is_disabled":false,"rental_uris":{"android":"levelo://app?vid=512e3b54-d05e-4fbf-ac87-f9ad50c9e6e3","ios":"levelo://app?vid=512e3b54-d05e-4fbf-ac87-f9ad50c9e6e3"},"vehicle_type_id":"4","last_reported":1700640608,"current_range_meters":16400,"station_id":"ce4bhhh2rcd13ifvqfk0","pricing_plan_id":"free"},{"bike_id":"5fc4f2a1-f0af-4146-a509-780a1baf8628","system_id":"levelo_inurba_marseille","lat":43.243884,"lon":5.370737,"is_reserved":false,"is_disabled":false,"rental_uris":{"android":"levelo://app?vid=5fc4f2a1-f0af-4146-a509-780a1baf8628","ios":"levelo://app?vid=5fc4f2a1-f0af-4146-a509-780a1baf8628"},"vehicle_type_id":"4","last_reported":1700640608,"current_range_meters":25600,"station_id":"ce4bhhh2rcd13ifvqfk0","pricing_plan_id":"free"},{"bike_id":"d70aa5eb-5963-4ed6-942e-4ec0e5d9ead3","system_id":"levelo_inurba_marseille","lat":43.243884,"lon":5.370737,"is_reserved":false,"is_disabled":false,"rental_uris":{"android":"levelo://app?vid=d70aa5eb-5963-4ed6-942e-4ec0e5d9ead3","ios":"levelo://app?vid=d70aa5eb-5963-4ed6-942e-4ec0e5d9ead3"},"vehicle_type_id":"4","last_reported":1700640608,"current_range_meters":28000,"station_id":"ce4bhhh2rcd13ifvqfk0","pricing_plan_id":"free"},{"bike_id":"b5b5841c-f7de-4d14-9af1-c85d2d499258","system_id":"levelo_inurba_marseille","lat":43.243884,"lon":5.370736,"is_reserved":false,"is_disabled":false,"rental_uris":{"android":"levelo://app?vid=b5b5841c-f7de-4d14-9af1-c85d2d499258","ios":"levelo://app?vid=b5b5841c-f7de-4d14-9af1-c85d2d499258"},"vehicle_type_id":"4","last_reported":1700640608,"current_range_meters":31200,"station_id":"ce4bhhh2rcd13ifvqfk0","pricing_plan_id":"free"},{"bike_id":"523db2c2-c85e-48dd-adbb-3862ed36fd66","system_id":"levelo_inurba_marseille","lat":43.245581,"lon":5.395069,"is_reserved":false,"is_disabled":false,"rental_uris":{"android":"levelo://app?vid=523db2c2-c85e-48dd-adbb-3862ed36fd66","ios":"levelo://app?vid=523db2c2-c85e-48dd-adbb-3862ed36fd66"},"vehicle_type_id":"4","last_reported":1700640608,"current_range_meters":27600,"station_id":"ce4bhlp2rcd13ifvqgjg","pricing_plan_id":"free"},{"bike_id":"28b60413-ac7a-4209-82d6-d6c8d83da49a","system_id":"levelo_inurba_marseille","lat":43.245581,"lon":5.395069,"is_reserved":false,"is_disabled":false,"rental_uris":{"android":"levelo://app?vid=28b60413-ac7a-4209-82d6-d6c8d83da49a","ios":"levelo://app?vid=28b60413-ac7a-4209-82d6-d6c8d83da49a"},"vehicle_type_id":"4","last_reported":1700640608,"current_range_meters":26000,"station_id":"ce4bhlp2rcd13ifvqgjg","pricing_plan_id":"free"},{"bike_id":"2413cec9-5b34-4b0d-84ee-256b5067a04b","system_id":"levelo_inurba_marseille","lat":43.245581,"lon":5.395069,"is_reserved":false,"is_disabled":false,"rental_uris":{"android":"levelo://app?vid=2413cec9-5b34-4b0d-84ee-256b5067a04b","ios":"levelo://app?vid=2413cec9-5b34-4b0d-84ee-256b5067a04b"},"vehicle_type_id":"4","last_reported":1700640608,"current_range_meters":21200,"station_id":"ce4bhlp2rcd13ifvqgjg","pricing_plan_id":"free"},{"bike_id":"d9714043-fa90-4c83-b7e5-af41923ed906","system_id":"levelo_inurba_marseille","lat":43.240623,"lon":5.377642,"is_reserved":false,"is_disabled":false,"rental_uris":{"android":"levelo://app?vid=d9714043-fa90-4c83-b7e5-af41923ed906","ios":"levelo://app?vid=d9714043-fa90-4c83-b7e5-af41923ed906"},"vehicle_type_id":"4","last_reported":1700640608,"current_range_meters":21600,"station_id":"ce4bhnp2rcd13ifvqgvg","pricing_plan_id":"free"},{"bike_id":"fe783bcd-9ec4-46b5-9395-7577a253ca1b","system_id":"levelo_inurba_marseille","lat":43.240623,"lon":5.377642,"is_reserved":false,"is_disabled":false,"rental_uris":{"android":"levelo://app?vid=fe783bcd-9ec4-46b5-9395-7577a253ca1b","ios":"levelo://app?vid=fe783bcd-9ec4-46b5-9395-7577a253ca1b"},"vehicle_type_id":"4","last_reported":1700640608,"current_range_meters":1200,"station_id":"ce4bhnp2rcd13ifvqgvg","pricing_plan_id":"free"},