{"last_updated":1701072644,"ttl":30,"version":"2.2","data":{"bikes":[{"bike_id":"6d6fe16b-8fcd-4dda-95b2-f6e72b00fabb","system_id":"levelo_inurba_marseille","lat":43.313391,"lon":5.36706,"is_reserved":false,"is_disabled":false,"rental_uris":{"android":"levelo://app?vid=6d6fe16b-8fcd-4dda-95b2-f6e72b00fabb","ios":"levelo://app?vid=6d6fe16b-8fcd-4dda-95b2-f6e72b00fabb"},"vehicle_type_id":"4","last_reported":1701072644,"current_range_meters":27600,"station_id":"ce4bgr92rcd13ifvqc6g","pricing_plan_id":"free"},{"bike_id":"dbd22c5b-f318-460a-95cd-c007a476a760","system_id":"levelo_inurba_marseille","lat":43.31341,"lon":5.367098,"is_reserved":false,"is_disabled":false,"rental_uris":{"android":"levelo://app?vid=dbd22c5b-f318-460a-95cd-c007a476a760","ios":"levelo://app?vid=dbd22c5b-f318-460a-95cd-c007a476a760"},"vehicle_type_id":"4","last_reported":1701072644,"current_range_meters":25200,"station_id":"ce4bgr92rcd13ifvqc6g","pricing_plan_id":"free"},{"bike_id":"1e80ff6f-214d-452e-a1df-88c480549762","system_id":"levelo_inurba_marseille","lat":43.313391,"lon":5.36706,"is_reserved":false,"is_disabled":false,"rental_uris":{"android":"levelo://app?vid=1e80ff6f-214d-452e-a1df-88c480549762","ios":"levelo://app?vid=1e80ff6f-214d-452e-a1df-88c480549762"},"vehicle_type_id":"4","last_reported":1701072644,"current_range_meters":31200,"station_id":"ce4bgr92rcd13ifvqc6g","pricing_plan_id":"free"},{"bike_id":"db9a7054-537e-4d0b-9cd0-e439bf725d4d","system_id":"levelo_inurba_marseille","lat":43.313391,"lon":5.36706,"is_reserved":false,"is_disabled":false,"rental_uris":{"android":"levelo://app?vid=db9a7054-537e-4d0b-9cd0-e439bf725d4d","ios":"levelo://app?vid=db9a7054-537e-4d0b-9cd0-e439bf725d4d"},"vehicle_type_id":"4","last_reported":1701072644,"current_range_meters":22000,"station_id":"ce4bgr92rcd13ifvqc6g","pricing_plan_id":"free"},{"bike_id":"0181b0ac-1d1e-43e1-bcf7-6197a5307a14","system_id":"levelo_inurba_marseille","lat":43.313391,"lon":5.36706,"is_reserved":false,"is_disabled":false,"rental_uris":{"android":"levelo://app?vid=0181b0ac-1d1e-43e1-bcf7-6197a5307a14","ios":"levelo://app?vid=0181b0ac-1d1e-43e1-bcf7-6197a5307a14"},"vehicle_type_id":"4","last_reported":1701072644,"current_range_meters":31200,"station_id":"ce4bgr92rcd13ifvqc6g","pricing_plan_id":"free"},{"bike_id":"7a49c674-02e5-4194-aa5f-be20151e8ae9","system_id":"levelo_inurba_marseille","lat":43.313391,"lon":5.36706,"is_reserved":false,"is_disabled":false,"rental_uris":{"android":"levelo://app?vid=7a49c674-02e5-4194-aa5f-be20151e8ae9","ios":"levelo://app?vid=7a49c674-02e5-4194-aa5f-be20151e8ae9"},"vehicle_type_id":"4","last_reported":1701072644,"current_range_meters":19200,"station_id":"ce4bgr92rcd13ifvqc6g","pricing_plan_id":"free"},{"bike_id":"7e426172-5489-45eb-b667-9fa774e25806","system_id":"levelo_inurba_marseille","lat":43.313391,"lon":5.36706,"is_reserved":false,"is_disabled":false,"rental_uris":{"android":"levelo://app?vid=7e426172-5489-45eb-b667-9fa774e25806","ios":"levelo://app?vid=7e426172-5489-45eb-b667-9fa774e25806"},"vehicle_type_id":"4","last_reported":1701072644,"current_range_meters":18400,"station_id":"ce4bgr92rcd13ifvqc6g","pricing_plan_id":"free"},{"bike_id":"3214e857-702f-4f77-a7ed-15c1738fb98d","system_id":"levelo_inurba_marseille","lat":43.313391,"lon":5.36706,"is_reserved":false,"is_disabled":false,"rental_uris":{"android":"levelo://app?vid=3214e857-702f-4f77-a7ed-15c1738fb98d","ios":"levelo://app?vid=3214e857-702f-4f77-a7ed-15c1738fb98d"},"vehicle_type_id":"4","last_reported":1701072644,"current_range_meters":17200,"station_id":"ce4bgr92rcd13ifvqc6g","pricing_plan_id":"free"},{"bike_id":"0e07f4dc-f05c-4a47-a7fc-9cf5a2bc7aff","system_id":"levelo_inurba_marseille","lat":43.31341,"lon":5.367098,"is_reserved":false,"is_disabled":false,"rental_uris":{"android":"levelo://app?vid=0e07f4dc-f05c-4a47-a7fc-9cf5a2bc7aff","ios":"levelo://app?vid=0e07f4dc-f05c-4a47-a7fc-9cf5a2bc7aff"},"vehicle_type_id":"4","last_reported":1701072644,"current_range_meters":28400,"station_id":"ce4bgr92rcd13ifvqc6g","pricing_plan_id":"free"},{"bike_id":"196ffaf2-63f9-4e0e-beee-cd70322d6dc7","system_id":"levelo_inurba_marseille","lat":43.31341,"lon":5.367098,"is_reserved":false,"is_disabled":false,"rental_uris":{"android":"levelo://app?vid=196ffaf2-63f9-4e0e-beee-cd70322d6dc7","ios":"levelo://app?vid=196ffaf2-63f9-4e0e-beee-cd70322d6dc7"},"vehicle_type_id":"4","last_reported":1701072644,"current_range_meters":9600,"station_id":"ce4bgr92rcd13ifvqc6g","pricing_plan_id":"free"},{"bike_id":"d91cb1a5-9e69-484c-aa49-7e1232aa7a8e","system_id":"levelo_inurba_marseille","lat":43.31341,"lon":5.367098,"is_reserved":false,"is_disabled":false,"rental_uris":{"android":"levelo://app?vid=d91cb1a5-9e69-484c-aa49-7e1232aa7a8e","ios":"levelo://app?vid=d91cb1a5-9e69-484c-aa49-7e1232aa7a8e"},"vehicle_type_id":"4","last_reported":1701072644,"current_range_meters":4400,"station_id":"ce4bgr92rcd13ifvqc6g","pricing_plan_id":"free"},{"bike_id":"3f4bb95c-17eb-41cb-acba-031236674845","system_id":"levelo_inurba_marseille","lat":43.312239,"lon":5.368562,"is_reserved":false,"is_disabled":false,"rental_uris":{"android":"levelo://app?vid=3f4bb95c-17eb-41cb-acba-031236674845","ios":"levelo://app?vid=3f4bb95c-17eb-41cb-acba-031236674845"},"vehicle_type_id":"4","last_reported":1701072644,"current_range_meters":24800,"station_id":"ce4bgl92rcd13ifvqbq0","pricing_plan_id":"free"},{"bike_id":"5f626779-59bd-43fb-af78-243566591450","system_id":"levelo_inurba_marseille","lat":43.312239,"lon":5.368562,"is_reserved":false,"is_disabled":false,"rental_uris":{"android":"levelo://app?vid=5f626779-59bd-43fb-af78-243566591450","ios":"levelo://app?vid=5f626779-59bd-43fb-af78-243566591450"},"vehicle_type_id":"4","last_reported":1701072644,"current_range_meters":21600,"station_id":"ce4bgl92rcd13ifvqbq0","pricing_plan_id":"free"},{"bike_id":"54a3edee-7dd6-450a-95cb-5e8e3887766b","system_id":"levelo_inurba_marseille","lat":43.312239,"lon":5.368562,"is_reserved":false,"is_disabled":false,"rental_uris":{"android":"levelo://app?vid=54a3edee-7dd6-450a-95cb-5e8e3887766b","ios":"levelo://app?vid=54a3edee-7dd6-450a-95cb-5e8e3887766b"},"vehicle_type_id":"4","last_reported":1701072644,"current_range_meters":21200,"station_id":"ce4bgl92rcd13ifvqbq0","pricing_plan_id":"free"},{"bike_id":"12ba8f6d-2b00-46a4-b742-3c11d58ec4b2","system_id":"levelo_inurba_marseille","lat":43.312239,"lon":5.368562,"is_reserved":false,"is_disabled":false,"rental_uris":{"android":"levelo://app?vid=12ba8f6d-2b00-46a4-b742-3c11d58ec4b2","ios":"levelo://app?vid=12ba8f6d-2b00-46a4-b742-3c11d58ec4b2"},"vehicle_type_id":"4","last_reported":1701072644,"current_range_meters":12800,"station_id":"ce4bgl92rcd13ifvqbq0","pricing_plan_id":"free"},{"bike_id":"df7f1710-213d-4be5-86a8-93f4a5b41e94","system_id":"levelo_inurba_marseille","lat":43.312239,"lon":5.368562,"is_reserved":false,"is_disabled":false,"rental_uris":{"android":"levelo://app?vid=df7f1710-213d-4be5-86a8-93f4a5b41e94","ios":"levelo://app?vid=df7f1710-213d-4be5-86a8-93f4a5b41e94"},"vehicle_type_id":"4","last_reported":1701072644,"current_range_meters":29200,"station_id":"ce4bgl92rcd13ifvqbq0","pricing_plan_id":"free"},{"bike_id":"83ebfac8-dbe6-444d-b597-d89673b1bcc5","system_id":"levelo_inurba_marseille","lat":43.309076,"lon":5.368465,"is_reserved":false,"is_disabled":false,"rental_uris":{"android":"levelo://app?vid=83ebfac8-dbe6-444d-b597-d89673b1bcc5","ios":"levelo://app?vid=83ebfac8-dbe6-444d-b597-d89673b1bcc5"},"vehicle_type_id":"4","last_reported":1701072644,"current_range_meters":30000,"station_id":"ce4bgn92rcd13ifvqbvg","pricing_plan_id":"free"},{"bike_id":"c0bb7f49-ff87-427d-b841-623849910a14","system_id":"levelo_inurba_marseille","lat":43.309076,"lon":5.368465,"is_reserved":false,"is_disabled":false,"rental_uris":{"android":"levelo://app?vid=c0bb7f49-ff87-427d-b841-623849910a14","ios":"levelo://app?vid=c0bb7f49-ff87-427d-b841-623849910a14"},"vehicle_type_id":"4","last_reported":1701072644,"current_range_meters":23200,"station_id":"ce4bgn92rcd13ifvqbvg","pricing_plan_id":"free"},{"bike_id":"592bf423-8cd0-4d0b-97bd-bc6ceb739d49","system_id":"levelo_inurba_marseille","lat":43.309076,"lon":5.368465,"is_reserved":false,"is_disabled":false,"rental_uris":{"android":"levelo://app?vid=592bf423-8cd0-4d0b-97bd-bc6ceb739d49","ios":"levelo://app?vid=592bf423-8cd0-4d0b-97bd-bc6ceb739d49"},"vehicle_type_id":"4","last_reported":1701072644,"current_range_meters":26000,"station_id":"ce4bgn92rcd13ifvqbvg","pricing_plan_id":"free"},{"bike_id":"3b50e3b1-0c14-42f7-b53e-a8030e71f86b","system_id":"levelo_inurba_marseille","lat":43.309076,"lon":5.368465,"is_reserved":false,"is_disabled":false,"rental_uris":{"android":"levelo://app?vid=3b50e3b1-0c14-42f7-b53e-a8030e71f86b","ios":"levelo://app?vid=3b50e3b1-0c14-42f7-b53e-a8030e71f86b"},"vehicle_type_id":"4","last_reported":1701072644,"current_range_meters":6000,"station_id":"ce4bgn92rcd13ifvqbvg","pricing_plan_id":"free"},{"bike_id":"1a4569e2-f9a1-40c3-9474-5ecbcdd8e5ad","system_id":"levelo_inurba_marseille","lat":43.309076,"lon":5.368465,"is_reserved":false,"is_disabled":false,"rental_uris":{"android":"levelo://app?vid=1a4569e2-f9a1-40c3-9474-5ecbcdd8e5ad","ios":"levelo://app?vid=1a4569e2-f9a1-40c3-9474-5ecbcdd8e5ad"},"vehicle_type_id":"4","last_reported":1701072644,"current_range_meters":24800,"station_id":"ce4bgn92rcd13ifvqbvg","pricing_plan_id":"free"},{"bike_id":"8678b2b8-c06c-49e1-9031-4e114abe705f","system_id":"levelo_inurba_marseille","lat":43.309076,"lon":5.368465,"is_reserved":false,"is_disabled":false,"rental_uris":{"android":"levelo://app?vid=8678b2b8-c06c-49e1-9031-4e114abe705f","ios":"levelo://app?vid=8678b2b8-c06c-49e1-9031-4e114abe705f"},"vehicle_type_id":"4","last_reported":1701072644,"current_range_meters":29600,"station_id":"ce4bgn92rcd13ifvqbvg","pricing_plan_id":"free"},{"bike_id":"3a93330f-cf28-4a2a-b4ec-8c01fabe712c","system_id":"levelo_inurba_marseille","lat":43.30904,"lon":5.36846,"is_reserved":false,"is_disabled":false,"rental_uris":{"android":"levelo://app?vid=3a93330f-cf28-4a2a-b4ec-8c01fabe712c","ios":"levelo://app?vid=3a93330f-cf28-4a2a-b4ec-8c01fabe712c"},"vehicle_type_id":"4","last_reported":1701072644,"current_range_meters":15200,"station_id":"ce4bgn92rcd13ifvqbvg","pricing_plan_id":"free"},{"bike_id":"81ffdd85-4673-4f49-b9e9-370868a105db","system_id":"levelo_inurba_marseille","lat":43.309039,"lon":5.371797,"is_reserved":false,"is_disabled":false,"rental_uris":{"android":"levelo://app?vid=81ffdd85-4673-4f49-b9e9-370868a105db","ios":"levelo://app?vid=81ffdd85-4673-4f49-b9e9-370868a105db"},"vehicle_type_id":"4","last_reported":1701072644,"current_range_meters":8800,"station_id":"ce4bguh2rcd13ifvqckg","pricing_plan_id":"free"},{"bike_id":"935986d5-a138-44eb-9827-6dce0600acff","system_id":"levelo_inurba_marseille","lat":43.309039,"lon":5.371797,"is_reserved":false,"is_disabled":false,"rental_uris":{"android":"levelo://app?vid=935986d5-a138-44eb-9827-6dce0600acff","ios":"levelo://app?vid=935986d5-a138-44eb-9827-6dce0600acff"},"vehicle_type_id":"4","last_reported":1701072644,"current_range_meters":27200,"station_id":"ce4bguh2rcd13ifvqckg","pricing_plan_id":"free"},{"bike_id":"7f32ef9e-8b76-4487-a3a2-96f41a82eb37","system_id":"levelo_inurba_marseille","lat":43.309039,"lon":5.371797,"is_reserved":false,"is_disabled":false,"rental_uris":{"android":"levelo://app?vid=7f32ef9e-8b76-4487-a3a2-96f41a82eb37","ios":"levelo://app?vid=7f32ef9e-8b76-4487-a3a2-96f41a82eb37"},"vehicle_type_id":"4","last_reported":1701072644,"current_range_meters":30400,"station_id":"ce4bguh2rcd13ifvqckg","pricing_plan_id":"free"},{"bike_id":"fa4c08a8-f79b-4419-8791-02374ece74c7","system_id":"levelo_inurba_marseille","lat":43.31695,"lon":5.37267,"is_reserved":false,"is_disabled":false,"rental_uris":{"android":"levelo://app?vid=fa4c08a8-f79b-4419-8791-02374ece74c7","ios":"levelo://app?vid=fa4c08a8-f79b-4419-8791-02374ece74c7"},"vehicle_type_id":"4","last_reported":1701072644,"current_range_meters":6800,"station_id":"","pricing_plan_id":"free"},{"bike_id":"01680a82-507b-4f6a-aa52-433999b33490","system_id":"levelo_inurba_marseille","lat":43.305712,"lon":5.365641,"is_reserved":false,"is_disabled":false,"rental_uris":{"android":"levelo://app?vid=01680a82-507b-4f6a-aa52-433999b33490","ios":"levelo://app?vid=01680a82-507b-4f6a-aa52-433999b33490"},"vehicle_type_id":"4","last_reported":1701072644,"current_range_meters":26400,"station_id":"ce4bgs12rcd13ifvqcag","pricing_plan_id":"free"},{"bike_id":"197b67a4-a9ac-42b1-91a9-2afbb865edce","system_id":"levelo_inurba_marseille","lat":43.305706,"lon":5.365654,"is_reserved":false,"is_disabled":false,"rental_uris":{"android":"levelo://app?vid=197b67a4-a9ac-42b1-91a9-2afbb865edce","ios":"levelo://app?vid=197b67a4-a9ac-42b1-91a9-2afbb865edce"},"vehicle_type_id":"4","last_reported":1701072644,"current_range_meters":8000,"station_id":"ce4bgs12rcd13ifvqcag","pricing_plan_id":"free"},{"bike_id":"9798151f-f90c-4ba8-8293-cbf829f759b7","system_id":"levelo_inurba_marseille","lat":43.305706,"lon":5.365654,"is_reserved":false,"is_disabled":false,"rental_uris":{"android":"levelo://app?vid=9798151f-f90c-4ba8-8293-cbf829f759b7","ios":"levelo://app?vid=9798151f-f90c-4ba8-8293-cbf829f759b7"},"vehicle_type_id":"4","last_reported":1701072644,"current_range_meters":16800,"station_id":"ce4bgs12rcd13ifvqcag","pricing_plan_id":"free"},{"bike_id":"e0b40d04-e792-47a2-88a0-fe7ece8e5aec","system_id":"levelo_inurba_marseille","lat":43.3054,"lon":5.367,"is_reserved":false,"is_disabled":false,"rental_uris":{"android":"levelo://app?vid=e0b40d04-e792-47a2-88a0-fe7ece8e5aec","ios":"levelo://app?vid=e0b40d04-e792-47a2-88a0-fe7ece8e5aec"},"vehicle_type_id":"4","last_reported":1701072644,"current_range_meters":19600,"station_id":"ce4bgrp2rcd13ifvqc9g","pricing_plan_id":"free"},{"bike_id":"d783f12e-d0e4-46f2-9f03-268448d77314","system_id":"levelo_inurba_marseille","lat":43.305368,"lon":5.367343,"is_reserved":false,"is_disabled":false,"rental_uris":{"android":"levelo://app?vid=d783f12e-d0e4-46f2-9f03-268448d77314","ios":"levelo://app?vid=d783f12e-d0e4-46f2-9f03-268448d77314"},"vehicle_type_id":"4","last_reported":1701072644,"current_range_meters":17600,"station_id":"ce4bgrp2rcd13ifvqc9g","pricing_plan_id":"free"},{"bike_id":"e986844b-901f-45bc-ad75-e081ca31eb3c","system_id":"levelo_inurba_marseille","lat":43.305714,"lon":5.365633,"is_reserved":false,"is_disabled":false,"rental_uris":{"android":"levelo://app?vid=e986844b-901f-45bc-ad75-e081ca31eb3c","ios":"levelo://app?vid=e986844b-901f-45bc-ad75-e081ca31eb3c"},"vehicle_type_id":"4","last_reported":1701072644,"current_range_meters":25600,"station_id":"ce4bgs12rcd13ifvqcag","pricing_plan_id":"free"},{"bike_id":"f76f91fc-a8e2-4cd3-980d-1622fb650a47","system_id":"levelo_inurba_marseille","lat":43.305706,"lon":5.365654,"is_reserved":false,"is_disabled":false,"rental_uris":{"android":"levelo://app?vid=f76f91fc-a8e2-4cd3-980d-1622fb650a47","ios":"levelo://app?vid=f76f91fc-a8e2-4cd3-980d-1622fb650a47"},"vehicle_type_id":"4","last_reported":1701072644,"current_range_meters":25200,"station_id":"ce4bgs12rcd13ifvqcag","pricing_plan_id":"free"},{"bike_id":"f8e46a7e-6953-452a-80e1-dd49ee8b550c","system_id":"levelo_inurba_marseille","lat":43.305368,"lon":5.367343,"is_reserved":false,"is_disabled":false,"rental_uris":{"android":"levelo://app?vid=f8e46a7e-6953-452a-80e1-dd49ee8b550c","ios":"levelo://app?vid=f8e46a7e-6953-452a-80e1-dd49ee8b550c"},"vehicle_type_id":"4","last_reported":1701072644,"current_range_meters":28400,"station_id":"ce4bgrp2rcd13ifvqc9g","pricing_plan_id":"free"},{"bike_id":"07dd9e58-e5cc-4d6a-b664-833180db3f6b","system_id":"levelo_inurba_marseille","lat":43.305368,"lon":5.367343,"is_reserved":false,"is_disabled":false,"rental_uris":{"android":"levelo://app?vid=07dd9e58-e5cc-4d6a-b664-833180db3f6b","ios":"levelo://app?vid=07dd9e58-e5cc-4d6a-b664-833180db3f6b"},"vehicle_type_id":"4","last_reported":1701072644,"current_range_meters":24400,"station_id":"ce4bgrp2rcd13ifvqc9g","pricing_plan_id":"free"},{"bike_id":"9d01288a-b778-4e24-9b58-220029914c9c","system_id":"levelo_inurba_marseille","lat":43.305706,"lon":5.365654,"is_reserved":false,"is_disabled":false,"rental_uris":{"android":"levelo://app?vid=9d01288a-b778-4e24-9b58-220029914c9c","ios":"levelo://app?vid=9d01288a-b778-4e24-9b58-220029914c9c"},"vehicle_type_id":"4","last_reported":1701072644,"current_range_meters":27600,"station_id":"ce4bgs12rcd13ifvqcag","pricing_plan_id":"free"},{"bike_id":"f6811842-2f1e-46ac-a3b0-f0446229545b","system_id":"levelo_inurba_marseille","lat":43.305368,"lon":5.367343,"is_reserved":false,"is_disabled":false,"rental_uris":{"android":"levelo://app?vid=f6811842-2f1e-46ac-a3b0-f0446229545b","ios":"levelo://app?vid=f6811842-2f1e-46ac-a3b0-f0446229545b"},"vehicle_type_id":"4","last_reported":1701072644,"current_range_meters":28000,"station_id":"ce4bgrp2rcd13ifvqc9g","pricing_plan_id":"free"},{"bike_id":"a7e7b01c-cece-48de-97be-e5c04ce16e86","system_id":"levelo_inurba_marseille","lat":43.305706,"lon":5.365654,"is_reserved":false,"is_disabled":false,"rental_uris":{"android":"levelo://app?vid=a7e7b01c-cece-48de-97be-e5c04ce16e86","ios":"levelo://app?vid=a7e7b01c-cece-48de-97be-e5c04ce16e86"},"vehicle_type_id":"4","last_reported":1701072644,"current_range_meters":22000,"station_id":"ce4bgs12rcd13ifvqcag","pricing_plan_id":"free"},{"bike_id":"9fe00c74-8b57-4511-aea7-8ad72fa7a323","system_id":"levelo_inurba_marseille","lat":43.305706,"lon":5.365654,"is_reserved":false,"is_disabled":false,"rental_uris":{"android":"levelo://app?vid=9fe00c74-8b57-4511-aea7-8ad72fa7a323","ios":"levelo://app?vid=9fe00c74-8b57-4511-aea7-8ad72fa7a323"},"vehicle_type_id":"4","last_reported":1701072644,"current_range_meters":18000,"station_id":"ce4bgs12rcd13ifvqcag","pricing_plan_id":"free"},{"bike_id":"b8e365a6-6a66-4a78-b657-345f5ded0eac","system_id":"levelo_inurba_marseille","lat":43.30529,"lon":5.36722,"is_reserved":false,"is_disabled":false,"rental_uris":{"android":"levelo://app?vid=b8e365a6-6a66-4a78-b657-345f5ded0eac","ios":"levelo://app?vid=b8e365a6-6a66-4a78-b657-345f5ded0eac"},"vehicle_type_id":"4","last_reported":1701072644,"current_range_meters":14400,"station_id":"ce4bgrp2rcd13ifvqc9g","pricing_plan_id":"free"},{"bike_id":"1e704650-e46b-4c96-8a2f-660240057434","system_id":"levelo_inurba_marseille","lat":43.305706,"lon":5.365654,"is_reserved":false,"is_disabled":false,"rental_uris":{"android":"levelo://app?vid=1e704650-e46b-4c96-8a2f-660240057434","ios":"levelo://app?vid=1e704650-e46b-4c96-8a2f-660240057434"},"vehicle_type_id":"4","last_reported":1701072644,"current_range_meters":29200,"station_id":"ce4bgs12rcd13ifvqcag","pricing_plan_id":"free"},{"bike_id":"a178d0dc-f1a4-44e9-a3a5-7b90431c6dd4","system_id":"levelo_inurba_marseille","lat":43.306032,"lon":5.372206,"is_reserved":false,"is_disabled":false,"rental_uris":{"android":"levelo://app?vid=a178d0dc-f1a4-44e9-a3a5-7b90431c6dd4","ios":"levelo://app?vid=a178d0dc-f1a4-44e9-a3a5-7b90431c6dd4"},"vehicle_type_id":"4","last_reported":1701072644,"current_range_meters":0,"station_id":"ce4bgqh2rcd13ifvqc4g","pricing_plan_id":"free"},{"bike_id":"2268a2f4-fb49-46e5-bac7-c552d506e322","system_id":"levelo_inurba_marseille","lat":43.305706,"lon":5.365654,"is_reserved":false,"is_disabled":false,"rental_uris":{"android":"levelo://app?vid=2268a2f4-fb49-46e5-bac7-c552d506e322","ios":"levelo://app?vid=2268a2f4-fb49-46e5-bac7-c552d506e322"},"vehicle_type_id":"4","last_reported":1701072644,"current_range_meters":18000,"station_id":"ce4bgs12rcd13ifvqcag","pricing_plan_id":"free"},{"bike_id":"f88b8326-60c7-4393-83d2-f3d0d4983bf2","system_id":"levelo_inurba_marseille","lat":43.307945,"lon":5.376487,"is_reserved":false,"is_disabled":false,"rental_uris":{"android":"levelo://app?vid=f88b8326-60c7-4393-83d2-f3d0d4983bf2","ios":"levelo://app?vid=f88b8326-60c7-4393-83d2-f3d0d4983bf2"},"vehicle_type_id":"4","last_reported":1701072644,"current_range_meters":30000,"station_id":"ce4bgv92rcd13ifvqcq0","pricing_plan_id":"free"},{"bike_id":"f427a2c3-6e4a-446b-ae2f-9be8aa7f4122","system_id":"levelo_inurba_marseille","lat":43.31719,"lon":5.376813,"is_reserved":false,"is_disabled":false,"rental_uris":{"android":"levelo://app?vid=f427a2c3-6e4a-446b-ae2f-9be8aa7f4122","ios":"levelo://app?vid=f427a2c3-6e4a-446b-ae2f-9be8aa7f4122"},"vehicle_type_id":"4","last_reported":1701072644,"current_range_meters":18000,"station_id":"ce4bgth2rcd13ifvqch0","pricing_plan_id":"free"},{"bike_id":"e913f328-1e31-4c22-bd87-f809ea246de4","system_id":"levelo_inurba_marseille","lat":43.317168,"lon":5.376883,"is_reserved":false,"is_disabled":false,"rental_uris":{"android":"levelo://app?vid=e913f328-1e31-4c22-bd87-f809ea246de4","ios":"levelo://app?vid=e913f328-1e31-4c22-bd87-f809ea246de4"},"vehicle_type_id":"4","last_reported":1701072644,"current_range_meters":20400,"station_id":"ce4bgth2rcd13ifvqch0","pricing_plan_id":"free"},{"bike_id":"4960cd84-5f51-4fcb-bf4f-043f77c0faa0","system_id":"levelo_inurba_marseille","lat":43.311514,"lon":5.378611,"is_reserved":false,"is_disabled":false,"rental_uris":{"android":"levelo://app?vid=4960cd84-5f51-4fcb-bf4f-043f77c0faa0","ios":"levelo://app?vid=4960cd84-5f51-4fcb-bf4f-043f77c0faa0"},"vehicle_type_id":"4","last_reported":1701072644,"current_range_meters":14400,"station_id":"","pricing_plan_id":"free"},{"bike_id":"bfa44d10-2349-4e3f-b242-25cbd14230cc","system_id":"levelo_inurba_marseille","lat":43.31706,"lon":5.37742,"is_reserved":false,"is_disabled":false,"rental_uris":{"android":"levelo://app?vid=bfa44d10-2349-4e3f-b242-25cbd14230cc","ios":"levelo://app?vid=bfa44d10-2349-4e3f-b242-25cbd14230cc"},"vehicle_type_id":"4","last_reported":1701072644,"current_range_meters":13200,"station_id":"ce4bgth2rcd13ifvqch0","pricing_plan_id":"free"},{"bike_id":"a80f348a-adbe-415b-8175-efc5cebf9a3a","system_id":"levelo_inurba_marseille","lat":43.31713,"lon":5.3776,"is_reserved":false,"is_disabled":false,"rental_uris":{"android":"levelo://app?vid=a80f348a-adbe-415b-8175-efc5cebf9a3a","ios":"levelo://app?vid=a80f348a-adbe-415b-8175-efc5cebf9a3a"},"vehicle_type_id":"4","last_reported":1701072644,"current_range_meters":31200,"station_id":"ce4bgth2rcd13ifvqch0","pricing_plan_id":"free"},{"bike_id":"b2631c2d-aefa-43ad-9f85-b96d4b842324","system_id":"levelo_inurba_marseille","lat":43.301939,"lon":5.366286,"is_reserved":false,"is_disabled":false,"rental_uris":{"android":"levelo://app?vid=b2631c2d-aefa-43ad-9f85-b96d4b842324","ios":"levelo://app?vid=b2631c2d-aefa-43ad-9f85-b96d4b842324"},"vehicle_type_id":"4","last_reported":1701072644,"current_range_meters":22000,"station_id":"ce4bgrh2rcd13ifvqc8g","pricing_plan_id":"free"},{"bike_id":"fa07ec94-fe6b-446f-b694-4825bda29c5c","system_id":"levelo_inurba_marseille","lat":43.301939,"lon":5.366286,"is_reserved":false,"is_disabled":false,"rental_uris":{"android":"levelo://app?vid=fa07ec94-fe6b-446f-b694-4825bda29c5c","ios":"levelo://app?vid=fa07ec94-fe6b-446f-b694-4825bda29c5c"},"vehicle_type_id":"4","last_reported":1701072644,"current_range_meters":24000,"station_id":"ce4bgrh2rcd13ifvqc8g","pricing_plan_id":"free"},{"bike_id":"76eae722-f0b3-4e5f-9cc7-9259ead89bd7","system_id":"levelo_inurba_marseille","lat":43.308019,"lon":5.381552,"is_reserved":false,"is_disabled":false,"rental_uris":{"android":"levelo://app?vid=76eae722-f0b3-4e5f-9cc7-9259ead89bd7","ios":"levelo://app?vid=76eae722-f0b3-4e5f-9cc7-9259ead89bd7"},"vehicle_type_id":"4","last_reported":1701072644,"current_range_meters":17600,"station_id":"ce4bgt12rcd13ifvqce0","pricing_plan_id":"free"},{"bike_id":"9ef12bf0-9bd2-4cd2-a149-17cb72f97fd9","system_id":"levelo_inurba_marseille","lat":43.304606,"lon":5.379026,"is_reserved":false,"is_disabled":false,"rental_uris":{"android":"levelo://app?vid=9ef12bf0-9bd2-4cd2-a149-17cb72f97fd9","ios":"levelo://app?vid=9ef12bf0-9bd2-4cd2-a149-17cb72f97fd9"},"vehicle_type_id":"4","last_reported":1701072644,"current_range_meters":24000,"station_id":"ce4bgup2rcd13ifvqcn0","pricing_plan_id":"free"},{"bike_id":"12bcca98-137c-4967-bb9e-0aa1d2c46e6c","system_id":"levelo_inurba_marseille","lat":43.30464,"lon":5.37905,"is_reserved":false,"is_disabled":false,"rental_uris":{"android":"levelo://app?vid=12bcca98-137c-4967-bb9e-0aa1d2c46e6c","ios":"levelo://app?vid=12bcca98-137c-4967-bb9e-0aa1d2c46e6c"},"vehicle_type_id":"4","last_reported":1701072644,"current_range_meters":18400,"station_id":"ce4bgup2rcd13ifvqcn0","pricing_plan_id":"free"},{"bike_id":"82f10184-e5af-4ca4-9b00-eee707467f33","system_id":"levelo_inurba_marseille","lat":43.301429,"lon":5.37413,"is_reserved":false,"is_disabled":false,"rental_uris":{"android":"levelo://app?vid=82f10184-e5af-4ca4-9b00-eee707467f33","ios":"levelo://app?vid=82f10184-e5af-4ca4-9b00-eee707467f33"},"vehicle_type_id":"4","last_reported":1701072644,"current_range_meters":0,"station_id":"ce4bgs92rcd13ifvqcc0","pricing_plan_id":"free"},{"bike_id":"da5ccd1c-a685-4367-a4a2-f93987dd0564","system_id":"levelo_inurba_marseille","lat":43.30143,"lon":5.37413,"is_reserved":false,"is_disabled":false,"rental_uris":{"android":"levelo://app?vid=da5ccd1c-a685-4367-a4a2-f93987dd0564","ios":"levelo://app?vid=da5ccd1c-a685-4367-a4a2-f93987dd0564"},"vehicle_type_id":"4","last_reported":1701072644,"current_range_meters":14000,"station_id":"ce4bgs92rcd13ifvqcc0","pricing_plan_id":"free"},{"bike_id":"6f032d47-4045-4984-b430-cf000b6b3e5d","system_id":"levelo_inurba_marseille","lat":43.30143,"lon":5.37413,"is_reserved":false,"is_disabled":false,"rental_uris":{"android":"levelo://app?vid=6f032d47-4045-4984-b430-cf000b6b3e5d","ios":"levelo://app?vid=6f032d47-4045-4984-b430-cf000b6b3e5d"},"vehicle_type_id":"4","last_reported":1701072644,"current_range_meters":17600,"station_id":"ce4bgs92rcd13ifvqcc0","pricing_plan_id":"free"},{"bike_id":"b7113de1-9e3a-489e-a491-5b869c44e4a4","system_id":"levelo_inurba_marseille","lat":43.302784,"lon":5.377158,"is_reserved":false,"is_disabled":false,"rental_uris":{"android":"levelo://app?vid=b7113de1-9e3a-489e-a491-5b869c44e4a4","ios":"levelo://app?vid=b7113de1-9e3a-489e-a491-5b869c44e4a4"},"vehicle_type_id":"4","last_reported":1701072644,"current_range_meters":24800,"station_id":"ce4bguh2rcd13ifvqcj0","pricing_plan_id":"free"},{"bike_id":"83c01ea3-1a20-4a6f-944b-833be987b804","system_id":"levelo_inurba_marseille","lat":43.30546,"lon":5.38086,"is_reserved":false,"is_disabled":false,"rental_uris":{"android":"levelo://app?vid=83c01ea3-1a20-4a6f-944b-833be987b804","ios":"levelo://app?vid=83c01ea3-1a20-4a6f-944b-833be987b804"},"vehicle_type_id":"4","last_reported":1701072644,"current_range_meters":7600,"station_id":"","pricing_plan_id":"free"},{"bike_id":"2da02859-2ecd-45a6-af3d-2deb967e9f35","system_id":"levelo_inurba_marseille","lat":43.302784,"lon":5.377158,"is_reserved":false,"is_disabled":false,"rental_uris":{"android":"levelo://app?vid=2da02859-2ecd-45a6-af3d-2deb967e9f35","ios":"levelo://app?vid=2da02859-2ecd-45a6-af3d-2deb967e9f35"},"vehicle_type_id":"4","last_reported":1701072644,"current_range_meters":14000,"station_id":"ce4bguh2rcd13ifvqcj0","pricing_plan_id":"free"},{"bike_id":"25c52cee-b0ce-440c-8883-50f74b09caae","system_id":"levelo_inurba_marseille","lat":43.302784,"lon":5.377158,"is_reserved":false,"is_disabled":false,"rental_uris":{"android":"levelo://app?vid=25c52cee-b0ce-440c-8883-50f74b09caae","ios":"levelo://app?vid=25c52cee-b0ce-440c-8883-50f74b09caae"},"vehicle_type_id":"4","last_reported":1701072644,"current_range_meters":22800,"station_id":"ce4bguh2rcd13ifvqcj0","pricing_plan_id":"free"},{"bike_id":"59267566-9818-45a0-89b1-d73b55904de5","system_id":"levelo_inurba_marseille","lat":43.319935,"lon":5.381699,"is_reserved":false,"is_disabled":false,"rental_uris":{"android":"levelo://app?vid=59267566-9818-45a0-89b1-d73b55904de5","ios":"levelo://app?vid=59267566-9818-45a0-89b1-d73b55904de5"},"vehicle_type_id":"4","last_reported":1701072644,"current_range_meters":17600,"station_id":"ce4bhr12rcd13ifvqhpg","pricing_plan_id":"free"},{"bike_id":"981224f2-722a-45e4-bb38-22ae7ba6910b","system_id":"levelo_inurba_marseille","lat":43.298433,"lon":5.362774,"is_reserved":false,"is_disabled":false,"rental_uris":{"android":"levelo://app?vid=981224f2-722a-45e4-bb38-22ae7ba6910b","ios":"levelo://app?vid=981224f2-722a-45e4-bb38-22ae7ba6910b"},"vehicle_type_id":"4","last_reported":1701072644,"current_range_meters":21600,"station_id":"ce4bgpp2rcd13ifvqc3g","pricing_plan_id":"free"},{"bike_id":"4dfe0b50-1a07-4147-9402-7c7abf3df656","system_id":"levelo_inurba_marseille","lat":43.298433,"lon":5.362774,"is_reserved":false,"is_disabled":false,"rental_uris":{"android":"levelo://app?vid=4dfe0b50-1a07-4147-9402-7c7abf3df656","ios":"levelo://app?vid=4dfe0b50-1a07-4147-9402-7c7abf3df656"},"vehicle_type_id":"4","last_reported":1701072644,"current_range_meters":23600,"station_id":"ce4bgpp2rcd13ifvqc3g","pricing_plan_id":"free"},{"bike_id":"a7fe4f51-10ec-45d6-82aa-98fc9fcfffbc","system_id":"levelo_inurba_marseille","lat":43.298433,"lon":5.362774,"is_reserved":false,"is_disabled":false,"rental_uris":{"android":"levelo://app?vid=a7fe4f51-10ec-45d6-82aa-98fc9fcfffbc","ios":"levelo://app?vid=a7fe4f51-10ec-45d6-82aa-98fc9fcfffbc"},"vehicle_type_id":"4","last_reported":1701072644,"current_range_meters":15600,"station_id":"ce4bgpp2rcd13ifvqc3g","pricing_plan_id":"free"},{"bike_id":"56815df7-a60d-48ec-9c7d-8227e1e6cf88","system_id":"levelo_inurba_marseille","lat":43.29842,"lon":5.36269,"is_reserved":false,"is_disabled":false,"rental_uris":{"android":"levelo://app?vid=56815df7-a60d-48ec-9c7d-8227e1e6cf88","ios":"levelo://app?vid=56815df7-a60d-48ec-9c7d-8227e1e6cf88"},"vehicle_type_id":"4","last_reported":1701072644,"current_range_meters":0,"station_id":"ce4bgpp2rcd13ifvqc3g","pricing_plan_id":"free"},{"bike_id":"5c2bb0ae-ace7-440a-9fb5-e546be3c46f1","system_id":"levelo_inurba_marseille","lat":43.297794,"lon":5.370888,"is_reserved":false,"is_disabled":false,"rental_uris":{"android":"levelo://app?vid=5c2bb0ae-ace7-440a-9fb5-e546be3c46f1","ios":"levelo://app?vid=5c2bb0ae-ace7-440a-9fb5-e546be3c46f1"},"vehicle_type_id":"4","last_reported":1701072644,"current_range_meters":25600,"station_id":"ce4bgop2rcd13ifvqc1g","pricing_plan_id":"free"},{"bike_id":"7ab5f7ed-0017-4fc9-a467-fe2d0c256128","system_id":"levelo_inurba_marseille","lat":43.31514,"lon":5.38932,"is_reserved":false,"is_disabled":false,"rental_uris":{"android":"levelo://app?vid=7ab5f7ed-0017-4fc9-a467-fe2d0c256128","ios":"levelo://app?vid=7ab5f7ed-0017-4fc9-a467-fe2d0c256128"},"vehicle_type_id":"4","last_reported":1701072644,"current_range_meters":29200,"station_id":"","pricing_plan_id":"free"},{"bike_id":"8eb99f99-b944-4964-96f2-e263cd7c52fc","system_id":"levelo_inurba_marseille","lat":43.29581,"lon":5.3675,"is_reserved":false,"is_disabled":false,"rental_uris":{"android":"levelo://app?vid=8eb99f99-b944-4964-96f2-e263cd7c52fc","ios":"levelo://app?vid=8eb99f99-b944-4964-96f2-e263cd7c52fc"},"vehicle_type_id":"4","last_reported":1701072644,"current_range_meters":24400,"station_id":"ce4bgph2rcd13ifvqc2g","pricing_plan_id":"free"},{"bike_id":"023f70cc-ca19-45cd-89aa-44acb25d1f45","system_id":"levelo_inurba_marseille","lat":43.296921,"lon":5.376579,"is_reserved":false,"is_disabled":false,"rental_uris":{"android":"levelo://app?vid=023f70cc-ca19-45cd-89aa-44acb25d1f45","ios":"levelo://app?vid=023f70cc-ca19-45cd-89aa-44acb25d1f45"},"vehicle_type_id":"4","last_reported":1701072644,"current_range_meters":28000,"station_id":"ce4bgkh2rcd13ifvqbl0","pricing_plan_id":"free"},{"bike_id":"d6cbac27-4150-45d4-9fa8-20a46af5d659","system_id":"levelo_inurba_marseille","lat":43.309589,"lon":5.390258,"is_reserved":false,"is_disabled":false,"rental_uris":{"android":"levelo://app?vid=d6cbac27-4150-45d4-9fa8-20a46af5d659","ios":"levelo://app?vid=d6cbac27-4150-45d4-9fa8-20a46af5d659"},"vehicle_type_id":"4","last_reported":1701072644,"current_range_meters":22800,"station_id":"ce4bgup2rcd13ifvqco0","pricing_plan_id":"free"},{"bike_id":"f9782c71-005e-401f-957d-11033cdf34fc","system_id":"levelo_inurba_marseille","lat":43.317557,"lon":5.390173,"is_reserved":false,"is_disabled":false,"rental_uris":{"android":"levelo://app?vid=f9782c71-005e-401f-957d-11033cdf34fc","ios":"levelo://app?vid=f9782c71-005e-401f-957d-11033cdf34fc"},"vehicle_type_id":"4","last_reported":1701072644,"current_range_meters":30800,"station_id":"ce4bhqp2rcd13ifvqhng","pricing_plan_id":"free"},{"bike_id":"239c7631-dca0-4beb-bc14-f4a38faf1455","system_id":"levelo_inurba_marseille","lat":43.295748,"lon":5.37522,"is_reserved":false,"is_disabled":false,"rental_uris":{"android":"levelo://app?vid=239c7631-dca0-4beb-bc14-f4a38faf1455","ios":"levelo://app?vid=239c7631-dca0-4beb-bc14-f4a38faf1455"},"vehicle_type_id":"4","last_reported":1701072644,"current_range_meters":20400,"station_id":"ce4bgh92rcd13ifvqb50","pricing_plan_id":"free"},{"bike_id":"6b621983-5e9e-42f7-990d-ad5a093820d2","system_id":"levelo_inurba_marseille","lat":43.293801,"lon":5.363066,"is_reserved":false,"is_disabled":false,"rental_uris":{"android":"levelo://app?vid=6b621983-5e9e-42f7-990d-ad5a093820d2","ios":"levelo://app?vid=6b621983-5e9e-42f7-990d-ad5a093820d2"},"vehicle_type_id":"4","last_reported":1701072644,"current_range_meters":0,"station_id":"","pricing_plan_id":"free"},{"bike_id":"bebf5df7-2588-4a73-b10f-cea641c3dc74","system_id":"levelo_inurba_marseille","lat":43.32364,"lon":5.38891,"is_reserved":false,"is_disabled":false,"rental_uris":{"android":"levelo://app?vid=bebf5df7-2588-4a73-b10f-cea641c3dc74","ios":"levelo://app?vid=bebf5df7-2588-4a73-b10f-cea641c3dc74"},"vehicle_type_id":"4","last_reported":1701072644,"current_range_meters":10000,"station_id":"ce4bhqp2rcd13ifvqhog","pricing_plan_id":"free"},{"bike_id":"280675b5-e357-45b4-b101-210e9fcb10a0","system_id":"levelo_inurba_marseille","lat":43.32367,"lon":5.38891,"is_reserved":false,"is_disabled":false,"rental_uris":{"android":"levelo://app?vid=280675b5-e357-45b4-b101-210e9fcb10a0","ios":"levelo://app?vid=280675b5-e357-45b4-b101-210e9fcb10a0"},"vehicle_type_id":"4","last_reported":1701072644,"current_range_meters":24400,"station_id":"ce4bhqp2rcd13ifvqhog","pricing_plan_id":"free"},{"bike_id":"5d9805a9-576e-4762-a071-3721746b42eb","system_id":"levelo_inurba_marseille","lat":43.29602,"lon":5.381084,"is_reserved":false,"is_disabled":false,"rental_uris":{"android":"levelo://app?vid=5d9805a9-576e-4762-a071-3721746b42eb","ios":"levelo://app?vid=5d9805a9-576e-4762-a071-3721746b42eb"},"vehicle_type_id":"4","last_reported":1701072644,"current_range_meters":12800,"station_id":"ce4bgl12rcd13ifvqbo0","pricing_plan_id":"free"},{"bike_id":"ddd61bce-03d4-4f1e-8020-8ef45188a057","system_id":"levelo_inurba_marseille","lat":43.29989,"lon":5.38795,"is_reserved":false,"is_disabled":false,"rental_uris":{"android":"levelo://app?vid=ddd61bce-03d4-4f1e-8020-8ef45188a057","ios":"levelo://app?vid=ddd61bce-03d4-4f1e-8020-8ef45188a057"},"vehicle_type_id":"4","last_reported":1701072644,"current_range_meters":16400,"station_id":"","pricing_plan_id":"free"},{"bike_id":"718a3ba0-1a80-484e-b0b7-a4d9fcb65f67","system_id":"levelo_inurba_marseille","lat":43.29277,"lon":5.3685,"is_reserved":false,"is_disabled":false,"rental_uris":{"android":"levelo://app?vid=718a3ba0-1a80-484e-b0b7-a4d9fcb65f67","ios":"levelo://app?vid=718a3ba0-1a80-484e-b0b7-a4d9fcb65f67"},"vehicle_type_id":"4","last_reported":1701072644,"current_range_meters":9200,"station_id":"ce4bhbp2rcd13ifvqesg","pricing_plan_id":"free"},{"bike_id":"6b160b69-fad1-4059-a32a-fc0a73ba7217","system_id":"levelo_inurba_marseille","lat":43.303002,"lon":5.392142,"is_reserved":false,"is_disabled":false,"rental_uris":{"android":"levelo://app?vid=6b160b69-fad1-4059-a32a-fc0a73ba7217","ios":"levelo://app?vid=6b160b69-fad1-4059-a32a-fc0a73ba7217"},"vehicle_type_id":"4","last_reported":1701072644,"current_range_meters":24400,"station_id":"ce4bgkh2rcd13ifvqbk0","pricing_plan_id":"free"},{"bike_id":"f967b4ea-d27b-49d6-b0c4-f6beed12c595","system_id":"levelo_inurba_marseille","lat":43.2936,"lon":5.37835,"is_reserved":false,"is_disabled":false,"rental_uris":{"android":"levelo://app?vid=f967b4ea-d27b-49d6-b0c4-f6beed12c595","ios":"levelo://app?vid=f967b4ea-d27b-49d6-b0c4-f6beed12c595"},"vehicle_type_id":"4","last_reported":1701072644,"current_range_meters":31200,"station_id":"ce4bgjh2rcd13ifvqbf0","pricing_plan_id":"free"},{"bike_id":"cc02c90b-83bf-4690-a70d-abe3b0dd0e33","system_id":"levelo_inurba_marseille","lat":43.2936,"lon":5.37835,"is_reserved":false,"is_disabled":false,"rental_uris":{"android":"levelo://app?vid=cc02c90b-83bf-4690-a70d-abe3b0dd0e33","ios":"levelo://app?vid=cc02c90b-83bf-4690-a70d-abe3b0dd0e33"},"vehicle_type_id":"4","last_reported":1701072644,"current_range_meters":7200,"station_id":"ce4bgjh2rcd13ifvqbf0","pricing_plan_id":"free"},{"bike_id":"d20e7a74-3e56-4dcc-90c3-11488ece7450","system_id":"levelo_inurba_marseille","lat":43.292311,"lon":5.360731,"is_reserved":false,"is_disabled":false,"rental_uris":{"android":"levelo://app?vid=d20e7a74-3e56-4dcc-90c3-11488ece7450","ios":"levelo://app?vid=d20e7a74-3e56-4dcc-90c3-11488ece7450"},"vehicle_type_id":"4","last_reported":1701072644,"current_range_meters":24400,"station_id":"ce4bhbh2rcd13ifvqeqg","pricing_plan_id":"free"},{"bike_id":"bb832454-b5fe-497d-b77e-d5a9d8b471a2","system_id":"levelo_inurba_marseille","lat":43.292663,"lon":5.376389,"is_reserved":false,"is_disabled":false,"rental_uris":{"android":"levelo://app?vid=bb832454-b5fe-497d-b77e-d5a9d8b471a2","ios":"levelo://app?vid=bb832454-b5fe-497d-b77e-d5a9d8b471a2"},"vehicle_type_id":"4","last_reported":1701072644,"current_range_meters":13600,"station_id":"ce4bgi12rcd13ifvqb80","pricing_plan_id":"free"},{"bike_id":"1df8e798-006b-48c4-8a25-e63f8265f5cb","system_id":"levelo_inurba_marseille","lat":43.292663,"lon":5.376389,"is_reserved":false,"is_disabled":false,"rental_uris":{"android":"levelo://app?vid=1df8e798-006b-48c4-8a25-e63f8265f5cb","ios":"levelo://app?vid=1df8e798-006b-48c4-8a25-e63f8265f5cb"},"vehicle_type_id":"4","last_reported":1701072644,"current_range_meters":14800,"station_id":"ce4bgi12rcd13ifvqb80","pricing_plan_id":"free"},{"bike_id":"e1f78478-5c22-465f-88f5-a495cb233ce3","system_id":"levelo_inurba_marseille","lat":43.2919,"lon":5.35809,"is_reserved":false,"is_disabled":false,"rental_uris":{"android":"levelo://app?vid=e1f78478-5c22-465f-88f5-a495cb233ce3","ios":"levelo://app?vid=e1f78478-5c22-465f-88f5-a495cb233ce3"},"vehicle_type_id":"4","last_reported":1701072644,"current_range_meters":15200,"station_id":"ce4bhb12rcd13ifvqel0","pricing_plan_id":"free"},{"bike_id":"717d4055-f28c-4c9a-b90f-1ca6c6107aa3","system_id":"levelo_inurba_marseille","lat":43.29196,"lon":5.35775,"is_reserved":false,"is_disabled":false,"rental_uris":{"android":"levelo://app?vid=717d4055-f28c-4c9a-b90f-1ca6c6107aa3","ios":"levelo://app?vid=717d4055-f28c-4c9a-b90f-1ca6c6107aa3"},"vehicle_type_id":"4","last_reported":1701072644,"current_range_meters":22000,"station_id":"ce4bhb12rcd13ifvqel0","pricing_plan_id":"free"},{"bike_id":"71c72bc4-02f8-4461-ab9d-c5a24805ad52","system_id":"levelo_inurba_marseille","lat":43.29187,"lon":5.35807,"is_reserved":false,"is_disabled":false,"rental_uris":{"android":"levelo://app?vid=71c72bc4-02f8-4461-ab9d-c5a24805ad52","ios":"levelo://app?vid=71c72bc4-02f8-4461-ab9d-c5a24805ad52"},"vehicle_type_id":"4","last_reported":1701072644,"current_range_meters":12000,"station_id":"ce4bhb12rcd13ifvqel0","pricing_plan_id":"free"},{"bike_id":"2fd73397-b892-4412-9e8e-dc1df593b5ad","system_id":"levelo_inurba_marseille","lat":43.309047,"lon":5.396551,"is_reserved":false,"is_disabled":false,"rental_uris":{"android":"levelo://app?vid=2fd73397-b892-4412-9e8e-dc1df593b5ad","ios":"levelo://app?vid=2fd73397-b892-4412-9e8e-dc1df593b5ad"},"vehicle_type_id":"4","last_reported":1701072644,"current_range_meters":16800,"station_id":"ce4bh012rcd13ifvqcv0","pricing_plan_id":"free"},{"bike_id":"46524333-0398-43b1-bb8d-0a5ab13a24a1","system_id":"levelo_inurba_marseille","lat":43.309038,"lon":5.396546,"is_reserved":false,"is_disabled":false,"rental_uris":{"android":"levelo://app?vid=46524333-0398-43b1-bb8d-0a5ab13a24a1","ios":"levelo://app?vid=46524333-0398-43b1-bb8d-0a5ab13a24a1"},"vehicle_type_id":"4","last_reported":1701072644,"current_range_meters":27600,"station_id":"ce4bh012rcd13ifvqcv0","pricing_plan_id":"free"},{"bike_id":"1876135b-d6e6-481b-9bd8-bfe10c3850e1","system_id":"levelo_inurba_marseille","lat":43.306412,"lon":5.401035,"is_reserved":false,"is_disabled":false,"rental_uris":{"android":"levelo://app?vid=1876135b-d6e6-481b-9bd8-bfe10c3850e1","ios":"levelo://app?vid=1876135b-d6e6-481b-9bd8-bfe10c3850e1"},"vehicle_type_id":"4","last_reported":1701072644,"current_range_meters":12000,"station_id":"ce4bh112rcd13ifvqda0","pricing_plan_id":"free"},{"bike_id":"df42269d-e15c-4e3c-837c-f499d57dfdfd","system_id":"levelo_inurba_marseille","lat":43.290327,"lon":5.375711,"is_reserved":false,"is_disabled":false,"rental_uris":{"android":"levelo://app?vid=df42269d-e15c-4e3c-837c-f499d57dfdfd","ios":"levelo://app?vid=df42269d-e15c-4e3c-837c-f499d57dfdfd"},"vehicle_type_id":"4","last_reported":1701072644,"current_range_meters":13600,"station_id":"ce4bh692rcd13ifvqe90","pricing_plan_id":"free"},{"bike_id":"255dbb57-24db-4f92-bd14-39ae63ee49d7","system_id":"levelo_inurba_marseille","lat":43.28947,"lon":5.36421,"is_reserved":false,"is_disabled":false,"rental_uris":{"android":"levelo://app?vid=255dbb57-24db-4f92-bd14-39ae63ee49d7","ios":"levelo://app?vid=255dbb57-24db-4f92-bd14-39ae63ee49d7"},"vehicle_type_id":"4","last_reported":1701072644,"current_range_meters":15600,"station_id":"ce4bhc92rcd13ifvqetg","pricing_plan_id":"free"},{"bike_id":"153b3865-094c-4fab-a1fb-52551746180b","system_id":"levelo_inurba_marseille","lat":43.289468,"lon":5.363719,"is_reserved":false,"is_disabled":false,"rental_uris":{"android":"levelo://app?vid=153b3865-094c-4fab-a1fb-52551746180b","ios":"levelo://app?vid=153b3865-094c-4fab-a1fb-52551746180b"},"vehicle_type_id":"4","last_reported":1701072644,"current_range_meters":28000,"station_id":"ce4bhc92rcd13ifvqetg","pricing_plan_id":"free"},{"bike_id":"124b4279-2cec-4d97-a144-3ce1b6a90668","system_id":"levelo_inurba_marseille","lat":43.289743,"lon":5.378304,"is_reserved":false,"is_disabled":false,"rental_uris":{"android":"levelo://app?vid=124b4279-2cec-4d97-a144-3ce1b6a90668","ios":"levelo://app?vid=124b4279-2cec-4d97-a144-3ce1b6a90668"},"vehicle_type_id":"4","last_reported":1701072644,"current_range_meters":21600,"station_id":"ce4bh9p2rcd13ifvqed0","pricing_plan_id":"free"},{"bike_id":"f106017d-527b-46a0-be7c-3d5cbbcf2518","system_id":"levelo_inurba_marseille","lat":43.2901,"lon":5.381269,"is_reserved":false,"is_disabled":false,"rental_uris":{"android":"levelo://app?vid=f106017d-527b-46a0-be7c-3d5cbbcf2518","ios":"levelo://app?vid=f106017d-527b-46a0-be7c-3d5cbbcf2518"},"vehicle_type_id":"4","last_reported":1701072644,"current_range_meters":30000,"station_id":"ce4bh4p2rcd13ifvqe1g","pricing_plan_id":"free"},{"bike_id":"c77d3b82-68c4-4a48-890b-ddc33763a814","system_id":"levelo_inurba_marseille","lat":43.286039,"lon":5.370679,"is_reserved":false,"is_disabled":false,"rental_uris":{"android":"levelo://app?vid=c77d3b82-68c4-4a48-890b-ddc33763a814","ios":"levelo://app?vid=c77d3b82-68c4-4a48-890b-ddc33763a814"},"vehicle_type_id":"4","last_reported":1701072644,"current_range_meters":22400,"station_id":"ce4bht12rcd13ifvqi60","pricing_plan_id":"free"},{"bike_id":"42089b03-6411-4d4e-af8b-0bf22e5ae6ee","system_id":"levelo_inurba_marseille","lat":43.286063,"lon":5.37057,"is_reserved":false,"is_disabled":false,"rental_uris":{"android":"levelo://app?vid=42089b03-6411-4d4e-af8b-0bf22e5ae6ee","ios":"levelo://app?vid=42089b03-6411-4d4e-af8b-0bf22e5ae6ee"},"vehicle_type_id":"4","last_reported":1701072644,"current_range_meters":21600,"station_id":"ce4bht12rcd13ifvqi60","pricing_plan_id":"free"},{"bike_id":"2e4b7583-5b34-477c-b207-c1e547afe462","system_id":"levelo_inurba_marseille","lat":43.295713,"lon":5.399639,"is_reserved":false,"is_disabled":false,"rental_uris":{"android":"levelo://app?vid=2e4b7583-5b34-477c-b207-c1e547afe462","ios":"levelo://app?vid=2e4b7583-5b34-477c-b207-c1e547afe462"},"vehicle_type_id":"4","last_reported":1701072644,"current_range_meters":3600,"station_id":"ce4bh312rcd13ifvqdj0","pricing_plan_id":"free"},{"bike_id":"2d6049bd-b76a-40ae-a25a-246431e1421b","system_id":"levelo_inurba_marseille","lat":43.319179,"lon":5.407725,"is_reserved":false,"is_disabled":false,"rental_uris":{"android":"levelo://app?vid=2d6049bd-b76a-40ae-a25a-246431e1421b","ios":"levelo://app?vid=2d6049bd-b76a-40ae-a25a-246431e1421b"},"vehicle_type_id":"4","last_reported":1701072644,"current_range_meters":25600,"station_id":"ce4bhq12rcd13ifvqhig","pricing_plan_id":"free"},{"bike_id":"67e718f6-3440-4950-8a3f-a165993929af","system_id":"levelo_inurba_marseille","lat":43.337168,"lon":5.391825,"is_reserved":false,"is_disabled":false,"rental_uris":{"android":"levelo://app?vid=67e718f6-3440-4950-8a3f-a165993929af","ios":"levelo://app?vid=67e718f6-3440-4950-8a3f-a165993929af"},"vehicle_type_id":"4","last_reported":1701072644,"current_range_meters":18400,"station_id":"ce4bhr92rcd13ifvqhsg","pricing_plan_id":"free"},{"bike_id":"2c27144c-0d87-4643-9816-076a458e4445","system_id":"levelo_inurba_marseille","lat":43.284787,"lon":5.384116,"is_reserved":false,"is_disabled":false,"rental_uris":{"android":"levelo://app?vid=2c27144c-0d87-4643-9816-076a458e4445","ios":"levelo://app?vid=2c27144c-0d87-4643-9816-076a458e4445"},"vehicle_type_id":"4","last_reported":1701072644,"current_range_meters":12400,"station_id":"ce4bh512rcd13ifvqe3g","pricing_plan_id":"free"},{"bike_id":"aba2293d-6deb-4e5e-b54f-ee953b4878b6","system_id":"levelo_inurba_marseille","lat":43.288501,"lon":5.393087,"is_reserved":false,"is_disabled":false,"rental_uris":{"android":"levelo://app?vid=aba2293d-6deb-4e5e-b54f-ee953b4878b6","ios":"levelo://app?vid=aba2293d-6deb-4e5e-b54f-ee953b4878b6"},"vehicle_type_id":"4","last_reported":1701072644,"current_range_meters":24800,"station_id":"ce4bh2p2rcd13ifvqdi0","pricing_plan_id":"free"},{"bike_id":"e2284003-4e46-4e0a-93e7-73d05c3666d9","system_id":"levelo_inurba_marseille","lat":43.33508,"lon":5.397755,"is_reserved":false,"is_disabled":false,"rental_uris":{"android":"levelo://app?vid=e2284003-4e46-4e0a-93e7-73d05c3666d9","ios":"levelo://app?vid=e2284003-4e46-4e0a-93e7-73d05c3666d9"},"vehicle_type_id":"4","last_reported":1701072644,"current_range_meters":15600,"station_id":"","pricing_plan_id":"free"},{"bike_id":"13705d44-f69f-4708-9630-67a732dec5f7","system_id":"levelo_inurba_marseille","lat":43.2894,"lon":5.39647,"is_reserved":false,"is_disabled":false,"rental_uris":{"android":"levelo://app?vid=13705d44-f69f-4708-9630-67a732dec5f7","ios":"levelo://app?vid=13705d44-f69f-4708-9630-67a732dec5f7"},"vehicle_type_id":"4","last_reported":1701072644,"current_range_meters":22000,"station_id":"ce4bh3h2rcd13ifvqdn0","pricing_plan_id":"free"},{"bike_id":"4da39d2e-a933-4a63-9213-255334f16101","system_id":"levelo_inurba_marseille","lat":43.292724,"lon":5.401131,"is_reserved":false,"is_disabled":false,"rental_uris":{"android":"levelo://app?vid=4da39d2e-a933-4a63-9213-255334f16101","ios":"levelo://app?vid=4da39d2e-a933-4a63-9213-255334f16101"},"vehicle_type_id":"4","last_reported":1701072644,"current_range_meters":16000,"station_id":"ce4bh312rcd13ifvqdk0","pricing_plan_id":"free"},{"bike_id":"33685602-e4a9-4cb4-93ee-b151676fc0d8","system_id":"levelo_inurba_marseille","lat":43.283502,"lon":5.386471,"is_reserved":false,"is_disabled":false,"rental_uris":{"android":"levelo://app?vid=33685602-e4a9-4cb4-93ee-b151676fc0d8","ios":"levelo://app?vid=33685602-e4a9-4cb4-93ee-b151676fc0d8"},"vehicle_type_id":"4","last_reported":1701072644,"current_range_meters":0,"station_id":"ce4bh492rcd13ifvqdvg","pricing_plan_id":"free"},{"bike_id":"00584029-8953-4993-b331-cbca650b790e","system_id":"levelo_inurba_marseille","lat":43.282745,"lon":5.350716,"is_reserved":false,"is_disabled":false,"rental_uris":{"android":"levelo://app?vid=00584029-8953-4993-b331-cbca650b790e","ios":"levelo://app?vid=00584029-8953-4993-b331-cbca650b790e"},"vehicle_type_id":"4","last_reported":1701072644,"current_range_meters":20400,"station_id":"ce4bhbp2rcd13ifvqerg","pricing_plan_id":"free"},{"bike_id":"b3f5de32-7144-465c-a23d-20d488dc562d","system_id":"levelo_inurba_marseille","lat":43.28269,"lon":5.35057,"is_reserved":false,"is_disabled":false,"rental_uris":{"android":"levelo://app?vid=b3f5de32-7144-465c-a23d-20d488dc562d","ios":"levelo://app?vid=b3f5de32-7144-465c-a23d-20d488dc562d"},"vehicle_type_id":"4","last_reported":1701072644,"current_range_meters":24800,"station_id":"ce4bhbp2rcd13ifvqerg","pricing_plan_id":"free"},{"bike_id":"6a268875-29dd-4c96-8f77-9573f72bc760","system_id":"levelo_inurba_marseille","lat":43.290412,"lon":5.399633,"is_reserved":false,"is_disabled":false,"rental_uris":{"android":"levelo://app?vid=6a268875-29dd-4c96-8f77-9573f72bc760","ios":"levelo://app?vid=6a268875-29dd-4c96-8f77-9573f72bc760"},"vehicle_type_id":"4","last_reported":1701072644,"current_range_meters":20400,"station_id":"ce4bh392rcd13ifvqdm0","pricing_plan_id":"free"},{"bike_id":"afaa3978-337d-42bd-ac29-778f821e7594","system_id":"levelo_inurba_marseille","lat":43.29037,"lon":5.399755,"is_reserved":false,"is_disabled":false,"rental_uris":{"android":"levelo://app?vid=afaa3978-337d-42bd-ac29-778f821e7594","ios":"levelo://app?vid=afaa3978-337d-42bd-ac29-778f821e7594"},"vehicle_type_id":"4","last_reported":1701072644,"current_range_meters":0,"station_id":"ce4bh392rcd13ifvqdm0","pricing_plan_id":"free"},{"bike_id":"194e6769-6136-47f6-8679-e03dc35e095a","system_id":"levelo_inurba_marseille","lat":43.29041,"lon":5.399634,"is_reserved":false,"is_disabled":false,"rental_uris":{"android":"levelo://app?vid=194e6769-6136-47f6-8679-e03dc35e095a","ios":"levelo://app?vid=194e6769-6136-47f6-8679-e03dc35e095a"},"vehicle_type_id":"4","last_reported":1701072644,"current_range_meters":15600,"station_id":"ce4bh392rcd13ifvqdm0","pricing_plan_id":"free"},{"bike_id":"2add7ed2-793f-4628-9074-ce565b8e677e","system_id":"levelo_inurba_marseille","lat":43.326605,"lon":5.409903,"is_reserved":false,"is_disabled":false,"rental_uris":{"android":"levelo://app?vid=2add7ed2-793f-4628-9074-ce565b8e677e","ios":"levelo://app?vid=2add7ed2-793f-4628-9074-ce565b8e677e"},"vehicle_type_id":"4","last_reported":1701072644,"current_range_meters":29600,"station_id":"ce4bhpp2rcd13ifvqhgg","pricing_plan_id":"free"},{"bike_id":"c103b530-9c6d-4ac7-adf6-4ae019cb5aa9","system_id":"levelo_inurba_marseille","lat":43.299579,"lon":5.413255,"is_reserved":false,"is_disabled":false,"rental_uris":{"android":"levelo://app?vid=c103b530-9c6d-4ac7-adf6-4ae019cb5aa9","ios":"levelo://app?vid=c103b530-9c6d-4ac7-adf6-4ae019cb5aa9"},"vehicle_type_id":"4","last_reported":1701072644,"current_range_meters":30400,"station_id":"ce4bhp12rcd13ifvqh9g","pricing_plan_id":"free"},{"bike_id":"6526cad1-2f4b-4db1-8d6b-ce04bc407b31","system_id":"levelo_inurba_marseille","lat":43.34883,"lon":5.37501,"is_reserved":false,"is_disabled":false,"rental_uris":{"android":"levelo://app?vid=6526cad1-2f4b-4db1-8d6b-ce04bc407b31","ios":"levelo://app?vid=6526cad1-2f4b-4db1-8d6b-ce04bc407b31"},"vehicle_type_id":"4","last_reported":1701072644,"current_range_meters":0,"station_id":"","pricing_plan_id":"free"},{"bike_id":"bf4eb13f-cbea-42d7-8dc7-4fac53914e76","system_id":"levelo_inurba_marseille","lat":43.325233,"lon":5.414318,"is_reserved":false,"is_disabled":false,"rental_uris":{"android":"levelo://app?vid=bf4eb13f-cbea-42d7-8dc7-4fac53914e76","ios":"levelo://app?vid=bf4eb13f-cbea-42d7-8dc7-4fac53914e76"},"vehicle_type_id":"4","last_reported":1701072644,"current_range_meters":15200,"station_id":"ce4bhq12rcd13ifvqhhg","pricing_plan_id":"free"},{"bike_id":"230da1d7-daa6-414a-b0ee-0ef7b1844879","system_id":"levelo_inurba_marseille","lat":43.325233,"lon":5.414318,"is_reserved":false,"is_disabled":false,"rental_uris":{"android":"levelo://app?vid=230da1d7-daa6-414a-b0ee-0ef7b1844879","ios":"levelo://app?vid=230da1d7-daa6-414a-b0ee-0ef7b1844879"},"vehicle_type_id":"4","last_reported":1701072644,"current_range_meters":25200,"station_id":"ce4bhq12rcd13ifvqhhg","pricing_plan_id":"free"},{"bike_id":"bb44edba-01de-4742-8442-5d8a157fed96","system_id":"levelo_inurba_marseille","lat":43.325233,"lon":5.414318,"is_reserved":false,"is_disabled":false,"rental_uris":{"android":"levelo://app?vid=bb44edba-01de-4742-8442-5d8a157fed96","ios":"levelo://app?vid=bb44edba-01de-4742-8442-5d8a157fed96"},"vehicle_type_id":"4","last_reported":1701072644,"current_range_meters":6400,"station_id":"ce4bhq12rcd13ifvqhhg","pricing_plan_id":"free"},{"bike_id":"7e2d48f2-e932-4325-8443-338bec787538","system_id":"levelo_inurba_marseille","lat":43.325233,"lon":5.414318,"is_reserved":false,"is_disabled":false,"rental_uris":{"android":"levelo://app?vid=7e2d48f2-e932-4325-8443-338bec787538","ios":"levelo://app?vid=7e2d48f2-e932-4325-8443-338bec787538"},"vehicle_type_id":"4","last_reported":1701072644,"current_range_meters":27200,"station_id":"ce4bhq12rcd13ifvqhhg","pricing_plan_id":"free"},{"bike_id":"2b1ede14-5147-471f-a1fb-6dac928eeb5e","system_id":"levelo_inurba_marseille","lat":43.336134,"lon":5.410341,"is_reserved":false,"is_disabled":false,"rental_uris":{"android":"levelo://app?vid=2b1ede14-5147-471f-a1fb-6dac928eeb5e","ios":"levelo://app?vid=2b1ede14-5147-471f-a1fb-6dac928eeb5e"},"vehicle_type_id":"4","last_reported":1701072644,"current_range_meters":29600,"station_id":"ce4bhqh2rcd13ifvqhmg","pricing_plan_id":"free"},{"bike_id":"762a2d7a-e8cf-423b-a632-8002c3ad8f77","system_id":"levelo_inurba_marseille","lat":43.33612,"lon":5.410321,"is_reserved":false,"is_disabled":false,"rental_uris":{"android":"levelo://app?vid=762a2d7a-e8cf-423b-a632-8002c3ad8f77","ios":"levelo://app?vid=762a2d7a-e8cf-423b-a632-8002c3ad8f77"},"vehicle_type_id":"4","last_reported":1701072644,"current_range_meters":20800,"station_id":"ce4bhqh2rcd13ifvqhmg","pricing_plan_id":"free"},{"bike_id":"8ed32079-bc23-4023-9aee-d28e31f5cfdd","system_id":"levelo_inurba_marseille","lat":43.336148,"lon":5.410349,"is_reserved":false,"is_disabled":false,"rental_uris":{"android":"levelo://app?vid=8ed32079-bc23-4023-9aee-d28e31f5cfdd","ios":"levelo://app?vid=8ed32079-bc23-4023-9aee-d28e31f5cfdd"},"vehicle_type_id":"4","last_reported":1701072644,"current_range_meters":29600,"station_id":"ce4bhqh2rcd13ifvqhmg","pricing_plan_id":"free"},{"bike_id":"4f77d8aa-8cd2-4738-8736-452d5e520a45","system_id":"levelo_inurba_marseille","lat":43.33612,"lon":5.410321,"is_reserved":false,"is_disabled":false,"rental_uris":{"android":"levelo://app?vid=4f77d8aa-8cd2-4738-8736-452d5e520a45","ios":"levelo://app?vid=4f77d8aa-8cd2-4738-8736-452d5e520a45"},"vehicle_type_id":"4","last_reported":1701072644,"current_range_meters":4400,"station_id":"ce4bhqh2rcd13ifvqhmg","pricing_plan_id":"free"},{"bike_id":"0eeae51c-7855-4686-ba49-5a63463d5444","system_id":"levelo_inurba_marseille","lat":43.33612,"lon":5.410321,"is_reserved":false,"is_disabled":false,"rental_uris":{"android":"levelo://app?vid=0eeae51c-7855-4686-ba49-5a63463d5444","ios":"levelo://app?vid=0eeae51c-7855-4686-ba49-5a63463d5444"},"vehicle_type_id":"4","last_reported":1701072644,"current_range_meters":22000,"station_id":"ce4bhqh2rcd13ifvqhmg","pricing_plan_id":"free"},{"bike_id":"b2e383cc-c560-4935-8458-56a2adcb531f","system_id":"levelo_inurba_marseille","lat":43.310785,"lon":5.424305,"is_reserved":false,"is_disabled":false,"rental_uris":{"android":"levelo://app?vid=b2e383cc-c560-4935-8458-56a2adcb531f","ios":"levelo://app?vid=b2e383cc-c560-4935-8458-56a2adcb531f"},"vehicle_type_id":"4","last_reported":1701072644,"current_range_meters":3600,"station_id":"ce4bhp92rcd13ifvqhag","pricing_plan_id":"free"},{"bike_id":"01146bbd-59df-4458-a651-778531e9a4cf","system_id":"levelo_inurba_marseille","lat":43.310785,"lon":5.424305,"is_reserved":false,"is_disabled":false,"rental_uris":{"android":"levelo://app?vid=01146bbd-59df-4458-a651-778531e9a4cf","ios":"levelo://app?vid=01146bbd-59df-4458-a651-778531e9a4cf"},"vehicle_type_id":"4","last_reported":1701072644,"current_range_meters":22000,"station_id":"ce4bhp92rcd13ifvqhag","pricing_plan_id":"free"},{"bike_id":"8ef87ac3-8a0d-4ac6-80c0-266e2621bf7f","system_id":"levelo_inurba_marseille","lat":43.27605,"lon":5.39488,"is_reserved":false,"is_disabled":false,"rental_uris":{"android":"levelo://app?vid=8ef87ac3-8a0d-4ac6-80c0-266e2621bf7f","ios":"levelo://app?vid=8ef87ac3-8a0d-4ac6-80c0-266e2621bf7f"},"vehicle_type_id":"4","last_reported":1701072644,"current_range_meters":0,"station_id":"","pricing_plan_id":"free"},{"bike_id":"82b5bb96-6569-4927-a4d2-f1faee99f1b8","system_id":"levelo_inurba_marseille","lat":43.340804,"lon":5.410219,"is_reserved":false,"is_disabled":false,"rental_uris":{"android":"levelo://app?vid=82b5bb96-6569-4927-a4d2-f1faee99f1b8","ios":"levelo://app?vid=82b5bb96-6569-4927-a4d2-f1faee99f1b8"},"vehicle_type_id":"4","last_reported":1701072644,"current_range_meters":28000,"station_id":"ce4bhqh2rcd13ifvqhlg","pricing_plan_id":"free"},{"bike_id":"71a4b17e-2755-43a3-9796-7848c71e8c64","system_id":"levelo_inurba_marseille","lat":43.274103,"lon":5.394016,"is_reserved":false,"is_disabled":false,"rental_uris":{"android":"levelo://app?vid=71a4b17e-2755-43a3-9796-7848c71e8c64","ios":"levelo://app?vid=71a4b17e-2755-43a3-9796-7848c71e8c64"},"vehicle_type_id":"4","last_reported":1701072644,"current_range_meters":25600,"station_id":"ce4bhdp2rcd13ifvqf20","pricing_plan_id":"free"},{"bike_id":"487e8935-2222-4e65-8507-6d483307a42a","system_id":"levelo_inurba_marseille","lat":43.295511,"lon":5.422926,"is_reserved":false,"is_disabled":false,"rental_uris":{"android":"levelo://app?vid=487e8935-2222-4e65-8507-6d483307a42a","ios":"levelo://app?vid=487e8935-2222-4e65-8507-6d483307a42a"},"vehicle_type_id":"4","last_reported":1701072644,"current_range_meters":31200,"station_id":"ce4bhph2rcd13ifvqhdg","pricing_plan_id":"free"},{"bike_id":"763b6124-53d3-4313-ae93-709b9e0ea7fb","system_id":"levelo_inurba_marseille","lat":43.295511,"lon":5.422926,"is_reserved":false,"is_disabled":false,"rental_uris":{"android":"levelo://app?vid=763b6124-53d3-4313-ae93-709b9e0ea7fb","ios":"levelo://app?vid=763b6124-53d3-4313-ae93-709b9e0ea7fb"},"vehicle_type_id":"4","last_reported":1701072644,"current_range_meters":14800,"station_id":"ce4bhph2rcd13ifvqhdg","pricing_plan_id":"free"},{"bike_id":"3029bb9c-a722-4a0b-80d7-eaec226f56af","system_id":"levelo_inurba_marseille","lat":43.295511,"lon":5.422926,"is_reserved":false,"is_disabled":false,"rental_uris":{"android":"levelo://app?vid=3029bb9c-a722-4a0b-80d7-eaec226f56af","ios":"levelo://app?vid=3029bb9c-a722-4a0b-80d7-eaec226f56af"},"vehicle_type_id":"4","last_reported":1701072644,"current_range_meters":22800,"station_id":"ce4bhph2rcd13ifvqhdg","pricing_plan_id":"free"},{"bike_id":"f5365f69-29a4-488d-8dce-111f0e5de161","system_id":"levelo_inurba_marseille","lat":43.272116,"lon":5.391747,"is_reserved":false,"is_disabled":false,"rental_uris":{"android":"levelo://app?vid=f5365f69-29a4-488d-8dce-111f0e5de161","ios":"levelo://app?vid=f5365f69-29a4-488d-8dce-111f0e5de161"},"vehicle_type_id":"4","last_reported":1701072644,"current_range_meters":4400,"station_id":"ce4bhhp2rcd13ifvqfm0","pricing_plan_id":"free"},{"bike_id":"66ba5ddc-e3ab-4fac-8696-0c262ce2a3ed","system_id":"levelo_inurba_marseille","lat":43.269467,"lon":5.386439,"is_reserved":false,"is_disabled":false,"rental_uris":{"android":"levelo://app?vid=66ba5ddc-e3ab-4fac-8696-0c262ce2a3ed","ios":"levelo://app?vid=66ba5ddc-e3ab-4fac-8696-0c262ce2a3ed"},"vehicle_type_id":"4","last_reported":1701072644,"current_range_meters":28400,"station_id":"ce4bhh92rcd13ifvqfh0","pricing_plan_id":"free"},{"bike_id":"a6f0e1d9-5ab9-40bd-8a5d-6142a454a3f8","system_id":"levelo_inurba_marseille","lat":43.269467,"lon":5.386439,"is_reserved":false,"is_disabled":false,"rental_uris":{"android":"levelo://app?vid=a6f0e1d9-5ab9-40bd-8a5d-6142a454a3f8","ios":"levelo://app?vid=a6f0e1d9-5ab9-40bd-8a5d-6142a454a3f8"},"vehicle_type_id":"4","last_reported":1701072644,"current_range_meters":18800,"station_id":"ce4bhh92rcd13ifvqfh0","pricing_plan_id":"free"},{"bike_id":"b330d490-7868-4baa-b55a-3602b380ec61","system_id":"levelo_inurba_marseille","lat":43.269467,"lon":5.386439,"is_reserved":false,"is_disabled":false,"rental_uris":{"android":"levelo://app?vid=b330d490-7868-4baa-b55a-3602b380ec61","ios":"levelo://app?vid=b330d490-7868-4baa-b55a-3602b380ec61"},"vehicle_type_id":"4","last_reported":1701072644,"current_range_meters":21600,"station_id":"ce4bhh92rcd13ifvqfh0","pricing_plan_id":"free"},{"bike_id":"767838bd-aa7f-4128-9692-5357a733ac50","system_id":"levelo_inurba_marseille","lat":43.269467,"lon":5.386439,"is_reserved":false,"is_disabled":false,"rental_uris":{"android":"levelo://app?vid=767838bd-aa7f-4128-9692-5357a733ac50","ios":"levelo://app?vid=767838bd-aa7f-4128-9692-5357a733ac50"},"vehicle_type_id":"4","last_reported":1701072644,"current_range_meters":14800,"station_id":"ce4bhh92rcd13ifvqfh0","pricing_plan_id":"free"},{"bike_id":"0b231224-60f4-4f30-8754-0626d26040eb","system_id":"levelo_inurba_marseille","lat":43.269467,"lon":5.386439,"is_reserved":false,"is_disabled":false,"rental_uris":{"android":"levelo://app?vid=0b231224-60f4-4f30-8754-0626d26040eb","ios":"levelo://app?vid=0b231224-60f4-4f30-8754-0626d26040eb"},"vehicle_type_id":"4","last_reported":1701072644,"current_range_meters":28000,"station_id":"ce4bhh92rcd13ifvqfh0","pricing_plan_id":"free"},{"bike_id":"11c530ef-3a1e-4341-9786-f43509d01bc1","system_id":"levelo_inurba_marseille","lat":43.29819,"lon":5.42643,"is_reserved":false,"is_disabled":false,"rental_uris":{"android":"levelo://app?vid=11c530ef-3a1e-4341-9786-f43509d01bc1","ios":"levelo://app?vid=11c530ef-3a1e-4341-9786-f43509d01bc1"},"vehicle_type_id":"4","last_reported":1701072644,"current_range_meters":400,"station_id":"","pricing_plan_id":"free"},{"bike_id":"3a549760-e2d2-42ab-a932-0580d331ba47","system_id":"levelo_inurba_marseille","lat":43.279465,"lon":5.410561,"is_reserved":false,"is_disabled":false,"rental_uris":{"android":"levelo://app?vid=3a549760-e2d2-42ab-a932-0580d331ba47","ios":"levelo://app?vid=3a549760-e2d2-42ab-a932-0580d331ba47"},"vehicle_type_id":"4","last_reported":1701072644,"current_range_meters":3600,"station_id":"ce4bhnp2rcd13ifvqh0g","pricing_plan_id":"free"},{"bike_id":"e7cf6435-3f3c-4f00-8400-543efeb7aec7","system_id":"levelo_inurba_marseille","lat":43.26681,"lon":5.382694,"is_reserved":false,"is_disabled":false,"rental_uris":{"android":"levelo://app?vid=e7cf6435-3f3c-4f00-8400-543efeb7aec7","ios":"levelo://app?vid=e7cf6435-3f3c-4f00-8400-543efeb7aec7"},"vehicle_type_id":"4","last_reported":1701072644,"current_range_meters":18000,"station_id":"ce4bhg92rcd13ifvqf90","pricing_plan_id":"free"},{"bike_id":"5844cac5-d8cf-4995-bae7-16b150717a41","system_id":"levelo_inurba_marseille","lat":43.26681,"lon":5.382694,"is_reserved":false,"is_disabled":false,"rental_uris":{"android":"levelo://app?vid=5844cac5-d8cf-4995-bae7-16b150717a41","ios":"levelo://app?vid=5844cac5-d8cf-4995-bae7-16b150717a41"},"vehicle_type_id":"4","last_reported":1701072644,"current_range_meters":14800,"station_id":"ce4bhg92rcd13ifvqf90","pricing_plan_id":"free"},{"bike_id":"3f118269-40dc-4f43-80d2-9f0573bdf414","system_id":"levelo_inurba_marseille","lat":43.26681,"lon":5.382694,"is_reserved":false,"is_disabled":false,"rental_uris":{"android":"levelo://app?vid=3f118269-40dc-4f43-80d2-9f0573bdf414","ios":"levelo://app?vid=3f118269-40dc-4f43-80d2-9f0573bdf414"},"vehicle_type_id":"4","last_reported":1701072644,"current_range_meters":26000,"station_id":"ce4bhg92rcd13ifvqf90","pricing_plan_id":"free"},{"bike_id":"b13a942b-5b83-431b-96ed-c53ee14198c7","system_id":"levelo_inurba_marseille","lat":43.26681,"lon":5.382694,"is_reserved":false,"is_disabled":false,"rental_uris":{"android":"levelo://app?vid=b13a942b-5b83-431b-96ed-c53ee14198c7","ios":"levelo://app?vid=b13a942b-5b83-431b-96ed-c53ee14198c7"},"vehicle_type_id":"4","last_reported":1701072644,"current_range_meters":21600,"station_id":"ce4bhg92rcd13ifvqf90","pricing_plan_id":"free"},{"bike_id":"85e14555-81ae-4c2b-bb64-c7d65db3d5a9","system_id":"levelo_inurba_marseille","lat":43.26681,"lon":5.382694,"is_reserved":false,"is_disabled":false,"rental_uris":{"android":"levelo://app?vid=85e14555-81ae-4c2b-bb64-c7d65db3d5a9","ios":"levelo://app?vid=85e14555-81ae-4c2b-bb64-c7d65db3d5a9"},"vehicle_type_id":"4","last_reported":1701072644,"current_range_meters":20000,"station_id":"ce4bhg92rcd13ifvqf90","pricing_plan_id":"free"},{"bike_id":"e4b68f4a-2ca1-49c2-936e-c6a93135be9a","system_id":"levelo_inurba_marseille","lat":43.26681,"lon":5.382694,"is_reserved":false,"is_disabled":false,"rental_uris":{"android":"levelo://app?vid=e4b68f4a-2ca1-49c2-936e-c6a93135be9a","ios":"levelo://app?vid=e4b68f4a-2ca1-49c2-936e-c6a93135be9a"},"vehicle_type_id":"4","last_reported":1701072644,"current_range_meters":31200,"station_id":"ce4bhg92rcd13ifvqf90","pricing_plan_id":"free"},{"bike_id":"7778668d-d420-499a-a45f-1b5180949567","system_id":"levelo_inurba_marseille","lat":43.26681,"lon":5.382694,"is_reserved":false,"is_disabled":false,"rental_uris":{"android":"levelo://app?vid=7778668d-d420-499a-a45f-1b5180949567","ios":"levelo://app?vid=7778668d-d420-499a-a45f-1b5180949567"},"vehicle_type_id":"4","last_reported":1701072644,"current_range_meters":15200,"station_id":"ce4bhg92rcd13ifvqf90","pricing_plan_id":"free"},{"bike_id":"045c779a-0de3-4f1a-9ff9-44572f00cc3e","system_id":"levelo_inurba_marseille","lat":43.26681,"lon":5.382694,"is_reserved":false,"is_disabled":false,"rental_uris":{"android":"levelo://app?vid=045c779a-0de3-4f1a-9ff9-44572f00cc3e","ios":"levelo://app?vid=045c779a-0de3-4f1a-9ff9-44572f00cc3e"},"vehicle_type_id":"4","last_reported":1701072644,"current_range_meters":30400,"station_id":"ce4bhg92rcd13ifvqf90","pricing_plan_id":"free"},{"bike_id":"ae3826c7-a062-4b73-93aa-fbe557eac296","system_id":"levelo_inurba_marseille","lat":43.26681,"lon":5.382694,"is_reserved":false,"is_disabled":false,"rental_uris":{"android":"levelo://app?vid=ae3826c7-a062-4b73-93aa-fbe557eac296","ios":"levelo://app?vid=ae3826c7-a062-4b73-93aa-fbe557eac296"},"vehicle_type_id":"4","last_reported":1701072644,"current_range_meters":20800,"station_id":"ce4bhg92rcd13ifvqf90","pricing_plan_id":"free"},{"bike_id":"4e935c36-90c4-402d-8a48-9c806e8c7f2f","system_id":"levelo_inurba_marseille","lat":43.26681,"lon":5.382694,"is_reserved":false,"is_disabled":false,"rental_uris":{"android":"levelo://app?vid=4e935c36-90c4-402d-8a48-9c806e8c7f2f","ios":"levelo://app?vid=4e935c36-90c4-402d-8a48-9c806e8c7f2f"},"vehicle_type_id":"4","last_reported":1701072644,"current_range_meters":30000,"station_id":"ce4bhg92rcd13ifvqf90","pricing_plan_id":"free"},{"bike_id":"72dbca0f-23b3-44ed-8277-c5031ec7553b","system_id":"levelo_inurba_marseille","lat":43.26681,"lon":5.382694,"is_reserved":false,"is_disabled":false,"rental_uris":{"android":"levelo://app?vid=72dbca0f-23b3-44ed-8277-c5031ec7553b","ios":"levelo://app?vid=72dbca0f-23b3-44ed-8277-c5031ec7553b"},"vehicle_type_id":"4","last_reported":1701072644,"current_range_meters":28400,"station_id":"ce4bhg92rcd13ifvqf90","pricing_plan_id":"free"},{"bike_id":"ea07f886-25ab-4762-bffe-79ccd5af5f43","system_id":"levelo_inurba_marseille","lat":43.26681,"lon":5.382694,"is_reserved":false,"is_disabled":false,"rental_uris":{"android":"levelo://app?vid=ea07f886-25ab-4762-bffe-79ccd5af5f43","ios":"levelo://app?vid=ea07f886-25ab-4762-bffe-79ccd5af5f43"},"vehicle_type_id":"4","last_reported":1701072644,"current_range_meters":17600,"station_id":"ce4bhg92rcd13ifvqf90","pricing_plan_id":"free"},{"bike_id":"f23d8119-b478-4639-98c5-6883279f9f84","system_id":"levelo_inurba_marseille","lat":43.32592,"lon":5.43067,"is_reserved":false,"is_disabled":false,"rental_uris":{"android":"levelo://app?vid=f23d8119-b478-4639-98c5-6883279f9f84","ios":"levelo://app?vid=f23d8119-b478-4639-98c5-6883279f9f84"},"vehicle_type_id":"4","last_reported":1701072644,"current_range_meters":20000,"station_id":"","pricing_plan_id":"free"},{"bike_id":"ed30d6a1-b23a-49e5-9c83-5546be72a734","system_id":"levelo_inurba_marseille","lat":43.3259,"lon":5.43075,"is_reserved":false,"is_disabled":false,"rental_uris":{"android":"levelo://app?vid=ed30d6a1-b23a-49e5-9c83-5546be72a734","ios":"levelo://app?vid=ed30d6a1-b23a-49e5-9c83-5546be72a734"},"vehicle_type_id":"4","last_reported":1701072644,"current_range_meters":14800,"station_id":"","pricing_plan_id":"free"},{"bike_id":"d67469ee-5362-4610-a163-fe05ae3cf4f7","system_id":"levelo_inurba_marseille","lat":43.32604,"lon":5.430817,"is_reserved":false,"is_disabled":false,"rental_uris":{"android":"levelo://app?vid=d67469ee-5362-4610-a163-fe05ae3cf4f7","ios":"levelo://app?vid=d67469ee-5362-4610-a163-fe05ae3cf4f7"},"vehicle_type_id":"4","last_reported":1701072644,"current_range_meters":3200,"station_id":"","pricing_plan_id":"free"},{"bike_id":"cd4658a7-27a6-4241-81b7-25e08ff9ff1a","system_id":"levelo_inurba_marseille","lat":43.265571,"lon":5.390032,"is_reserved":false,"is_disabled":false,"rental_uris":{"android":"levelo://app?vid=cd4658a7-27a6-4241-81b7-25e08ff9ff1a","ios":"levelo://app?vid=cd4658a7-27a6-4241-81b7-25e08ff9ff1a"},"vehicle_type_id":"4","last_reported":1701072644,"current_range_meters":400,"station_id":"ce4bhe12rcd13ifvqf30","pricing_plan_id":"free"},{"bike_id":"0702b027-d92c-4ecd-97a5-310236d5c197","system_id":"levelo_inurba_marseille","lat":43.283494,"lon":5.380945,"is_reserved":false,"is_disabled":false,"rental_uris":{"android":"levelo://app?vid=0702b027-d92c-4ecd-97a5-310236d5c197","ios":"levelo://app?vid=0702b027-d92c-4ecd-97a5-310236d5c197"},"vehicle_type_id":"4","last_reported":1701072644,"current_range_meters":23200,"station_id":"ce4bh412rcd13ifvqdr0","pricing_plan_id":"free"},{"bike_id":"93d9e607-0d2a-4ec7-96bd-64fd1a87127a","system_id":"levelo_inurba_marseille","lat":43.26945,"lon":5.40261,"is_reserved":false,"is_disabled":false,"rental_uris":{"android":"levelo://app?vid=93d9e607-0d2a-4ec7-96bd-64fd1a87127a","ios":"levelo://app?vid=93d9e607-0d2a-4ec7-96bd-64fd1a87127a"},"vehicle_type_id":"4","last_reported":1701072644,"current_range_meters":27600,"station_id":"cjm6bp8fraef2m0cb0m0","pricing_plan_id":"free"},{"bike_id":"199fc432-c004-47d5-94ed-e7650cf64526","system_id":"levelo_inurba_marseille","lat":43.31708,"lon":5.43703,"is_reserved":false,"is_disabled":false,"rental_uris":{"android":"levelo://app?vid=199fc432-c004-47d5-94ed-e7650cf64526","ios":"levelo://app?vid=199fc432-c004-47d5-94ed-e7650cf64526"},"vehicle_type_id":"4","last_reported":1701072644,"current_range_meters":19600,"station_id":"ce4bhp92rcd13ifvqhcg","pricing_plan_id":"free"},{"bike_id":"d4f0b5c0-d837-4d2b-881f-270fb3d160de","system_id":"levelo_inurba_marseille","lat":43.267959,"lon":5.402687,"is_reserved":false,"is_disabled":false,"rental_uris":{"android":"levelo://app?vid=d4f0b5c0-d837-4d2b-881f-270fb3d160de","ios":"levelo://app?vid=d4f0b5c0-d837-4d2b-881f-270fb3d160de"},"vehicle_type_id":"4","last_reported":1701072644,"current_range_meters":26000,"station_id":"ce501612rcd8frsf0b60","pricing_plan_id":"free"},{"bike_id":"7c5a83ac-336c-4b91-a5ea-82b3c6d6127d","system_id":"levelo_inurba_marseille","lat":43.298768,"lon":5.43643,"is_reserved":false,"is_disabled":false,"rental_uris":{"android":"levelo://app?vid=7c5a83ac-336c-4b91-a5ea-82b3c6d6127d","ios":"levelo://app?vid=7c5a83ac-336c-4b91-a5ea-82b3c6d6127d"},"vehicle_type_id":"4","last_reported":1701072644,"current_range_meters":30800,"station_id":"ce4bhpp2rcd13ifvqhfg","pricing_plan_id":"free"},{"bike_id":"9a5ca6f0-6f31-4d5e-bf3e-7f028d92f2c5","system_id":"levelo_inurba_marseille","lat":43.298768,"lon":5.43643,"is_reserved":false,"is_disabled":false,"rental_uris":{"android":"levelo://app?vid=9a5ca6f0-6f31-4d5e-bf3e-7f028d92f2c5","ios":"levelo://app?vid=9a5ca6f0-6f31-4d5e-bf3e-7f028d92f2c5"},"vehicle_type_id":"4","last_reported":1701072644,"current_range_meters":28400,"station_id":"ce4bhpp2rcd13ifvqhfg","pricing_plan_id":"free"},{"bike_id":"f4f2e1d5-dafa-412d-9b3a-3611814786ce","system_id":"levelo_inurba_marseille","lat":43.298768,"lon":5.43643,"is_reserved":false,"is_disabled":false,"rental_uris":{"android":"levelo://app?vid=f4f2e1d5-dafa-412d-9b3a-3611814786ce","ios":"levelo://app?vid=f4f2e1d5-dafa-412d-9b3a-3611814786ce"},"vehicle_type_id":"4","last_reported":1701072644,"current_range_meters":31200,"station_id":"ce4bhpp2rcd13ifvqhfg","pricing_plan_id":"free"},{"bike_id":"3e9dd4fa-9528-4f08-81eb-29af05c4e353","system_id":"levelo_inurba_marseille","lat":43.281547,"lon":5.426331,"is_reserved":false,"is_disabled":false,"rental_uris":{"android":"levelo://app?vid=3e9dd4fa-9528-4f08-81eb-29af05c4e353","ios":"levelo://app?vid=3e9dd4fa-9528-4f08-81eb-29af05c4e353"},"vehicle_type_id":"4","last_reported":1701072644,"current_range_meters":29200,"station_id":"ce4bhnh2rcd13ifvqgug","pricing_plan_id":"free"},{"bike_id":"73f12681-1b59-4ddd-a46d-78247b47d788","system_id":"levelo_inurba_marseille","lat":43.281548,"lon":5.42643,"is_reserved":false,"is_disabled":false,"rental_uris":{"android":"levelo://app?vid=73f12681-1b59-4ddd-a46d-78247b47d788","ios":"levelo://app?vid=73f12681-1b59-4ddd-a46d-78247b47d788"},"vehicle_type_id":"4","last_reported":1701072644,"current_range_meters":30000,"station_id":"ce4bhnh2rcd13ifvqgug","pricing_plan_id":"free"},{"bike_id":"8975bea0-8b75-4dce-b56d-c0d2c2a58be9","system_id":"levelo_inurba_marseille","lat":43.250009,"lon":5.389195,"is_reserved":false,"is_disabled":false,"rental_uris":{"android":"levelo://app?vid=8975bea0-8b75-4dce-b56d-c0d2c2a58be9","ios":"levelo://app?vid=8975bea0-8b75-4dce-b56d-c0d2c2a58be9"},"vehicle_type_id":"4","last_reported":1701072644,"current_range_meters":4400,"station_id":"ce4bhgp2rcd13ifvqfd0","pricing_plan_id":"free"},{"bike_id":"af2159a7-533c-44b2-9f91-55ad689fd878","system_id":"levelo_inurba_marseille","lat":43.275028,"lon":5.424534,"is_reserved":false,"is_disabled":false,"rental_uris":{"android":"levelo://app?vid=af2159a7-533c-44b2-9f91-55ad689fd878","ios":"levelo://app?vid=af2159a7-533c-44b2-9f91-55ad689fd878"},"vehicle_type_id":"4","last_reported":1701072644,"current_range_meters":26000,"station_id":"ce4bhn92rcd13ifvqgrg","pricing_plan_id":"free"},{"bike_id":"a546cec7-c461-4563-8f9d-9c8f6cf81155","system_id":"levelo_inurba_marseille","lat":43.275028,"lon":5.424534,"is_reserved":false,"is_disabled":false,"rental_uris":{"android":"levelo://app?vid=a546cec7-c461-4563-8f9d-9c8f6cf81155","ios":"levelo://app?vid=a546cec7-c461-4563-8f9d-9c8f6cf81155"},"vehicle_type_id":"4","last_reported":1701072644,"current_range_meters":21600,"station_id":"ce4bhn92rcd13ifvqgrg","pricing_plan_id":"free"},{"bike_id":"155eb1f4-e4ff-4151-870f-9f53e6430e9c","system_id":"levelo_inurba_marseille","lat":43.275028,"lon":5.424534,"is_reserved":false,"is_disabled":false,"rental_uris":{"android":"levelo://app?vid=155eb1f4-e4ff-4151-870f-9f53e6430e9c","ios":"levelo://app?vid=155eb1f4-e4ff-4151-870f-9f53e6430e9c"},"vehicle_type_id":"4","last_reported":1701072644,"current_range_meters":31600,"station_id":"ce4bhn92rcd13ifvqgrg","pricing_plan_id":"free"},{"bike_id":"308d4f6a-f219-456a-bab2-50b410bff3d3","system_id":"levelo_inurba_marseille","lat":43.275028,"lon":5.424534,"is_reserved":false,"is_disabled":false,"rental_uris":{"android":"levelo://app?vid=308d4f6a-f219-456a-bab2-50b410bff3d3","ios":"levelo://app?vid=308d4f6a-f219-456a-bab2-50b410bff3d3"},"vehicle_type_id":"4","last_reported":1701072644,"current_range_meters":24000,"station_id":"ce4bhn92rcd13ifvqgrg","pricing_plan_id":"free"},{"bike_id":"959cfa62-968d-4525-a72f-0617db6a1c7d","system_id":"levelo_inurba_marseille","lat":43.275028,"lon":5.424534,"is_reserved":false,"is_disabled":false,"rental_uris":{"android":"levelo://app?vid=959cfa62-968d-4525-a72f-0617db6a1c7d","ios":"levelo://app?vid=959cfa62-968d-4525-a72f-0617db6a1c7d"},"vehicle_type_id":"4","last_reported":1701072644,"current_range_meters":29200,"station_id":"ce4bhn92rcd13ifvqgrg","pricing_plan_id":"free"},{"bike_id":"1dad8be2-a25a-4d6a-8d77-523cccd2cf17","system_id":"levelo_inurba_marseille","lat":43.275028,"lon":5.424534,"is_reserved":false,"is_disabled":false,"rental_uris":{"android":"levelo://app?vid=1dad8be2-a25a-4d6a-8d77-523cccd2cf17","ios":"levelo://app?vid=1dad8be2-a25a-4d6a-8d77-523cccd2cf17"},"vehicle_type_id":"4","last_reported":1701072644,"current_range_meters":13600,"station_id":"ce4bhn92rcd13ifvqgrg","pricing_plan_id":"free"},{"bike_id":"5f35bd39-e262-47bd-9e19-83bbf6afce13","system_id":"levelo_inurba_marseille","lat":43.275028,"lon":5.424534,"is_reserved":false,"is_disabled":false,"rental_uris":{"android":"levelo://app?vid=5f35bd39-e262-47bd-9e19-83bbf6afce13","ios":"levelo://app?vid=5f35bd39-e262-47bd-9e19-83bbf6afce13"},"vehicle_type_id":"4","last_reported":1701072644,"current_range_meters":20000,"station_id":"ce4bhn92rcd13ifvqgrg","pricing_plan_id":"free"},{"bike_id":"bbe4107a-6aeb-4082-b5e5-07a63c14584c","system_id":"levelo_inurba_marseille","lat":43.275028,"lon":5.424534,"is_reserved":false,"is_disabled":false,"rental_uris":{"android":"levelo://app?vid=bbe4107a-6aeb-4082-b5e5-07a63c14584c","ios":"levelo://app?vid=bbe4107a-6aeb-4082-b5e5-07a63c14584c"},"vehicle_type_id":"4","last_reported":1701072644,"current_range_meters":27600,"station_id":"ce4bhn92rcd13ifvqgrg","pricing_plan_id":"free"},{"bike_id":"04e4528d-3dca-4718-a06e-9b9442ef1733","system_id":"levelo_inurba_marseille","lat":43.275028,"lon":5.424534,"is_reserved":false,"is_disabled":false,"rental_uris":{"android":"levelo://app?vid=04e4528d-3dca-4718-a06e-9b9442ef1733","ios":"levelo://app?vid=04e4528d-3dca-4718-a06e-9b9442ef1733"},"vehicle_type_id":"4","last_reported":1701072644,"current_range_meters":18400,"station_id":"ce4bhn92rcd13ifvqgrg","pricing_plan_id":"free"},{"bike_id":"951f48e1-1166-4cd7-9e50-4b9463106234","system_id":"levelo_inurba_marseille","lat":43.275028,"lon":5.424534,"is_reserved":false,"is_disabled":false,"rental_uris":{"android":"levelo://app?vid=951f48e1-1166-4cd7-9e50-4b9463106234","ios":"levelo://app?vid=951f48e1-1166-4cd7-9e50-4b9463106234"},"vehicle_type_id":"4","last_reported":1701072644,"current_range_meters":14800,"station_id":"ce4bhn92rcd13ifvqgrg","pricing_plan_id":"free"},{"bike_id":"79c0b3d1-7810-4e03-b6bd-51e9ce2d8f62","system_id":"levelo_inurba_marseille","lat":43.275028,"lon":5.424534,"is_reserved":false,"is_disabled":false,"rental_uris":{"android":"levelo://app?vid=79c0b3d1-7810-4e03-b6bd-51e9ce2d8f62","ios":"levelo://app?vid=79c0b3d1-7810-4e03-b6bd-51e9ce2d8f62"},"vehicle_type_id":"4","last_reported":1701072644,"current_range_meters":21200,"station_id":"ce4bhn92rcd13ifvqgrg","pricing_plan_id":"free"},{"bike_id":"0833633d-26ae-4ca8-9da5-0a1ffd3c3484","system_id":"levelo_inurba_marseille","lat":43.275028,"lon":5.424534,"is_reserved":false,"is_disabled":false,"rental_uris":{"android":"levelo://app?vid=0833633d-26ae-4ca8-9da5-0a1ffd3c3484","ios":"levelo://app?vid=0833633d-26ae-4ca8-9da5-0a1ffd3c3484"},"vehicle_type_id":"4","last_reported":1701072644,"current_range_meters":24000,"station_id":"ce4bhn92rcd13ifvqgrg","pricing_plan_id":"free"},{"bike_id":"c85f7616-3a9e-47a4-ae16-28a03e51ab4f","system_id":"levelo_inurba_marseille","lat":43.28929,"lon":5.438754,"is_reserved":false,"is_disabled":false,"rental_uris":{"android":"levelo://app?vid=c85f7616-3a9e-47a4-ae16-28a03e51ab4f","ios":"levelo://app?vid=c85f7616-3a9e-47a4-ae16-28a03e51ab4f"},"vehicle_type_id":"4","last_reported":1701072644,"current_range_meters":8400,"station_id":"","pricing_plan_id":"free"},{"bike_id":"4c39dfa1-cc52-4aa0-b5b2-6bf7f0218697","system_id":"levelo_inurba_marseille","lat":43.255813,"lon":5.382289,"is_reserved":false,"is_disabled":false,"rental_uris":{"android":"levelo://app?vid=4c39dfa1-cc52-4aa0-b5b2-6bf7f0218697","ios":"levelo://app?vid=4c39dfa1-cc52-4aa0-b5b2-6bf7f0218697"},"vehicle_type_id":"4","last_reported":1701072644,"current_range_meters":24800,"station_id":"ce4bhih2rcd13ifvqfs0","pricing_plan_id":"free"},{"bike_id":"1ed62b75-b8ac-4aa2-8b97-61480c49f276","system_id":"levelo_inurba_marseille","lat":43.25579,"lon":5.38233,"is_reserved":false,"is_disabled":false,"rental_uris":{"android":"levelo://app?vid=1ed62b75-b8ac-4aa2-8b97-61480c49f276","ios":"levelo://app?vid=1ed62b75-b8ac-4aa2-8b97-61480c49f276"},"vehicle_type_id":"4","last_reported":1701072644,"current_range_meters":29200,"station_id":"ce4bhih2rcd13ifvqfs0","pricing_plan_id":"free"},{"bike_id":"bb03d128-ef00-4706-a798-f82ccd3fae64","system_id":"levelo_inurba_marseille","lat":43.255779,"lon":5.382375,"is_reserved":false,"is_disabled":false,"rental_uris":{"android":"levelo://app?vid=bb03d128-ef00-4706-a798-f82ccd3fae64","ios":"levelo://app?vid=bb03d128-ef00-4706-a798-f82ccd3fae64"},"vehicle_type_id":"4","last_reported":1701072644,"current_range_meters":0,"station_id":"ce4bhih2rcd13ifvqfs0","pricing_plan_id":"free"},{"bike_id":"48b5f32a-657d-49bb-a63b-abdc4d0dcd6a","system_id":"levelo_inurba_marseille","lat":43.25576,"lon":5.38231,"is_reserved":false,"is_disabled":false,"rental_uris":{"android":"levelo://app?vid=48b5f32a-657d-49bb-a63b-abdc4d0dcd6a","ios":"levelo://app?vid=48b5f32a-657d-49bb-a63b-abdc4d0dcd6a"},"vehicle_type_id":"4","last_reported":1701072644,"current_range_meters":10400,"station_id":"ce4bhih2rcd13ifvqfs0","pricing_plan_id":"free"},{"bike_id":"3764d48b-8e61-4222-bf2f-e0a7f6536aa8","system_id":"levelo_inurba_marseille","lat":43.270698,"lon":5.422776,"is_reserved":false,"is_disabled":false,"rental_uris":{"android":"levelo://app?vid=3764d48b-8e61-4222-bf2f-e0a7f6536aa8","ios":"levelo://app?vid=3764d48b-8e61-4222-bf2f-e0a7f6536aa8"},"vehicle_type_id":"4","last_reported":1701072644,"current_range_meters":26400,"station_id":"ce4bhk92rcd13ifvqgb0","pricing_plan_id":"free"},{"bike_id":"fa94e1b3-924d-484c-aa3a-070aacbdbbfd","system_id":"levelo_inurba_marseille","lat":43.270676,"lon":5.422768,"is_reserved":false,"is_disabled":false,"rental_uris":{"android":"levelo://app?vid=fa94e1b3-924d-484c-aa3a-070aacbdbbfd","ios":"levelo://app?vid=fa94e1b3-924d-484c-aa3a-070aacbdbbfd"},"vehicle_type_id":"4","last_reported":1701072644,"current_range_meters":25600,"station_id":"ce4bhk92rcd13ifvqgb0","pricing_plan_id":"free"},{"bike_id":"6dadcd55-ba26-47b2-acaa-e23079c57547","system_id":"levelo_inurba_marseille","lat":43.270721,"lon":5.422764,"is_reserved":false,"is_disabled":false,"rental_uris":{"android":"levelo://app?vid=6dadcd55-ba26-47b2-acaa-e23079c57547","ios":"levelo://app?vid=6dadcd55-ba26-47b2-acaa-e23079c57547"},"vehicle_type_id":"4","last_reported":1701072644,"current_range_meters":4800,"station_id":"ce4bhk92rcd13ifvqgb0","pricing_plan_id":"free"},{"bike_id":"f88a2fa3-f8b6-40ff-ad40-255f7f9a8aa6","system_id":"levelo_inurba_marseille","lat":43.258658,"lon":5.398935,"is_reserved":false,"is_disabled":false,"rental_uris":{"android":"levelo://app?vid=f88a2fa3-f8b6-40ff-ad40-255f7f9a8aa6","ios":"levelo://app?vid=f88a2fa3-f8b6-40ff-ad40-255f7f9a8aa6"},"vehicle_type_id":"4","last_reported":1701072644,"current_range_meters":20400,"station_id":"ce4bhl92rcd13ifvqghg","pricing_plan_id":"free"},{"bike_id":"cc4c1f87-69d2-4692-bdc7-151dd9e5b434","system_id":"levelo_inurba_marseille","lat":43.25939,"lon":5.40901,"is_reserved":false,"is_disabled":false,"rental_uris":{"android":"levelo://app?vid=cc4c1f87-69d2-4692-bdc7-151dd9e5b434","ios":"levelo://app?vid=cc4c1f87-69d2-4692-bdc7-151dd9e5b434"},"vehicle_type_id":"4","last_reported":1701072644,"current_range_meters":22400,"station_id":"ce4bhm92rcd13ifvqglg","pricing_plan_id":"free"},{"bike_id":"e3d2e1b2-9afa-4a30-88d0-edbb58a5b6e1","system_id":"levelo_inurba_marseille","lat":43.25941,"lon":5.40906,"is_reserved":false,"is_disabled":false,"rental_uris":{"android":"levelo://app?vid=e3d2e1b2-9afa-4a30-88d0-edbb58a5b6e1","ios":"levelo://app?vid=e3d2e1b2-9afa-4a30-88d0-edbb58a5b6e1"},"vehicle_type_id":"4","last_reported":1701072644,"current_range_meters":20400,"station_id":"ce4bhm92rcd13ifvqglg","pricing_plan_id":"free"},{"bike_id":"3e61ca31-0ede-4d4d-9f16-4dafe7b96d27","system_id":"levelo_inurba_marseille","lat":43.259013,"lon":5.409301,"is_reserved":false,"is_disabled":false,"rental_uris":{"android":"levelo://app?vid=3e61ca31-0ede-4d4d-9f16-4dafe7b96d27","ios":"levelo://app?vid=3e61ca31-0ede-4d4d-9f16-4dafe7b96d27"},"vehicle_type_id":"4","last_reported":1701072644,"current_range_meters":22800,"station_id":"ce4bhm92rcd13ifvqglg","pricing_plan_id":"free"},{"bike_id":"c98df15d-6968-42f1-9563-40ef11fcc06c","system_id":"levelo_inurba_marseille","lat":43.25938,"lon":5.40907,"is_reserved":false,"is_disabled":false,"rental_uris":{"android":"levelo://app?vid=c98df15d-6968-42f1-9563-40ef11fcc06c","ios":"levelo://app?vid=c98df15d-6968-42f1-9563-40ef11fcc06c"},"vehicle_type_id":"4","last_reported":1701072644,"current_range_meters":15200,"station_id":"ce4bhm92rcd13ifvqglg","pricing_plan_id":"free"},{"bike_id":"91465675-1e5d-439d-9a54-c9ce949abf39","system_id":"levelo_inurba_marseille","lat":43.259013,"lon":5.409301,"is_reserved":false,"is_disabled":false,"rental_uris":{"android":"levelo://app?vid=91465675-1e5d-439d-9a54-c9ce949abf39","ios":"levelo://app?vid=91465675-1e5d-439d-9a54-c9ce949abf39"},"vehicle_type_id":"4","last_reported":1701072644,"current_range_meters":20800,"station_id":"ce4bhm92rcd13ifvqglg","pricing_plan_id":"free"},{"bike_id":"e7a74322-792b-4771-ad01-20ee51219e55","system_id":"levelo_inurba_marseille","lat":43.259013,"lon":5.409301,"is_reserved":false,"is_disabled":false,"rental_uris":{"android":"levelo://app?vid=e7a74322-792b-4771-ad01-20ee51219e55","ios":"levelo://app?vid=e7a74322-792b-4771-ad01-20ee51219e55"},"vehicle_type_id":"4","last_reported":1701072644,"current_range_meters":16000,"station_id":"ce4bhm92rcd13ifvqglg","pricing_plan_id":"free"},{"bike_id":"8996178d-25f0-40d2-947b-1feb5661f950","system_id":"levelo_inurba_marseille","lat":43.259013,"lon":5.409301,"is_reserved":false,"is_disabled":false,"rental_uris":{"android":"levelo://app?vid=8996178d-25f0-40d2-947b-1feb5661f950","ios":"levelo://app?vid=8996178d-25f0-40d2-947b-1feb5661f950"},"vehicle_type_id":"4","last_reported":1701072644,"current_range_meters":16800,"station_id":"ce4bhm92rcd13ifvqglg","pricing_plan_id":"free"},{"bike_id":"2c93c4fe-24ef-47a9-9569-5fc975cae917","system_id":"levelo_inurba_marseille","lat":43.259013,"lon":5.409301,"is_reserved":false,"is_disabled":false,"rental_uris":{"android":"levelo://app?vid=2c93c4fe-24ef-47a9-9569-5fc975cae917","ios":"levelo://app?vid=2c93c4fe-24ef-47a9-9569-5fc975cae917"},"vehicle_type_id":"4","last_reported":1701072644,"current_range_meters":20400,"station_id":"ce4bhm92rcd13ifvqglg","pricing_plan_id":"free"},{"bike_id":"977fb2a2-1f4c-4555-aaf0-bacc2d3e3880","system_id":"levelo_inurba_marseille","lat":43.250734,"lon":5.388488,"is_reserved":false,"is_disabled":false,"rental_uris":{"android":"levelo://app?vid=977fb2a2-1f4c-4555-aaf0-bacc2d3e3880","ios":"levelo://app?vid=977fb2a2-1f4c-4555-aaf0-bacc2d3e3880"},"vehicle_type_id":"4","last_reported":1701072644,"current_range_meters":24800,"station_id":"","pricing_plan_id":"free"},{"bike_id":"4446a2b5-242f-47d4-b875-2178e5c59858","system_id":"levelo_inurba_marseille","lat":43.250009,"lon":5.389195,"is_reserved":false,"is_disabled":false,"rental_uris":{"android":"levelo://app?vid=4446a2b5-242f-47d4-b875-2178e5c59858","ios":"levelo://app?vid=4446a2b5-242f-47d4-b875-2178e5c59858"},"vehicle_type_id":"4","last_reported":1701072644,"current_range_meters":12400,"station_id":"ce4bhgp2rcd13ifvqfd0","pricing_plan_id":"free"},{"bike_id":"b99cb709-75f2-4f80-91b9-ad346b8320a7","system_id":"levelo_inurba_marseille","lat":43.250009,"lon":5.389195,"is_reserved":false,"is_disabled":false,"rental_uris":{"android":"levelo://app?vid=b99cb709-75f2-4f80-91b9-ad346b8320a7","ios":"levelo://app?vid=b99cb709-75f2-4f80-91b9-ad346b8320a7"},"vehicle_type_id":"4","last_reported":1701072644,"current_range_meters":20800,"station_id":"ce4bhgp2rcd13ifvqfd0","pricing_plan_id":"free"},{"bike_id":"95dda0d8-fc97-4b74-b150-6a9610ff6a79","system_id":"levelo_inurba_marseille","lat":43.250009,"lon":5.389195,"is_reserved":false,"is_disabled":false,"rental_uris":{"android":"levelo://app?vid=95dda0d8-fc97-4b74-b150-6a9610ff6a79","ios":"levelo://app?vid=95dda0d8-fc97-4b74-b150-6a9610ff6a79"},"vehicle_type_id":"4","last_reported":1701072644,"current_range_meters":14800,"station_id":"ce4bhgp2rcd13ifvqfd0","pricing_plan_id":"free"},{"bike_id":"3a022bac-874c-479b-84ca-7d783e3f891d","system_id":"levelo_inurba_marseille","lat":43.250009,"lon":5.389195,"is_reserved":false,"is_disabled":false,"rental_uris":{"android":"levelo://app?vid=3a022bac-874c-479b-84ca-7d783e3f891d","ios":"levelo://app?vid=3a022bac-874c-479b-84ca-7d783e3f891d"},"vehicle_type_id":"4","last_reported":1701072644,"current_range_meters":21600,"station_id":"ce4bhgp2rcd13ifvqfd0","pricing_plan_id":"free"},{"bike_id":"29dee4fa-4839-4a22-a8f3-3c48ee6a4a62","system_id":"levelo_inurba_marseille","lat":43.250009,"lon":5.389195,"is_reserved":false,"is_disabled":false,"rental_uris":{"android":"levelo://app?vid=29dee4fa-4839-4a22-a8f3-3c48ee6a4a62","ios":"levelo://app?vid=29dee4fa-4839-4a22-a8f3-3c48ee6a4a62"},"vehicle_type_id":"4","last_reported":1701072644,"current_range_meters":25200,"station_id":"ce4bhgp2rcd13ifvqfd0","pricing_plan_id":"free"},{"bike_id":"bd48fc0c-1d9f-492a-bce1-06ae8515f233","system_id":"levelo_inurba_marseille","lat":43.250009,"lon":5.389195,"is_reserved":false,"is_disabled":false,"rental_uris":{"android":"levelo://app?vid=bd48fc0c-1d9f-492a-bce1-06ae8515f233","ios":"levelo://app?vid=bd48fc0c-1d9f-492a-bce1-06ae8515f233"},"vehicle_type_id":"4","last_reported":1701072644,"current_range_meters":18800,"station_id":"ce4bhgp2rcd13ifvqfd0","pricing_plan_id":"free"},{"bike_id":"6a7f9412-c14a-4f3a-a4ab-7465104b2bdb","system_id":"levelo_inurba_marseille","lat":43.250009,"lon":5.389195,"is_reserved":false,"is_disabled":false,"rental_uris":{"android":"levelo://app?vid=6a7f9412-c14a-4f3a-a4ab-7465104b2bdb","ios":"levelo://app?vid=6a7f9412-c14a-4f3a-a4ab-7465104b2bdb"},"vehicle_type_id":"4","last_reported":1701072644,"current_range_meters":25600,"station_id":"ce4bhgp2rcd13ifvqfd0","pricing_plan_id":"free"},{"bike_id":"6e0be3a2-f0c2-4ea7-8e61-a9d36d3a6115","system_id":"levelo_inurba_marseille","lat":43.250009,"lon":5.389195,"is_reserved":false,"is_disabled":false,"rental_uris":{"android":"levelo://app?vid=6e0be3a2-f0c2-4ea7-8e61-a9d36d3a6115","ios":"levelo://app?vid=6e0be3a2-f0c2-4ea7-8e61-a9d36d3a6115"},"vehicle_type_id":"4","last_reported":1701072644,"current_range_meters":21200,"station_id":"ce4bhgp2rcd13ifvqfd0","pricing_plan_id":"free"},{"bike_id":"a8dc9dcb-9ecc-447d-813f-081bfb6303ed","system_id":"levelo_inurba_marseille","lat":43.250023,"lon":5.38919,"is_reserved":false,"is_disabled":false,"rental_uris":{"android":"levelo://app?vid=a8dc9dcb-9ecc-447d-813f-081bfb6303ed","ios":"levelo://app?vid=a8dc9dcb-9ecc-447d-813f-081bfb6303ed"},"vehicle_type_id":"4","last_reported":1701072644,"current_range_meters":28800,"station_id":"ce4bhgp2rcd13ifvqfd0","pricing_plan_id":"free"},{"bike_id":"37b78dea-04d8-4b4a-b152-ae9106c88f5b","system_id":"levelo_inurba_marseille","lat":43.250023,"lon":5.38919,"is_reserved":false,"is_disabled":false,"rental_uris":{"android":"levelo://app?vid=37b78dea-04d8-4b4a-b152-ae9106c88f5b","ios":"levelo://app?vid=37b78dea-04d8-4b4a-b152-ae9106c88f5b"},"vehicle_type_id":"4","last_reported":1701072644,"current_range_meters":20400,"station_id":"ce4bhgp2rcd13ifvqfd0","pricing_plan_id":"free"},{"bike_id":"21e75d00-8156-4063-a5a2-0428cfc125a8","system_id":"levelo_inurba_marseille","lat":43.24813,"lon":5.37458,"is_reserved":false,"is_disabled":false,"rental_uris":{"android":"levelo://app?vid=21e75d00-8156-4063-a5a2-0428cfc125a8","ios":"levelo://app?vid=21e75d00-8156-4063-a5a2-0428cfc125a8"},"vehicle_type_id":"4","last_reported":1701072644,"current_range_meters":28000,"station_id":"ce4bhgh2rcd13ifvqfb0","pricing_plan_id":"free"},{"bike_id":"a3db2d3f-7cb8-4611-8b38-01ed171cfc8d","system_id":"levelo_inurba_marseille","lat":43.250009,"lon":5.389195,"is_reserved":false,"is_disabled":false,"rental_uris":{"android":"levelo://app?vid=a3db2d3f-7cb8-4611-8b38-01ed171cfc8d","ios":"levelo://app?vid=a3db2d3f-7cb8-4611-8b38-01ed171cfc8d"},"vehicle_type_id":"4","last_reported":1701072644,"current_range_meters":31200,"station_id":"ce4bhgp2rcd13ifvqfd0","pricing_plan_id":"free"},{"bike_id":"ab66a415-55f2-4250-8004-5f76e195ccba","system_id":"levelo_inurba_marseille","lat":43.250023,"lon":5.38919,"is_reserved":false,"is_disabled":false,"rental_uris":{"android":"levelo://app?vid=ab66a415-55f2-4250-8004-5f76e195ccba","ios":"levelo://app?vid=ab66a415-55f2-4250-8004-5f76e195ccba"},"vehicle_type_id":"4","last_reported":1701072644,"current_range_meters":16800,"station_id":"ce4bhgp2rcd13ifvqfd0","pricing_plan_id":"free"},{"bike_id":"441791c6-8c22-4444-b32a-f5d9a0f5ad8b","system_id":"levelo_inurba_marseille","lat":43.250023,"lon":5.38919,"is_reserved":false,"is_disabled":false,"rental_uris":{"android":"levelo://app?vid=441791c6-8c22-4444-b32a-f5d9a0f5ad8b","ios":"levelo://app?vid=441791c6-8c22-4444-b32a-f5d9a0f5ad8b"},"vehicle_type_id":"4","last_reported":1701072644,"current_range_meters":10400,"station_id":"ce4bhgp2rcd13ifvqfd0","pricing_plan_id":"free"},{"bike_id":"79aa5eb2-147a-475a-86fb-8c843f37f520","system_id":"levelo_inurba_marseille","lat":43.250023,"lon":5.38919,"is_reserved":false,"is_disabled":false,"rental_uris":{"android":"levelo://app?vid=79aa5eb2-147a-475a-86fb-8c843f37f520","ios":"levelo://app?vid=79aa5eb2-147a-475a-86fb-8c843f37f520"},"vehicle_type_id":"4","last_reported":1701072644,"current_range_meters":15600,"station_id":"ce4bhgp2rcd13ifvqfd0","pricing_plan_id":"free"},{"bike_id":"0284ba9c-df4d-482e-a059-8b2fc7ba0456","system_id":"levelo_inurba_marseille","lat":43.250023,"lon":5.38919,"is_reserved":false,"is_disabled":false,"rental_uris":{"android":"levelo://app?vid=0284ba9c-df4d-482e-a059-8b2fc7ba0456","ios":"levelo://app?vid=0284ba9c-df4d-482e-a059-8b2fc7ba0456"},"vehicle_type_id":"4","last_reported":1701072644,"current_range_meters":24000,"station_id":"ce4bhgp2rcd13ifvqfd0","pricing_plan_id":"free"},{"bike_id":"4c0c3118-7eaa-4ebd-8d87-d449bea3e021","system_id":"levelo_inurba_marseille","lat":43.250897,"lon":5.395161,"is_reserved":false,"is_disabled":false,"rental_uris":{"android":"levelo://app?vid=4c0c3118-7eaa-4ebd-8d87-d449bea3e021","ios":"levelo://app?vid=4c0c3118-7eaa-4ebd-8d87-d449bea3e021"},"vehicle_type_id":"4","last_reported":1701072644,"current_range_meters":21200,"station_id":"ce4bhm12rcd13ifvqgkg","pricing_plan_id":"free"},{"bike_id":"a32c2500-88ae-40ec-880f-f8c5aa3378f5","system_id":"levelo_inurba_marseille","lat":43.246467,"lon":5.388984,"is_reserved":false,"is_disabled":false,"rental_uris":{"android":"levelo://app?vid=a32c2500-88ae-40ec-880f-f8c5aa3378f5","ios":"levelo://app?vid=a32c2500-88ae-40ec-880f-f8c5aa3378f5"},"vehicle_type_id":"4","last_reported":1701072644,"current_range_meters":29200,"station_id":"ce4bhg12rcd13ifvqf60","pricing_plan_id":"free"},{"bike_id":"92feb5d8-50fc-4ace-b98b-dea9139091a4","system_id":"levelo_inurba_marseille","lat":43.246461,"lon":5.389014,"is_reserved":false,"is_disabled":false,"rental_uris":{"android":"levelo://app?vid=92feb5d8-50fc-4ace-b98b-dea9139091a4","ios":"levelo://app?vid=92feb5d8-50fc-4ace-b98b-dea9139091a4"},"vehicle_type_id":"4","last_reported":1701072644,"current_range_meters":28400,"station_id":"ce4bhg12rcd13ifvqf60","pricing_plan_id":"free"},{"bike_id":"c7cf2f40-e4ec-4e2c-b935-5bc24216a586","system_id":"levelo_inurba_marseille","lat":43.246467,"lon":5.388984,"is_reserved":false,"is_disabled":false,"rental_uris":{"android":"levelo://app?vid=c7cf2f40-e4ec-4e2c-b935-5bc24216a586","ios":"levelo://app?vid=c7cf2f40-e4ec-4e2c-b935-5bc24216a586"},"vehicle_type_id":"4","last_reported":1701072644,"current_range_meters":29200,"station_id":"ce4bhg12rcd13ifvqf60","pricing_plan_id":"free"},{"bike_id":"b0c2ac37-c077-4530-be03-41bd18be95c8","system_id":"levelo_inurba_marseille","lat":43.24079,"lon":5.37751,"is_reserved":false,"is_disabled":false,"rental_uris":{"android":"levelo://app?vid=b0c2ac37-c077-4530-be03-41bd18be95c8","ios":"levelo://app?vid=b0c2ac37-c077-4530-be03-41bd18be95c8"},"vehicle_type_id":"4","last_reported":1701072644,"current_range_meters":29600,"station_id":"ce4bhnp2rcd13ifvqgvg","pricing_plan_id":"free"},{"bike_id":"c9b99262-1e4d-4717-abcd-f90d80e8a7b2","system_id":"levelo_inurba_marseille","lat":43.24074,"lon":5.37765,"is_reserved":false,"is_disabled":false,"rental_uris":{"android":"levelo://app?vid=c9b99262-1e4d-4717-abcd-f90d80e8a7b2","ios":"levelo://app?vid=c9b99262-1e4d-4717-abcd-f90d80e8a7b2"},"vehicle_type_id":"4","last_reported":1701072644,"current_range_meters":30000,"station_id":"ce4bhnp2rcd13ifvqgvg","pricing_plan_id":"free"},{"bike_id":"712d39e1-faa5-41db-bffa-88867338dddb","system_id":"levelo_inurba_marseille","lat":43.24072,"lon":5.3776,"is_reserved":false,"is_disabled":false,"rental_uris":{"android":"levelo://app?vid=712d39e1-faa5-41db-bffa-88867338dddb","ios":"levelo://app?vid=712d39e1-faa5-41db-bffa-88867338dddb"},"vehicle_type_id":"4","last_reported":1701072644,"current_range_meters":18400,"station_id":"ce4bhnp2rcd13ifvqgvg","pricing_plan_id":"free"},{"bike_id":"676ca710-3e6d-46a0-8f89-0654f9686cc7","system_id":"levelo_inurba_marseille","lat":43.240623,"lon":5.377642,"is_reserved":false,"is_disabled":false,"rental_uris":{"android":"levelo://app?vid=676ca710-3e6d-46a0-8f89-0654f9686cc7","ios":"levelo://app?vid=676ca710-3e6d-46a0-8f89-0654f9686cc7"},"vehicle_type_id":"4","last_reported":1701072644,"current_range_meters":30000,"station_id":"ce4bhnp2rcd13ifvqgvg","pricing_plan_id":"free"},{"bike_id":"0824a4c9-fd1d-4c65-a0c4-1fe48fe87a25","system_id":"levelo_inurba_marseille","lat":43.240623,"lon":5.377642,"is_reserved":false,"is_disabled":false,"rental_uris":{"android":"levelo://app?vid=0824a4c9-fd1d-4c65-a0c4-1fe48fe87a25","ios":"levelo://app?vid=0824a4c9-fd1d-4c65-a0c4-1fe48fe87a25"},"vehicle_type_id":"4","last_reported":1701072644,"current_range_meters":24800,"station_id":"ce4bhnp2rcd13ifvqgvg","pricing_plan_id":"free"},{"bike_id":"09b10504-8e45-4677-abb6-61c5d3d7aa41","system_id":"levelo_inurba_marseille","lat":43.2407,"lon":5.37754,"is_reserved":false,"is_disabled":false,"rental_uris":{"android":"levelo://app?vid=09b10504-8e45-4677-abb6-61c5d3d7aa41","ios":"levelo://app?vid=09b10504-8e45-4677-abb6-61c5d3d7aa41"},"vehicle_type_id":"4","last_reported":1701072644,"current_range_meters":10400,"station_id":"ce4bhnp2rcd13ifvqgvg","pricing_plan_id":"free"},{"bike_id":"5efec776-6d6c-4990-8bbd-4640d1f2d72e","system_id":"levelo_inurba_marseille","lat":43.240623,"lon":5.377642,"is_reserved":false,"is_disabled":false,"rental_uris":{"android":"levelo://app?vid=5efec776-6d6c-4990-8bbd-4640d1f2d72e","ios":"levelo://app?vid=5efec776-6d6c-4990-8bbd-4640d1f2d72e"},"vehicle_type_id":"4","last_reported":1701072644,"current_range_meters":31200,"station_id":"ce4bhnp2rcd13ifvqgvg","pricing_plan_id":"free"},{"bike_id":"d9b3b614-4bc2-46af-b389-458d36341d73","system_id":"levelo_inurba_marseille","lat":43.240623,"lon":5.377642,"is_reserved":false,"is_disabled":false,"rental_uris":{"android":"levelo://app?vid=d9b3b614-4bc2-46af-b389-458d36341d73","ios":"levelo://app?vid=d9b3b614-4bc2-46af-b389-458d36341d73"},"vehicle_type_id":"4","last_reported":1701072644,"current_range_meters":25200,"station_id":"ce4bhnp2rcd13ifvqgvg","pricing_plan_id":"free"},{"bike_id":"220197a9-86f9-44bc-b459-ab2f70b94c7a","system_id":"levelo_inurba_marseille","lat":43.240623,"lon":5.377642,"is_reserved":false,"is_disabled":false,"rental_uris":{"android":"levelo://app?vid=220197a9-86f9-44bc-b459-ab2f70b94c7a","ios":"levelo://app?vid=220197a9-86f9-44bc-b459-ab2f70b94c7a"},"vehicle_type_id":"4","last_reported":1701072644,"current_range_meters":14400,"station_id":"ce4bhnp2rcd13ifvqgvg","pricing_plan_id":"free"},{"bike_id":"98d54cb7-b810-423a-a838-55a1a0640177","system_id":"levelo_inurba_marseille","lat":43.239588,"lon":5.366238,"is_reserved":false,"is_disabled":false,"rental_uris":{"android":"levelo://app?vid=98d54cb7-b810-423a-a838-55a1a0640177","ios":"levelo://app?vid=98d54cb7-b810-423a-a838-55a1a0640177"},