{"last_updated":1747293057,"ttl":60,"version":"2.2","data":{"bikes":[{"bike_id":"4d975b5f-19ba-4449-b2fb-50c437438d42","system_id":"levelo_inurba_marseille","lat":43.24078,"lon":5.37759,"is_reserved":false,"is_disabled":false,"rental_uris":{"android":"levelo://app?vid=4d975b5f-19ba-4449-b2fb-50c437438d42","ios":"levelo://app?vid=4d975b5f-19ba-4449-b2fb-50c437438d42"},"vehicle_type_id":"4","last_reported":1747293058,"current_range_meters":2800,"station_id":"ce4bhnp2rcd13ifvqgvg","pricing_plan_id":"cebpf4jnsgd1na2vs0mg"},{"bike_id":"4df91843-34c2-4b72-a97f-5bc426e9924d","system_id":"levelo_inurba_marseille","lat":43.30894,"lon":5.3686,"is_reserved":false,"is_disabled":false,"rental_uris":{"android":"levelo://app?vid=4df91843-34c2-4b72-a97f-5bc426e9924d","ios":"levelo://app?vid=4df91843-34c2-4b72-a97f-5bc426e9924d"},"vehicle_type_id":"4","last_reported":1747293058,"current_range_meters":2800,"station_id":"ce4bgn92rcd13ifvqbvg","pricing_plan_id":"cebpf4jnsgd1na2vs0mg"},{"bike_id":"bd712a64-b07a-487b-b522-7c79ec3b3302","system_id":"levelo_inurba_marseille","lat":43.301356,"lon":5.398828,"is_reserved":false,"is_disabled":true,"rental_uris":{"android":"levelo://app?vid=bd712a64-b07a-487b-b522-7c79ec3b3302","ios":"levelo://app?vid=bd712a64-b07a-487b-b522-7c79ec3b3302"},"vehicle_type_id":"4","last_reported":1747293058,"current_range_meters":3200,"station_id":"ce4bh0h2rcd13ifvqd40","pricing_plan_id":"cebpf4jnsgd1na2vs0mg"},{"bike_id":"f37b7848-b34f-4203-8cd6-ee4ac88ff930","system_id":"levelo_inurba_marseille","lat":43.23972,"lon":5.36617,"is_reserved":false,"is_disabled":false,"rental_uris":{"android":"levelo://app?vid=f37b7848-b34f-4203-8cd6-ee4ac88ff930","ios":"levelo://app?vid=f37b7848-b34f-4203-8cd6-ee4ac88ff930"},"vehicle_type_id":"4","last_reported":1747293058,"current_range_meters":3200,"station_id":"ce4bhi12rcd13ifvqfp0","pricing_plan_id":"cebpf4jnsgd1na2vs0mg"},{"bike_id":"a3a4db16-1d43-4faa-94fc-82d9d6fa9222","system_id":"levelo_inurba_marseille","lat":43.30575,"lon":5.38376,"is_reserved":false,"is_disabled":false,"rental_uris":{"android":"levelo://app?vid=a3a4db16-1d43-4faa-94fc-82d9d6fa9222","ios":"levelo://app?vid=a3a4db16-1d43-4faa-94fc-82d9d6fa9222"},"vehicle_type_id":"4","last_reported":1747293058,"current_range_meters":3200,"station_id":"ce4bgg92rcd13ifvqb30","pricing_plan_id":"cebpf4jnsgd1na2vs0mg"},{"bike_id":"ce4325af-2448-4172-bdec-81d552ee0b62","system_id":"levelo_inurba_marseille","lat":43.26169,"lon":5.42021,"is_reserved":false,"is_disabled":false,"rental_uris":{"android":"levelo://app?vid=ce4325af-2448-4172-bdec-81d552ee0b62","ios":"levelo://app?vid=ce4325af-2448-4172-bdec-81d552ee0b62"},"vehicle_type_id":"4","last_reported":1747293058,"current_range_meters":3200,"station_id":"","pricing_plan_id":"cebpf4jnsgd1na2vs0mg"},{"bike_id":"6953ca09-b1d0-473e-8b94-d568eb1a7f43","system_id":"levelo_inurba_marseille","lat":43.288521,"lon":5.371428,"is_reserved":false,"is_disabled":false,"rental_uris":{"android":"levelo://app?vid=6953ca09-b1d0-473e-8b94-d568eb1a7f43","ios":"levelo://app?vid=6953ca09-b1d0-473e-8b94-d568eb1a7f43"},"vehicle_type_id":"4","last_reported":1747293058,"current_range_meters":3200,"station_id":"","pricing_plan_id":"cebpf4jnsgd1na2vs0mg"},{"bike_id":"60d18ab2-b760-4b9b-b81a-996756465606","system_id":"levelo_inurba_marseille","lat":43.26564,"lon":5.39011,"is_reserved":false,"is_disabled":false,"rental_uris":{"android":"levelo://app?vid=60d18ab2-b760-4b9b-b81a-996756465606","ios":"levelo://app?vid=60d18ab2-b760-4b9b-b81a-996756465606"},"vehicle_type_id":"4","last_reported":1747293058,"current_range_meters":3200,"station_id":"ce4bhe12rcd13ifvqf30","pricing_plan_id":"cebpf4jnsgd1na2vs0mg"},{"bike_id":"cbe5d074-3657-4a38-a945-adda68e4e374","system_id":"levelo_inurba_marseille","lat":43.32452,"lon":5.36603,"is_reserved":false,"is_disabled":false,"rental_uris":{"android":"levelo://app?vid=cbe5d074-3657-4a38-a945-adda68e4e374","ios":"levelo://app?vid=cbe5d074-3657-4a38-a945-adda68e4e374"},"vehicle_type_id":"4","last_reported":1747293058,"current_range_meters":3600,"station_id":"ce4bhs12rcd13ifvqhvg","pricing_plan_id":"cebpf4jnsgd1na2vs0mg"},{"bike_id":"63643c9a-87aa-4a89-9a84-5293d256811b","system_id":"levelo_inurba_marseille","lat":43.30951,"lon":5.39049,"is_reserved":false,"is_disabled":false,"rental_uris":{"android":"levelo://app?vid=63643c9a-87aa-4a89-9a84-5293d256811b","ios":"levelo://app?vid=63643c9a-87aa-4a89-9a84-5293d256811b"},"vehicle_type_id":"4","last_reported":1747293058,"current_range_meters":3600,"station_id":"ce4bgup2rcd13ifvqco0","pricing_plan_id":"cebpf4jnsgd1na2vs0mg"},{"bike_id":"bbb5452e-a389-489c-88ec-530567e334a1","system_id":"levelo_inurba_marseille","lat":43.27313,"lon":5.39076,"is_reserved":false,"is_disabled":false,"rental_uris":{"android":"levelo://app?vid=bbb5452e-a389-489c-88ec-530567e334a1","ios":"levelo://app?vid=bbb5452e-a389-489c-88ec-530567e334a1"},"vehicle_type_id":"4","last_reported":1747293058,"current_range_meters":3600,"station_id":"ce4bhgp2rcd13ifvqfe0","pricing_plan_id":"cebpf4jnsgd1na2vs0mg"},{"bike_id":"5e1f0475-0e0d-47b0-a949-349fc84c4202","system_id":"levelo_inurba_marseille","lat":43.25722,"lon":5.41108,"is_reserved":false,"is_disabled":false,"rental_uris":{"android":"levelo://app?vid=5e1f0475-0e0d-47b0-a949-349fc84c4202","ios":"levelo://app?vid=5e1f0475-0e0d-47b0-a949-349fc84c4202"},"vehicle_type_id":"4","last_reported":1747293058,"current_range_meters":3600,"station_id":"ce4bhkp2rcd13ifvqgd0","pricing_plan_id":"cebpf4jnsgd1na2vs0mg"},{"bike_id":"d9537656-4857-40a1-8a80-6a7ff4ede02c","system_id":"levelo_inurba_marseille","lat":43.29201,"lon":5.39316,"is_reserved":false,"is_disabled":false,"rental_uris":{"android":"levelo://app?vid=d9537656-4857-40a1-8a80-6a7ff4ede02c","ios":"levelo://app?vid=d9537656-4857-40a1-8a80-6a7ff4ede02c"},"vehicle_type_id":"4","last_reported":1747293058,"current_range_meters":3600,"station_id":"ce4bh192rcd13ifvqdd0","pricing_plan_id":"cebpf4jnsgd1na2vs0mg"},{"bike_id":"893cee9f-22ed-4823-82b3-4da288b81784","system_id":"levelo_inurba_marseille","lat":43.30581,"lon":5.393576,"is_reserved":false,"is_disabled":true,"rental_uris":{"android":"levelo://app?vid=893cee9f-22ed-4823-82b3-4da288b81784","ios":"levelo://app?vid=893cee9f-22ed-4823-82b3-4da288b81784"},"vehicle_type_id":"4","last_reported":1747293058,"current_range_meters":4000,"station_id":"","pricing_plan_id":"cebpf4jnsgd1na2vs0mg"},{"bike_id":"715dcba5-87c5-48c8-9278-7833f1c97afb","system_id":"levelo_inurba_marseille","lat":43.27428,"lon":5.39414,"is_reserved":false,"is_disabled":false,"rental_uris":{"android":"levelo://app?vid=715dcba5-87c5-48c8-9278-7833f1c97afb","ios":"levelo://app?vid=715dcba5-87c5-48c8-9278-7833f1c97afb"},"vehicle_type_id":"4","last_reported":1747293058,"current_range_meters":3600,"station_id":"ce4bhdp2rcd13ifvqf20","pricing_plan_id":"cebpf4jnsgd1na2vs0mg"},{"bike_id":"e822eec1-6e64-4c07-8d22-06a0c692414e","system_id":"levelo_inurba_marseille","lat":43.26955,"lon":5.38626,"is_reserved":false,"is_disabled":false,"rental_uris":{"android":"levelo://app?vid=e822eec1-6e64-4c07-8d22-06a0c692414e","ios":"levelo://app?vid=e822eec1-6e64-4c07-8d22-06a0c692414e"},"vehicle_type_id":"4","last_reported":1747293058,"current_range_meters":4400,"station_id":"ce4bhh92rcd13ifvqfh0","pricing_plan_id":"cebpf4jnsgd1na2vs0mg"},{"bike_id":"87d0dd96-f332-48f3-a46b-97fa13245d55","system_id":"levelo_inurba_marseille","lat":43.25719,"lon":5.41114,"is_reserved":false,"is_disabled":false,"rental_uris":{"android":"levelo://app?vid=87d0dd96-f332-48f3-a46b-97fa13245d55","ios":"levelo://app?vid=87d0dd96-f332-48f3-a46b-97fa13245d55"},"vehicle_type_id":"4","last_reported":1747293058,"current_range_meters":4400,"station_id":"ce4bhkp2rcd13ifvqgd0","pricing_plan_id":"cebpf4jnsgd1na2vs0mg"},{"bike_id":"e593003e-4453-4b56-af33-c35b7cf7d4ff","system_id":"levelo_inurba_marseille","lat":43.33719,"lon":5.39188,"is_reserved":false,"is_disabled":false,"rental_uris":{"android":"levelo://app?vid=e593003e-4453-4b56-af33-c35b7cf7d4ff","ios":"levelo://app?vid=e593003e-4453-4b56-af33-c35b7cf7d4ff"},"vehicle_type_id":"4","last_reported":1747293058,"current_range_meters":4400,"station_id":"ce4bhr92rcd13ifvqhsg","pricing_plan_id":"cebpf4jnsgd1na2vs0mg"},{"bike_id":"c428de56-548a-4036-a65e-333ad5fef3b9","system_id":"levelo_inurba_marseille","lat":43.28703,"lon":5.39989,"is_reserved":false,"is_disabled":false,"rental_uris":{"android":"levelo://app?vid=c428de56-548a-4036-a65e-333ad5fef3b9","ios":"levelo://app?vid=c428de56-548a-4036-a65e-333ad5fef3b9"},"vehicle_type_id":"4","last_reported":1747293058,"current_range_meters":4400,"station_id":"ce4bho92rcd13ifvqh3g","pricing_plan_id":"cebpf4jnsgd1na2vs0mg"},{"bike_id":"16e08ccb-5366-4c0c-b39d-2028275565b7","system_id":"levelo_inurba_marseille","lat":43.30902,"lon":5.36852,"is_reserved":false,"is_disabled":false,"rental_uris":{"android":"levelo://app?vid=16e08ccb-5366-4c0c-b39d-2028275565b7","ios":"levelo://app?vid=16e08ccb-5366-4c0c-b39d-2028275565b7"},"vehicle_type_id":"4","last_reported":1747293058,"current_range_meters":4400,"station_id":"ce4bgn92rcd13ifvqbvg","pricing_plan_id":"cebpf4jnsgd1na2vs0mg"},{"bike_id":"f69b76cc-8219-4b7a-997d-eafe88d3699c","system_id":"levelo_inurba_marseille","lat":43.24168,"lon":5.39726,"is_reserved":false,"is_disabled":false,"rental_uris":{"android":"levelo://app?vid=f69b76cc-8219-4b7a-997d-eafe88d3699c","ios":"levelo://app?vid=f69b76cc-8219-4b7a-997d-eafe88d3699c"},"vehicle_type_id":"4","last_reported":1747293058,"current_range_meters":4800,"station_id":"ce4bhn12rcd13ifvqgpg","pricing_plan_id":"cebpf4jnsgd1na2vs0mg"},{"bike_id":"8e6d6451-a415-4b2f-bc73-95ffb29ead42","system_id":"levelo_inurba_marseille","lat":43.231891,"lon":5.355691,"is_reserved":false,"is_disabled":true,"rental_uris":{"android":"levelo://app?vid=8e6d6451-a415-4b2f-bc73-95ffb29ead42","ios":"levelo://app?vid=8e6d6451-a415-4b2f-bc73-95ffb29ead42"},"vehicle_type_id":"4","last_reported":1747293058,"current_range_meters":5600,"station_id":"ce4bhu92rcd13ifvqi70","pricing_plan_id":"cebpf4jnsgd1na2vs0mg"},{"bike_id":"c94b89b6-5f2b-4ea4-bab2-9da6396b5d03","system_id":"levelo_inurba_marseille","lat":43.24172,"lon":5.3972,"is_reserved":false,"is_disabled":false,"rental_uris":{"android":"levelo://app?vid=c94b89b6-5f2b-4ea4-bab2-9da6396b5d03","ios":"levelo://app?vid=c94b89b6-5f2b-4ea4-bab2-9da6396b5d03"},"vehicle_type_id":"4","last_reported":1747293058,"current_range_meters":5600,"station_id":"ce4bhn12rcd13ifvqgpg","pricing_plan_id":"cebpf4jnsgd1na2vs0mg"},{"bike_id":"edcddc17-39c4-4d5d-884a-a09a61c74702","system_id":"levelo_inurba_marseille","lat":43.26781,"lon":5.39415,"is_reserved":false,"is_disabled":false,"rental_uris":{"android":"levelo://app?vid=edcddc17-39c4-4d5d-884a-a09a61c74702","ios":"levelo://app?vid=edcddc17-39c4-4d5d-884a-a09a61c74702"},"vehicle_type_id":"4","last_reported":1747293058,"current_range_meters":5600,"station_id":"ce4bhh12rcd13ifvqfg0","pricing_plan_id":"cebpf4jnsgd1na2vs0mg"},{"bike_id":"4d9053ce-d60d-4596-b053-339edccb4f89","system_id":"levelo_inurba_marseille","lat":43.26782,"lon":5.39417,"is_reserved":false,"is_disabled":false,"rental_uris":{"android":"levelo://app?vid=4d9053ce-d60d-4596-b053-339edccb4f89","ios":"levelo://app?vid=4d9053ce-d60d-4596-b053-339edccb4f89"},"vehicle_type_id":"4","last_reported":1747293058,"current_range_meters":5600,"station_id":"ce4bhh12rcd13ifvqfg0","pricing_plan_id":"cebpf4jnsgd1na2vs0mg"},{"bike_id":"ddfd940d-95a7-45bf-9c9c-763900983f9b","system_id":"levelo_inurba_marseille","lat":43.30561,"lon":5.36709,"is_reserved":false,"is_disabled":false,"rental_uris":{"android":"levelo://app?vid=ddfd940d-95a7-45bf-9c9c-763900983f9b","ios":"levelo://app?vid=ddfd940d-95a7-45bf-9c9c-763900983f9b"},"vehicle_type_id":"4","last_reported":1747293058,"current_range_meters":5600,"station_id":"ce4bgrp2rcd13ifvqc9g","pricing_plan_id":"cebpf4jnsgd1na2vs0mg"},{"bike_id":"27574ff1-e3c1-44a9-81f3-e092ad2ace34","system_id":"levelo_inurba_marseille","lat":43.3054,"lon":5.36557,"is_reserved":false,"is_disabled":false,"rental_uris":{"android":"levelo://app?vid=27574ff1-e3c1-44a9-81f3-e092ad2ace34","ios":"levelo://app?vid=27574ff1-e3c1-44a9-81f3-e092ad2ace34"},"vehicle_type_id":"4","last_reported":1747293058,"current_range_meters":6000,"station_id":"ce4bgs12rcd13ifvqcag","pricing_plan_id":"cebpf4jnsgd1na2vs0mg"},{"bike_id":"6c5e2750-bf55-4812-bb81-a9df60873a61","system_id":"levelo_inurba_marseille","lat":43.29639,"lon":5.36185,"is_reserved":false,"is_disabled":true,"rental_uris":{"android":"levelo://app?vid=6c5e2750-bf55-4812-bb81-a9df60873a61","ios":"levelo://app?vid=6c5e2750-bf55-4812-bb81-a9df60873a61"},"vehicle_type_id":"4","last_reported":1747293058,"current_range_meters":6000,"station_id":"","pricing_plan_id":"cebpf4jnsgd1na2vs0mg"},{"bike_id":"49a92489-c5ca-47f2-aae4-765cb113ebbc","system_id":"levelo_inurba_marseille","lat":43.30489,"lon":5.37909,"is_reserved":false,"is_disabled":false,"rental_uris":{"android":"levelo://app?vid=49a92489-c5ca-47f2-aae4-765cb113ebbc","ios":"levelo://app?vid=49a92489-c5ca-47f2-aae4-765cb113ebbc"},"vehicle_type_id":"4","last_reported":1747293058,"current_range_meters":6000,"station_id":"ce4bgup2rcd13ifvqcn0","pricing_plan_id":"cebpf4jnsgd1na2vs0mg"},{"bike_id":"d5987aa0-9aa2-4354-8255-35290b4d5372","system_id":"levelo_inurba_marseille","lat":43.31758,"lon":5.39013,"is_reserved":false,"is_disabled":false,"rental_uris":{"android":"levelo://app?vid=d5987aa0-9aa2-4354-8255-35290b4d5372","ios":"levelo://app?vid=d5987aa0-9aa2-4354-8255-35290b4d5372"},"vehicle_type_id":"4","last_reported":1747293058,"current_range_meters":6000,"station_id":"ce4bhqp2rcd13ifvqhng","pricing_plan_id":"cebpf4jnsgd1na2vs0mg"},{"bike_id":"29f31b6e-00bf-43cf-b902-125abe593de5","system_id":"levelo_inurba_marseille","lat":43.30551,"lon":5.36724,"is_reserved":false,"is_disabled":false,"rental_uris":{"android":"levelo://app?vid=29f31b6e-00bf-43cf-b902-125abe593de5","ios":"levelo://app?vid=29f31b6e-00bf-43cf-b902-125abe593de5"},"vehicle_type_id":"4","last_reported":1747293058,"current_range_meters":6400,"station_id":"ce4bgrp2rcd13ifvqc9g","pricing_plan_id":"cebpf4jnsgd1na2vs0mg"},{"bike_id":"3255c134-1f0a-4de5-b001-987aef916fba","system_id":"levelo_inurba_marseille","lat":43.24068,"lon":5.37761,"is_reserved":false,"is_disabled":false,"rental_uris":{"android":"levelo://app?vid=3255c134-1f0a-4de5-b001-987aef916fba","ios":"levelo://app?vid=3255c134-1f0a-4de5-b001-987aef916fba"},"vehicle_type_id":"4","last_reported":1747293058,"current_range_meters":6400,"station_id":"ce4bhnp2rcd13ifvqgvg","pricing_plan_id":"cebpf4jnsgd1na2vs0mg"},{"bike_id":"0adfef43-1680-4fc7-8d23-89e430c60835","system_id":"levelo_inurba_marseille","lat":43.25005,"lon":5.3895,"is_reserved":false,"is_disabled":false,"rental_uris":{"android":"levelo://app?vid=0adfef43-1680-4fc7-8d23-89e430c60835","ios":"levelo://app?vid=0adfef43-1680-4fc7-8d23-89e430c60835"},"vehicle_type_id":"4","last_reported":1747293058,"current_range_meters":6800,"station_id":"ce4bhgp2rcd13ifvqfd0","pricing_plan_id":"cebpf4jnsgd1na2vs0mg"},{"bike_id":"e78f66a7-b8e6-4591-8cb0-b4a58c4d0d6f","system_id":"levelo_inurba_marseille","lat":43.27968,"lon":5.38746,"is_reserved":false,"is_disabled":false,"rental_uris":{"android":"levelo://app?vid=e78f66a7-b8e6-4591-8cb0-b4a58c4d0d6f","ios":"levelo://app?vid=e78f66a7-b8e6-4591-8cb0-b4a58c4d0d6f"},"vehicle_type_id":"4","last_reported":1747293058,"current_range_meters":6800,"station_id":"ce4bhg12rcd13ifvqf80","pricing_plan_id":"cebpf4jnsgd1na2vs0mg"},{"bike_id":"5feaa45a-9e4b-44a0-b61e-0d92c35a2177","system_id":"levelo_inurba_marseille","lat":43.27917,"lon":5.39579,"is_reserved":false,"is_disabled":false,"rental_uris":{"android":"levelo://app?vid=5feaa45a-9e4b-44a0-b61e-0d92c35a2177","ios":"levelo://app?vid=5feaa45a-9e4b-44a0-b61e-0d92c35a2177"},"vehicle_type_id":"4","last_reported":1747293058,"current_range_meters":6800,"station_id":"ce4bhf92rcd13ifvqf40","pricing_plan_id":"cebpf4jnsgd1na2vs0mg"},{"bike_id":"2fcc4300-9147-4a4b-a12c-17076499c238","system_id":"levelo_inurba_marseille","lat":43.32534,"lon":5.41428,"is_reserved":false,"is_disabled":false,"rental_uris":{"android":"levelo://app?vid=2fcc4300-9147-4a4b-a12c-17076499c238","ios":"levelo://app?vid=2fcc4300-9147-4a4b-a12c-17076499c238"},"vehicle_type_id":"4","last_reported":1747293058,"current_range_meters":6800,"station_id":"ce4bhq12rcd13ifvqhhg","pricing_plan_id":"cebpf4jnsgd1na2vs0mg"},{"bike_id":"271bda31-694d-4a81-bc50-606e6f7e69eb","system_id":"levelo_inurba_marseille","lat":43.28265,"lon":5.35077,"is_reserved":false,"is_disabled":false,"rental_uris":{"android":"levelo://app?vid=271bda31-694d-4a81-bc50-606e6f7e69eb","ios":"levelo://app?vid=271bda31-694d-4a81-bc50-606e6f7e69eb"},"vehicle_type_id":"4","last_reported":1747293058,"current_range_meters":7200,"station_id":"ce4bhbp2rcd13ifvqerg","pricing_plan_id":"cebpf4jnsgd1na2vs0mg"},{"bike_id":"7bd0ce5d-2446-44bc-8e30-a2d929008d8e","system_id":"levelo_inurba_marseille","lat":43.26785,"lon":5.39417,"is_reserved":false,"is_disabled":false,"rental_uris":{"android":"levelo://app?vid=7bd0ce5d-2446-44bc-8e30-a2d929008d8e","ios":"levelo://app?vid=7bd0ce5d-2446-44bc-8e30-a2d929008d8e"},"vehicle_type_id":"4","last_reported":1747293058,"current_range_meters":7200,"station_id":"ce4bhh12rcd13ifvqfg0","pricing_plan_id":"cebpf4jnsgd1na2vs0mg"},{"bike_id":"6c0eb841-63a3-40e5-87d8-842b61a87211","system_id":"levelo_inurba_marseille","lat":43.278073,"lon":5.407103,"is_reserved":false,"is_disabled":false,"rental_uris":{"android":"levelo://app?vid=6c0eb841-63a3-40e5-87d8-842b61a87211","ios":"levelo://app?vid=6c0eb841-63a3-40e5-87d8-842b61a87211"},"vehicle_type_id":"4","last_reported":1747293058,"current_range_meters":8000,"station_id":"ce4bhnh2rcd13ifvqgtg","pricing_plan_id":"cebpf4jnsgd1na2vs0mg"},{"bike_id":"9c70d00d-6bc8-4ad6-92b5-ad623139b2a5","system_id":"levelo_inurba_marseille","lat":43.24806,"lon":5.37458,"is_reserved":false,"is_disabled":false,"rental_uris":{"android":"levelo://app?vid=9c70d00d-6bc8-4ad6-92b5-ad623139b2a5","ios":"levelo://app?vid=9c70d00d-6bc8-4ad6-92b5-ad623139b2a5"},"vehicle_type_id":"4","last_reported":1747293058,"current_range_meters":8000,"station_id":"ce4bhgh2rcd13ifvqfb0","pricing_plan_id":"cebpf4jnsgd1na2vs0mg"},{"bike_id":"cff07eda-0d35-48d7-ae3d-eafcd93e64af","system_id":"levelo_inurba_marseille","lat":43.31922,"lon":5.39472,"is_reserved":false,"is_disabled":false,"rental_uris":{"android":"levelo://app?vid=cff07eda-0d35-48d7-ae3d-eafcd93e64af","ios":"levelo://app?vid=cff07eda-0d35-48d7-ae3d-eafcd93e64af"},"vehicle_type_id":"4","last_reported":1747293058,"current_range_meters":8000,"station_id":"","pricing_plan_id":"cebpf4jnsgd1na2vs0mg"},{"bike_id":"fd9dc6e2-7bf9-49f8-8af8-689b0515ba1e","system_id":"levelo_inurba_marseille","lat":43.30476,"lon":5.37908,"is_reserved":false,"is_disabled":false,"rental_uris":{"android":"levelo://app?vid=fd9dc6e2-7bf9-49f8-8af8-689b0515ba1e","ios":"levelo://app?vid=fd9dc6e2-7bf9-49f8-8af8-689b0515ba1e"},"vehicle_type_id":"4","last_reported":1747293058,"current_range_meters":8000,"station_id":"ce4bgup2rcd13ifvqcn0","pricing_plan_id":"cebpf4jnsgd1na2vs0mg"},{"bike_id":"1ede5862-fbb9-4afe-9113-9a2a9c4dee45","system_id":"levelo_inurba_marseille","lat":43.30965,"lon":5.39058,"is_reserved":false,"is_disabled":false,"rental_uris":{"android":"levelo://app?vid=1ede5862-fbb9-4afe-9113-9a2a9c4dee45","ios":"levelo://app?vid=1ede5862-fbb9-4afe-9113-9a2a9c4dee45"},"vehicle_type_id":"4","last_reported":1747293058,"current_range_meters":8000,"station_id":"ce4bgup2rcd13ifvqco0","pricing_plan_id":"cebpf4jnsgd1na2vs0mg"},{"bike_id":"0d909eeb-61be-41ae-9487-76e9932d139a","system_id":"levelo_inurba_marseille","lat":43.30536,"lon":5.36535,"is_reserved":false,"is_disabled":false,"rental_uris":{"android":"levelo://app?vid=0d909eeb-61be-41ae-9487-76e9932d139a","ios":"levelo://app?vid=0d909eeb-61be-41ae-9487-76e9932d139a"},"vehicle_type_id":"4","last_reported":1747293058,"current_range_meters":8000,"station_id":"ce4bgs12rcd13ifvqcag","pricing_plan_id":"cebpf4jnsgd1na2vs0mg"},{"bike_id":"0dc8d66b-f0cb-4c51-970f-b855be3b36ca","system_id":"levelo_inurba_marseille","lat":43.26207,"lon":5.37836,"is_reserved":false,"is_disabled":true,"rental_uris":{"android":"levelo://app?vid=0dc8d66b-f0cb-4c51-970f-b855be3b36ca","ios":"levelo://app?vid=0dc8d66b-f0cb-4c51-970f-b855be3b36ca"},"vehicle_type_id":"4","last_reported":1747293058,"current_range_meters":8000,"station_id":"","pricing_plan_id":"cebpf4jnsgd1na2vs0mg"},{"bike_id":"3faf053c-e846-4d83-83ee-8fd51efc38bb","system_id":"levelo_inurba_marseille","lat":43.321108,"lon":5.367859,"is_reserved":false,"is_disabled":false,"rental_uris":{"android":"levelo://app?vid=3faf053c-e846-4d83-83ee-8fd51efc38bb","ios":"levelo://app?vid=3faf053c-e846-4d83-83ee-8fd51efc38bb"},"vehicle_type_id":"4","last_reported":1747293058,"current_range_meters":8000,"station_id":"ce4bhrh2rcd13ifvqhug","pricing_plan_id":"cebpf4jnsgd1na2vs0mg"},{"bike_id":"3a90d10e-3ea8-4d6d-aa11-297c8916e615","system_id":"levelo_inurba_marseille","lat":43.24079,"lon":5.37747,"is_reserved":false,"is_disabled":false,"rental_uris":{"android":"levelo://app?vid=3a90d10e-3ea8-4d6d-aa11-297c8916e615","ios":"levelo://app?vid=3a90d10e-3ea8-4d6d-aa11-297c8916e615"},"vehicle_type_id":"4","last_reported":1747293058,"current_range_meters":8400,"station_id":"ce4bhnp2rcd13ifvqgvg","pricing_plan_id":"cebpf4jnsgd1na2vs0mg"},{"bike_id":"33769bbf-b6b8-450a-9b23-9efb1cf499ac","system_id":"levelo_inurba_marseille","lat":43.29842,"lon":5.36275,"is_reserved":false,"is_disabled":false,"rental_uris":{"android":"levelo://app?vid=33769bbf-b6b8-450a-9b23-9efb1cf499ac","ios":"levelo://app?vid=33769bbf-b6b8-450a-9b23-9efb1cf499ac"},"vehicle_type_id":"4","last_reported":1747293058,"current_range_meters":8000,"station_id":"ce4bgpp2rcd13ifvqc3g","pricing_plan_id":"cebpf4jnsgd1na2vs0mg"},{"bike_id":"7f1fa32b-2397-47ae-bb4a-87df8a7bc9b3","system_id":"levelo_inurba_marseille","lat":43.26683,"lon":5.38276,"is_reserved":false,"is_disabled":false,"rental_uris":{"android":"levelo://app?vid=7f1fa32b-2397-47ae-bb4a-87df8a7bc9b3","ios":"levelo://app?vid=7f1fa32b-2397-47ae-bb4a-87df8a7bc9b3"},"vehicle_type_id":"4","last_reported":1747293058,"current_range_meters":8400,"station_id":"ce4bhg92rcd13ifvqf90","pricing_plan_id":"cebpf4jnsgd1na2vs0mg"},{"bike_id":"53e7f97f-a16f-4f3d-ad68-4088fd65db50","system_id":"levelo_inurba_marseille","lat":43.30909,"lon":5.36851,"is_reserved":false,"is_disabled":true,"rental_uris":{"android":"levelo://app?vid=53e7f97f-a16f-4f3d-ad68-4088fd65db50","ios":"levelo://app?vid=53e7f97f-a16f-4f3d-ad68-4088fd65db50"},"vehicle_type_id":"4","last_reported":1747293058,"current_range_meters":8400,"station_id":"ce4bgn92rcd13ifvqbvg","pricing_plan_id":"cebpf4jnsgd1na2vs0mg"},{"bike_id":"341bba5b-5b6d-4a18-b008-1ad30fcd501c","system_id":"levelo_inurba_marseille","lat":43.30167,"lon":5.38099,"is_reserved":false,"is_disabled":false,"rental_uris":{"android":"levelo://app?vid=341bba5b-5b6d-4a18-b008-1ad30fcd501c","ios":"levelo://app?vid=341bba5b-5b6d-4a18-b008-1ad30fcd501c"},"vehicle_type_id":"4","last_reported":1747293058,"current_range_meters":8400,"station_id":"ce4bgjp2rcd13ifvqbh0","pricing_plan_id":"cebpf4jnsgd1na2vs0mg"},{"bike_id":"b7922bd0-50e5-46c8-9537-8ecd47279906","system_id":"levelo_inurba_marseille","lat":43.30457,"lon":5.37896,"is_reserved":false,"is_disabled":false,"rental_uris":{"android":"levelo://app?vid=b7922bd0-50e5-46c8-9537-8ecd47279906","ios":"levelo://app?vid=b7922bd0-50e5-46c8-9537-8ecd47279906"},"vehicle_type_id":"4","last_reported":1747293058,"current_range_meters":8000,"station_id":"ce4bgup2rcd13ifvqcn0","pricing_plan_id":"cebpf4jnsgd1na2vs0mg"},{"bike_id":"e28fc134-4dff-4030-9898-913023cfb2e0","system_id":"levelo_inurba_marseille","lat":43.267125,"lon":5.402581,"is_reserved":false,"is_disabled":false,"rental_uris":{"android":"levelo://app?vid=e28fc134-4dff-4030-9898-913023cfb2e0","ios":"levelo://app?vid=e28fc134-4dff-4030-9898-913023cfb2e0"},"vehicle_type_id":"4","last_reported":1747293058,"current_range_meters":8400,"station_id":"ce4bhkp2rcd13ifvqgd0","pricing_plan_id":"cebpf4jnsgd1na2vs0mg"},{"bike_id":"600ba6c1-7560-45cb-95ed-24074707e296","system_id":"levelo_inurba_marseille","lat":43.23964,"lon":5.3663,"is_reserved":false,"is_disabled":false,"rental_uris":{"android":"levelo://app?vid=600ba6c1-7560-45cb-95ed-24074707e296","ios":"levelo://app?vid=600ba6c1-7560-45cb-95ed-24074707e296"},"vehicle_type_id":"4","last_reported":1747293058,"current_range_meters":8400,"station_id":"ce4bhi12rcd13ifvqfp0","pricing_plan_id":"cebpf4jnsgd1na2vs0mg"},{"bike_id":"e6e90be0-ff52-4c5d-a206-61f2131b752f","system_id":"levelo_inurba_marseille","lat":43.29533,"lon":5.37505,"is_reserved":false,"is_disabled":false,"rental_uris":{"android":"levelo://app?vid=e6e90be0-ff52-4c5d-a206-61f2131b752f","ios":"levelo://app?vid=e6e90be0-ff52-4c5d-a206-61f2131b752f"},"vehicle_type_id":"4","last_reported":1747293058,"current_range_meters":5600,"station_id":"ce4bgkp2rcd13ifvqbmg","pricing_plan_id":"cebpf4jnsgd1na2vs0mg"},{"bike_id":"e3faef6f-635a-4b6b-b2b3-c0b918604df6","system_id":"levelo_inurba_marseille","lat":43.29916,"lon":5.43665,"is_reserved":false,"is_disabled":false,"rental_uris":{"android":"levelo://app?vid=e3faef6f-635a-4b6b-b2b3-c0b918604df6","ios":"levelo://app?vid=e3faef6f-635a-4b6b-b2b3-c0b918604df6"},"vehicle_type_id":"4","last_reported":1747293058,"current_range_meters":8400,"station_id":"ce4bhpp2rcd13ifvqhfg","pricing_plan_id":"cebpf4jnsgd1na2vs0mg"},{"bike_id":"6a94c510-06e9-4819-80f4-2a1f66907200","system_id":"levelo_inurba_marseille","lat":43.243324,"lon":5.379929,"is_reserved":false,"is_disabled":false,"rental_uris":{"android":"levelo://app?vid=6a94c510-06e9-4819-80f4-2a1f66907200","ios":"levelo://app?vid=6a94c510-06e9-4819-80f4-2a1f66907200"},"vehicle_type_id":"4","last_reported":1747293058,"current_range_meters":8800,"station_id":"","pricing_plan_id":"cebpf4jnsgd1na2vs0mg"},{"bike_id":"7bfa850e-d1f8-4633-8140-5a3010650b99","system_id":"levelo_inurba_marseille","lat":43.310864,"lon":5.424354,"is_reserved":false,"is_disabled":false,"rental_uris":{"android":"levelo://app?vid=7bfa850e-d1f8-4633-8140-5a3010650b99","ios":"levelo://app?vid=7bfa850e-d1f8-4633-8140-5a3010650b99"},"vehicle_type_id":"4","last_reported":1747293058,"current_range_meters":8800,"station_id":"ce4bhp92rcd13ifvqhag","pricing_plan_id":"cebpf4jnsgd1na2vs0mg"},{"bike_id":"d414cc79-093d-4e3c-a0fb-23753cfee462","system_id":"levelo_inurba_marseille","lat":43.30519,"lon":5.36535,"is_reserved":false,"is_disabled":false,"rental_uris":{"android":"levelo://app?vid=d414cc79-093d-4e3c-a0fb-23753cfee462","ios":"levelo://app?vid=d414cc79-093d-4e3c-a0fb-23753cfee462"},"vehicle_type_id":"4","last_reported":1747293058,"current_range_meters":8800,"station_id":"ce4bgs12rcd13ifvqcag","pricing_plan_id":"cebpf4jnsgd1na2vs0mg"},{"bike_id":"b2f61f9a-3154-45b8-9841-e9df8835686b","system_id":"levelo_inurba_marseille","lat":43.30457,"lon":5.37905,"is_reserved":false,"is_disabled":false,"rental_uris":{"android":"levelo://app?vid=b2f61f9a-3154-45b8-9841-e9df8835686b","ios":"levelo://app?vid=b2f61f9a-3154-45b8-9841-e9df8835686b"},"vehicle_type_id":"4","last_reported":1747293058,"current_range_meters":8800,"station_id":"ce4bgup2rcd13ifvqcn0","pricing_plan_id":"cebpf4jnsgd1na2vs0mg"},{"bike_id":"be04f340-892a-49fb-8fe5-f90ff8d8eaf6","system_id":"levelo_inurba_marseille","lat":43.30465,"lon":5.37914,"is_reserved":false,"is_disabled":false,"rental_uris":{"android":"levelo://app?vid=be04f340-892a-49fb-8fe5-f90ff8d8eaf6","ios":"levelo://app?vid=be04f340-892a-49fb-8fe5-f90ff8d8eaf6"},"vehicle_type_id":"4","last_reported":1747293058,"current_range_meters":8800,"station_id":"ce4bgup2rcd13ifvqcn0","pricing_plan_id":"cebpf4jnsgd1na2vs0mg"},{"bike_id":"2207bca5-20f0-43eb-8a54-4abcfd118f13","system_id":"levelo_inurba_marseille","lat":43.25112,"lon":5.40325,"is_reserved":false,"is_disabled":false,"rental_uris":{"android":"levelo://app?vid=2207bca5-20f0-43eb-8a54-4abcfd118f13","ios":"levelo://app?vid=2207bca5-20f0-43eb-8a54-4abcfd118f13"},"vehicle_type_id":"4","last_reported":1747293058,"current_range_meters":14400,"station_id":"ce4bhlh2rcd13ifvqgig","pricing_plan_id":"cebpf4jnsgd1na2vs0mg"},{"bike_id":"967ee12b-8c1e-4f03-b363-7640886f1ede","system_id":"levelo_inurba_marseille","lat":43.23182,"lon":5.39998,"is_reserved":false,"is_disabled":false,"rental_uris":{"android":"levelo://app?vid=967ee12b-8c1e-4f03-b363-7640886f1ede","ios":"levelo://app?vid=967ee12b-8c1e-4f03-b363-7640886f1ede"},"vehicle_type_id":"4","last_reported":1747293058,"current_range_meters":9200,"station_id":"ce4bhn12rcd13ifvqgqg","pricing_plan_id":"cebpf4jnsgd1na2vs0mg"},{"bike_id":"0cdbca49-b276-449f-a941-1fbcbec55b0b","system_id":"levelo_inurba_marseille","lat":43.29226,"lon":5.36415,"is_reserved":false,"is_disabled":true,"rental_uris":{"android":"levelo://app?vid=0cdbca49-b276-449f-a941-1fbcbec55b0b","ios":"levelo://app?vid=0cdbca49-b276-449f-a941-1fbcbec55b0b"},"vehicle_type_id":"4","last_reported":1747293058,"current_range_meters":9200,"station_id":"","pricing_plan_id":"cebpf4jnsgd1na2vs0mg"},{"bike_id":"1073d193-6725-4646-946a-d8c236004f3d","system_id":"levelo_inurba_marseille","lat":43.24081,"lon":5.37753,"is_reserved":false,"is_disabled":false,"rental_uris":{"android":"levelo://app?vid=1073d193-6725-4646-946a-d8c236004f3d","ios":"levelo://app?vid=1073d193-6725-4646-946a-d8c236004f3d"},"vehicle_type_id":"4","last_reported":1747293058,"current_range_meters":9200,"station_id":"ce4bhnp2rcd13ifvqgvg","pricing_plan_id":"cebpf4jnsgd1na2vs0mg"},{"bike_id":"b4ab39c3-0d60-4245-b87b-09baaec1b976","system_id":"levelo_inurba_marseille","lat":43.29926,"lon":5.38175,"is_reserved":false,"is_disabled":false,"rental_uris":{"android":"levelo://app?vid=b4ab39c3-0d60-4245-b87b-09baaec1b976","ios":"levelo://app?vid=b4ab39c3-0d60-4245-b87b-09baaec1b976"},"vehicle_type_id":"4","last_reported":1747293058,"current_range_meters":9600,"station_id":"ce4bgj12rcd13ifvqbc0","pricing_plan_id":"cebpf4jnsgd1na2vs0mg"},{"bike_id":"d0d427a5-5b15-433a-a884-a811880ed0aa","system_id":"levelo_inurba_marseille","lat":43.317047,"lon":5.377277,"is_reserved":false,"is_disabled":false,"rental_uris":{"android":"levelo://app?vid=d0d427a5-5b15-433a-a884-a811880ed0aa","ios":"levelo://app?vid=d0d427a5-5b15-433a-a884-a811880ed0aa"},"vehicle_type_id":"4","last_reported":1747293058,"current_range_meters":9600,"station_id":"ce4bgth2rcd13ifvqch0","pricing_plan_id":"cebpf4jnsgd1na2vs0mg"},{"bike_id":"4d83a49d-a4f7-4140-bff3-bb3633e6dccc","system_id":"levelo_inurba_marseille","lat":43.323598,"lon":5.388892,"is_reserved":false,"is_disabled":false,"rental_uris":{"android":"levelo://app?vid=4d83a49d-a4f7-4140-bff3-bb3633e6dccc","ios":"levelo://app?vid=4d83a49d-a4f7-4140-bff3-bb3633e6dccc"},"vehicle_type_id":"4","last_reported":1747293058,"current_range_meters":9600,"station_id":"ce4bhqp2rcd13ifvqhog","pricing_plan_id":"cebpf4jnsgd1na2vs0mg"},{"bike_id":"af170036-c9e6-46ca-8ab0-579c4f120b40","system_id":"levelo_inurba_marseille","lat":43.29411,"lon":5.38622,"is_reserved":false,"is_disabled":false,"rental_uris":{"android":"levelo://app?vid=af170036-c9e6-46ca-8ab0-579c4f120b40","ios":"levelo://app?vid=af170036-c9e6-46ca-8ab0-579c4f120b40"},"vehicle_type_id":"4","last_reported":1747293058,"current_range_meters":9600,"station_id":"ce4bh2h2rcd13ifvqdh0","pricing_plan_id":"cebpf4jnsgd1na2vs0mg"},{"bike_id":"9f22b8aa-a9ca-4a2c-ab0b-0a0b10dbe182","system_id":"levelo_inurba_marseille","lat":43.32478,"lon":5.36612,"is_reserved":false,"is_disabled":false,"rental_uris":{"android":"levelo://app?vid=9f22b8aa-a9ca-4a2c-ab0b-0a0b10dbe182","ios":"levelo://app?vid=9f22b8aa-a9ca-4a2c-ab0b-0a0b10dbe182"},"vehicle_type_id":"4","last_reported":1747293058,"current_range_meters":10000,"station_id":"ce4bhs12rcd13ifvqhvg","pricing_plan_id":"cebpf4jnsgd1na2vs0mg"},{"bike_id":"15b66e6f-f5b4-4e63-91d4-0c7c7c64d470","system_id":"levelo_inurba_marseille","lat":43.31329,"lon":5.36718,"is_reserved":false,"is_disabled":false,"rental_uris":{"android":"levelo://app?vid=15b66e6f-f5b4-4e63-91d4-0c7c7c64d470","ios":"levelo://app?vid=15b66e6f-f5b4-4e63-91d4-0c7c7c64d470"},"vehicle_type_id":"4","last_reported":1747293058,"current_range_meters":10000,"station_id":"ce4bgr92rcd13ifvqc6g","pricing_plan_id":"cebpf4jnsgd1na2vs0mg"},{"bike_id":"8a7d833c-7c12-4df6-b5df-fb3dcaa5e1bc","system_id":"levelo_inurba_marseille","lat":43.32037,"lon":5.41544,"is_reserved":false,"is_disabled":false,"rental_uris":{"android":"levelo://app?vid=8a7d833c-7c12-4df6-b5df-fb3dcaa5e1bc","ios":"levelo://app?vid=8a7d833c-7c12-4df6-b5df-fb3dcaa5e1bc"},"vehicle_type_id":"4","last_reported":1747293058,"current_range_meters":10000,"station_id":"ce4bhq92rcd13ifvqhkg","pricing_plan_id":"cebpf4jnsgd1na2vs0mg"},{"bike_id":"5864e9bd-e5d7-4be2-9a92-8ffb8f624775","system_id":"levelo_inurba_marseille","lat":43.30618,"lon":5.399422,"is_reserved":false,"is_disabled":false,"rental_uris":{"android":"levelo://app?vid=5864e9bd-e5d7-4be2-9a92-8ffb8f624775","ios":"levelo://app?vid=5864e9bd-e5d7-4be2-9a92-8ffb8f624775"},"vehicle_type_id":"4","last_reported":1747293058,"current_range_meters":10000,"station_id":"ce4bh012rcd13ifvqd00","pricing_plan_id":"cebpf4jnsgd1na2vs0mg"},{"bike_id":"40a1772f-b4a2-474a-b875-d8df9be2c806","system_id":"levelo_inurba_marseille","lat":43.33608,"lon":5.41033,"is_reserved":false,"is_disabled":false,"rental_uris":{"android":"levelo://app?vid=40a1772f-b4a2-474a-b875-d8df9be2c806","ios":"levelo://app?vid=40a1772f-b4a2-474a-b875-d8df9be2c806"},"vehicle_type_id":"4","last_reported":1747293058,"current_range_meters":9600,"station_id":"ce4bhqh2rcd13ifvqhmg","pricing_plan_id":"cebpf4jnsgd1na2vs0mg"},{"bike_id":"c68022f0-7be7-4dde-9a51-7a59aed68b2d","system_id":"levelo_inurba_marseille","lat":43.231519,"lon":5.437185,"is_reserved":false,"is_disabled":false,"rental_uris":{"android":"levelo://app?vid=c68022f0-7be7-4dde-9a51-7a59aed68b2d","ios":"levelo://app?vid=c68022f0-7be7-4dde-9a51-7a59aed68b2d"},"vehicle_type_id":"4","last_reported":1747293058,"current_range_meters":10000,"station_id":"ce4bhmp2rcd13ifvqgog","pricing_plan_id":"cebpf4jnsgd1na2vs0mg"},{"bike_id":"46d8de76-ce03-4a99-b9a9-0e690e273029","system_id":"levelo_inurba_marseille","lat":43.337475,"lon":5.374066,"is_reserved":false,"is_disabled":false,"rental_uris":{"android":"levelo://app?vid=46d8de76-ce03-4a99-b9a9-0e690e273029","ios":"levelo://app?vid=46d8de76-ce03-4a99-b9a9-0e690e273029"},"vehicle_type_id":"4","last_reported":1747293058,"current_range_meters":10000,"station_id":"","pricing_plan_id":"cebpf4jnsgd1na2vs0mg"},{"bike_id":"17d57f58-ffb0-4d77-bbe5-7f462887ac74","system_id":"levelo_inurba_marseille","lat":43.24181,"lon":5.39698,"is_reserved":false,"is_disabled":false,"rental_uris":{"android":"levelo://app?vid=17d57f58-ffb0-4d77-bbe5-7f462887ac74","ios":"levelo://app?vid=17d57f58-ffb0-4d77-bbe5-7f462887ac74"},"vehicle_type_id":"4","last_reported":1747293058,"current_range_meters":10000,"station_id":"ce4bhn12rcd13ifvqgpg","pricing_plan_id":"cebpf4jnsgd1na2vs0mg"},{"bike_id":"e53c7f18-60cf-4219-9ac8-4254c2f9fe68","system_id":"levelo_inurba_marseille","lat":43.31234,"lon":5.36856,"is_reserved":false,"is_disabled":false,"rental_uris":{"android":"levelo://app?vid=e53c7f18-60cf-4219-9ac8-4254c2f9fe68","ios":"levelo://app?vid=e53c7f18-60cf-4219-9ac8-4254c2f9fe68"},"vehicle_type_id":"4","last_reported":1747293058,"current_range_meters":10000,"station_id":"ce4bgl92rcd13ifvqbq0","pricing_plan_id":"cebpf4jnsgd1na2vs0mg"},{"bike_id":"81a2b9d2-e55e-4cbc-ad41-936b4009b82a","system_id":"levelo_inurba_marseille","lat":43.29849,"lon":5.36289,"is_reserved":false,"is_disabled":false,"rental_uris":{"android":"levelo://app?vid=81a2b9d2-e55e-4cbc-ad41-936b4009b82a","ios":"levelo://app?vid=81a2b9d2-e55e-4cbc-ad41-936b4009b82a"},"vehicle_type_id":"4","last_reported":1747293058,"current_range_meters":10000,"station_id":"ce4bgpp2rcd13ifvqc3g","pricing_plan_id":"cebpf4jnsgd1na2vs0mg"},{"bike_id":"b071bff4-e698-4315-9238-45fc22778b61","system_id":"levelo_inurba_marseille","lat":43.23966,"lon":5.36626,"is_reserved":false,"is_disabled":false,"rental_uris":{"android":"levelo://app?vid=b071bff4-e698-4315-9238-45fc22778b61","ios":"levelo://app?vid=b071bff4-e698-4315-9238-45fc22778b61"},"vehicle_type_id":"4","last_reported":1747293058,"current_range_meters":10800,"station_id":"ce4bhi12rcd13ifvqfp0","pricing_plan_id":"cebpf4jnsgd1na2vs0mg"},{"bike_id":"559f341e-87b1-4f19-993c-aa8a187d4168","system_id":"levelo_inurba_marseille","lat":43.309,"lon":5.37178,"is_reserved":false,"is_disabled":false,"rental_uris":{"android":"levelo://app?vid=559f341e-87b1-4f19-993c-aa8a187d4168","ios":"levelo://app?vid=559f341e-87b1-4f19-993c-aa8a187d4168"},"vehicle_type_id":"4","last_reported":1747293058,"current_range_meters":10800,"station_id":"ce4bguh2rcd13ifvqckg","pricing_plan_id":"cebpf4jnsgd1na2vs0mg"},{"bike_id":"b4425cde-6e90-4cf6-9e9a-9b59768a453d","system_id":"levelo_inurba_marseille","lat":43.29702,"lon":5.36614,"is_reserved":false,"is_disabled":true,"rental_uris":{"android":"levelo://app?vid=b4425cde-6e90-4cf6-9e9a-9b59768a453d","ios":"levelo://app?vid=b4425cde-6e90-4cf6-9e9a-9b59768a453d"},"vehicle_type_id":"4","last_reported":1747293058,"current_range_meters":10800,"station_id":"ce4bgn12rcd13ifvqbt0","pricing_plan_id":"cebpf4jnsgd1na2vs0mg"},{"bike_id":"0530a2ed-92a9-4159-924b-fea1b126d795","system_id":"levelo_inurba_marseille","lat":43.27493,"lon":5.42457,"is_reserved":false,"is_disabled":false,"rental_uris":{"android":"levelo://app?vid=0530a2ed-92a9-4159-924b-fea1b126d795","ios":"levelo://app?vid=0530a2ed-92a9-4159-924b-fea1b126d795"},"vehicle_type_id":"4","last_reported":1747293058,"current_range_meters":10800,"station_id":"ce4bhn92rcd13ifvqgrg","pricing_plan_id":"cebpf4jnsgd1na2vs0mg"},{"bike_id":"9a82b547-68ad-4121-9885-47161bdc577e","system_id":"levelo_inurba_marseille","lat":43.305542,"lon":5.36735,"is_reserved":false,"is_disabled":false,"rental_uris":{"android":"levelo://app?vid=9a82b547-68ad-4121-9885-47161bdc577e","ios":"levelo://app?vid=9a82b547-68ad-4121-9885-47161bdc577e"},"vehicle_type_id":"4","last_reported":1747293058,"current_range_meters":9200,"station_id":"ce4bgrp2rcd13ifvqc9g","pricing_plan_id":"cebpf4jnsgd1na2vs0mg"},{"bike_id":"f2fa3917-52e2-462b-8250-01097feb44e5","system_id":"levelo_inurba_marseille","lat":43.241758,"lon":5.397292,"is_reserved":false,"is_disabled":false,"rental_uris":{"android":"levelo://app?vid=f2fa3917-52e2-462b-8250-01097feb44e5","ios":"levelo://app?vid=f2fa3917-52e2-462b-8250-01097feb44e5"},"vehicle_type_id":"4","last_reported":1747293058,"current_range_meters":11200,"station_id":"ce4bhn12rcd13ifvqgpg","pricing_plan_id":"cebpf4jnsgd1na2vs0mg"},{"bike_id":"49f7b57b-218a-411d-982d-d948553424a0","system_id":"levelo_inurba_marseille","lat":43.2418,"lon":5.39723,"is_reserved":false,"is_disabled":false,"rental_uris":{"android":"levelo://app?vid=49f7b57b-218a-411d-982d-d948553424a0","ios":"levelo://app?vid=49f7b57b-218a-411d-982d-d948553424a0"},"vehicle_type_id":"4","last_reported":1747293058,"current_range_meters":11200,"station_id":"ce4bhn12rcd13ifvqgpg","pricing_plan_id":"cebpf4jnsgd1na2vs0mg"},{"bike_id":"87c730b8-fd9c-4f07-9908-b3f327437db1","system_id":"levelo_inurba_marseille","lat":43.28436,"lon":5.39214,"is_reserved":false,"is_disabled":false,"rental_uris":{"android":"levelo://app?vid=87c730b8-fd9c-4f07-9908-b3f327437db1","ios":"levelo://app?vid=87c730b8-fd9c-4f07-9908-b3f327437db1"},"vehicle_type_id":"4","last_reported":1747293058,"current_range_meters":11200,"station_id":"ce4bhoh2rcd13ifvqh5g","pricing_plan_id":"cebpf4jnsgd1na2vs0mg"},{"bike_id":"15b78ca4-8eda-4012-b392-8e1c04a2c79c","system_id":"levelo_inurba_marseille","lat":43.279805,"lon":5.4166,"is_reserved":false,"is_disabled":true,"rental_uris":{"android":"levelo://app?vid=15b78ca4-8eda-4012-b392-8e1c04a2c79c","ios":"levelo://app?vid=15b78ca4-8eda-4012-b392-8e1c04a2c79c"},"vehicle_type_id":"4","last_reported":1747293058,"current_range_meters":11200,"station_id":"ce4bho12rcd13ifvqh1g","pricing_plan_id":"cebpf4jnsgd1na2vs0mg"},{"bike_id":"7601429c-0542-4ced-a7e6-a978c94b79db","system_id":"levelo_inurba_marseille","lat":43.31393,"lon":5.36734,"is_reserved":false,"is_disabled":false,"rental_uris":{"android":"levelo://app?vid=7601429c-0542-4ced-a7e6-a978c94b79db","ios":"levelo://app?vid=7601429c-0542-4ced-a7e6-a978c94b79db"},"vehicle_type_id":"4","last_reported":1747293058,"current_range_meters":11200,"station_id":"","pricing_plan_id":"cebpf4jnsgd1na2vs0mg"},{"bike_id":"270a22cd-c1b9-43a1-9955-6f5aa1718c31","system_id":"levelo_inurba_marseille","lat":43.30529,"lon":5.36719,"is_reserved":false,"is_disabled":false,"rental_uris":{"android":"levelo://app?vid=270a22cd-c1b9-43a1-9955-6f5aa1718c31","ios":"levelo://app?vid=270a22cd-c1b9-43a1-9955-6f5aa1718c31"},"vehicle_type_id":"4","last_reported":1747293058,"current_range_meters":11200,"station_id":"ce4bgrp2rcd13ifvqc9g","pricing_plan_id":"cebpf4jnsgd1na2vs0mg"},{"bike_id":"3c231479-dae9-467c-8da1-eff755727dc1","system_id":"levelo_inurba_marseille","lat":43.30652,"lon":5.40088,"is_reserved":false,"is_disabled":false,"rental_uris":{"android":"levelo://app?vid=3c231479-dae9-467c-8da1-eff755727dc1","ios":"levelo://app?vid=3c231479-dae9-467c-8da1-eff755727dc1"},"vehicle_type_id":"4","last_reported":1747293058,"current_range_meters":11200,"station_id":"ce4bh112rcd13ifvqda0","pricing_plan_id":"cebpf4jnsgd1na2vs0mg"},{"bike_id":"2fbf9af1-2df2-4aeb-8b20-a4c95e106089","system_id":"levelo_inurba_marseille","lat":43.24074,"lon":5.37789,"is_reserved":false,"is_disabled":false,"rental_uris":{"android":"levelo://app?vid=2fbf9af1-2df2-4aeb-8b20-a4c95e106089","ios":"levelo://app?vid=2fbf9af1-2df2-4aeb-8b20-a4c95e106089"},"vehicle_type_id":"4","last_reported":1747293058,"current_range_meters":11600,"station_id":"ce4bhnp2rcd13ifvqgvg","pricing_plan_id":"cebpf4jnsgd1na2vs0mg"},{"bike_id":"05830acd-a597-4649-8fc5-3ccaee82ede9","system_id":"levelo_inurba_marseille","lat":43.30954,"lon":5.39032,"is_reserved":false,"is_disabled":false,"rental_uris":{"android":"levelo://app?vid=05830acd-a597-4649-8fc5-3ccaee82ede9","ios":"levelo://app?vid=05830acd-a597-4649-8fc5-3ccaee82ede9"},"vehicle_type_id":"4","last_reported":1747293058,"current_range_meters":11600,"station_id":"ce4bgup2rcd13ifvqco0","pricing_plan_id":"cebpf4jnsgd1na2vs0mg"},{"bike_id":"f4a29ccd-2645-41bd-91b7-57baafbe4e16","system_id":"levelo_inurba_marseille","lat":43.29004,"lon":5.35577,"is_reserved":false,"is_disabled":true,"rental_uris":{"android":"levelo://app?vid=f4a29ccd-2645-41bd-91b7-57baafbe4e16","ios":"levelo://app?vid=f4a29ccd-2645-41bd-91b7-57baafbe4e16"},"vehicle_type_id":"4","last_reported":1747293058,"current_range_meters":11600,"station_id":"ce4bhb92rcd13ifvqen0","pricing_plan_id":"cebpf4jnsgd1na2vs0mg"},{"bike_id":"8c7308bf-84fd-4edb-9b86-07fbeaf5e51b","system_id":"levelo_inurba_marseille","lat":43.31732,"lon":5.42421,"is_reserved":false,"is_disabled":false,"rental_uris":{"android":"levelo://app?vid=8c7308bf-84fd-4edb-9b86-07fbeaf5e51b","ios":"levelo://app?vid=8c7308bf-84fd-4edb-9b86-07fbeaf5e51b"},"vehicle_type_id":"4","last_reported":1747293058,"current_range_meters":11600,"station_id":"ce4bhp92rcd13ifvqhbg","pricing_plan_id":"cebpf4jnsgd1na2vs0mg"},{"bike_id":"a4254f33-dfdc-4beb-9ee4-21271a8a3aac","system_id":"levelo_inurba_marseille","lat":43.30418,"lon":5.41283,"is_reserved":false,"is_disabled":true,"rental_uris":{"android":"levelo://app?vid=a4254f33-dfdc-4beb-9ee4-21271a8a3aac","ios":"levelo://app?vid=a4254f33-dfdc-4beb-9ee4-21271a8a3aac"},"vehicle_type_id":"4","last_reported":1747293058,"current_range_meters":11600,"station_id":"ce4bhop2rcd13ifvqh8g","pricing_plan_id":"cebpf4jnsgd1na2vs0mg"},{"bike_id":"cc377332-c824-4cf8-bc9d-97d1852f3692","system_id":"levelo_inurba_marseille","lat":43.31714,"lon":5.40458,"is_reserved":false,"is_disabled":false,"rental_uris":{"android":"levelo://app?vid=cc377332-c824-4cf8-bc9d-97d1852f3692","ios":"levelo://app?vid=cc377332-c824-4cf8-bc9d-97d1852f3692"},"vehicle_type_id":"4","last_reported":1747293058,"current_range_meters":12400,"station_id":"ce4bh012rcd13ifvqd00","pricing_plan_id":"cebpf4jnsgd1na2vs0mg"},{"bike_id":"a75f29de-aae0-4e0d-a26f-d17a8c2e8bd7","system_id":"levelo_inurba_marseille","lat":43.25942,"lon":5.40903,"is_reserved":false,"is_disabled":false,"rental_uris":{"android":"levelo://app?vid=a75f29de-aae0-4e0d-a26f-d17a8c2e8bd7","ios":"levelo://app?vid=a75f29de-aae0-4e0d-a26f-d17a8c2e8bd7"},"vehicle_type_id":"4","last_reported":1747293058,"current_range_meters":12400,"station_id":"ce4bhm92rcd13ifvqglg","pricing_plan_id":"cebpf4jnsgd1na2vs0mg"},{"bike_id":"7d4b24cf-88a0-49f6-b6a5-d91d4118010c","system_id":"levelo_inurba_marseille","lat":43.2408,"lon":5.37753,"is_reserved":false,"is_disabled":false,"rental_uris":{"android":"levelo://app?vid=7d4b24cf-88a0-49f6-b6a5-d91d4118010c","ios":"levelo://app?vid=7d4b24cf-88a0-49f6-b6a5-d91d4118010c"},"vehicle_type_id":"4","last_reported":1747293058,"current_range_meters":12400,"station_id":"ce4bhnp2rcd13ifvqgvg","pricing_plan_id":"cebpf4jnsgd1na2vs0mg"},{"bike_id":"0bb79020-9be3-4f48-80f0-713e3bdc3e5d","system_id":"levelo_inurba_marseille","lat":43.341447,"lon":5.40898,"is_reserved":false,"is_disabled":false,"rental_uris":{"android":"levelo://app?vid=0bb79020-9be3-4f48-80f0-713e3bdc3e5d","ios":"levelo://app?vid=0bb79020-9be3-4f48-80f0-713e3bdc3e5d"},"vehicle_type_id":"4","last_reported":1747293058,"current_range_meters":12400,"station_id":"ce4bhqh2rcd13ifvqhlg","pricing_plan_id":"cebpf4jnsgd1na2vs0mg"},{"bike_id":"1141d381-30a5-42f9-a494-2b2d52ea4327","system_id":"levelo_inurba_marseille","lat":43.294843,"lon":5.377572,"is_reserved":false,"is_disabled":false,"rental_uris":{"android":"levelo://app?vid=1141d381-30a5-42f9-a494-2b2d52ea4327","ios":"levelo://app?vid=1141d381-30a5-42f9-a494-2b2d52ea4327"},"vehicle_type_id":"4","last_reported":1747293058,"current_range_meters":12800,"station_id":"ce4bgjh2rcd13ifvqbf0","pricing_plan_id":"cebpf4jnsgd1na2vs0mg"},{"bike_id":"c324f212-6f00-4265-ac90-0f2487c8994e","system_id":"levelo_inurba_marseille","lat":43.27915,"lon":5.41285,"is_reserved":false,"is_disabled":false,"rental_uris":{"android":"levelo://app?vid=c324f212-6f00-4265-ac90-0f2487c8994e","ios":"levelo://app?vid=c324f212-6f00-4265-ac90-0f2487c8994e"},"vehicle_type_id":"4","last_reported":1747293058,"current_range_meters":12800,"station_id":"ce4bhnh2rcd13ifvqgtg","pricing_plan_id":"cebpf4jnsgd1na2vs0mg"},{"bike_id":"2fc9664e-b867-4556-9c56-4feb5475cef3","system_id":"levelo_inurba_marseille","lat":43.29369,"lon":5.37869,"is_reserved":false,"is_disabled":false,"rental_uris":{"android":"levelo://app?vid=2fc9664e-b867-4556-9c56-4feb5475cef3","ios":"levelo://app?vid=2fc9664e-b867-4556-9c56-4feb5475cef3"},"vehicle_type_id":"4","last_reported":1747293058,"current_range_meters":12800,"station_id":"ce4bgjh2rcd13ifvqbf0","pricing_plan_id":"cebpf4jnsgd1na2vs0mg"},{"bike_id":"94425245-09df-4108-9a30-610dbcaf2585","system_id":"levelo_inurba_marseille","lat":43.317224,"lon":5.423983,"is_reserved":false,"is_disabled":false,"rental_uris":{"android":"levelo://app?vid=94425245-09df-4108-9a30-610dbcaf2585","ios":"levelo://app?vid=94425245-09df-4108-9a30-610dbcaf2585"},"vehicle_type_id":"4","last_reported":1747293058,"current_range_meters":13600,"station_id":"ce4bhp92rcd13ifvqhbg","pricing_plan_id":"cebpf4jnsgd1na2vs0mg"},{"bike_id":"a7a3d8d2-d4c3-469c-b962-d9c90b2eca97","system_id":"levelo_inurba_marseille","lat":43.28407,"lon":5.37531,"is_reserved":false,"is_disabled":true,"rental_uris":{"android":"levelo://app?vid=a7a3d8d2-d4c3-469c-b962-d9c90b2eca97","ios":"levelo://app?vid=a7a3d8d2-d4c3-469c-b962-d9c90b2eca97"},"vehicle_type_id":"4","last_reported":1747293058,"current_range_meters":13600,"station_id":"ce4bh412rcd13ifvqds0","pricing_plan_id":"cebpf4jnsgd1na2vs0mg"},{"bike_id":"7d63f300-6324-4261-8cea-1a23bc0a99d1","system_id":"levelo_inurba_marseille","lat":43.24076,"lon":5.3775,"is_reserved":false,"is_disabled":false,"rental_uris":{"android":"levelo://app?vid=7d63f300-6324-4261-8cea-1a23bc0a99d1","ios":"levelo://app?vid=7d63f300-6324-4261-8cea-1a23bc0a99d1"},"vehicle_type_id":"4","last_reported":1747293058,"current_range_meters":13600,"station_id":"ce4bhnp2rcd13ifvqgvg","pricing_plan_id":"cebpf4jnsgd1na2vs0mg"},{"bike_id":"21f5a1a4-43c5-4049-8a8d-3146c5c35157","system_id":"levelo_inurba_marseille","lat":43.22961,"lon":5.35373,"is_reserved":false,"is_disabled":false,"rental_uris":{"android":"levelo://app?vid=21f5a1a4-43c5-4049-8a8d-3146c5c35157","ios":"levelo://app?vid=21f5a1a4-43c5-4049-8a8d-3146c5c35157"},"vehicle_type_id":"4","last_reported":1747293058,"current_range_meters":14000,"station_id":"cpo3532slgdg3j2ikp40","pricing_plan_id":"cebpf4jnsgd1na2vs0mg"},{"bike_id":"edb5d163-6c06-44d8-9bc9-f72a24d6fdb8","system_id":"levelo_inurba_marseille","lat":43.27498,"lon":5.4247,"is_reserved":false,"is_disabled":false,"rental_uris":{"android":"levelo://app?vid=edb5d163-6c06-44d8-9bc9-f72a24d6fdb8","ios":"levelo://app?vid=edb5d163-6c06-44d8-9bc9-f72a24d6fdb8"},"vehicle_type_id":"4","last_reported":1747293058,"current_range_meters":14000,"station_id":"ce4bhn92rcd13ifvqgrg","pricing_plan_id":"cebpf4jnsgd1na2vs0mg"},{"bike_id":"503b1e6e-2a73-4f04-bb9f-80c3831538b1","system_id":"levelo_inurba_marseille","lat":43.309023,"lon":5.368828,"is_reserved":false,"is_disabled":true,"rental_uris":{"android":"levelo://app?vid=503b1e6e-2a73-4f04-bb9f-80c3831538b1","ios":"levelo://app?vid=503b1e6e-2a73-4f04-bb9f-80c3831538b1"},"vehicle_type_id":"4","last_reported":1747293058,"current_range_meters":14000,"station_id":"ce4bgn92rcd13ifvqbvg","pricing_plan_id":"cebpf4jnsgd1na2vs0mg"},{"bike_id":"cfae641a-54c0-4b9b-b874-774267c67373","system_id":"levelo_inurba_marseille","lat":43.29426,"lon":5.42847,"is_reserved":false,"is_disabled":false,"rental_uris":{"android":"levelo://app?vid=cfae641a-54c0-4b9b-b874-774267c67373","ios":"levelo://app?vid=cfae641a-54c0-4b9b-b874-774267c67373"},"vehicle_type_id":"4","last_reported":1747293058,"current_range_meters":14000,"station_id":"","pricing_plan_id":"cebpf4jnsgd1na2vs0mg"},{"bike_id":"381280fb-f335-47c4-8386-d6f8e9fbf6fc","system_id":"levelo_inurba_marseille","lat":43.313457,"lon":5.36718,"is_reserved":false,"is_disabled":false,"rental_uris":{"android":"levelo://app?vid=381280fb-f335-47c4-8386-d6f8e9fbf6fc","ios":"levelo://app?vid=381280fb-f335-47c4-8386-d6f8e9fbf6fc"},"vehicle_type_id":"4","last_reported":1747293058,"current_range_meters":14000,"station_id":"ce4bgr92rcd13ifvqc6g","pricing_plan_id":"cebpf4jnsgd1na2vs0mg"},{"bike_id":"85229f75-99f9-447a-a3ed-86236028f5a5","system_id":"levelo_inurba_marseille","lat":43.25112,"lon":5.40323,"is_reserved":false,"is_disabled":false,"rental_uris":{"android":"levelo://app?vid=85229f75-99f9-447a-a3ed-86236028f5a5","ios":"levelo://app?vid=85229f75-99f9-447a-a3ed-86236028f5a5"},"vehicle_type_id":"4","last_reported":1747293058,"current_range_meters":14400,"station_id":"ce4bhlh2rcd13ifvqgig","pricing_plan_id":"cebpf4jnsgd1na2vs0mg"},{"bike_id":"4cbd4534-ad93-4b80-bdca-53e39c8fee62","system_id":"levelo_inurba_marseille","lat":43.30463,"lon":5.37909,"is_reserved":false,"is_disabled":true,"rental_uris":{"android":"levelo://app?vid=4cbd4534-ad93-4b80-bdca-53e39c8fee62","ios":"levelo://app?vid=4cbd4534-ad93-4b80-bdca-53e39c8fee62"},"vehicle_type_id":"4","last_reported":1747293058,"current_range_meters":14800,"station_id":"ce4bgup2rcd13ifvqcn0","pricing_plan_id":"cebpf4jnsgd1na2vs0mg"},{"bike_id":"a11259b1-527a-47c8-b657-2e8539f3be28","system_id":"levelo_inurba_marseille","lat":43.31343,"lon":5.36725,"is_reserved":false,"is_disabled":false,"rental_uris":{"android":"levelo://app?vid=a11259b1-527a-47c8-b657-2e8539f3be28","ios":"levelo://app?vid=a11259b1-527a-47c8-b657-2e8539f3be28"},"vehicle_type_id":"4","last_reported":1747293058,"current_range_meters":14400,"station_id":"ce4bgr92rcd13ifvqc6g","pricing_plan_id":"cebpf4jnsgd1na2vs0mg"},{"bike_id":"d4c1707a-a4cd-4c93-8013-5a487a72633f","system_id":"levelo_inurba_marseille","lat":43.336,"lon":5.41031,"is_reserved":false,"is_disabled":false,"rental_uris":{"android":"levelo://app?vid=d4c1707a-a4cd-4c93-8013-5a487a72633f","ios":"levelo://app?vid=d4c1707a-a4cd-4c93-8013-5a487a72633f"},"vehicle_type_id":"4","last_reported":1747293058,"current_range_meters":19200,"station_id":"ce4bhqh2rcd13ifvqhmg","pricing_plan_id":"cebpf4jnsgd1na2vs0mg"},{"bike_id":"214e0fae-df4c-4c1f-8550-fe4eafcb836a","system_id":"levelo_inurba_marseille","lat":43.31354,"lon":5.36732,"is_reserved":false,"is_disabled":true,"rental_uris":{"android":"levelo://app?vid=214e0fae-df4c-4c1f-8550-fe4eafcb836a","ios":"levelo://app?vid=214e0fae-df4c-4c1f-8550-fe4eafcb836a"},"vehicle_type_id":"4","last_reported":1747293058,"current_range_meters":14800,"station_id":"ce4bgr92rcd13ifvqc6g","pricing_plan_id":"cebpf4jnsgd1na2vs0mg"},{"bike_id":"65064f86-3c66-4826-93c2-65566820a8eb","system_id":"levelo_inurba_marseille","lat":43.2658,"lon":5.38961,"is_reserved":false,"is_disabled":false,"rental_uris":{"android":"levelo://app?vid=65064f86-3c66-4826-93c2-65566820a8eb","ios":"levelo://app?vid=65064f86-3c66-4826-93c2-65566820a8eb"},"vehicle_type_id":"4","last_reported":1747293058,"current_range_meters":14800,"station_id":"ce4bhe12rcd13ifvqf30","pricing_plan_id":"cebpf4jnsgd1na2vs0mg"},{"bike_id":"b2d9ba93-9f84-41ea-b8f2-596f581b3094","system_id":"levelo_inurba_marseille","lat":43.23965,"lon":5.36631,"is_reserved":false,"is_disabled":false,"rental_uris":{"android":"levelo://app?vid=b2d9ba93-9f84-41ea-b8f2-596f581b3094","ios":"levelo://app?vid=b2d9ba93-9f84-41ea-b8f2-596f581b3094"},"vehicle_type_id":"4","last_reported":1747293058,"current_range_meters":14800,"station_id":"ce4bhi12rcd13ifvqfp0","pricing_plan_id":"cebpf4jnsgd1na2vs0mg"},{"bike_id":"cf056dd5-3ad5-4c80-a2b0-5a4a618d84aa","system_id":"levelo_inurba_marseille","lat":43.29845,"lon":5.36278,"is_reserved":false,"is_disabled":false,"rental_uris":{"android":"levelo://app?vid=cf056dd5-3ad5-4c80-a2b0-5a4a618d84aa","ios":"levelo://app?vid=cf056dd5-3ad5-4c80-a2b0-5a4a618d84aa"},"vehicle_type_id":"4","last_reported":1747293058,"current_range_meters":14400,"station_id":"ce4bgpp2rcd13ifvqc3g","pricing_plan_id":"cebpf4jnsgd1na2vs0mg"},{"bike_id":"82f7619c-d685-4421-b37f-a5e414b128f3","system_id":"levelo_inurba_marseille","lat":43.24081,"lon":5.37746,"is_reserved":false,"is_disabled":false,"rental_uris":{"android":"levelo://app?vid=82f7619c-d685-4421-b37f-a5e414b128f3","ios":"levelo://app?vid=82f7619c-d685-4421-b37f-a5e414b128f3"},"vehicle_type_id":"4","last_reported":1747293058,"current_range_meters":14800,"station_id":"ce4bhnp2rcd13ifvqgvg","pricing_plan_id":"cebpf4jnsgd1na2vs0mg"},{"bike_id":"6512dc23-f60a-488d-a315-f5d48618081a","system_id":"levelo_inurba_marseille","lat":43.2658,"lon":5.39002,"is_reserved":false,"is_disabled":false,"rental_uris":{"android":"levelo://app?vid=6512dc23-f60a-488d-a315-f5d48618081a","ios":"levelo://app?vid=6512dc23-f60a-488d-a315-f5d48618081a"},"vehicle_type_id":"4","last_reported":1747293058,"current_range_meters":14800,"station_id":"ce4bhe12rcd13ifvqf30","pricing_plan_id":"cebpf4jnsgd1na2vs0mg"},{"bike_id":"91cd7809-e5d4-46e2-845b-d691947a2b46","system_id":"levelo_inurba_marseille","lat":43.24067,"lon":5.37763,"is_reserved":false,"is_disabled":false,"rental_uris":{"android":"levelo://app?vid=91cd7809-e5d4-46e2-845b-d691947a2b46","ios":"levelo://app?vid=91cd7809-e5d4-46e2-845b-d691947a2b46"},"vehicle_type_id":"4","last_reported":1747293058,"current_range_meters":15200,"station_id":"ce4bhnp2rcd13ifvqgvg","pricing_plan_id":"cebpf4jnsgd1na2vs0mg"},{"bike_id":"a352bab8-7c70-4f81-8aa6-742732ea1f72","system_id":"levelo_inurba_marseille","lat":43.30157,"lon":5.381,"is_reserved":false,"is_disabled":false,"rental_uris":{"android":"levelo://app?vid=a352bab8-7c70-4f81-8aa6-742732ea1f72","ios":"levelo://app?vid=a352bab8-7c70-4f81-8aa6-742732ea1f72"},"vehicle_type_id":"4","last_reported":1747293058,"current_range_meters":15200,"station_id":"ce4bgjp2rcd13ifvqbh0","pricing_plan_id":"cebpf4jnsgd1na2vs0mg"},{"bike_id":"c3acc1e9-c036-4520-87a3-7e8466cee4e3","system_id":"levelo_inurba_marseille","lat":43.324923,"lon":5.36559,"is_reserved":false,"is_disabled":false,"rental_uris":{"android":"levelo://app?vid=c3acc1e9-c036-4520-87a3-7e8466cee4e3","ios":"levelo://app?vid=c3acc1e9-c036-4520-87a3-7e8466cee4e3"},"vehicle_type_id":"4","last_reported":1747293058,"current_range_meters":16000,"station_id":"ce4bhs12rcd13ifvqhvg","pricing_plan_id":"cebpf4jnsgd1na2vs0mg"},{"bike_id":"cf96c8b2-6dfd-4639-95c3-f8701218cb18","system_id":"levelo_inurba_marseille","lat":43.2872,"lon":5.37935,"is_reserved":false,"is_disabled":false,"rental_uris":{"android":"levelo://app?vid=cf96c8b2-6dfd-4639-95c3-f8701218cb18","ios":"levelo://app?vid=cf96c8b2-6dfd-4639-95c3-f8701218cb18"},"vehicle_type_id":"4","last_reported":1747293058,"current_range_meters":16000,"station_id":"ce4bh9p2rcd13ifvqec0","pricing_plan_id":"cebpf4jnsgd1na2vs0mg"},{"bike_id":"c682a571-1b8e-42c7-82ff-72c8d128bd01","system_id":"levelo_inurba_marseille","lat":43.29892,"lon":5.38296,"is_reserved":false,"is_disabled":false,"rental_uris":{"android":"levelo://app?vid=c682a571-1b8e-42c7-82ff-72c8d128bd01","ios":"levelo://app?vid=c682a571-1b8e-42c7-82ff-72c8d128bd01"},"vehicle_type_id":"4","last_reported":1747293058,"current_range_meters":16000,"station_id":"","pricing_plan_id":"cebpf4jnsgd1na2vs0mg"},{"bike_id":"0cc46be0-cda7-4d84-a24a-b567a36e5f7e","system_id":"levelo_inurba_marseille","lat":43.30273,"lon":5.36859,"is_reserved":false,"is_disabled":true,"rental_uris":{"android":"levelo://app?vid=0cc46be0-cda7-4d84-a24a-b567a36e5f7e","ios":"levelo://app?vid=0cc46be0-cda7-4d84-a24a-b567a36e5f7e"},"vehicle_type_id":"4","last_reported":1747293058,"current_range_meters":16000,"station_id":"","pricing_plan_id":"cebpf4jnsgd1na2vs0mg"},{"bike_id":"24f5c00b-dc7e-40e1-a77c-02041c4d0155","system_id":"levelo_inurba_marseille","lat":43.29409,"lon":5.38609,"is_reserved":false,"is_disabled":true,"rental_uris":{"android":"levelo://app?vid=24f5c00b-dc7e-40e1-a77c-02041c4d0155","ios":"levelo://app?vid=24f5c00b-dc7e-40e1-a77c-02041c4d0155"},"vehicle_type_id":"4","last_reported":1747293058,"current_range_meters":16000,"station_id":"ce4bh2h2rcd13ifvqdh0","pricing_plan_id":"cebpf4jnsgd1na2vs0mg"},{"bike_id":"c0b9fd4f-e181-46ce-b0bf-f5119973334f","system_id":"levelo_inurba_marseille","lat":43.33771,"lon":5.37424,"is_reserved":false,"is_disabled":false,"rental_uris":{"android":"levelo://app?vid=c0b9fd4f-e181-46ce-b0bf-f5119973334f","ios":"levelo://app?vid=c0b9fd4f-e181-46ce-b0bf-f5119973334f"},"vehicle_type_id":"4","last_reported":1747293058,"current_range_meters":16000,"station_id":"","pricing_plan_id":"cebpf4jnsgd1na2vs0mg"},{"bike_id":"1b2ca96b-a115-4009-b707-71f4c5b975d8","system_id":"levelo_inurba_marseille","lat":43.32452,"lon":5.36614,"is_reserved":false,"is_disabled":false,"rental_uris":{"android":"levelo://app?vid=1b2ca96b-a115-4009-b707-71f4c5b975d8","ios":"levelo://app?vid=1b2ca96b-a115-4009-b707-71f4c5b975d8"},"vehicle_type_id":"4","last_reported":1747293058,"current_range_meters":16400,"station_id":"ce4bhs12rcd13ifvqhvg","pricing_plan_id":"cebpf4jnsgd1na2vs0mg"},{"bike_id":"89826c89-e953-4315-b957-82bcb5aefb13","system_id":"levelo_inurba_marseille","lat":43.30889,"lon":5.37207,"is_reserved":false,"is_disabled":false,"rental_uris":{"android":"levelo://app?vid=89826c89-e953-4315-b957-82bcb5aefb13","ios":"levelo://app?vid=89826c89-e953-4315-b957-82bcb5aefb13"},"vehicle_type_id":"4","last_reported":1747293058,"current_range_meters":16400,"station_id":"ce4bguh2rcd13ifvqckg","pricing_plan_id":"cebpf4jnsgd1na2vs0mg"},{"bike_id":"886cacb8-a8f2-4a9f-b4ff-ad4500dd1a16","system_id":"levelo_inurba_marseille","lat":43.302172,"lon":5.39475,"is_reserved":false,"is_disabled":false,"rental_uris":{"android":"levelo://app?vid=886cacb8-a8f2-4a9f-b4ff-ad4500dd1a16","ios":"levelo://app?vid=886cacb8-a8f2-4a9f-b4ff-ad4500dd1a16"},"vehicle_type_id":"4","last_reported":1747293058,"current_range_meters":16800,"station_id":"ce4bh0p2rcd13ifvqd70","pricing_plan_id":"cebpf4jnsgd1na2vs0mg"},{"bike_id":"5b4d94d5-d1fb-4594-8ced-01262346e7e4","system_id":"levelo_inurba_marseille","lat":43.286183,"lon":5.370583,"is_reserved":false,"is_disabled":false,"rental_uris":{"android":"levelo://app?vid=5b4d94d5-d1fb-4594-8ced-01262346e7e4","ios":"levelo://app?vid=5b4d94d5-d1fb-4594-8ced-01262346e7e4"},"vehicle_type_id":"4","last_reported":1747293058,"current_range_meters":16800,"station_id":"ce4bht12rcd13ifvqi60","pricing_plan_id":"cebpf4jnsgd1na2vs0mg"},{"bike_id":"a39b3366-192a-4262-b39f-cc75a7d5cbc1","system_id":"levelo_inurba_marseille","lat":43.28615,"lon":5.35107,"is_reserved":false,"is_disabled":false,"rental_uris":{"android":"levelo://app?vid=a39b3366-192a-4262-b39f-cc75a7d5cbc1","ios":"levelo://app?vid=a39b3366-192a-4262-b39f-cc75a7d5cbc1"},"vehicle_type_id":"4","last_reported":1747293058,"current_range_meters":16800,"station_id":"ce4bhch2rcd13ifvqeug","pricing_plan_id":"cebpf4jnsgd1na2vs0mg"},{"bike_id":"a97e7f2f-a4bd-43dc-a4a3-f47c4b150cbd","system_id":"levelo_inurba_marseille","lat":43.24153,"lon":5.39698,"is_reserved":false,"is_disabled":false,"rental_uris":{"android":"levelo://app?vid=a97e7f2f-a4bd-43dc-a4a3-f47c4b150cbd","ios":"levelo://app?vid=a97e7f2f-a4bd-43dc-a4a3-f47c4b150cbd"},"vehicle_type_id":"4","last_reported":1747293058,"current_range_meters":16800,"station_id":"ce4bhn12rcd13ifvqgpg","pricing_plan_id":"cebpf4jnsgd1na2vs0mg"},{"bike_id":"b4d1483e-f3b5-4a20-abde-8a6afdb2fce0","system_id":"levelo_inurba_marseille","lat":43.305447,"lon":5.367013,"is_reserved":false,"is_disabled":false,"rental_uris":{"android":"levelo://app?vid=b4d1483e-f3b5-4a20-abde-8a6afdb2fce0","ios":"levelo://app?vid=b4d1483e-f3b5-4a20-abde-8a6afdb2fce0"},"vehicle_type_id":"4","last_reported":1747293058,"current_range_meters":16800,"station_id":"ce4bgrp2rcd13ifvqc9g","pricing_plan_id":"cebpf4jnsgd1na2vs0mg"},{"bike_id":"4ce0641f-e22d-4d4a-af00-714365851fb9","system_id":"levelo_inurba_marseille","lat":43.26687,"lon":5.38275,"is_reserved":false,"is_disabled":false,"rental_uris":{"android":"levelo://app?vid=4ce0641f-e22d-4d4a-af00-714365851fb9","ios":"levelo://app?vid=4ce0641f-e22d-4d4a-af00-714365851fb9"},"vehicle_type_id":"4","last_reported":1747293058,"current_range_meters":16800,"station_id":"ce4bhg92rcd13ifvqf90","pricing_plan_id":"cebpf4jnsgd1na2vs0mg"},{"bike_id":"23340d87-59f5-4bc6-8602-a0bd649c693b","system_id":"levelo_inurba_marseille","lat":43.27961,"lon":5.38716,"is_reserved":false,"is_disabled":false,"rental_uris":{"android":"levelo://app?vid=23340d87-59f5-4bc6-8602-a0bd649c693b","ios":"levelo://app?vid=23340d87-59f5-4bc6-8602-a0bd649c693b"},"vehicle_type_id":"4","last_reported":1747293058,"current_range_meters":16800,"station_id":"ce4bhg12rcd13ifvqf80","pricing_plan_id":"cebpf4jnsgd1na2vs0mg"},{"bike_id":"bb98348a-66d8-4632-96f9-9734580dec01","system_id":"levelo_inurba_marseille","lat":43.28664,"lon":5.3831,"is_reserved":false,"is_disabled":false,"rental_uris":{"android":"levelo://app?vid=bb98348a-66d8-4632-96f9-9734580dec01","ios":"levelo://app?vid=bb98348a-66d8-4632-96f9-9734580dec01"},"vehicle_type_id":"4","last_reported":1747293058,"current_range_meters":17200,"station_id":"","pricing_plan_id":"cebpf4jnsgd1na2vs0mg"},{"bike_id":"b9d4a133-c6ad-42b4-a6f8-2b529d40398a","system_id":"levelo_inurba_marseille","lat":43.289827,"lon":5.366538,"is_reserved":false,"is_disabled":true,"rental_uris":{"android":"levelo://app?vid=b9d4a133-c6ad-42b4-a6f8-2b529d40398a","ios":"levelo://app?vid=b9d4a133-c6ad-42b4-a6f8-2b529d40398a"},"vehicle_type_id":"4","last_reported":1747293058,"current_range_meters":17200,"station_id":"","pricing_plan_id":"cebpf4jnsgd1na2vs0mg"},{"bike_id":"9a402898-f116-408b-8709-c62dd77d2b5d","system_id":"levelo_inurba_marseille","lat":43.293593,"lon":5.428184,"is_reserved":false,"is_disabled":false,"rental_uris":{"android":"levelo://app?vid=9a402898-f116-408b-8709-c62dd77d2b5d","ios":"levelo://app?vid=9a402898-f116-408b-8709-c62dd77d2b5d"},"vehicle_type_id":"4","last_reported":1747293058,"current_range_meters":17200,"station_id":"","pricing_plan_id":"cebpf4jnsgd1na2vs0mg"},{"bike_id":"385c5680-aa17-4953-8596-7f0cb64e8bcd","system_id":"levelo_inurba_marseille","lat":43.324789,"lon":5.365641,"is_reserved":false,"is_disabled":false,"rental_uris":{"android":"levelo://app?vid=385c5680-aa17-4953-8596-7f0cb64e8bcd","ios":"levelo://app?vid=385c5680-aa17-4953-8596-7f0cb64e8bcd"},"vehicle_type_id":"4","last_reported":1747293058,"current_range_meters":17200,"station_id":"ce4bhs12rcd13ifvqhvg","pricing_plan_id":"cebpf4jnsgd1na2vs0mg"},{"bike_id":"8b44f886-59c7-4896-a2ca-0dea931a883f","system_id":"levelo_inurba_marseille","lat":43.211889,"lon":5.350804,"is_reserved":false,"is_disabled":false,"rental_uris":{"android":"levelo://app?vid=8b44f886-59c7-4896-a2ca-0dea931a883f","ios":"levelo://app?vid=8b44f886-59c7-4896-a2ca-0dea931a883f"},"vehicle_type_id":"4","last_reported":1747293058,"current_range_meters":17200,"station_id":"st_cvj6sg6p6f1abm77japg","pricing_plan_id":"cebpf4jnsgd1na2vs0mg"},{"bike_id":"afc9cb40-5916-478a-b679-9e82e5977cca","system_id":"levelo_inurba_marseille","lat":43.31705,"lon":5.37728,"is_reserved":false,"is_disabled":false,"rental_uris":{"android":"levelo://app?vid=afc9cb40-5916-478a-b679-9e82e5977cca","ios":"levelo://app?vid=afc9cb40-5916-478a-b679-9e82e5977cca"},"vehicle_type_id":"4","last_reported":1747293058,"current_range_meters":17200,"station_id":"ce4bgth2rcd13ifvqch0","pricing_plan_id":"cebpf4jnsgd1na2vs0mg"},{"bike_id":"f27c167c-0593-4bdb-a8a1-e5d0009c2013","system_id":"levelo_inurba_marseille","lat":43.27495,"lon":5.42454,"is_reserved":false,"is_disabled":false,"rental_uris":{"android":"levelo://app?vid=f27c167c-0593-4bdb-a8a1-e5d0009c2013","ios":"levelo://app?vid=f27c167c-0593-4bdb-a8a1-e5d0009c2013"},"vehicle_type_id":"4","last_reported":1747293058,"current_range_meters":17200,"station_id":"ce4bhn92rcd13ifvqgrg","pricing_plan_id":"cebpf4jnsgd1na2vs0mg"},{"bike_id":"59a7f1aa-1700-4f43-ac17-052eb5ac2ffa","system_id":"levelo_inurba_marseille","lat":43.23193,"lon":5.3555,"is_reserved":false,"is_disabled":false,"rental_uris":{"android":"levelo://app?vid=59a7f1aa-1700-4f43-ac17-052eb5ac2ffa","ios":"levelo://app?vid=59a7f1aa-1700-4f43-ac17-052eb5ac2ffa"},"vehicle_type_id":"4","last_reported":1747293058,"current_range_meters":16800,"station_id":"ce4bhu92rcd13ifvqi70","pricing_plan_id":"cebpf4jnsgd1na2vs0mg"},{"bike_id":"bf148fad-e35c-429e-bfcc-e69d3314491e","system_id":"levelo_inurba_marseille","lat":43.31271,"lon":5.40165,"is_reserved":false,"is_disabled":false,"rental_uris":{"android":"levelo://app?vid=bf148fad-e35c-429e-bfcc-e69d3314491e","ios":"levelo://app?vid=bf148fad-e35c-429e-bfcc-e69d3314491e"},"vehicle_type_id":"4","last_reported":1747293058,"current_range_meters":17200,"station_id":"ce4bh092rcd13ifvqd30","pricing_plan_id":"cebpf4jnsgd1na2vs0mg"},{"bike_id":"733fef2b-9949-40d0-ad55-9b7ef4192413","system_id":"levelo_inurba_marseille","lat":43.28609,"lon":5.37073,"is_reserved":false,"is_disabled":false,"rental_uris":{"android":"levelo://app?vid=733fef2b-9949-40d0-ad55-9b7ef4192413","ios":"levelo://app?vid=733fef2b-9949-40d0-ad55-9b7ef4192413"},"vehicle_type_id":"4","last_reported":1747293058,"current_range_meters":17200,"station_id":"ce4bht12rcd13ifvqi60","pricing_plan_id":"cebpf4jnsgd1na2vs0mg"},{"bike_id":"03312a69-05a5-48a1-b29d-ec6c4f466166","system_id":"levelo_inurba_marseille","lat":43.30542,"lon":5.36555,"is_reserved":false,"is_disabled":false,"rental_uris":{"android":"levelo://app?vid=03312a69-05a5-48a1-b29d-ec6c4f466166","ios":"levelo://app?vid=03312a69-05a5-48a1-b29d-ec6c4f466166"},"vehicle_type_id":"4","last_reported":1747293058,"current_range_meters":17600,"station_id":"ce4bgs12rcd13ifvqcag","pricing_plan_id":"cebpf4jnsgd1na2vs0mg"},{"bike_id":"a2d6a384-311c-42f7-acd0-99b54160f604","system_id":"levelo_inurba_marseille","lat":43.30893,"lon":5.36834,"is_reserved":false,"is_disabled":false,"rental_uris":{"android":"levelo://app?vid=a2d6a384-311c-42f7-acd0-99b54160f604","ios":"levelo://app?vid=a2d6a384-311c-42f7-acd0-99b54160f604"},"vehicle_type_id":"4","last_reported":1747293058,"current_range_meters":17600,"station_id":"ce4bgn92rcd13ifvqbvg","pricing_plan_id":"cebpf4jnsgd1na2vs0mg"},{"bike_id":"da199870-7ef4-4b69-93e0-cadbcc53e94c","system_id":"levelo_inurba_marseille","lat":43.324745,"lon":5.365712,"is_reserved":false,"is_disabled":false,"rental_uris":{"android":"levelo://app?vid=da199870-7ef4-4b69-93e0-cadbcc53e94c","ios":"levelo://app?vid=da199870-7ef4-4b69-93e0-cadbcc53e94c"},"vehicle_type_id":"4","last_reported":1747293058,"current_range_meters":17600,"station_id":"ce4bhs12rcd13ifvqhvg","pricing_plan_id":"cebpf4jnsgd1na2vs0mg"},{"bike_id":"7b6e00b6-844b-461a-b2e3-55be72c792fc","system_id":"levelo_inurba_marseille","lat":43.3234,"lon":5.40623,"is_reserved":false,"is_disabled":false,"rental_uris":{"android":"levelo://app?vid=7b6e00b6-844b-461a-b2e3-55be72c792fc","ios":"levelo://app?vid=7b6e00b6-844b-461a-b2e3-55be72c792fc"},"vehicle_type_id":"4","last_reported":1747293058,"current_range_meters":18000,"station_id":"ce4bhq92rcd13ifvqhjg","pricing_plan_id":"cebpf4jnsgd1na2vs0mg"},{"bike_id":"ac8f15e6-1ed0-4c75-8a12-b528bdc7cdaa","system_id":"levelo_inurba_marseille","lat":43.32046,"lon":5.41557,"is_reserved":false,"is_disabled":false,"rental_uris":{"android":"levelo://app?vid=ac8f15e6-1ed0-4c75-8a12-b528bdc7cdaa","ios":"levelo://app?vid=ac8f15e6-1ed0-4c75-8a12-b528bdc7cdaa"},"vehicle_type_id":"4","last_reported":1747293058,"current_range_meters":18000,"station_id":"ce4bhq92rcd13ifvqhkg","pricing_plan_id":"cebpf4jnsgd1na2vs0mg"},{"bike_id":"978e8be0-d2c5-4801-8712-3aa582d69845","system_id":"levelo_inurba_marseille","lat":43.26571,"lon":5.38989,"is_reserved":false,"is_disabled":false,"rental_uris":{"android":"levelo://app?vid=978e8be0-d2c5-4801-8712-3aa582d69845","ios":"levelo://app?vid=978e8be0-d2c5-4801-8712-3aa582d69845"},"vehicle_type_id":"4","last_reported":1747293058,"current_range_meters":18000,"station_id":"ce4bhe12rcd13ifvqf30","pricing_plan_id":"cebpf4jnsgd1na2vs0mg"},{"bike_id":"cb36dca1-30c0-4a72-bead-2ad4f65ad08b","system_id":"levelo_inurba_marseille","lat":43.24071,"lon":5.37761,"is_reserved":false,"is_disabled":false,"rental_uris":{"android":"levelo://app?vid=cb36dca1-30c0-4a72-bead-2ad4f65ad08b","ios":"levelo://app?vid=cb36dca1-30c0-4a72-bead-2ad4f65ad08b"},"vehicle_type_id":"4","last_reported":1747293058,"current_range_meters":18000,"station_id":"ce4bhnp2rcd13ifvqgvg","pricing_plan_id":"cebpf4jnsgd1na2vs0mg"},{"bike_id":"56ef2fc3-57cd-46fc-8f46-efef3ad0ccfc","system_id":"levelo_inurba_marseille","lat":43.24182,"lon":5.39725,"is_reserved":false,"is_disabled":false,"rental_uris":{"android":"levelo://app?vid=56ef2fc3-57cd-46fc-8f46-efef3ad0ccfc","ios":"levelo://app?vid=56ef2fc3-57cd-46fc-8f46-efef3ad0ccfc"},"vehicle_type_id":"4","last_reported":1747293058,"current_range_meters":18000,"station_id":"ce4bhn12rcd13ifvqgpg","pricing_plan_id":"cebpf4jnsgd1na2vs0mg"},{"bike_id":"3b1fdba3-3da5-46d6-b5c8-afa752c13b6c","system_id":"levelo_inurba_marseille","lat":43.309,"lon":5.36843,"is_reserved":false,"is_disabled":false,"rental_uris":{"android":"levelo://app?vid=3b1fdba3-3da5-46d6-b5c8-afa752c13b6c","ios":"levelo://app?vid=3b1fdba3-3da5-46d6-b5c8-afa752c13b6c"},"vehicle_type_id":"4","last_reported":1747293058,"current_range_meters":18800,"station_id":"ce4bgn92rcd13ifvqbvg","pricing_plan_id":"cebpf4jnsgd1na2vs0mg"},{"bike_id":"b16d48f7-fff0-41bf-82a9-fe62b4088787","system_id":"levelo_inurba_marseille","lat":43.249959,"lon":5.389225,"is_reserved":false,"is_disabled":false,"rental_uris":{"android":"levelo://app?vid=b16d48f7-fff0-41bf-82a9-fe62b4088787","ios":"levelo://app?vid=b16d48f7-fff0-41bf-82a9-fe62b4088787"},"vehicle_type_id":"4","last_reported":1747293058,"current_range_meters":18800,"station_id":"ce4bhgp2rcd13ifvqfd0","pricing_plan_id":"cebpf4jnsgd1na2vs0mg"},{"bike_id":"4e272974-fdbc-479a-b169-a0a005222328","system_id":"levelo_inurba_marseille","lat":43.29024,"lon":5.38136,"is_reserved":false,"is_disabled":false,"rental_uris":{"android":"levelo://app?vid=4e272974-fdbc-479a-b169-a0a005222328","ios":"levelo://app?vid=4e272974-fdbc-479a-b169-a0a005222328"},"vehicle_type_id":"4","last_reported":1747293058,"current_range_meters":18800,"station_id":"ce4bh4p2rcd13ifvqe1g","pricing_plan_id":"cebpf4jnsgd1na2vs0mg"},{"bike_id":"f81f80a3-047d-4cec-b5f5-26c32af3a66a","system_id":"levelo_inurba_marseille","lat":43.29933,"lon":5.36555,"is_reserved":false,"is_disabled":false,"rental_uris":{"android":"levelo://app?vid=f81f80a3-047d-4cec-b5f5-26c32af3a66a","ios":"levelo://app?vid=f81f80a3-047d-4cec-b5f5-26c32af3a66a"},"vehicle_type_id":"4","last_reported":1747293058,"current_range_meters":18800,"station_id":"ce4bgm92rcd13ifvqbr0","pricing_plan_id":"cebpf4jnsgd1na2vs0mg"},{"bike_id":"05647ffd-ffa9-4a9c-92e9-9a49dc821811","system_id":"levelo_inurba_marseille","lat":43.323572,"lon":5.367504,"is_reserved":false,"is_disabled":false,"rental_uris":{"android":"levelo://app?vid=05647ffd-ffa9-4a9c-92e9-9a49dc821811","ios":"levelo://app?vid=05647ffd-ffa9-4a9c-92e9-9a49dc821811"},"vehicle_type_id":"4","last_reported":1747293058,"current_range_meters":18800,"station_id":"ce4bhsh2rcd13ifvqi2g","pricing_plan_id":"cebpf4jnsgd1na2vs0mg"},{"bike_id":"eec3fd61-b68f-4716-8bb4-236aef18d554","system_id":"levelo_inurba_marseille","lat":43.30375,"lon":5.42487,"is_reserved":false,"is_disabled":false,"rental_uris":{"android":"levelo://app?vid=eec3fd61-b68f-4716-8bb4-236aef18d554","ios":"levelo://app?vid=eec3fd61-b68f-4716-8bb4-236aef18d554"},"vehicle_type_id":"4","last_reported":1747293058,"current_range_meters":18800,"station_id":"ce4bhoh2rcd13ifvqh6g","pricing_plan_id":"cebpf4jnsgd1na2vs0mg"},{"bike_id":"e3746a29-a0db-42b0-9a26-d2dc8f31ba51","system_id":"levelo_inurba_marseille","lat":43.336,"lon":5.41015,"is_reserved":false,"is_disabled":false,"rental_uris":{"android":"levelo://app?vid=e3746a29-a0db-42b0-9a26-d2dc8f31ba51","ios":"levelo://app?vid=e3746a29-a0db-42b0-9a26-d2dc8f31ba51"},"vehicle_type_id":"4","last_reported":1747293058,"current_range_meters":19200,"station_id":"ce4bhqh2rcd13ifvqhmg","pricing_plan_id":"cebpf4jnsgd1na2vs0mg"},{"bike_id":"54bb4a94-8c03-46f8-a98b-e1017dfaf0f6","system_id":"levelo_inurba_marseille","lat":43.30884,"lon":5.36861,"is_reserved":false,"is_disabled":false,"rental_uris":{"android":"levelo://app?vid=54bb4a94-8c03-46f8-a98b-e1017dfaf0f6","ios":"levelo://app?vid=54bb4a94-8c03-46f8-a98b-e1017dfaf0f6"},"vehicle_type_id":"4","last_reported":1747293058,"current_range_meters":19200,"station_id":"ce4bgn92rcd13ifvqbvg","pricing_plan_id":"cebpf4jnsgd1na2vs0mg"},{"bike_id":"4c63e02c-cea0-4a16-afba-16242c8721f5","system_id":"levelo_inurba_marseille","lat":43.30544,"lon":5.36558,"is_reserved":false,"is_disabled":false,"rental_uris":{"android":"levelo://app?vid=4c63e02c-cea0-4a16-afba-16242c8721f5","ios":"levelo://app?vid=4c63e02c-cea0-4a16-afba-16242c8721f5"},"vehicle_type_id":"4","last_reported":1747293058,"current_range_meters":19200,"station_id":"ce4bgs12rcd13ifvqcag","pricing_plan_id":"cebpf4jnsgd1na2vs0mg"},{"bike_id":"efff624c-bcc3-4701-a433-502c7dc7c0c5","system_id":"levelo_inurba_marseille","lat":43.3054,"lon":5.3656,"is_reserved":false,"is_disabled":false,"rental_uris":{"android":"levelo://app?vid=efff624c-bcc3-4701-a433-502c7dc7c0c5","ios":"levelo://app?vid=efff624c-bcc3-4701-a433-502c7dc7c0c5"},"vehicle_type_id":"4","last_reported":1747293058,"current_range_meters":19200,"station_id":"ce4bgs12rcd13ifvqcag","pricing_plan_id":"cebpf4jnsgd1na2vs0mg"},{"bike_id":"6c28df84-bef2-4cb1-92e7-43ec89e259c7","system_id":"levelo_inurba_marseille","lat":43.24071,"lon":5.37763,"is_reserved":false,"is_disabled":false,"rental_uris":{"android":"levelo://app?vid=6c28df84-bef2-4cb1-92e7-43ec89e259c7","ios":"levelo://app?vid=6c28df84-bef2-4cb1-92e7-43ec89e259c7"},"vehicle_type_id":"4","last_reported":1747293058,"current_range_meters":19200,"station_id":"ce4bhnp2rcd13ifvqgvg","pricing_plan_id":"cebpf4jnsgd1na2vs0mg"},{"bike_id":"17fff4cc-5014-48ef-aef1-228c11c76cbf","system_id":"levelo_inurba_marseille","lat":43.30175,"lon":5.3807,"is_reserved":false,"is_disabled":false,"rental_uris":{"android":"levelo://app?vid=17fff4cc-5014-48ef-aef1-228c11c76cbf","ios":"levelo://app?vid=17fff4cc-5014-48ef-aef1-228c11c76cbf"},"vehicle_type_id":"4","last_reported":1747293058,"current_range_meters":19200,"station_id":"ce4bgjp2rcd13ifvqbh0","pricing_plan_id":"cebpf4jnsgd1na2vs0mg"},{"bike_id":"c078b2fc-f367-4ad3-81ec-126aae64440d","system_id":"levelo_inurba_marseille","lat":43.23151,"lon":5.43727,"is_reserved":false,"is_disabled":false,"rental_uris":{"android":"levelo://app?vid=c078b2fc-f367-4ad3-81ec-126aae64440d","ios":"levelo://app?vid=c078b2fc-f367-4ad3-81ec-126aae64440d"},"vehicle_type_id":"4","last_reported":1747293058,"current_range_meters":19200,"station_id":"ce4bhmp2rcd13ifvqgog","pricing_plan_id":"cebpf4jnsgd1na2vs0mg"},{"bike_id":"4e02dbd9-4c35-46b5-9cf5-5edb4a31de2a","system_id":"levelo_inurba_marseille","lat":43.336,"lon":5.41027,"is_reserved":false,"is_disabled":false,"rental_uris":{"android":"levelo://app?vid=4e02dbd9-4c35-46b5-9cf5-5edb4a31de2a","ios":"levelo://app?vid=4e02dbd9-4c35-46b5-9cf5-5edb4a31de2a"},"vehicle_type_id":"4","last_reported":1747293058,"current_range_meters":19600,"station_id":"ce4bhqh2rcd13ifvqhmg","pricing_plan_id":"cebpf4jnsgd1na2vs0mg"},{"bike_id":"68bb491c-1d3e-4388-a7f8-cdc52f1b34f9","system_id":"levelo_inurba_marseille","lat":43.24069,"lon":5.37778,"is_reserved":false,"is_disabled":false,"rental_uris":{"android":"levelo://app?vid=68bb491c-1d3e-4388-a7f8-cdc52f1b34f9","ios":"levelo://app?vid=68bb491c-1d3e-4388-a7f8-cdc52f1b34f9"},"vehicle_type_id":"4","last_reported":1747293058,"current_range_meters":19600,"station_id":"ce4bhnp2rcd13ifvqgvg","pricing_plan_id":"cebpf4jnsgd1na2vs0mg"},{"bike_id":"f8e0164e-343d-4762-8888-72d6dbc7c8a0","system_id":"levelo_inurba_marseille","lat":43.33604,"lon":5.41004,"is_reserved":false,"is_disabled":false,"rental_uris":{"android":"levelo://app?vid=f8e0164e-343d-4762-8888-72d6dbc7c8a0","ios":"levelo://app?vid=f8e0164e-343d-4762-8888-72d6dbc7c8a0"},"vehicle_type_id":"4","last_reported":1747293058,"current_range_meters":19600,"station_id":"ce4bhqh2rcd13ifvqhmg","pricing_plan_id":"cebpf4jnsgd1na2vs0mg"},{"bike_id":"d8293a94-070f-4ae3-891e-86ad27a59a4e","system_id":"levelo_inurba_marseille","lat":43.23956,"lon":5.36629,"is_reserved":false,"is_disabled":true,"rental_uris":{"android":"levelo://app?vid=d8293a94-070f-4ae3-891e-86ad27a59a4e","ios":"levelo://app?vid=d8293a94-070f-4ae3-891e-86ad27a59a4e"},"vehicle_type_id":"4","last_reported":1747293058,"current_range_meters":19600,"station_id":"ce4bhi12rcd13ifvqfp0","pricing_plan_id":"cebpf4jnsgd1na2vs0mg"},{"bike_id":"6d46ab71-ee0d-445f-8501-9c9efc27704a","system_id":"levelo_inurba_marseille","lat":43.24176,"lon":5.39721,"is_reserved":false,"is_disabled":false,"rental_uris":{"android":"levelo://app?vid=6d46ab71-ee0d-445f-8501-9c9efc27704a","ios":"levelo://app?vid=6d46ab71-ee0d-445f-8501-9c9efc27704a"},"vehicle_type_id":"4","last_reported":1747293058,"current_range_meters":19600,"station_id":"ce4bhn12rcd13ifvqgpg","pricing_plan_id":"cebpf4jnsgd1na2vs0mg"},{"bike_id":"fb97dcd4-3dfc-4dc3-a728-e41c0cb92099","system_id":"levelo_inurba_marseille","lat":43.29729,"lon":5.37691,"is_reserved":false,"is_disabled":false,"rental_uris":{"android":"levelo://app?vid=fb97dcd4-3dfc-4dc3-a728-e41c0cb92099","ios":"levelo://app?vid=fb97dcd4-3dfc-4dc3-a728-e41c0cb92099"},"vehicle_type_id":"4","last_reported":1747293058,"current_range_meters":19600,"station_id":"ce4bgkh2rcd13ifvqbl0","pricing_plan_id":"cebpf4jnsgd1na2vs0mg"},{"bike_id":"082294fb-f20c-4489-b207-edf6dc0b86f0","system_id":"levelo_inurba_marseille","lat":43.24167,"lon":5.36401,"is_reserved":false,"is_disabled":false,"rental_uris":{"android":"levelo://app?vid=082294fb-f20c-4489-b207-edf6dc0b86f0","ios":"levelo://app?vid=082294fb-f20c-4489-b207-edf6dc0b86f0"},"vehicle_type_id":"4","last_reported":1747293058,"current_range_meters":19600,"station_id":"cpo36qri1sfpv3e86is0","pricing_plan_id":"cebpf4jnsgd1na2vs0mg"},{"bike_id":"b01ef8b7-f396-46ca-96b7-e98c863e4a47","system_id":"levelo_inurba_marseille","lat":43.25938,"lon":5.40897,"is_reserved":false,"is_disabled":false,"rental_uris":{"android":"levelo://app?vid=b01ef8b7-f396-46ca-96b7-e98c863e4a47","ios":"levelo://app?vid=b01ef8b7-f396-46ca-96b7-e98c863e4a47"},"vehicle_type_id":"4","last_reported":1747293058,"current_range_meters":19600,"station_id":"ce4bhm92rcd13ifvqglg","pricing_plan_id":"cebpf4jnsgd1na2vs0mg"},{"bike_id":"ff8c31a0-1c02-41af-992d-f5052b02aea3","system_id":"levelo_inurba_marseille","lat":43.30879,"lon":5.36844,"is_reserved":false,"is_disabled":false,"rental_uris":{"android":"levelo://app?vid=ff8c31a0-1c02-41af-992d-f5052b02aea3","ios":"levelo://app?vid=ff8c31a0-1c02-41af-992d-f5052b02aea3"},"vehicle_type_id":"4","last_reported":1747293058,"current_range_meters":19600,"station_id":"ce4bgn92rcd13ifvqbvg","pricing_plan_id":"cebpf4jnsgd1na2vs0mg"},{"bike_id":"c0e0fd84-4c7c-420a-b641-45b7066ef9a9","system_id":"levelo_inurba_marseille","lat":43.31348,"lon":5.36741,"is_reserved":false,"is_disabled":false,"rental_uris":{"android":"levelo://app?vid=c0e0fd84-4c7c-420a-b641-45b7066ef9a9","ios":"levelo://app?vid=c0e0fd84-4c7c-420a-b641-45b7066ef9a9"},"vehicle_type_id":"4","last_reported":1747293058,"current_range_meters":20000,"station_id":"ce4bgr92rcd13ifvqc6g","pricing_plan_id":"cebpf4jnsgd1na2vs0mg"},{"bike_id":"cc7da888-9eb6-4980-bc77-b50fcc8ef5d7","system_id":"levelo_inurba_marseille","lat":43.25934,"lon":5.40908,"is_reserved":false,"is_disabled":false,"rental_uris":{"android":"levelo://app?vid=cc7da888-9eb6-4980-bc77-b50fcc8ef5d7","ios":"levelo://app?vid=cc7da888-9eb6-4980-bc77-b50fcc8ef5d7"},"vehicle_type_id":"4","last_reported":1747293058,"current_range_meters":20000,"station_id":"ce4bhm92rcd13ifvqglg","pricing_plan_id":"cebpf4jnsgd1na2vs0mg"},{"bike_id":"f48bb19e-d054-4f02-a361-975b365f20c0","system_id":"levelo_inurba_marseille","lat":43.31688,"lon":5.40478,"is_reserved":false,"is_disabled":false,"rental_uris":{"android":"levelo://app?vid=f48bb19e-d054-4f02-a361-975b365f20c0","ios":"levelo://app?vid=f48bb19e-d054-4f02-a361-975b365f20c0"},"vehicle_type_id":"4","last_reported":1747293058,"current_range_meters":20000,"station_id":"ce4bh012rcd13ifvqd00","pricing_plan_id":"cebpf4jnsgd1na2vs0mg"},{"bike_id":"54a1a73b-9f7a-414c-a48f-eeace73bd9b0","system_id":"levelo_inurba_marseille","lat":43.22522,"lon":5.34776,"is_reserved":false,"is_disabled":false,"rental_uris":{"android":"levelo://app?vid=54a1a73b-9f7a-414c-a48f-eeace73bd9b0","ios":"levelo://app?vid=54a1a73b-9f7a-414c-a48f-eeace73bd9b0"},"vehicle_type_id":"4","last_reported":1747293058,"current_range_meters":20000,"station_id":"st_cvj5dfep6f1abm77gieg","pricing_plan_id":"cebpf4jnsgd1na2vs0mg"},{"bike_id":"2936ed0a-5d6e-4d58-ac17-37303cee80ad","system_id":"levelo_inurba_marseille","lat":43.3228,"lon":5.38278,"is_reserved":false,"is_disabled":false,"rental_uris":{"android":"levelo://app?vid=2936ed0a-5d6e-4d58-ac17-37303cee80ad","ios":"levelo://app?vid=2936ed0a-5d6e-4d58-ac17-37303cee80ad"},"vehicle_type_id":"4","last_reported":1747293058,"current_range_meters":20000,"station_id":"ce4bhr12rcd13ifvqhqg","pricing_plan_id":"cebpf4jnsgd1na2vs0mg"},{"bike_id":"5e87a7ac-8e04-44a3-aa85-afbf7cf1b847","system_id":"levelo_inurba_marseille","lat":43.30922,"lon":5.36883,"is_reserved":false,"is_disabled":false,"rental_uris":{"android":"levelo://app?vid=5e87a7ac-8e04-44a3-aa85-afbf7cf1b847","ios":"levelo://app?vid=5e87a7ac-8e04-44a3-aa85-afbf7cf1b847"},"vehicle_type_id":"4","last_reported":1747293058,"current_range_meters":20000,"station_id":"ce4bgn92rcd13ifvqbvg","pricing_plan_id":"cebpf4jnsgd1na2vs0mg"},{"bike_id":"e9340a7a-301d-4257-9c08-8cd5773e0f12","system_id":"levelo_inurba_marseille","lat":43.2678,"lon":5.39414,"is_reserved":false,"is_disabled":false,"rental_uris":{"android":"levelo://app?vid=e9340a7a-301d-4257-9c08-8cd5773e0f12","ios":"levelo://app?vid=e9340a7a-301d-4257-9c08-8cd5773e0f12"},"vehicle_type_id":"4","last_reported":1747293058,"current_range_meters":20000,"station_id":"ce4bhh12rcd13ifvqfg0","pricing_plan_id":"cebpf4jnsgd1na2vs0mg"},{"bike_id":"edcd9b9d-c443-4fbc-b0f6-ed5647522256","system_id":"levelo_inurba_marseille","lat":43.26687,"lon":5.3828,"is_reserved":false,"is_disabled":false,"rental_uris":{"android":"levelo://app?vid=edcd9b9d-c443-4fbc-b0f6-ed5647522256","ios":"levelo://app?vid=edcd9b9d-c443-4fbc-b0f6-ed5647522256"},"vehicle_type_id":"4","last_reported":1747293058,"current_range_meters":20400,"station_id":"ce4bhg92rcd13ifvqf90","pricing_plan_id":"cebpf4jnsgd1na2vs0mg"},{"bike_id":"53255f06-7299-45fa-bc69-8e61557bf5d6","system_id":"levelo_inurba_marseille","lat":43.24076,"lon":5.37764,"is_reserved":false,"is_disabled":false,"rental_uris":{"android":"levelo://app?vid=53255f06-7299-45fa-bc69-8e61557bf5d6","ios":"levelo://app?vid=53255f06-7299-45fa-bc69-8e61557bf5d6"},"vehicle_type_id":"4","last_reported":1747293058,"current_range_meters":20400,"station_id":"ce4bhnp2rcd13ifvqgvg","pricing_plan_id":"cebpf4jnsgd1na2vs0mg"},{"bike_id":"e553c356-767d-4451-a42f-ae2625d5f8f4","system_id":"levelo_inurba_marseille","lat":43.23964,"lon":5.36628,"is_reserved":false,"is_disabled":false,"rental_uris":{"android":"levelo://app?vid=e553c356-767d-4451-a42f-ae2625d5f8f4","ios":"levelo://app?vid=e553c356-767d-4451-a42f-ae2625d5f8f4"},"vehicle_type_id":"4","last_reported":1747293058,"current_range_meters":20400,"station_id":"ce4bhi12rcd13ifvqfp0","pricing_plan_id":"cebpf4jnsgd1na2vs0mg"},{"bike_id":"7bfe3070-8935-4c63-9e5f-e953d5dfb638","system_id":"levelo_inurba_marseille","lat":43.3124,"lon":5.36871,"is_reserved":false,"is_disabled":false,"rental_uris":{"android":"levelo://app?vid=7bfe3070-8935-4c63-9e5f-e953d5dfb638","ios":"levelo://app?vid=7bfe3070-8935-4c63-9e5f-e953d5dfb638"},"vehicle_type_id":"4","last_reported":1747293058,"current_range_meters":20400,"station_id":"ce4bgl92rcd13ifvqbq0","pricing_plan_id":"cebpf4jnsgd1na2vs0mg"},{"bike_id":"a9b3a0ee-c8df-4737-b665-56ea18eadfc0","system_id":"levelo_inurba_marseille","lat":43.27971,"lon":5.3874,"is_reserved":false,"is_disabled":false,"rental_uris":{"android":"levelo://app?vid=a9b3a0ee-c8df-4737-b665-56ea18eadfc0","ios":"levelo://app?vid=a9b3a0ee-c8df-4737-b665-56ea18eadfc0"},"vehicle_type_id":"4","last_reported":1747293058,"current_range_meters":20400,"station_id":"ce4bhg12rcd13ifvqf80","pricing_plan_id":"cebpf4jnsgd1na2vs0mg"},{"bike_id":"54c80718-1468-47f9-9877-bc44f5940722","system_id":"levelo_inurba_marseille","lat":43.21189,"lon":5.35083,"is_reserved":false,"is_disabled":false,"rental_uris":{"android":"levelo://app?vid=54c80718-1468-47f9-9877-bc44f5940722","ios":"levelo://app?vid=54c80718-1468-47f9-9877-bc44f5940722"},"vehicle_type_id":"4","last_reported":1747293058,"current_range_meters":20800,"station_id":"st_cvj6sg6p6f1abm77japg","pricing_plan_id":"cebpf4jnsgd1na2vs0mg"},{"bike_id":"7cf80a05-ba75-483c-b013-b644b7419a36","system_id":"levelo_inurba_marseille","lat":43.30458,"lon":5.37901,"is_reserved":false,"is_disabled":false,"rental_uris":{"android":"levelo://app?vid=7cf80a05-ba75-483c-b013-b644b7419a36","ios":"levelo://app?vid=7cf80a05-ba75-483c-b013-b644b7419a36"},"vehicle_type_id":"4","last_reported":1747293058,"current_range_meters":21600,"station_id":"ce4bgup2rcd13ifvqcn0","pricing_plan_id":"cebpf4jnsgd1na2vs0mg"},{"bike_id":"dced9071-855b-49c6-87c1-bdf6670af6fd","system_id":"levelo_inurba_marseille","lat":43.24187,"lon":5.39731,"is_reserved":false,"is_disabled":false,"rental_uris":{"android":"levelo://app?vid=dced9071-855b-49c6-87c1-bdf6670af6fd","ios":"levelo://app?vid=dced9071-855b-49c6-87c1-bdf6670af6fd"},"vehicle_type_id":"4","last_reported":1747293058,"current_range_meters":20800,"station_id":"ce4bhn12rcd13ifvqgpg","pricing_plan_id":"cebpf4jnsgd1na2vs0mg"},{"bike_id":"8b0b5d86-e287-4bb2-b343-71de0af7d914","system_id":"levelo_inurba_marseille","lat":43.309031,"lon":5.368508,"is_reserved":false,"is_disabled":false,"rental_uris":{"android":"levelo://app?vid=8b0b5d86-e287-4bb2-b343-71de0af7d914","ios":"levelo://app?vid=8b0b5d86-e287-4bb2-b343-71de0af7d914"},"vehicle_type_id":"4","last_reported":1747293058,"current_range_meters":20800,"station_id":"ce4bhbp2rcd13ifvqerg","pricing_plan_id":"cebpf4jnsgd1na2vs0mg"},{"bike_id":"0e1ebdeb-2276-4dc2-b931-c2cea2f7d0d2","system_id":"levelo_inurba_marseille","lat":43.241645,"lon":5.363975,"is_reserved":false,"is_disabled":false,"rental_uris":{"android":"levelo://app?vid=0e1ebdeb-2276-4dc2-b931-c2cea2f7d0d2","ios":"levelo://app?vid=0e1ebdeb-2276-4dc2-b931-c2cea2f7d0d2"},"vehicle_type_id":"4","last_reported":1747293058,"current_range_meters":21600,"station_id":"cpo36qri1sfpv3e86is0","pricing_plan_id":"cebpf4jnsgd1na2vs0mg"},{"bike_id":"3d46183d-e421-4498-8767-0e257c53394b","system_id":"levelo_inurba_marseille","lat":43.3255,"lon":5.41435,"is_reserved":false,"is_disabled":false,"rental_uris":{"android":"levelo://app?vid=3d46183d-e421-4498-8767-0e257c53394b","ios":"levelo://app?vid=3d46183d-e421-4498-8767-0e257c53394b"},"vehicle_type_id":"4","last_reported":1747293058,"current_range_meters":21600,"station_id":"ce4bhq12rcd13ifvqhhg","pricing_plan_id":"cebpf4jnsgd1na2vs0mg"},{"bike_id":"6bade92c-6045-4d5c-b195-756b9429fd89","system_id":"levelo_inurba_marseille","lat":43.30795,"lon":5.38159,"is_reserved":false,"is_disabled":false,"rental_uris":{"android":"levelo://app?vid=6bade92c-6045-4d5c-b195-756b9429fd89","ios":"levelo://app?vid=6bade92c-6045-4d5c-b195-756b9429fd89"},"vehicle_type_id":"4","last_reported":1747293058,"current_range_meters":21600,"station_id":"ce4bgt12rcd13ifvqce0","pricing_plan_id":"cebpf4jnsgd1na2vs0mg"},{"bike_id":"5dd81d8b-2d5c-46a8-ae61-aaef33b7e2ac","system_id":"levelo_inurba_marseille","lat":43.32366,"lon":5.38886,"is_reserved":false,"is_disabled":false,"rental_uris":{"android":"levelo://app?vid=5dd81d8b-2d5c-46a8-ae61-aaef33b7e2ac","ios":"levelo://app?vid=5dd81d8b-2d5c-46a8-ae61-aaef33b7e2ac"},"vehicle_type_id":"4","last_reported":1747293058,"current_range_meters":21600,"station_id":"ce4bhqp2rcd13ifvqhog","pricing_plan_id":"cebpf4jnsgd1na2vs0mg"},{"bike_id":"d2b358fa-3af4-4c03-a2ca-467ddd00ddbc","system_id":"levelo_inurba_marseille","lat":43.32485,"lon":5.36578,"is_reserved":false,"is_disabled":false,"rental_uris":{"android":"levelo://app?vid=d2b358fa-3af4-4c03-a2ca-467ddd00ddbc","ios":"levelo://app?vid=d2b358fa-3af4-4c03-a2ca-467ddd00ddbc"},"vehicle_type_id":"4","last_reported":1747293058,"current_range_meters":21600,"station_id":"ce4bhs12rcd13ifvqhvg","pricing_plan_id":"cebpf4jnsgd1na2vs0mg"},{"bike_id":"f2586ffa-2df5-4b74-80b9-3f9fe84e04f1","system_id":"levelo_inurba_marseille","lat":43.23189,"lon":5.35549,"is_reserved":false,"is_disabled":false,"rental_uris":{"android":"levelo://app?vid=f2586ffa-2df5-4b74-80b9-3f9fe84e04f1","ios":"levelo://app?vid=f2586ffa-2df5-4b74-80b9-3f9fe84e04f1"},"vehicle_type_id":"4","last_reported":1747293058,"current_range_meters":21600,"station_id":"ce4bhu92rcd13ifvqi70","pricing_plan_id":"cebpf4jnsgd1na2vs0mg"},{"bike_id":"13fb7c0c-f7ea-4d7b-bdcd-c94492777a0b","system_id":"levelo_inurba_marseille","lat":43.30519,"lon":5.36512,"is_reserved":false,"is_disabled":false,"rental_uris":{"android":"levelo://app?vid=13fb7c0c-f7ea-4d7b-bdcd-c94492777a0b","ios":"levelo://app?vid=13fb7c0c-f7ea-4d7b-bdcd-c94492777a0b"},"vehicle_type_id":"4","last_reported":1747293058,"current_range_meters":22000,"station_id":"ce4bgs12rcd13ifvqcag","pricing_plan_id":"cebpf4jnsgd1na2vs0mg"},{"bike_id":"d987b698-7b50-4838-a2d4-3b54ae798c0b","system_id":"levelo_inurba_marseille","lat":43.267939,"lon":5.394062,"is_reserved":false,"is_disabled":false,"rental_uris":{"android":"levelo://app?vid=d987b698-7b50-4838-a2d4-3b54ae798c0b","ios":"levelo://app?vid=d987b698-7b50-4838-a2d4-3b54ae798c0b"},"vehicle_type_id":"4","last_reported":1747293058,"current_range_meters":22000,"station_id":"ce4bhh12rcd13ifvqfg0","pricing_plan_id":"cebpf4jnsgd1na2vs0mg"},{"bike_id":"bbfb4477-5d00-459d-adb5-a397d5c519b7","system_id":"levelo_inurba_marseille","lat":43.309572,"lon":5.390192,"is_reserved":false,"is_disabled":false,"rental_uris":{"android":"levelo://app?vid=bbfb4477-5d00-459d-adb5-a397d5c519b7","ios":"levelo://app?vid=bbfb4477-5d00-459d-adb5-a397d5c519b7"},"vehicle_type_id":"4","last_reported":1747293058,"current_range_meters":22400,"station_id":"ce4bgup2rcd13ifvqco0","pricing_plan_id":"cebpf4jnsgd1na2vs0mg"},{"bike_id":"d457f586-7e30-4777-8fb0-2efc6b8184f0","system_id":"levelo_inurba_marseille","lat":43.26029,"lon":5.3755,"is_reserved":false,"is_disabled":false,"rental_uris":{"android":"levelo://app?vid=d457f586-7e30-4777-8fb0-2efc6b8184f0","ios":"levelo://app?vid=d457f586-7e30-4777-8fb0-2efc6b8184f0"},"vehicle_type_id":"4","last_reported":1747293058,"current_range_meters":22000,"station_id":"ce4bhgh2rcd13ifvqfa0","pricing_plan_id":"cebpf4jnsgd1na2vs0mg"},{"bike_id":"8401cbf5-9f91-4ef8-867e-763575872251","system_id":"levelo_inurba_marseille","lat":43.30548,"lon":5.36702,"is_reserved":false,"is_disabled":false,"rental_uris":{"android":"levelo://app?vid=8401cbf5-9f91-4ef8-867e-763575872251","ios":"levelo://app?vid=8401cbf5-9f91-4ef8-867e-763575872251"},"vehicle_type_id":"4","last_reported":1747293058,"current_range_meters":22000,"station_id":"ce4bgrp2rcd13ifvqc9g","pricing_plan_id":"cebpf4jnsgd1na2vs0mg"},{"bike_id":"64bd598c-dd43-4a46-9d6c-5633d6873e63","system_id":"levelo_inurba_marseille","lat":43.30902,"lon":5.36841,"is_reserved":false,"is_disabled":false,"rental_uris":{"android":"levelo://app?vid=64bd598c-dd43-4a46-9d6c-5633d6873e63","ios":"levelo://app?vid=64bd598c-dd43-4a46-9d6c-5633d6873e63"},"vehicle_type_id":"4","last_reported":1747293058,"current_range_meters":22000,"station_id":"ce4bgn92rcd13ifvqbvg","pricing_plan_id":"cebpf4jnsgd1na2vs0mg"},{"bike_id":"30739857-c22e-4292-938e-e25f1ce44afb","system_id":"levelo_inurba_marseille","lat":43.30911,"lon":5.36844,"is_reserved":false,"is_disabled":false,"rental_uris":{"android":"levelo://app?vid=30739857-c22e-4292-938e-e25f1ce44afb","ios":"levelo://app?vid=30739857-c22e-4292-938e-e25f1ce44afb"},"vehicle_type_id":"4","last_reported":1747293058,"current_range_meters":22000,"station_id":"ce4bgn92rcd13ifvqbvg","pricing_plan_id":"cebpf4jnsgd1na2vs0mg"},{"bike_id":"12c41f25-9285-4f3d-8a9d-2fa91face3d1","system_id":"levelo_inurba_marseille","lat":43.240645,"lon":5.377465,"is_reserved":false,"is_disabled":false,"rental_uris":{"android":"levelo://app?vid=12c41f25-9285-4f3d-8a9d-2fa91face3d1","ios":"levelo://app?vid=12c41f25-9285-4f3d-8a9d-2fa91face3d1"},"vehicle_type_id":"4","last_reported":1747293058,"current_range_meters":24400,"station_id":"ce4bhnp2rcd13ifvqgvg","pricing_plan_id":"cebpf4jnsgd1na2vs0mg"},{"bike_id":"ab1a2cfa-cd04-46bf-abc6-9c8329db5004","system_id":"levelo_inurba_marseille","lat":43.30167,"lon":5.38096,"is_reserved":false,"is_disabled":false,"rental_uris":{"android":"levelo://app?vid=ab1a2cfa-cd04-46bf-abc6-9c8329db5004","ios":"levelo://app?vid=ab1a2cfa-cd04-46bf-abc6-9c8329db5004"},"vehicle_type_id":"4","last_reported":1747293058,"current_range_meters":22000,"station_id":"ce4bgjp2rcd13ifvqbh0","pricing_plan_id":"cebpf4jnsgd1na2vs0mg"},{"bike_id":"b97abd75-ed70-49bf-84f5-264031e2f9b1","system_id":"levelo_inurba_marseille","lat":43.29034,"lon":5.39966,"is_reserved":false,"is_disabled":false,"rental_uris":{"android":"levelo://app?vid=b97abd75-ed70-49bf-84f5-264031e2f9b1","ios":"levelo://app?vid=b97abd75-ed70-49bf-84f5-264031e2f9b1"},"vehicle_type_id":"4","last_reported":1747293058,"current_range_meters":22400,"station_id":"ce4bh392rcd13ifvqdm0","pricing_plan_id":"cebpf4jnsgd1na2vs0mg"},{"bike_id":"bbcc59d9-a178-4b4f-96f3-24ce375573f2","system_id":"levelo_inurba_marseille","lat":43.294091,"lon":5.386226,"is_reserved":false,"is_disabled":false,"rental_uris":{"android":"levelo://app?vid=bbcc59d9-a178-4b4f-96f3-24ce375573f2","ios":"levelo://app?vid=bbcc59d9-a178-4b4f-96f3-24ce375573f2"},"vehicle_type_id":"4","last_reported":1747293058,"current_range_meters":22400,"station_id":"ce4bguh2rcd13ifvqckg","pricing_plan_id":"cebpf4jnsgd1na2vs0mg"},{"bike_id":"a97cefea-8211-44a3-be3e-0ad12194849c","system_id":"levelo_inurba_marseille","lat":43.33593,"lon":5.40993,"is_reserved":false,"is_disabled":false,"rental_uris":{"android":"levelo://app?vid=a97cefea-8211-44a3-be3e-0ad12194849c","ios":"levelo://app?vid=a97cefea-8211-44a3-be3e-0ad12194849c"},"vehicle_type_id":"4","last_reported":1747293058,"current_range_meters":22400,"station_id":"ce4bhqh2rcd13ifvqhmg","pricing_plan_id":"cebpf4jnsgd1na2vs0mg"},{"bike_id":"9a5cd817-6f5d-407b-bb70-7de79bc57d00","system_id":"levelo_inurba_marseille","lat":43.258712,"lon":5.408518,"is_reserved":false,"is_disabled":false,"rental_uris":{"android":"levelo://app?vid=9a5cd817-6f5d-407b-bb70-7de79bc57d00","ios":"levelo://app?vid=9a5cd817-6f5d-407b-bb70-7de79bc57d00"},"vehicle_type_id":"4","last_reported":1747293058,"current_range_meters":22400,"station_id":"ce4bhm92rcd13ifvqglg","pricing_plan_id":"cebpf4jnsgd1na2vs0mg"},{"bike_id":"3da705d8-97b4-4e9f-bedd-ca6bcdac520d","system_id":"levelo_inurba_marseille","lat":43.30146,"lon":5.37408,"is_reserved":false,"is_disabled":false,"rental_uris":{"android":"levelo://app?vid=3da705d8-97b4-4e9f-bedd-ca6bcdac520d","ios":"levelo://app?vid=3da705d8-97b4-4e9f-bedd-ca6bcdac520d"},"vehicle_type_id":"4","last_reported":1747293058,"current_range_meters":22400,"station_id":"ce4bgs92rcd13ifvqcc0","pricing_plan_id":"cebpf4jnsgd1na2vs0mg"},{"bike_id":"3fd06a26-07bd-4502-9f4a-4ba8195929ab","system_id":"levelo_inurba_marseille","lat":43.29253,"lon":5.40902,"is_reserved":false,"is_disabled":false,"rental_uris":{"android":"levelo://app?vid=3fd06a26-07bd-4502-9f4a-4ba8195929ab","ios":"levelo://app?vid=3fd06a26-07bd-4502-9f4a-4ba8195929ab"},"vehicle_type_id":"4","last_reported":1747293058,"current_range_meters":22400,"station_id":"ce4bh192rcd13ifvqdc0","pricing_plan_id":"cebpf4jnsgd1na2vs0mg"},{"bike_id":"2be3e8c9-d2c3-4767-a27b-6d9b4d9a6494","system_id":"levelo_inurba_marseille","lat":43.27511,"lon":5.42544,"is_reserved":false,"is_disabled":false,"rental_uris":{"android":"levelo://app?vid=2be3e8c9-d2c3-4767-a27b-6d9b4d9a6494","ios":"levelo://app?vid=2be3e8c9-d2c3-4767-a27b-6d9b4d9a6494"},"vehicle_type_id":"4","last_reported":1747293058,"current_range_meters":22400,"station_id":"","pricing_plan_id":"cebpf4jnsgd1na2vs0mg"},{"bike_id":"3fa5fa43-0307-454b-b363-fb671ebc3ca7","system_id":"levelo_inurba_marseille","lat":43.27812,"lon":5.40713,"is_reserved":false,"is_disabled":false,"rental_uris":{"android":"levelo://app?vid=3fa5fa43-0307-454b-b363-fb671ebc3ca7","ios":"levelo://app?vid=3fa5fa43-0307-454b-b363-fb671ebc3ca7"},"vehicle_type_id":"4","last_reported":1747293058,"current_range_meters":22400,"station_id":"ce4bhnh2rcd13ifvqgtg","pricing_plan_id":"cebpf4jnsgd1na2vs0mg"},{"bike_id":"45d2fc37-0a54-43c8-9ac0-398e8ec3f3c0","system_id":"levelo_inurba_marseille","lat":43.32294,"lon":5.38267,"is_reserved":false,"is_disabled":false,"rental_uris":{"android":"levelo://app?vid=45d2fc37-0a54-43c8-9ac0-398e8ec3f3c0","ios":"levelo://app?vid=45d2fc37-0a54-43c8-9ac0-398e8ec3f3c0"},"vehicle_type_id":"4","last_reported":1747293058,"current_range_meters":22400,"station_id":"ce4bhr12rcd13ifvqhqg","pricing_plan_id":"cebpf4jnsgd1na2vs0mg"},{"bike_id":"1b533830-8568-4b52-b8b1-0f02c93593a7","system_id":"levelo_inurba_marseille","lat":43.25926,"lon":5.408911,"is_reserved":false,"is_disabled":false,"rental_uris":{"android":"levelo://app?vid=1b533830-8568-4b52-b8b1-0f02c93593a7","ios":"levelo://app?vid=1b533830-8568-4b52-b8b1-0f02c93593a7"},"vehicle_type_id":"4","last_reported":1747293058,"current_range_meters":22800,"station_id":"ce4bhm92rcd13ifvqglg","pricing_plan_id":"cebpf4jnsgd1na2vs0mg"},