{"last_updated":1752275440,"ttl":60,"version":"2.2","data":{"bikes":[{"bike_id":"833789d2-719f-470f-8aa2-b69edbf07c3f","system_id":"levelo_inurba_marseille","lat":43.29664,"lon":5.39286,"is_reserved":false,"is_disabled":false,"rental_uris":{"android":"levelo://app?vid=833789d2-719f-470f-8aa2-b69edbf07c3f","ios":"levelo://app?vid=833789d2-719f-470f-8aa2-b69edbf07c3f"},"vehicle_type_id":"4","last_reported":1752275440,"current_range_meters":2800,"station_id":"","pricing_plan_id":"cebpf4jnsgd1na2vs0mg"},{"bike_id":"feec9ca5-eb53-4205-a29d-3d797c986952","system_id":"levelo_inurba_marseille","lat":43.289433,"lon":5.366422,"is_reserved":false,"is_disabled":true,"rental_uris":{"android":"levelo://app?vid=feec9ca5-eb53-4205-a29d-3d797c986952","ios":"levelo://app?vid=feec9ca5-eb53-4205-a29d-3d797c986952"},"vehicle_type_id":"4","last_reported":1752275440,"current_range_meters":2800,"station_id":"ce4bhpp2rcd13ifvqhfg","pricing_plan_id":"cebpf4jnsgd1na2vs0mg"},{"bike_id":"b14d0d78-8635-433f-8305-8e2ed857c830","system_id":"levelo_inurba_marseille","lat":43.307982,"lon":5.381564,"is_reserved":false,"is_disabled":true,"rental_uris":{"android":"levelo://app?vid=b14d0d78-8635-433f-8305-8e2ed857c830","ios":"levelo://app?vid=b14d0d78-8635-433f-8305-8e2ed857c830"},"vehicle_type_id":"4","last_reported":1752275440,"current_range_meters":3200,"station_id":"","pricing_plan_id":"cebpf4jnsgd1na2vs0mg"},{"bike_id":"44e819f7-404c-483b-943d-a31ed55797db","system_id":"levelo_inurba_marseille","lat":43.30211,"lon":5.39466,"is_reserved":false,"is_disabled":false,"rental_uris":{"android":"levelo://app?vid=44e819f7-404c-483b-943d-a31ed55797db","ios":"levelo://app?vid=44e819f7-404c-483b-943d-a31ed55797db"},"vehicle_type_id":"4","last_reported":1752275440,"current_range_meters":3200,"station_id":"ce4bh0p2rcd13ifvqd70","pricing_plan_id":"cebpf4jnsgd1na2vs0mg"},{"bike_id":"be81af2c-3723-45df-be8b-8d9f231eee70","system_id":"levelo_inurba_marseille","lat":43.30963,"lon":5.39052,"is_reserved":false,"is_disabled":true,"rental_uris":{"android":"levelo://app?vid=be81af2c-3723-45df-be8b-8d9f231eee70","ios":"levelo://app?vid=be81af2c-3723-45df-be8b-8d9f231eee70"},"vehicle_type_id":"4","last_reported":1752275440,"current_range_meters":3600,"station_id":"ce4bgup2rcd13ifvqco0","pricing_plan_id":"cebpf4jnsgd1na2vs0mg"},{"bike_id":"ef1120db-9fb9-4ef5-9cc2-12d748cf8a09","system_id":"levelo_inurba_marseille","lat":43.28564,"lon":5.39499,"is_reserved":false,"is_disabled":false,"rental_uris":{"android":"levelo://app?vid=ef1120db-9fb9-4ef5-9cc2-12d748cf8a09","ios":"levelo://app?vid=ef1120db-9fb9-4ef5-9cc2-12d748cf8a09"},"vehicle_type_id":"4","last_reported":1752275440,"current_range_meters":3600,"station_id":"ce4bh292rcd13ifvqdg0","pricing_plan_id":"cebpf4jnsgd1na2vs0mg"},{"bike_id":"0cf37cd1-0df8-4432-baee-2666a068f5f7","system_id":"levelo_inurba_marseille","lat":43.28472,"lon":5.38428,"is_reserved":false,"is_disabled":false,"rental_uris":{"android":"levelo://app?vid=0cf37cd1-0df8-4432-baee-2666a068f5f7","ios":"levelo://app?vid=0cf37cd1-0df8-4432-baee-2666a068f5f7"},"vehicle_type_id":"4","last_reported":1752275440,"current_range_meters":4000,"station_id":"ce4bh512rcd13ifvqe3g","pricing_plan_id":"cebpf4jnsgd1na2vs0mg"},{"bike_id":"bc0ba58e-06a3-432d-8c35-ebe9130c41f9","system_id":"levelo_inurba_marseille","lat":43.337444,"lon":5.374475,"is_reserved":false,"is_disabled":false,"rental_uris":{"android":"levelo://app?vid=bc0ba58e-06a3-432d-8c35-ebe9130c41f9","ios":"levelo://app?vid=bc0ba58e-06a3-432d-8c35-ebe9130c41f9"},"vehicle_type_id":"4","last_reported":1752275440,"current_range_meters":4000,"station_id":"","pricing_plan_id":"cebpf4jnsgd1na2vs0mg"},{"bike_id":"12498c92-cccd-4730-bb07-beea88aab92c","system_id":"levelo_inurba_marseille","lat":43.27943,"lon":5.41039,"is_reserved":false,"is_disabled":false,"rental_uris":{"android":"levelo://app?vid=12498c92-cccd-4730-bb07-beea88aab92c","ios":"levelo://app?vid=12498c92-cccd-4730-bb07-beea88aab92c"},"vehicle_type_id":"4","last_reported":1752275440,"current_range_meters":4000,"station_id":"ce4bhnp2rcd13ifvqh0g","pricing_plan_id":"cebpf4jnsgd1na2vs0mg"},{"bike_id":"089a77bf-7476-4f0b-95a7-4a9f19a7bfb8","system_id":"levelo_inurba_marseille","lat":43.30963,"lon":5.40166,"is_reserved":false,"is_disabled":false,"rental_uris":{"android":"levelo://app?vid=089a77bf-7476-4f0b-95a7-4a9f19a7bfb8","ios":"levelo://app?vid=089a77bf-7476-4f0b-95a7-4a9f19a7bfb8"},"vehicle_type_id":"4","last_reported":1752275440,"current_range_meters":4000,"station_id":"ce4bgvp2rcd13ifvqct0","pricing_plan_id":"cebpf4jnsgd1na2vs0mg"},{"bike_id":"5a0df6e6-9014-4842-97ce-cc8b31757240","system_id":"levelo_inurba_marseille","lat":43.2925,"lon":5.38414,"is_reserved":false,"is_disabled":false,"rental_uris":{"android":"levelo://app?vid=5a0df6e6-9014-4842-97ce-cc8b31757240","ios":"levelo://app?vid=5a0df6e6-9014-4842-97ce-cc8b31757240"},"vehicle_type_id":"4","last_reported":1752275440,"current_range_meters":4400,"station_id":"ce4bh692rcd13ifvqea0","pricing_plan_id":"cebpf4jnsgd1na2vs0mg"},{"bike_id":"50895d1b-9c42-40b1-8046-1abdb8597e53","system_id":"levelo_inurba_marseille","lat":43.28569,"lon":5.39492,"is_reserved":false,"is_disabled":false,"rental_uris":{"android":"levelo://app?vid=50895d1b-9c42-40b1-8046-1abdb8597e53","ios":"levelo://app?vid=50895d1b-9c42-40b1-8046-1abdb8597e53"},"vehicle_type_id":"4","last_reported":1752275440,"current_range_meters":4400,"station_id":"ce4bh292rcd13ifvqdg0","pricing_plan_id":"cebpf4jnsgd1na2vs0mg"},{"bike_id":"56ca5744-91fb-4f2d-bb36-b4d88428320b","system_id":"levelo_inurba_marseille","lat":43.302486,"lon":5.390655,"is_reserved":false,"is_disabled":false,"rental_uris":{"android":"levelo://app?vid=56ca5744-91fb-4f2d-bb36-b4d88428320b","ios":"levelo://app?vid=56ca5744-91fb-4f2d-bb36-b4d88428320b"},"vehicle_type_id":"4","last_reported":1752275440,"current_range_meters":4400,"station_id":"ce4bgkh2rcd13ifvqbk0","pricing_plan_id":"cebpf4jnsgd1na2vs0mg"},{"bike_id":"55920d33-d51d-4739-9845-05306c77b7d0","system_id":"levelo_inurba_marseille","lat":43.24633,"lon":5.42407,"is_reserved":false,"is_disabled":false,"rental_uris":{"android":"levelo://app?vid=55920d33-d51d-4739-9845-05306c77b7d0","ios":"levelo://app?vid=55920d33-d51d-4739-9845-05306c77b7d0"},"vehicle_type_id":"4","last_reported":1752275440,"current_range_meters":4400,"station_id":"","pricing_plan_id":"cebpf4jnsgd1na2vs0mg"},{"bike_id":"6a5b119e-7cf2-4dc4-b7fa-68080f35defe","system_id":"levelo_inurba_marseille","lat":43.31768,"lon":5.3901,"is_reserved":false,"is_disabled":true,"rental_uris":{"android":"levelo://app?vid=6a5b119e-7cf2-4dc4-b7fa-68080f35defe","ios":"levelo://app?vid=6a5b119e-7cf2-4dc4-b7fa-68080f35defe"},"vehicle_type_id":"4","last_reported":1752275440,"current_range_meters":4800,"station_id":"ce4bhqp2rcd13ifvqhng","pricing_plan_id":"cebpf4jnsgd1na2vs0mg"},{"bike_id":"b757ffbb-2b71-4330-9f60-5f8a9d46d16e","system_id":"levelo_inurba_marseille","lat":43.2967,"lon":5.3712,"is_reserved":false,"is_disabled":false,"rental_uris":{"android":"levelo://app?vid=b757ffbb-2b71-4330-9f60-5f8a9d46d16e","ios":"levelo://app?vid=b757ffbb-2b71-4330-9f60-5f8a9d46d16e"},"vehicle_type_id":"4","last_reported":1752275440,"current_range_meters":5600,"station_id":"","pricing_plan_id":"cebpf4jnsgd1na2vs0mg"},{"bike_id":"564a5820-6625-42f0-8b42-adf257b00d43","system_id":"levelo_inurba_marseille","lat":43.30138,"lon":5.39844,"is_reserved":false,"is_disabled":false,"rental_uris":{"android":"levelo://app?vid=564a5820-6625-42f0-8b42-adf257b00d43","ios":"levelo://app?vid=564a5820-6625-42f0-8b42-adf257b00d43"},"vehicle_type_id":"4","last_reported":1752275440,"current_range_meters":5600,"station_id":"ce4bh0h2rcd13ifvqd40","pricing_plan_id":"cebpf4jnsgd1na2vs0mg"},{"bike_id":"e3e456c4-b90b-4273-a549-897888733807","system_id":"levelo_inurba_marseille","lat":43.33022,"lon":5.39051,"is_reserved":false,"is_disabled":true,"rental_uris":{"android":"levelo://app?vid=e3e456c4-b90b-4273-a549-897888733807","ios":"levelo://app?vid=e3e456c4-b90b-4273-a549-897888733807"},"vehicle_type_id":"4","last_reported":1752275440,"current_range_meters":5600,"station_id":"ce4bhr92rcd13ifvqhrg","pricing_plan_id":"cebpf4jnsgd1na2vs0mg"},{"bike_id":"1b974d17-1112-4eb0-af6e-91b7d34e70cf","system_id":"levelo_inurba_marseille","lat":43.28439,"lon":5.39207,"is_reserved":false,"is_disabled":false,"rental_uris":{"android":"levelo://app?vid=1b974d17-1112-4eb0-af6e-91b7d34e70cf","ios":"levelo://app?vid=1b974d17-1112-4eb0-af6e-91b7d34e70cf"},"vehicle_type_id":"4","last_reported":1752275440,"current_range_meters":6000,"station_id":"ce4bhoh2rcd13ifvqh5g","pricing_plan_id":"cebpf4jnsgd1na2vs0mg"},{"bike_id":"f94ffa1a-9f6b-44fe-ad32-3c4c92b3d69a","system_id":"levelo_inurba_marseille","lat":43.30135,"lon":5.39845,"is_reserved":false,"is_disabled":false,"rental_uris":{"android":"levelo://app?vid=f94ffa1a-9f6b-44fe-ad32-3c4c92b3d69a","ios":"levelo://app?vid=f94ffa1a-9f6b-44fe-ad32-3c4c92b3d69a"},"vehicle_type_id":"4","last_reported":1752275440,"current_range_meters":6400,"station_id":"ce4bh0h2rcd13ifvqd40","pricing_plan_id":"cebpf4jnsgd1na2vs0mg"},{"bike_id":"80729a38-9012-4621-9f89-89930dcf3d43","system_id":"levelo_inurba_marseille","lat":43.27948,"lon":5.410463,"is_reserved":false,"is_disabled":false,"rental_uris":{"android":"levelo://app?vid=80729a38-9012-4621-9f89-89930dcf3d43","ios":"levelo://app?vid=80729a38-9012-4621-9f89-89930dcf3d43"},"vehicle_type_id":"4","last_reported":1752275440,"current_range_meters":6400,"station_id":"ce4bhnp2rcd13ifvqh0g","pricing_plan_id":"cebpf4jnsgd1na2vs0mg"},{"bike_id":"d8f33195-93cb-4919-8fab-bd796498b905","system_id":"levelo_inurba_marseille","lat":43.265578,"lon":5.390004,"is_reserved":false,"is_disabled":true,"rental_uris":{"android":"levelo://app?vid=d8f33195-93cb-4919-8fab-bd796498b905","ios":"levelo://app?vid=d8f33195-93cb-4919-8fab-bd796498b905"},"vehicle_type_id":"4","last_reported":1752275440,"current_range_meters":7200,"station_id":"ce4bhhp2rcd13ifvqfm0","pricing_plan_id":"cebpf4jnsgd1na2vs0mg"},{"bike_id":"871d0981-555e-4fe8-a57b-b4f20a878713","system_id":"levelo_inurba_marseille","lat":43.29202,"lon":5.39315,"is_reserved":false,"is_disabled":false,"rental_uris":{"android":"levelo://app?vid=871d0981-555e-4fe8-a57b-b4f20a878713","ios":"levelo://app?vid=871d0981-555e-4fe8-a57b-b4f20a878713"},"vehicle_type_id":"4","last_reported":1752275440,"current_range_meters":6800,"station_id":"ce4bh192rcd13ifvqdd0","pricing_plan_id":"cebpf4jnsgd1na2vs0mg"},{"bike_id":"ee2d0b25-df19-4c3e-b06e-b5ba09004964","system_id":"levelo_inurba_marseille","lat":43.3042,"lon":5.41279,"is_reserved":false,"is_disabled":false,"rental_uris":{"android":"levelo://app?vid=ee2d0b25-df19-4c3e-b06e-b5ba09004964","ios":"levelo://app?vid=ee2d0b25-df19-4c3e-b06e-b5ba09004964"},"vehicle_type_id":"4","last_reported":1752275440,"current_range_meters":6800,"station_id":"ce4bhop2rcd13ifvqh8g","pricing_plan_id":"cebpf4jnsgd1na2vs0mg"},{"bike_id":"d184ac3b-14f8-4a44-ad72-f24f2b48fb2c","system_id":"levelo_inurba_marseille","lat":43.28433,"lon":5.39189,"is_reserved":false,"is_disabled":false,"rental_uris":{"android":"levelo://app?vid=d184ac3b-14f8-4a44-ad72-f24f2b48fb2c","ios":"levelo://app?vid=d184ac3b-14f8-4a44-ad72-f24f2b48fb2c"},"vehicle_type_id":"4","last_reported":1752275440,"current_range_meters":8000,"station_id":"ce4bhoh2rcd13ifvqh5g","pricing_plan_id":"cebpf4jnsgd1na2vs0mg"},{"bike_id":"a4fb3d2e-3616-4a6e-8157-87cd4a294096","system_id":"levelo_inurba_marseille","lat":43.25106,"lon":5.40328,"is_reserved":false,"is_disabled":false,"rental_uris":{"android":"levelo://app?vid=a4fb3d2e-3616-4a6e-8157-87cd4a294096","ios":"levelo://app?vid=a4fb3d2e-3616-4a6e-8157-87cd4a294096"},"vehicle_type_id":"4","last_reported":1752275440,"current_range_meters":8000,"station_id":"ce4bhlh2rcd13ifvqgig","pricing_plan_id":"cebpf4jnsgd1na2vs0mg"},{"bike_id":"ea7f713a-f8eb-4f16-8168-36d2161084e8","system_id":"levelo_inurba_marseille","lat":43.27865,"lon":5.39474,"is_reserved":false,"is_disabled":false,"rental_uris":{"android":"levelo://app?vid=ea7f713a-f8eb-4f16-8168-36d2161084e8","ios":"levelo://app?vid=ea7f713a-f8eb-4f16-8168-36d2161084e8"},"vehicle_type_id":"4","last_reported":1752275440,"current_range_meters":8000,"station_id":"","pricing_plan_id":"cebpf4jnsgd1na2vs0mg"},{"bike_id":"80572c0e-dd76-4996-8857-92f8eabf8fca","system_id":"levelo_inurba_marseille","lat":43.310683,"lon":5.383483,"is_reserved":false,"is_disabled":true,"rental_uris":{"android":"levelo://app?vid=80572c0e-dd76-4996-8857-92f8eabf8fca","ios":"levelo://app?vid=80572c0e-dd76-4996-8857-92f8eabf8fca"},"vehicle_type_id":"4","last_reported":1752275440,"current_range_meters":8000,"station_id":"ce4bgv92rcd13ifvqcr0","pricing_plan_id":"cebpf4jnsgd1na2vs0mg"},{"bike_id":"e9792688-b419-44c2-865d-cbcd3705959a","system_id":"levelo_inurba_marseille","lat":43.2926,"lon":5.38442,"is_reserved":false,"is_disabled":false,"rental_uris":{"android":"levelo://app?vid=e9792688-b419-44c2-865d-cbcd3705959a","ios":"levelo://app?vid=e9792688-b419-44c2-865d-cbcd3705959a"},"vehicle_type_id":"4","last_reported":1752275440,"current_range_meters":8000,"station_id":"ce4bh692rcd13ifvqea0","pricing_plan_id":"cebpf4jnsgd1na2vs0mg"},{"bike_id":"484af41b-54c1-47fb-961b-9b7dd97412d9","system_id":"levelo_inurba_marseille","lat":43.29527,"lon":5.38543,"is_reserved":false,"is_disabled":false,"rental_uris":{"android":"levelo://app?vid=484af41b-54c1-47fb-961b-9b7dd97412d9","ios":"levelo://app?vid=484af41b-54c1-47fb-961b-9b7dd97412d9"},"vehicle_type_id":"4","last_reported":1752275440,"current_range_meters":8000,"station_id":"ce4bgih2rcd13ifvqba0","pricing_plan_id":"cebpf4jnsgd1na2vs0mg"},{"bike_id":"b84efe8f-b40a-4e55-b7c2-d1e60451fba9","system_id":"levelo_inurba_marseille","lat":43.30796,"lon":5.37745,"is_reserved":false,"is_disabled":false,"rental_uris":{"android":"levelo://app?vid=b84efe8f-b40a-4e55-b7c2-d1e60451fba9","ios":"levelo://app?vid=b84efe8f-b40a-4e55-b7c2-d1e60451fba9"},"vehicle_type_id":"4","last_reported":1752275440,"current_range_meters":8400,"station_id":"","pricing_plan_id":"cebpf4jnsgd1na2vs0mg"},{"bike_id":"8a8548c8-5024-4ee6-ba3e-a02d35e313f5","system_id":"levelo_inurba_marseille","lat":43.28604,"lon":5.37062,"is_reserved":false,"is_disabled":false,"rental_uris":{"android":"levelo://app?vid=8a8548c8-5024-4ee6-ba3e-a02d35e313f5","ios":"levelo://app?vid=8a8548c8-5024-4ee6-ba3e-a02d35e313f5"},"vehicle_type_id":"4","last_reported":1752275440,"current_range_meters":8400,"station_id":"ce4bht12rcd13ifvqi60","pricing_plan_id":"cebpf4jnsgd1na2vs0mg"},{"bike_id":"34405a1f-f90d-49c3-9ef7-cc9c76521a23","system_id":"levelo_inurba_marseille","lat":43.29034,"lon":5.38632,"is_reserved":false,"is_disabled":false,"rental_uris":{"android":"levelo://app?vid=34405a1f-f90d-49c3-9ef7-cc9c76521a23","ios":"levelo://app?vid=34405a1f-f90d-49c3-9ef7-cc9c76521a23"},"vehicle_type_id":"4","last_reported":1752275440,"current_range_meters":8400,"station_id":"ce4bh4p2rcd13ifvqe0g","pricing_plan_id":"cebpf4jnsgd1na2vs0mg"},{"bike_id":"07330825-ed99-4d79-b83c-9b7206933da5","system_id":"levelo_inurba_marseille","lat":43.29971,"lon":5.3719,"is_reserved":false,"is_disabled":false,"rental_uris":{"android":"levelo://app?vid=07330825-ed99-4d79-b83c-9b7206933da5","ios":"levelo://app?vid=07330825-ed99-4d79-b83c-9b7206933da5"},"vehicle_type_id":"4","last_reported":1752275440,"current_range_meters":8400,"station_id":"ce4bgr92rcd13ifvqc7g","pricing_plan_id":"cebpf4jnsgd1na2vs0mg"},{"bike_id":"2711e2df-4467-499e-8fe3-b15ecca6968c","system_id":"levelo_inurba_marseille","lat":43.30636,"lon":5.40155,"is_reserved":false,"is_disabled":true,"rental_uris":{"android":"levelo://app?vid=2711e2df-4467-499e-8fe3-b15ecca6968c","ios":"levelo://app?vid=2711e2df-4467-499e-8fe3-b15ecca6968c"},"vehicle_type_id":"4","last_reported":1752275440,"current_range_meters":8400,"station_id":"ce4bh112rcd13ifvqda0","pricing_plan_id":"cebpf4jnsgd1na2vs0mg"},{"bike_id":"ac6fa144-a58e-4c9c-88eb-747201fb9c31","system_id":"levelo_inurba_marseille","lat":43.3076,"lon":5.39308,"is_reserved":false,"is_disabled":false,"rental_uris":{"android":"levelo://app?vid=ac6fa144-a58e-4c9c-88eb-747201fb9c31","ios":"levelo://app?vid=ac6fa144-a58e-4c9c-88eb-747201fb9c31"},"vehicle_type_id":"4","last_reported":1752275440,"current_range_meters":8400,"station_id":"","pricing_plan_id":"cebpf4jnsgd1na2vs0mg"},{"bike_id":"492822e9-b40c-4824-8594-38c8605e1a47","system_id":"levelo_inurba_marseille","lat":43.30136,"lon":5.39874,"is_reserved":false,"is_disabled":false,"rental_uris":{"android":"levelo://app?vid=492822e9-b40c-4824-8594-38c8605e1a47","ios":"levelo://app?vid=492822e9-b40c-4824-8594-38c8605e1a47"},"vehicle_type_id":"4","last_reported":1752275440,"current_range_meters":8400,"station_id":"ce4bh0h2rcd13ifvqd40","pricing_plan_id":"cebpf4jnsgd1na2vs0mg"},{"bike_id":"4b91f72e-42b2-4150-99a7-8d650d954e6a","system_id":"levelo_inurba_marseille","lat":43.28466,"lon":5.38414,"is_reserved":false,"is_disabled":false,"rental_uris":{"android":"levelo://app?vid=4b91f72e-42b2-4150-99a7-8d650d954e6a","ios":"levelo://app?vid=4b91f72e-42b2-4150-99a7-8d650d954e6a"},"vehicle_type_id":"4","last_reported":1752275440,"current_range_meters":8400,"station_id":"ce4bh512rcd13ifvqe3g","pricing_plan_id":"cebpf4jnsgd1na2vs0mg"},{"bike_id":"b4544312-64e4-4dd2-bd6d-e1d3f6243b40","system_id":"levelo_inurba_marseille","lat":43.2885,"lon":5.38459,"is_reserved":false,"is_disabled":false,"rental_uris":{"android":"levelo://app?vid=b4544312-64e4-4dd2-bd6d-e1d3f6243b40","ios":"levelo://app?vid=b4544312-64e4-4dd2-bd6d-e1d3f6243b40"},"vehicle_type_id":"4","last_reported":1752275440,"current_range_meters":8400,"station_id":"","pricing_plan_id":"cebpf4jnsgd1na2vs0mg"},{"bike_id":"e21d2192-ff02-473d-a467-892f79f6d210","system_id":"levelo_inurba_marseille","lat":43.30783,"lon":5.37637,"is_reserved":false,"is_disabled":false,"rental_uris":{"android":"levelo://app?vid=e21d2192-ff02-473d-a467-892f79f6d210","ios":"levelo://app?vid=e21d2192-ff02-473d-a467-892f79f6d210"},"vehicle_type_id":"4","last_reported":1752275440,"current_range_meters":8800,"station_id":"ce4bgv92rcd13ifvqcq0","pricing_plan_id":"cebpf4jnsgd1na2vs0mg"},{"bike_id":"f6379f47-d054-43a8-bf41-72c2d3a2fa59","system_id":"levelo_inurba_marseille","lat":43.23963,"lon":5.36641,"is_reserved":false,"is_disabled":true,"rental_uris":{"android":"levelo://app?vid=f6379f47-d054-43a8-bf41-72c2d3a2fa59","ios":"levelo://app?vid=f6379f47-d054-43a8-bf41-72c2d3a2fa59"},"vehicle_type_id":"4","last_reported":1752275440,"current_range_meters":8800,"station_id":"ce4bhi12rcd13ifvqfp0","pricing_plan_id":"cebpf4jnsgd1na2vs0mg"},{"bike_id":"ed0af24e-ec6e-4ddf-95ce-55532b647d6c","system_id":"levelo_inurba_marseille","lat":43.29568,"lon":5.39972,"is_reserved":false,"is_disabled":false,"rental_uris":{"android":"levelo://app?vid=ed0af24e-ec6e-4ddf-95ce-55532b647d6c","ios":"levelo://app?vid=ed0af24e-ec6e-4ddf-95ce-55532b647d6c"},"vehicle_type_id":"4","last_reported":1752275440,"current_range_meters":8400,"station_id":"ce4bh312rcd13ifvqdj0","pricing_plan_id":"cebpf4jnsgd1na2vs0mg"},{"bike_id":"3639cc55-2e57-4d17-b4eb-f8f9c6b54323","system_id":"levelo_inurba_marseille","lat":43.30924,"lon":5.40159,"is_reserved":false,"is_disabled":false,"rental_uris":{"android":"levelo://app?vid=3639cc55-2e57-4d17-b4eb-f8f9c6b54323","ios":"levelo://app?vid=3639cc55-2e57-4d17-b4eb-f8f9c6b54323"},"vehicle_type_id":"4","last_reported":1752275440,"current_range_meters":9200,"station_id":"ce4bgvp2rcd13ifvqct0","pricing_plan_id":"cebpf4jnsgd1na2vs0mg"},{"bike_id":"a5ad5c41-db67-4c05-9d04-9b7351b83e54","system_id":"levelo_inurba_marseille","lat":43.295321,"lon":5.385389,"is_reserved":false,"is_disabled":false,"rental_uris":{"android":"levelo://app?vid=a5ad5c41-db67-4c05-9d04-9b7351b83e54","ios":"levelo://app?vid=a5ad5c41-db67-4c05-9d04-9b7351b83e54"},"vehicle_type_id":"4","last_reported":1752275440,"current_range_meters":9200,"station_id":"ce4bgih2rcd13ifvqba0","pricing_plan_id":"cebpf4jnsgd1na2vs0mg"},{"bike_id":"5a28472d-f80e-4015-80ff-44cee0a4152c","system_id":"levelo_inurba_marseille","lat":43.29957,"lon":5.3654,"is_reserved":false,"is_disabled":false,"rental_uris":{"android":"levelo://app?vid=5a28472d-f80e-4015-80ff-44cee0a4152c","ios":"levelo://app?vid=5a28472d-f80e-4015-80ff-44cee0a4152c"},"vehicle_type_id":"4","last_reported":1752275440,"current_range_meters":9200,"station_id":"ce4bgm92rcd13ifvqbr0","pricing_plan_id":"cebpf4jnsgd1na2vs0mg"},{"bike_id":"730bc374-18d4-4d1f-ae73-c12439bd7996","system_id":"levelo_inurba_marseille","lat":43.3122,"lon":5.3686,"is_reserved":false,"is_disabled":true,"rental_uris":{"android":"levelo://app?vid=730bc374-18d4-4d1f-ae73-c12439bd7996","ios":"levelo://app?vid=730bc374-18d4-4d1f-ae73-c12439bd7996"},"vehicle_type_id":"4","last_reported":1752275440,"current_range_meters":9200,"station_id":"ce4bgl92rcd13ifvqbq0","pricing_plan_id":"cebpf4jnsgd1na2vs0mg"},{"bike_id":"4e209b0c-855f-4b51-8120-2faef8673853","system_id":"levelo_inurba_marseille","lat":43.30602,"lon":5.36901,"is_reserved":false,"is_disabled":false,"rental_uris":{"android":"levelo://app?vid=4e209b0c-855f-4b51-8120-2faef8673853","ios":"levelo://app?vid=4e209b0c-855f-4b51-8120-2faef8673853"},"vehicle_type_id":"4","last_reported":1752275440,"current_range_meters":9200,"station_id":"","pricing_plan_id":"cebpf4jnsgd1na2vs0mg"},{"bike_id":"f65ed7b3-6947-46fc-82a7-3ba3d3d18c0d","system_id":"levelo_inurba_marseille","lat":43.27925,"lon":5.39592,"is_reserved":false,"is_disabled":false,"rental_uris":{"android":"levelo://app?vid=f65ed7b3-6947-46fc-82a7-3ba3d3d18c0d","ios":"levelo://app?vid=f65ed7b3-6947-46fc-82a7-3ba3d3d18c0d"},"vehicle_type_id":"4","last_reported":1752275440,"current_range_meters":9600,"station_id":"ce4bhf92rcd13ifvqf40","pricing_plan_id":"cebpf4jnsgd1na2vs0mg"},{"bike_id":"5a7b57ef-a00d-4d19-853c-d49c119db95f","system_id":"levelo_inurba_marseille","lat":43.24566,"lon":5.3734,"is_reserved":false,"is_disabled":true,"rental_uris":{"android":"levelo://app?vid=5a7b57ef-a00d-4d19-853c-d49c119db95f","ios":"levelo://app?vid=5a7b57ef-a00d-4d19-853c-d49c119db95f"},"vehicle_type_id":"4","last_reported":1752275440,"current_range_meters":9600,"station_id":"","pricing_plan_id":"cebpf4jnsgd1na2vs0mg"},{"bike_id":"c41ebe55-735e-4475-98d9-dec32a4d4e7e","system_id":"levelo_inurba_marseille","lat":43.30886,"lon":5.3964,"is_reserved":false,"is_disabled":false,"rental_uris":{"android":"levelo://app?vid=c41ebe55-735e-4475-98d9-dec32a4d4e7e","ios":"levelo://app?vid=c41ebe55-735e-4475-98d9-dec32a4d4e7e"},"vehicle_type_id":"4","last_reported":1752275440,"current_range_meters":9200,"station_id":"ce4bh012rcd13ifvqcv0","pricing_plan_id":"cebpf4jnsgd1na2vs0mg"},{"bike_id":"fab33990-a786-445e-9523-e9b95bbf1c3f","system_id":"levelo_inurba_marseille","lat":43.30547,"lon":5.38438,"is_reserved":false,"is_disabled":false,"rental_uris":{"android":"levelo://app?vid=fab33990-a786-445e-9523-e9b95bbf1c3f","ios":"levelo://app?vid=fab33990-a786-445e-9523-e9b95bbf1c3f"},"vehicle_type_id":"4","last_reported":1752275440,"current_range_meters":9600,"station_id":"ce4bgg92rcd13ifvqb30","pricing_plan_id":"cebpf4jnsgd1na2vs0mg"},{"bike_id":"441b79d5-77e2-4b78-96b0-3c288b7605b0","system_id":"levelo_inurba_marseille","lat":43.30234,"lon":5.39199,"is_reserved":false,"is_disabled":false,"rental_uris":{"android":"levelo://app?vid=441b79d5-77e2-4b78-96b0-3c288b7605b0","ios":"levelo://app?vid=441b79d5-77e2-4b78-96b0-3c288b7605b0"},"vehicle_type_id":"4","last_reported":1752275440,"current_range_meters":9600,"station_id":"","pricing_plan_id":"cebpf4jnsgd1na2vs0mg"},{"bike_id":"f5083463-d784-436e-bff8-6051ee241dc4","system_id":"levelo_inurba_marseille","lat":43.305975,"lon":5.372284,"is_reserved":false,"is_disabled":false,"rental_uris":{"android":"levelo://app?vid=f5083463-d784-436e-bff8-6051ee241dc4","ios":"levelo://app?vid=f5083463-d784-436e-bff8-6051ee241dc4"},"vehicle_type_id":"4","last_reported":1752275440,"current_range_meters":9200,"station_id":"ce4bgqh2rcd13ifvqc4g","pricing_plan_id":"cebpf4jnsgd1na2vs0mg"},{"bike_id":"8cf60f4b-870a-4d70-beae-47a533a41d9d","system_id":"levelo_inurba_marseille","lat":43.30289,"lon":5.39228,"is_reserved":false,"is_disabled":false,"rental_uris":{"android":"levelo://app?vid=8cf60f4b-870a-4d70-beae-47a533a41d9d","ios":"levelo://app?vid=8cf60f4b-870a-4d70-beae-47a533a41d9d"},"vehicle_type_id":"4","last_reported":1752275440,"current_range_meters":9600,"station_id":"ce4bgkh2rcd13ifvqbk0","pricing_plan_id":"cebpf4jnsgd1na2vs0mg"},{"bike_id":"534ed68d-5ceb-43a8-968b-be30f01dfa74","system_id":"levelo_inurba_marseille","lat":43.282018,"lon":5.390529,"is_reserved":false,"is_disabled":true,"rental_uris":{"android":"levelo://app?vid=534ed68d-5ceb-43a8-968b-be30f01dfa74","ios":"levelo://app?vid=534ed68d-5ceb-43a8-968b-be30f01dfa74"},"vehicle_type_id":"4","last_reported":1752275440,"current_range_meters":10000,"station_id":"","pricing_plan_id":"cebpf4jnsgd1na2vs0mg"},{"bike_id":"8330a68f-2f6e-4337-9657-35d7d87c04ca","system_id":"levelo_inurba_marseille","lat":43.25451,"lon":5.37946,"is_reserved":false,"is_disabled":true,"rental_uris":{"android":"levelo://app?vid=8330a68f-2f6e-4337-9657-35d7d87c04ca","ios":"levelo://app?vid=8330a68f-2f6e-4337-9657-35d7d87c04ca"},"vehicle_type_id":"4","last_reported":1752275440,"current_range_meters":10000,"station_id":"","pricing_plan_id":"cebpf4jnsgd1na2vs0mg"},{"bike_id":"e83614b7-1234-4bc3-b14a-b5635492649e","system_id":"levelo_inurba_marseille","lat":43.28644,"lon":5.38521,"is_reserved":false,"is_disabled":false,"rental_uris":{"android":"levelo://app?vid=e83614b7-1234-4bc3-b14a-b5635492649e","ios":"levelo://app?vid=e83614b7-1234-4bc3-b14a-b5635492649e"},"vehicle_type_id":"4","last_reported":1752275440,"current_range_meters":10000,"station_id":"","pricing_plan_id":"cebpf4jnsgd1na2vs0mg"},{"bike_id":"9502747a-4709-483d-a949-01cb2354160b","system_id":"levelo_inurba_marseille","lat":43.29779,"lon":5.39335,"is_reserved":false,"is_disabled":false,"rental_uris":{"android":"levelo://app?vid=9502747a-4709-483d-a949-01cb2354160b","ios":"levelo://app?vid=9502747a-4709-483d-a949-01cb2354160b"},"vehicle_type_id":"4","last_reported":1752275440,"current_range_meters":9600,"station_id":"chh1huq6cuj3fo74tm60","pricing_plan_id":"cebpf4jnsgd1na2vs0mg"},{"bike_id":"4948f761-0b1f-4c54-8188-2de91ebdb20a","system_id":"levelo_inurba_marseille","lat":43.29534,"lon":5.38551,"is_reserved":false,"is_disabled":false,"rental_uris":{"android":"levelo://app?vid=4948f761-0b1f-4c54-8188-2de91ebdb20a","ios":"levelo://app?vid=4948f761-0b1f-4c54-8188-2de91ebdb20a"},"vehicle_type_id":"4","last_reported":1752275440,"current_range_meters":10000,"station_id":"ce4bgih2rcd13ifvqba0","pricing_plan_id":"cebpf4jnsgd1na2vs0mg"},{"bike_id":"442a8b44-0ac7-4433-8921-d37f0e3db167","system_id":"levelo_inurba_marseille","lat":43.30632,"lon":5.40081,"is_reserved":false,"is_disabled":false,"rental_uris":{"android":"levelo://app?vid=442a8b44-0ac7-4433-8921-d37f0e3db167","ios":"levelo://app?vid=442a8b44-0ac7-4433-8921-d37f0e3db167"},"vehicle_type_id":"4","last_reported":1752275440,"current_range_meters":10800,"station_id":"ce4bh112rcd13ifvqda0","pricing_plan_id":"cebpf4jnsgd1na2vs0mg"},{"bike_id":"b2be30fb-25de-4ba2-90f4-df7253b4a8dc","system_id":"levelo_inurba_marseille","lat":43.29547,"lon":5.38549,"is_reserved":false,"is_disabled":false,"rental_uris":{"android":"levelo://app?vid=b2be30fb-25de-4ba2-90f4-df7253b4a8dc","ios":"levelo://app?vid=b2be30fb-25de-4ba2-90f4-df7253b4a8dc"},"vehicle_type_id":"4","last_reported":1752275440,"current_range_meters":10800,"station_id":"ce4bgih2rcd13ifvqba0","pricing_plan_id":"cebpf4jnsgd1na2vs0mg"},{"bike_id":"67503004-57c8-4177-95e0-32f2c7768c5c","system_id":"levelo_inurba_marseille","lat":43.30768,"lon":5.40127,"is_reserved":false,"is_disabled":false,"rental_uris":{"android":"levelo://app?vid=67503004-57c8-4177-95e0-32f2c7768c5c","ios":"levelo://app?vid=67503004-57c8-4177-95e0-32f2c7768c5c"},"vehicle_type_id":"4","last_reported":1752275440,"current_range_meters":10800,"station_id":"","pricing_plan_id":"cebpf4jnsgd1na2vs0mg"},{"bike_id":"d849a247-c2c0-4619-bac8-f5a6994e0014","system_id":"levelo_inurba_marseille","lat":43.3203,"lon":5.41622,"is_reserved":false,"is_disabled":true,"rental_uris":{"android":"levelo://app?vid=d849a247-c2c0-4619-bac8-f5a6994e0014","ios":"levelo://app?vid=d849a247-c2c0-4619-bac8-f5a6994e0014"},"vehicle_type_id":"4","last_reported":1752275440,"current_range_meters":10800,"station_id":"","pricing_plan_id":"cebpf4jnsgd1na2vs0mg"},{"bike_id":"5838aaa0-b285-420b-962b-97fc86171cb5","system_id":"levelo_inurba_marseille","lat":43.30804,"lon":5.3816,"is_reserved":false,"is_disabled":false,"rental_uris":{"android":"levelo://app?vid=5838aaa0-b285-420b-962b-97fc86171cb5","ios":"levelo://app?vid=5838aaa0-b285-420b-962b-97fc86171cb5"},"vehicle_type_id":"4","last_reported":1752275440,"current_range_meters":10800,"station_id":"ce4bgt12rcd13ifvqce0","pricing_plan_id":"cebpf4jnsgd1na2vs0mg"},{"bike_id":"12962c22-c999-46c4-b70d-26925ea9fc72","system_id":"levelo_inurba_marseille","lat":43.29737,"lon":5.383833,"is_reserved":false,"is_disabled":false,"rental_uris":{"android":"levelo://app?vid=12962c22-c999-46c4-b70d-26925ea9fc72","ios":"levelo://app?vid=12962c22-c999-46c4-b70d-26925ea9fc72"},"vehicle_type_id":"4","last_reported":1752275440,"current_range_meters":10800,"station_id":"","pricing_plan_id":"cebpf4jnsgd1na2vs0mg"},{"bike_id":"e87ebf92-9f2a-47b1-a4d2-d4688fefaa87","system_id":"levelo_inurba_marseille","lat":43.30319,"lon":5.4045,"is_reserved":false,"is_disabled":false,"rental_uris":{"android":"levelo://app?vid=e87ebf92-9f2a-47b1-a4d2-d4688fefaa87","ios":"levelo://app?vid=e87ebf92-9f2a-47b1-a4d2-d4688fefaa87"},"vehicle_type_id":"4","last_reported":1752275440,"current_range_meters":11600,"station_id":"ce4bh012rcd13ifvqd10","pricing_plan_id":"cebpf4jnsgd1na2vs0mg"},{"bike_id":"6e44525d-ed45-445a-a877-081b94eb5813","system_id":"levelo_inurba_marseille","lat":43.303634,"lon":5.418849,"is_reserved":false,"is_disabled":true,"rental_uris":{"android":"levelo://app?vid=6e44525d-ed45-445a-a877-081b94eb5813","ios":"levelo://app?vid=6e44525d-ed45-445a-a877-081b94eb5813"},"vehicle_type_id":"4","last_reported":1752275440,"current_range_meters":11600,"station_id":"ce4bhop2rcd13ifvqh7g","pricing_plan_id":"cebpf4jnsgd1na2vs0mg"},{"bike_id":"6bb7937c-e6c5-45e2-bd92-fade593d2f3c","system_id":"levelo_inurba_marseille","lat":43.25087,"lon":5.39505,"is_reserved":false,"is_disabled":false,"rental_uris":{"android":"levelo://app?vid=6bb7937c-e6c5-45e2-bd92-fade593d2f3c","ios":"levelo://app?vid=6bb7937c-e6c5-45e2-bd92-fade593d2f3c"},"vehicle_type_id":"4","last_reported":1752275440,"current_range_meters":11600,"station_id":"ce4bhm12rcd13ifvqgkg","pricing_plan_id":"cebpf4jnsgd1na2vs0mg"},{"bike_id":"f5ecdea4-3866-4fdd-95ab-6010e16553c4","system_id":"levelo_inurba_marseille","lat":43.27548,"lon":5.38444,"is_reserved":false,"is_disabled":false,"rental_uris":{"android":"levelo://app?vid=f5ecdea4-3866-4fdd-95ab-6010e16553c4","ios":"levelo://app?vid=f5ecdea4-3866-4fdd-95ab-6010e16553c4"},"vehicle_type_id":"4","last_reported":1752275440,"current_range_meters":11600,"station_id":"ce4bhh92rcd13ifvqfi0","pricing_plan_id":"cebpf4jnsgd1na2vs0mg"},{"bike_id":"aaa4d610-bde0-4437-9f41-8b10d28ed345","system_id":"levelo_inurba_marseille","lat":43.3093,"lon":5.40146,"is_reserved":false,"is_disabled":false,"rental_uris":{"android":"levelo://app?vid=aaa4d610-bde0-4437-9f41-8b10d28ed345","ios":"levelo://app?vid=aaa4d610-bde0-4437-9f41-8b10d28ed345"},"vehicle_type_id":"4","last_reported":1752275440,"current_range_meters":11600,"station_id":"ce4bgvp2rcd13ifvqct0","pricing_plan_id":"cebpf4jnsgd1na2vs0mg"},{"bike_id":"aa8a00b9-2491-4c8f-8db3-eb96ac3f63f5","system_id":"levelo_inurba_marseille","lat":43.30926,"lon":5.40155,"is_reserved":false,"is_disabled":false,"rental_uris":{"android":"levelo://app?vid=aa8a00b9-2491-4c8f-8db3-eb96ac3f63f5","ios":"levelo://app?vid=aa8a00b9-2491-4c8f-8db3-eb96ac3f63f5"},"vehicle_type_id":"4","last_reported":1752275440,"current_range_meters":11600,"station_id":"ce4bgvp2rcd13ifvqct0","pricing_plan_id":"cebpf4jnsgd1na2vs0mg"},{"bike_id":"e43fe009-2bcb-43ae-8a1b-2633b06c91fd","system_id":"levelo_inurba_marseille","lat":43.28354,"lon":5.38112,"is_reserved":false,"is_disabled":false,"rental_uris":{"android":"levelo://app?vid=e43fe009-2bcb-43ae-8a1b-2633b06c91fd","ios":"levelo://app?vid=e43fe009-2bcb-43ae-8a1b-2633b06c91fd"},"vehicle_type_id":"4","last_reported":1752275440,"current_range_meters":11600,"station_id":"ce4bh412rcd13ifvqdr0","pricing_plan_id":"cebpf4jnsgd1na2vs0mg"},{"bike_id":"4535882f-11a2-419f-8c3f-6261df07adfe","system_id":"levelo_inurba_marseille","lat":43.28683,"lon":5.40011,"is_reserved":false,"is_disabled":false,"rental_uris":{"android":"levelo://app?vid=4535882f-11a2-419f-8c3f-6261df07adfe","ios":"levelo://app?vid=4535882f-11a2-419f-8c3f-6261df07adfe"},"vehicle_type_id":"4","last_reported":1752275440,"current_range_meters":11600,"station_id":"ce4bho92rcd13ifvqh3g","pricing_plan_id":"cebpf4jnsgd1na2vs0mg"},{"bike_id":"7392143f-a48d-4d17-918a-2d49b0cf2786","system_id":"levelo_inurba_marseille","lat":43.31685,"lon":5.40493,"is_reserved":false,"is_disabled":true,"rental_uris":{"android":"levelo://app?vid=7392143f-a48d-4d17-918a-2d49b0cf2786","ios":"levelo://app?vid=7392143f-a48d-4d17-918a-2d49b0cf2786"},"vehicle_type_id":"4","last_reported":1752275440,"current_range_meters":11600,"station_id":"ce4bh012rcd13ifvqd00","pricing_plan_id":"cebpf4jnsgd1na2vs0mg"},{"bike_id":"5076ad93-b7e2-4902-b566-655c2183f3e6","system_id":"levelo_inurba_marseille","lat":43.27948,"lon":5.38694,"is_reserved":false,"is_disabled":true,"rental_uris":{"android":"levelo://app?vid=5076ad93-b7e2-4902-b566-655c2183f3e6","ios":"levelo://app?vid=5076ad93-b7e2-4902-b566-655c2183f3e6"},"vehicle_type_id":"4","last_reported":1752275440,"current_range_meters":12000,"station_id":"ce4bhg12rcd13ifvqf80","pricing_plan_id":"cebpf4jnsgd1na2vs0mg"},{"bike_id":"a259e39e-0666-4dee-aa02-5b472bfbb7b0","system_id":"levelo_inurba_marseille","lat":43.30126,"lon":5.39874,"is_reserved":false,"is_disabled":false,"rental_uris":{"android":"levelo://app?vid=a259e39e-0666-4dee-aa02-5b472bfbb7b0","ios":"levelo://app?vid=a259e39e-0666-4dee-aa02-5b472bfbb7b0"},"vehicle_type_id":"4","last_reported":1752275440,"current_range_meters":12000,"station_id":"ce4bh0h2rcd13ifvqd40","pricing_plan_id":"cebpf4jnsgd1na2vs0mg"},{"bike_id":"5c2809a2-3414-401d-9249-a03a3687bce0","system_id":"levelo_inurba_marseille","lat":43.31903,"lon":5.40734,"is_reserved":false,"is_disabled":false,"rental_uris":{"android":"levelo://app?vid=5c2809a2-3414-401d-9249-a03a3687bce0","ios":"levelo://app?vid=5c2809a2-3414-401d-9249-a03a3687bce0"},"vehicle_type_id":"4","last_reported":1752275440,"current_range_meters":12000,"station_id":"ce4bhq12rcd13ifvqhig","pricing_plan_id":"cebpf4jnsgd1na2vs0mg"},{"bike_id":"6145e0d4-1b01-4570-bfd0-4fe34ecb56a5","system_id":"levelo_inurba_marseille","lat":43.2842,"lon":5.39202,"is_reserved":false,"is_disabled":false,"rental_uris":{"android":"levelo://app?vid=6145e0d4-1b01-4570-bfd0-4fe34ecb56a5","ios":"levelo://app?vid=6145e0d4-1b01-4570-bfd0-4fe34ecb56a5"},"vehicle_type_id":"4","last_reported":1752275440,"current_range_meters":12000,"station_id":"ce4bhoh2rcd13ifvqh5g","pricing_plan_id":"cebpf4jnsgd1na2vs0mg"},{"bike_id":"3fcc3e36-c264-47d8-a383-75ed95b0256e","system_id":"levelo_inurba_marseille","lat":43.29905,"lon":5.38905,"is_reserved":false,"is_disabled":false,"rental_uris":{"android":"levelo://app?vid=3fcc3e36-c264-47d8-a383-75ed95b0256e","ios":"levelo://app?vid=3fcc3e36-c264-47d8-a383-75ed95b0256e"},"vehicle_type_id":"4","last_reported":1752275440,"current_range_meters":12000,"station_id":"ce4bh392rcd13ifvqdl0","pricing_plan_id":"cebpf4jnsgd1na2vs0mg"},{"bike_id":"63c89cef-cfdf-4de8-b86e-bf96b6782371","system_id":"levelo_inurba_marseille","lat":43.29586,"lon":5.38131,"is_reserved":false,"is_disabled":false,"rental_uris":{"android":"levelo://app?vid=63c89cef-cfdf-4de8-b86e-bf96b6782371","ios":"levelo://app?vid=63c89cef-cfdf-4de8-b86e-bf96b6782371"},"vehicle_type_id":"4","last_reported":1752275440,"current_range_meters":12000,"station_id":"ce4bgl12rcd13ifvqbo0","pricing_plan_id":"cebpf4jnsgd1na2vs0mg"},{"bike_id":"6135e0b5-ca26-482d-b669-c42225ef8f73","system_id":"levelo_inurba_marseille","lat":43.337444,"lon":5.374475,"is_reserved":false,"is_disabled":false,"rental_uris":{"android":"levelo://app?vid=6135e0b5-ca26-482d-b669-c42225ef8f73","ios":"levelo://app?vid=6135e0b5-ca26-482d-b669-c42225ef8f73"},"vehicle_type_id":"4","last_reported":1752275440,"current_range_meters":12400,"station_id":"","pricing_plan_id":"cebpf4jnsgd1na2vs0mg"},{"bike_id":"fd9f5c27-5d58-42e5-badc-a12a0344229e","system_id":"levelo_inurba_marseille","lat":43.28918,"lon":5.36069,"is_reserved":false,"is_disabled":false,"rental_uris":{"android":"levelo://app?vid=fd9f5c27-5d58-42e5-badc-a12a0344229e","ios":"levelo://app?vid=fd9f5c27-5d58-42e5-badc-a12a0344229e"},"vehicle_type_id":"4","last_reported":1752275440,"current_range_meters":12400,"station_id":"","pricing_plan_id":"cebpf4jnsgd1na2vs0mg"},{"bike_id":"2c2e0114-814b-4f1a-8c57-c033c2e0286b","system_id":"levelo_inurba_marseille","lat":43.30633,"lon":5.40101,"is_reserved":false,"is_disabled":false,"rental_uris":{"android":"levelo://app?vid=2c2e0114-814b-4f1a-8c57-c033c2e0286b","ios":"levelo://app?vid=2c2e0114-814b-4f1a-8c57-c033c2e0286b"},"vehicle_type_id":"4","last_reported":1752275440,"current_range_meters":12400,"station_id":"ce4bh112rcd13ifvqda0","pricing_plan_id":"cebpf4jnsgd1na2vs0mg"},{"bike_id":"5f27cee9-4808-4986-92e5-73f9f0fefbc8","system_id":"levelo_inurba_marseille","lat":43.24819,"lon":5.374499,"is_reserved":false,"is_disabled":false,"rental_uris":{"android":"levelo://app?vid=5f27cee9-4808-4986-92e5-73f9f0fefbc8","ios":"levelo://app?vid=5f27cee9-4808-4986-92e5-73f9f0fefbc8"},"vehicle_type_id":"4","last_reported":1752275440,"current_range_meters":12400,"station_id":"ce4bhgh2rcd13ifvqfb0","pricing_plan_id":"cebpf4jnsgd1na2vs0mg"},{"bike_id":"4d4b9e28-a4f6-4d45-ac6b-64a63a768bd8","system_id":"levelo_inurba_marseille","lat":43.31534,"lon":5.37373,"is_reserved":false,"is_disabled":false,"rental_uris":{"android":"levelo://app?vid=4d4b9e28-a4f6-4d45-ac6b-64a63a768bd8","ios":"levelo://app?vid=4d4b9e28-a4f6-4d45-ac6b-64a63a768bd8"},"vehicle_type_id":"4","last_reported":1752275440,"current_range_meters":12400,"station_id":"","pricing_plan_id":"cebpf4jnsgd1na2vs0mg"},{"bike_id":"595e9351-a7ce-45de-8995-771f7d9fe86e","system_id":"levelo_inurba_marseille","lat":43.309243,"lon":5.378088,"is_reserved":false,"is_disabled":false,"rental_uris":{"android":"levelo://app?vid=595e9351-a7ce-45de-8995-771f7d9fe86e","ios":"levelo://app?vid=595e9351-a7ce-45de-8995-771f7d9fe86e"},"vehicle_type_id":"4","last_reported":1752275440,"current_range_meters":12400,"station_id":"","pricing_plan_id":"cebpf4jnsgd1na2vs0mg"},{"bike_id":"a42726f6-93bc-4fde-bebc-63164bd43639","system_id":"levelo_inurba_marseille","lat":43.25718,"lon":5.41114,"is_reserved":false,"is_disabled":false,"rental_uris":{"android":"levelo://app?vid=a42726f6-93bc-4fde-bebc-63164bd43639","ios":"levelo://app?vid=a42726f6-93bc-4fde-bebc-63164bd43639"},"vehicle_type_id":"4","last_reported":1752275440,"current_range_meters":12400,"station_id":"ce4bhkp2rcd13ifvqgd0","pricing_plan_id":"cebpf4jnsgd1na2vs0mg"},{"bike_id":"550d4654-d838-4a5c-bf54-889593faffd9","system_id":"levelo_inurba_marseille","lat":43.32,"lon":5.38143,"is_reserved":false,"is_disabled":false,"rental_uris":{"android":"levelo://app?vid=550d4654-d838-4a5c-bf54-889593faffd9","ios":"levelo://app?vid=550d4654-d838-4a5c-bf54-889593faffd9"},"vehicle_type_id":"4","last_reported":1752275440,"current_range_meters":12400,"station_id":"ce4bhr12rcd13ifvqhpg","pricing_plan_id":"cebpf4jnsgd1na2vs0mg"},{"bike_id":"e3a75ee9-c614-467b-8cc2-f813bcef2ab1","system_id":"levelo_inurba_marseille","lat":43.33743,"lon":5.3919,"is_reserved":false,"is_disabled":false,"rental_uris":{"android":"levelo://app?vid=e3a75ee9-c614-467b-8cc2-f813bcef2ab1","ios":"levelo://app?vid=e3a75ee9-c614-467b-8cc2-f813bcef2ab1"},"vehicle_type_id":"4","last_reported":1752275440,"current_range_meters":12400,"station_id":"ce4bhr92rcd13ifvqhsg","pricing_plan_id":"cebpf4jnsgd1na2vs0mg"},{"bike_id":"b921d7cf-5746-4745-b7bf-2ce90a67a3e6","system_id":"levelo_inurba_marseille","lat":43.2928,"lon":5.38399,"is_reserved":false,"is_disabled":false,"rental_uris":{"android":"levelo://app?vid=b921d7cf-5746-4745-b7bf-2ce90a67a3e6","ios":"levelo://app?vid=b921d7cf-5746-4745-b7bf-2ce90a67a3e6"},"vehicle_type_id":"4","last_reported":1752275440,"current_range_meters":12800,"station_id":"ce4bh692rcd13ifvqea0","pricing_plan_id":"cebpf4jnsgd1na2vs0mg"},{"bike_id":"647a1903-1834-4730-b34e-6397917620f0","system_id":"levelo_inurba_marseille","lat":43.31677,"lon":5.37024,"is_reserved":false,"is_disabled":false,"rental_uris":{"android":"levelo://app?vid=647a1903-1834-4730-b34e-6397917620f0","ios":"levelo://app?vid=647a1903-1834-4730-b34e-6397917620f0"},"vehicle_type_id":"4","last_reported":1752275440,"current_range_meters":12800,"station_id":"","pricing_plan_id":"cebpf4jnsgd1na2vs0mg"},{"bike_id":"eda0ea69-6404-43e6-9ede-2655d170d444","system_id":"levelo_inurba_marseille","lat":43.28842,"lon":5.35839,"is_reserved":false,"is_disabled":true,"rental_uris":{"android":"levelo://app?vid=eda0ea69-6404-43e6-9ede-2655d170d444","ios":"levelo://app?vid=eda0ea69-6404-43e6-9ede-2655d170d444"},"vehicle_type_id":"4","last_reported":1752275440,"current_range_meters":12800,"station_id":"ce4bhb12rcd13ifvqem0","pricing_plan_id":"cebpf4jnsgd1na2vs0mg"},{"bike_id":"3c7d6f97-b956-498b-93e3-f281b1e0a6e2","system_id":"levelo_inurba_marseille","lat":43.292601,"lon":5.384433,"is_reserved":false,"is_disabled":false,"rental_uris":{"android":"levelo://app?vid=3c7d6f97-b956-498b-93e3-f281b1e0a6e2","ios":"levelo://app?vid=3c7d6f97-b956-498b-93e3-f281b1e0a6e2"},"vehicle_type_id":"4","last_reported":1752275440,"current_range_meters":13600,"station_id":"ce4bh692rcd13ifvqea0","pricing_plan_id":"cebpf4jnsgd1na2vs0mg"},{"bike_id":"e8e03632-b9d1-480f-a4da-da482a543464","system_id":"levelo_inurba_marseille","lat":43.29037,"lon":5.3756,"is_reserved":false,"is_disabled":true,"rental_uris":{"android":"levelo://app?vid=e8e03632-b9d1-480f-a4da-da482a543464","ios":"levelo://app?vid=e8e03632-b9d1-480f-a4da-da482a543464"},"vehicle_type_id":"4","last_reported":1752275440,"current_range_meters":13600,"station_id":"ce4bh692rcd13ifvqe90","pricing_plan_id":"cebpf4jnsgd1na2vs0mg"},{"bike_id":"530fdaa0-3dcf-48bd-ae6d-18f67ca1c283","system_id":"levelo_inurba_marseille","lat":43.297111,"lon":5.366155,"is_reserved":false,"is_disabled":false,"rental_uris":{"android":"levelo://app?vid=530fdaa0-3dcf-48bd-ae6d-18f67ca1c283","ios":"levelo://app?vid=530fdaa0-3dcf-48bd-ae6d-18f67ca1c283"},"vehicle_type_id":"4","last_reported":1752275440,"current_range_meters":13600,"station_id":"","pricing_plan_id":"cebpf4jnsgd1na2vs0mg"},{"bike_id":"ac9edd8f-2e4f-4c31-8f3c-3c983251ba1e","system_id":"levelo_inurba_marseille","lat":43.29021,"lon":5.38652,"is_reserved":false,"is_disabled":false,"rental_uris":{"android":"levelo://app?vid=ac9edd8f-2e4f-4c31-8f3c-3c983251ba1e","ios":"levelo://app?vid=ac9edd8f-2e4f-4c31-8f3c-3c983251ba1e"},"vehicle_type_id":"4","last_reported":1752275440,"current_range_meters":13600,"station_id":"ce4bh4p2rcd13ifvqe0g","pricing_plan_id":"cebpf4jnsgd1na2vs0mg"},{"bike_id":"85758837-e8e8-429b-9b62-411361adebf1","system_id":"levelo_inurba_marseille","lat":43.317581,"lon":5.390165,"is_reserved":false,"is_disabled":true,"rental_uris":{"android":"levelo://app?vid=85758837-e8e8-429b-9b62-411361adebf1","ios":"levelo://app?vid=85758837-e8e8-429b-9b62-411361adebf1"},"vehicle_type_id":"4","last_reported":1752275440,"current_range_meters":13600,"station_id":"ce4bhqp2rcd13ifvqhng","pricing_plan_id":"cebpf4jnsgd1na2vs0mg"},{"bike_id":"dafa5a87-b26d-4379-9a6b-1f02133b78a6","system_id":"levelo_inurba_marseille","lat":43.211934,"lon":5.35073,"is_reserved":false,"is_disabled":false,"rental_uris":{"android":"levelo://app?vid=dafa5a87-b26d-4379-9a6b-1f02133b78a6","ios":"levelo://app?vid=dafa5a87-b26d-4379-9a6b-1f02133b78a6"},"vehicle_type_id":"4","last_reported":1752275440,"current_range_meters":13600,"station_id":"","pricing_plan_id":"cebpf4jnsgd1na2vs0mg"},{"bike_id":"7b5cd6ce-df57-4328-854d-cb2d1407ab18","system_id":"levelo_inurba_marseille","lat":43.33017,"lon":5.39047,"is_reserved":false,"is_disabled":false,"rental_uris":{"android":"levelo://app?vid=7b5cd6ce-df57-4328-854d-cb2d1407ab18","ios":"levelo://app?vid=7b5cd6ce-df57-4328-854d-cb2d1407ab18"},"vehicle_type_id":"4","last_reported":1752275440,"current_range_meters":13600,"station_id":"ce4bhr92rcd13ifvqhrg","pricing_plan_id":"cebpf4jnsgd1na2vs0mg"},{"bike_id":"ceb8bcf8-9e11-4102-bd78-9a687c0c96d2","system_id":"levelo_inurba_marseille","lat":43.28909,"lon":5.38413,"is_reserved":false,"is_disabled":true,"rental_uris":{"android":"levelo://app?vid=ceb8bcf8-9e11-4102-bd78-9a687c0c96d2","ios":"levelo://app?vid=ceb8bcf8-9e11-4102-bd78-9a687c0c96d2"},"vehicle_type_id":"4","last_reported":1752275440,"current_range_meters":14000,"station_id":"ce4bh612rcd13ifvqe6g","pricing_plan_id":"cebpf4jnsgd1na2vs0mg"},{"bike_id":"8929c1bf-fd4d-44e4-aa66-b3eb6538c998","system_id":"levelo_inurba_marseille","lat":43.28544,"lon":5.42964,"is_reserved":false,"is_disabled":false,"rental_uris":{"android":"levelo://app?vid=8929c1bf-fd4d-44e4-aa66-b3eb6538c998","ios":"levelo://app?vid=8929c1bf-fd4d-44e4-aa66-b3eb6538c998"},"vehicle_type_id":"4","last_reported":1752275440,"current_range_meters":14000,"station_id":"","pricing_plan_id":"cebpf4jnsgd1na2vs0mg"},{"bike_id":"59a2e80d-c8bf-4a6b-861f-210b18141119","system_id":"levelo_inurba_marseille","lat":43.29026,"lon":5.38652,"is_reserved":false,"is_disabled":false,"rental_uris":{"android":"levelo://app?vid=59a2e80d-c8bf-4a6b-861f-210b18141119","ios":"levelo://app?vid=59a2e80d-c8bf-4a6b-861f-210b18141119"},"vehicle_type_id":"4","last_reported":1752275440,"current_range_meters":14000,"station_id":"ce4bh4p2rcd13ifvqe0g","pricing_plan_id":"cebpf4jnsgd1na2vs0mg"},{"bike_id":"97d4bafb-1703-482a-9af9-9c0328bf232e","system_id":"levelo_inurba_marseille","lat":43.29551,"lon":5.37499,"is_reserved":false,"is_disabled":true,"rental_uris":{"android":"levelo://app?vid=97d4bafb-1703-482a-9af9-9c0328bf232e","ios":"levelo://app?vid=97d4bafb-1703-482a-9af9-9c0328bf232e"},"vehicle_type_id":"4","last_reported":1752275440,"current_range_meters":14000,"station_id":"ce4bgkp2rcd13ifvqbmg","pricing_plan_id":"cebpf4jnsgd1na2vs0mg"},{"bike_id":"abb0acc4-71df-4998-bb59-1e7e60195447","system_id":"levelo_inurba_marseille","lat":43.29423,"lon":5.38612,"is_reserved":false,"is_disabled":true,"rental_uris":{"android":"levelo://app?vid=abb0acc4-71df-4998-bb59-1e7e60195447","ios":"levelo://app?vid=abb0acc4-71df-4998-bb59-1e7e60195447"},"vehicle_type_id":"4","last_reported":1752275440,"current_range_meters":14000,"station_id":"ce4bh2h2rcd13ifvqdh0","pricing_plan_id":"cebpf4jnsgd1na2vs0mg"},{"bike_id":"5c09517d-9b0e-404d-8685-192cc354edb9","system_id":"levelo_inurba_marseille","lat":43.310913,"lon":5.383806,"is_reserved":false,"is_disabled":false,"rental_uris":{"android":"levelo://app?vid=5c09517d-9b0e-404d-8685-192cc354edb9","ios":"levelo://app?vid=5c09517d-9b0e-404d-8685-192cc354edb9"},"vehicle_type_id":"4","last_reported":1752275440,"current_range_meters":14000,"station_id":"ce4bgv92rcd13ifvqcr0","pricing_plan_id":"cebpf4jnsgd1na2vs0mg"},{"bike_id":"e51da3c1-8ab5-47c5-abee-45829a7c0aac","system_id":"levelo_inurba_marseille","lat":43.27317,"lon":5.39155,"is_reserved":false,"is_disabled":true,"rental_uris":{"android":"levelo://app?vid=e51da3c1-8ab5-47c5-abee-45829a7c0aac","ios":"levelo://app?vid=e51da3c1-8ab5-47c5-abee-45829a7c0aac"},"vehicle_type_id":"4","last_reported":1752275440,"current_range_meters":14400,"station_id":"ce4bhgp2rcd13ifvqfe0","pricing_plan_id":"cebpf4jnsgd1na2vs0mg"},{"bike_id":"2b68f530-4ac0-4e4d-bb34-a66c2cd0cfd5","system_id":"levelo_inurba_marseille","lat":43.30283,"lon":5.39222,"is_reserved":false,"is_disabled":false,"rental_uris":{"android":"levelo://app?vid=2b68f530-4ac0-4e4d-bb34-a66c2cd0cfd5","ios":"levelo://app?vid=2b68f530-4ac0-4e4d-bb34-a66c2cd0cfd5"},"vehicle_type_id":"4","last_reported":1752275440,"current_range_meters":14000,"station_id":"ce4bgkh2rcd13ifvqbk0","pricing_plan_id":"cebpf4jnsgd1na2vs0mg"},{"bike_id":"f4416027-e963-4c80-b245-a13d63ab71b8","system_id":"levelo_inurba_marseille","lat":43.30231,"lon":5.40063,"is_reserved":false,"is_disabled":false,"rental_uris":{"android":"levelo://app?vid=f4416027-e963-4c80-b245-a13d63ab71b8","ios":"levelo://app?vid=f4416027-e963-4c80-b245-a13d63ab71b8"},"vehicle_type_id":"4","last_reported":1752275440,"current_range_meters":14400,"station_id":"ce4bgvh2rcd13ifvqcs0","pricing_plan_id":"cebpf4jnsgd1na2vs0mg"},{"bike_id":"11cbd5f1-516a-47e2-9316-1d8ca3438941","system_id":"levelo_inurba_marseille","lat":43.33025,"lon":5.39049,"is_reserved":false,"is_disabled":false,"rental_uris":{"android":"levelo://app?vid=11cbd5f1-516a-47e2-9316-1d8ca3438941","ios":"levelo://app?vid=11cbd5f1-516a-47e2-9316-1d8ca3438941"},"vehicle_type_id":"4","last_reported":1752275440,"current_range_meters":14400,"station_id":"ce4bhr92rcd13ifvqhrg","pricing_plan_id":"cebpf4jnsgd1na2vs0mg"},{"bike_id":"5450dbb4-0370-4dbd-b252-f9d92e555975","system_id":"levelo_inurba_marseille","lat":43.29507,"lon":5.38537,"is_reserved":false,"is_disabled":false,"rental_uris":{"android":"levelo://app?vid=5450dbb4-0370-4dbd-b252-f9d92e555975","ios":"levelo://app?vid=5450dbb4-0370-4dbd-b252-f9d92e555975"},"vehicle_type_id":"4","last_reported":1752275440,"current_range_meters":14400,"station_id":"ce4bgih2rcd13ifvqba0","pricing_plan_id":"cebpf4jnsgd1na2vs0mg"},{"bike_id":"8657e183-a2d4-445a-b4c5-a5efedfccbd5","system_id":"levelo_inurba_marseille","lat":43.31498,"lon":5.37308,"is_reserved":false,"is_disabled":false,"rental_uris":{"android":"levelo://app?vid=8657e183-a2d4-445a-b4c5-a5efedfccbd5","ios":"levelo://app?vid=8657e183-a2d4-445a-b4c5-a5efedfccbd5"},"vehicle_type_id":"4","last_reported":1752275440,"current_range_meters":14800,"station_id":"ce4bgt12rcd13ifvqcd0","pricing_plan_id":"cebpf4jnsgd1na2vs0mg"},{"bike_id":"a875c16e-0a0c-4796-a449-bd37069161bd","system_id":"levelo_inurba_marseille","lat":43.262313,"lon":5.375225,"is_reserved":false,"is_disabled":false,"rental_uris":{"android":"levelo://app?vid=a875c16e-0a0c-4796-a449-bd37069161bd","ios":"levelo://app?vid=a875c16e-0a0c-4796-a449-bd37069161bd"},"vehicle_type_id":"4","last_reported":1752275440,"current_range_meters":14800,"station_id":"ce4bhgh2rcd13ifvqfb0","pricing_plan_id":"cebpf4jnsgd1na2vs0mg"},{"bike_id":"e9fd0cf8-573b-4177-88a6-f1faf33e8aca","system_id":"levelo_inurba_marseille","lat":43.28996,"lon":5.35613,"is_reserved":false,"is_disabled":true,"rental_uris":{"android":"levelo://app?vid=e9fd0cf8-573b-4177-88a6-f1faf33e8aca","ios":"levelo://app?vid=e9fd0cf8-573b-4177-88a6-f1faf33e8aca"},"vehicle_type_id":"4","last_reported":1752275440,"current_range_meters":14800,"station_id":"ce4bhb92rcd13ifvqen0","pricing_plan_id":"cebpf4jnsgd1na2vs0mg"},{"bike_id":"43b90c82-97e0-4fa7-8b67-2448f07d529e","system_id":"levelo_inurba_marseille","lat":43.211916,"lon":5.350666,"is_reserved":false,"is_disabled":false,"rental_uris":{"android":"levelo://app?vid=43b90c82-97e0-4fa7-8b67-2448f07d529e","ios":"levelo://app?vid=43b90c82-97e0-4fa7-8b67-2448f07d529e"},"vehicle_type_id":"4","last_reported":1752275440,"current_range_meters":14800,"station_id":"","pricing_plan_id":"cebpf4jnsgd1na2vs0mg"},{"bike_id":"cb30c985-f90a-4db9-81ce-e904612c6c07","system_id":"levelo_inurba_marseille","lat":43.25569,"lon":5.38248,"is_reserved":false,"is_disabled":false,"rental_uris":{"android":"levelo://app?vid=cb30c985-f90a-4db9-81ce-e904612c6c07","ios":"levelo://app?vid=cb30c985-f90a-4db9-81ce-e904612c6c07"},"vehicle_type_id":"4","last_reported":1752275440,"current_range_meters":14800,"station_id":"ce4bhih2rcd13ifvqfs0","pricing_plan_id":"cebpf4jnsgd1na2vs0mg"},{"bike_id":"37b84a38-055a-4a6e-a56a-8ff3d0c1b2ec","system_id":"levelo_inurba_marseille","lat":43.21195,"lon":5.35077,"is_reserved":false,"is_disabled":false,"rental_uris":{"android":"levelo://app?vid=37b84a38-055a-4a6e-a56a-8ff3d0c1b2ec","ios":"levelo://app?vid=37b84a38-055a-4a6e-a56a-8ff3d0c1b2ec"},"vehicle_type_id":"4","last_reported":1752275440,"current_range_meters":14800,"station_id":"st_cvj6sg6p6f1abm77japg","pricing_plan_id":"cebpf4jnsgd1na2vs0mg"},{"bike_id":"dbba3321-20c7-4989-a7b5-ea9ab2c4b3e8","system_id":"levelo_inurba_marseille","lat":43.261935,"lon":5.374477,"is_reserved":false,"is_disabled":false,"rental_uris":{"android":"levelo://app?vid=dbba3321-20c7-4989-a7b5-ea9ab2c4b3e8","ios":"levelo://app?vid=dbba3321-20c7-4989-a7b5-ea9ab2c4b3e8"},"vehicle_type_id":"4","last_reported":1752275440,"current_range_meters":14800,"station_id":"ce4bhgp2rcd13ifvqfc0","pricing_plan_id":"cebpf4jnsgd1na2vs0mg"},{"bike_id":"7d4e73db-071f-473e-86d9-50fa1d48b328","system_id":"levelo_inurba_marseille","lat":43.28583,"lon":5.37078,"is_reserved":false,"is_disabled":false,"rental_uris":{"android":"levelo://app?vid=7d4e73db-071f-473e-86d9-50fa1d48b328","ios":"levelo://app?vid=7d4e73db-071f-473e-86d9-50fa1d48b328"},"vehicle_type_id":"4","last_reported":1752275440,"current_range_meters":14800,"station_id":"ce4bht12rcd13ifvqi60","pricing_plan_id":"cebpf4jnsgd1na2vs0mg"},{"bike_id":"8fccf46e-4269-459a-bd9a-cdd93f6b32bc","system_id":"levelo_inurba_marseille","lat":43.30349,"lon":5.41907,"is_reserved":false,"is_disabled":true,"rental_uris":{"android":"levelo://app?vid=8fccf46e-4269-459a-bd9a-cdd93f6b32bc","ios":"levelo://app?vid=8fccf46e-4269-459a-bd9a-cdd93f6b32bc"},"vehicle_type_id":"4","last_reported":1752275440,"current_range_meters":15200,"station_id":"ce4bhop2rcd13ifvqh7g","pricing_plan_id":"cebpf4jnsgd1na2vs0mg"},{"bike_id":"5cd74eda-833d-42c9-9173-69f518999a0c","system_id":"levelo_inurba_marseille","lat":43.34151,"lon":5.40908,"is_reserved":false,"is_disabled":false,"rental_uris":{"android":"levelo://app?vid=5cd74eda-833d-42c9-9173-69f518999a0c","ios":"levelo://app?vid=5cd74eda-833d-42c9-9173-69f518999a0c"},"vehicle_type_id":"4","last_reported":1752275440,"current_range_meters":15200,"station_id":"ce4bhqh2rcd13ifvqhlg","pricing_plan_id":"cebpf4jnsgd1na2vs0mg"},{"bike_id":"f7bc9f1f-038a-4a43-a7ae-88777aeae45f","system_id":"levelo_inurba_marseille","lat":43.26214,"lon":5.37444,"is_reserved":false,"is_disabled":false,"rental_uris":{"android":"levelo://app?vid=f7bc9f1f-038a-4a43-a7ae-88777aeae45f","ios":"levelo://app?vid=f7bc9f1f-038a-4a43-a7ae-88777aeae45f"},"vehicle_type_id":"4","last_reported":1752275440,"current_range_meters":15200,"station_id":"ce4bhgp2rcd13ifvqfc0","pricing_plan_id":"cebpf4jnsgd1na2vs0mg"},{"bike_id":"ee54ebe7-4708-4148-ab4e-1b0d66ad3458","system_id":"levelo_inurba_marseille","lat":43.30799,"lon":5.3817,"is_reserved":false,"is_disabled":false,"rental_uris":{"android":"levelo://app?vid=ee54ebe7-4708-4148-ab4e-1b0d66ad3458","ios":"levelo://app?vid=ee54ebe7-4708-4148-ab4e-1b0d66ad3458"},"vehicle_type_id":"4","last_reported":1752275440,"current_range_meters":15200,"station_id":"ce4bgt12rcd13ifvqce0","pricing_plan_id":"cebpf4jnsgd1na2vs0mg"},{"bike_id":"42137503-30c9-434d-8694-4567f27250bb","system_id":"levelo_inurba_marseille","lat":43.29526,"lon":5.3852,"is_reserved":false,"is_disabled":false,"rental_uris":{"android":"levelo://app?vid=42137503-30c9-434d-8694-4567f27250bb","ios":"levelo://app?vid=42137503-30c9-434d-8694-4567f27250bb"},"vehicle_type_id":"4","last_reported":1752275440,"current_range_meters":16000,"station_id":"ce4bgih2rcd13ifvqba0","pricing_plan_id":"cebpf4jnsgd1na2vs0mg"},{"bike_id":"c9d9c09c-ad83-4661-960e-08696e251bd5","system_id":"levelo_inurba_marseille","lat":43.28941,"lon":5.38395,"is_reserved":false,"is_disabled":false,"rental_uris":{"android":"levelo://app?vid=c9d9c09c-ad83-4661-960e-08696e251bd5","ios":"levelo://app?vid=c9d9c09c-ad83-4661-960e-08696e251bd5"},"vehicle_type_id":"4","last_reported":1752275440,"current_range_meters":16000,"station_id":"ce4bh612rcd13ifvqe6g","pricing_plan_id":"cebpf4jnsgd1na2vs0mg"},{"bike_id":"cc831676-1cfe-4bca-bbe1-ffff1de43738","system_id":"levelo_inurba_marseille","lat":43.29269,"lon":5.38442,"is_reserved":false,"is_disabled":false,"rental_uris":{"android":"levelo://app?vid=cc831676-1cfe-4bca-bbe1-ffff1de43738","ios":"levelo://app?vid=cc831676-1cfe-4bca-bbe1-ffff1de43738"},"vehicle_type_id":"4","last_reported":1752275440,"current_range_meters":16000,"station_id":"ce4bh692rcd13ifvqea0","pricing_plan_id":"cebpf4jnsgd1na2vs0mg"},{"bike_id":"61198919-e72c-4fce-bc96-126627987dc0","system_id":"levelo_inurba_marseille","lat":43.2958,"lon":5.37882,"is_reserved":false,"is_disabled":false,"rental_uris":{"android":"levelo://app?vid=61198919-e72c-4fce-bc96-126627987dc0","ios":"levelo://app?vid=61198919-e72c-4fce-bc96-126627987dc0"},"vehicle_type_id":"4","last_reported":1752275440,"current_range_meters":16000,"station_id":"","pricing_plan_id":"cebpf4jnsgd1na2vs0mg"},{"bike_id":"7f064164-3173-43bd-aad9-1c0cd37d4c96","system_id":"levelo_inurba_marseille","lat":43.29284,"lon":5.40119,"is_reserved":false,"is_disabled":false,"rental_uris":{"android":"levelo://app?vid=7f064164-3173-43bd-aad9-1c0cd37d4c96","ios":"levelo://app?vid=7f064164-3173-43bd-aad9-1c0cd37d4c96"},"vehicle_type_id":"4","last_reported":1752275440,"current_range_meters":16000,"station_id":"ce4bh312rcd13ifvqdk0","pricing_plan_id":"cebpf4jnsgd1na2vs0mg"},{"bike_id":"eb6a2290-40e2-4780-bdeb-a149c699215d","system_id":"levelo_inurba_marseille","lat":43.27964,"lon":5.41042,"is_reserved":false,"is_disabled":false,"rental_uris":{"android":"levelo://app?vid=eb6a2290-40e2-4780-bdeb-a149c699215d","ios":"levelo://app?vid=eb6a2290-40e2-4780-bdeb-a149c699215d"},"vehicle_type_id":"4","last_reported":1752275440,"current_range_meters":16000,"station_id":"ce4bhnp2rcd13ifvqh0g","pricing_plan_id":"cebpf4jnsgd1na2vs0mg"},{"bike_id":"452e8211-4f44-45d0-814a-3e9e25b8c44e","system_id":"levelo_inurba_marseille","lat":43.21182,"lon":5.35075,"is_reserved":false,"is_disabled":false,"rental_uris":{"android":"levelo://app?vid=452e8211-4f44-45d0-814a-3e9e25b8c44e","ios":"levelo://app?vid=452e8211-4f44-45d0-814a-3e9e25b8c44e"},"vehicle_type_id":"4","last_reported":1752275440,"current_range_meters":16000,"station_id":"st_cvj6sg6p6f1abm77japg","pricing_plan_id":"cebpf4jnsgd1na2vs0mg"},{"bike_id":"e86ba8c9-208d-482c-a826-4c100938472a","system_id":"levelo_inurba_marseille","lat":43.2119,"lon":5.35079,"is_reserved":false,"is_disabled":false,"rental_uris":{"android":"levelo://app?vid=e86ba8c9-208d-482c-a826-4c100938472a","ios":"levelo://app?vid=e86ba8c9-208d-482c-a826-4c100938472a"},"vehicle_type_id":"4","last_reported":1752275440,"current_range_meters":16000,"station_id":"st_cvj6sg6p6f1abm77japg","pricing_plan_id":"cebpf4jnsgd1na2vs0mg"},{"bike_id":"c453155a-5220-48fc-922b-600ca54f8ab5","system_id":"levelo_inurba_marseille","lat":43.28653,"lon":5.36366,"is_reserved":false,"is_disabled":true,"rental_uris":{"android":"levelo://app?vid=c453155a-5220-48fc-922b-600ca54f8ab5","ios":"levelo://app?vid=c453155a-5220-48fc-922b-600ca54f8ab5"},"vehicle_type_id":"4","last_reported":1752275440,"current_range_meters":16000,"station_id":"ce4bhah2rcd13ifvqej0","pricing_plan_id":"cebpf4jnsgd1na2vs0mg"},{"bike_id":"f9e52ad0-cb8a-482f-adce-b9ec21a78d41","system_id":"levelo_inurba_marseille","lat":43.29031,"lon":5.38656,"is_reserved":false,"is_disabled":false,"rental_uris":{"android":"levelo://app?vid=f9e52ad0-cb8a-482f-adce-b9ec21a78d41","ios":"levelo://app?vid=f9e52ad0-cb8a-482f-adce-b9ec21a78d41"},"vehicle_type_id":"4","last_reported":1752275440,"current_range_meters":16400,"station_id":"ce4bh4p2rcd13ifvqe0g","pricing_plan_id":"cebpf4jnsgd1na2vs0mg"},{"bike_id":"ed019ecd-f4ca-470f-953e-821f34892065","system_id":"levelo_inurba_marseille","lat":43.30571,"lon":5.3672,"is_reserved":false,"is_disabled":true,"rental_uris":{"android":"levelo://app?vid=ed019ecd-f4ca-470f-953e-821f34892065","ios":"levelo://app?vid=ed019ecd-f4ca-470f-953e-821f34892065"},"vehicle_type_id":"4","last_reported":1752275440,"current_range_meters":16400,"station_id":"ce4bgrp2rcd13ifvqc9g","pricing_plan_id":"cebpf4jnsgd1na2vs0mg"},{"bike_id":"9a8048d4-46f2-4ef7-aa23-5310e4dbfdd4","system_id":"levelo_inurba_marseille","lat":43.27939,"lon":5.396,"is_reserved":false,"is_disabled":false,"rental_uris":{"android":"levelo://app?vid=9a8048d4-46f2-4ef7-aa23-5310e4dbfdd4","ios":"levelo://app?vid=9a8048d4-46f2-4ef7-aa23-5310e4dbfdd4"},"vehicle_type_id":"4","last_reported":1752275440,"current_range_meters":16400,"station_id":"ce4bhf92rcd13ifvqf40","pricing_plan_id":"cebpf4jnsgd1na2vs0mg"},{"bike_id":"878f5591-b246-4116-82e3-0bd3cbe6cef9","system_id":"levelo_inurba_marseille","lat":43.29076,"lon":5.37176,"is_reserved":false,"is_disabled":false,"rental_uris":{"android":"levelo://app?vid=878f5591-b246-4116-82e3-0bd3cbe6cef9","ios":"levelo://app?vid=878f5591-b246-4116-82e3-0bd3cbe6cef9"},"vehicle_type_id":"4","last_reported":1752275440,"current_range_meters":16400,"station_id":"ce4bh5p2rcd13ifvqe4g","pricing_plan_id":"cebpf4jnsgd1na2vs0mg"},{"bike_id":"a581eef9-f0fb-4e5d-8be0-84b96bfd2d41","system_id":"levelo_inurba_marseille","lat":43.29354,"lon":5.37895,"is_reserved":false,"is_disabled":true,"rental_uris":{"android":"levelo://app?vid=a581eef9-f0fb-4e5d-8be0-84b96bfd2d41","ios":"levelo://app?vid=a581eef9-f0fb-4e5d-8be0-84b96bfd2d41"},"vehicle_type_id":"4","last_reported":1752275440,"current_range_meters":16400,"station_id":"ce4bgjh2rcd13ifvqbf0","pricing_plan_id":"cebpf4jnsgd1na2vs0mg"},{"bike_id":"82986741-429a-4b51-8b98-636e2d5ef662","system_id":"levelo_inurba_marseille","lat":43.29523,"lon":5.38541,"is_reserved":false,"is_disabled":false,"rental_uris":{"android":"levelo://app?vid=82986741-429a-4b51-8b98-636e2d5ef662","ios":"levelo://app?vid=82986741-429a-4b51-8b98-636e2d5ef662"},"vehicle_type_id":"4","last_reported":1752275440,"current_range_meters":16400,"station_id":"ce4bgih2rcd13ifvqba0","pricing_plan_id":"cebpf4jnsgd1na2vs0mg"},{"bike_id":"a100566b-d122-47f7-b059-1aae620ff9b3","system_id":"levelo_inurba_marseille","lat":43.2405,"lon":5.37743,"is_reserved":false,"is_disabled":false,"rental_uris":{"android":"levelo://app?vid=a100566b-d122-47f7-b059-1aae620ff9b3","ios":"levelo://app?vid=a100566b-d122-47f7-b059-1aae620ff9b3"},"vehicle_type_id":"4","last_reported":1752275440,"current_range_meters":16400,"station_id":"ce4bhnp2rcd13ifvqgvg","pricing_plan_id":"cebpf4jnsgd1na2vs0mg"},{"bike_id":"780f127a-a57f-4698-84c8-ba7c41c4ee14","system_id":"levelo_inurba_marseille","lat":43.28937,"lon":5.3664,"is_reserved":false,"is_disabled":false,"rental_uris":{"android":"levelo://app?vid=780f127a-a57f-4698-84c8-ba7c41c4ee14","ios":"levelo://app?vid=780f127a-a57f-4698-84c8-ba7c41c4ee14"},"vehicle_type_id":"4","last_reported":1752275440,"current_range_meters":16400,"station_id":"ce4bhap2rcd13ifvqek0","pricing_plan_id":"cebpf4jnsgd1na2vs0mg"},{"bike_id":"fbbf9181-f297-4838-a169-0f219a2cb86e","system_id":"levelo_inurba_marseille","lat":43.29023,"lon":5.38649,"is_reserved":false,"is_disabled":false,"rental_uris":{"android":"levelo://app?vid=fbbf9181-f297-4838-a169-0f219a2cb86e","ios":"levelo://app?vid=fbbf9181-f297-4838-a169-0f219a2cb86e"},"vehicle_type_id":"4","last_reported":1752275440,"current_range_meters":16400,"station_id":"ce4bh4p2rcd13ifvqe0g","pricing_plan_id":"cebpf4jnsgd1na2vs0mg"},{"bike_id":"48ba3ad0-e09f-4427-a7dc-e4e0812a0d85","system_id":"levelo_inurba_marseille","lat":43.32586,"lon":5.41088,"is_reserved":false,"is_disabled":false,"rental_uris":{"android":"levelo://app?vid=48ba3ad0-e09f-4427-a7dc-e4e0812a0d85","ios":"levelo://app?vid=48ba3ad0-e09f-4427-a7dc-e4e0812a0d85"},"vehicle_type_id":"4","last_reported":1752275440,"current_range_meters":16400,"station_id":"ce4bhpp2rcd13ifvqhgg","pricing_plan_id":"cebpf4jnsgd1na2vs0mg"},{"bike_id":"25e5f971-a9c9-4b07-bb3b-bff8f5b484ea","system_id":"levelo_inurba_marseille","lat":43.30927,"lon":5.40152,"is_reserved":false,"is_disabled":false,"rental_uris":{"android":"levelo://app?vid=25e5f971-a9c9-4b07-bb3b-bff8f5b484ea","ios":"levelo://app?vid=25e5f971-a9c9-4b07-bb3b-bff8f5b484ea"},"vehicle_type_id":"4","last_reported":1752275440,"current_range_meters":16400,"station_id":"ce4bgvp2rcd13ifvqct0","pricing_plan_id":"cebpf4jnsgd1na2vs0mg"},{"bike_id":"a81ede20-43a9-47cd-942d-8fb15c54f5f7","system_id":"levelo_inurba_marseille","lat":43.30057,"lon":5.45171,"is_reserved":false,"is_disabled":false,"rental_uris":{"android":"levelo://app?vid=a81ede20-43a9-47cd-942d-8fb15c54f5f7","ios":"levelo://app?vid=a81ede20-43a9-47cd-942d-8fb15c54f5f7"},"vehicle_type_id":"4","last_reported":1752275440,"current_range_meters":16800,"station_id":"","pricing_plan_id":"cebpf4jnsgd1na2vs0mg"},{"bike_id":"f05b8bfe-6934-41c1-8e7b-6912b26dbed6","system_id":"levelo_inurba_marseille","lat":43.26551,"lon":5.39048,"is_reserved":false,"is_disabled":false,"rental_uris":{"android":"levelo://app?vid=f05b8bfe-6934-41c1-8e7b-6912b26dbed6","ios":"levelo://app?vid=f05b8bfe-6934-41c1-8e7b-6912b26dbed6"},"vehicle_type_id":"4","last_reported":1752275440,"current_range_meters":16800,"station_id":"ce4bhe12rcd13ifvqf30","pricing_plan_id":"cebpf4jnsgd1na2vs0mg"},{"bike_id":"58c86ff8-b444-4637-8b8c-414b4195493a","system_id":"levelo_inurba_marseille","lat":43.28073,"lon":5.39679,"is_reserved":false,"is_disabled":false,"rental_uris":{"android":"levelo://app?vid=58c86ff8-b444-4637-8b8c-414b4195493a","ios":"levelo://app?vid=58c86ff8-b444-4637-8b8c-414b4195493a"},"vehicle_type_id":"4","last_reported":1752275440,"current_range_meters":16800,"station_id":"ce4bho12rcd13ifvqh2g","pricing_plan_id":"cebpf4jnsgd1na2vs0mg"},{"bike_id":"f55db503-e37c-40fa-8d18-07649a05cd74","system_id":"levelo_inurba_marseille","lat":43.2926,"lon":5.40911,"is_reserved":false,"is_disabled":false,"rental_uris":{"android":"levelo://app?vid=f55db503-e37c-40fa-8d18-07649a05cd74","ios":"levelo://app?vid=f55db503-e37c-40fa-8d18-07649a05cd74"},"vehicle_type_id":"4","last_reported":1752275440,"current_range_meters":16800,"station_id":"ce4bh192rcd13ifvqdc0","pricing_plan_id":"cebpf4jnsgd1na2vs0mg"},{"bike_id":"aaa3b10e-8c10-48cf-933e-220b9a468a85","system_id":"levelo_inurba_marseille","lat":43.21704,"lon":5.34726,"is_reserved":false,"is_disabled":false,"rental_uris":{"android":"levelo://app?vid=aaa3b10e-8c10-48cf-933e-220b9a468a85","ios":"levelo://app?vid=aaa3b10e-8c10-48cf-933e-220b9a468a85"},"vehicle_type_id":"4","last_reported":1752275440,"current_range_meters":16800,"station_id":"","pricing_plan_id":"cebpf4jnsgd1na2vs0mg"},{"bike_id":"c35d1d43-a468-40f4-912a-23ac241ccd25","system_id":"levelo_inurba_marseille","lat":43.25564,"lon":5.38253,"is_reserved":false,"is_disabled":false,"rental_uris":{"android":"levelo://app?vid=c35d1d43-a468-40f4-912a-23ac241ccd25","ios":"levelo://app?vid=c35d1d43-a468-40f4-912a-23ac241ccd25"},"vehicle_type_id":"4","last_reported":1752275440,"current_range_meters":16800,"station_id":"ce4bhih2rcd13ifvqfs0","pricing_plan_id":"cebpf4jnsgd1na2vs0mg"},{"bike_id":"23a3a8de-84db-4fa7-93f2-9c72ce548ce8","system_id":"levelo_inurba_marseille","lat":43.29601,"lon":5.38107,"is_reserved":false,"is_disabled":false,"rental_uris":{"android":"levelo://app?vid=23a3a8de-84db-4fa7-93f2-9c72ce548ce8","ios":"levelo://app?vid=23a3a8de-84db-4fa7-93f2-9c72ce548ce8"},"vehicle_type_id":"4","last_reported":1752275440,"current_range_meters":16800,"station_id":"ce4bgl12rcd13ifvqbo0","pricing_plan_id":"cebpf4jnsgd1na2vs0mg"},{"bike_id":"aa016e30-695e-497d-aefc-932936cd6e19","system_id":"levelo_inurba_marseille","lat":43.2953,"lon":5.38546,"is_reserved":false,"is_disabled":false,"rental_uris":{"android":"levelo://app?vid=aa016e30-695e-497d-aefc-932936cd6e19","ios":"levelo://app?vid=aa016e30-695e-497d-aefc-932936cd6e19"},"vehicle_type_id":"4","last_reported":1752275440,"current_range_meters":17200,"station_id":"ce4bgih2rcd13ifvqba0","pricing_plan_id":"cebpf4jnsgd1na2vs0mg"},{"bike_id":"ba7e3217-8069-471e-8907-7c5152d45243","system_id":"levelo_inurba_marseille","lat":43.262312,"lon":5.404618,"is_reserved":false,"is_disabled":false,"rental_uris":{"android":"levelo://app?vid=ba7e3217-8069-471e-8907-7c5152d45243","ios":"levelo://app?vid=ba7e3217-8069-471e-8907-7c5152d45243"},"vehicle_type_id":"4","last_reported":1752275440,"current_range_meters":17200,"station_id":"ce4bhmh2rcd13ifvqgmg","pricing_plan_id":"cebpf4jnsgd1na2vs0mg"},{"bike_id":"709c9beb-13f1-45e2-bbd1-0f71d60cf8b2","system_id":"levelo_inurba_marseille","lat":43.30914,"lon":5.40164,"is_reserved":false,"is_disabled":true,"rental_uris":{"android":"levelo://app?vid=709c9beb-13f1-45e2-bbd1-0f71d60cf8b2","ios":"levelo://app?vid=709c9beb-13f1-45e2-bbd1-0f71d60cf8b2"},"vehicle_type_id":"4","last_reported":1752275440,"current_range_meters":17200,"station_id":"ce4bgvp2rcd13ifvqct0","pricing_plan_id":"cebpf4jnsgd1na2vs0mg"},{"bike_id":"7ae3c05b-b3f8-4752-80d6-117d478c59d0","system_id":"levelo_inurba_marseille","lat":43.30879,"lon":5.39658,"is_reserved":false,"is_disabled":false,"rental_uris":{"android":"levelo://app?vid=7ae3c05b-b3f8-4752-80d6-117d478c59d0","ios":"levelo://app?vid=7ae3c05b-b3f8-4752-80d6-117d478c59d0"},"vehicle_type_id":"4","last_reported":1752275440,"current_range_meters":17200,"station_id":"ce4bh012rcd13ifvqcv0","pricing_plan_id":"cebpf4jnsgd1na2vs0mg"},{"bike_id":"169d1bee-d3b4-437e-8b36-e4e46a8ed097","system_id":"levelo_inurba_marseille","lat":43.28925,"lon":5.38405,"is_reserved":false,"is_disabled":false,"rental_uris":{"android":"levelo://app?vid=169d1bee-d3b4-437e-8b36-e4e46a8ed097","ios":"levelo://app?vid=169d1bee-d3b4-437e-8b36-e4e46a8ed097"},"vehicle_type_id":"4","last_reported":1752275440,"current_range_meters":17200,"station_id":"ce4bh612rcd13ifvqe6g","pricing_plan_id":"cebpf4jnsgd1na2vs0mg"},{"bike_id":"ad023729-3d33-44a6-99ca-a047715b7f88","system_id":"levelo_inurba_marseille","lat":43.21191,"lon":5.35093,"is_reserved":false,"is_disabled":false,"rental_uris":{"android":"levelo://app?vid=ad023729-3d33-44a6-99ca-a047715b7f88","ios":"levelo://app?vid=ad023729-3d33-44a6-99ca-a047715b7f88"},"vehicle_type_id":"4","last_reported":1752275440,"current_range_meters":17200,"station_id":"st_cvj6sg6p6f1abm77japg","pricing_plan_id":"cebpf4jnsgd1na2vs0mg"},{"bike_id":"f2770ea1-d1a3-4b88-95ee-a5994bbb099d","system_id":"levelo_inurba_marseille","lat":43.287027,"lon":5.39975,"is_reserved":false,"is_disabled":false,"rental_uris":{"android":"levelo://app?vid=f2770ea1-d1a3-4b88-95ee-a5994bbb099d","ios":"levelo://app?vid=f2770ea1-d1a3-4b88-95ee-a5994bbb099d"},"vehicle_type_id":"4","last_reported":1752275440,"current_range_meters":17200,"station_id":"ce4bho92rcd13ifvqh3g","pricing_plan_id":"cebpf4jnsgd1na2vs0mg"},{"bike_id":"bd780b9f-2638-45b0-81a5-171acb11391a","system_id":"levelo_inurba_marseille","lat":43.24826,"lon":5.37456,"is_reserved":false,"is_disabled":false,"rental_uris":{"android":"levelo://app?vid=bd780b9f-2638-45b0-81a5-171acb11391a","ios":"levelo://app?vid=bd780b9f-2638-45b0-81a5-171acb11391a"},"vehicle_type_id":"4","last_reported":1752275440,"current_range_meters":17200,"station_id":"ce4bhgh2rcd13ifvqfb0","pricing_plan_id":"cebpf4jnsgd1na2vs0mg"},{"bike_id":"d68ca6bb-00b4-4264-baa1-5a5036be73a9","system_id":"levelo_inurba_marseille","lat":43.29233,"lon":5.38455,"is_reserved":false,"is_disabled":false,"rental_uris":{"android":"levelo://app?vid=d68ca6bb-00b4-4264-baa1-5a5036be73a9","ios":"levelo://app?vid=d68ca6bb-00b4-4264-baa1-5a5036be73a9"},"vehicle_type_id":"4","last_reported":1752275440,"current_range_meters":17200,"station_id":"ce4bh692rcd13ifvqea0","pricing_plan_id":"cebpf4jnsgd1na2vs0mg"},{"bike_id":"dfb324bb-b3fa-42ac-af97-fcb3ac59c854","system_id":"levelo_inurba_marseille","lat":43.29764,"lon":5.37111,"is_reserved":false,"is_disabled":false,"rental_uris":{"android":"levelo://app?vid=dfb324bb-b3fa-42ac-af97-fcb3ac59c854","ios":"levelo://app?vid=dfb324bb-b3fa-42ac-af97-fcb3ac59c854"},"vehicle_type_id":"4","last_reported":1752275440,"current_range_meters":17600,"station_id":"ce4bgop2rcd13ifvqc1g","pricing_plan_id":"cebpf4jnsgd1na2vs0mg"},{"bike_id":"945ee497-716d-4428-8e06-654204cd1360","system_id":"levelo_inurba_marseille","lat":43.27546,"lon":5.38432,"is_reserved":false,"is_disabled":false,"rental_uris":{"android":"levelo://app?vid=945ee497-716d-4428-8e06-654204cd1360","ios":"levelo://app?vid=945ee497-716d-4428-8e06-654204cd1360"},"vehicle_type_id":"4","last_reported":1752275440,"current_range_meters":17600,"station_id":"ce4bhh92rcd13ifvqfi0","pricing_plan_id":"cebpf4jnsgd1na2vs0mg"},{"bike_id":"2d98c144-979b-4cdc-9c63-d39d433bf790","system_id":"levelo_inurba_marseille","lat":43.267806,"lon":5.394276,"is_reserved":false,"is_disabled":true,"rental_uris":{"android":"levelo://app?vid=2d98c144-979b-4cdc-9c63-d39d433bf790","ios":"levelo://app?vid=2d98c144-979b-4cdc-9c63-d39d433bf790"},"vehicle_type_id":"4","last_reported":1752275440,"current_range_meters":17600,"station_id":"ce4bhh12rcd13ifvqfg0","pricing_plan_id":"cebpf4jnsgd1na2vs0mg"},{"bike_id":"ed35d618-f357-4055-9d4e-9fed8855119e","system_id":"levelo_inurba_marseille","lat":43.27532,"lon":5.38471,"is_reserved":false,"is_disabled":false,"rental_uris":{"android":"levelo://app?vid=ed35d618-f357-4055-9d4e-9fed8855119e","ios":"levelo://app?vid=ed35d618-f357-4055-9d4e-9fed8855119e"},"vehicle_type_id":"4","last_reported":1752275440,"current_range_meters":17600,"station_id":"ce4bhh92rcd13ifvqfi0","pricing_plan_id":"cebpf4jnsgd1na2vs0mg"},{"bike_id":"aadd4d9d-97a7-4e9b-bf52-e18b1d1cb6b4","system_id":"levelo_inurba_marseille","lat":43.307955,"lon":5.381555,"is_reserved":false,"is_disabled":false,"rental_uris":{"android":"levelo://app?vid=aadd4d9d-97a7-4e9b-bf52-e18b1d1cb6b4","ios":"levelo://app?vid=aadd4d9d-97a7-4e9b-bf52-e18b1d1cb6b4"},"vehicle_type_id":"4","last_reported":1752275440,"current_range_meters":17600,"station_id":"ce4bgt12rcd13ifvqce0","pricing_plan_id":"cebpf4jnsgd1na2vs0mg"},{"bike_id":"af7ed9be-8427-42dd-8590-d11792323a17","system_id":"levelo_inurba_marseille","lat":43.286947,"lon":5.37404,"is_reserved":false,"is_disabled":false,"rental_uris":{"android":"levelo://app?vid=af7ed9be-8427-42dd-8590-d11792323a17","ios":"levelo://app?vid=af7ed9be-8427-42dd-8590-d11792323a17"},"vehicle_type_id":"4","last_reported":1752275440,"current_range_meters":17600,"station_id":"ce4bh3p2rcd13ifvqdq0","pricing_plan_id":"cebpf4jnsgd1na2vs0mg"},{"bike_id":"919e600e-ebda-4ca0-9126-38ed65a36143","system_id":"levelo_inurba_marseille","lat":43.21166,"lon":5.35085,"is_reserved":false,"is_disabled":false,"rental_uris":{"android":"levelo://app?vid=919e600e-ebda-4ca0-9126-38ed65a36143","ios":"levelo://app?vid=919e600e-ebda-4ca0-9126-38ed65a36143"},"vehicle_type_id":"4","last_reported":1752275440,"current_range_meters":17600,"station_id":"st_cvj6sg6p6f1abm77japg","pricing_plan_id":"cebpf4jnsgd1na2vs0mg"},{"bike_id":"f4a5e32d-fc9f-40fa-bf04-057d10c1b578","system_id":"levelo_inurba_marseille","lat":43.296047,"lon":5.381163,"is_reserved":false,"is_disabled":false,"rental_uris":{"android":"levelo://app?vid=f4a5e32d-fc9f-40fa-bf04-057d10c1b578","ios":"levelo://app?vid=f4a5e32d-fc9f-40fa-bf04-057d10c1b578"},"vehicle_type_id":"4","last_reported":1752275440,"current_range_meters":17600,"station_id":"ce4bgl12rcd13ifvqbo0","pricing_plan_id":"cebpf4jnsgd1na2vs0mg"},{"bike_id":"32e17cee-0637-430b-a3ad-ebe78640ad83","system_id":"levelo_inurba_marseille","lat":43.29035,"lon":5.399653,"is_reserved":false,"is_disabled":false,"rental_uris":{"android":"levelo://app?vid=32e17cee-0637-430b-a3ad-ebe78640ad83","ios":"levelo://app?vid=32e17cee-0637-430b-a3ad-ebe78640ad83"},"vehicle_type_id":"4","last_reported":1752275440,"current_range_meters":18000,"station_id":"ce4bh392rcd13ifvqdm0","pricing_plan_id":"cebpf4jnsgd1na2vs0mg"},{"bike_id":"606476a6-ca93-445b-85f4-519d2709c787","system_id":"levelo_inurba_marseille","lat":43.292735,"lon":5.384415,"is_reserved":false,"is_disabled":false,"rental_uris":{"android":"levelo://app?vid=606476a6-ca93-445b-85f4-519d2709c787","ios":"levelo://app?vid=606476a6-ca93-445b-85f4-519d2709c787"},"vehicle_type_id":"4","last_reported":1752275440,"current_range_meters":18000,"station_id":"ce4bh692rcd13ifvqea0","pricing_plan_id":"cebpf4jnsgd1na2vs0mg"},{"bike_id":"607eff80-7879-4cd4-802a-27da59b17290","system_id":"levelo_inurba_marseille","lat":43.30882,"lon":5.39639,"is_reserved":false,"is_disabled":false,"rental_uris":{"android":"levelo://app?vid=607eff80-7879-4cd4-802a-27da59b17290","ios":"levelo://app?vid=607eff80-7879-4cd4-802a-27da59b17290"},"vehicle_type_id":"4","last_reported":1752275440,"current_range_meters":18000,"station_id":"ce4bh012rcd13ifvqcv0","pricing_plan_id":"cebpf4jnsgd1na2vs0mg"},{"bike_id":"44cb55d7-0a6b-4498-9996-58505fae2254","system_id":"levelo_inurba_marseille","lat":43.30643,"lon":5.40085,"is_reserved":false,"is_disabled":false,"rental_uris":{"android":"levelo://app?vid=44cb55d7-0a6b-4498-9996-58505fae2254","ios":"levelo://app?vid=44cb55d7-0a6b-4498-9996-58505fae2254"},"vehicle_type_id":"4","last_reported":1752275440,"current_range_meters":18000,"station_id":"ce4bh112rcd13ifvqda0","pricing_plan_id":"cebpf4jnsgd1na2vs0mg"},{"bike_id":"7e8b135d-5817-42e4-9329-f32a4e79980f","system_id":"levelo_inurba_marseille","lat":43.29541,"lon":5.38531,"is_reserved":false,"is_disabled":false,"rental_uris":{"android":"levelo://app?vid=7e8b135d-5817-42e4-9329-f32a4e79980f","ios":"levelo://app?vid=7e8b135d-5817-42e4-9329-f32a4e79980f"},"vehicle_type_id":"4","last_reported":1752275440,"current_range_meters":18000,"station_id":"ce4bgih2rcd13ifvqba0","pricing_plan_id":"cebpf4jnsgd1na2vs0mg"},{"bike_id":"c6f7dabd-b092-4554-a710-07eb4af96a4c","system_id":"levelo_inurba_marseille","lat":43.21193,"lon":5.35075,"is_reserved":false,"is_disabled":false,"rental_uris":{"android":"levelo://app?vid=c6f7dabd-b092-4554-a710-07eb4af96a4c","ios":"levelo://app?vid=c6f7dabd-b092-4554-a710-07eb4af96a4c"},"vehicle_type_id":"4","last_reported":1752275440,"current_range_meters":18000,"station_id":"st_cvj6sg6p6f1abm77japg","pricing_plan_id":"cebpf4jnsgd1na2vs0mg"},{"bike_id":"f54244bd-205a-46f5-ad69-7a41daa979f4","system_id":"levelo_inurba_marseille","lat":43.30421,"lon":5.41291,"is_reserved":false,"is_disabled":false,"rental_uris":{"android":"levelo://app?vid=f54244bd-205a-46f5-ad69-7a41daa979f4","ios":"levelo://app?vid=f54244bd-205a-46f5-ad69-7a41daa979f4"},"vehicle_type_id":"4","last_reported":1752275440,"current_range_meters":18000,"station_id":"ce4bhop2rcd13ifvqh8g","pricing_plan_id":"cebpf4jnsgd1na2vs0mg"},{"bike_id":"09182a7a-11cf-4c81-94f8-c28915bceb7b","system_id":"levelo_inurba_marseille","lat":43.30292,"lon":5.36936,"is_reserved":false,"is_disabled":false,"rental_uris":{"android":"levelo://app?vid=09182a7a-11cf-4c81-94f8-c28915bceb7b","ios":"levelo://app?vid=09182a7a-11cf-4c81-94f8-c28915bceb7b"},"vehicle_type_id":"4","last_reported":1752275440,"current_range_meters":18000,"station_id":"ce4bgqh2rcd13ifvqc5g","pricing_plan_id":"cebpf4jnsgd1na2vs0mg"},{"bike_id":"a88ad0f9-4dc9-4f3f-841b-ae01ad57516a","system_id":"levelo_inurba_marseille","lat":43.26736,"lon":5.38238,"is_reserved":false,"is_disabled":true,"rental_uris":{"android":"levelo://app?vid=a88ad0f9-4dc9-4f3f-841b-ae01ad57516a","ios":"levelo://app?vid=a88ad0f9-4dc9-4f3f-841b-ae01ad57516a"},"vehicle_type_id":"4","last_reported":1752275440,"current_range_meters":18800,"station_id":"ce4bhg92rcd13ifvqf90","pricing_plan_id":"cebpf4jnsgd1na2vs0mg"},{"bike_id":"00bc0b3b-e317-4a17-a011-a3a9a29d816a","system_id":"levelo_inurba_marseille","lat":43.212,"lon":5.35071,"is_reserved":false,"is_disabled":false,"rental_uris":{"android":"levelo://app?vid=00bc0b3b-e317-4a17-a011-a3a9a29d816a","ios":"levelo://app?vid=00bc0b3b-e317-4a17-a011-a3a9a29d816a"},"vehicle_type_id":"4","last_reported":1752275440,"current_range_meters":18800,"station_id":"st_cvj6sg6p6f1abm77japg","pricing_plan_id":"cebpf4jnsgd1na2vs0mg"},{"bike_id":"3efad7fc-3bae-4b01-b6d8-edd7c4aa748e","system_id":"levelo_inurba_marseille","lat":43.2656,"lon":5.3902,"is_reserved":false,"is_disabled":false,"rental_uris":{"android":"levelo://app?vid=3efad7fc-3bae-4b01-b6d8-edd7c4aa748e","ios":"levelo://app?vid=3efad7fc-3bae-4b01-b6d8-edd7c4aa748e"},"vehicle_type_id":"4","last_reported":1752275440,"current_range_meters":18800,"station_id":"ce4bhe12rcd13ifvqf30","pricing_plan_id":"cebpf4jnsgd1na2vs0mg"},{"bike_id":"e37a2d08-72ed-4015-b714-186e1a332d22","system_id":"levelo_inurba_marseille","lat":43.2867,"lon":5.38668,"is_reserved":false,"is_disabled":false,"rental_uris":{"android":"levelo://app?vid=e37a2d08-72ed-4015-b714-186e1a332d22","ios":"levelo://app?vid=e37a2d08-72ed-4015-b714-186e1a332d22"},"vehicle_type_id":"4","last_reported":1752275440,"current_range_meters":17200,"station_id":"ce4bh492rcd13ifvqdug","pricing_plan_id":"cebpf4jnsgd1na2vs0mg"},{"bike_id":"425b7311-afe0-4850-a520-f26061a6405c","system_id":"levelo_inurba_marseille","lat":43.3042,"lon":5.39756,"is_reserved":false,"is_disabled":false,"rental_uris":{"android":"levelo://app?vid=425b7311-afe0-4850-a520-f26061a6405c","ios":"levelo://app?vid=425b7311-afe0-4850-a520-f26061a6405c"},"vehicle_type_id":"4","last_reported":1752275440,"current_range_meters":18000,"station_id":"ce4bh092rcd13ifvqd20","pricing_plan_id":"cebpf4jnsgd1na2vs0mg"},{"bike_id":"51890362-46b0-4ee7-9f02-afbf036d064e","system_id":"levelo_inurba_marseille","lat":43.211921,"lon":5.350771,"is_reserved":false,"is_disabled":false,"rental_uris":{"android":"levelo://app?vid=51890362-46b0-4ee7-9f02-afbf036d064e","ios":"levelo://app?vid=51890362-46b0-4ee7-9f02-afbf036d064e"},"vehicle_type_id":"4","last_reported":1752275440,"current_range_meters":18800,"station_id":"st_cvj6sg6p6f1abm77japg","pricing_plan_id":"cebpf4jnsgd1na2vs0mg"},{"bike_id":"486ee436-dc2c-4cbf-b133-565f554ddb1e","system_id":"levelo_inurba_marseille","lat":43.25115,"lon":5.4032,"is_reserved":false,"is_disabled":false,"rental_uris":{"android":"levelo://app?vid=486ee436-dc2c-4cbf-b133-565f554ddb1e","ios":"levelo://app?vid=486ee436-dc2c-4cbf-b133-565f554ddb1e"},"vehicle_type_id":"4","last_reported":1752275440,"current_range_meters":18800,"station_id":"ce4bhlh2rcd13ifvqgig","pricing_plan_id":"cebpf4jnsgd1na2vs0mg"},{"bike_id":"2246e185-ebd5-44fe-93be-6b9e19d0be02","system_id":"levelo_inurba_marseille","lat":43.29639,"lon":5.381,"is_reserved":false,"is_disabled":false,"rental_uris":{"android":"levelo://app?vid=2246e185-ebd5-44fe-93be-6b9e19d0be02","ios":"levelo://app?vid=2246e185-ebd5-44fe-93be-6b9e19d0be02"},"vehicle_type_id":"4","last_reported":1752275440,"current_range_meters":18800,"station_id":"ce4bgl12rcd13ifvqbo0","pricing_plan_id":"cebpf4jnsgd1na2vs0mg"},{"bike_id":"ded1613d-37f4-4636-b9a1-5b3ab463f128","system_id":"levelo_inurba_marseille","lat":43.30216,"lon":5.39717,"is_reserved":false,"is_disabled":false,"rental_uris":{"android":"levelo://app?vid=ded1613d-37f4-4636-b9a1-5b3ab463f128","ios":"levelo://app?vid=ded1613d-37f4-4636-b9a1-5b3ab463f128"},"vehicle_type_id":"4","last_reported":1752275440,"current_range_meters":18800,"station_id":"","pricing_plan_id":"cebpf4jnsgd1na2vs0mg"},{"bike_id":"ad45ed52-8aa0-4bfd-b8ed-cab76715dbd8","system_id":"levelo_inurba_marseille","lat":43.30253,"lon":5.40083,"is_reserved":false,"is_disabled":false,"rental_uris":{"android":"levelo://app?vid=ad45ed52-8aa0-4bfd-b8ed-cab76715dbd8","ios":"levelo://app?vid=ad45ed52-8aa0-4bfd-b8ed-cab76715dbd8"},"vehicle_type_id":"4","last_reported":1752275440,"current_range_meters":19200,"station_id":"ce4bgvh2rcd13ifvqcs0","pricing_plan_id":"cebpf4jnsgd1na2vs0mg"},{"bike_id":"12550465-b65a-4c88-b512-314e9a3f0311","system_id":"levelo_inurba_marseille","lat":43.3021,"lon":5.39464,"is_reserved":false,"is_disabled":false,"rental_uris":{"android":"levelo://app?vid=12550465-b65a-4c88-b512-314e9a3f0311","ios":"levelo://app?vid=12550465-b65a-4c88-b512-314e9a3f0311"},"vehicle_type_id":"4","last_reported":1752275440,"current_range_meters":19200,"station_id":"ce4bh0p2rcd13ifvqd70","pricing_plan_id":"cebpf4jnsgd1na2vs0mg"},{"bike_id":"ee5338dd-18a1-4b48-a5b0-f8c72f7b1319","system_id":"levelo_inurba_marseille","lat":43.317972,"lon":5.3684,"is_reserved":false,"is_disabled":false,"rental_uris":{"android":"levelo://app?vid=ee5338dd-18a1-4b48-a5b0-f8c72f7b1319","ios":"levelo://app?vid=ee5338dd-18a1-4b48-a5b0-f8c72f7b1319"},"vehicle_type_id":"4","last_reported":1752275440,"current_range_meters":19200,"station_id":"","pricing_plan_id":"cebpf4jnsgd1na2vs0mg"},{"bike_id":"3e01e98e-784c-40cc-9a58-943021295c96","system_id":"levelo_inurba_marseille","lat":43.26506,"lon":5.3955,"is_reserved":false,"is_disabled":false,"rental_uris":{"android":"levelo://app?vid=3e01e98e-784c-40cc-9a58-943021295c96","ios":"levelo://app?vid=3e01e98e-784c-40cc-9a58-943021295c96"},"vehicle_type_id":"4","last_reported":1752275440,"current_range_meters":19200,"station_id":"ce4bhi12rcd13ifvqfq0","pricing_plan_id":"cebpf4jnsgd1na2vs0mg"},{"bike_id":"fe9d49e1-a07a-4343-a1f5-cbcd31489875","system_id":"levelo_inurba_marseille","lat":43.2512,"lon":5.40322,"is_reserved":false,"is_disabled":false,"rental_uris":{"android":"levelo://app?vid=fe9d49e1-a07a-4343-a1f5-cbcd31489875","ios":"levelo://app?vid=fe9d49e1-a07a-4343-a1f5-cbcd31489875"},"vehicle_type_id":"4","last_reported":1752275440,"current_range_meters":19200,"station_id":"ce4bhlh2rcd13ifvqgig","pricing_plan_id":"cebpf4jnsgd1na2vs0mg"},{"bike_id":"f3ee5b10-918f-46ae-ad5a-74e208aa49fa","system_id":"levelo_inurba_marseille","lat":43.25817,"lon":5.39436,"is_reserved":false,"is_disabled":false,"rental_uris":{"android":"levelo://app?vid=f3ee5b10-918f-46ae-ad5a-74e208aa49fa","ios":"levelo://app?vid=f3ee5b10-918f-46ae-ad5a-74e208aa49fa"},"vehicle_type_id":"4","last_reported":1752275440,"current_range_meters":18800,"station_id":"ce4bhip2rcd13ifvqft0","pricing_plan_id":"cebpf4jnsgd1na2vs0mg"},{"bike_id":"25e114db-7bbe-4656-bec3-a854b4f6bd46","system_id":"levelo_inurba_marseille","lat":43.31332,"lon":5.39693,"is_reserved":false,"is_disabled":false,"rental_uris":{"android":"levelo://app?vid=25e114db-7bbe-4656-bec3-a854b4f6bd46","ios":"levelo://app?vid=25e114db-7bbe-4656-bec3-a854b4f6bd46"},"vehicle_type_id":"4","last_reported":1752275440,"current_range_meters":19200,"station_id":"ce4bgvp2rcd13ifvqcu0","pricing_plan_id":"cebpf4jnsgd1na2vs0mg"},{"bike_id":"8e96cc1c-7c1c-42f1-8e93-5f09751459d9","system_id":"levelo_inurba_marseille","lat":43.29293,"lon":5.37468,"is_reserved":false,"is_disabled":true,"rental_uris":{"android":"levelo://app?vid=8e96cc1c-7c1c-42f1-8e93-5f09751459d9","ios":"levelo://app?vid=8e96cc1c-7c1c-42f1-8e93-5f09751459d9"},"vehicle_type_id":"4","last_reported":1752275440,"current_range_meters":19200,"station_id":"ce4bgi12rcd13ifvqb70","pricing_plan_id":"cebpf4jnsgd1na2vs0mg"},{"bike_id":"a0137104-c9f4-434a-a5e3-80725cd5a2b4","system_id":"levelo_inurba_marseille","lat":43.211938,"lon":5.350775,"is_reserved":false,"is_disabled":false,"rental_uris":{"android":"levelo://app?vid=a0137104-c9f4-434a-a5e3-80725cd5a2b4","ios":"levelo://app?vid=a0137104-c9f4-434a-a5e3-80725cd5a2b4"},"vehicle_type_id":"4","last_reported":1752275440,"current_range_meters":19200,"station_id":"st_cvj6sg6p6f1abm77japg","pricing_plan_id":"cebpf4jnsgd1na2vs0mg"},{"bike_id":"d1174286-7c20-4cec-9521-e1fe98b8de7e","system_id":"levelo_inurba_marseille","lat":43.30634,"lon":5.40075,"is_reserved":false,"is_disabled":false,"rental_uris":{"android":"levelo://app?vid=d1174286-7c20-4cec-9521-e1fe98b8de7e","ios":"levelo://app?vid=d1174286-7c20-4cec-9521-e1fe98b8de7e"},"vehicle_type_id":"4","last_reported":1752275440,"current_range_meters":19200,"station_id":"ce4bh112rcd13ifvqda0","pricing_plan_id":"cebpf4jnsgd1na2vs0mg"},{"bike_id":"2a66106d-d0c2-4fdb-a0d3-33bcad5edb0d","system_id":"levelo_inurba_marseille","lat":43.3211,"lon":5.36772,"is_reserved":false,"is_disabled":false,"rental_uris":{"android":"levelo://app?vid=2a66106d-d0c2-4fdb-a0d3-33bcad5edb0d","ios":"levelo://app?vid=2a66106d-d0c2-4fdb-a0d3-33bcad5edb0d"},"vehicle_type_id":"4","last_reported":1752275440,"current_range_meters":19200,"station_id":"ce4bhrh2rcd13ifvqhug","pricing_plan_id":"cebpf4jnsgd1na2vs0mg"},{"bike_id":"4f2bffd5-43cc-47cd-acbd-330dd5efe017","system_id":"levelo_inurba_marseille","lat":43.326532,"lon":5.409938,"is_reserved":false,"is_disabled":false,"rental_uris":{"android":"levelo://app?vid=4f2bffd5-43cc-47cd-acbd-330dd5efe017","ios":"levelo://app?vid=4f2bffd5-43cc-47cd-acbd-330dd5efe017"},"vehicle_type_id":"4","last_reported":1752275440,"current_range_meters":19600,"station_id":"ce4bhpp2rcd13ifvqhgg","pricing_plan_id":"cebpf4jnsgd1na2vs0mg"},{"bike_id":"5969eab6-8ad4-4fde-ac4c-daf15a686651","system_id":"levelo_inurba_marseille","lat":43.28693,"lon":5.3995,"is_reserved":false,"is_disabled":false,"rental_uris":{"android":"levelo://app?vid=5969eab6-8ad4-4fde-ac4c-daf15a686651","ios":"levelo://app?vid=5969eab6-8ad4-4fde-ac4c-daf15a686651"},"vehicle_type_id":"4","last_reported":1752275440,"current_range_meters":19600,"station_id":"ce4bho92rcd13ifvqh3g","pricing_plan_id":"cebpf4jnsgd1na2vs0mg"},{"bike_id":"00bb04d2-087b-4ba0-958b-5c83f2321f0a","system_id":"levelo_inurba_marseille","lat":43.29549,"lon":5.42321,"is_reserved":false,"is_disabled":false,"rental_uris":{"android":"levelo://app?vid=00bb04d2-087b-4ba0-958b-5c83f2321f0a","ios":"levelo://app?vid=00bb04d2-087b-4ba0-958b-5c83f2321f0a"},"vehicle_type_id":"4","last_reported":1752275440,"current_range_meters":19600,"station_id":"ce4bhph2rcd13ifvqhdg","pricing_plan_id":"cebpf4jnsgd1na2vs0mg"},{"bike_id":"95a255ba-69fc-4e5a-b042-04edca8a8ddd","system_id":"levelo_inurba_marseille","lat":43.29895,"lon":5.38881,"is_reserved":false,"is_disabled":false,"rental_uris":{"android":"levelo://app?vid=95a255ba-69fc-4e5a-b042-04edca8a8ddd","ios":"levelo://app?vid=95a255ba-69fc-4e5a-b042-04edca8a8ddd"},"vehicle_type_id":"4","last_reported":1752275440,"current_range_meters":19200,"station_id":"ce4bh392rcd13ifvqdl0","pricing_plan_id":"cebpf4jnsgd1na2vs0mg"},{"bike_id":"ace64107-ef6e-4332-b6ed-06e2d53b2c22","system_id":"levelo_inurba_marseille","lat":43.29259,"lon":5.409125,"is_reserved":false,"is_disabled":false,"rental_uris":{"android":"levelo://app?vid=ace64107-ef6e-4332-b6ed-06e2d53b2c22","ios":"levelo://app?vid=ace64107-ef6e-4332-b6ed-06e2d53b2c22"},"vehicle_type_id":"4","last_reported":1752275440,"current_range_meters":19200,"station_id":"ce4bh192rcd13ifvqdc0","pricing_plan_id":"cebpf4jnsgd1na2vs0mg"},{"bike_id":"8b37f03f-f226-4bbc-8648-b109da7ba145","system_id":"levelo_inurba_marseille","lat":43.30536,"lon":5.366999,"is_reserved":false,"is_disabled":false,"rental_uris":{"android":"levelo://app?vid=8b37f03f-f226-4bbc-8648-b109da7ba145","ios":"levelo://app?vid=8b37f03f-f226-4bbc-8648-b109da7ba145"},"vehicle_type_id":"4","last_reported":1752275440,"current_range_meters":19600,"station_id":"","pricing_plan_id":"cebpf4jnsgd1na2vs0mg"},{"bike_id":"b59e51ca-d910-4846-ae9d-c6b0b3ae1ac3","system_id":"levelo_inurba_marseille","lat":43.2833,"lon":5.3503,"is_reserved":false,"is_disabled":false,"rental_uris":{"android":"levelo://app?vid=b59e51ca-d910-4846-ae9d-c6b0b3ae1ac3","ios":"levelo://app?vid=b59e51ca-d910-4846-ae9d-c6b0b3ae1ac3"},"vehicle_type_id":"4","last_reported":1752275440,"current_range_meters":19600,"station_id":"","pricing_plan_id":"cebpf4jnsgd1na2vs0mg"},{"bike_id":"d799b321-3a7d-4201-b46e-ffe2ad124f19","system_id":"levelo_inurba_marseille","lat":43.32879,"lon":5.38412,"is_reserved":false,"is_disabled":false,"rental_uris":{"android":"levelo://app?vid=d799b321-3a7d-4201-b46e-ffe2ad124f19","ios":"levelo://app?vid=d799b321-3a7d-4201-b46e-ffe2ad124f19"},"vehicle_type_id":"4","last_reported":1752275440,"current_range_meters":19600,"station_id":"","pricing_plan_id":"cebpf4jnsgd1na2vs0mg"},{"bike_id":"38e70852-2f7a-4b34-a55f-7175aa6a06f9","system_id":"levelo_inurba_marseille","lat":43.27903,"lon":5.38004,"is_reserved":false,"is_disabled":false,"rental_uris":{"android":"levelo://app?vid=38e70852-2f7a-4b34-a55f-7175aa6a06f9","ios":"levelo://app?vid=38e70852-2f7a-4b34-a55f-7175aa6a06f9"},"vehicle_type_id":"4","last_reported":1752275440,"current_range_meters":20000,"station_id":"ce4bhf92rcd13ifvqf50","pricing_plan_id":"cebpf4jnsgd1na2vs0mg"},{"bike_id":"b69f6cc2-602c-49fb-ba7d-0391baa3af25","system_id":"levelo_inurba_marseille","lat":43.24822,"lon":5.37465,"is_reserved":false,"is_disabled":false,"rental_uris":{"android":"levelo://app?vid=b69f6cc2-602c-49fb-ba7d-0391baa3af25","ios":"levelo://app?vid=b69f6cc2-602c-49fb-ba7d-0391baa3af25"},"vehicle_type_id":"4","last_reported":1752275440,"current_range_meters":20000,"station_id":"ce4bhgh2rcd13ifvqfb0","pricing_plan_id":"cebpf4jnsgd1na2vs0mg"},{"bike_id":"72b39aad-c91e-4545-8fe5-aa395b7d62ba","system_id":"levelo_inurba_marseille","lat":43.3137,"lon":5.3685,"is_reserved":false,"is_disabled":false,"rental_uris":{"android":"levelo://app?vid=72b39aad-c91e-4545-8fe5-aa395b7d62ba","ios":"levelo://app?vid=72b39aad-c91e-4545-8fe5-aa395b7d62ba"},"vehicle_type_id":"4","last_reported":1752275440,"current_range_meters":20000,"station_id":"","pricing_plan_id":"cebpf4jnsgd1na2vs0mg"},{"bike_id":"5784d6e8-83a7-4951-8669-e055553e1b92","system_id":"levelo_inurba_marseille","lat":43.30604,"lon":5.39347,"is_reserved":false,"is_disabled":false,"rental_uris":{"android":"levelo://app?vid=5784d6e8-83a7-4951-8669-e055553e1b92","ios":"levelo://app?vid=5784d6e8-83a7-4951-8669-e055553e1b92"},"vehicle_type_id":"4","last_reported":1752275440,"current_range_meters":20000,"station_id":"ce4bh0p2rcd13ifvqd80","pricing_plan_id":"cebpf4jnsgd1na2vs0mg"},{"bike_id":"844b44b6-4e33-4917-878d-a3c647561239","system_id":"levelo_inurba_marseille","lat":43.30756,"lon":5.42491,"is_reserved":false,"is_disabled":false,"rental_uris":{"android":"levelo://app?vid=844b44b6-4e33-4917-878d-a3c647561239","ios":"levelo://app?vid=844b44b6-4e33-4917-878d-a3c647561239"},"vehicle_type_id":"4","last_reported":1752275440,"current_range_meters":20000,"station_id":"st_cvj6ca6bvosntc0bfgr0","pricing_plan_id":"cebpf4jnsgd1na2vs0mg"},{"bike_id":"f2333309-b282-4c12-9bf2-c02e73807477","system_id":"levelo_inurba_marseille","lat":43.3021,"lon":5.39475,"is_reserved":false,"is_disabled":false,"rental_uris":{"android":"levelo://app?vid=f2333309-b282-4c12-9bf2-c02e73807477","ios":"levelo://app?vid=f2333309-b282-4c12-9bf2-c02e73807477"},"vehicle_type_id":"4","last_reported":1752275440,"current_range_meters":19600,"station_id":"ce4bh0p2rcd13ifvqd70","pricing_plan_id":"cebpf4jnsgd1na2vs0mg"},{"bike_id":"7c36ceb0-fdf8-402c-ab17-6aaf17865cf2","system_id":"levelo_inurba_marseille","lat":43.29619,"lon":5.40617,"is_reserved":false,"is_disabled":false,"rental_uris":{"android":"levelo://app?vid=7c36ceb0-fdf8-402c-ab17-6aaf17865cf2","ios":"levelo://app?vid=7c36ceb0-fdf8-402c-ab17-6aaf17865cf2"},"vehicle_type_id":"4","last_reported":1752275440,"current_range_meters":20000,"station_id":"ce4bh0h2rcd13ifvqd60","pricing_plan_id":"cebpf4jnsgd1na2vs0mg"},{"bike_id":"141acd88-7ba0-4bed-8068-c3249a5b1382","system_id":"levelo_inurba_marseille","lat":43.27539,"lon":5.38446,"is_reserved":false,"is_disabled":false,"rental_uris":{"android":"levelo://app?vid=141acd88-7ba0-4bed-8068-c3249a5b1382","ios":"levelo://app?vid=141acd88-7ba0-4bed-8068-c3249a5b1382"},"vehicle_type_id":"4","last_reported":1752275440,"current_range_meters":20000,"station_id":"ce4bhh92rcd13ifvqfi0","pricing_plan_id":"cebpf4jnsgd1na2vs0mg"},{"bike_id":"15c005ca-52e7-4b89-8afe-4bc56f68590a","system_id":"levelo_inurba_marseille","lat":43.26537,"lon":5.39048,"is_reserved":false,"is_disabled":false,"rental_uris":{"android":"levelo://app?vid=15c005ca-52e7-4b89-8afe-4bc56f68590a","ios":"levelo://app?vid=15c005ca-52e7-4b89-8afe-4bc56f68590a"},"vehicle_type_id":"4","last_reported":1752275440,"current_range_meters":20000,"station_id":"ce4bhe12rcd13ifvqf30","pricing_plan_id":"cebpf4jnsgd1na2vs0mg"},{"bike_id":"5af35bc3-c835-45dc-8089-0d78e9c38b02","system_id":"levelo_inurba_marseille","lat":43.27904,"lon":5.38,"is_reserved":false,"is_disabled":false,"rental_uris":{"android":"levelo://app?vid=5af35bc3-c835-45dc-8089-0d78e9c38b02","ios":"levelo://app?vid=5af35bc3-c835-45dc-8089-0d78e9c38b02"},"vehicle_type_id":"4","last_reported":1752275440,"current_range_meters":20000,"station_id":"ce4bhf92rcd13ifvqf50","pricing_plan_id":"cebpf4jnsgd1na2vs0mg"},{"bike_id":"9d0d85e3-ee19-452d-93c5-fbfc98a09acf","system_id":"levelo_inurba_marseille","lat":43.29506,"lon":5.43849,"is_reserved":false,"is_disabled":false,"rental_uris":{"android":"levelo://app?vid=9d0d85e3-ee19-452d-93c5-fbfc98a09acf","ios":"levelo://app?vid=9d0d85e3-ee19-452d-93c5-fbfc98a09acf"},"vehicle_type_id":"4","last_reported":1752275440,"current_range_meters":20000,"station_id":"","pricing_plan_id":"cebpf4jnsgd1na2vs0mg"},{"bike_id":"90bfb8be-9a24-45c6-96ad-3024e5cd10c8","system_id":"levelo_inurba_marseille","lat":43.30138,"lon":5.38785,"is_reserved":false,"is_disabled":false,"rental_uris":{"android":"levelo://app?vid=90bfb8be-9a24-45c6-96ad-3024e5cd10c8","ios":"levelo://app?vid=90bfb8be-9a24-45c6-96ad-3024e5cd10c8"},"vehicle_type_id":"4","last_reported":1752275440,"current_range_meters":20400,"station_id":"ce4bghh2rcd13ifvqb60","pricing_plan_id":"cebpf4jnsgd1na2vs0mg"},{"bike_id":"c54a2283-c584-4ad1-ba78-5d0dee8ff4c4","system_id":"levelo_inurba_marseille","lat":43.321091,"lon":5.36768,"is_reserved":false,"is_disabled":false,"rental_uris":{"android":"levelo://app?vid=c54a2283-c584-4ad1-ba78-5d0dee8ff4c4","ios":"levelo://app?vid=c54a2283-c584-4ad1-ba78-5d0dee8ff4c4"},"vehicle_type_id":"4","last_reported":1752275440,"current_range_meters":20400,"station_id":"","pricing_plan_id":"cebpf4jnsgd1na2vs0mg"},{"bike_id":"b64935a2-d62d-4b74-8b2e-4bce2f3e3f6f","system_id":"levelo_inurba_marseille","lat":43.29558,"lon":5.39983,"is_reserved":false,"is_disabled":false,"rental_uris":{"android":"levelo://app?vid=b64935a2-d62d-4b74-8b2e-4bce2f3e3f6f","ios":"levelo://app?vid=b64935a2-d62d-4b74-8b2e-4bce2f3e3f6f"},"vehicle_type_id":"4","last_reported":1752275440,"current_range_meters":20400,"station_id":"ce4bh312rcd13ifvqdj0","pricing_plan_id":"cebpf4jnsgd1na2vs0mg"},{"bike_id":"e28614da-6327-44ab-bb6c-79e7989bd49b","system_id":"levelo_inurba_marseille","lat":43.28939,"lon":5.38604,"is_reserved":false,"is_disabled":false,"rental_uris":{"android":"levelo://app?vid=e28614da-6327-44ab-bb6c-79e7989bd49b","ios":"levelo://app?vid=e28614da-6327-44ab-bb6c-79e7989bd49b"},"vehicle_type_id":"4","last_reported":1752275440,"current_range_meters":20000,"station_id":"ce4bh4p2rcd13ifvqe0g","pricing_plan_id":"cebpf4jnsgd1na2vs0mg"},{"bike_id":"8f547849-f065-4461-b629-ebc64b9eae93","system_id":"levelo_inurba_marseille","lat":43.31492,"lon":5.37313,"is_reserved":false,"is_disabled":false,"rental_uris":{"android":"levelo://app?vid=8f547849-f065-4461-b629-ebc64b9eae93","ios":"levelo://app?vid=8f547849-f065-4461-b629-ebc64b9eae93"},"vehicle_type_id":"4","last_reported":1752275440,"current_range_meters":20400,"station_id":"ce4bgt12rcd13ifvqcd0","pricing_plan_id":"cebpf4jnsgd1na2vs0mg"},{"bike_id":"fca7f33a-4f3d-44ac-bf6b-be967adaabdb","system_id":"levelo_inurba_marseille","lat":43.24089,"lon":5.37777,"is_reserved":false,"is_disabled":false,"rental_uris":{"android":"levelo://app?vid=fca7f33a-4f3d-44ac-bf6b-be967adaabdb","ios":"levelo://app?vid=fca7f33a-4f3d-44ac-bf6b-be967adaabdb"},"vehicle_type_id":"4","last_reported":1752275440,"current_range_meters":20400,"station_id":"ce4bhnp2rcd13ifvqgvg","pricing_plan_id":"cebpf4jnsgd1na2vs0mg"},{"bike_id":"6865ba0c-a3ce-4380-858b-bc7d6b3ec678","system_id":"levelo_inurba_marseille","lat":43.28708,"lon":5.39979,"is_reserved":false,"is_disabled":false,"rental_uris":{"android":"levelo://app?vid=6865ba0c-a3ce-4380-858b-bc7d6b3ec678","ios":"levelo://app?vid=6865ba0c-a3ce-4380-858b-bc7d6b3ec678"},"vehicle_type_id":"4","last_reported":1752275440,"current_range_meters":20400,"station_id":"ce4bho92rcd13ifvqh3g","pricing_plan_id":"cebpf4jnsgd1na2vs0mg"},