{"last_updated":1751286071,"ttl":60,"version":"2.2","data":{"bikes":[{"bike_id":"3da29fb8-fc97-44c6-b9ac-31dd456b2fd4","system_id":"levelo_inurba_marseille","lat":43.33771,"lon":5.37424,"is_reserved":false,"is_disabled":true,"rental_uris":{"android":"levelo://app?vid=3da29fb8-fc97-44c6-b9ac-31dd456b2fd4","ios":"levelo://app?vid=3da29fb8-fc97-44c6-b9ac-31dd456b2fd4"},"vehicle_type_id":"4","last_reported":1751286071,"current_range_meters":0,"station_id":"","pricing_plan_id":"cebpf4jnsgd1na2vs0mg"},{"bike_id":"01861ad8-a8d7-4be6-816e-651927c87584","system_id":"levelo_inurba_marseille","lat":43.33751,"lon":5.37456,"is_reserved":false,"is_disabled":true,"rental_uris":{"android":"levelo://app?vid=01861ad8-a8d7-4be6-816e-651927c87584","ios":"levelo://app?vid=01861ad8-a8d7-4be6-816e-651927c87584"},"vehicle_type_id":"4","last_reported":1751286071,"current_range_meters":0,"station_id":"","pricing_plan_id":"cebpf4jnsgd1na2vs0mg"},{"bike_id":"f1483ff6-ae8a-4286-a635-7d40887e3e92","system_id":"levelo_inurba_marseille","lat":43.26965,"lon":5.36606,"is_reserved":false,"is_disabled":true,"rental_uris":{"android":"levelo://app?vid=f1483ff6-ae8a-4286-a635-7d40887e3e92","ios":"levelo://app?vid=f1483ff6-ae8a-4286-a635-7d40887e3e92"},"vehicle_type_id":"4","last_reported":1751286071,"current_range_meters":0,"station_id":"","pricing_plan_id":"cebpf4jnsgd1na2vs0mg"},{"bike_id":"764f406e-b080-4f4e-a9e5-96f205f8e436","system_id":"levelo_inurba_marseille","lat":43.31355,"lon":5.3668,"is_reserved":false,"is_disabled":true,"rental_uris":{"android":"levelo://app?vid=764f406e-b080-4f4e-a9e5-96f205f8e436","ios":"levelo://app?vid=764f406e-b080-4f4e-a9e5-96f205f8e436"},"vehicle_type_id":"4","last_reported":1751286071,"current_range_meters":0,"station_id":"ce4bgr92rcd13ifvqc6g","pricing_plan_id":"cebpf4jnsgd1na2vs0mg"},{"bike_id":"b351e0ad-f32b-4af7-b1c5-a9ef5fea8259","system_id":"levelo_inurba_marseille","lat":43.30951,"lon":5.39029,"is_reserved":false,"is_disabled":true,"rental_uris":{"android":"levelo://app?vid=b351e0ad-f32b-4af7-b1c5-a9ef5fea8259","ios":"levelo://app?vid=b351e0ad-f32b-4af7-b1c5-a9ef5fea8259"},"vehicle_type_id":"4","last_reported":1751286071,"current_range_meters":0,"station_id":"ce4bgup2rcd13ifvqco0","pricing_plan_id":"cebpf4jnsgd1na2vs0mg"},{"bike_id":"1e76de82-2b67-440f-857f-f485c0f83de9","system_id":"levelo_inurba_marseille","lat":43.3168,"lon":5.40472,"is_reserved":false,"is_disabled":true,"rental_uris":{"android":"levelo://app?vid=1e76de82-2b67-440f-857f-f485c0f83de9","ios":"levelo://app?vid=1e76de82-2b67-440f-857f-f485c0f83de9"},"vehicle_type_id":"4","last_reported":1751286071,"current_range_meters":0,"station_id":"ce4bh012rcd13ifvqd00","pricing_plan_id":"cebpf4jnsgd1na2vs0mg"},{"bike_id":"dfd383cf-5ae8-4e3f-a61e-af80f3574d29","system_id":"levelo_inurba_marseille","lat":43.28613,"lon":5.35107,"is_reserved":false,"is_disabled":true,"rental_uris":{"android":"levelo://app?vid=dfd383cf-5ae8-4e3f-a61e-af80f3574d29","ios":"levelo://app?vid=dfd383cf-5ae8-4e3f-a61e-af80f3574d29"},"vehicle_type_id":"4","last_reported":1751286071,"current_range_meters":0,"station_id":"ce4bhch2rcd13ifvqeug","pricing_plan_id":"cebpf4jnsgd1na2vs0mg"},{"bike_id":"6d1c82d4-8882-4bd7-ae3a-fff550adc053","system_id":"levelo_inurba_marseille","lat":43.266841,"lon":5.382712,"is_reserved":false,"is_disabled":true,"rental_uris":{"android":"levelo://app?vid=6d1c82d4-8882-4bd7-ae3a-fff550adc053","ios":"levelo://app?vid=6d1c82d4-8882-4bd7-ae3a-fff550adc053"},"vehicle_type_id":"4","last_reported":1751286071,"current_range_meters":0,"station_id":"ce4bhgp2rcd13ifvqfc0","pricing_plan_id":"cebpf4jnsgd1na2vs0mg"},{"bike_id":"bb39be11-6860-4117-92d0-cb1a60e34edc","system_id":"levelo_inurba_marseille","lat":43.2318,"lon":5.39986,"is_reserved":false,"is_disabled":true,"rental_uris":{"android":"levelo://app?vid=bb39be11-6860-4117-92d0-cb1a60e34edc","ios":"levelo://app?vid=bb39be11-6860-4117-92d0-cb1a60e34edc"},"vehicle_type_id":"4","last_reported":1751286071,"current_range_meters":0,"station_id":"ce4bhn12rcd13ifvqgqg","pricing_plan_id":"cebpf4jnsgd1na2vs0mg"},{"bike_id":"b7d0d8a1-c5dd-4278-8b3b-f5786872fe32","system_id":"levelo_inurba_marseille","lat":43.32106,"lon":5.36772,"is_reserved":false,"is_disabled":true,"rental_uris":{"android":"levelo://app?vid=b7d0d8a1-c5dd-4278-8b3b-f5786872fe32","ios":"levelo://app?vid=b7d0d8a1-c5dd-4278-8b3b-f5786872fe32"},"vehicle_type_id":"4","last_reported":1751286071,"current_range_meters":0,"station_id":"ce4bhrh2rcd13ifvqhug","pricing_plan_id":"cebpf4jnsgd1na2vs0mg"},{"bike_id":"9b694216-7aa5-4d24-a6d9-5f176aaa63e7","system_id":"levelo_inurba_marseille","lat":43.28348,"lon":5.38114,"is_reserved":false,"is_disabled":true,"rental_uris":{"android":"levelo://app?vid=9b694216-7aa5-4d24-a6d9-5f176aaa63e7","ios":"levelo://app?vid=9b694216-7aa5-4d24-a6d9-5f176aaa63e7"},"vehicle_type_id":"4","last_reported":1751286071,"current_range_meters":400,"station_id":"ce4bh412rcd13ifvqdr0","pricing_plan_id":"cebpf4jnsgd1na2vs0mg"},{"bike_id":"04b0cf8d-2e53-4eec-a93b-4a4826ab91fa","system_id":"levelo_inurba_marseille","lat":43.27963,"lon":5.38734,"is_reserved":false,"is_disabled":true,"rental_uris":{"android":"levelo://app?vid=04b0cf8d-2e53-4eec-a93b-4a4826ab91fa","ios":"levelo://app?vid=04b0cf8d-2e53-4eec-a93b-4a4826ab91fa"},"vehicle_type_id":"4","last_reported":1751286071,"current_range_meters":400,"station_id":"ce4bhg12rcd13ifvqf80","pricing_plan_id":"cebpf4jnsgd1na2vs0mg"},{"bike_id":"29e697ca-26a6-4412-8107-f2c74b259edc","system_id":"levelo_inurba_marseille","lat":43.2418,"lon":5.38417,"is_reserved":false,"is_disabled":true,"rental_uris":{"android":"levelo://app?vid=29e697ca-26a6-4412-8107-f2c74b259edc","ios":"levelo://app?vid=29e697ca-26a6-4412-8107-f2c74b259edc"},"vehicle_type_id":"4","last_reported":1751286071,"current_range_meters":800,"station_id":"","pricing_plan_id":"cebpf4jnsgd1na2vs0mg"},{"bike_id":"85eb80f1-fdf8-4910-9983-416402de22ff","system_id":"levelo_inurba_marseille","lat":43.276998,"lon":5.415423,"is_reserved":false,"is_disabled":true,"rental_uris":{"android":"levelo://app?vid=85eb80f1-fdf8-4910-9983-416402de22ff","ios":"levelo://app?vid=85eb80f1-fdf8-4910-9983-416402de22ff"},"vehicle_type_id":"4","last_reported":1751286071,"current_range_meters":1200,"station_id":"","pricing_plan_id":"cebpf4jnsgd1na2vs0mg"},{"bike_id":"4bb4a733-a9bd-4772-9320-a8c7885ff73b","system_id":"levelo_inurba_marseille","lat":43.27767,"lon":5.3559,"is_reserved":false,"is_disabled":true,"rental_uris":{"android":"levelo://app?vid=4bb4a733-a9bd-4772-9320-a8c7885ff73b","ios":"levelo://app?vid=4bb4a733-a9bd-4772-9320-a8c7885ff73b"},"vehicle_type_id":"4","last_reported":1751286071,"current_range_meters":1200,"station_id":"","pricing_plan_id":"cebpf4jnsgd1na2vs0mg"},{"bike_id":"c540399e-1cf2-4374-bcab-3c13428862fb","system_id":"levelo_inurba_marseille","lat":43.3095,"lon":5.39036,"is_reserved":false,"is_disabled":true,"rental_uris":{"android":"levelo://app?vid=c540399e-1cf2-4374-bcab-3c13428862fb","ios":"levelo://app?vid=c540399e-1cf2-4374-bcab-3c13428862fb"},"vehicle_type_id":"4","last_reported":1751286071,"current_range_meters":1200,"station_id":"ce4bgup2rcd13ifvqco0","pricing_plan_id":"cebpf4jnsgd1na2vs0mg"},{"bike_id":"05e2a4f9-c12a-45dd-8837-4a9f2d8837c1","system_id":"levelo_inurba_marseille","lat":43.288361,"lon":5.392929,"is_reserved":false,"is_disabled":true,"rental_uris":{"android":"levelo://app?vid=05e2a4f9-c12a-45dd-8837-4a9f2d8837c1","ios":"levelo://app?vid=05e2a4f9-c12a-45dd-8837-4a9f2d8837c1"},"vehicle_type_id":"4","last_reported":1751286071,"current_range_meters":1200,"station_id":"ce4bh2p2rcd13ifvqdi0","pricing_plan_id":"cebpf4jnsgd1na2vs0mg"},{"bike_id":"299a3488-a12f-4558-8132-5492cd78fbe1","system_id":"levelo_inurba_marseille","lat":43.28472,"lon":5.38414,"is_reserved":false,"is_disabled":true,"rental_uris":{"android":"levelo://app?vid=299a3488-a12f-4558-8132-5492cd78fbe1","ios":"levelo://app?vid=299a3488-a12f-4558-8132-5492cd78fbe1"},"vehicle_type_id":"4","last_reported":1751286071,"current_range_meters":1200,"station_id":"ce4bh512rcd13ifvqe3g","pricing_plan_id":"cebpf4jnsgd1na2vs0mg"},{"bike_id":"4e44007a-e7d2-45cc-8986-ec7a6b311e7f","system_id":"levelo_inurba_marseille","lat":43.29006,"lon":5.35614,"is_reserved":false,"is_disabled":true,"rental_uris":{"android":"levelo://app?vid=4e44007a-e7d2-45cc-8986-ec7a6b311e7f","ios":"levelo://app?vid=4e44007a-e7d2-45cc-8986-ec7a6b311e7f"},"vehicle_type_id":"4","last_reported":1751286071,"current_range_meters":1200,"station_id":"ce4bhb92rcd13ifvqen0","pricing_plan_id":"cebpf4jnsgd1na2vs0mg"},{"bike_id":"3488293c-2b47-4e9a-9df4-004c5cadd130","system_id":"levelo_inurba_marseille","lat":43.25943,"lon":5.40904,"is_reserved":false,"is_disabled":true,"rental_uris":{"android":"levelo://app?vid=3488293c-2b47-4e9a-9df4-004c5cadd130","ios":"levelo://app?vid=3488293c-2b47-4e9a-9df4-004c5cadd130"},"vehicle_type_id":"4","last_reported":1751286071,"current_range_meters":1200,"station_id":"ce4bhm92rcd13ifvqglg","pricing_plan_id":"cebpf4jnsgd1na2vs0mg"},{"bike_id":"24c2734e-8f13-46b5-ab15-4dd68fc9dac0","system_id":"levelo_inurba_marseille","lat":43.30958,"lon":5.39036,"is_reserved":false,"is_disabled":true,"rental_uris":{"android":"levelo://app?vid=24c2734e-8f13-46b5-ab15-4dd68fc9dac0","ios":"levelo://app?vid=24c2734e-8f13-46b5-ab15-4dd68fc9dac0"},"vehicle_type_id":"4","last_reported":1751286071,"current_range_meters":1600,"station_id":"ce4bgup2rcd13ifvqco0","pricing_plan_id":"cebpf4jnsgd1na2vs0mg"},{"bike_id":"65fc1e2f-e29f-45f4-a100-72d7eb31bbb1","system_id":"levelo_inurba_marseille","lat":43.30955,"lon":5.39029,"is_reserved":false,"is_disabled":true,"rental_uris":{"android":"levelo://app?vid=65fc1e2f-e29f-45f4-a100-72d7eb31bbb1","ios":"levelo://app?vid=65fc1e2f-e29f-45f4-a100-72d7eb31bbb1"},"vehicle_type_id":"4","last_reported":1751286071,"current_range_meters":1600,"station_id":"ce4bgup2rcd13ifvqco0","pricing_plan_id":"cebpf4jnsgd1na2vs0mg"},{"bike_id":"8d728f76-bf83-4ec0-a784-05f14b8689a8","system_id":"levelo_inurba_marseille","lat":43.2417,"lon":5.36391,"is_reserved":false,"is_disabled":true,"rental_uris":{"android":"levelo://app?vid=8d728f76-bf83-4ec0-a784-05f14b8689a8","ios":"levelo://app?vid=8d728f76-bf83-4ec0-a784-05f14b8689a8"},"vehicle_type_id":"4","last_reported":1751286071,"current_range_meters":1600,"station_id":"cpo36qri1sfpv3e86is0","pricing_plan_id":"cebpf4jnsgd1na2vs0mg"},{"bike_id":"c3da1042-6870-4f4b-91a1-366cef676576","system_id":"levelo_inurba_marseille","lat":43.29029,"lon":5.38146,"is_reserved":false,"is_disabled":true,"rental_uris":{"android":"levelo://app?vid=c3da1042-6870-4f4b-91a1-366cef676576","ios":"levelo://app?vid=c3da1042-6870-4f4b-91a1-366cef676576"},"vehicle_type_id":"4","last_reported":1751286071,"current_range_meters":2000,"station_id":"ce4bh4p2rcd13ifvqe1g","pricing_plan_id":"cebpf4jnsgd1na2vs0mg"},{"bike_id":"89376e6b-49bd-4792-9032-c2c86aa10546","system_id":"levelo_inurba_marseille","lat":43.24392,"lon":5.37063,"is_reserved":false,"is_disabled":true,"rental_uris":{"android":"levelo://app?vid=89376e6b-49bd-4792-9032-c2c86aa10546","ios":"levelo://app?vid=89376e6b-49bd-4792-9032-c2c86aa10546"},"vehicle_type_id":"4","last_reported":1751286071,"current_range_meters":2000,"station_id":"ce4bhhh2rcd13ifvqfk0","pricing_plan_id":"cebpf4jnsgd1na2vs0mg"},{"bike_id":"a1b372af-7106-45cd-9c8e-cc4a565a461a","system_id":"levelo_inurba_marseille","lat":43.27069,"lon":5.42285,"is_reserved":false,"is_disabled":true,"rental_uris":{"android":"levelo://app?vid=a1b372af-7106-45cd-9c8e-cc4a565a461a","ios":"levelo://app?vid=a1b372af-7106-45cd-9c8e-cc4a565a461a"},"vehicle_type_id":"4","last_reported":1751286071,"current_range_meters":2000,"station_id":"ce4bhk92rcd13ifvqgb0","pricing_plan_id":"cebpf4jnsgd1na2vs0mg"},{"bike_id":"b0c66422-02e6-4981-919b-11d1b6c77736","system_id":"levelo_inurba_marseille","lat":43.268065,"lon":5.402571,"is_reserved":false,"is_disabled":true,"rental_uris":{"android":"levelo://app?vid=b0c66422-02e6-4981-919b-11d1b6c77736","ios":"levelo://app?vid=b0c66422-02e6-4981-919b-11d1b6c77736"},"vehicle_type_id":"4","last_reported":1751286071,"current_range_meters":2000,"station_id":"ce501612rcd8frsf0b60","pricing_plan_id":"cebpf4jnsgd1na2vs0mg"},{"bike_id":"9640febe-0408-4479-856b-c3075f19feea","system_id":"levelo_inurba_marseille","lat":43.26954,"lon":5.40288,"is_reserved":false,"is_disabled":true,"rental_uris":{"android":"levelo://app?vid=9640febe-0408-4479-856b-c3075f19feea","ios":"levelo://app?vid=9640febe-0408-4479-856b-c3075f19feea"},"vehicle_type_id":"4","last_reported":1751286071,"current_range_meters":2000,"station_id":"cjm6bp8fraef2m0cb0m0","pricing_plan_id":"cebpf4jnsgd1na2vs0mg"},{"bike_id":"f1c4fcee-b5e5-4cd3-9d7f-38f660d75ab4","system_id":"levelo_inurba_marseille","lat":43.21745,"lon":5.34594,"is_reserved":false,"is_disabled":true,"rental_uris":{"android":"levelo://app?vid=f1c4fcee-b5e5-4cd3-9d7f-38f660d75ab4","ios":"levelo://app?vid=f1c4fcee-b5e5-4cd3-9d7f-38f660d75ab4"},"vehicle_type_id":"4","last_reported":1751286071,"current_range_meters":2000,"station_id":"st_cvj6r9ubvosntc0bgbag","pricing_plan_id":"cebpf4jnsgd1na2vs0mg"},{"bike_id":"a37e8def-144c-4d8d-aabf-950aca51f939","system_id":"levelo_inurba_marseille","lat":43.297702,"lon":5.38121,"is_reserved":false,"is_disabled":false,"rental_uris":{"android":"levelo://app?vid=a37e8def-144c-4d8d-aabf-950aca51f939","ios":"levelo://app?vid=a37e8def-144c-4d8d-aabf-950aca51f939"},"vehicle_type_id":"4","last_reported":1751286071,"current_range_meters":2800,"station_id":"","pricing_plan_id":"cebpf4jnsgd1na2vs0mg"},{"bike_id":"9e163c86-36ef-4269-bcd8-6c9e6f4075a0","system_id":"levelo_inurba_marseille","lat":43.30301,"lon":5.37155,"is_reserved":false,"is_disabled":false,"rental_uris":{"android":"levelo://app?vid=9e163c86-36ef-4269-bcd8-6c9e6f4075a0","ios":"levelo://app?vid=9e163c86-36ef-4269-bcd8-6c9e6f4075a0"},"vehicle_type_id":"4","last_reported":1751286071,"current_range_meters":2800,"station_id":"","pricing_plan_id":"cebpf4jnsgd1na2vs0mg"},{"bike_id":"3b55baee-9d20-4bdc-9689-a9e74dd8e41d","system_id":"levelo_inurba_marseille","lat":43.257244,"lon":5.411092,"is_reserved":false,"is_disabled":false,"rental_uris":{"android":"levelo://app?vid=3b55baee-9d20-4bdc-9689-a9e74dd8e41d","ios":"levelo://app?vid=3b55baee-9d20-4bdc-9689-a9e74dd8e41d"},"vehicle_type_id":"4","last_reported":1751286071,"current_range_meters":2800,"station_id":"ce4bhkp2rcd13ifvqgd0","pricing_plan_id":"cebpf4jnsgd1na2vs0mg"},{"bike_id":"7d0dc8b5-996a-45d7-9267-3e582f401392","system_id":"levelo_inurba_marseille","lat":43.23152,"lon":5.43725,"is_reserved":false,"is_disabled":false,"rental_uris":{"android":"levelo://app?vid=7d0dc8b5-996a-45d7-9267-3e582f401392","ios":"levelo://app?vid=7d0dc8b5-996a-45d7-9267-3e582f401392"},"vehicle_type_id":"4","last_reported":1751286071,"current_range_meters":2800,"station_id":"ce4bhmp2rcd13ifvqgog","pricing_plan_id":"cebpf4jnsgd1na2vs0mg"},{"bike_id":"3f055629-3057-451d-bd86-7760d89614af","system_id":"levelo_inurba_marseille","lat":43.320433,"lon":5.415325,"is_reserved":false,"is_disabled":false,"rental_uris":{"android":"levelo://app?vid=3f055629-3057-451d-bd86-7760d89614af","ios":"levelo://app?vid=3f055629-3057-451d-bd86-7760d89614af"},"vehicle_type_id":"4","last_reported":1751286071,"current_range_meters":3200,"station_id":"ce4bhq92rcd13ifvqhkg","pricing_plan_id":"cebpf4jnsgd1na2vs0mg"},{"bike_id":"d5b5bc74-aaeb-40c0-b979-fb1a262527de","system_id":"levelo_inurba_marseille","lat":43.33258,"lon":5.35866,"is_reserved":false,"is_disabled":false,"rental_uris":{"android":"levelo://app?vid=d5b5bc74-aaeb-40c0-b979-fb1a262527de","ios":"levelo://app?vid=d5b5bc74-aaeb-40c0-b979-fb1a262527de"},"vehicle_type_id":"4","last_reported":1751286071,"current_range_meters":3600,"station_id":"","pricing_plan_id":"cebpf4jnsgd1na2vs0mg"},{"bike_id":"14d9fd99-9b30-4153-ba8e-87760ef8d31a","system_id":"levelo_inurba_marseille","lat":43.27009,"lon":5.38772,"is_reserved":false,"is_disabled":false,"rental_uris":{"android":"levelo://app?vid=14d9fd99-9b30-4153-ba8e-87760ef8d31a","ios":"levelo://app?vid=14d9fd99-9b30-4153-ba8e-87760ef8d31a"},"vehicle_type_id":"4","last_reported":1751286071,"current_range_meters":4000,"station_id":"","pricing_plan_id":"cebpf4jnsgd1na2vs0mg"},{"bike_id":"6445cc03-f0ad-4833-bf37-aec5b859b6be","system_id":"levelo_inurba_marseille","lat":43.26356,"lon":5.40109,"is_reserved":false,"is_disabled":false,"rental_uris":{"android":"levelo://app?vid=6445cc03-f0ad-4833-bf37-aec5b859b6be","ios":"levelo://app?vid=6445cc03-f0ad-4833-bf37-aec5b859b6be"},"vehicle_type_id":"4","last_reported":1751286071,"current_range_meters":4000,"station_id":"","pricing_plan_id":"cebpf4jnsgd1na2vs0mg"},{"bike_id":"26a90510-49b0-46b8-a310-571476ba1ab0","system_id":"levelo_inurba_marseille","lat":43.23154,"lon":5.43713,"is_reserved":false,"is_disabled":false,"rental_uris":{"android":"levelo://app?vid=26a90510-49b0-46b8-a310-571476ba1ab0","ios":"levelo://app?vid=26a90510-49b0-46b8-a310-571476ba1ab0"},"vehicle_type_id":"4","last_reported":1751286071,"current_range_meters":4000,"station_id":"ce4bhmp2rcd13ifvqgog","pricing_plan_id":"cebpf4jnsgd1na2vs0mg"},{"bike_id":"95a06383-be97-4f68-b6db-206c87d7c056","system_id":"levelo_inurba_marseille","lat":43.29617,"lon":5.37719,"is_reserved":false,"is_disabled":false,"rental_uris":{"android":"levelo://app?vid=95a06383-be97-4f68-b6db-206c87d7c056","ios":"levelo://app?vid=95a06383-be97-4f68-b6db-206c87d7c056"},"vehicle_type_id":"4","last_reported":1751286071,"current_range_meters":4400,"station_id":"ce4bgi92rcd13ifvqb90","pricing_plan_id":"cebpf4jnsgd1na2vs0mg"},{"bike_id":"f1a13b49-32d3-4e27-b6d4-e1a64e7d0d44","system_id":"levelo_inurba_marseille","lat":43.29031,"lon":5.38658,"is_reserved":false,"is_disabled":false,"rental_uris":{"android":"levelo://app?vid=f1a13b49-32d3-4e27-b6d4-e1a64e7d0d44","ios":"levelo://app?vid=f1a13b49-32d3-4e27-b6d4-e1a64e7d0d44"},"vehicle_type_id":"4","last_reported":1751286071,"current_range_meters":4400,"station_id":"ce4bh4p2rcd13ifvqe0g","pricing_plan_id":"cebpf4jnsgd1na2vs0mg"},{"bike_id":"9976d630-087d-4040-a306-8079efcee7af","system_id":"levelo_inurba_marseille","lat":43.296173,"lon":5.371713,"is_reserved":false,"is_disabled":false,"rental_uris":{"android":"levelo://app?vid=9976d630-087d-4040-a306-8079efcee7af","ios":"levelo://app?vid=9976d630-087d-4040-a306-8079efcee7af"},"vehicle_type_id":"4","last_reported":1751286071,"current_range_meters":4800,"station_id":"ce4bgnh2rcd13ifvqc0g","pricing_plan_id":"cebpf4jnsgd1na2vs0mg"},{"bike_id":"1392b63b-f116-45ff-a253-d2ae42bfcfb3","system_id":"levelo_inurba_marseille","lat":43.27379,"lon":5.36259,"is_reserved":false,"is_disabled":false,"rental_uris":{"android":"levelo://app?vid=1392b63b-f116-45ff-a253-d2ae42bfcfb3","ios":"levelo://app?vid=1392b63b-f116-45ff-a253-d2ae42bfcfb3"},"vehicle_type_id":"4","last_reported":1751286071,"current_range_meters":4800,"station_id":"ce4bhbh2rcd13ifvqeo0","pricing_plan_id":"cebpf4jnsgd1na2vs0mg"},{"bike_id":"2ff54923-0f05-4d07-aacc-d62577cdd530","system_id":"levelo_inurba_marseille","lat":43.33621,"lon":5.41051,"is_reserved":false,"is_disabled":false,"rental_uris":{"android":"levelo://app?vid=2ff54923-0f05-4d07-aacc-d62577cdd530","ios":"levelo://app?vid=2ff54923-0f05-4d07-aacc-d62577cdd530"},"vehicle_type_id":"4","last_reported":1751286071,"current_range_meters":4800,"station_id":"ce4bhqh2rcd13ifvqhmg","pricing_plan_id":"cebpf4jnsgd1na2vs0mg"},{"bike_id":"87985e62-2823-4157-8a35-599ee9a377ab","system_id":"levelo_inurba_marseille","lat":43.21194,"lon":5.35064,"is_reserved":false,"is_disabled":false,"rental_uris":{"android":"levelo://app?vid=87985e62-2823-4157-8a35-599ee9a377ab","ios":"levelo://app?vid=87985e62-2823-4157-8a35-599ee9a377ab"},"vehicle_type_id":"4","last_reported":1751286071,"current_range_meters":4800,"station_id":"st_cvj6sg6p6f1abm77japg","pricing_plan_id":"cebpf4jnsgd1na2vs0mg"},{"bike_id":"890edba6-d3a5-4a1d-862d-1b7387240037","system_id":"levelo_inurba_marseille","lat":43.25579,"lon":5.38236,"is_reserved":false,"is_disabled":false,"rental_uris":{"android":"levelo://app?vid=890edba6-d3a5-4a1d-862d-1b7387240037","ios":"levelo://app?vid=890edba6-d3a5-4a1d-862d-1b7387240037"},"vehicle_type_id":"4","last_reported":1751286071,"current_range_meters":5600,"station_id":"ce4bhih2rcd13ifvqfs0","pricing_plan_id":"cebpf4jnsgd1na2vs0mg"},{"bike_id":"ad03fcb5-0dc2-426c-be7d-b75eefed7d5c","system_id":"levelo_inurba_marseille","lat":43.26224,"lon":5.40451,"is_reserved":false,"is_disabled":false,"rental_uris":{"android":"levelo://app?vid=ad03fcb5-0dc2-426c-be7d-b75eefed7d5c","ios":"levelo://app?vid=ad03fcb5-0dc2-426c-be7d-b75eefed7d5c"},"vehicle_type_id":"4","last_reported":1751286071,"current_range_meters":5600,"station_id":"ce4bhmh2rcd13ifvqgmg","pricing_plan_id":"cebpf4jnsgd1na2vs0mg"},{"bike_id":"3dae9a41-1a92-4a1a-97e0-a8351d9d92d2","system_id":"levelo_inurba_marseille","lat":43.29264,"lon":5.37633,"is_reserved":false,"is_disabled":false,"rental_uris":{"android":"levelo://app?vid=3dae9a41-1a92-4a1a-97e0-a8351d9d92d2","ios":"levelo://app?vid=3dae9a41-1a92-4a1a-97e0-a8351d9d92d2"},"vehicle_type_id":"4","last_reported":1751286071,"current_range_meters":6000,"station_id":"ce4bgi12rcd13ifvqb80","pricing_plan_id":"cebpf4jnsgd1na2vs0mg"},{"bike_id":"4e2cc4fd-da60-49d1-aa55-fc6bf1ea23bc","system_id":"levelo_inurba_marseille","lat":43.30557,"lon":5.36526,"is_reserved":false,"is_disabled":false,"rental_uris":{"android":"levelo://app?vid=4e2cc4fd-da60-49d1-aa55-fc6bf1ea23bc","ios":"levelo://app?vid=4e2cc4fd-da60-49d1-aa55-fc6bf1ea23bc"},"vehicle_type_id":"4","last_reported":1751286071,"current_range_meters":6000,"station_id":"ce4bgs12rcd13ifvqcag","pricing_plan_id":"cebpf4jnsgd1na2vs0mg"},{"bike_id":"9f717349-c333-46dd-87f3-6c3101fbf7ff","system_id":"levelo_inurba_marseille","lat":43.30211,"lon":5.3947,"is_reserved":false,"is_disabled":false,"rental_uris":{"android":"levelo://app?vid=9f717349-c333-46dd-87f3-6c3101fbf7ff","ios":"levelo://app?vid=9f717349-c333-46dd-87f3-6c3101fbf7ff"},"vehicle_type_id":"4","last_reported":1751286071,"current_range_meters":6000,"station_id":"ce4bh0p2rcd13ifvqd70","pricing_plan_id":"cebpf4jnsgd1na2vs0mg"},{"bike_id":"feae55fb-fe54-4b24-8ca2-ba6cfba64aa9","system_id":"levelo_inurba_marseille","lat":43.292255,"lon":5.360631,"is_reserved":false,"is_disabled":false,"rental_uris":{"android":"levelo://app?vid=feae55fb-fe54-4b24-8ca2-ba6cfba64aa9","ios":"levelo://app?vid=feae55fb-fe54-4b24-8ca2-ba6cfba64aa9"},"vehicle_type_id":"4","last_reported":1751286071,"current_range_meters":6000,"station_id":"ce4bhbh2rcd13ifvqeqg","pricing_plan_id":"cebpf4jnsgd1na2vs0mg"},{"bike_id":"fb4c458d-f567-45c9-a995-50fd7ba7d509","system_id":"levelo_inurba_marseille","lat":43.23144,"lon":5.43715,"is_reserved":false,"is_disabled":false,"rental_uris":{"android":"levelo://app?vid=fb4c458d-f567-45c9-a995-50fd7ba7d509","ios":"levelo://app?vid=fb4c458d-f567-45c9-a995-50fd7ba7d509"},"vehicle_type_id":"4","last_reported":1751286071,"current_range_meters":6000,"station_id":"ce4bhmp2rcd13ifvqgog","pricing_plan_id":"cebpf4jnsgd1na2vs0mg"},{"bike_id":"983a43e6-41cb-4ffe-9fc3-9cd6d96bdd2a","system_id":"levelo_inurba_marseille","lat":43.31238,"lon":5.36813,"is_reserved":false,"is_disabled":false,"rental_uris":{"android":"levelo://app?vid=983a43e6-41cb-4ffe-9fc3-9cd6d96bdd2a","ios":"levelo://app?vid=983a43e6-41cb-4ffe-9fc3-9cd6d96bdd2a"},"vehicle_type_id":"4","last_reported":1751286071,"current_range_meters":6400,"station_id":"ce4bgl92rcd13ifvqbq0","pricing_plan_id":"cebpf4jnsgd1na2vs0mg"},{"bike_id":"f6e623fb-bb33-495d-a846-1b5e77bea42f","system_id":"levelo_inurba_marseille","lat":43.3048,"lon":5.37895,"is_reserved":false,"is_disabled":false,"rental_uris":{"android":"levelo://app?vid=f6e623fb-bb33-495d-a846-1b5e77bea42f","ios":"levelo://app?vid=f6e623fb-bb33-495d-a846-1b5e77bea42f"},"vehicle_type_id":"4","last_reported":1751286071,"current_range_meters":6400,"station_id":"ce4bgup2rcd13ifvqcn0","pricing_plan_id":"cebpf4jnsgd1na2vs0mg"},{"bike_id":"9ed22be1-97b8-4c08-8a3a-ac1048aa4d63","system_id":"levelo_inurba_marseille","lat":43.28361,"lon":5.38114,"is_reserved":false,"is_disabled":false,"rental_uris":{"android":"levelo://app?vid=9ed22be1-97b8-4c08-8a3a-ac1048aa4d63","ios":"levelo://app?vid=9ed22be1-97b8-4c08-8a3a-ac1048aa4d63"},"vehicle_type_id":"4","last_reported":1751286071,"current_range_meters":6400,"station_id":"ce4bh412rcd13ifvqdr0","pricing_plan_id":"cebpf4jnsgd1na2vs0mg"},{"bike_id":"29389f56-8253-45b2-9a17-2715414cfbe3","system_id":"levelo_inurba_marseille","lat":43.26198,"lon":5.37449,"is_reserved":false,"is_disabled":false,"rental_uris":{"android":"levelo://app?vid=29389f56-8253-45b2-9a17-2715414cfbe3","ios":"levelo://app?vid=29389f56-8253-45b2-9a17-2715414cfbe3"},"vehicle_type_id":"4","last_reported":1751286071,"current_range_meters":6400,"station_id":"ce4bhgp2rcd13ifvqfc0","pricing_plan_id":"cebpf4jnsgd1na2vs0mg"},{"bike_id":"0aecbe1c-846f-4a24-88fb-3b0bc61da336","system_id":"levelo_inurba_marseille","lat":43.2795,"lon":5.4105,"is_reserved":false,"is_disabled":false,"rental_uris":{"android":"levelo://app?vid=0aecbe1c-846f-4a24-88fb-3b0bc61da336","ios":"levelo://app?vid=0aecbe1c-846f-4a24-88fb-3b0bc61da336"},"vehicle_type_id":"4","last_reported":1751286071,"current_range_meters":6400,"station_id":"ce4bhnp2rcd13ifvqh0g","pricing_plan_id":"cebpf4jnsgd1na2vs0mg"},{"bike_id":"d3d46dbc-7e37-4d66-8165-fe4628f5fec8","system_id":"levelo_inurba_marseille","lat":43.2993,"lon":5.37487,"is_reserved":false,"is_disabled":false,"rental_uris":{"android":"levelo://app?vid=d3d46dbc-7e37-4d66-8165-fe4628f5fec8","ios":"levelo://app?vid=d3d46dbc-7e37-4d66-8165-fe4628f5fec8"},"vehicle_type_id":"4","last_reported":1751286071,"current_range_meters":6800,"station_id":"ce4bgjh2rcd13ifvqbg0","pricing_plan_id":"cebpf4jnsgd1na2vs0mg"},{"bike_id":"88ace19f-5099-4c38-9beb-02c2db57fc8e","system_id":"levelo_inurba_marseille","lat":43.28282,"lon":5.35072,"is_reserved":false,"is_disabled":false,"rental_uris":{"android":"levelo://app?vid=88ace19f-5099-4c38-9beb-02c2db57fc8e","ios":"levelo://app?vid=88ace19f-5099-4c38-9beb-02c2db57fc8e"},"vehicle_type_id":"4","last_reported":1751286071,"current_range_meters":6800,"station_id":"ce4bhbp2rcd13ifvqerg","pricing_plan_id":"cebpf4jnsgd1na2vs0mg"},{"bike_id":"ccb3c642-c0d0-445a-aa52-922d0e78176a","system_id":"levelo_inurba_marseille","lat":43.30909,"lon":5.36835,"is_reserved":false,"is_disabled":false,"rental_uris":{"android":"levelo://app?vid=ccb3c642-c0d0-445a-aa52-922d0e78176a","ios":"levelo://app?vid=ccb3c642-c0d0-445a-aa52-922d0e78176a"},"vehicle_type_id":"4","last_reported":1751286071,"current_range_meters":7200,"station_id":"ce4bgn92rcd13ifvqbvg","pricing_plan_id":"cebpf4jnsgd1na2vs0mg"},{"bike_id":"f79882b8-d7d9-4224-83ac-733e4453cbdf","system_id":"levelo_inurba_marseille","lat":43.30524,"lon":5.36758,"is_reserved":false,"is_disabled":false,"rental_uris":{"android":"levelo://app?vid=f79882b8-d7d9-4224-83ac-733e4453cbdf","ios":"levelo://app?vid=f79882b8-d7d9-4224-83ac-733e4453cbdf"},"vehicle_type_id":"4","last_reported":1751286071,"current_range_meters":7200,"station_id":"ce4bgrp2rcd13ifvqc9g","pricing_plan_id":"cebpf4jnsgd1na2vs0mg"},{"bike_id":"6765dee0-770a-4bfd-a80a-3fa36da7ede5","system_id":"levelo_inurba_marseille","lat":43.30978,"lon":5.39072,"is_reserved":false,"is_disabled":false,"rental_uris":{"android":"levelo://app?vid=6765dee0-770a-4bfd-a80a-3fa36da7ede5","ios":"levelo://app?vid=6765dee0-770a-4bfd-a80a-3fa36da7ede5"},"vehicle_type_id":"4","last_reported":1751286071,"current_range_meters":7200,"station_id":"ce4bgup2rcd13ifvqco0","pricing_plan_id":"cebpf4jnsgd1na2vs0mg"},{"bike_id":"b875df27-a820-47d0-980e-08e014eb2d1b","system_id":"levelo_inurba_marseille","lat":43.273794,"lon":5.36259,"is_reserved":false,"is_disabled":false,"rental_uris":{"android":"levelo://app?vid=b875df27-a820-47d0-980e-08e014eb2d1b","ios":"levelo://app?vid=b875df27-a820-47d0-980e-08e014eb2d1b"},"vehicle_type_id":"4","last_reported":1751286071,"current_range_meters":7200,"station_id":"ce4bhbh2rcd13ifvqeo0","pricing_plan_id":"cebpf4jnsgd1na2vs0mg"},{"bike_id":"7b28ebac-3c6a-43aa-aca9-7bd954b07205","system_id":"levelo_inurba_marseille","lat":43.2963,"lon":5.37942,"is_reserved":false,"is_disabled":false,"rental_uris":{"android":"levelo://app?vid=7b28ebac-3c6a-43aa-aca9-7bd954b07205","ios":"levelo://app?vid=7b28ebac-3c6a-43aa-aca9-7bd954b07205"},"vehicle_type_id":"4","last_reported":1751286071,"current_range_meters":8000,"station_id":"","pricing_plan_id":"cebpf4jnsgd1na2vs0mg"},{"bike_id":"cbe8cf16-ee4d-44dc-af26-2dea0d93d494","system_id":"levelo_inurba_marseille","lat":43.337444,"lon":5.374475,"is_reserved":false,"is_disabled":false,"rental_uris":{"android":"levelo://app?vid=cbe8cf16-ee4d-44dc-af26-2dea0d93d494","ios":"levelo://app?vid=cbe8cf16-ee4d-44dc-af26-2dea0d93d494"},"vehicle_type_id":"4","last_reported":1751286071,"current_range_meters":8000,"station_id":"","pricing_plan_id":"cebpf4jnsgd1na2vs0mg"},{"bike_id":"ce22d070-7dca-41bc-96e0-8db15489c66b","system_id":"levelo_inurba_marseille","lat":43.30551,"lon":5.36528,"is_reserved":false,"is_disabled":false,"rental_uris":{"android":"levelo://app?vid=ce22d070-7dca-41bc-96e0-8db15489c66b","ios":"levelo://app?vid=ce22d070-7dca-41bc-96e0-8db15489c66b"},"vehicle_type_id":"4","last_reported":1751286071,"current_range_meters":8000,"station_id":"ce4bgs12rcd13ifvqcag","pricing_plan_id":"cebpf4jnsgd1na2vs0mg"},{"bike_id":"d96a349c-7329-4883-8d6a-d91f78e3f168","system_id":"levelo_inurba_marseille","lat":43.29077,"lon":5.37167,"is_reserved":false,"is_disabled":false,"rental_uris":{"android":"levelo://app?vid=d96a349c-7329-4883-8d6a-d91f78e3f168","ios":"levelo://app?vid=d96a349c-7329-4883-8d6a-d91f78e3f168"},"vehicle_type_id":"4","last_reported":1751286071,"current_range_meters":8000,"station_id":"ce4bh5p2rcd13ifvqe4g","pricing_plan_id":"cebpf4jnsgd1na2vs0mg"},{"bike_id":"9d268e28-faca-45f7-8089-8b40d9b7d821","system_id":"levelo_inurba_marseille","lat":43.290767,"lon":5.371627,"is_reserved":false,"is_disabled":false,"rental_uris":{"android":"levelo://app?vid=9d268e28-faca-45f7-8089-8b40d9b7d821","ios":"levelo://app?vid=9d268e28-faca-45f7-8089-8b40d9b7d821"},"vehicle_type_id":"4","last_reported":1751286071,"current_range_meters":8000,"station_id":"ce4bh5p2rcd13ifvqe4g","pricing_plan_id":"cebpf4jnsgd1na2vs0mg"},{"bike_id":"42cf7d6e-0461-49b7-8935-e2b16e8cba60","system_id":"levelo_inurba_marseille","lat":43.26195,"lon":5.37505,"is_reserved":false,"is_disabled":false,"rental_uris":{"android":"levelo://app?vid=42cf7d6e-0461-49b7-8935-e2b16e8cba60","ios":"levelo://app?vid=42cf7d6e-0461-49b7-8935-e2b16e8cba60"},"vehicle_type_id":"4","last_reported":1751286071,"current_range_meters":8000,"station_id":"ce4bhgp2rcd13ifvqfc0","pricing_plan_id":"cebpf4jnsgd1na2vs0mg"},{"bike_id":"b05733ac-e333-4bae-a385-6c30ebf06450","system_id":"levelo_inurba_marseille","lat":43.2751,"lon":5.42452,"is_reserved":false,"is_disabled":false,"rental_uris":{"android":"levelo://app?vid=b05733ac-e333-4bae-a385-6c30ebf06450","ios":"levelo://app?vid=b05733ac-e333-4bae-a385-6c30ebf06450"},"vehicle_type_id":"4","last_reported":1751286071,"current_range_meters":8000,"station_id":"ce4bhn92rcd13ifvqgrg","pricing_plan_id":"cebpf4jnsgd1na2vs0mg"},{"bike_id":"d308c658-b19c-49c0-8014-5506ff26f69a","system_id":"levelo_inurba_marseille","lat":43.23085,"lon":5.40526,"is_reserved":false,"is_disabled":false,"rental_uris":{"android":"levelo://app?vid=d308c658-b19c-49c0-8014-5506ff26f69a","ios":"levelo://app?vid=d308c658-b19c-49c0-8014-5506ff26f69a"},"vehicle_type_id":"4","last_reported":1751286071,"current_range_meters":8400,"station_id":"","pricing_plan_id":"cebpf4jnsgd1na2vs0mg"},{"bike_id":"b93a6deb-9015-4c08-86d5-23f1715a0451","system_id":"levelo_inurba_marseille","lat":43.30437,"lon":5.38899,"is_reserved":false,"is_disabled":false,"rental_uris":{"android":"levelo://app?vid=b93a6deb-9015-4c08-86d5-23f1715a0451","ios":"levelo://app?vid=b93a6deb-9015-4c08-86d5-23f1715a0451"},"vehicle_type_id":"4","last_reported":1751286071,"current_range_meters":8400,"station_id":"ce4bgk12rcd13ifvqbi0","pricing_plan_id":"cebpf4jnsgd1na2vs0mg"},{"bike_id":"78495c3d-3e3e-4992-a0f7-696bbafc5997","system_id":"levelo_inurba_marseille","lat":43.30641,"lon":5.40091,"is_reserved":false,"is_disabled":false,"rental_uris":{"android":"levelo://app?vid=78495c3d-3e3e-4992-a0f7-696bbafc5997","ios":"levelo://app?vid=78495c3d-3e3e-4992-a0f7-696bbafc5997"},"vehicle_type_id":"4","last_reported":1751286071,"current_range_meters":8400,"station_id":"ce4bh112rcd13ifvqda0","pricing_plan_id":"cebpf4jnsgd1na2vs0mg"},{"bike_id":"d7d64aa7-3f1c-401a-afb1-2a560f7861c0","system_id":"levelo_inurba_marseille","lat":43.273833,"lon":5.362613,"is_reserved":false,"is_disabled":false,"rental_uris":{"android":"levelo://app?vid=d7d64aa7-3f1c-401a-afb1-2a560f7861c0","ios":"levelo://app?vid=d7d64aa7-3f1c-401a-afb1-2a560f7861c0"},"vehicle_type_id":"4","last_reported":1751286071,"current_range_meters":8400,"station_id":"ce4bhbh2rcd13ifvqeo0","pricing_plan_id":"cebpf4jnsgd1na2vs0mg"},{"bike_id":"e219543a-880e-4c38-aff0-63dd83878c8b","system_id":"levelo_inurba_marseille","lat":43.32092,"lon":5.36769,"is_reserved":false,"is_disabled":false,"rental_uris":{"android":"levelo://app?vid=e219543a-880e-4c38-aff0-63dd83878c8b","ios":"levelo://app?vid=e219543a-880e-4c38-aff0-63dd83878c8b"},"vehicle_type_id":"4","last_reported":1751286071,"current_range_meters":8400,"station_id":"ce4bhrh2rcd13ifvqhug","pricing_plan_id":"cebpf4jnsgd1na2vs0mg"},{"bike_id":"9fc6b39a-5532-40ac-8f58-975bced56a19","system_id":"levelo_inurba_marseille","lat":43.32586,"lon":5.40472,"is_reserved":false,"is_disabled":false,"rental_uris":{"android":"levelo://app?vid=9fc6b39a-5532-40ac-8f58-975bced56a19","ios":"levelo://app?vid=9fc6b39a-5532-40ac-8f58-975bced56a19"},"vehicle_type_id":"4","last_reported":1751286071,"current_range_meters":8800,"station_id":"","pricing_plan_id":"cebpf4jnsgd1na2vs0mg"},{"bike_id":"360cb72f-7cec-423b-b304-7f8da672b6d7","system_id":"levelo_inurba_marseille","lat":43.29857,"lon":5.37662,"is_reserved":false,"is_disabled":false,"rental_uris":{"android":"levelo://app?vid=360cb72f-7cec-423b-b304-7f8da672b6d7","ios":"levelo://app?vid=360cb72f-7cec-423b-b304-7f8da672b6d7"},"vehicle_type_id":"4","last_reported":1751286071,"current_range_meters":8800,"station_id":"","pricing_plan_id":"cebpf4jnsgd1na2vs0mg"},{"bike_id":"88b6ee5d-9775-4f69-9c81-c5a47b1c0374","system_id":"levelo_inurba_marseille","lat":43.30463,"lon":5.37902,"is_reserved":false,"is_disabled":false,"rental_uris":{"android":"levelo://app?vid=88b6ee5d-9775-4f69-9c81-c5a47b1c0374","ios":"levelo://app?vid=88b6ee5d-9775-4f69-9c81-c5a47b1c0374"},"vehicle_type_id":"4","last_reported":1751286071,"current_range_meters":8800,"station_id":"ce4bgup2rcd13ifvqcn0","pricing_plan_id":"cebpf4jnsgd1na2vs0mg"},{"bike_id":"2630b0d7-8518-44a1-b41d-4305f5c2b588","system_id":"levelo_inurba_marseille","lat":43.288553,"lon":5.393204,"is_reserved":false,"is_disabled":false,"rental_uris":{"android":"levelo://app?vid=2630b0d7-8518-44a1-b41d-4305f5c2b588","ios":"levelo://app?vid=2630b0d7-8518-44a1-b41d-4305f5c2b588"},"vehicle_type_id":"4","last_reported":1751286071,"current_range_meters":8800,"station_id":"ce4bh492rcd13ifvqdug","pricing_plan_id":"cebpf4jnsgd1na2vs0mg"},{"bike_id":"7fa6ccac-ada5-4db3-8bd2-a34729962414","system_id":"levelo_inurba_marseille","lat":43.25122,"lon":5.40318,"is_reserved":false,"is_disabled":false,"rental_uris":{"android":"levelo://app?vid=7fa6ccac-ada5-4db3-8bd2-a34729962414","ios":"levelo://app?vid=7fa6ccac-ada5-4db3-8bd2-a34729962414"},"vehicle_type_id":"4","last_reported":1751286071,"current_range_meters":8800,"station_id":"ce4bhlh2rcd13ifvqgig","pricing_plan_id":"cebpf4jnsgd1na2vs0mg"},{"bike_id":"c595d0e1-c778-4abe-9c79-a9dd74f54e27","system_id":"levelo_inurba_marseille","lat":43.244716,"lon":5.372135,"is_reserved":false,"is_disabled":false,"rental_uris":{"android":"levelo://app?vid=c595d0e1-c778-4abe-9c79-a9dd74f54e27","ios":"levelo://app?vid=c595d0e1-c778-4abe-9c79-a9dd74f54e27"},"vehicle_type_id":"4","last_reported":1751286071,"current_range_meters":9200,"station_id":"","pricing_plan_id":"cebpf4jnsgd1na2vs0mg"},{"bike_id":"9896560b-61b0-4459-a6a8-a9f718f3dacc","system_id":"levelo_inurba_marseille","lat":43.28886,"lon":5.35855,"is_reserved":false,"is_disabled":false,"rental_uris":{"android":"levelo://app?vid=9896560b-61b0-4459-a6a8-a9f718f3dacc","ios":"levelo://app?vid=9896560b-61b0-4459-a6a8-a9f718f3dacc"},"vehicle_type_id":"4","last_reported":1751286071,"current_range_meters":9200,"station_id":"ce4bhb12rcd13ifvqem0","pricing_plan_id":"cebpf4jnsgd1na2vs0mg"},{"bike_id":"cb3193f4-af97-4a2d-ac7c-b80c04b23194","system_id":"levelo_inurba_marseille","lat":43.27424,"lon":5.39421,"is_reserved":false,"is_disabled":false,"rental_uris":{"android":"levelo://app?vid=cb3193f4-af97-4a2d-ac7c-b80c04b23194","ios":"levelo://app?vid=cb3193f4-af97-4a2d-ac7c-b80c04b23194"},"vehicle_type_id":"4","last_reported":1751286071,"current_range_meters":9200,"station_id":"ce4bhdp2rcd13ifvqf20","pricing_plan_id":"cebpf4jnsgd1na2vs0mg"},{"bike_id":"73f15934-f1d5-4ee2-ab7c-ead31ca49576","system_id":"levelo_inurba_marseille","lat":43.25005,"lon":5.38939,"is_reserved":false,"is_disabled":false,"rental_uris":{"android":"levelo://app?vid=73f15934-f1d5-4ee2-ab7c-ead31ca49576","ios":"levelo://app?vid=73f15934-f1d5-4ee2-ab7c-ead31ca49576"},"vehicle_type_id":"4","last_reported":1751286071,"current_range_meters":9200,"station_id":"ce4bhgp2rcd13ifvqfd0","pricing_plan_id":"cebpf4jnsgd1na2vs0mg"},{"bike_id":"b879504e-c85b-45ea-ab13-dce989cb130f","system_id":"levelo_inurba_marseille","lat":43.323622,"lon":5.367548,"is_reserved":false,"is_disabled":false,"rental_uris":{"android":"levelo://app?vid=b879504e-c85b-45ea-ab13-dce989cb130f","ios":"levelo://app?vid=b879504e-c85b-45ea-ab13-dce989cb130f"},"vehicle_type_id":"4","last_reported":1751286071,"current_range_meters":9200,"station_id":"ce4bhsh2rcd13ifvqi2g","pricing_plan_id":"cebpf4jnsgd1na2vs0mg"},{"bike_id":"05d3d448-235e-4ac7-88df-050f15d5a616","system_id":"levelo_inurba_marseille","lat":43.2792,"lon":5.42224,"is_reserved":false,"is_disabled":false,"rental_uris":{"android":"levelo://app?vid=05d3d448-235e-4ac7-88df-050f15d5a616","ios":"levelo://app?vid=05d3d448-235e-4ac7-88df-050f15d5a616"},"vehicle_type_id":"4","last_reported":1751286071,"current_range_meters":9600,"station_id":"","pricing_plan_id":"cebpf4jnsgd1na2vs0mg"},{"bike_id":"99bfe58d-afb2-4aca-bf08-fb4a4b977428","system_id":"levelo_inurba_marseille","lat":43.22928,"lon":5.35379,"is_reserved":false,"is_disabled":false,"rental_uris":{"android":"levelo://app?vid=99bfe58d-afb2-4aca-bf08-fb4a4b977428","ios":"levelo://app?vid=99bfe58d-afb2-4aca-bf08-fb4a4b977428"},"vehicle_type_id":"4","last_reported":1751286071,"current_range_meters":9600,"station_id":"cpo3532slgdg3j2ikp40","pricing_plan_id":"cebpf4jnsgd1na2vs0mg"},{"bike_id":"120036e1-945c-4ddf-ba61-047361af53a6","system_id":"levelo_inurba_marseille","lat":43.212025,"lon":5.350817,"is_reserved":false,"is_disabled":false,"rental_uris":{"android":"levelo://app?vid=120036e1-945c-4ddf-ba61-047361af53a6","ios":"levelo://app?vid=120036e1-945c-4ddf-ba61-047361af53a6"},"vehicle_type_id":"4","last_reported":1751286071,"current_range_meters":9600,"station_id":"st_cvj6sg6p6f1abm77japg","pricing_plan_id":"cebpf4jnsgd1na2vs0mg"},{"bike_id":"7b47b272-fbf3-4098-ac79-c3a56cb95ee9","system_id":"levelo_inurba_marseille","lat":43.24489,"lon":5.37243,"is_reserved":false,"is_disabled":false,"rental_uris":{"android":"levelo://app?vid=7b47b272-fbf3-4098-ac79-c3a56cb95ee9","ios":"levelo://app?vid=7b47b272-fbf3-4098-ac79-c3a56cb95ee9"},"vehicle_type_id":"4","last_reported":1751286071,"current_range_meters":10000,"station_id":"","pricing_plan_id":"cebpf4jnsgd1na2vs0mg"},{"bike_id":"5dd58a21-6b6b-4f26-829a-cc7598700bb3","system_id":"levelo_inurba_marseille","lat":43.29232,"lon":5.36069,"is_reserved":false,"is_disabled":false,"rental_uris":{"android":"levelo://app?vid=5dd58a21-6b6b-4f26-829a-cc7598700bb3","ios":"levelo://app?vid=5dd58a21-6b6b-4f26-829a-cc7598700bb3"},"vehicle_type_id":"4","last_reported":1751286071,"current_range_meters":10000,"station_id":"ce4bhbh2rcd13ifvqeqg","pricing_plan_id":"cebpf4jnsgd1na2vs0mg"},{"bike_id":"0bbacc1b-16a4-4b0f-a6c0-a6651dd5b39c","system_id":"levelo_inurba_marseille","lat":43.24387,"lon":5.37053,"is_reserved":false,"is_disabled":false,"rental_uris":{"android":"levelo://app?vid=0bbacc1b-16a4-4b0f-a6c0-a6651dd5b39c","ios":"levelo://app?vid=0bbacc1b-16a4-4b0f-a6c0-a6651dd5b39c"},"vehicle_type_id":"4","last_reported":1751286071,"current_range_meters":10000,"station_id":"ce4bhhh2rcd13ifvqfk0","pricing_plan_id":"cebpf4jnsgd1na2vs0mg"},{"bike_id":"b83687a6-e350-4d71-9806-ba375dac36cd","system_id":"levelo_inurba_marseille","lat":43.314514,"lon":5.373766,"is_reserved":false,"is_disabled":false,"rental_uris":{"android":"levelo://app?vid=b83687a6-e350-4d71-9806-ba375dac36cd","ios":"levelo://app?vid=b83687a6-e350-4d71-9806-ba375dac36cd"},"vehicle_type_id":"4","last_reported":1751286071,"current_range_meters":10800,"station_id":"","pricing_plan_id":"cebpf4jnsgd1na2vs0mg"},{"bike_id":"3035be0e-7c3d-4f7d-a1cb-7a1af59e497b","system_id":"levelo_inurba_marseille","lat":43.29665,"lon":5.359946,"is_reserved":false,"is_disabled":false,"rental_uris":{"android":"levelo://app?vid=3035be0e-7c3d-4f7d-a1cb-7a1af59e497b","ios":"levelo://app?vid=3035be0e-7c3d-4f7d-a1cb-7a1af59e497b"},"vehicle_type_id":"4","last_reported":1751286071,"current_range_meters":10800,"station_id":"","pricing_plan_id":"cebpf4jnsgd1na2vs0mg"},{"bike_id":"78284af2-bf69-4fd5-b7d0-bf87d4b01869","system_id":"levelo_inurba_marseille","lat":43.31262,"lon":5.36885,"is_reserved":false,"is_disabled":false,"rental_uris":{"android":"levelo://app?vid=78284af2-bf69-4fd5-b7d0-bf87d4b01869","ios":"levelo://app?vid=78284af2-bf69-4fd5-b7d0-bf87d4b01869"},"vehicle_type_id":"4","last_reported":1751286071,"current_range_meters":10800,"station_id":"ce4bgl92rcd13ifvqbq0","pricing_plan_id":"cebpf4jnsgd1na2vs0mg"},{"bike_id":"f8c06bdf-49c7-493b-87d0-4d974e3b060b","system_id":"levelo_inurba_marseille","lat":43.273888,"lon":5.36256,"is_reserved":false,"is_disabled":false,"rental_uris":{"android":"levelo://app?vid=f8c06bdf-49c7-493b-87d0-4d974e3b060b","ios":"levelo://app?vid=f8c06bdf-49c7-493b-87d0-4d974e3b060b"},"vehicle_type_id":"4","last_reported":1751286071,"current_range_meters":10800,"station_id":"ce4bhbh2rcd13ifvqeo0","pricing_plan_id":"cebpf4jnsgd1na2vs0mg"},{"bike_id":"c86926a4-dfc8-49dc-a366-e03f450765e4","system_id":"levelo_inurba_marseille","lat":43.26503,"lon":5.39542,"is_reserved":false,"is_disabled":false,"rental_uris":{"android":"levelo://app?vid=c86926a4-dfc8-49dc-a366-e03f450765e4","ios":"levelo://app?vid=c86926a4-dfc8-49dc-a366-e03f450765e4"},"vehicle_type_id":"4","last_reported":1751286071,"current_range_meters":10800,"station_id":"ce4bhi12rcd13ifvqfq0","pricing_plan_id":"cebpf4jnsgd1na2vs0mg"},{"bike_id":"1c0e4f1f-023a-4f4d-b468-cc966152458e","system_id":"levelo_inurba_marseille","lat":43.3109,"lon":5.4243,"is_reserved":false,"is_disabled":false,"rental_uris":{"android":"levelo://app?vid=1c0e4f1f-023a-4f4d-b468-cc966152458e","ios":"levelo://app?vid=1c0e4f1f-023a-4f4d-b468-cc966152458e"},"vehicle_type_id":"4","last_reported":1751286071,"current_range_meters":10800,"station_id":"ce4bhp92rcd13ifvqhag","pricing_plan_id":"cebpf4jnsgd1na2vs0mg"},{"bike_id":"b05ac08d-847b-4f20-ac36-038a0d69d167","system_id":"levelo_inurba_marseille","lat":43.2813,"lon":5.35867,"is_reserved":false,"is_disabled":false,"rental_uris":{"android":"levelo://app?vid=b05ac08d-847b-4f20-ac36-038a0d69d167","ios":"levelo://app?vid=b05ac08d-847b-4f20-ac36-038a0d69d167"},"vehicle_type_id":"4","last_reported":1751286071,"current_range_meters":11200,"station_id":"","pricing_plan_id":"cebpf4jnsgd1na2vs0mg"},{"bike_id":"f0e188d0-f2a1-4138-837c-7e343b315bef","system_id":"levelo_inurba_marseille","lat":43.2928,"lon":5.36843,"is_reserved":false,"is_disabled":false,"rental_uris":{"android":"levelo://app?vid=f0e188d0-f2a1-4138-837c-7e343b315bef","ios":"levelo://app?vid=f0e188d0-f2a1-4138-837c-7e343b315bef"},"vehicle_type_id":"4","last_reported":1751286071,"current_range_meters":11200,"station_id":"ce4bhbp2rcd13ifvqesg","pricing_plan_id":"cebpf4jnsgd1na2vs0mg"},{"bike_id":"a673c61a-031f-4c0c-b5b1-12fe2d3ce726","system_id":"levelo_inurba_marseille","lat":43.26555,"lon":5.37313,"is_reserved":false,"is_disabled":false,"rental_uris":{"android":"levelo://app?vid=a673c61a-031f-4c0c-b5b1-12fe2d3ce726","ios":"levelo://app?vid=a673c61a-031f-4c0c-b5b1-12fe2d3ce726"},"vehicle_type_id":"4","last_reported":1751286071,"current_range_meters":11200,"station_id":"ce4bhg12rcd13ifvqf70","pricing_plan_id":"cebpf4jnsgd1na2vs0mg"},{"bike_id":"83d719b8-7401-4b46-aad2-2573411a912e","system_id":"levelo_inurba_marseille","lat":43.26217,"lon":5.3744,"is_reserved":false,"is_disabled":false,"rental_uris":{"android":"levelo://app?vid=83d719b8-7401-4b46-aad2-2573411a912e","ios":"levelo://app?vid=83d719b8-7401-4b46-aad2-2573411a912e"},"vehicle_type_id":"4","last_reported":1751286071,"current_range_meters":11200,"station_id":"ce4bhgp2rcd13ifvqfc0","pricing_plan_id":"cebpf4jnsgd1na2vs0mg"},{"bike_id":"e7641e58-176f-485d-9342-129003cdc52b","system_id":"levelo_inurba_marseille","lat":43.32091,"lon":5.36763,"is_reserved":false,"is_disabled":false,"rental_uris":{"android":"levelo://app?vid=e7641e58-176f-485d-9342-129003cdc52b","ios":"levelo://app?vid=e7641e58-176f-485d-9342-129003cdc52b"},"vehicle_type_id":"4","last_reported":1751286071,"current_range_meters":11200,"station_id":"ce4bhrh2rcd13ifvqhug","pricing_plan_id":"cebpf4jnsgd1na2vs0mg"},{"bike_id":"7cd73daf-6410-4b72-a872-e5224e9d29ff","system_id":"levelo_inurba_marseille","lat":43.274081,"lon":5.411639,"is_reserved":false,"is_disabled":false,"rental_uris":{"android":"levelo://app?vid=7cd73daf-6410-4b72-a872-e5224e9d29ff","ios":"levelo://app?vid=7cd73daf-6410-4b72-a872-e5224e9d29ff"},"vehicle_type_id":"4","last_reported":1751286071,"current_range_meters":11600,"station_id":"","pricing_plan_id":"cebpf4jnsgd1na2vs0mg"},{"bike_id":"22961bf7-4cf2-4ee1-b069-f963105ef772","system_id":"levelo_inurba_marseille","lat":43.298067,"lon":5.381613,"is_reserved":false,"is_disabled":false,"rental_uris":{"android":"levelo://app?vid=22961bf7-4cf2-4ee1-b069-f963105ef772","ios":"levelo://app?vid=22961bf7-4cf2-4ee1-b069-f963105ef772"},"vehicle_type_id":"4","last_reported":1751286071,"current_range_meters":11600,"station_id":"ce4bgip2rcd13ifvqbb0","pricing_plan_id":"cebpf4jnsgd1na2vs0mg"},{"bike_id":"63b17474-c223-4a73-8b4c-56f8bee6ab57","system_id":"levelo_inurba_marseille","lat":43.31362,"lon":5.36719,"is_reserved":false,"is_disabled":false,"rental_uris":{"android":"levelo://app?vid=63b17474-c223-4a73-8b4c-56f8bee6ab57","ios":"levelo://app?vid=63b17474-c223-4a73-8b4c-56f8bee6ab57"},"vehicle_type_id":"4","last_reported":1751286071,"current_range_meters":11600,"station_id":"ce4bgr92rcd13ifvqc6g","pricing_plan_id":"cebpf4jnsgd1na2vs0mg"},{"bike_id":"acca692d-8d39-459c-a574-7087df4141fc","system_id":"levelo_inurba_marseille","lat":43.31511,"lon":5.3728,"is_reserved":false,"is_disabled":false,"rental_uris":{"android":"levelo://app?vid=acca692d-8d39-459c-a574-7087df4141fc","ios":"levelo://app?vid=acca692d-8d39-459c-a574-7087df4141fc"},"vehicle_type_id":"4","last_reported":1751286071,"current_range_meters":11600,"station_id":"ce4bgt12rcd13ifvqcd0","pricing_plan_id":"cebpf4jnsgd1na2vs0mg"},{"bike_id":"65280d13-d120-4e26-bd33-57186b6a7313","system_id":"levelo_inurba_marseille","lat":43.3235,"lon":5.40623,"is_reserved":false,"is_disabled":false,"rental_uris":{"android":"levelo://app?vid=65280d13-d120-4e26-bd33-57186b6a7313","ios":"levelo://app?vid=65280d13-d120-4e26-bd33-57186b6a7313"},"vehicle_type_id":"4","last_reported":1751286071,"current_range_meters":11600,"station_id":"ce4bhq92rcd13ifvqhjg","pricing_plan_id":"cebpf4jnsgd1na2vs0mg"},{"bike_id":"9ed31d19-987d-4b2c-86e8-7ce20c6e8673","system_id":"levelo_inurba_marseille","lat":43.23195,"lon":5.35556,"is_reserved":false,"is_disabled":false,"rental_uris":{"android":"levelo://app?vid=9ed31d19-987d-4b2c-86e8-7ce20c6e8673","ios":"levelo://app?vid=9ed31d19-987d-4b2c-86e8-7ce20c6e8673"},"vehicle_type_id":"4","last_reported":1751286071,"current_range_meters":11600,"station_id":"ce4bhu92rcd13ifvqi70","pricing_plan_id":"cebpf4jnsgd1na2vs0mg"},{"bike_id":"786f230b-598f-4e58-bbc2-1e0a419e9de2","system_id":"levelo_inurba_marseille","lat":43.26474,"lon":5.39205,"is_reserved":false,"is_disabled":false,"rental_uris":{"android":"levelo://app?vid=786f230b-598f-4e58-bbc2-1e0a419e9de2","ios":"levelo://app?vid=786f230b-598f-4e58-bbc2-1e0a419e9de2"},"vehicle_type_id":"4","last_reported":1751286071,"current_range_meters":12000,"station_id":"","pricing_plan_id":"cebpf4jnsgd1na2vs0mg"},{"bike_id":"f5c16f07-bc6f-4121-91a7-5ad90eec4f34","system_id":"levelo_inurba_marseille","lat":43.312008,"lon":5.373383,"is_reserved":false,"is_disabled":false,"rental_uris":{"android":"levelo://app?vid=f5c16f07-bc6f-4121-91a7-5ad90eec4f34","ios":"levelo://app?vid=f5c16f07-bc6f-4121-91a7-5ad90eec4f34"},"vehicle_type_id":"4","last_reported":1751286071,"current_range_meters":12000,"station_id":"","pricing_plan_id":"cebpf4jnsgd1na2vs0mg"},{"bike_id":"15e872fe-e128-4b35-9f17-1edf352d408f","system_id":"levelo_inurba_marseille","lat":43.284164,"lon":5.349734,"is_reserved":false,"is_disabled":false,"rental_uris":{"android":"levelo://app?vid=15e872fe-e128-4b35-9f17-1edf352d408f","ios":"levelo://app?vid=15e872fe-e128-4b35-9f17-1edf352d408f"},"vehicle_type_id":"4","last_reported":1751286071,"current_range_meters":12000,"station_id":"ce4bhbh2rcd13ifvqepg","pricing_plan_id":"cebpf4jnsgd1na2vs0mg"},{"bike_id":"ecda20bd-1c69-43c0-afe9-e93e538fd2c4","system_id":"levelo_inurba_marseille","lat":43.244,"lon":5.3706,"is_reserved":false,"is_disabled":false,"rental_uris":{"android":"levelo://app?vid=ecda20bd-1c69-43c0-afe9-e93e538fd2c4","ios":"levelo://app?vid=ecda20bd-1c69-43c0-afe9-e93e538fd2c4"},"vehicle_type_id":"4","last_reported":1751286071,"current_range_meters":12000,"station_id":"ce4bhhh2rcd13ifvqfk0","pricing_plan_id":"cebpf4jnsgd1na2vs0mg"},{"bike_id":"9734d2a5-6146-49dc-b3f4-6054bef8be12","system_id":"levelo_inurba_marseille","lat":43.32366,"lon":5.38888,"is_reserved":false,"is_disabled":false,"rental_uris":{"android":"levelo://app?vid=9734d2a5-6146-49dc-b3f4-6054bef8be12","ios":"levelo://app?vid=9734d2a5-6146-49dc-b3f4-6054bef8be12"},"vehicle_type_id":"4","last_reported":1751286071,"current_range_meters":12000,"station_id":"ce4bhqp2rcd13ifvqhog","pricing_plan_id":"cebpf4jnsgd1na2vs0mg"},{"bike_id":"6b6a646f-e1ae-4138-9055-a2e578c870cb","system_id":"levelo_inurba_marseille","lat":43.21753,"lon":5.3463,"is_reserved":false,"is_disabled":false,"rental_uris":{"android":"levelo://app?vid=6b6a646f-e1ae-4138-9055-a2e578c870cb","ios":"levelo://app?vid=6b6a646f-e1ae-4138-9055-a2e578c870cb"},"vehicle_type_id":"4","last_reported":1751286071,"current_range_meters":12000,"station_id":"st_cvj6r9ubvosntc0bgbag","pricing_plan_id":"cebpf4jnsgd1na2vs0mg"},{"bike_id":"5031ccf9-7dcf-4258-a4a4-0c83bcd30a12","system_id":"levelo_inurba_marseille","lat":43.337444,"lon":5.374475,"is_reserved":false,"is_disabled":false,"rental_uris":{"android":"levelo://app?vid=5031ccf9-7dcf-4258-a4a4-0c83bcd30a12","ios":"levelo://app?vid=5031ccf9-7dcf-4258-a4a4-0c83bcd30a12"},"vehicle_type_id":"4","last_reported":1751286071,"current_range_meters":12400,"station_id":"","pricing_plan_id":"cebpf4jnsgd1na2vs0mg"},{"bike_id":"7dc148e5-fd7e-4677-bce3-55c94c6ee080","system_id":"levelo_inurba_marseille","lat":43.306764,"lon":5.409232,"is_reserved":false,"is_disabled":false,"rental_uris":{"android":"levelo://app?vid=7dc148e5-fd7e-4677-bce3-55c94c6ee080","ios":"levelo://app?vid=7dc148e5-fd7e-4677-bce3-55c94c6ee080"},"vehicle_type_id":"4","last_reported":1751286071,"current_range_meters":12400,"station_id":"","pricing_plan_id":"cebpf4jnsgd1na2vs0mg"},{"bike_id":"4e854b54-2a66-4ede-b5e0-ea213faef6cd","system_id":"levelo_inurba_marseille","lat":43.29131,"lon":5.380802,"is_reserved":false,"is_disabled":false,"rental_uris":{"android":"levelo://app?vid=4e854b54-2a66-4ede-b5e0-ea213faef6cd","ios":"levelo://app?vid=4e854b54-2a66-4ede-b5e0-ea213faef6cd"},"vehicle_type_id":"4","last_reported":1751286071,"current_range_meters":12400,"station_id":"ce4bh512rcd13ifvqe2g","pricing_plan_id":"cebpf4jnsgd1na2vs0mg"},{"bike_id":"b6c522c6-cbef-4d71-a62b-f5594355331f","system_id":"levelo_inurba_marseille","lat":43.26573,"lon":5.38997,"is_reserved":false,"is_disabled":false,"rental_uris":{"android":"levelo://app?vid=b6c522c6-cbef-4d71-a62b-f5594355331f","ios":"levelo://app?vid=b6c522c6-cbef-4d71-a62b-f5594355331f"},"vehicle_type_id":"4","last_reported":1751286071,"current_range_meters":12400,"station_id":"ce4bhe12rcd13ifvqf30","pricing_plan_id":"cebpf4jnsgd1na2vs0mg"},{"bike_id":"c2e134cb-ee58-410e-8443-cdf3a592d767","system_id":"levelo_inurba_marseille","lat":43.29567,"lon":5.38645,"is_reserved":false,"is_disabled":false,"rental_uris":{"android":"levelo://app?vid=c2e134cb-ee58-410e-8443-cdf3a592d767","ios":"levelo://app?vid=c2e134cb-ee58-410e-8443-cdf3a592d767"},"vehicle_type_id":"4","last_reported":1751286071,"current_range_meters":12800,"station_id":"","pricing_plan_id":"cebpf4jnsgd1na2vs0mg"},{"bike_id":"2a7d4522-b0dd-48c1-8653-7a6d0e58cc43","system_id":"levelo_inurba_marseille","lat":43.32081,"lon":5.401183,"is_reserved":false,"is_disabled":false,"rental_uris":{"android":"levelo://app?vid=2a7d4522-b0dd-48c1-8653-7a6d0e58cc43","ios":"levelo://app?vid=2a7d4522-b0dd-48c1-8653-7a6d0e58cc43"},"vehicle_type_id":"4","last_reported":1751286071,"current_range_meters":13600,"station_id":"","pricing_plan_id":"cebpf4jnsgd1na2vs0mg"},{"bike_id":"5be1a4b5-3e1e-4bcd-9477-5aee0b89f062","system_id":"levelo_inurba_marseille","lat":43.27841,"lon":5.35472,"is_reserved":false,"is_disabled":false,"rental_uris":{"android":"levelo://app?vid=5be1a4b5-3e1e-4bcd-9477-5aee0b89f062","ios":"levelo://app?vid=5be1a4b5-3e1e-4bcd-9477-5aee0b89f062"},"vehicle_type_id":"4","last_reported":1751286071,"current_range_meters":13600,"station_id":"","pricing_plan_id":"cebpf4jnsgd1na2vs0mg"},{"bike_id":"6531b65e-c323-4552-901b-d44bb8ccf8d7","system_id":"levelo_inurba_marseille","lat":43.32661,"lon":5.41003,"is_reserved":false,"is_disabled":false,"rental_uris":{"android":"levelo://app?vid=6531b65e-c323-4552-901b-d44bb8ccf8d7","ios":"levelo://app?vid=6531b65e-c323-4552-901b-d44bb8ccf8d7"},"vehicle_type_id":"4","last_reported":1751286071,"current_range_meters":13600,"station_id":"ce4bhpp2rcd13ifvqhgg","pricing_plan_id":"cebpf4jnsgd1na2vs0mg"},{"bike_id":"ceb818d5-6a0e-45de-8d40-c9c1b19d5e60","system_id":"levelo_inurba_marseille","lat":43.32345,"lon":5.36722,"is_reserved":false,"is_disabled":false,"rental_uris":{"android":"levelo://app?vid=ceb818d5-6a0e-45de-8d40-c9c1b19d5e60","ios":"levelo://app?vid=ceb818d5-6a0e-45de-8d40-c9c1b19d5e60"},"vehicle_type_id":"4","last_reported":1751286071,"current_range_meters":13600,"station_id":"ce4bhsh2rcd13ifvqi2g","pricing_plan_id":"cebpf4jnsgd1na2vs0mg"},{"bike_id":"6b352fdb-4980-452d-9441-954a1a4f7cc1","system_id":"levelo_inurba_marseille","lat":43.29581,"lon":5.3751,"is_reserved":false,"is_disabled":false,"rental_uris":{"android":"levelo://app?vid=6b352fdb-4980-452d-9441-954a1a4f7cc1","ios":"levelo://app?vid=6b352fdb-4980-452d-9441-954a1a4f7cc1"},"vehicle_type_id":"4","last_reported":1751286071,"current_range_meters":14000,"station_id":"ce4bgh92rcd13ifvqb50","pricing_plan_id":"cebpf4jnsgd1na2vs0mg"},{"bike_id":"2426cada-a606-4f4b-9513-043e7180e2e5","system_id":"levelo_inurba_marseille","lat":43.29979,"lon":5.37191,"is_reserved":false,"is_disabled":false,"rental_uris":{"android":"levelo://app?vid=2426cada-a606-4f4b-9513-043e7180e2e5","ios":"levelo://app?vid=2426cada-a606-4f4b-9513-043e7180e2e5"},"vehicle_type_id":"4","last_reported":1751286071,"current_range_meters":14000,"station_id":"ce4bgr92rcd13ifvqc7g","pricing_plan_id":"cebpf4jnsgd1na2vs0mg"},{"bike_id":"5a2e3921-543a-4298-b545-25bbdf40fe27","system_id":"levelo_inurba_marseille","lat":43.2899,"lon":5.3784,"is_reserved":false,"is_disabled":false,"rental_uris":{"android":"levelo://app?vid=5a2e3921-543a-4298-b545-25bbdf40fe27","ios":"levelo://app?vid=5a2e3921-543a-4298-b545-25bbdf40fe27"},"vehicle_type_id":"4","last_reported":1751286071,"current_range_meters":14000,"station_id":"ce4bh9p2rcd13ifvqed0","pricing_plan_id":"cebpf4jnsgd1na2vs0mg"},{"bike_id":"b475ecaf-ae9f-4d83-b3ae-b3723f8bc97b","system_id":"levelo_inurba_marseille","lat":43.28027,"lon":5.36961,"is_reserved":false,"is_disabled":false,"rental_uris":{"android":"levelo://app?vid=b475ecaf-ae9f-4d83-b3ae-b3723f8bc97b","ios":"levelo://app?vid=b475ecaf-ae9f-4d83-b3ae-b3723f8bc97b"},"vehicle_type_id":"4","last_reported":1751286071,"current_range_meters":14000,"station_id":"ce4bha12rcd13ifvqef0","pricing_plan_id":"cebpf4jnsgd1na2vs0mg"},{"bike_id":"9f17ad0a-272e-45cb-8d89-13a816188d2a","system_id":"levelo_inurba_marseille","lat":43.27178,"lon":5.41006,"is_reserved":false,"is_disabled":false,"rental_uris":{"android":"levelo://app?vid=9f17ad0a-272e-45cb-8d89-13a816188d2a","ios":"levelo://app?vid=9f17ad0a-272e-45cb-8d89-13a816188d2a"},"vehicle_type_id":"4","last_reported":1751286071,"current_range_meters":14000,"station_id":"ce4bhl12rcd13ifvqgf0","pricing_plan_id":"cebpf4jnsgd1na2vs0mg"},{"bike_id":"4ac6bb03-d906-4e27-98a9-9b896dd85ed1","system_id":"levelo_inurba_marseille","lat":43.246368,"lon":5.38802,"is_reserved":false,"is_disabled":false,"rental_uris":{"android":"levelo://app?vid=4ac6bb03-d906-4e27-98a9-9b896dd85ed1","ios":"levelo://app?vid=4ac6bb03-d906-4e27-98a9-9b896dd85ed1"},"vehicle_type_id":"4","last_reported":1751286071,"current_range_meters":14000,"station_id":"ce4bhlp2rcd13ifvqgjg","pricing_plan_id":"cebpf4jnsgd1na2vs0mg"},{"bike_id":"dceec97c-a419-482f-8727-f534cf5f00e7","system_id":"levelo_inurba_marseille","lat":43.26224,"lon":5.40453,"is_reserved":false,"is_disabled":false,"rental_uris":{"android":"levelo://app?vid=dceec97c-a419-482f-8727-f534cf5f00e7","ios":"levelo://app?vid=dceec97c-a419-482f-8727-f534cf5f00e7"},"vehicle_type_id":"4","last_reported":1751286071,"current_range_meters":14000,"station_id":"ce4bhmh2rcd13ifvqgmg","pricing_plan_id":"cebpf4jnsgd1na2vs0mg"},{"bike_id":"13b09770-df0a-4248-bedf-befe8ee32e39","system_id":"levelo_inurba_marseille","lat":43.28445,"lon":5.39202,"is_reserved":false,"is_disabled":false,"rental_uris":{"android":"levelo://app?vid=13b09770-df0a-4248-bedf-befe8ee32e39","ios":"levelo://app?vid=13b09770-df0a-4248-bedf-befe8ee32e39"},"vehicle_type_id":"4","last_reported":1751286071,"current_range_meters":14000,"station_id":"ce4bhoh2rcd13ifvqh5g","pricing_plan_id":"cebpf4jnsgd1na2vs0mg"},{"bike_id":"1bc169ec-e14e-4a16-96d5-cfc6a437f6bf","system_id":"levelo_inurba_marseille","lat":43.29843,"lon":5.36268,"is_reserved":false,"is_disabled":false,"rental_uris":{"android":"levelo://app?vid=1bc169ec-e14e-4a16-96d5-cfc6a437f6bf","ios":"levelo://app?vid=1bc169ec-e14e-4a16-96d5-cfc6a437f6bf"},"vehicle_type_id":"4","last_reported":1751286071,"current_range_meters":14400,"station_id":"ce4bgpp2rcd13ifvqc3g","pricing_plan_id":"cebpf4jnsgd1na2vs0mg"},{"bike_id":"b7906d78-c4f0-436b-b810-5fb3225376f5","system_id":"levelo_inurba_marseille","lat":43.30316,"lon":5.36904,"is_reserved":false,"is_disabled":false,"rental_uris":{"android":"levelo://app?vid=b7906d78-c4f0-436b-b810-5fb3225376f5","ios":"levelo://app?vid=b7906d78-c4f0-436b-b810-5fb3225376f5"},"vehicle_type_id":"4","last_reported":1751286071,"current_range_meters":14400,"station_id":"ce4bgqh2rcd13ifvqc5g","pricing_plan_id":"cebpf4jnsgd1na2vs0mg"},{"bike_id":"e11aa07e-18dc-47b5-95a8-8703117957c2","system_id":"levelo_inurba_marseille","lat":43.30182,"lon":5.36611,"is_reserved":false,"is_disabled":false,"rental_uris":{"android":"levelo://app?vid=e11aa07e-18dc-47b5-95a8-8703117957c2","ios":"levelo://app?vid=e11aa07e-18dc-47b5-95a8-8703117957c2"},"vehicle_type_id":"4","last_reported":1751286071,"current_range_meters":14400,"station_id":"ce4bgrh2rcd13ifvqc8g","pricing_plan_id":"cebpf4jnsgd1na2vs0mg"},{"bike_id":"f773c1a0-a8df-48fe-8729-030631df3612","system_id":"levelo_inurba_marseille","lat":43.29232,"lon":5.36077,"is_reserved":false,"is_disabled":false,"rental_uris":{"android":"levelo://app?vid=f773c1a0-a8df-48fe-8729-030631df3612","ios":"levelo://app?vid=f773c1a0-a8df-48fe-8729-030631df3612"},"vehicle_type_id":"4","last_reported":1751286071,"current_range_meters":14400,"station_id":"ce4bhbh2rcd13ifvqeqg","pricing_plan_id":"cebpf4jnsgd1na2vs0mg"},{"bike_id":"ea3d6cab-de34-4d69-9c23-d3e2b6233884","system_id":"levelo_inurba_marseille","lat":43.2621,"lon":5.37452,"is_reserved":false,"is_disabled":false,"rental_uris":{"android":"levelo://app?vid=ea3d6cab-de34-4d69-9c23-d3e2b6233884","ios":"levelo://app?vid=ea3d6cab-de34-4d69-9c23-d3e2b6233884"},"vehicle_type_id":"4","last_reported":1751286071,"current_range_meters":14400,"station_id":"ce4bhgp2rcd13ifvqfc0","pricing_plan_id":"cebpf4jnsgd1na2vs0mg"},{"bike_id":"ad4b87dd-cf4c-4281-b588-a033608d0c82","system_id":"levelo_inurba_marseille","lat":43.32042,"lon":5.4155,"is_reserved":false,"is_disabled":false,"rental_uris":{"android":"levelo://app?vid=ad4b87dd-cf4c-4281-b588-a033608d0c82","ios":"levelo://app?vid=ad4b87dd-cf4c-4281-b588-a033608d0c82"},"vehicle_type_id":"4","last_reported":1751286071,"current_range_meters":14400,"station_id":"ce4bhq92rcd13ifvqhkg","pricing_plan_id":"cebpf4jnsgd1na2vs0mg"},{"bike_id":"c4bf3174-e923-4b8e-adf4-0e3f98299873","system_id":"levelo_inurba_marseille","lat":43.33607,"lon":5.41037,"is_reserved":false,"is_disabled":false,"rental_uris":{"android":"levelo://app?vid=c4bf3174-e923-4b8e-adf4-0e3f98299873","ios":"levelo://app?vid=c4bf3174-e923-4b8e-adf4-0e3f98299873"},"vehicle_type_id":"4","last_reported":1751286071,"current_range_meters":14400,"station_id":"ce4bhqh2rcd13ifvqhmg","pricing_plan_id":"cebpf4jnsgd1na2vs0mg"},{"bike_id":"eaa01021-3fd8-4405-a287-c7502d10ea7e","system_id":"levelo_inurba_marseille","lat":43.21752,"lon":5.3461,"is_reserved":false,"is_disabled":false,"rental_uris":{"android":"levelo://app?vid=eaa01021-3fd8-4405-a287-c7502d10ea7e","ios":"levelo://app?vid=eaa01021-3fd8-4405-a287-c7502d10ea7e"},"vehicle_type_id":"4","last_reported":1751286071,"current_range_meters":14400,"station_id":"st_cvj6r9ubvosntc0bgbag","pricing_plan_id":"cebpf4jnsgd1na2vs0mg"},{"bike_id":"1ac664aa-f2a4-4b75-879f-dcb93272d133","system_id":"levelo_inurba_marseille","lat":43.320285,"lon":5.409429,"is_reserved":false,"is_disabled":false,"rental_uris":{"android":"levelo://app?vid=1ac664aa-f2a4-4b75-879f-dcb93272d133","ios":"levelo://app?vid=1ac664aa-f2a4-4b75-879f-dcb93272d133"},"vehicle_type_id":"4","last_reported":1751286071,"current_range_meters":14800,"station_id":"","pricing_plan_id":"cebpf4jnsgd1na2vs0mg"},{"bike_id":"b6941871-17ec-4dc8-9dbe-bf1e08f324ad","system_id":"levelo_inurba_marseille","lat":43.31223,"lon":5.36852,"is_reserved":false,"is_disabled":false,"rental_uris":{"android":"levelo://app?vid=b6941871-17ec-4dc8-9dbe-bf1e08f324ad","ios":"levelo://app?vid=b6941871-17ec-4dc8-9dbe-bf1e08f324ad"},"vehicle_type_id":"4","last_reported":1751286071,"current_range_meters":14800,"station_id":"ce4bgl92rcd13ifvqbq0","pricing_plan_id":"cebpf4jnsgd1na2vs0mg"},{"bike_id":"2e915157-0389-45f0-ab42-641e5bea84c8","system_id":"levelo_inurba_marseille","lat":43.31348,"lon":5.36699,"is_reserved":false,"is_disabled":false,"rental_uris":{"android":"levelo://app?vid=2e915157-0389-45f0-ab42-641e5bea84c8","ios":"levelo://app?vid=2e915157-0389-45f0-ab42-641e5bea84c8"},"vehicle_type_id":"4","last_reported":1751286071,"current_range_meters":14800,"station_id":"ce4bgr92rcd13ifvqc6g","pricing_plan_id":"cebpf4jnsgd1na2vs0mg"},{"bike_id":"f7d30abc-18bf-4e9b-b927-f6a1b0927ba7","system_id":"levelo_inurba_marseille","lat":43.30191,"lon":5.36622,"is_reserved":false,"is_disabled":false,"rental_uris":{"android":"levelo://app?vid=f7d30abc-18bf-4e9b-b927-f6a1b0927ba7","ios":"levelo://app?vid=f7d30abc-18bf-4e9b-b927-f6a1b0927ba7"},"vehicle_type_id":"4","last_reported":1751286071,"current_range_meters":14800,"station_id":"ce4bgrh2rcd13ifvqc8g","pricing_plan_id":"cebpf4jnsgd1na2vs0mg"},{"bike_id":"c0f858cd-9994-45ef-b627-fda1ff10cf98","system_id":"levelo_inurba_marseille","lat":43.29307,"lon":5.37463,"is_reserved":false,"is_disabled":false,"rental_uris":{"android":"levelo://app?vid=c0f858cd-9994-45ef-b627-fda1ff10cf98","ios":"levelo://app?vid=c0f858cd-9994-45ef-b627-fda1ff10cf98"},"vehicle_type_id":"4","last_reported":1751286071,"current_range_meters":15200,"station_id":"ce4bgi12rcd13ifvqb70","pricing_plan_id":"cebpf4jnsgd1na2vs0mg"},{"bike_id":"3791d02f-d23f-4e76-be85-41a9b5e2cbd0","system_id":"levelo_inurba_marseille","lat":43.30547,"lon":5.3656,"is_reserved":false,"is_disabled":false,"rental_uris":{"android":"levelo://app?vid=3791d02f-d23f-4e76-be85-41a9b5e2cbd0","ios":"levelo://app?vid=3791d02f-d23f-4e76-be85-41a9b5e2cbd0"},"vehicle_type_id":"4","last_reported":1751286071,"current_range_meters":15200,"station_id":"ce4bgs12rcd13ifvqcag","pricing_plan_id":"cebpf4jnsgd1na2vs0mg"},{"bike_id":"ed04a1b8-7ed9-4134-8457-ec8a436b5623","system_id":"levelo_inurba_marseille","lat":43.28438,"lon":5.34987,"is_reserved":false,"is_disabled":false,"rental_uris":{"android":"levelo://app?vid=ed04a1b8-7ed9-4134-8457-ec8a436b5623","ios":"levelo://app?vid=ed04a1b8-7ed9-4134-8457-ec8a436b5623"},"vehicle_type_id":"4","last_reported":1751286071,"current_range_meters":15200,"station_id":"ce4bhbh2rcd13ifvqepg","pricing_plan_id":"cebpf4jnsgd1na2vs0mg"},{"bike_id":"6b04a8db-f012-4ea9-88f5-d59ff3f24fd9","system_id":"levelo_inurba_marseille","lat":43.299038,"lon":5.43665,"is_reserved":false,"is_disabled":false,"rental_uris":{"android":"levelo://app?vid=6b04a8db-f012-4ea9-88f5-d59ff3f24fd9","ios":"levelo://app?vid=6b04a8db-f012-4ea9-88f5-d59ff3f24fd9"},"vehicle_type_id":"4","last_reported":1751286071,"current_range_meters":15200,"station_id":"ce4bhpp2rcd13ifvqhfg","pricing_plan_id":"cebpf4jnsgd1na2vs0mg"},{"bike_id":"4e47abe4-6598-4756-807d-26ba558e3c39","system_id":"levelo_inurba_marseille","lat":43.29892,"lon":5.43663,"is_reserved":false,"is_disabled":false,"rental_uris":{"android":"levelo://app?vid=4e47abe4-6598-4756-807d-26ba558e3c39","ios":"levelo://app?vid=4e47abe4-6598-4756-807d-26ba558e3c39"},"vehicle_type_id":"4","last_reported":1751286071,"current_range_meters":15200,"station_id":"ce4bhpp2rcd13ifvqhfg","pricing_plan_id":"cebpf4jnsgd1na2vs0mg"},{"bike_id":"ad9a1bf3-7423-4a3f-b7d3-23958e3dbc15","system_id":"levelo_inurba_marseille","lat":43.30887,"lon":5.37893,"is_reserved":false,"is_disabled":false,"rental_uris":{"android":"levelo://app?vid=ad9a1bf3-7423-4a3f-b7d3-23958e3dbc15","ios":"levelo://app?vid=ad9a1bf3-7423-4a3f-b7d3-23958e3dbc15"},"vehicle_type_id":"4","last_reported":1751286071,"current_range_meters":16000,"station_id":"","pricing_plan_id":"cebpf4jnsgd1na2vs0mg"},{"bike_id":"19902b26-1db2-418b-b8f6-5d1724e262de","system_id":"levelo_inurba_marseille","lat":43.30078,"lon":5.39015,"is_reserved":false,"is_disabled":false,"rental_uris":{"android":"levelo://app?vid=19902b26-1db2-418b-b8f6-5d1724e262de","ios":"levelo://app?vid=19902b26-1db2-418b-b8f6-5d1724e262de"},"vehicle_type_id":"4","last_reported":1751286071,"current_range_meters":16000,"station_id":"","pricing_plan_id":"cebpf4jnsgd1na2vs0mg"},{"bike_id":"57d6a022-1dd6-4eb5-9917-66e50dd3b7a4","system_id":"levelo_inurba_marseille","lat":43.29318,"lon":5.3718,"is_reserved":false,"is_disabled":false,"rental_uris":{"android":"levelo://app?vid=57d6a022-1dd6-4eb5-9917-66e50dd3b7a4","ios":"levelo://app?vid=57d6a022-1dd6-4eb5-9917-66e50dd3b7a4"},"vehicle_type_id":"4","last_reported":1751286071,"current_range_meters":16000,"station_id":"ce4bgh92rcd13ifvqb40","pricing_plan_id":"cebpf4jnsgd1na2vs0mg"},{"bike_id":"57585a4b-5d90-4953-9689-e6aed1e920f8","system_id":"levelo_inurba_marseille","lat":43.292562,"lon":5.376222,"is_reserved":false,"is_disabled":false,"rental_uris":{"android":"levelo://app?vid=57585a4b-5d90-4953-9689-e6aed1e920f8","ios":"levelo://app?vid=57585a4b-5d90-4953-9689-e6aed1e920f8"},"vehicle_type_id":"4","last_reported":1751286071,"current_range_meters":16000,"station_id":"ce4bgi12rcd13ifvqb80","pricing_plan_id":"cebpf4jnsgd1na2vs0mg"},{"bike_id":"f3d1cef8-7357-46d9-9022-2630086d35f2","system_id":"levelo_inurba_marseille","lat":43.299637,"lon":5.384948,"is_reserved":false,"is_disabled":false,"rental_uris":{"android":"levelo://app?vid=f3d1cef8-7357-46d9-9022-2630086d35f2","ios":"levelo://app?vid=f3d1cef8-7357-46d9-9022-2630086d35f2"},"vehicle_type_id":"4","last_reported":1751286071,"current_range_meters":16000,"station_id":"ce4bgj92rcd13ifvqbd0","pricing_plan_id":"cebpf4jnsgd1na2vs0mg"},{"bike_id":"f3291c68-c441-45bc-979c-3d6ac0230693","system_id":"levelo_inurba_marseille","lat":43.2843,"lon":5.3502,"is_reserved":false,"is_disabled":false,"rental_uris":{"android":"levelo://app?vid=f3291c68-c441-45bc-979c-3d6ac0230693","ios":"levelo://app?vid=f3291c68-c441-45bc-979c-3d6ac0230693"},"vehicle_type_id":"4","last_reported":1751286071,"current_range_meters":16000,"station_id":"ce4bhbh2rcd13ifvqepg","pricing_plan_id":"cebpf4jnsgd1na2vs0mg"},{"bike_id":"0bed7dc0-20b6-4fe8-96de-eb2705ec767e","system_id":"levelo_inurba_marseille","lat":43.28624,"lon":5.35111,"is_reserved":false,"is_disabled":false,"rental_uris":{"android":"levelo://app?vid=0bed7dc0-20b6-4fe8-96de-eb2705ec767e","ios":"levelo://app?vid=0bed7dc0-20b6-4fe8-96de-eb2705ec767e"},"vehicle_type_id":"4","last_reported":1751286071,"current_range_meters":16000,"station_id":"ce4bhch2rcd13ifvqeug","pricing_plan_id":"cebpf4jnsgd1na2vs0mg"},{"bike_id":"979de6cf-c504-49d9-a2a6-718fedec1306","system_id":"levelo_inurba_marseille","lat":43.24993,"lon":5.38918,"is_reserved":false,"is_disabled":false,"rental_uris":{"android":"levelo://app?vid=979de6cf-c504-49d9-a2a6-718fedec1306","ios":"levelo://app?vid=979de6cf-c504-49d9-a2a6-718fedec1306"},"vehicle_type_id":"4","last_reported":1751286071,"current_range_meters":16000,"station_id":"ce4bhgp2rcd13ifvqfd0","pricing_plan_id":"cebpf4jnsgd1na2vs0mg"},{"bike_id":"f405098e-fff0-4b52-8bd2-72875472612c","system_id":"levelo_inurba_marseille","lat":43.26225,"lon":5.40464,"is_reserved":false,"is_disabled":false,"rental_uris":{"android":"levelo://app?vid=f405098e-fff0-4b52-8bd2-72875472612c","ios":"levelo://app?vid=f405098e-fff0-4b52-8bd2-72875472612c"},"vehicle_type_id":"4","last_reported":1751286071,"current_range_meters":16000,"station_id":"ce4bhmh2rcd13ifvqgmg","pricing_plan_id":"cebpf4jnsgd1na2vs0mg"},{"bike_id":"cb629d32-9243-47f3-82d1-0d4490e87fe8","system_id":"levelo_inurba_marseille","lat":43.24073,"lon":5.37768,"is_reserved":false,"is_disabled":false,"rental_uris":{"android":"levelo://app?vid=cb629d32-9243-47f3-82d1-0d4490e87fe8","ios":"levelo://app?vid=cb629d32-9243-47f3-82d1-0d4490e87fe8"},"vehicle_type_id":"4","last_reported":1751286071,"current_range_meters":16000,"station_id":"ce4bhnp2rcd13ifvqgvg","pricing_plan_id":"cebpf4jnsgd1na2vs0mg"},{"bike_id":"2b800ced-c957-4313-a47a-b6b23d176a2a","system_id":"levelo_inurba_marseille","lat":43.23194,"lon":5.35543,"is_reserved":false,"is_disabled":false,"rental_uris":{"android":"levelo://app?vid=2b800ced-c957-4313-a47a-b6b23d176a2a","ios":"levelo://app?vid=2b800ced-c957-4313-a47a-b6b23d176a2a"},"vehicle_type_id":"4","last_reported":1751286071,"current_range_meters":16000,"station_id":"ce4bhu92rcd13ifvqi70","pricing_plan_id":"cebpf4jnsgd1na2vs0mg"},{"bike_id":"aad466d4-9058-4038-a189-895fae6f1c28","system_id":"levelo_inurba_marseille","lat":43.21188,"lon":5.35082,"is_reserved":false,"is_disabled":false,"rental_uris":{"android":"levelo://app?vid=aad466d4-9058-4038-a189-895fae6f1c28","ios":"levelo://app?vid=aad466d4-9058-4038-a189-895fae6f1c28"},"vehicle_type_id":"4","last_reported":1751286071,"current_range_meters":16000,"station_id":"st_cvj6sg6p6f1abm77japg","pricing_plan_id":"cebpf4jnsgd1na2vs0mg"},{"bike_id":"4f97e136-2006-43b5-84b8-8ce28f4647e9","system_id":"levelo_inurba_marseille","lat":43.2119,"lon":5.350659,"is_reserved":false,"is_disabled":false,"rental_uris":{"android":"levelo://app?vid=4f97e136-2006-43b5-84b8-8ce28f4647e9","ios":"levelo://app?vid=4f97e136-2006-43b5-84b8-8ce28f4647e9"},"vehicle_type_id":"4","last_reported":1751286071,"current_range_meters":16000,"station_id":"st_cvj6sg6p6f1abm77japg","pricing_plan_id":"cebpf4jnsgd1na2vs0mg"},{"bike_id":"8ceb2860-ca09-420a-8aab-fcf0c529a0d3","system_id":"levelo_inurba_marseille","lat":43.21194,"lon":5.35074,"is_reserved":false,"is_disabled":false,"rental_uris":{"android":"levelo://app?vid=8ceb2860-ca09-420a-8aab-fcf0c529a0d3","ios":"levelo://app?vid=8ceb2860-ca09-420a-8aab-fcf0c529a0d3"},"vehicle_type_id":"4","last_reported":1751286071,"current_range_meters":16000,"station_id":"st_cvj6sg6p6f1abm77japg","pricing_plan_id":"cebpf4jnsgd1na2vs0mg"},{"bike_id":"8eac5337-dd9c-44ea-94b9-37243243c011","system_id":"levelo_inurba_marseille","lat":43.28945,"lon":5.36379,"is_reserved":false,"is_disabled":false,"rental_uris":{"android":"levelo://app?vid=8eac5337-dd9c-44ea-94b9-37243243c011","ios":"levelo://app?vid=8eac5337-dd9c-44ea-94b9-37243243c011"},"vehicle_type_id":"4","last_reported":1751286071,"current_range_meters":16400,"station_id":"ce4bhc92rcd13ifvqetg","pricing_plan_id":"cebpf4jnsgd1na2vs0mg"},{"bike_id":"5055b4a4-826f-4131-8eb6-3a8abb7b57b8","system_id":"levelo_inurba_marseille","lat":43.27945,"lon":5.41054,"is_reserved":false,"is_disabled":false,"rental_uris":{"android":"levelo://app?vid=5055b4a4-826f-4131-8eb6-3a8abb7b57b8","ios":"levelo://app?vid=5055b4a4-826f-4131-8eb6-3a8abb7b57b8"},"vehicle_type_id":"4","last_reported":1751286071,"current_range_meters":16400,"station_id":"ce4bhnp2rcd13ifvqh0g","pricing_plan_id":"cebpf4jnsgd1na2vs0mg"},{"bike_id":"d8facb10-b967-4a32-9b5c-8cfed4bbd05b","system_id":"levelo_inurba_marseille","lat":43.321175,"lon":5.367662,"is_reserved":false,"is_disabled":false,"rental_uris":{"android":"levelo://app?vid=d8facb10-b967-4a32-9b5c-8cfed4bbd05b","ios":"levelo://app?vid=d8facb10-b967-4a32-9b5c-8cfed4bbd05b"},"vehicle_type_id":"4","last_reported":1751286071,"current_range_meters":16400,"station_id":"ce4bhrh2rcd13ifvqhug","pricing_plan_id":"cebpf4jnsgd1na2vs0mg"},{"bike_id":"27de128b-79d6-4ae4-99ba-8537bd95d5a2","system_id":"levelo_inurba_marseille","lat":43.32483,"lon":5.36578,"is_reserved":false,"is_disabled":false,"rental_uris":{"android":"levelo://app?vid=27de128b-79d6-4ae4-99ba-8537bd95d5a2","ios":"levelo://app?vid=27de128b-79d6-4ae4-99ba-8537bd95d5a2"},"vehicle_type_id":"4","last_reported":1751286071,"current_range_meters":16400,"station_id":"ce4bhs12rcd13ifvqhvg","pricing_plan_id":"cebpf4jnsgd1na2vs0mg"},{"bike_id":"a9a922ee-8c2a-4573-89f9-a2ef4b2069f3","system_id":"levelo_inurba_marseille","lat":43.26034,"lon":5.37549,"is_reserved":false,"is_disabled":false,"rental_uris":{"android":"levelo://app?vid=a9a922ee-8c2a-4573-89f9-a2ef4b2069f3","ios":"levelo://app?vid=a9a922ee-8c2a-4573-89f9-a2ef4b2069f3"},"vehicle_type_id":"4","last_reported":1751286071,"current_range_meters":16800,"station_id":"ce4bhgh2rcd13ifvqfa0","pricing_plan_id":"cebpf4jnsgd1na2vs0mg"},{"bike_id":"890d639b-1fd8-4653-a653-b3149c58aba6","system_id":"levelo_inurba_marseille","lat":43.24073,"lon":5.37762,"is_reserved":false,"is_disabled":false,"rental_uris":{"android":"levelo://app?vid=890d639b-1fd8-4653-a653-b3149c58aba6","ios":"levelo://app?vid=890d639b-1fd8-4653-a653-b3149c58aba6"},"vehicle_type_id":"4","last_reported":1751286071,"current_range_meters":16800,"station_id":"ce4bhnp2rcd13ifvqgvg","pricing_plan_id":"cebpf4jnsgd1na2vs0mg"},{"bike_id":"d5b79828-0b98-48d7-b7d3-8c3314e6e8ce","system_id":"levelo_inurba_marseille","lat":43.30566,"lon":5.36568,"is_reserved":false,"is_disabled":false,"rental_uris":{"android":"levelo://app?vid=d5b79828-0b98-48d7-b7d3-8c3314e6e8ce","ios":"levelo://app?vid=d5b79828-0b98-48d7-b7d3-8c3314e6e8ce"},"vehicle_type_id":"4","last_reported":1751286071,"current_range_meters":17200,"station_id":"ce4bgs12rcd13ifvqcag","pricing_plan_id":"cebpf4jnsgd1na2vs0mg"},{"bike_id":"2b4fa9d6-d55c-459f-b66a-601a052cf300","system_id":"levelo_inurba_marseille","lat":43.31483,"lon":5.37278,"is_reserved":false,"is_disabled":false,"rental_uris":{"android":"levelo://app?vid=2b4fa9d6-d55c-459f-b66a-601a052cf300","ios":"levelo://app?vid=2b4fa9d6-d55c-459f-b66a-601a052cf300"},"vehicle_type_id":"4","last_reported":1751286071,"current_range_meters":17200,"station_id":"ce4bgt12rcd13ifvqcd0","pricing_plan_id":"cebpf4jnsgd1na2vs0mg"},{"bike_id":"4e655acf-d4d1-4a8b-8d19-02fd22a769b2","system_id":"levelo_inurba_marseille","lat":43.28357,"lon":5.381,"is_reserved":false,"is_disabled":false,"rental_uris":{"android":"levelo://app?vid=4e655acf-d4d1-4a8b-8d19-02fd22a769b2","ios":"levelo://app?vid=4e655acf-d4d1-4a8b-8d19-02fd22a769b2"},"vehicle_type_id":"4","last_reported":1751286071,"current_range_meters":17200,"station_id":"ce4bh412rcd13ifvqdr0","pricing_plan_id":"cebpf4jnsgd1na2vs0mg"},{"bike_id":"7def622c-1243-44da-af36-4c505b4f00ba","system_id":"levelo_inurba_marseille","lat":43.241822,"lon":5.397346,"is_reserved":false,"is_disabled":false,"rental_uris":{"android":"levelo://app?vid=7def622c-1243-44da-af36-4c505b4f00ba","ios":"levelo://app?vid=7def622c-1243-44da-af36-4c505b4f00ba"},"vehicle_type_id":"4","last_reported":1751286071,"current_range_meters":17200,"station_id":"ce4bhn12rcd13ifvqgpg","pricing_plan_id":"cebpf4jnsgd1na2vs0mg"},{"bike_id":"204d208f-daa0-4122-81e6-f25addc2ff29","system_id":"levelo_inurba_marseille","lat":43.32482,"lon":5.36565,"is_reserved":false,"is_disabled":false,"rental_uris":{"android":"levelo://app?vid=204d208f-daa0-4122-81e6-f25addc2ff29","ios":"levelo://app?vid=204d208f-daa0-4122-81e6-f25addc2ff29"},"vehicle_type_id":"4","last_reported":1751286071,"current_range_meters":17200,"station_id":"ce4bhs12rcd13ifvqhvg","pricing_plan_id":"cebpf4jnsgd1na2vs0mg"},{"bike_id":"d90daeb2-baa5-4f84-8ba2-ffc1dcd4b96b","system_id":"levelo_inurba_marseille","lat":43.24169,"lon":5.3641,"is_reserved":false,"is_disabled":false,"rental_uris":{"android":"levelo://app?vid=d90daeb2-baa5-4f84-8ba2-ffc1dcd4b96b","ios":"levelo://app?vid=d90daeb2-baa5-4f84-8ba2-ffc1dcd4b96b"},"vehicle_type_id":"4","last_reported":1751286071,"current_range_meters":17200,"station_id":"cpo36qri1sfpv3e86is0","pricing_plan_id":"cebpf4jnsgd1na2vs0mg"},{"bike_id":"048ec6e9-5fd9-4256-ae6a-a72856ab2acf","system_id":"levelo_inurba_marseille","lat":43.21196,"lon":5.3508,"is_reserved":false,"is_disabled":false,"rental_uris":{"android":"levelo://app?vid=048ec6e9-5fd9-4256-ae6a-a72856ab2acf","ios":"levelo://app?vid=048ec6e9-5fd9-4256-ae6a-a72856ab2acf"},"vehicle_type_id":"4","last_reported":1751286071,"current_range_meters":17200,"station_id":"st_cvj6sg6p6f1abm77japg","pricing_plan_id":"cebpf4jnsgd1na2vs0mg"},{"bike_id":"d5da5bd9-7c2a-48e5-92aa-fa21076cad13","system_id":"levelo_inurba_marseille","lat":43.21183,"lon":5.35055,"is_reserved":false,"is_disabled":false,"rental_uris":{"android":"levelo://app?vid=d5da5bd9-7c2a-48e5-92aa-fa21076cad13","ios":"levelo://app?vid=d5da5bd9-7c2a-48e5-92aa-fa21076cad13"},"vehicle_type_id":"4","last_reported":1751286071,"current_range_meters":17200,"station_id":"st_cvj6sg6p6f1abm77japg","pricing_plan_id":"cebpf4jnsgd1na2vs0mg"},{"bike_id":"2b00f85c-afc2-4eb0-88ab-41788c093f5c","system_id":"levelo_inurba_marseille","lat":43.297,"lon":5.36622,"is_reserved":false,"is_disabled":false,"rental_uris":{"android":"levelo://app?vid=2b00f85c-afc2-4eb0-88ab-41788c093f5c","ios":"levelo://app?vid=2b00f85c-afc2-4eb0-88ab-41788c093f5c"},"vehicle_type_id":"4","last_reported":1751286071,"current_range_meters":17600,"station_id":"ce4bgn12rcd13ifvqbt0","pricing_plan_id":"cebpf4jnsgd1na2vs0mg"},{"bike_id":"25eba338-a71f-4212-82e9-7d5b4b940b40","system_id":"levelo_inurba_marseille","lat":43.28722,"lon":5.37952,"is_reserved":false,"is_disabled":false,"rental_uris":{"android":"levelo://app?vid=25eba338-a71f-4212-82e9-7d5b4b940b40","ios":"levelo://app?vid=25eba338-a71f-4212-82e9-7d5b4b940b40"},"vehicle_type_id":"4","last_reported":1751286071,"current_range_meters":17600,"station_id":"ce4bh9p2rcd13ifvqec0","pricing_plan_id":"cebpf4jnsgd1na2vs0mg"},{"bike_id":"1f661faa-cede-4731-b487-03caca668662","system_id":"levelo_inurba_marseille","lat":43.2826,"lon":5.35082,"is_reserved":false,"is_disabled":false,"rental_uris":{"android":"levelo://app?vid=1f661faa-cede-4731-b487-03caca668662","ios":"levelo://app?vid=1f661faa-cede-4731-b487-03caca668662"},"vehicle_type_id":"4","last_reported":1751286071,"current_range_meters":17600,"station_id":"ce4bhbp2rcd13ifvqerg","pricing_plan_id":"cebpf4jnsgd1na2vs0mg"},{"bike_id":"e552832c-7ca2-4106-b0f9-92bbabda27d1","system_id":"levelo_inurba_marseille","lat":43.212,"lon":5.35095,"is_reserved":false,"is_disabled":false,"rental_uris":{"android":"levelo://app?vid=e552832c-7ca2-4106-b0f9-92bbabda27d1","ios":"levelo://app?vid=e552832c-7ca2-4106-b0f9-92bbabda27d1"},"vehicle_type_id":"4","last_reported":1751286071,"current_range_meters":17600,"station_id":"st_cvj6sg6p6f1abm77japg","pricing_plan_id":"cebpf4jnsgd1na2vs0mg"},{"bike_id":"b13877a6-4825-4d82-b46b-67fa8ad66c5d","system_id":"levelo_inurba_marseille","lat":43.21191,"lon":5.35075,"is_reserved":false,"is_disabled":false,"rental_uris":{"android":"levelo://app?vid=b13877a6-4825-4d82-b46b-67fa8ad66c5d","ios":"levelo://app?vid=b13877a6-4825-4d82-b46b-67fa8ad66c5d"},"vehicle_type_id":"4","last_reported":1751286071,"current_range_meters":17600,"station_id":"st_cvj6sg6p6f1abm77japg","pricing_plan_id":"cebpf4jnsgd1na2vs0mg"},{"bike_id":"e891d413-f511-44d4-9ddd-90f57509289b","system_id":"levelo_inurba_marseille","lat":43.31707,"lon":5.3678,"is_reserved":false,"is_disabled":false,"rental_uris":{"android":"levelo://app?vid=e891d413-f511-44d4-9ddd-90f57509289b","ios":"levelo://app?vid=e891d413-f511-44d4-9ddd-90f57509289b"},"vehicle_type_id":"4","last_reported":1751286071,"current_range_meters":18000,"station_id":"","pricing_plan_id":"cebpf4jnsgd1na2vs0mg"},{"bike_id":"1c1e0436-c990-4c38-b11e-d6968f287975","system_id":"levelo_inurba_marseille","lat":43.29591,"lon":5.36793,"is_reserved":false,"is_disabled":false,"rental_uris":{"android":"levelo://app?vid=1c1e0436-c990-4c38-b11e-d6968f287975","ios":"levelo://app?vid=1c1e0436-c990-4c38-b11e-d6968f287975"},"vehicle_type_id":"4","last_reported":1751286071,"current_range_meters":18000,"station_id":"","pricing_plan_id":"cebpf4jnsgd1na2vs0mg"},{"bike_id":"c2b72fe0-bae6-4c7b-ad48-9e771b203dc8","system_id":"levelo_inurba_marseille","lat":43.31357,"lon":5.38475,"is_reserved":false,"is_disabled":false,"rental_uris":{"android":"levelo://app?vid=c2b72fe0-bae6-4c7b-ad48-9e771b203dc8","ios":"levelo://app?vid=c2b72fe0-bae6-4c7b-ad48-9e771b203dc8"},"vehicle_type_id":"4","last_reported":1751286071,"current_range_meters":18000,"station_id":"ce4bgt92rcd13ifvqcf0","pricing_plan_id":"cebpf4jnsgd1na2vs0mg"},{"bike_id":"75cd3adb-c1a5-4cf8-8691-a6fcebcedce0","system_id":"levelo_inurba_marseille","lat":43.27385,"lon":5.3626,"is_reserved":false,"is_disabled":false,"rental_uris":{"android":"levelo://app?vid=75cd3adb-c1a5-4cf8-8691-a6fcebcedce0","ios":"levelo://app?vid=75cd3adb-c1a5-4cf8-8691-a6fcebcedce0"},"vehicle_type_id":"4","last_reported":1751286071,"current_range_meters":18000,"station_id":"ce4bhbh2rcd13ifvqeo0","pricing_plan_id":"cebpf4jnsgd1na2vs0mg"},{"bike_id":"d35f93e9-dc7b-48ca-a3d7-0ff3ed695426","system_id":"levelo_inurba_marseille","lat":43.28279,"lon":5.35074,"is_reserved":false,"is_disabled":false,"rental_uris":{"android":"levelo://app?vid=d35f93e9-dc7b-48ca-a3d7-0ff3ed695426","ios":"levelo://app?vid=d35f93e9-dc7b-48ca-a3d7-0ff3ed695426"},"vehicle_type_id":"4","last_reported":1751286071,"current_range_meters":18000,"station_id":"ce4bhbp2rcd13ifvqerg","pricing_plan_id":"cebpf4jnsgd1na2vs0mg"},{"bike_id":"714e81cc-0a88-4f76-a904-b1c3a28974fe","system_id":"levelo_inurba_marseille","lat":43.2862,"lon":5.35122,"is_reserved":false,"is_disabled":false,"rental_uris":{"android":"levelo://app?vid=714e81cc-0a88-4f76-a904-b1c3a28974fe","ios":"levelo://app?vid=714e81cc-0a88-4f76-a904-b1c3a28974fe"},"vehicle_type_id":"4","last_reported":1751286071,"current_range_meters":18000,"station_id":"ce4bhch2rcd13ifvqeug","pricing_plan_id":"cebpf4jnsgd1na2vs0mg"},{"bike_id":"e01419d7-8f44-4040-82d4-ead02b262976","system_id":"levelo_inurba_marseille","lat":43.26189,"lon":5.37453,"is_reserved":false,"is_disabled":false,"rental_uris":{"android":"levelo://app?vid=e01419d7-8f44-4040-82d4-ead02b262976","ios":"levelo://app?vid=e01419d7-8f44-4040-82d4-ead02b262976"},"vehicle_type_id":"4","last_reported":1751286071,"current_range_meters":18000,"station_id":"ce4bhgp2rcd13ifvqfc0","pricing_plan_id":"cebpf4jnsgd1na2vs0mg"},{"bike_id":"0e1947be-a168-4a7d-b759-41db26abc88e","system_id":"levelo_inurba_marseille","lat":43.26212,"lon":5.37904,"is_reserved":false,"is_disabled":false,"rental_uris":{"android":"levelo://app?vid=0e1947be-a168-4a7d-b759-41db26abc88e","ios":"levelo://app?vid=0e1947be-a168-4a7d-b759-41db26abc88e"},"vehicle_type_id":"4","last_reported":1751286071,"current_range_meters":18000,"station_id":"ce4bhjp2rcd13ifvqg90","pricing_plan_id":"cebpf4jnsgd1na2vs0mg"},{"bike_id":"0d839b5e-baaf-4b32-8658-bb0d20744629","system_id":"levelo_inurba_marseille","lat":43.21198,"lon":5.35081,"is_reserved":false,"is_disabled":false,"rental_uris":{"android":"levelo://app?vid=0d839b5e-baaf-4b32-8658-bb0d20744629","ios":"levelo://app?vid=0d839b5e-baaf-4b32-8658-bb0d20744629"},"vehicle_type_id":"4","last_reported":1751286071,"current_range_meters":18000,"station_id":"st_cvj6sg6p6f1abm77japg","pricing_plan_id":"cebpf4jnsgd1na2vs0mg"},{"bike_id":"c71a1e96-0dfb-45e6-948f-a7991373f41f","system_id":"levelo_inurba_marseille","lat":43.290188,"lon":5.38126,"is_reserved":false,"is_disabled":false,"rental_uris":{"android":"levelo://app?vid=c71a1e96-0dfb-45e6-948f-a7991373f41f","ios":"levelo://app?vid=c71a1e96-0dfb-45e6-948f-a7991373f41f"},"vehicle_type_id":"4","last_reported":1751286071,"current_range_meters":18800,"station_id":"","pricing_plan_id":"cebpf4jnsgd1na2vs0mg"},{"bike_id":"82004ff7-d53c-49a4-994b-11f07a7a39e7","system_id":"levelo_inurba_marseille","lat":43.30152,"lon":5.38096,"is_reserved":false,"is_disabled":false,"rental_uris":{"android":"levelo://app?vid=82004ff7-d53c-49a4-994b-11f07a7a39e7","ios":"levelo://app?vid=82004ff7-d53c-49a4-994b-11f07a7a39e7"},"vehicle_type_id":"4","last_reported":1751286071,"current_range_meters":18800,"station_id":"ce4bgjp2rcd13ifvqbh0","pricing_plan_id":"cebpf4jnsgd1na2vs0mg"},{"bike_id":"d5e5e1df-296b-4f71-b890-9f38a388ca72","system_id":"levelo_inurba_marseille","lat":43.284149,"lon":5.349685,"is_reserved":false,"is_disabled":false,"rental_uris":{"android":"levelo://app?vid=d5e5e1df-296b-4f71-b890-9f38a388ca72","ios":"levelo://app?vid=d5e5e1df-296b-4f71-b890-9f38a388ca72"},"vehicle_type_id":"4","last_reported":1751286071,"current_range_meters":18800,"station_id":"ce4bhbh2rcd13ifvqepg","pricing_plan_id":"cebpf4jnsgd1na2vs0mg"},{"bike_id":"e25ba395-2bc9-44d2-8b95-073fe9e7fe66","system_id":"levelo_inurba_marseille","lat":43.286163,"lon":5.351086,"is_reserved":false,"is_disabled":false,"rental_uris":{"android":"levelo://app?vid=e25ba395-2bc9-44d2-8b95-073fe9e7fe66","ios":"levelo://app?vid=e25ba395-2bc9-44d2-8b95-073fe9e7fe66"},"vehicle_type_id":"4","last_reported":1751286071,"current_range_meters":18800,"station_id":"ce4bhch2rcd13ifvqeug","pricing_plan_id":"cebpf4jnsgd1na2vs0mg"},{"bike_id":"5dc5fe74-2593-45f7-8d01-f02c4041d204","system_id":"levelo_inurba_marseille","lat":43.24074,"lon":5.37766,"is_reserved":false,"is_disabled":false,"rental_uris":{"android":"levelo://app?vid=5dc5fe74-2593-45f7-8d01-f02c4041d204","ios":"levelo://app?vid=5dc5fe74-2593-45f7-8d01-f02c4041d204"},"vehicle_type_id":"4","last_reported":1751286071,"current_range_meters":18800,"station_id":"ce4bhnp2rcd13ifvqgvg","pricing_plan_id":"cebpf4jnsgd1na2vs0mg"},{"bike_id":"e56fc24a-ab61-412b-a208-b20cf4c3f3e0","system_id":"levelo_inurba_marseille","lat":43.30378,"lon":5.4249,"is_reserved":false,"is_disabled":false,"rental_uris":{"android":"levelo://app?vid=e56fc24a-ab61-412b-a208-b20cf4c3f3e0","ios":"levelo://app?vid=e56fc24a-ab61-412b-a208-b20cf4c3f3e0"},"vehicle_type_id":"4","last_reported":1751286071,"current_range_meters":18800,"station_id":"ce4bhoh2rcd13ifvqh6g","pricing_plan_id":"cebpf4jnsgd1na2vs0mg"},{"bike_id":"b8b91db8-618f-4e94-a14c-578880d0a181","system_id":"levelo_inurba_marseille","lat":43.32109,"lon":5.36773,"is_reserved":false,"is_disabled":false,"rental_uris":{"android":"levelo://app?vid=b8b91db8-618f-4e94-a14c-578880d0a181","ios":"levelo://app?vid=b8b91db8-618f-4e94-a14c-578880d0a181"},"vehicle_type_id":"4","last_reported":1751286071,"current_range_meters":18800,"station_id":"ce4bhrh2rcd13ifvqhug","pricing_plan_id":"cebpf4jnsgd1na2vs0mg"},{"bike_id":"ec59dc73-efec-49fb-a623-8c210bcd8f9c","system_id":"levelo_inurba_marseille","lat":43.21768,"lon":5.34595,"is_reserved":false,"is_disabled":false,"rental_uris":{"android":"levelo://app?vid=ec59dc73-efec-49fb-a623-8c210bcd8f9c","ios":"levelo://app?vid=ec59dc73-efec-49fb-a623-8c210bcd8f9c"},"vehicle_type_id":"4","last_reported":1751286071,"current_range_meters":18800,"station_id":"st_cvj6r9ubvosntc0bgbag","pricing_plan_id":"cebpf4jnsgd1na2vs0mg"},{"bike_id":"f603f3aa-5bf7-4a19-a8a1-b47909f854c7","system_id":"levelo_inurba_marseille","lat":43.21205,"lon":5.35064,"is_reserved":false,"is_disabled":false,"rental_uris":{"android":"levelo://app?vid=f603f3aa-5bf7-4a19-a8a1-b47909f854c7","ios":"levelo://app?vid=f603f3aa-5bf7-4a19-a8a1-b47909f854c7"},"vehicle_type_id":"4","last_reported":1751286071,"current_range_meters":18800,"station_id":"st_cvj6sg6p6f1abm77japg","pricing_plan_id":"cebpf4jnsgd1na2vs0mg"},{"bike_id":"fa16bbec-3211-49bd-a8b0-90a3ace4afe6","system_id":"levelo_inurba_marseille","lat":43.316,"lon":5.38477,"is_reserved":false,"is_disabled":false,"rental_uris":{"android":"levelo://app?vid=fa16bbec-3211-49bd-a8b0-90a3ace4afe6","ios":"levelo://app?vid=fa16bbec-3211-49bd-a8b0-90a3ace4afe6"},"vehicle_type_id":"4","last_reported":1751286071,"current_range_meters":19200,"station_id":"","pricing_plan_id":"cebpf4jnsgd1na2vs0mg"},{"bike_id":"f95ffdc9-116a-4bc7-aec8-97617d0768dd","system_id":"levelo_inurba_marseille","lat":43.296253,"lon":5.371533,"is_reserved":false,"is_disabled":false,"rental_uris":{"android":"levelo://app?vid=f95ffdc9-116a-4bc7-aec8-97617d0768dd","ios":"levelo://app?vid=f95ffdc9-116a-4bc7-aec8-97617d0768dd"},"vehicle_type_id":"4","last_reported":1751286071,"current_range_meters":19200,"station_id":"ce4bgnh2rcd13ifvqc0g","pricing_plan_id":"cebpf4jnsgd1na2vs0mg"},{"bike_id":"687f8bad-ed13-4b90-9b8c-d6f4bcb8bc95","system_id":"levelo_inurba_marseille","lat":43.30787,"lon":5.37642,"is_reserved":false,"is_disabled":false,"rental_uris":{"android":"levelo://app?vid=687f8bad-ed13-4b90-9b8c-d6f4bcb8bc95","ios":"levelo://app?vid=687f8bad-ed13-4b90-9b8c-d6f4bcb8bc95"},"vehicle_type_id":"4","last_reported":1751286071,"current_range_meters":19200,"station_id":"ce4bgv92rcd13ifvqcq0","pricing_plan_id":"cebpf4jnsgd1na2vs0mg"},{"bike_id":"bcc7a965-6238-4ac1-857f-945f01d77ce6","system_id":"levelo_inurba_marseille","lat":43.28404,"lon":5.34986,"is_reserved":false,"is_disabled":false,"rental_uris":{"android":"levelo://app?vid=bcc7a965-6238-4ac1-857f-945f01d77ce6","ios":"levelo://app?vid=bcc7a965-6238-4ac1-857f-945f01d77ce6"},"vehicle_type_id":"4","last_reported":1751286071,"current_range_meters":19200,"station_id":"ce4bhbh2rcd13ifvqepg","pricing_plan_id":"cebpf4jnsgd1na2vs0mg"},{"bike_id":"b7f9fbca-fef8-4355-bd42-70cd92158416","system_id":"levelo_inurba_marseille","lat":43.28273,"lon":5.35065,"is_reserved":false,"is_disabled":false,"rental_uris":{"android":"levelo://app?vid=b7f9fbca-fef8-4355-bd42-70cd92158416","ios":"levelo://app?vid=b7f9fbca-fef8-4355-bd42-70cd92158416"},"vehicle_type_id":"4","last_reported":1751286071,"current_range_meters":19200,"station_id":"ce4bhbp2rcd13ifvqerg","pricing_plan_id":"cebpf4jnsgd1na2vs0mg"},{"bike_id":"518354b5-8405-430c-bbfc-0e30bc76b92d","system_id":"levelo_inurba_marseille","lat":43.21767,"lon":5.34609,"is_reserved":false,"is_disabled":false,"rental_uris":{"android":"levelo://app?vid=518354b5-8405-430c-bbfc-0e30bc76b92d","ios":"levelo://app?vid=518354b5-8405-430c-bbfc-0e30bc76b92d"},"vehicle_type_id":"4","last_reported":1751286071,"current_range_meters":19600,"station_id":"","pricing_plan_id":"cebpf4jnsgd1na2vs0mg"},{"bike_id":"566cdaf1-8ce7-454a-aec9-c370e2c0ae71","system_id":"levelo_inurba_marseille","lat":43.29026,"lon":5.381386,"is_reserved":false,"is_disabled":false,"rental_uris":{"android":"levelo://app?vid=566cdaf1-8ce7-454a-aec9-c370e2c0ae71","ios":"levelo://app?vid=566cdaf1-8ce7-454a-aec9-c370e2c0ae71"},"vehicle_type_id":"4","last_reported":1751286071,"current_range_meters":19600,"station_id":"ce4bh4p2rcd13ifvqe1g","pricing_plan_id":"cebpf4jnsgd1na2vs0mg"},{"bike_id":"1a453c37-8ae1-4ffc-b781-ce43b72f0093","system_id":"levelo_inurba_marseille","lat":43.289273,"lon":5.384137,"is_reserved":false,"is_disabled":false,"rental_uris":{"android":"levelo://app?vid=1a453c37-8ae1-4ffc-b781-ce43b72f0093","ios":"levelo://app?vid=1a453c37-8ae1-4ffc-b781-ce43b72f0093"},"vehicle_type_id":"4","last_reported":1751286071,"current_range_meters":19600,"station_id":"ce4bh612rcd13ifvqe6g","pricing_plan_id":"cebpf4jnsgd1na2vs0mg"},{"bike_id":"0a24663d-7c62-458e-8d52-c21c6564ba2b","system_id":"levelo_inurba_marseille","lat":43.29209,"lon":5.3606,"is_reserved":false,"is_disabled":false,"rental_uris":{"android":"levelo://app?vid=0a24663d-7c62-458e-8d52-c21c6564ba2b","ios":"levelo://app?vid=0a24663d-7c62-458e-8d52-c21c6564ba2b"},"vehicle_type_id":"4","last_reported":1751286071,"current_range_meters":19600,"station_id":"ce4bhbh2rcd13ifvqeqg","pricing_plan_id":"cebpf4jnsgd1na2vs0mg"},{"bike_id":"2075e89f-11c6-43e1-9b98-ad74ed297031","system_id":"levelo_inurba_marseille","lat":43.26559,"lon":5.37286,"is_reserved":false,"is_disabled":false,"rental_uris":{"android":"levelo://app?vid=2075e89f-11c6-43e1-9b98-ad74ed297031","ios":"levelo://app?vid=2075e89f-11c6-43e1-9b98-ad74ed297031"},"vehicle_type_id":"4","last_reported":1751286071,"current_range_meters":19600,"station_id":"ce4bhg12rcd13ifvqf70","pricing_plan_id":"cebpf4jnsgd1na2vs0mg"},{"bike_id":"62356331-a304-4ae1-ae69-10136cbd3f1d","system_id":"levelo_inurba_marseille","lat":43.32089,"lon":5.36765,"is_reserved":false,"is_disabled":false,"rental_uris":{"android":"levelo://app?vid=62356331-a304-4ae1-ae69-10136cbd3f1d","ios":"levelo://app?vid=62356331-a304-4ae1-ae69-10136cbd3f1d"},"vehicle_type_id":"4","last_reported":1751286071,"current_range_meters":19600,"station_id":"ce4bhrh2rcd13ifvqhug","pricing_plan_id":"cebpf4jnsgd1na2vs0mg"},{"bike_id":"7b8b2bfa-7649-4ce3-b164-2ce7913e8067","system_id":"levelo_inurba_marseille","lat":43.2994,"lon":5.36555,"is_reserved":false,"is_disabled":false,"rental_uris":{"android":"levelo://app?vid=7b8b2bfa-7649-4ce3-b164-2ce7913e8067","ios":"levelo://app?vid=7b8b2bfa-7649-4ce3-b164-2ce7913e8067"},"vehicle_type_id":"4","last_reported":1751286071,"current_range_meters":20000,"station_id":"ce4bgm92rcd13ifvqbr0","pricing_plan_id":"cebpf4jnsgd1na2vs0mg"},{"bike_id":"bfb812c9-e815-4fdc-8c46-fa79173c8b62","system_id":"levelo_inurba_marseille","lat":43.2872,"lon":5.37942,"is_reserved":false,"is_disabled":false,"rental_uris":{"android":"levelo://app?vid=bfb812c9-e815-4fdc-8c46-fa79173c8b62","ios":"levelo://app?vid=bfb812c9-e815-4fdc-8c46-fa79173c8b62"},"vehicle_type_id":"4","last_reported":1751286071,"current_range_meters":20000,"station_id":"ce4bh9p2rcd13ifvqec0","pricing_plan_id":"cebpf4jnsgd1na2vs0mg"},{"bike_id":"f6731e9d-3d06-4b8f-8c90-1d07af0327a4","system_id":"levelo_inurba_marseille","lat":43.29159,"lon":5.37167,"is_reserved":false,"is_disabled":false,"rental_uris":{"android":"levelo://app?vid=f6731e9d-3d06-4b8f-8c90-1d07af0327a4","ios":"levelo://app?vid=f6731e9d-3d06-4b8f-8c90-1d07af0327a4"},"vehicle_type_id":"4","last_reported":1751286071,"current_range_meters":20000,"station_id":"ce4bha92rcd13ifvqeh0","pricing_plan_id":"cebpf4jnsgd1na2vs0mg"},{"bike_id":"44fb9aa8-65c2-49da-9a4c-c7f089b1eee5","system_id":"levelo_inurba_marseille","lat":43.25948,"lon":5.40911,"is_reserved":false,"is_disabled":false,"rental_uris":{"android":"levelo://app?vid=44fb9aa8-65c2-49da-9a4c-c7f089b1eee5","ios":"levelo://app?vid=44fb9aa8-65c2-49da-9a4c-c7f089b1eee5"},"vehicle_type_id":"4","last_reported":1751286071,"current_range_meters":20000,"station_id":"ce4bhm92rcd13ifvqglg","pricing_plan_id":"cebpf4jnsgd1na2vs0mg"},{"bike_id":"940c8448-39b7-4d8b-b4cc-9918765a5bbc","system_id":"levelo_inurba_marseille","lat":43.21186,"lon":5.35075,"is_reserved":false,"is_disabled":false,"rental_uris":{"android":"levelo://app?vid=940c8448-39b7-4d8b-b4cc-9918765a5bbc","ios":"levelo://app?vid=940c8448-39b7-4d8b-b4cc-9918765a5bbc"},"vehicle_type_id":"4","last_reported":1751286071,"current_range_meters":20000,"station_id":"st_cvj6sg6p6f1abm77japg","pricing_plan_id":"cebpf4jnsgd1na2vs0mg"},{"bike_id":"86fa6ce7-8cbe-47ff-b5d3-c2b4938fd05c","system_id":"levelo_inurba_marseille","lat":43.21203,"lon":5.3506,"is_reserved":false,"is_disabled":false,"rental_uris":{"android":"levelo://app?vid=86fa6ce7-8cbe-47ff-b5d3-c2b4938fd05c","ios":"levelo://app?vid=86fa6ce7-8cbe-47ff-b5d3-c2b4938fd05c"},"vehicle_type_id":"4","last_reported":1751286071,"current_range_meters":20000,"station_id":"st_cvj6sg6p6f1abm77japg","pricing_plan_id":"cebpf4jnsgd1na2vs0mg"},{"bike_id":"8edbf84c-2b7b-4b3c-89f3-04e6ec75d805","system_id":"levelo_inurba_marseille","lat":43.286142,"lon":5.351043,"is_reserved":false,"is_disabled":false,"rental_uris":{"android":"levelo://app?vid=8edbf84c-2b7b-4b3c-89f3-04e6ec75d805","ios":"levelo://app?vid=8edbf84c-2b7b-4b3c-89f3-04e6ec75d805"},"vehicle_type_id":"4","last_reported":1751286071,"current_range_meters":20400,"station_id":"","pricing_plan_id":"cebpf4jnsgd1na2vs0mg"},{"bike_id":"5767b9e4-81ec-40bf-bccc-db289ba35b4e","system_id":"levelo_inurba_marseille","lat":43.27401,"lon":5.41255,"is_reserved":false,"is_disabled":false,"rental_uris":{"android":"levelo://app?vid=5767b9e4-81ec-40bf-bccc-db289ba35b4e","ios":"levelo://app?vid=5767b9e4-81ec-40bf-bccc-db289ba35b4e"},"vehicle_type_id":"4","last_reported":1751286071,"current_range_meters":20400,"station_id":"","pricing_plan_id":"cebpf4jnsgd1na2vs0mg"},{"bike_id":"1de379aa-1559-48ec-a4e8-5ec178931aed","system_id":"levelo_inurba_marseille","lat":43.30601,"lon":5.37234,"is_reserved":false,"is_disabled":false,"rental_uris":{"android":"levelo://app?vid=1de379aa-1559-48ec-a4e8-5ec178931aed","ios":"levelo://app?vid=1de379aa-1559-48ec-a4e8-5ec178931aed"},"vehicle_type_id":"4","last_reported":1751286071,"current_range_meters":20400,"station_id":"ce4bgqh2rcd13ifvqc4g","pricing_plan_id":"cebpf4jnsgd1na2vs0mg"},{"bike_id":"d2019eb4-f450-4e51-abec-b5191e2306d5","system_id":"levelo_inurba_marseille","lat":43.29912,"lon":5.43687,"is_reserved":false,"is_disabled":false,"rental_uris":{"android":"levelo://app?vid=d2019eb4-f450-4e51-abec-b5191e2306d5","ios":"levelo://app?vid=d2019eb4-f450-4e51-abec-b5191e2306d5"},"vehicle_type_id":"4","last_reported":1751286071,"current_range_meters":20800,"station_id":"","pricing_plan_id":"cebpf4jnsgd1na2vs0mg"},{"bike_id":"e53dde21-c96a-452c-8ea7-164fdef48f03","system_id":"levelo_inurba_marseille","lat":43.29798,"lon":5.38099,"is_reserved":false,"is_disabled":false,"rental_uris":{"android":"levelo://app?vid=e53dde21-c96a-452c-8ea7-164fdef48f03","ios":"levelo://app?vid=e53dde21-c96a-452c-8ea7-164fdef48f03"},"vehicle_type_id":"4","last_reported":1751286071,"current_range_meters":20800,"station_id":"ce4bgip2rcd13ifvqbb0","pricing_plan_id":"cebpf4jnsgd1na2vs0mg"},