{"last_updated":1736215946,"ttl":60,"version":"2.2","data":{"bikes":[{"bike_id":"858bd43e-5fdd-4e4e-b8dc-df4e2d53b013","system_id":"levelo_inurba_marseille","lat":43.25814,"lon":5.39426,"is_reserved":false,"is_disabled":false,"rental_uris":{"android":"levelo://app?vid=858bd43e-5fdd-4e4e-b8dc-df4e2d53b013","ios":"levelo://app?vid=858bd43e-5fdd-4e4e-b8dc-df4e2d53b013"},"vehicle_type_id":"4","last_reported":1736215946,"current_range_meters":28400,"station_id":"ce4bhip2rcd13ifvqft0","pricing_plan_id":"cebpf4jnsgd1na2vs0mg"},{"bike_id":"6468ca15-1b81-4ca0-9d51-e5a545b05c54","system_id":"levelo_inurba_marseille","lat":43.27829,"lon":5.40697,"is_reserved":false,"is_disabled":true,"rental_uris":{"android":"levelo://app?vid=6468ca15-1b81-4ca0-9d51-e5a545b05c54","ios":"levelo://app?vid=6468ca15-1b81-4ca0-9d51-e5a545b05c54"},"vehicle_type_id":"4","last_reported":1736215946,"current_range_meters":27600,"station_id":"ce4bhnh2rcd13ifvqgtg","pricing_plan_id":"cebpf4jnsgd1na2vs0mg"},{"bike_id":"eab8fa68-5664-4786-8ae7-c43d42aa8d90","system_id":"levelo_inurba_marseille","lat":43.2804,"lon":5.36928,"is_reserved":false,"is_disabled":false,"rental_uris":{"android":"levelo://app?vid=eab8fa68-5664-4786-8ae7-c43d42aa8d90","ios":"levelo://app?vid=eab8fa68-5664-4786-8ae7-c43d42aa8d90"},"vehicle_type_id":"4","last_reported":1736215946,"current_range_meters":29600,"station_id":"ce4bha12rcd13ifvqef0","pricing_plan_id":"cebpf4jnsgd1na2vs0mg"},{"bike_id":"623f145b-802d-46cd-b53c-00b8e04cdde8","system_id":"levelo_inurba_marseille","lat":43.31745,"lon":5.39015,"is_reserved":false,"is_disabled":false,"rental_uris":{"android":"levelo://app?vid=623f145b-802d-46cd-b53c-00b8e04cdde8","ios":"levelo://app?vid=623f145b-802d-46cd-b53c-00b8e04cdde8"},"vehicle_type_id":"4","last_reported":1736215946,"current_range_meters":18800,"station_id":"ce4bhqp2rcd13ifvqhng","pricing_plan_id":"cebpf4jnsgd1na2vs0mg"},{"bike_id":"097224e0-ce7b-432c-9fb3-535a6d02392f","system_id":"levelo_inurba_marseille","lat":43.27565,"lon":5.38439,"is_reserved":false,"is_disabled":false,"rental_uris":{"android":"levelo://app?vid=097224e0-ce7b-432c-9fb3-535a6d02392f","ios":"levelo://app?vid=097224e0-ce7b-432c-9fb3-535a6d02392f"},"vehicle_type_id":"4","last_reported":1736215946,"current_range_meters":37600,"station_id":"ce4bhh92rcd13ifvqfi0","pricing_plan_id":"cebpf4jnsgd1na2vs0mg"},{"bike_id":"fff7d8fc-4a76-45cf-a1cc-715ce689d361","system_id":"levelo_inurba_marseille","lat":43.2795,"lon":5.4104,"is_reserved":false,"is_disabled":false,"rental_uris":{"android":"levelo://app?vid=fff7d8fc-4a76-45cf-a1cc-715ce689d361","ios":"levelo://app?vid=fff7d8fc-4a76-45cf-a1cc-715ce689d361"},"vehicle_type_id":"4","last_reported":1736215946,"current_range_meters":24400,"station_id":"ce4bhnp2rcd13ifvqh0g","pricing_plan_id":"cebpf4jnsgd1na2vs0mg"},{"bike_id":"75397313-d2f3-43d1-95c6-cca2420d0a1c","system_id":"levelo_inurba_marseille","lat":43.28002,"lon":5.40018,"is_reserved":false,"is_disabled":false,"rental_uris":{"android":"levelo://app?vid=75397313-d2f3-43d1-95c6-cca2420d0a1c","ios":"levelo://app?vid=75397313-d2f3-43d1-95c6-cca2420d0a1c"},"vehicle_type_id":"4","last_reported":1736215946,"current_range_meters":38400,"station_id":"ce4bho92rcd13ifvqh4g","pricing_plan_id":"cebpf4jnsgd1na2vs0mg"},{"bike_id":"0153ae28-9422-4039-87f8-952c80b8c9cc","system_id":"levelo_inurba_marseille","lat":43.273168,"lon":5.391112,"is_reserved":false,"is_disabled":true,"rental_uris":{"android":"levelo://app?vid=0153ae28-9422-4039-87f8-952c80b8c9cc","ios":"levelo://app?vid=0153ae28-9422-4039-87f8-952c80b8c9cc"},"vehicle_type_id":"4","last_reported":1736215946,"current_range_meters":33600,"station_id":"ce4bhgp2rcd13ifvqfe0","pricing_plan_id":"cebpf4jnsgd1na2vs0mg"},{"bike_id":"1c2c3464-8b3a-4eab-9fdd-fd6c6e2d5657","system_id":"levelo_inurba_marseille","lat":43.28662,"lon":5.38672,"is_reserved":false,"is_disabled":true,"rental_uris":{"android":"levelo://app?vid=1c2c3464-8b3a-4eab-9fdd-fd6c6e2d5657","ios":"levelo://app?vid=1c2c3464-8b3a-4eab-9fdd-fd6c6e2d5657"},"vehicle_type_id":"4","last_reported":1736215946,"current_range_meters":2000,"station_id":"ce4bh492rcd13ifvqdug","pricing_plan_id":"cebpf4jnsgd1na2vs0mg"},{"bike_id":"4d557de7-c82d-4422-a616-878f1c1fa4a9","system_id":"levelo_inurba_marseille","lat":43.31736,"lon":5.39028,"is_reserved":false,"is_disabled":false,"rental_uris":{"android":"levelo://app?vid=4d557de7-c82d-4422-a616-878f1c1fa4a9","ios":"levelo://app?vid=4d557de7-c82d-4422-a616-878f1c1fa4a9"},"vehicle_type_id":"4","last_reported":1736215946,"current_range_meters":24800,"station_id":"ce4bhqp2rcd13ifvqhng","pricing_plan_id":"cebpf4jnsgd1na2vs0mg"},{"bike_id":"5bb34035-c477-40c8-94f5-ed18ca81e2f1","system_id":"levelo_inurba_marseille","lat":43.29569,"lon":5.39962,"is_reserved":false,"is_disabled":false,"rental_uris":{"android":"levelo://app?vid=5bb34035-c477-40c8-94f5-ed18ca81e2f1","ios":"levelo://app?vid=5bb34035-c477-40c8-94f5-ed18ca81e2f1"},"vehicle_type_id":"4","last_reported":1736215946,"current_range_meters":32000,"station_id":"ce4bh312rcd13ifvqdj0","pricing_plan_id":"cebpf4jnsgd1na2vs0mg"},{"bike_id":"e8f7458c-cf19-43d7-a972-43547ad9fe30","system_id":"levelo_inurba_marseille","lat":43.27172,"lon":5.40994,"is_reserved":false,"is_disabled":false,"rental_uris":{"android":"levelo://app?vid=e8f7458c-cf19-43d7-a972-43547ad9fe30","ios":"levelo://app?vid=e8f7458c-cf19-43d7-a972-43547ad9fe30"},"vehicle_type_id":"4","last_reported":1736215946,"current_range_meters":5600,"station_id":"ce4bhl12rcd13ifvqgf0","pricing_plan_id":"cebpf4jnsgd1na2vs0mg"},{"bike_id":"05a2c15a-fb68-455c-8082-fdf747a62fe7","system_id":"levelo_inurba_marseille","lat":43.27808,"lon":5.4071,"is_reserved":false,"is_disabled":true,"rental_uris":{"android":"levelo://app?vid=05a2c15a-fb68-455c-8082-fdf747a62fe7","ios":"levelo://app?vid=05a2c15a-fb68-455c-8082-fdf747a62fe7"},"vehicle_type_id":"4","last_reported":1736215946,"current_range_meters":0,"station_id":"ce4bhnh2rcd13ifvqgtg","pricing_plan_id":"cebpf4jnsgd1na2vs0mg"},{"bike_id":"977039bd-2713-4c83-a12d-15fa8ba10849","system_id":"levelo_inurba_marseille","lat":43.28715,"lon":5.37942,"is_reserved":false,"is_disabled":true,"rental_uris":{"android":"levelo://app?vid=977039bd-2713-4c83-a12d-15fa8ba10849","ios":"levelo://app?vid=977039bd-2713-4c83-a12d-15fa8ba10849"},"vehicle_type_id":"4","last_reported":1736215946,"current_range_meters":24000,"station_id":"ce4bh9p2rcd13ifvqec0","pricing_plan_id":"cebpf4jnsgd1na2vs0mg"},{"bike_id":"795f0bf4-6cb2-4181-a990-1a76c6d73ea0","system_id":"levelo_inurba_marseille","lat":43.27959,"lon":5.41027,"is_reserved":false,"is_disabled":true,"rental_uris":{"android":"levelo://app?vid=795f0bf4-6cb2-4181-a990-1a76c6d73ea0","ios":"levelo://app?vid=795f0bf4-6cb2-4181-a990-1a76c6d73ea0"},"vehicle_type_id":"4","last_reported":1736215946,"current_range_meters":37600,"station_id":"ce4bhnp2rcd13ifvqh0g","pricing_plan_id":"cebpf4jnsgd1na2vs0mg"},{"bike_id":"f66dc5df-a154-48ab-8b16-4ac7b002ab2a","system_id":"levelo_inurba_marseille","lat":43.31366,"lon":5.384953,"is_reserved":false,"is_disabled":false,"rental_uris":{"android":"levelo://app?vid=f66dc5df-a154-48ab-8b16-4ac7b002ab2a","ios":"levelo://app?vid=f66dc5df-a154-48ab-8b16-4ac7b002ab2a"},"vehicle_type_id":"4","last_reported":1736215946,"current_range_meters":33600,"station_id":"ce4bgt92rcd13ifvqcf0","pricing_plan_id":"cebpf4jnsgd1na2vs0mg"},{"bike_id":"a7daa7e8-1c32-4c5e-8957-1f51d47bc446","system_id":"levelo_inurba_marseille","lat":43.279153,"lon":5.395827,"is_reserved":false,"is_disabled":false,"rental_uris":{"android":"levelo://app?vid=a7daa7e8-1c32-4c5e-8957-1f51d47bc446","ios":"levelo://app?vid=a7daa7e8-1c32-4c5e-8957-1f51d47bc446"},"vehicle_type_id":"4","last_reported":1736215946,"current_range_meters":28000,"station_id":"ce4bhf92rcd13ifvqf40","pricing_plan_id":"cebpf4jnsgd1na2vs0mg"},{"bike_id":"2e3020fc-739e-484f-aff1-968aa18f2ac1","system_id":"levelo_inurba_marseille","lat":43.27976,"lon":5.41645,"is_reserved":false,"is_disabled":true,"rental_uris":{"android":"levelo://app?vid=2e3020fc-739e-484f-aff1-968aa18f2ac1","ios":"levelo://app?vid=2e3020fc-739e-484f-aff1-968aa18f2ac1"},"vehicle_type_id":"4","last_reported":1736215946,"current_range_meters":38000,"station_id":"ce4bho12rcd13ifvqh1g","pricing_plan_id":"cebpf4jnsgd1na2vs0mg"},{"bike_id":"416c9346-9d17-47e5-b17e-e2f42f850ebb","system_id":"levelo_inurba_marseille","lat":43.30405,"lon":5.41271,"is_reserved":false,"is_disabled":false,"rental_uris":{"android":"levelo://app?vid=416c9346-9d17-47e5-b17e-e2f42f850ebb","ios":"levelo://app?vid=416c9346-9d17-47e5-b17e-e2f42f850ebb"},"vehicle_type_id":"4","last_reported":1736215946,"current_range_meters":38000,"station_id":"ce4bhop2rcd13ifvqh8g","pricing_plan_id":"cebpf4jnsgd1na2vs0mg"},{"bike_id":"5290036f-9fe0-4030-8040-4248ae3ede17","system_id":"levelo_inurba_marseille","lat":43.31313,"lon":5.39731,"is_reserved":false,"is_disabled":false,"rental_uris":{"android":"levelo://app?vid=5290036f-9fe0-4030-8040-4248ae3ede17","ios":"levelo://app?vid=5290036f-9fe0-4030-8040-4248ae3ede17"},"vehicle_type_id":"4","last_reported":1736215946,"current_range_meters":39200,"station_id":"ce4bgvp2rcd13ifvqcu0","pricing_plan_id":"cebpf4jnsgd1na2vs0mg"},{"bike_id":"9bc564bb-6773-485d-ac7c-33edf80314fe","system_id":"levelo_inurba_marseille","lat":43.250105,"lon":5.38915,"is_reserved":false,"is_disabled":false,"rental_uris":{"android":"levelo://app?vid=9bc564bb-6773-485d-ac7c-33edf80314fe","ios":"levelo://app?vid=9bc564bb-6773-485d-ac7c-33edf80314fe"},"vehicle_type_id":"4","last_reported":1736215946,"current_range_meters":3600,"station_id":"ce4bhgp2rcd13ifvqfd0","pricing_plan_id":"cebpf4jnsgd1na2vs0mg"},{"bike_id":"c6462501-85fc-48e5-83ac-3bf58ccfa49e","system_id":"levelo_inurba_marseille","lat":43.2509,"lon":5.39529,"is_reserved":false,"is_disabled":false,"rental_uris":{"android":"levelo://app?vid=c6462501-85fc-48e5-83ac-3bf58ccfa49e","ios":"levelo://app?vid=c6462501-85fc-48e5-83ac-3bf58ccfa49e"},"vehicle_type_id":"4","last_reported":1736215946,"current_range_meters":28000,"station_id":"ce4bhm12rcd13ifvqgkg","pricing_plan_id":"cebpf4jnsgd1na2vs0mg"},{"bike_id":"84071e1b-5a30-4303-9dfe-9501f0584c4a","system_id":"levelo_inurba_marseille","lat":43.28703,"lon":5.37961,"is_reserved":false,"is_disabled":false,"rental_uris":{"android":"levelo://app?vid=84071e1b-5a30-4303-9dfe-9501f0584c4a","ios":"levelo://app?vid=84071e1b-5a30-4303-9dfe-9501f0584c4a"},"vehicle_type_id":"4","last_reported":1736215946,"current_range_meters":38000,"station_id":"ce4bh9p2rcd13ifvqec0","pricing_plan_id":"cebpf4jnsgd1na2vs0mg"},{"bike_id":"c6c5246a-6c57-426f-a7e1-dc372ef756c9","system_id":"levelo_inurba_marseille","lat":43.28458,"lon":5.35898,"is_reserved":false,"is_disabled":false,"rental_uris":{"android":"levelo://app?vid=c6c5246a-6c57-426f-a7e1-dc372ef756c9","ios":"levelo://app?vid=c6c5246a-6c57-426f-a7e1-dc372ef756c9"},"vehicle_type_id":"4","last_reported":1736215946,"current_range_meters":10800,"station_id":"ce4bhah2rcd13ifvqei0","pricing_plan_id":"cebpf4jnsgd1na2vs0mg"},{"bike_id":"4eeaeffa-480f-4a94-8286-42f1bcb601fc","system_id":"levelo_inurba_marseille","lat":43.29278,"lon":5.40107,"is_reserved":false,"is_disabled":true,"rental_uris":{"android":"levelo://app?vid=4eeaeffa-480f-4a94-8286-42f1bcb601fc","ios":"levelo://app?vid=4eeaeffa-480f-4a94-8286-42f1bcb601fc"},"vehicle_type_id":"4","last_reported":1736215946,"current_range_meters":19600,"station_id":"ce4bh312rcd13ifvqdk0","pricing_plan_id":"cebpf4jnsgd1na2vs0mg"},{"bike_id":"3dcc1c8e-6db9-4000-a7ee-f1b5b658ee7a","system_id":"levelo_inurba_marseille","lat":43.27168,"lon":5.40996,"is_reserved":false,"is_disabled":true,"rental_uris":{"android":"levelo://app?vid=3dcc1c8e-6db9-4000-a7ee-f1b5b658ee7a","ios":"levelo://app?vid=3dcc1c8e-6db9-4000-a7ee-f1b5b658ee7a"},"vehicle_type_id":"4","last_reported":1736215946,"current_range_meters":2000,"station_id":"ce4bhl12rcd13ifvqgf0","pricing_plan_id":"cebpf4jnsgd1na2vs0mg"},{"bike_id":"7785ab47-fc21-464f-82e3-4fad2439c0ee","system_id":"levelo_inurba_marseille","lat":43.2983,"lon":5.43715,"is_reserved":false,"is_disabled":false,"rental_uris":{"android":"levelo://app?vid=7785ab47-fc21-464f-82e3-4fad2439c0ee","ios":"levelo://app?vid=7785ab47-fc21-464f-82e3-4fad2439c0ee"},"vehicle_type_id":"4","last_reported":1736215946,"current_range_meters":17200,"station_id":"","pricing_plan_id":"cebpf4jnsgd1na2vs0mg"},{"bike_id":"abb7c72c-f444-45af-97ba-c60ca97008ea","system_id":"levelo_inurba_marseille","lat":43.25114,"lon":5.40318,"is_reserved":false,"is_disabled":false,"rental_uris":{"android":"levelo://app?vid=abb7c72c-f444-45af-97ba-c60ca97008ea","ios":"levelo://app?vid=abb7c72c-f444-45af-97ba-c60ca97008ea"},"vehicle_type_id":"4","last_reported":1736215946,"current_range_meters":38800,"station_id":"ce4bhlh2rcd13ifvqgig","pricing_plan_id":"cebpf4jnsgd1na2vs0mg"},{"bike_id":"9acb7625-b28a-437e-b5d0-d5fee7793fc2","system_id":"levelo_inurba_marseille","lat":43.31168,"lon":5.38729,"is_reserved":false,"is_disabled":false,"rental_uris":{"android":"levelo://app?vid=9acb7625-b28a-437e-b5d0-d5fee7793fc2","ios":"levelo://app?vid=9acb7625-b28a-437e-b5d0-d5fee7793fc2"},"vehicle_type_id":"4","last_reported":1736215946,"current_range_meters":38800,"station_id":"ce4bgv12rcd13ifvqcp0","pricing_plan_id":"cebpf4jnsgd1na2vs0mg"},{"bike_id":"78de9d92-a23c-4c51-a523-2a33a3e052d7","system_id":"levelo_inurba_marseille","lat":43.31174,"lon":5.38719,"is_reserved":false,"is_disabled":false,"rental_uris":{"android":"levelo://app?vid=78de9d92-a23c-4c51-a523-2a33a3e052d7","ios":"levelo://app?vid=78de9d92-a23c-4c51-a523-2a33a3e052d7"},"vehicle_type_id":"4","last_reported":1736215946,"current_range_meters":38800,"station_id":"ce4bgv12rcd13ifvqcp0","pricing_plan_id":"cebpf4jnsgd1na2vs0mg"},{"bike_id":"0576983b-2a2f-45db-8c7f-737629af9cf7","system_id":"levelo_inurba_marseille","lat":43.29547,"lon":5.42287,"is_reserved":false,"is_disabled":false,"rental_uris":{"android":"levelo://app?vid=0576983b-2a2f-45db-8c7f-737629af9cf7","ios":"levelo://app?vid=0576983b-2a2f-45db-8c7f-737629af9cf7"},"vehicle_type_id":"4","last_reported":1736215946,"current_range_meters":38800,"station_id":"ce4bhph2rcd13ifvqhdg","pricing_plan_id":"cebpf4jnsgd1na2vs0mg"},{"bike_id":"21d58c8f-34d7-4f20-9ab3-933a26280e93","system_id":"levelo_inurba_marseille","lat":43.28461,"lon":5.35898,"is_reserved":false,"is_disabled":false,"rental_uris":{"android":"levelo://app?vid=21d58c8f-34d7-4f20-9ab3-933a26280e93","ios":"levelo://app?vid=21d58c8f-34d7-4f20-9ab3-933a26280e93"},"vehicle_type_id":"4","last_reported":1736215946,"current_range_meters":38800,"station_id":"ce4bhah2rcd13ifvqei0","pricing_plan_id":"cebpf4jnsgd1na2vs0mg"},{"bike_id":"8f184f51-475e-4d80-838b-d9b3c793f3ea","system_id":"levelo_inurba_marseille","lat":43.30417,"lon":5.41281,"is_reserved":false,"is_disabled":false,"rental_uris":{"android":"levelo://app?vid=8f184f51-475e-4d80-838b-d9b3c793f3ea","ios":"levelo://app?vid=8f184f51-475e-4d80-838b-d9b3c793f3ea"},"vehicle_type_id":"4","last_reported":1736215946,"current_range_meters":38800,"station_id":"ce4bhop2rcd13ifvqh8g","pricing_plan_id":"cebpf4jnsgd1na2vs0mg"},{"bike_id":"c023aed8-c4af-47de-bf55-7ec6cfb1c879","system_id":"levelo_inurba_marseille","lat":43.2618,"lon":5.3745,"is_reserved":false,"is_disabled":true,"rental_uris":{"android":"levelo://app?vid=c023aed8-c4af-47de-bf55-7ec6cfb1c879","ios":"levelo://app?vid=c023aed8-c4af-47de-bf55-7ec6cfb1c879"},"vehicle_type_id":"4","last_reported":1736215946,"current_range_meters":28800,"station_id":"ce4bhgp2rcd13ifvqfc0","pricing_plan_id":"cebpf4jnsgd1na2vs0mg"},{"bike_id":"abb73762-9b4d-4d88-954c-9c0415dc3b68","system_id":"levelo_inurba_marseille","lat":43.25583,"lon":5.38238,"is_reserved":false,"is_disabled":false,"rental_uris":{"android":"levelo://app?vid=abb73762-9b4d-4d88-954c-9c0415dc3b68","ios":"levelo://app?vid=abb73762-9b4d-4d88-954c-9c0415dc3b68"},"vehicle_type_id":"4","last_reported":1736215946,"current_range_meters":38800,"station_id":"ce4bhih2rcd13ifvqfs0","pricing_plan_id":"cebpf4jnsgd1na2vs0mg"},{"bike_id":"ebf65e80-1869-4c83-a4e9-e1600f07fee4","system_id":"levelo_inurba_marseille","lat":43.23182,"lon":5.39971,"is_reserved":false,"is_disabled":false,"rental_uris":{"android":"levelo://app?vid=ebf65e80-1869-4c83-a4e9-e1600f07fee4","ios":"levelo://app?vid=ebf65e80-1869-4c83-a4e9-e1600f07fee4"},"vehicle_type_id":"4","last_reported":1736215946,"current_range_meters":38800,"station_id":"ce4bhn12rcd13ifvqgqg","pricing_plan_id":"cebpf4jnsgd1na2vs0mg"},{"bike_id":"ad036647-e9f4-4246-953d-37ee6601db50","system_id":"levelo_inurba_marseille","lat":43.24674,"lon":5.38165,"is_reserved":false,"is_disabled":false,"rental_uris":{"android":"levelo://app?vid=ad036647-e9f4-4246-953d-37ee6601db50","ios":"levelo://app?vid=ad036647-e9f4-4246-953d-37ee6601db50"},"vehicle_type_id":"4","last_reported":1736215946,"current_range_meters":18000,"station_id":"ce4bhih2rcd13ifvqfr0","pricing_plan_id":"cebpf4jnsgd1na2vs0mg"},{"bike_id":"09f6c248-8b41-4aaf-b3aa-8e819950181e","system_id":"levelo_inurba_marseille","lat":43.27892,"lon":5.3802,"is_reserved":false,"is_disabled":false,"rental_uris":{"android":"levelo://app?vid=09f6c248-8b41-4aaf-b3aa-8e819950181e","ios":"levelo://app?vid=09f6c248-8b41-4aaf-b3aa-8e819950181e"},"vehicle_type_id":"4","last_reported":1736215946,"current_range_meters":38800,"station_id":"ce4bhf92rcd13ifvqf50","pricing_plan_id":"cebpf4jnsgd1na2vs0mg"},{"bike_id":"8b18ae7c-9169-465c-8009-ab9a5c1809f3","system_id":"levelo_inurba_marseille","lat":43.25861,"lon":5.39911,"is_reserved":false,"is_disabled":false,"rental_uris":{"android":"levelo://app?vid=8b18ae7c-9169-465c-8009-ab9a5c1809f3","ios":"levelo://app?vid=8b18ae7c-9169-465c-8009-ab9a5c1809f3"},"vehicle_type_id":"4","last_reported":1736215946,"current_range_meters":24400,"station_id":"ce4bhl92rcd13ifvqghg","pricing_plan_id":"cebpf4jnsgd1na2vs0mg"},{"bike_id":"59b9c772-5725-4c1d-971b-536ecaed9252","system_id":"levelo_inurba_marseille","lat":43.28718,"lon":5.36103,"is_reserved":false,"is_disabled":false,"rental_uris":{"android":"levelo://app?vid=59b9c772-5725-4c1d-971b-536ecaed9252","ios":"levelo://app?vid=59b9c772-5725-4c1d-971b-536ecaed9252"},"vehicle_type_id":"4","last_reported":1736215946,"current_range_meters":34000,"station_id":"cki0cbj6b192h4jlfktg","pricing_plan_id":"cebpf4jnsgd1na2vs0mg"},{"bike_id":"afbc875d-e20b-47fc-8c2a-05793970fd10","system_id":"levelo_inurba_marseille","lat":43.28931,"lon":5.36631,"is_reserved":false,"is_disabled":false,"rental_uris":{"android":"levelo://app?vid=afbc875d-e20b-47fc-8c2a-05793970fd10","ios":"levelo://app?vid=afbc875d-e20b-47fc-8c2a-05793970fd10"},"vehicle_type_id":"4","last_reported":1736215946,"current_range_meters":36000,"station_id":"ce4bhap2rcd13ifvqek0","pricing_plan_id":"cebpf4jnsgd1na2vs0mg"},{"bike_id":"189bbe27-cc41-4ee3-ae1d-782df85298e3","system_id":"levelo_inurba_marseille","lat":43.28923,"lon":5.36639,"is_reserved":false,"is_disabled":false,"rental_uris":{"android":"levelo://app?vid=189bbe27-cc41-4ee3-ae1d-782df85298e3","ios":"levelo://app?vid=189bbe27-cc41-4ee3-ae1d-782df85298e3"},"vehicle_type_id":"4","last_reported":1736215946,"current_range_meters":6400,"station_id":"ce4bhap2rcd13ifvqek0","pricing_plan_id":"cebpf4jnsgd1na2vs0mg"},{"bike_id":"964d87c8-cd8b-4f66-a8bd-3f7be33d5b71","system_id":"levelo_inurba_marseille","lat":43.27818,"lon":5.40709,"is_reserved":false,"is_disabled":false,"rental_uris":{"android":"levelo://app?vid=964d87c8-cd8b-4f66-a8bd-3f7be33d5b71","ios":"levelo://app?vid=964d87c8-cd8b-4f66-a8bd-3f7be33d5b71"},"vehicle_type_id":"4","last_reported":1736215946,"current_range_meters":10000,"station_id":"ce4bhnh2rcd13ifvqgtg","pricing_plan_id":"cebpf4jnsgd1na2vs0mg"},{"bike_id":"eceeb477-1760-492f-8b5a-79b50fd62dac","system_id":"levelo_inurba_marseille","lat":43.26952,"lon":5.38628,"is_reserved":false,"is_disabled":false,"rental_uris":{"android":"levelo://app?vid=eceeb477-1760-492f-8b5a-79b50fd62dac","ios":"levelo://app?vid=eceeb477-1760-492f-8b5a-79b50fd62dac"},"vehicle_type_id":"4","last_reported":1736215946,"current_range_meters":38800,"station_id":"ce4bhh92rcd13ifvqfh0","pricing_plan_id":"cebpf4jnsgd1na2vs0mg"},{"bike_id":"f950f68e-763d-458f-8358-255933d8bbd3","system_id":"levelo_inurba_marseille","lat":43.27918,"lon":5.38012,"is_reserved":false,"is_disabled":false,"rental_uris":{"android":"levelo://app?vid=f950f68e-763d-458f-8358-255933d8bbd3","ios":"levelo://app?vid=f950f68e-763d-458f-8358-255933d8bbd3"},"vehicle_type_id":"4","last_reported":1736215946,"current_range_meters":36000,"station_id":"ce4bhf92rcd13ifvqf50","pricing_plan_id":"cebpf4jnsgd1na2vs0mg"},{"bike_id":"0e718951-dc7f-4664-b14a-49c088e1539f","system_id":"levelo_inurba_marseille","lat":43.29889,"lon":5.39724,"is_reserved":false,"is_disabled":false,"rental_uris":{"android":"levelo://app?vid=0e718951-dc7f-4664-b14a-49c088e1539f","ios":"levelo://app?vid=0e718951-dc7f-4664-b14a-49c088e1539f"},"vehicle_type_id":"4","last_reported":1736215946,"current_range_meters":38800,"station_id":"ce4bh0h2rcd13ifvqd50","pricing_plan_id":"cebpf4jnsgd1na2vs0mg"},{"bike_id":"9ee617c7-9b76-440e-9281-5fef63933f9f","system_id":"levelo_inurba_marseille","lat":43.2979,"lon":5.39342,"is_reserved":false,"is_disabled":false,"rental_uris":{"android":"levelo://app?vid=9ee617c7-9b76-440e-9281-5fef63933f9f","ios":"levelo://app?vid=9ee617c7-9b76-440e-9281-5fef63933f9f"},"vehicle_type_id":"4","last_reported":1736215946,"current_range_meters":38800,"station_id":"chh1huq6cuj3fo74tm60","pricing_plan_id":"cebpf4jnsgd1na2vs0mg"},{"bike_id":"26c4fa36-b198-40a9-9b0a-d7f91ce3c046","system_id":"levelo_inurba_marseille","lat":43.32341,"lon":5.38882,"is_reserved":false,"is_disabled":false,"rental_uris":{"android":"levelo://app?vid=26c4fa36-b198-40a9-9b0a-d7f91ce3c046","ios":"levelo://app?vid=26c4fa36-b198-40a9-9b0a-d7f91ce3c046"},"vehicle_type_id":"4","last_reported":1736215946,"current_range_meters":38400,"station_id":"ce4bhqp2rcd13ifvqhog","pricing_plan_id":"cebpf4jnsgd1na2vs0mg"},{"bike_id":"0f70f006-a86d-4380-b85e-ccf9c42d33c4","system_id":"levelo_inurba_marseille","lat":43.26562,"lon":5.37278,"is_reserved":false,"is_disabled":false,"rental_uris":{"android":"levelo://app?vid=0f70f006-a86d-4380-b85e-ccf9c42d33c4","ios":"levelo://app?vid=0f70f006-a86d-4380-b85e-ccf9c42d33c4"},"vehicle_type_id":"4","last_reported":1736215946,"current_range_meters":28400,"station_id":"ce4bhg12rcd13ifvqf70","pricing_plan_id":"cebpf4jnsgd1na2vs0mg"},{"bike_id":"f5dcf3f1-cbbe-40b3-8501-6549ece22e80","system_id":"levelo_inurba_marseille","lat":43.30804,"lon":5.38153,"is_reserved":false,"is_disabled":false,"rental_uris":{"android":"levelo://app?vid=f5dcf3f1-cbbe-40b3-8501-6549ece22e80","ios":"levelo://app?vid=f5dcf3f1-cbbe-40b3-8501-6549ece22e80"},"vehicle_type_id":"4","last_reported":1736215946,"current_range_meters":38000,"station_id":"ce4bgt12rcd13ifvqce0","pricing_plan_id":"cebpf4jnsgd1na2vs0mg"},{"bike_id":"0d869571-702b-474e-9734-e51fa36b8db2","system_id":"levelo_inurba_marseille","lat":43.29195,"lon":5.39301,"is_reserved":false,"is_disabled":true,"rental_uris":{"android":"levelo://app?vid=0d869571-702b-474e-9734-e51fa36b8db2","ios":"levelo://app?vid=0d869571-702b-474e-9734-e51fa36b8db2"},"vehicle_type_id":"4","last_reported":1736215946,"current_range_meters":9600,"station_id":"ce4bh192rcd13ifvqdd0","pricing_plan_id":"cebpf4jnsgd1na2vs0mg"},{"bike_id":"92177aef-d8de-4c08-bdcc-8c04bce9d2be","system_id":"levelo_inurba_marseille","lat":43.30786,"lon":5.38167,"is_reserved":false,"is_disabled":false,"rental_uris":{"android":"levelo://app?vid=92177aef-d8de-4c08-bdcc-8c04bce9d2be","ios":"levelo://app?vid=92177aef-d8de-4c08-bdcc-8c04bce9d2be"},"vehicle_type_id":"4","last_reported":1736215946,"current_range_meters":17600,"station_id":"ce4bgt12rcd13ifvqce0","pricing_plan_id":"cebpf4jnsgd1na2vs0mg"},{"bike_id":"fe3c9f6c-b879-430c-8afc-3755d2438ecb","system_id":"levelo_inurba_marseille","lat":43.27899,"lon":5.38014,"is_reserved":false,"is_disabled":false,"rental_uris":{"android":"levelo://app?vid=fe3c9f6c-b879-430c-8afc-3755d2438ecb","ios":"levelo://app?vid=fe3c9f6c-b879-430c-8afc-3755d2438ecb"},"vehicle_type_id":"4","last_reported":1736215946,"current_range_meters":37600,"station_id":"ce4bhf92rcd13ifvqf50","pricing_plan_id":"cebpf4jnsgd1na2vs0mg"},{"bike_id":"64fba33b-c31d-43fe-acd8-63797d23cd06","system_id":"levelo_inurba_marseille","lat":43.29253,"lon":5.40908,"is_reserved":false,"is_disabled":false,"rental_uris":{"android":"levelo://app?vid=64fba33b-c31d-43fe-acd8-63797d23cd06","ios":"levelo://app?vid=64fba33b-c31d-43fe-acd8-63797d23cd06"},"vehicle_type_id":"4","last_reported":1736215946,"current_range_meters":38000,"station_id":"ce4bh192rcd13ifvqdc0","pricing_plan_id":"cebpf4jnsgd1na2vs0mg"},{"bike_id":"5a2e64a4-6977-42d9-b575-8fc6f86139fc","system_id":"levelo_inurba_marseille","lat":43.31082,"lon":5.42429,"is_reserved":false,"is_disabled":false,"rental_uris":{"android":"levelo://app?vid=5a2e64a4-6977-42d9-b575-8fc6f86139fc","ios":"levelo://app?vid=5a2e64a4-6977-42d9-b575-8fc6f86139fc"},"vehicle_type_id":"4","last_reported":1736215946,"current_range_meters":38800,"station_id":"ce4bhp92rcd13ifvqhag","pricing_plan_id":"cebpf4jnsgd1na2vs0mg"},{"bike_id":"1c8566e1-e9e5-47b1-84c3-686a41788fcd","system_id":"levelo_inurba_marseille","lat":43.254992,"lon":5.376571,"is_reserved":false,"is_disabled":false,"rental_uris":{"android":"levelo://app?vid=1c8566e1-e9e5-47b1-84c3-686a41788fcd","ios":"levelo://app?vid=1c8566e1-e9e5-47b1-84c3-686a41788fcd"},"vehicle_type_id":"4","last_reported":1736215946,"current_range_meters":38800,"station_id":"ce4bhh12rcd13ifvqff0","pricing_plan_id":"cebpf4jnsgd1na2vs0mg"},{"bike_id":"eb78bcbb-c16b-43f1-9585-0aad36a15ad5","system_id":"levelo_inurba_marseille","lat":43.27415,"lon":5.39399,"is_reserved":false,"is_disabled":false,"rental_uris":{"android":"levelo://app?vid=eb78bcbb-c16b-43f1-9585-0aad36a15ad5","ios":"levelo://app?vid=eb78bcbb-c16b-43f1-9585-0aad36a15ad5"},"vehicle_type_id":"4","last_reported":1736215946,"current_range_meters":32400,"station_id":"ce4bhdp2rcd13ifvqf20","pricing_plan_id":"cebpf4jnsgd1na2vs0mg"},{"bike_id":"b43aa461-ae4e-460a-b5b4-f338fc93ae8c","system_id":"levelo_inurba_marseille","lat":43.3128,"lon":5.40161,"is_reserved":false,"is_disabled":false,"rental_uris":{"android":"levelo://app?vid=b43aa461-ae4e-460a-b5b4-f338fc93ae8c","ios":"levelo://app?vid=b43aa461-ae4e-460a-b5b4-f338fc93ae8c"},"vehicle_type_id":"4","last_reported":1736215946,"current_range_meters":39200,"station_id":"ce4bh092rcd13ifvqd30","pricing_plan_id":"cebpf4jnsgd1na2vs0mg"},{"bike_id":"bf4574ef-6e99-4c7d-a802-00dbdb11e3b8","system_id":"levelo_inurba_marseille","lat":43.29864,"lon":5.39737,"is_reserved":false,"is_disabled":false,"rental_uris":{"android":"levelo://app?vid=bf4574ef-6e99-4c7d-a802-00dbdb11e3b8","ios":"levelo://app?vid=bf4574ef-6e99-4c7d-a802-00dbdb11e3b8"},"vehicle_type_id":"4","last_reported":1736215946,"current_range_meters":38800,"station_id":"ce4bh0h2rcd13ifvqd50","pricing_plan_id":"cebpf4jnsgd1na2vs0mg"},{"bike_id":"f74f192e-39bc-4ab0-b0a6-e42592d371cb","system_id":"levelo_inurba_marseille","lat":43.29926,"lon":5.44163,"is_reserved":false,"is_disabled":false,"rental_uris":{"android":"levelo://app?vid=f74f192e-39bc-4ab0-b0a6-e42592d371cb","ios":"levelo://app?vid=f74f192e-39bc-4ab0-b0a6-e42592d371cb"},"vehicle_type_id":"4","last_reported":1736215946,"current_range_meters":31200,"station_id":"","pricing_plan_id":"cebpf4jnsgd1na2vs0mg"},{"bike_id":"a23e7dd5-84cc-4eca-9236-90b42c7ed41b","system_id":"levelo_inurba_marseille","lat":43.32339,"lon":5.40613,"is_reserved":false,"is_disabled":true,"rental_uris":{"android":"levelo://app?vid=a23e7dd5-84cc-4eca-9236-90b42c7ed41b","ios":"levelo://app?vid=a23e7dd5-84cc-4eca-9236-90b42c7ed41b"},"vehicle_type_id":"4","last_reported":1736215946,"current_range_meters":15200,"station_id":"ce4bhq92rcd13ifvqhjg","pricing_plan_id":"cebpf4jnsgd1na2vs0mg"},{"bike_id":"da7e6d1f-5eec-43dc-a46f-c62c5ead416c","system_id":"levelo_inurba_marseille","lat":43.28431,"lon":5.39199,"is_reserved":false,"is_disabled":false,"rental_uris":{"android":"levelo://app?vid=da7e6d1f-5eec-43dc-a46f-c62c5ead416c","ios":"levelo://app?vid=da7e6d1f-5eec-43dc-a46f-c62c5ead416c"},"vehicle_type_id":"4","last_reported":1736215946,"current_range_meters":35600,"station_id":"ce4bhoh2rcd13ifvqh5g","pricing_plan_id":"cebpf4jnsgd1na2vs0mg"},{"bike_id":"9fbbb2a4-100b-4c4e-aa94-bc5cab99b41c","system_id":"levelo_inurba_marseille","lat":43.287039,"lon":5.373932,"is_reserved":false,"is_disabled":false,"rental_uris":{"android":"levelo://app?vid=9fbbb2a4-100b-4c4e-aa94-bc5cab99b41c","ios":"levelo://app?vid=9fbbb2a4-100b-4c4e-aa94-bc5cab99b41c"},"vehicle_type_id":"4","last_reported":1736215946,"current_range_meters":36800,"station_id":"ce4bh3p2rcd13ifvqdq0","pricing_plan_id":"cebpf4jnsgd1na2vs0mg"},{"bike_id":"de2c5fce-65c5-4566-b4d8-ce5e129e6352","system_id":"levelo_inurba_marseille","lat":43.29193,"lon":5.393086,"is_reserved":false,"is_disabled":false,"rental_uris":{"android":"levelo://app?vid=de2c5fce-65c5-4566-b4d8-ce5e129e6352","ios":"levelo://app?vid=de2c5fce-65c5-4566-b4d8-ce5e129e6352"},"vehicle_type_id":"4","last_reported":1736215946,"current_range_meters":38800,"station_id":"ce4bh192rcd13ifvqdd0","pricing_plan_id":"cebpf4jnsgd1na2vs0mg"},{"bike_id":"d805656f-38c3-484c-8057-c0e51bea0f09","system_id":"levelo_inurba_marseille","lat":43.29208,"lon":5.35751,"is_reserved":false,"is_disabled":false,"rental_uris":{"android":"levelo://app?vid=d805656f-38c3-484c-8057-c0e51bea0f09","ios":"levelo://app?vid=d805656f-38c3-484c-8057-c0e51bea0f09"},"vehicle_type_id":"4","last_reported":1736215946,"current_range_meters":37600,"station_id":"ce4bhb12rcd13ifvqel0","pricing_plan_id":"cebpf4jnsgd1na2vs0mg"},{"bike_id":"6e51b573-4e79-435a-af54-674e36987856","system_id":"levelo_inurba_marseille","lat":43.31169,"lon":5.38716,"is_reserved":false,"is_disabled":false,"rental_uris":{"android":"levelo://app?vid=6e51b573-4e79-435a-af54-674e36987856","ios":"levelo://app?vid=6e51b573-4e79-435a-af54-674e36987856"},"vehicle_type_id":"4","last_reported":1736215946,"current_range_meters":38800,"station_id":"ce4bgv12rcd13ifvqcp0","pricing_plan_id":"cebpf4jnsgd1na2vs0mg"},{"bike_id":"1feff506-1adf-43a6-9303-7b4053d3c522","system_id":"levelo_inurba_marseille","lat":43.29867,"lon":5.38909,"is_reserved":false,"is_disabled":false,"rental_uris":{"android":"levelo://app?vid=1feff506-1adf-43a6-9303-7b4053d3c522","ios":"levelo://app?vid=1feff506-1adf-43a6-9303-7b4053d3c522"},"vehicle_type_id":"4","last_reported":1736215946,"current_range_meters":38800,"station_id":"ce4bh392rcd13ifvqdl0","pricing_plan_id":"cebpf4jnsgd1na2vs0mg"},{"bike_id":"db973fb0-a7a7-419f-905d-9711a91dd280","system_id":"levelo_inurba_marseille","lat":43.25722,"lon":5.41119,"is_reserved":false,"is_disabled":true,"rental_uris":{"android":"levelo://app?vid=db973fb0-a7a7-419f-905d-9711a91dd280","ios":"levelo://app?vid=db973fb0-a7a7-419f-905d-9711a91dd280"},"vehicle_type_id":"4","last_reported":1736215946,"current_range_meters":38000,"station_id":"ce4bhkp2rcd13ifvqgd0","pricing_plan_id":"cebpf4jnsgd1na2vs0mg"},{"bike_id":"0f23a48b-89c6-4b6d-8691-f9c7d27e384f","system_id":"levelo_inurba_marseille","lat":43.299366,"lon":5.365399,"is_reserved":false,"is_disabled":false,"rental_uris":{"android":"levelo://app?vid=0f23a48b-89c6-4b6d-8691-f9c7d27e384f","ios":"levelo://app?vid=0f23a48b-89c6-4b6d-8691-f9c7d27e384f"},"vehicle_type_id":"4","last_reported":1736215946,"current_range_meters":18000,"station_id":"ce4bgm92rcd13ifvqbr0","pricing_plan_id":"cebpf4jnsgd1na2vs0mg"},{"bike_id":"9b8cfac3-c795-4e09-8208-dfdcc2c9db0a","system_id":"levelo_inurba_marseille","lat":43.29045,"lon":5.39944,"is_reserved":false,"is_disabled":true,"rental_uris":{"android":"levelo://app?vid=9b8cfac3-c795-4e09-8208-dfdcc2c9db0a","ios":"levelo://app?vid=9b8cfac3-c795-4e09-8208-dfdcc2c9db0a"},"vehicle_type_id":"4","last_reported":1736215946,"current_range_meters":9600,"station_id":"ce4bh392rcd13ifvqdm0","pricing_plan_id":"cebpf4jnsgd1na2vs0mg"},{"bike_id":"f8142e8a-f886-4c5e-b399-88d8fa1c1d32","system_id":"levelo_inurba_marseille","lat":43.24662,"lon":5.38179,"is_reserved":false,"is_disabled":false,"rental_uris":{"android":"levelo://app?vid=f8142e8a-f886-4c5e-b399-88d8fa1c1d32","ios":"levelo://app?vid=f8142e8a-f886-4c5e-b399-88d8fa1c1d32"},"vehicle_type_id":"4","last_reported":1736215946,"current_range_meters":19200,"station_id":"ce4bhih2rcd13ifvqfr0","pricing_plan_id":"cebpf4jnsgd1na2vs0mg"},{"bike_id":"04284143-2834-49a9-97bf-7ff57a2fbe0d","system_id":"levelo_inurba_marseille","lat":43.31347,"lon":5.39664,"is_reserved":false,"is_disabled":false,"rental_uris":{"android":"levelo://app?vid=04284143-2834-49a9-97bf-7ff57a2fbe0d","ios":"levelo://app?vid=04284143-2834-49a9-97bf-7ff57a2fbe0d"},"vehicle_type_id":"4","last_reported":1736215946,"current_range_meters":29600,"station_id":"ce4bgvp2rcd13ifvqcu0","pricing_plan_id":"cebpf4jnsgd1na2vs0mg"},{"bike_id":"3339d050-09a6-4aa9-9ed5-b1e4247a1a00","system_id":"levelo_inurba_marseille","lat":43.23964,"lon":5.36633,"is_reserved":false,"is_disabled":false,"rental_uris":{"android":"levelo://app?vid=3339d050-09a6-4aa9-9ed5-b1e4247a1a00","ios":"levelo://app?vid=3339d050-09a6-4aa9-9ed5-b1e4247a1a00"},"vehicle_type_id":"4","last_reported":1736215946,"current_range_meters":39200,"station_id":"ce4bhi12rcd13ifvqfp0","pricing_plan_id":"cebpf4jnsgd1na2vs0mg"},{"bike_id":"0a9c3f6d-1ee4-4242-ab1b-2fc933875b46","system_id":"levelo_inurba_marseille","lat":43.2849,"lon":5.35858,"is_reserved":false,"is_disabled":false,"rental_uris":{"android":"levelo://app?vid=0a9c3f6d-1ee4-4242-ab1b-2fc933875b46","ios":"levelo://app?vid=0a9c3f6d-1ee4-4242-ab1b-2fc933875b46"},"vehicle_type_id":"4","last_reported":1736215946,"current_range_meters":33200,"station_id":"ce4bhah2rcd13ifvqei0","pricing_plan_id":"cebpf4jnsgd1na2vs0mg"},{"bike_id":"555f5bb6-1a41-4662-92c1-ef73605abfac","system_id":"levelo_inurba_marseille","lat":43.32289,"lon":5.3827,"is_reserved":false,"is_disabled":false,"rental_uris":{"android":"levelo://app?vid=555f5bb6-1a41-4662-92c1-ef73605abfac","ios":"levelo://app?vid=555f5bb6-1a41-4662-92c1-ef73605abfac"},"vehicle_type_id":"4","last_reported":1736215946,"current_range_meters":38800,"station_id":"ce4bhr12rcd13ifvqhqg","pricing_plan_id":"cebpf4jnsgd1na2vs0mg"},{"bike_id":"c0582d81-71b0-4eea-ba50-4da054cc145f","system_id":"levelo_inurba_marseille","lat":43.28145,"lon":5.42648,"is_reserved":false,"is_disabled":false,"rental_uris":{"android":"levelo://app?vid=c0582d81-71b0-4eea-ba50-4da054cc145f","ios":"levelo://app?vid=c0582d81-71b0-4eea-ba50-4da054cc145f"},"vehicle_type_id":"4","last_reported":1736215946,"current_range_meters":7200,"station_id":"ce4bhnh2rcd13ifvqgug","pricing_plan_id":"cebpf4jnsgd1na2vs0mg"},{"bike_id":"0aa10dfe-cc5f-4fc7-90b8-fc6a5ef6e9bf","system_id":"levelo_inurba_marseille","lat":43.25581,"lon":5.38215,"is_reserved":false,"is_disabled":false,"rental_uris":{"android":"levelo://app?vid=0aa10dfe-cc5f-4fc7-90b8-fc6a5ef6e9bf","ios":"levelo://app?vid=0aa10dfe-cc5f-4fc7-90b8-fc6a5ef6e9bf"},"vehicle_type_id":"4","last_reported":1736215946,"current_range_meters":18800,"station_id":"ce4bhih2rcd13ifvqfs0","pricing_plan_id":"cebpf4jnsgd1na2vs0mg"},{"bike_id":"bc9bb4d7-2fdc-4d34-b0a0-ed77a3035abd","system_id":"levelo_inurba_marseille","lat":43.31702,"lon":5.3775,"is_reserved":false,"is_disabled":false,"rental_uris":{"android":"levelo://app?vid=bc9bb4d7-2fdc-4d34-b0a0-ed77a3035abd","ios":"levelo://app?vid=bc9bb4d7-2fdc-4d34-b0a0-ed77a3035abd"},"vehicle_type_id":"4","last_reported":1736215946,"current_range_meters":28000,"station_id":"ce4bgth2rcd13ifvqch0","pricing_plan_id":"cebpf4jnsgd1na2vs0mg"},{"bike_id":"8426cb75-87ab-4635-ad12-c9daf81b2fdc","system_id":"levelo_inurba_marseille","lat":43.28146,"lon":5.42646,"is_reserved":false,"is_disabled":false,"rental_uris":{"android":"levelo://app?vid=8426cb75-87ab-4635-ad12-c9daf81b2fdc","ios":"levelo://app?vid=8426cb75-87ab-4635-ad12-c9daf81b2fdc"},"vehicle_type_id":"4","last_reported":1736215946,"current_range_meters":24000,"station_id":"ce4bhnh2rcd13ifvqgug","pricing_plan_id":"cebpf4jnsgd1na2vs0mg"},{"bike_id":"99bff934-0600-4e25-ab4e-e8fd997517a1","system_id":"levelo_inurba_marseille","lat":43.258235,"lon":5.394244,"is_reserved":false,"is_disabled":false,"rental_uris":{"android":"levelo://app?vid=99bff934-0600-4e25-ab4e-e8fd997517a1","ios":"levelo://app?vid=99bff934-0600-4e25-ab4e-e8fd997517a1"},"vehicle_type_id":"4","last_reported":1736215946,"current_range_meters":38000,"station_id":"ce4bhip2rcd13ifvqft0","pricing_plan_id":"cebpf4jnsgd1na2vs0mg"},{"bike_id":"7b78d5e2-5142-402d-a4f8-0f3037a6c533","system_id":"levelo_inurba_marseille","lat":43.26945,"lon":5.38618,"is_reserved":false,"is_disabled":true,"rental_uris":{"android":"levelo://app?vid=7b78d5e2-5142-402d-a4f8-0f3037a6c533","ios":"levelo://app?vid=7b78d5e2-5142-402d-a4f8-0f3037a6c533"},"vehicle_type_id":"4","last_reported":1736215946,"current_range_meters":35600,"station_id":"ce4bhh92rcd13ifvqfh0","pricing_plan_id":"cebpf4jnsgd1na2vs0mg"},{"bike_id":"372ea01c-0e83-4c11-ac5a-6c1a2741e849","system_id":"levelo_inurba_marseille","lat":43.29974,"lon":5.3718,"is_reserved":false,"is_disabled":false,"rental_uris":{"android":"levelo://app?vid=372ea01c-0e83-4c11-ac5a-6c1a2741e849","ios":"levelo://app?vid=372ea01c-0e83-4c11-ac5a-6c1a2741e849"},"vehicle_type_id":"4","last_reported":1736215946,"current_range_meters":38000,"station_id":"ce4bgr92rcd13ifvqc7g","pricing_plan_id":"cebpf4jnsgd1na2vs0mg"},{"bike_id":"b3169ea9-141f-4d97-b81b-44d119fd5a87","system_id":"levelo_inurba_marseille","lat":43.29565,"lon":5.39977,"is_reserved":false,"is_disabled":false,"rental_uris":{"android":"levelo://app?vid=b3169ea9-141f-4d97-b81b-44d119fd5a87","ios":"levelo://app?vid=b3169ea9-141f-4d97-b81b-44d119fd5a87"},"vehicle_type_id":"4","last_reported":1736215946,"current_range_meters":38800,"station_id":"ce4bh312rcd13ifvqdj0","pricing_plan_id":"cebpf4jnsgd1na2vs0mg"},{"bike_id":"c3298543-349c-49d5-8171-f25190cdf20c","system_id":"levelo_inurba_marseille","lat":43.2904,"lon":5.39982,"is_reserved":false,"is_disabled":false,"rental_uris":{"android":"levelo://app?vid=c3298543-349c-49d5-8171-f25190cdf20c","ios":"levelo://app?vid=c3298543-349c-49d5-8171-f25190cdf20c"},"vehicle_type_id":"4","last_reported":1736215946,"current_range_meters":15200,"station_id":"ce4bh392rcd13ifvqdm0","pricing_plan_id":"cebpf4jnsgd1na2vs0mg"},{"bike_id":"f6898cd8-d82d-4b7f-ad59-669d9e614c97","system_id":"levelo_inurba_marseille","lat":43.27815,"lon":5.40729,"is_reserved":false,"is_disabled":false,"rental_uris":{"android":"levelo://app?vid=f6898cd8-d82d-4b7f-ad59-669d9e614c97","ios":"levelo://app?vid=f6898cd8-d82d-4b7f-ad59-669d9e614c97"},"vehicle_type_id":"4","last_reported":1736215946,"current_range_meters":36000,"station_id":"ce4bhnh2rcd13ifvqgtg","pricing_plan_id":"cebpf4jnsgd1na2vs0mg"},{"bike_id":"ccefbdf4-df27-4947-9b01-eba3707af800","system_id":"levelo_inurba_marseille","lat":43.29536,"lon":5.38544,"is_reserved":false,"is_disabled":true,"rental_uris":{"android":"levelo://app?vid=ccefbdf4-df27-4947-9b01-eba3707af800","ios":"levelo://app?vid=ccefbdf4-df27-4947-9b01-eba3707af800"},"vehicle_type_id":"4","last_reported":1736215946,"current_range_meters":23200,"station_id":"ce4bgih2rcd13ifvqba0","pricing_plan_id":"cebpf4jnsgd1na2vs0mg"},{"bike_id":"05efc8db-a5eb-4569-9898-5a3e81ef0286","system_id":"levelo_inurba_marseille","lat":43.26542,"lon":5.39056,"is_reserved":false,"is_disabled":false,"rental_uris":{"android":"levelo://app?vid=05efc8db-a5eb-4569-9898-5a3e81ef0286","ios":"levelo://app?vid=05efc8db-a5eb-4569-9898-5a3e81ef0286"},"vehicle_type_id":"4","last_reported":1736215946,"current_range_meters":35600,"station_id":"ce4bhe12rcd13ifvqf30","pricing_plan_id":"cebpf4jnsgd1na2vs0mg"},{"bike_id":"cff0b20d-7723-4975-bb7f-3b413d2c602e","system_id":"levelo_inurba_marseille","lat":43.24808,"lon":5.37451,"is_reserved":false,"is_disabled":false,"rental_uris":{"android":"levelo://app?vid=cff0b20d-7723-4975-bb7f-3b413d2c602e","ios":"levelo://app?vid=cff0b20d-7723-4975-bb7f-3b413d2c602e"},"vehicle_type_id":"4","last_reported":1736215946,"current_range_meters":3600,"station_id":"ce4bhgh2rcd13ifvqfb0","pricing_plan_id":"cebpf4jnsgd1na2vs0mg"},{"bike_id":"79f7dce0-a6c6-49cf-b8c4-226f9b83f5b0","system_id":"levelo_inurba_marseille","lat":43.31678,"lon":5.37876,"is_reserved":false,"is_disabled":false,"rental_uris":{"android":"levelo://app?vid=79f7dce0-a6c6-49cf-b8c4-226f9b83f5b0","ios":"levelo://app?vid=79f7dce0-a6c6-49cf-b8c4-226f9b83f5b0"},"vehicle_type_id":"4","last_reported":1736215946,"current_range_meters":12400,"station_id":"ce4bgth2rcd13ifvqch0","pricing_plan_id":"cebpf4jnsgd1na2vs0mg"},{"bike_id":"4abe4217-55ee-4c43-9324-ab6e7ccfe429","system_id":"levelo_inurba_marseille","lat":43.24674,"lon":5.38144,"is_reserved":false,"is_disabled":false,"rental_uris":{"android":"levelo://app?vid=4abe4217-55ee-4c43-9324-ab6e7ccfe429","ios":"levelo://app?vid=4abe4217-55ee-4c43-9324-ab6e7ccfe429"},"vehicle_type_id":"4","last_reported":1736215946,"current_range_meters":8000,"station_id":"ce4bhih2rcd13ifvqfr0","pricing_plan_id":"cebpf4jnsgd1na2vs0mg"},{"bike_id":"46dacba7-9b50-43ef-b568-5a5e42f1b69e","system_id":"levelo_inurba_marseille","lat":43.28443,"lon":5.39176,"is_reserved":false,"is_disabled":false,"rental_uris":{"android":"levelo://app?vid=46dacba7-9b50-43ef-b568-5a5e42f1b69e","ios":"levelo://app?vid=46dacba7-9b50-43ef-b568-5a5e42f1b69e"},"vehicle_type_id":"4","last_reported":1736215946,"current_range_meters":38800,"station_id":"ce4bhoh2rcd13ifvqh5g","pricing_plan_id":"cebpf4jnsgd1na2vs0mg"},{"bike_id":"5cad4397-d7fe-427d-9b9c-8acb185fe024","system_id":"levelo_inurba_marseille","lat":43.25078,"lon":5.39515,"is_reserved":false,"is_disabled":false,"rental_uris":{"android":"levelo://app?vid=5cad4397-d7fe-427d-9b9c-8acb185fe024","ios":"levelo://app?vid=5cad4397-d7fe-427d-9b9c-8acb185fe024"},"vehicle_type_id":"4","last_reported":1736215946,"current_range_meters":38800,"station_id":"ce4bhm12rcd13ifvqgkg","pricing_plan_id":"cebpf4jnsgd1na2vs0mg"},{"bike_id":"1c481475-c11b-4ecc-bc54-1fc518f12b1f","system_id":"levelo_inurba_marseille","lat":43.31677,"lon":5.37874,"is_reserved":false,"is_disabled":false,"rental_uris":{"android":"levelo://app?vid=1c481475-c11b-4ecc-bc54-1fc518f12b1f","ios":"levelo://app?vid=1c481475-c11b-4ecc-bc54-1fc518f12b1f"},"vehicle_type_id":"4","last_reported":1736215946,"current_range_meters":38800,"station_id":"ce4bgth2rcd13ifvqch0","pricing_plan_id":"cebpf4jnsgd1na2vs0mg"},{"bike_id":"a5484267-8df2-433f-b0b4-6d17ece69370","system_id":"levelo_inurba_marseille","lat":43.30252,"lon":5.40051,"is_reserved":false,"is_disabled":false,"rental_uris":{"android":"levelo://app?vid=a5484267-8df2-433f-b0b4-6d17ece69370","ios":"levelo://app?vid=a5484267-8df2-433f-b0b4-6d17ece69370"},"vehicle_type_id":"4","last_reported":1736215946,"current_range_meters":39200,"station_id":"ce4bgvh2rcd13ifvqcs0","pricing_plan_id":"cebpf4jnsgd1na2vs0mg"},{"bike_id":"477f7f5a-c997-4d2a-8325-216243948f83","system_id":"levelo_inurba_marseille","lat":43.2887,"lon":5.35812,"is_reserved":false,"is_disabled":false,"rental_uris":{"android":"levelo://app?vid=477f7f5a-c997-4d2a-8325-216243948f83","ios":"levelo://app?vid=477f7f5a-c997-4d2a-8325-216243948f83"},"vehicle_type_id":"4","last_reported":1736215946,"current_range_meters":38800,"station_id":"ce4bhb12rcd13ifvqem0","pricing_plan_id":"cebpf4jnsgd1na2vs0mg"},{"bike_id":"637c9e25-6ec5-4d5c-9ec9-ed6c73dcb821","system_id":"levelo_inurba_marseille","lat":43.31706,"lon":5.37756,"is_reserved":false,"is_disabled":false,"rental_uris":{"android":"levelo://app?vid=637c9e25-6ec5-4d5c-9ec9-ed6c73dcb821","ios":"levelo://app?vid=637c9e25-6ec5-4d5c-9ec9-ed6c73dcb821"},"vehicle_type_id":"4","last_reported":1736215946,"current_range_meters":36800,"station_id":"ce4bgth2rcd13ifvqch0","pricing_plan_id":"cebpf4jnsgd1na2vs0mg"},{"bike_id":"04d6409f-3882-4a69-956e-a7abf6bd14bb","system_id":"levelo_inurba_marseille","lat":43.27996,"lon":5.40014,"is_reserved":false,"is_disabled":false,"rental_uris":{"android":"levelo://app?vid=04d6409f-3882-4a69-956e-a7abf6bd14bb","ios":"levelo://app?vid=04d6409f-3882-4a69-956e-a7abf6bd14bb"},"vehicle_type_id":"4","last_reported":1736215946,"current_range_meters":34000,"station_id":"ce4bho92rcd13ifvqh4g","pricing_plan_id":"cebpf4jnsgd1na2vs0mg"},{"bike_id":"7de5fc58-4184-4126-be38-23e72f173945","system_id":"levelo_inurba_marseille","lat":43.30884,"lon":5.39632,"is_reserved":false,"is_disabled":false,"rental_uris":{"android":"levelo://app?vid=7de5fc58-4184-4126-be38-23e72f173945","ios":"levelo://app?vid=7de5fc58-4184-4126-be38-23e72f173945"},"vehicle_type_id":"4","last_reported":1736215946,"current_range_meters":27200,"station_id":"ce4bh012rcd13ifvqcv0","pricing_plan_id":"cebpf4jnsgd1na2vs0mg"},{"bike_id":"6827022f-a734-404f-b5b5-bdf44019111f","system_id":"levelo_inurba_marseille","lat":43.29878,"lon":5.39758,"is_reserved":false,"is_disabled":false,"rental_uris":{"android":"levelo://app?vid=6827022f-a734-404f-b5b5-bdf44019111f","ios":"levelo://app?vid=6827022f-a734-404f-b5b5-bdf44019111f"},"vehicle_type_id":"4","last_reported":1736215946,"current_range_meters":13600,"station_id":"ce4bh0h2rcd13ifvqd50","pricing_plan_id":"cebpf4jnsgd1na2vs0mg"},{"bike_id":"54a7bf05-093a-4c5b-bb81-4de0199213f9","system_id":"levelo_inurba_marseille","lat":43.30413,"lon":5.41277,"is_reserved":false,"is_disabled":false,"rental_uris":{"android":"levelo://app?vid=54a7bf05-093a-4c5b-bb81-4de0199213f9","ios":"levelo://app?vid=54a7bf05-093a-4c5b-bb81-4de0199213f9"},"vehicle_type_id":"4","last_reported":1736215946,"current_range_meters":24400,"station_id":"ce4bhop2rcd13ifvqh8g","pricing_plan_id":"cebpf4jnsgd1na2vs0mg"},{"bike_id":"b64d19b5-9694-403b-9230-b67089674d19","system_id":"levelo_inurba_marseille","lat":43.27915,"lon":5.39577,"is_reserved":false,"is_disabled":false,"rental_uris":{"android":"levelo://app?vid=b64d19b5-9694-403b-9230-b67089674d19","ios":"levelo://app?vid=b64d19b5-9694-403b-9230-b67089674d19"},"vehicle_type_id":"4","last_reported":1736215946,"current_range_meters":38800,"station_id":"ce4bhf92rcd13ifvqf40","pricing_plan_id":"cebpf4jnsgd1na2vs0mg"},{"bike_id":"bdd62aa5-2f74-44b1-8170-3e44d6ed0b87","system_id":"levelo_inurba_marseille","lat":43.30948,"lon":5.39044,"is_reserved":false,"is_disabled":false,"rental_uris":{"android":"levelo://app?vid=bdd62aa5-2f74-44b1-8170-3e44d6ed0b87","ios":"levelo://app?vid=bdd62aa5-2f74-44b1-8170-3e44d6ed0b87"},"vehicle_type_id":"4","last_reported":1736215946,"current_range_meters":38800,"station_id":"ce4bgup2rcd13ifvqco0","pricing_plan_id":"cebpf4jnsgd1na2vs0mg"},{"bike_id":"a2fad600-bcdc-4fe2-b5cf-418b8c47104e","system_id":"levelo_inurba_marseille","lat":43.24649,"lon":5.38895,"is_reserved":false,"is_disabled":false,"rental_uris":{"android":"levelo://app?vid=a2fad600-bcdc-4fe2-b5cf-418b8c47104e","ios":"levelo://app?vid=a2fad600-bcdc-4fe2-b5cf-418b8c47104e"},"vehicle_type_id":"4","last_reported":1736215946,"current_range_meters":26000,"station_id":"ce4bhg12rcd13ifvqf60","pricing_plan_id":"cebpf4jnsgd1na2vs0mg"},{"bike_id":"3e51f001-674f-4402-81fd-5ff3f2138e63","system_id":"levelo_inurba_marseille","lat":43.29716,"lon":5.36553,"is_reserved":false,"is_disabled":false,"rental_uris":{"android":"levelo://app?vid=3e51f001-674f-4402-81fd-5ff3f2138e63","ios":"levelo://app?vid=3e51f001-674f-4402-81fd-5ff3f2138e63"},"vehicle_type_id":"4","last_reported":1736215946,"current_range_meters":38800,"station_id":"ce4bgn12rcd13ifvqbt0","pricing_plan_id":"cebpf4jnsgd1na2vs0mg"},{"bike_id":"03e103e3-5075-4dd0-88ff-21ad5a89a520","system_id":"levelo_inurba_marseille","lat":43.25424,"lon":5.37672,"is_reserved":false,"is_disabled":false,"rental_uris":{"android":"levelo://app?vid=03e103e3-5075-4dd0-88ff-21ad5a89a520","ios":"levelo://app?vid=03e103e3-5075-4dd0-88ff-21ad5a89a520"},"vehicle_type_id":"4","last_reported":1736215946,"current_range_meters":38800,"station_id":"ce4bhh12rcd13ifvqff0","pricing_plan_id":"cebpf4jnsgd1na2vs0mg"},{"bike_id":"ef8b07f4-ee76-4b88-b7ec-0f67491fe1ff","system_id":"levelo_inurba_marseille","lat":43.25092,"lon":5.39513,"is_reserved":false,"is_disabled":false,"rental_uris":{"android":"levelo://app?vid=ef8b07f4-ee76-4b88-b7ec-0f67491fe1ff","ios":"levelo://app?vid=ef8b07f4-ee76-4b88-b7ec-0f67491fe1ff"},"vehicle_type_id":"4","last_reported":1736215946,"current_range_meters":38800,"station_id":"ce4bhm12rcd13ifvqgkg","pricing_plan_id":"cebpf4jnsgd1na2vs0mg"},{"bike_id":"2d4069a8-2e1f-4c49-a2ca-a013dccec575","system_id":"levelo_inurba_marseille","lat":43.32335,"lon":5.40628,"is_reserved":false,"is_disabled":false,"rental_uris":{"android":"levelo://app?vid=2d4069a8-2e1f-4c49-a2ca-a013dccec575","ios":"levelo://app?vid=2d4069a8-2e1f-4c49-a2ca-a013dccec575"},"vehicle_type_id":"4","last_reported":1736215946,"current_range_meters":34000,"station_id":"ce4bhq92rcd13ifvqhjg","pricing_plan_id":"cebpf4jnsgd1na2vs0mg"},{"bike_id":"4601a575-1bcc-4bce-8c5b-05216adc1a27","system_id":"levelo_inurba_marseille","lat":43.28698,"lon":5.37399,"is_reserved":false,"is_disabled":false,"rental_uris":{"android":"levelo://app?vid=4601a575-1bcc-4bce-8c5b-05216adc1a27","ios":"levelo://app?vid=4601a575-1bcc-4bce-8c5b-05216adc1a27"},"vehicle_type_id":"4","last_reported":1736215946,"current_range_meters":38800,"station_id":"ce4bh3p2rcd13ifvqdq0","pricing_plan_id":"cebpf4jnsgd1na2vs0mg"},{"bike_id":"6a595de3-0911-46a9-bdbf-4cca5437105e","system_id":"levelo_inurba_marseille","lat":43.23191,"lon":5.35551,"is_reserved":false,"is_disabled":false,"rental_uris":{"android":"levelo://app?vid=6a595de3-0911-46a9-bdbf-4cca5437105e","ios":"levelo://app?vid=6a595de3-0911-46a9-bdbf-4cca5437105e"},"vehicle_type_id":"4","last_reported":1736215946,"current_range_meters":17600,"station_id":"ce4bhu92rcd13ifvqi70","pricing_plan_id":"cebpf4jnsgd1na2vs0mg"},{"bike_id":"641d8acc-50b2-4173-ab23-c70f2a11d28e","system_id":"levelo_inurba_marseille","lat":43.28146,"lon":5.42636,"is_reserved":false,"is_disabled":true,"rental_uris":{"android":"levelo://app?vid=641d8acc-50b2-4173-ab23-c70f2a11d28e","ios":"levelo://app?vid=641d8acc-50b2-4173-ab23-c70f2a11d28e"},"vehicle_type_id":"4","last_reported":1736215946,"current_range_meters":25600,"station_id":"ce4bhnh2rcd13ifvqgug","pricing_plan_id":"cebpf4jnsgd1na2vs0mg"},{"bike_id":"217c720a-f5a0-444d-9a09-2281daa0d337","system_id":"levelo_inurba_marseille","lat":43.29255,"lon":5.409,"is_reserved":false,"is_disabled":false,"rental_uris":{"android":"levelo://app?vid=217c720a-f5a0-444d-9a09-2281daa0d337","ios":"levelo://app?vid=217c720a-f5a0-444d-9a09-2281daa0d337"},"vehicle_type_id":"4","last_reported":1736215946,"current_range_meters":12000,"station_id":"ce4bh192rcd13ifvqdc0","pricing_plan_id":"cebpf4jnsgd1na2vs0mg"},{"bike_id":"15e503f5-1d52-42d6-a98f-33a61fd8b554","system_id":"levelo_inurba_marseille","lat":43.28462,"lon":5.35887,"is_reserved":false,"is_disabled":true,"rental_uris":{"android":"levelo://app?vid=15e503f5-1d52-42d6-a98f-33a61fd8b554","ios":"levelo://app?vid=15e503f5-1d52-42d6-a98f-33a61fd8b554"},"vehicle_type_id":"4","last_reported":1736215946,"current_range_meters":18800,"station_id":"ce4bhah2rcd13ifvqei0","pricing_plan_id":"cebpf4jnsgd1na2vs0mg"},{"bike_id":"20a1fc99-0a90-44a5-a846-85f635e4802f","system_id":"levelo_inurba_marseille","lat":43.28689,"lon":5.37399,"is_reserved":false,"is_disabled":false,"rental_uris":{"android":"levelo://app?vid=20a1fc99-0a90-44a5-a846-85f635e4802f","ios":"levelo://app?vid=20a1fc99-0a90-44a5-a846-85f635e4802f"},"vehicle_type_id":"4","last_reported":1736215946,"current_range_meters":27200,"station_id":"ce4bh3p2rcd13ifvqdq0","pricing_plan_id":"cebpf4jnsgd1na2vs0mg"},{"bike_id":"226eba7b-86df-4cc7-a539-29d5666582be","system_id":"levelo_inurba_marseille","lat":43.27058,"lon":5.42278,"is_reserved":false,"is_disabled":false,"rental_uris":{"android":"levelo://app?vid=226eba7b-86df-4cc7-a539-29d5666582be","ios":"levelo://app?vid=226eba7b-86df-4cc7-a539-29d5666582be"},"vehicle_type_id":"4","last_reported":1736215946,"current_range_meters":38800,"station_id":"ce4bhk92rcd13ifvqgb0","pricing_plan_id":"cebpf4jnsgd1na2vs0mg"},{"bike_id":"88fbd2f9-edba-4674-927d-ce8a9c56a0e7","system_id":"levelo_inurba_marseille","lat":43.28147,"lon":5.42659,"is_reserved":false,"is_disabled":false,"rental_uris":{"android":"levelo://app?vid=88fbd2f9-edba-4674-927d-ce8a9c56a0e7","ios":"levelo://app?vid=88fbd2f9-edba-4674-927d-ce8a9c56a0e7"},"vehicle_type_id":"4","last_reported":1736215946,"current_range_meters":25600,"station_id":"ce4bhnh2rcd13ifvqgug","pricing_plan_id":"cebpf4jnsgd1na2vs0mg"},{"bike_id":"61a0e366-59dc-4344-9007-3379e8066fbb","system_id":"levelo_inurba_marseille","lat":43.30423,"lon":5.41263,"is_reserved":false,"is_disabled":false,"rental_uris":{"android":"levelo://app?vid=61a0e366-59dc-4344-9007-3379e8066fbb","ios":"levelo://app?vid=61a0e366-59dc-4344-9007-3379e8066fbb"},"vehicle_type_id":"4","last_reported":1736215946,"current_range_meters":38800,"station_id":"ce4bhop2rcd13ifvqh8g","pricing_plan_id":"cebpf4jnsgd1na2vs0mg"},{"bike_id":"9c7c7f0b-40d0-4b4a-a566-afd395ea543a","system_id":"levelo_inurba_marseille","lat":43.30141,"lon":5.39868,"is_reserved":false,"is_disabled":false,"rental_uris":{"android":"levelo://app?vid=9c7c7f0b-40d0-4b4a-a566-afd395ea543a","ios":"levelo://app?vid=9c7c7f0b-40d0-4b4a-a566-afd395ea543a"},"vehicle_type_id":"4","last_reported":1736215946,"current_range_meters":35200,"station_id":"ce4bh0h2rcd13ifvqd40","pricing_plan_id":"cebpf4jnsgd1na2vs0mg"},{"bike_id":"273f614c-665e-4fe3-9151-56ca90dca683","system_id":"levelo_inurba_marseille","lat":43.28933,"lon":5.36631,"is_reserved":false,"is_disabled":false,"rental_uris":{"android":"levelo://app?vid=273f614c-665e-4fe3-9151-56ca90dca683","ios":"levelo://app?vid=273f614c-665e-4fe3-9151-56ca90dca683"},"vehicle_type_id":"4","last_reported":1736215946,"current_range_meters":35200,"station_id":"ce4bhap2rcd13ifvqek0","pricing_plan_id":"cebpf4jnsgd1na2vs0mg"},{"bike_id":"6d88bbf0-f428-4bd4-ab8a-2ee8d5e7c74e","system_id":"levelo_inurba_marseille","lat":43.23058,"lon":5.35495,"is_reserved":false,"is_disabled":false,"rental_uris":{"android":"levelo://app?vid=6d88bbf0-f428-4bd4-ab8a-2ee8d5e7c74e","ios":"levelo://app?vid=6d88bbf0-f428-4bd4-ab8a-2ee8d5e7c74e"},"vehicle_type_id":"4","last_reported":1736215946,"current_range_meters":38800,"station_id":"cpo3342slgdg3j2ifvpg","pricing_plan_id":"cebpf4jnsgd1na2vs0mg"},{"bike_id":"cc01f28e-a38d-49c4-8a08-862872b8eeaf","system_id":"levelo_inurba_marseille","lat":43.28724,"lon":5.36085,"is_reserved":false,"is_disabled":false,"rental_uris":{"android":"levelo://app?vid=cc01f28e-a38d-49c4-8a08-862872b8eeaf","ios":"levelo://app?vid=cc01f28e-a38d-49c4-8a08-862872b8eeaf"},"vehicle_type_id":"4","last_reported":1736215946,"current_range_meters":24000,"station_id":"cki0cbj6b192h4jlfktg","pricing_plan_id":"cebpf4jnsgd1na2vs0mg"},{"bike_id":"f1eddc63-56db-4bfe-947c-d0cf39bf8e29","system_id":"levelo_inurba_marseille","lat":43.24791,"lon":5.3748,"is_reserved":false,"is_disabled":false,"rental_uris":{"android":"levelo://app?vid=f1eddc63-56db-4bfe-947c-d0cf39bf8e29","ios":"levelo://app?vid=f1eddc63-56db-4bfe-947c-d0cf39bf8e29"},"vehicle_type_id":"4","last_reported":1736215946,"current_range_meters":8800,"station_id":"ce4bhgh2rcd13ifvqfb0","pricing_plan_id":"cebpf4jnsgd1na2vs0mg"},{"bike_id":"237eb7a7-7331-4631-9377-6cdbdc6e4e98","system_id":"levelo_inurba_marseille","lat":43.26565,"lon":5.39047,"is_reserved":false,"is_disabled":true,"rental_uris":{"android":"levelo://app?vid=237eb7a7-7331-4631-9377-6cdbdc6e4e98","ios":"levelo://app?vid=237eb7a7-7331-4631-9377-6cdbdc6e4e98"},"vehicle_type_id":"4","last_reported":1736215946,"current_range_meters":33200,"station_id":"ce4bhe12rcd13ifvqf30","pricing_plan_id":"cebpf4jnsgd1na2vs0mg"},{"bike_id":"77e9c561-76d3-47c0-bcdd-db58bcf9815b","system_id":"levelo_inurba_marseille","lat":43.29966,"lon":5.41336,"is_reserved":false,"is_disabled":false,"rental_uris":{"android":"levelo://app?vid=77e9c561-76d3-47c0-bcdd-db58bcf9815b","ios":"levelo://app?vid=77e9c561-76d3-47c0-bcdd-db58bcf9815b"},"vehicle_type_id":"4","last_reported":1736215946,"current_range_meters":38000,"station_id":"ce4bhp12rcd13ifvqh9g","pricing_plan_id":"cebpf4jnsgd1na2vs0mg"},{"bike_id":"84930a52-61f8-4d3e-af06-9eccfbce6e1d","system_id":"levelo_inurba_marseille","lat":43.25115,"lon":5.40317,"is_reserved":false,"is_disabled":false,"rental_uris":{"android":"levelo://app?vid=84930a52-61f8-4d3e-af06-9eccfbce6e1d","ios":"levelo://app?vid=84930a52-61f8-4d3e-af06-9eccfbce6e1d"},"vehicle_type_id":"4","last_reported":1736215946,"current_range_meters":32000,"station_id":"ce4bhlh2rcd13ifvqgig","pricing_plan_id":"cebpf4jnsgd1na2vs0mg"},{"bike_id":"c0c56421-0402-4e02-af1a-f54a53bef677","system_id":"levelo_inurba_marseille","lat":43.30602,"lon":5.39355,"is_reserved":false,"is_disabled":true,"rental_uris":{"android":"levelo://app?vid=c0c56421-0402-4e02-af1a-f54a53bef677","ios":"levelo://app?vid=c0c56421-0402-4e02-af1a-f54a53bef677"},"vehicle_type_id":"4","last_reported":1736215946,"current_range_meters":36400,"station_id":"ce4bh0p2rcd13ifvqd80","pricing_plan_id":"cebpf4jnsgd1na2vs0mg"},{"bike_id":"785fcd24-a61a-467a-a205-1f2a1c963392","system_id":"levelo_inurba_marseille","lat":43.25081,"lon":5.3953,"is_reserved":false,"is_disabled":false,"rental_uris":{"android":"levelo://app?vid=785fcd24-a61a-467a-a205-1f2a1c963392","ios":"levelo://app?vid=785fcd24-a61a-467a-a205-1f2a1c963392"},"vehicle_type_id":"4","last_reported":1736215946,"current_range_meters":7200,"station_id":"ce4bhm12rcd13ifvqgkg","pricing_plan_id":"cebpf4jnsgd1na2vs0mg"},{"bike_id":"aa41de78-4d16-4183-999e-d60f0150a428","system_id":"levelo_inurba_marseille","lat":43.28691,"lon":5.37388,"is_reserved":false,"is_disabled":false,"rental_uris":{"android":"levelo://app?vid=aa41de78-4d16-4183-999e-d60f0150a428","ios":"levelo://app?vid=aa41de78-4d16-4183-999e-d60f0150a428"},"vehicle_type_id":"4","last_reported":1736215946,"current_range_meters":13600,"station_id":"ce4bh3p2rcd13ifvqdq0","pricing_plan_id":"cebpf4jnsgd1na2vs0mg"},{"bike_id":"3ea8ca26-cbff-44d4-97e2-96a5408a8da3","system_id":"levelo_inurba_marseille","lat":43.28617,"lon":5.37058,"is_reserved":false,"is_disabled":false,"rental_uris":{"android":"levelo://app?vid=3ea8ca26-cbff-44d4-97e2-96a5408a8da3","ios":"levelo://app?vid=3ea8ca26-cbff-44d4-97e2-96a5408a8da3"},"vehicle_type_id":"4","last_reported":1736215946,"current_range_meters":38800,"station_id":"ce4bht12rcd13ifvqi60","pricing_plan_id":"cebpf4jnsgd1na2vs0mg"},{"bike_id":"66598c6d-17b8-4c5c-8a32-40fe324e52f3","system_id":"levelo_inurba_marseille","lat":43.3112,"lon":5.37756,"is_reserved":false,"is_disabled":true,"rental_uris":{"android":"levelo://app?vid=66598c6d-17b8-4c5c-8a32-40fe324e52f3","ios":"levelo://app?vid=66598c6d-17b8-4c5c-8a32-40fe324e52f3"},"vehicle_type_id":"4","last_reported":1736215946,"current_range_meters":30400,"station_id":"ce4bgt92rcd13ifvqcg0","pricing_plan_id":"cebpf4jnsgd1na2vs0mg"},{"bike_id":"649c71d5-1bc7-476b-849b-0ee459c25078","system_id":"levelo_inurba_marseille","lat":43.28461,"lon":5.35882,"is_reserved":false,"is_disabled":false,"rental_uris":{"android":"levelo://app?vid=649c71d5-1bc7-476b-849b-0ee459c25078","ios":"levelo://app?vid=649c71d5-1bc7-476b-849b-0ee459c25078"},"vehicle_type_id":"4","last_reported":1736215946,"current_range_meters":37600,"station_id":"ce4bhah2rcd13ifvqei0","pricing_plan_id":"cebpf4jnsgd1na2vs0mg"},{"bike_id":"446d5fe4-d168-4240-9f25-a5992d56109a","system_id":"levelo_inurba_marseille","lat":43.2827,"lon":5.35082,"is_reserved":false,"is_disabled":false,"rental_uris":{"android":"levelo://app?vid=446d5fe4-d168-4240-9f25-a5992d56109a","ios":"levelo://app?vid=446d5fe4-d168-4240-9f25-a5992d56109a"},"vehicle_type_id":"4","last_reported":1736215946,"current_range_meters":38400,"station_id":"ce4bhbp2rcd13ifvqerg","pricing_plan_id":"cebpf4jnsgd1na2vs0mg"},{"bike_id":"dc80a52a-f2fa-4e2a-9e2a-b913aee07db6","system_id":"levelo_inurba_marseille","lat":43.31314,"lon":5.39736,"is_reserved":false,"is_disabled":false,"rental_uris":{"android":"levelo://app?vid=dc80a52a-f2fa-4e2a-9e2a-b913aee07db6","ios":"levelo://app?vid=dc80a52a-f2fa-4e2a-9e2a-b913aee07db6"},"vehicle_type_id":"4","last_reported":1736215946,"current_range_meters":39200,"station_id":"ce4bgvp2rcd13ifvqcu0","pricing_plan_id":"cebpf4jnsgd1na2vs0mg"},{"bike_id":"9ef9dfb6-a7a3-43ce-af56-376e7b49ca04","system_id":"levelo_inurba_marseille","lat":43.29258,"lon":5.40901,"is_reserved":false,"is_disabled":false,"rental_uris":{"android":"levelo://app?vid=9ef9dfb6-a7a3-43ce-af56-376e7b49ca04","ios":"levelo://app?vid=9ef9dfb6-a7a3-43ce-af56-376e7b49ca04"},"vehicle_type_id":"4","last_reported":1736215946,"current_range_meters":22400,"station_id":"ce4bh192rcd13ifvqdc0","pricing_plan_id":"cebpf4jnsgd1na2vs0mg"},{"bike_id":"7162857b-97e9-48bf-beff-37d11268f5e3","system_id":"levelo_inurba_marseille","lat":43.28851,"lon":5.35851,"is_reserved":false,"is_disabled":false,"rental_uris":{"android":"levelo://app?vid=7162857b-97e9-48bf-beff-37d11268f5e3","ios":"levelo://app?vid=7162857b-97e9-48bf-beff-37d11268f5e3"},"vehicle_type_id":"4","last_reported":1736215946,"current_range_meters":39200,"station_id":"ce4bhb12rcd13ifvqem0","pricing_plan_id":"cebpf4jnsgd1na2vs0mg"},{"bike_id":"fdbfc22b-5e9b-451a-add6-7c487bcc7b52","system_id":"levelo_inurba_marseille","lat":43.29625,"lon":5.40617,"is_reserved":false,"is_disabled":false,"rental_uris":{"android":"levelo://app?vid=fdbfc22b-5e9b-451a-add6-7c487bcc7b52","ios":"levelo://app?vid=fdbfc22b-5e9b-451a-add6-7c487bcc7b52"},"vehicle_type_id":"4","last_reported":1736215946,"current_range_meters":38800,"station_id":"ce4bh0h2rcd13ifvqd60","pricing_plan_id":"cebpf4jnsgd1na2vs0mg"},{"bike_id":"cca2f7c7-45e7-4f8a-80d9-cffca2b70c93","system_id":"levelo_inurba_marseille","lat":43.26689,"lon":5.38263,"is_reserved":false,"is_disabled":true,"rental_uris":{"android":"levelo://app?vid=cca2f7c7-45e7-4f8a-80d9-cffca2b70c93","ios":"levelo://app?vid=cca2f7c7-45e7-4f8a-80d9-cffca2b70c93"},"vehicle_type_id":"4","last_reported":1736215946,"current_range_meters":34000,"station_id":"ce4bhg92rcd13ifvqf90","pricing_plan_id":"cebpf4jnsgd1na2vs0mg"},{"bike_id":"c06688ba-3baf-43ca-bd73-f6695e1ed516","system_id":"levelo_inurba_marseille","lat":43.24065,"lon":5.37748,"is_reserved":false,"is_disabled":false,"rental_uris":{"android":"levelo://app?vid=c06688ba-3baf-43ca-bd73-f6695e1ed516","ios":"levelo://app?vid=c06688ba-3baf-43ca-bd73-f6695e1ed516"},"vehicle_type_id":"4","last_reported":1736215946,"current_range_meters":25200,"station_id":"ce4bhnp2rcd13ifvqgvg","pricing_plan_id":"cebpf4jnsgd1na2vs0mg"},{"bike_id":"ddcec3ed-75d2-466f-9e05-3344a8885bee","system_id":"levelo_inurba_marseille","lat":43.28643,"lon":5.35104,"is_reserved":false,"is_disabled":false,"rental_uris":{"android":"levelo://app?vid=ddcec3ed-75d2-466f-9e05-3344a8885bee","ios":"levelo://app?vid=ddcec3ed-75d2-466f-9e05-3344a8885bee"},"vehicle_type_id":"4","last_reported":1736215946,"current_range_meters":28400,"station_id":"ce4bhch2rcd13ifvqeug","pricing_plan_id":"cebpf4jnsgd1na2vs0mg"},{"bike_id":"a340c1b5-960c-40dd-b29e-7e8d0bcca640","system_id":"levelo_inurba_marseille","lat":43.30457,"lon":5.39713,"is_reserved":false,"is_disabled":false,"rental_uris":{"android":"levelo://app?vid=a340c1b5-960c-40dd-b29e-7e8d0bcca640","ios":"levelo://app?vid=a340c1b5-960c-40dd-b29e-7e8d0bcca640"},"vehicle_type_id":"4","last_reported":1736215946,"current_range_meters":38400,"station_id":"ce4bh092rcd13ifvqd20","pricing_plan_id":"cebpf4jnsgd1na2vs0mg"},{"bike_id":"10aaa063-1c87-45e7-8ea1-13f83539ec39","system_id":"levelo_inurba_marseille","lat":43.25073,"lon":5.39523,"is_reserved":false,"is_disabled":false,"rental_uris":{"android":"levelo://app?vid=10aaa063-1c87-45e7-8ea1-13f83539ec39","ios":"levelo://app?vid=10aaa063-1c87-45e7-8ea1-13f83539ec39"},"vehicle_type_id":"4","last_reported":1736215946,"current_range_meters":30800,"station_id":"ce4bhm12rcd13ifvqgkg","pricing_plan_id":"cebpf4jnsgd1na2vs0mg"},{"bike_id":"5a2d6400-dde2-4868-9b3a-23ab9cd655b8","system_id":"levelo_inurba_marseille","lat":43.27812,"lon":5.40743,"is_reserved":false,"is_disabled":false,"rental_uris":{"android":"levelo://app?vid=5a2d6400-dde2-4868-9b3a-23ab9cd655b8","ios":"levelo://app?vid=5a2d6400-dde2-4868-9b3a-23ab9cd655b8"},"vehicle_type_id":"4","last_reported":1736215946,"current_range_meters":6800,"station_id":"ce4bhnh2rcd13ifvqgtg","pricing_plan_id":"cebpf4jnsgd1na2vs0mg"},{"bike_id":"0a967f6d-fd0e-4773-80c2-1aa9d073824b","system_id":"levelo_inurba_marseille","lat":43.25087,"lon":5.39494,"is_reserved":false,"is_disabled":false,"rental_uris":{"android":"levelo://app?vid=0a967f6d-fd0e-4773-80c2-1aa9d073824b","ios":"levelo://app?vid=0a967f6d-fd0e-4773-80c2-1aa9d073824b"},"vehicle_type_id":"4","last_reported":1736215946,"current_range_meters":30800,"station_id":"ce4bhm12rcd13ifvqgkg","pricing_plan_id":"cebpf4jnsgd1na2vs0mg"},{"bike_id":"6cf816e3-ede4-43a9-805e-6c99dc1ec4b2","system_id":"levelo_inurba_marseille","lat":43.29222,"lon":5.36049,"is_reserved":false,"is_disabled":false,"rental_uris":{"android":"levelo://app?vid=6cf816e3-ede4-43a9-805e-6c99dc1ec4b2","ios":"levelo://app?vid=6cf816e3-ede4-43a9-805e-6c99dc1ec4b2"},"vehicle_type_id":"4","last_reported":1736215946,"current_range_meters":32800,"station_id":"ce4bhbh2rcd13ifvqeqg","pricing_plan_id":"cebpf4jnsgd1na2vs0mg"},{"bike_id":"90b6bf3a-1caa-42fb-9f2f-8461b84389aa","system_id":"levelo_inurba_marseille","lat":43.29858,"lon":5.39779,"is_reserved":false,"is_disabled":false,"rental_uris":{"android":"levelo://app?vid=90b6bf3a-1caa-42fb-9f2f-8461b84389aa","ios":"levelo://app?vid=90b6bf3a-1caa-42fb-9f2f-8461b84389aa"},"vehicle_type_id":"4","last_reported":1736215946,"current_range_meters":38000,"station_id":"ce4bh0h2rcd13ifvqd50","pricing_plan_id":"cebpf4jnsgd1na2vs0mg"},{"bike_id":"ac9cdb59-2de3-4b64-9b64-8618560e7eea","system_id":"levelo_inurba_marseille","lat":43.27995,"lon":5.40005,"is_reserved":false,"is_disabled":false,"rental_uris":{"android":"levelo://app?vid=ac9cdb59-2de3-4b64-9b64-8618560e7eea","ios":"levelo://app?vid=ac9cdb59-2de3-4b64-9b64-8618560e7eea"},"vehicle_type_id":"4","last_reported":1736215946,"current_range_meters":30000,"station_id":"ce4bho92rcd13ifvqh4g","pricing_plan_id":"cebpf4jnsgd1na2vs0mg"},{"bike_id":"865a75ae-d1fe-49dc-a6a2-eeaee7d48b3c","system_id":"levelo_inurba_marseille","lat":43.31188,"lon":5.38721,"is_reserved":false,"is_disabled":false,"rental_uris":{"android":"levelo://app?vid=865a75ae-d1fe-49dc-a6a2-eeaee7d48b3c","ios":"levelo://app?vid=865a75ae-d1fe-49dc-a6a2-eeaee7d48b3c"},"vehicle_type_id":"4","last_reported":1736215946,"current_range_meters":38000,"station_id":"ce4bgv12rcd13ifvqcp0","pricing_plan_id":"cebpf4jnsgd1na2vs0mg"},{"bike_id":"8e703174-0022-4861-93c4-6df26de669d8","system_id":"levelo_inurba_marseille","lat":43.24646,"lon":5.38894,"is_reserved":false,"is_disabled":false,"rental_uris":{"android":"levelo://app?vid=8e703174-0022-4861-93c4-6df26de669d8","ios":"levelo://app?vid=8e703174-0022-4861-93c4-6df26de669d8"},"vehicle_type_id":"4","last_reported":1736215946,"current_range_meters":38800,"station_id":"ce4bhg12rcd13ifvqf60","pricing_plan_id":"cebpf4jnsgd1na2vs0mg"},{"bike_id":"763086e4-39f0-4cd7-967e-3c7cbbfb54af","system_id":"levelo_inurba_marseille","lat":43.2717,"lon":5.40997,"is_reserved":false,"is_disabled":false,"rental_uris":{"android":"levelo://app?vid=763086e4-39f0-4cd7-967e-3c7cbbfb54af","ios":"levelo://app?vid=763086e4-39f0-4cd7-967e-3c7cbbfb54af"},"vehicle_type_id":"4","last_reported":1736215946,"current_range_meters":38000,"station_id":"ce4bhl12rcd13ifvqgf0","pricing_plan_id":"cebpf4jnsgd1na2vs0mg"},{"bike_id":"a654bcd9-87ff-4423-9dec-90165872ac51","system_id":"levelo_inurba_marseille","lat":43.2549,"lon":5.3765,"is_reserved":false,"is_disabled":false,"rental_uris":{"android":"levelo://app?vid=a654bcd9-87ff-4423-9dec-90165872ac51","ios":"levelo://app?vid=a654bcd9-87ff-4423-9dec-90165872ac51"},"vehicle_type_id":"4","last_reported":1736215946,"current_range_meters":39200,"station_id":"ce4bhh12rcd13ifvqff0","pricing_plan_id":"cebpf4jnsgd1na2vs0mg"},{"bike_id":"69b556b4-bc3d-4ef4-bb4b-65a2e6427433","system_id":"levelo_inurba_marseille","lat":43.28449,"lon":5.35887,"is_reserved":false,"is_disabled":false,"rental_uris":{"android":"levelo://app?vid=69b556b4-bc3d-4ef4-bb4b-65a2e6427433","ios":"levelo://app?vid=69b556b4-bc3d-4ef4-bb4b-65a2e6427433"},"vehicle_type_id":"4","last_reported":1736215946,"current_range_meters":36000,"station_id":"ce4bhah2rcd13ifvqei0","pricing_plan_id":"cebpf4jnsgd1na2vs0mg"},{"bike_id":"8d36cecf-ecca-4c45-999d-1edea70f7f0b","system_id":"levelo_inurba_marseille","lat":43.31701,"lon":5.37744,"is_reserved":false,"is_disabled":false,"rental_uris":{"android":"levelo://app?vid=8d36cecf-ecca-4c45-999d-1edea70f7f0b","ios":"levelo://app?vid=8d36cecf-ecca-4c45-999d-1edea70f7f0b"},"vehicle_type_id":"4","last_reported":1736215946,"current_range_meters":6800,"station_id":"ce4bgth2rcd13ifvqch0","pricing_plan_id":"cebpf4jnsgd1na2vs0mg"},{"bike_id":"1a7eefc9-21de-4429-9848-b724af84a5f8","system_id":"levelo_inurba_marseille","lat":43.29843,"lon":5.36289,"is_reserved":false,"is_disabled":false,"rental_uris":{"android":"levelo://app?vid=1a7eefc9-21de-4429-9848-b724af84a5f8","ios":"levelo://app?vid=1a7eefc9-21de-4429-9848-b724af84a5f8"},"vehicle_type_id":"4","last_reported":1736215946,"current_range_meters":39200,"station_id":"ce4bgpp2rcd13ifvqc3g","pricing_plan_id":"cebpf4jnsgd1na2vs0mg"},{"bike_id":"756c961f-df7e-4151-a9a6-fa46b857fd74","system_id":"levelo_inurba_marseille","lat":43.309571,"lon":5.390434,"is_reserved":false,"is_disabled":false,"rental_uris":{"android":"levelo://app?vid=756c961f-df7e-4151-a9a6-fa46b857fd74","ios":"levelo://app?vid=756c961f-df7e-4151-a9a6-fa46b857fd74"},"vehicle_type_id":"4","last_reported":1736215946,"current_range_meters":8000,"station_id":"ce4bgup2rcd13ifvqco0","pricing_plan_id":"cebpf4jnsgd1na2vs0mg"},{"bike_id":"5562e4bd-7829-46f4-8e0a-f0bf59d9d6be","system_id":"levelo_inurba_marseille","lat":43.2883,"lon":5.35843,"is_reserved":false,"is_disabled":false,"rental_uris":{"android":"levelo://app?vid=5562e4bd-7829-46f4-8e0a-f0bf59d9d6be","ios":"levelo://app?vid=5562e4bd-7829-46f4-8e0a-f0bf59d9d6be"},"vehicle_type_id":"4","last_reported":1736215946,"current_range_meters":38800,"station_id":"ce4bhb12rcd13ifvqem0","pricing_plan_id":"cebpf4jnsgd1na2vs0mg"},{"bike_id":"24bccac7-1e4b-45e8-bc23-0feeff5509f0","system_id":"levelo_inurba_marseille","lat":43.26513,"lon":5.39517,"is_reserved":false,"is_disabled":true,"rental_uris":{"android":"levelo://app?vid=24bccac7-1e4b-45e8-bc23-0feeff5509f0","ios":"levelo://app?vid=24bccac7-1e4b-45e8-bc23-0feeff5509f0"},"vehicle_type_id":"4","last_reported":1736215946,"current_range_meters":0,"station_id":"ce4bhi12rcd13ifvqfq0","pricing_plan_id":"cebpf4jnsgd1na2vs0mg"},{"bike_id":"1c91e94a-d32d-4506-b8b8-b791431e401e","system_id":"levelo_inurba_marseille","lat":43.28912,"lon":5.384,"is_reserved":false,"is_disabled":true,"rental_uris":{"android":"levelo://app?vid=1c91e94a-d32d-4506-b8b8-b791431e401e","ios":"levelo://app?vid=1c91e94a-d32d-4506-b8b8-b791431e401e"},"vehicle_type_id":"4","last_reported":1736215946,"current_range_meters":33200,"station_id":"ce4bh612rcd13ifvqe6g","pricing_plan_id":"cebpf4jnsgd1na2vs0mg"},{"bike_id":"7082a147-72ba-427b-b7d0-01f4c79523c2","system_id":"levelo_inurba_marseille","lat":43.33233,"lon":5.35885,"is_reserved":false,"is_disabled":false,"rental_uris":{"android":"levelo://app?vid=7082a147-72ba-427b-b7d0-01f4c79523c2","ios":"levelo://app?vid=7082a147-72ba-427b-b7d0-01f4c79523c2"},"vehicle_type_id":"4","last_reported":1736215946,"current_range_meters":17600,"station_id":"","pricing_plan_id":"cebpf4jnsgd1na2vs0mg"},{"bike_id":"0065c30b-3b3c-4917-aecd-9e0d84800fab","system_id":"levelo_inurba_marseille","lat":43.29626,"lon":5.4059,"is_reserved":false,"is_disabled":false,"rental_uris":{"android":"levelo://app?vid=0065c30b-3b3c-4917-aecd-9e0d84800fab","ios":"levelo://app?vid=0065c30b-3b3c-4917-aecd-9e0d84800fab"},"vehicle_type_id":"4","last_reported":1736215946,"current_range_meters":38000,"station_id":"ce4bh0h2rcd13ifvqd60","pricing_plan_id":"cebpf4jnsgd1na2vs0mg"},{"bike_id":"1f30e69d-8902-4e73-a96c-28cd2671ae59","system_id":"levelo_inurba_marseille","lat":43.31267,"lon":5.4017,"is_reserved":false,"is_disabled":false,"rental_uris":{"android":"levelo://app?vid=1f30e69d-8902-4e73-a96c-28cd2671ae59","ios":"levelo://app?vid=1f30e69d-8902-4e73-a96c-28cd2671ae59"},"vehicle_type_id":"4","last_reported":1736215946,"current_range_meters":38800,"station_id":"ce4bh092rcd13ifvqd30","pricing_plan_id":"cebpf4jnsgd1na2vs0mg"},{"bike_id":"2984c3f8-4394-4d1f-8159-32739cb25474","system_id":"levelo_inurba_marseille","lat":43.29869,"lon":5.39726,"is_reserved":false,"is_disabled":false,"rental_uris":{"android":"levelo://app?vid=2984c3f8-4394-4d1f-8159-32739cb25474","ios":"levelo://app?vid=2984c3f8-4394-4d1f-8159-32739cb25474"},"vehicle_type_id":"4","last_reported":1736215946,"current_range_meters":38000,"station_id":"ce4bh0h2rcd13ifvqd50","pricing_plan_id":"cebpf4jnsgd1na2vs0mg"},{"bike_id":"bd168e50-b012-4758-9633-ce4894064de3","system_id":"levelo_inurba_marseille","lat":43.30916,"lon":5.40145,"is_reserved":false,"is_disabled":false,"rental_uris":{"android":"levelo://app?vid=bd168e50-b012-4758-9633-ce4894064de3","ios":"levelo://app?vid=bd168e50-b012-4758-9633-ce4894064de3"},"vehicle_type_id":"4","last_reported":1736215946,"current_range_meters":38000,"station_id":"ce4bgvp2rcd13ifvqct0","pricing_plan_id":"cebpf4jnsgd1na2vs0mg"},{"bike_id":"a95030f4-3784-4a78-af6c-f4505a047751","system_id":"levelo_inurba_marseille","lat":43.293794,"lon":5.378582,"is_reserved":false,"is_disabled":true,"rental_uris":{"android":"levelo://app?vid=a95030f4-3784-4a78-af6c-f4505a047751","ios":"levelo://app?vid=a95030f4-3784-4a78-af6c-f4505a047751"},"vehicle_type_id":"4","last_reported":1736215946,"current_range_meters":4800,"station_id":"ce4bgjh2rcd13ifvqbf0","pricing_plan_id":"cebpf4jnsgd1na2vs0mg"},{"bike_id":"d45d0089-5e8c-41ac-a04c-9866c8dc94cc","system_id":"levelo_inurba_marseille","lat":43.23194,"lon":5.3555,"is_reserved":false,"is_disabled":false,"rental_uris":{"android":"levelo://app?vid=d45d0089-5e8c-41ac-a04c-9866c8dc94cc","ios":"levelo://app?vid=d45d0089-5e8c-41ac-a04c-9866c8dc94cc"},"vehicle_type_id":"4","last_reported":1736215946,"current_range_meters":6400,"station_id":"ce4bhu92rcd13ifvqi70","pricing_plan_id":"cebpf4jnsgd1na2vs0mg"},{"bike_id":"bbca0622-2b7d-453b-bde4-93aa221da88f","system_id":"levelo_inurba_marseille","lat":43.28401,"lon":5.37511,"is_reserved":false,"is_disabled":false,"rental_uris":{"android":"levelo://app?vid=bbca0622-2b7d-453b-bde4-93aa221da88f","ios":"levelo://app?vid=bbca0622-2b7d-453b-bde4-93aa221da88f"},"vehicle_type_id":"4","last_reported":1736215946,"current_range_meters":37600,"station_id":"ce4bh412rcd13ifvqds0","pricing_plan_id":"cebpf4jnsgd1na2vs0mg"},{"bike_id":"b5de95e0-8f34-41aa-a5fc-c4e76e03a994","system_id":"levelo_inurba_marseille","lat":43.28095,"lon":5.39666,"is_reserved":false,"is_disabled":true,"rental_uris":{"android":"levelo://app?vid=b5de95e0-8f34-41aa-a5fc-c4e76e03a994","ios":"levelo://app?vid=b5de95e0-8f34-41aa-a5fc-c4e76e03a994"},"vehicle_type_id":"4","last_reported":1736215946,"current_range_meters":25600,"station_id":"ce4bho12rcd13ifvqh2g","pricing_plan_id":"cebpf4jnsgd1na2vs0mg"},{"bike_id":"aa33a53e-f806-43a8-ad7e-8e2bd9644426","system_id":"levelo_inurba_marseille","lat":43.32345,"lon":5.40629,"is_reserved":false,"is_disabled":true,"rental_uris":{"android":"levelo://app?vid=aa33a53e-f806-43a8-ad7e-8e2bd9644426","ios":"levelo://app?vid=aa33a53e-f806-43a8-ad7e-8e2bd9644426"},"vehicle_type_id":"4","last_reported":1736215946,"current_range_meters":0,"station_id":"ce4bhq92rcd13ifvqhjg","pricing_plan_id":"cebpf4jnsgd1na2vs0mg"},{"bike_id":"102dcc25-63ee-4bc9-8f2b-9ef27e541286","system_id":"levelo_inurba_marseille","lat":43.28922,"lon":5.38396,"is_reserved":false,"is_disabled":false,"rental_uris":{"android":"levelo://app?vid=102dcc25-63ee-4bc9-8f2b-9ef27e541286","ios":"levelo://app?vid=102dcc25-63ee-4bc9-8f2b-9ef27e541286"},"vehicle_type_id":"4","last_reported":1736215946,"current_range_meters":24800,"station_id":"ce4bh612rcd13ifvqe6g","pricing_plan_id":"cebpf4jnsgd1na2vs0mg"},{"bike_id":"ab3ef614-fdb3-4aee-a71b-8b4b61a00d6a","system_id":"levelo_inurba_marseille","lat":43.27907,"lon":5.38006,"is_reserved":false,"is_disabled":true,"rental_uris":{"android":"levelo://app?vid=ab3ef614-fdb3-4aee-a71b-8b4b61a00d6a","ios":"levelo://app?vid=ab3ef614-fdb3-4aee-a71b-8b4b61a00d6a"},"vehicle_type_id":"4","last_reported":1736215946,"current_range_meters":38800,"station_id":"ce4bhf92rcd13ifvqf50","pricing_plan_id":"cebpf4jnsgd1na2vs0mg"},{"bike_id":"3ecb915d-f223-4895-a3a0-9c26145c4804","system_id":"levelo_inurba_marseille","lat":43.31733,"lon":5.39029,"is_reserved":false,"is_disabled":false,"rental_uris":{"android":"levelo://app?vid=3ecb915d-f223-4895-a3a0-9c26145c4804","ios":"levelo://app?vid=3ecb915d-f223-4895-a3a0-9c26145c4804"},"vehicle_type_id":"4","last_reported":1736215946,"current_range_meters":38800,"station_id":"ce4bhqp2rcd13ifvqhng","pricing_plan_id":"cebpf4jnsgd1na2vs0mg"},{"bike_id":"ff8cb1e5-1345-4634-b077-22533bf59615","system_id":"levelo_inurba_marseille","lat":43.28411,"lon":5.37512,"is_reserved":false,"is_disabled":false,"rental_uris":{"android":"levelo://app?vid=ff8cb1e5-1345-4634-b077-22533bf59615","ios":"levelo://app?vid=ff8cb1e5-1345-4634-b077-22533bf59615"},"vehicle_type_id":"4","last_reported":1736215946,"current_range_meters":24800,"station_id":"ce4bh412rcd13ifvqds0","pricing_plan_id":"cebpf4jnsgd1na2vs0mg"},{"bike_id":"55239fbb-8ee3-435d-bada-cef21797a0a3","system_id":"levelo_inurba_marseille","lat":43.30214,"lon":5.39479,"is_reserved":false,"is_disabled":false,"rental_uris":{"android":"levelo://app?vid=55239fbb-8ee3-435d-bada-cef21797a0a3","ios":"levelo://app?vid=55239fbb-8ee3-435d-bada-cef21797a0a3"},"vehicle_type_id":"4","last_reported":1736215946,"current_range_meters":38800,"station_id":"ce4bh0p2rcd13ifvqd70","pricing_plan_id":"cebpf4jnsgd1na2vs0mg"},{"bike_id":"e98749f3-4dfb-475b-bc7b-48b38dcedd23","system_id":"levelo_inurba_marseille","lat":43.28662,"lon":5.36363,"is_reserved":false,"is_disabled":false,"rental_uris":{"android":"levelo://app?vid=e98749f3-4dfb-475b-bc7b-48b38dcedd23","ios":"levelo://app?vid=e98749f3-4dfb-475b-bc7b-48b38dcedd23"},"vehicle_type_id":"4","last_reported":1736215946,"current_range_meters":9200,"station_id":"ce4bhah2rcd13ifvqej0","pricing_plan_id":"cebpf4jnsgd1na2vs0mg"},{"bike_id":"72aa27b6-580e-44c5-9bd2-168553fdc64a","system_id":"levelo_inurba_marseille","lat":43.29018,"lon":5.37576,"is_reserved":false,"is_disabled":true,"rental_uris":{"android":"levelo://app?vid=72aa27b6-580e-44c5-9bd2-168553fdc64a","ios":"levelo://app?vid=72aa27b6-580e-44c5-9bd2-168553fdc64a"},"vehicle_type_id":"4","last_reported":1736215946,"current_range_meters":1600,"station_id":"ce4bh692rcd13ifvqe90","pricing_plan_id":"cebpf4jnsgd1na2vs0mg"},{"bike_id":"12ed3c96-3bec-4316-abdd-31027ccf9ee8","system_id":"levelo_inurba_marseille","lat":43.24684,"lon":5.3815,"is_reserved":false,"is_disabled":false,"rental_uris":{"android":"levelo://app?vid=12ed3c96-3bec-4316-abdd-31027ccf9ee8","ios":"levelo://app?vid=12ed3c96-3bec-4316-abdd-31027ccf9ee8"},"vehicle_type_id":"4","last_reported":1736215946,"current_range_meters":25600,"station_id":"ce4bhih2rcd13ifvqfr0","pricing_plan_id":"cebpf4jnsgd1na2vs0mg"},{"bike_id":"d514d475-2b46-42a1-bc75-50b3661a4c9f","system_id":"levelo_inurba_marseille","lat":43.32655,"lon":5.4099,"is_reserved":false,"is_disabled":false,"rental_uris":{"android":"levelo://app?vid=d514d475-2b46-42a1-bc75-50b3661a4c9f","ios":"levelo://app?vid=d514d475-2b46-42a1-bc75-50b3661a4c9f"},"vehicle_type_id":"4","last_reported":1736215946,"current_range_meters":38000,"station_id":"ce4bhpp2rcd13ifvqhgg","pricing_plan_id":"cebpf4jnsgd1na2vs0mg"},{"bike_id":"4299617b-6245-4d47-a633-565f91a4f33c","system_id":"levelo_inurba_marseille","lat":43.3172,"lon":5.43698,"is_reserved":false,"is_disabled":false,"rental_uris":{"android":"levelo://app?vid=4299617b-6245-4d47-a633-565f91a4f33c","ios":"levelo://app?vid=4299617b-6245-4d47-a633-565f91a4f33c"},"vehicle_type_id":"4","last_reported":1736215946,"current_range_meters":15200,"station_id":"ce4bhp92rcd13ifvqhcg","pricing_plan_id":"cebpf4jnsgd1na2vs0mg"},{"bike_id":"88ae6fd4-8c72-4b57-956e-2a14760d9eb4","system_id":"levelo_inurba_marseille","lat":43.30249,"lon":5.40054,"is_reserved":false,"is_disabled":false,"rental_uris":{"android":"levelo://app?vid=88ae6fd4-8c72-4b57-956e-2a14760d9eb4","ios":"levelo://app?vid=88ae6fd4-8c72-4b57-956e-2a14760d9eb4"},"vehicle_type_id":"4","last_reported":1736215946,"current_range_meters":38800,"station_id":"ce4bgvh2rcd13ifvqcs0","pricing_plan_id":"cebpf4jnsgd1na2vs0mg"},{"bike_id":"d0541b38-8e7e-4e1e-8666-5868b43eb4cc","system_id":"levelo_inurba_marseille","lat":43.25104,"lon":5.40324,"is_reserved":false,"is_disabled":false,"rental_uris":{"android":"levelo://app?vid=d0541b38-8e7e-4e1e-8666-5868b43eb4cc","ios":"levelo://app?vid=d0541b38-8e7e-4e1e-8666-5868b43eb4cc"},"vehicle_type_id":"4","last_reported":1736215946,"current_range_meters":36800,"station_id":"ce4bhlh2rcd13ifvqgig","pricing_plan_id":"cebpf4jnsgd1na2vs0mg"},{"bike_id":"e1cc4ed4-6b0b-4f3f-9eb3-8352783e79b9","system_id":"levelo_inurba_marseille","lat":43.29729,"lon":5.38196,"is_reserved":false,"is_disabled":false,"rental_uris":{"android":"levelo://app?vid=e1cc4ed4-6b0b-4f3f-9eb3-8352783e79b9","ios":"levelo://app?vid=e1cc4ed4-6b0b-4f3f-9eb3-8352783e79b9"},"vehicle_type_id":"4","last_reported":1736215946,"current_range_meters":38800,"station_id":"ce4bgip2rcd13ifvqbb0","pricing_plan_id":"cebpf4jnsgd1na2vs0mg"},{"bike_id":"4e1fe626-83a9-48a1-ae4d-a6801106e052","system_id":"levelo_inurba_marseille","lat":43.24806,"lon":5.37446,"is_reserved":false,"is_disabled":false,"rental_uris":{"android":"levelo://app?vid=4e1fe626-83a9-48a1-ae4d-a6801106e052","ios":"levelo://app?vid=4e1fe626-83a9-48a1-ae4d-a6801106e052"},"vehicle_type_id":"4","last_reported":1736215946,"current_range_meters":38000,"station_id":"ce4bhgh2rcd13ifvqfb0","pricing_plan_id":"cebpf4jnsgd1na2vs0mg"},{"bike_id":"ec1d3085-9ec8-4ac2-a235-c8f35d70ec9d","system_id":"levelo_inurba_marseille","lat":43.25837,"lon":5.39424,"is_reserved":false,"is_disabled":false,"rental_uris":{"android":"levelo://app?vid=ec1d3085-9ec8-4ac2-a235-c8f35d70ec9d","ios":"levelo://app?vid=ec1d3085-9ec8-4ac2-a235-c8f35d70ec9d"},"vehicle_type_id":"4","last_reported":1736215946,"current_range_meters":38000,"station_id":"ce4bhip2rcd13ifvqft0","pricing_plan_id":"cebpf4jnsgd1na2vs0mg"},{"bike_id":"c2b73cf9-432c-47d0-82d9-ad89323e0a5a","system_id":"levelo_inurba_marseille","lat":43.29571,"lon":5.37502,"is_reserved":false,"is_disabled":false,"rental_uris":{"android":"levelo://app?vid=c2b73cf9-432c-47d0-82d9-ad89323e0a5a","ios":"levelo://app?vid=c2b73cf9-432c-47d0-82d9-ad89323e0a5a"},"vehicle_type_id":"4","last_reported":1736215946,"current_range_meters":26000,"station_id":"ce4bgh92rcd13ifvqb50","pricing_plan_id":"cebpf4jnsgd1na2vs0mg"},{"bike_id":"a07308fb-8ff3-4df0-87b5-b2f80f1dc21b","system_id":"levelo_inurba_marseille","lat":43.28006,"lon":5.40006,"is_reserved":false,"is_disabled":false,"rental_uris":{"android":"levelo://app?vid=a07308fb-8ff3-4df0-87b5-b2f80f1dc21b","ios":"levelo://app?vid=a07308fb-8ff3-4df0-87b5-b2f80f1dc21b"},"vehicle_type_id":"4","last_reported":1736215946,"current_range_meters":37600,"station_id":"ce4bho92rcd13ifvqh4g","pricing_plan_id":"cebpf4jnsgd1na2vs0mg"},{"bike_id":"0228bffd-2089-4238-92df-ae29a9f0f1ae","system_id":"levelo_inurba_marseille","lat":43.24669,"lon":5.38152,"is_reserved":false,"is_disabled":false,"rental_uris":{"android":"levelo://app?vid=0228bffd-2089-4238-92df-ae29a9f0f1ae","ios":"levelo://app?vid=0228bffd-2089-4238-92df-ae29a9f0f1ae"},"vehicle_type_id":"4","last_reported":1736215946,"current_range_meters":36800,"station_id":"ce4bhih2rcd13ifvqfr0","pricing_plan_id":"cebpf4jnsgd1na2vs0mg"},{"bike_id":"1f2a36a2-3528-4aeb-8044-9997d45a0ed3","system_id":"levelo_inurba_marseille","lat":43.27917,"lon":5.39563,"is_reserved":false,"is_disabled":false,"rental_uris":{"android":"levelo://app?vid=1f2a36a2-3528-4aeb-8044-9997d45a0ed3","ios":"levelo://app?vid=1f2a36a2-3528-4aeb-8044-9997d45a0ed3"},"vehicle_type_id":"4","last_reported":1736215946,"current_range_meters":32000,"station_id":"ce4bhf92rcd13ifvqf40","pricing_plan_id":"cebpf4jnsgd1na2vs0mg"},{"bike_id":"8a474426-cd46-4cf8-9edc-ef843a0ca02e","system_id":"levelo_inurba_marseille","lat":43.26531,"lon":5.39065,"is_reserved":false,"is_disabled":true,"rental_uris":{"android":"levelo://app?vid=8a474426-cd46-4cf8-9edc-ef843a0ca02e","ios":"levelo://app?vid=8a474426-cd46-4cf8-9edc-ef843a0ca02e"},"vehicle_type_id":"4","last_reported":1736215946,"current_range_meters":32000,"station_id":"","pricing_plan_id":"cebpf4jnsgd1na2vs0mg"},{"bike_id":"b8e8befc-076e-4a84-a746-24b09895b81b","system_id":"levelo_inurba_marseille","lat":43.25579,"lon":5.38228,"is_reserved":false,"is_disabled":false,"rental_uris":{"android":"levelo://app?vid=b8e8befc-076e-4a84-a746-24b09895b81b","ios":"levelo://app?vid=b8e8befc-076e-4a84-a746-24b09895b81b"},"vehicle_type_id":"4","last_reported":1736215946,"current_range_meters":35600,"station_id":"ce4bhih2rcd13ifvqfs0","pricing_plan_id":"cebpf4jnsgd1na2vs0mg"},{"bike_id":"bbf998ea-d252-4590-8711-16d78ff4b07c","system_id":"levelo_inurba_marseille","lat":43.24636,"lon":5.38935,"is_reserved":false,"is_disabled":false,"rental_uris":{"android":"levelo://app?vid=bbf998ea-d252-4590-8711-16d78ff4b07c","ios":"levelo://app?vid=bbf998ea-d252-4590-8711-16d78ff4b07c"},"vehicle_type_id":"4","last_reported":1736215946,"current_range_meters":28000,"station_id":"ce4bhg12rcd13ifvqf60","pricing_plan_id":"cebpf4jnsgd1na2vs0mg"},{"bike_id":"3bd701e8-1174-4580-b2cf-5d3167d58c57","system_id":"levelo_inurba_marseille","lat":43.28686,"lon":5.37397,"is_reserved":false,"is_disabled":false,"rental_uris":{"android":"levelo://app?vid=3bd701e8-1174-4580-b2cf-5d3167d58c57","ios":"levelo://app?vid=3bd701e8-1174-4580-b2cf-5d3167d58c57"},"vehicle_type_id":"4","last_reported":1736215946,"current_range_meters":21600,"station_id":"ce4bh3p2rcd13ifvqdq0","pricing_plan_id":"cebpf4jnsgd1na2vs0mg"},{"bike_id":"40fb7dad-5609-4451-ab10-c8015483f17a","system_id":"levelo_inurba_marseille","lat":43.25127,"lon":5.40317,"is_reserved":false,"is_disabled":false,"rental_uris":{"android":"levelo://app?vid=40fb7dad-5609-4451-ab10-c8015483f17a","ios":"levelo://app?vid=40fb7dad-5609-4451-ab10-c8015483f17a"},"vehicle_type_id":"4","last_reported":1736215946,"current_range_meters":28000,"station_id":"ce4bhlh2rcd13ifvqgig","pricing_plan_id":"cebpf4jnsgd1na2vs0mg"},{"bike_id":"5f5cedf9-bd29-4ae7-8006-771b625e8e9c","system_id":"levelo_inurba_marseille","lat":43.30124,"lon":5.39879,"is_reserved":false,"is_disabled":false,"rental_uris":{"android":"levelo://app?vid=5f5cedf9-bd29-4ae7-8006-771b625e8e9c","ios":"levelo://app?vid=5f5cedf9-bd29-4ae7-8006-771b625e8e9c"},"vehicle_type_id":"4","last_reported":1736215946,"current_range_meters":32000,"station_id":"ce4bh0h2rcd13ifvqd40","pricing_plan_id":"cebpf4jnsgd1na2vs0mg"},{"bike_id":"bfb2a8c4-a8de-401b-830e-eb9b976adb23","system_id":"levelo_inurba_marseille","lat":43.27057,"lon":5.42274,"is_reserved":false,"is_disabled":false,"rental_uris":{"android":"levelo://app?vid=bfb2a8c4-a8de-401b-830e-eb9b976adb23","ios":"levelo://app?vid=bfb2a8c4-a8de-401b-830e-eb9b976adb23"},"vehicle_type_id":"4","last_reported":1736215946,"current_range_meters":36400,"station_id":"ce4bhk92rcd13ifvqgb0","pricing_plan_id":"cebpf4jnsgd1na2vs0mg"},{"bike_id":"9167256e-c95d-4d3b-8323-b584cb9e608f","system_id":"levelo_inurba_marseille","lat":43.272,"lon":5.39185,"is_reserved":false,"is_disabled":true,"rental_uris":{"android":"levelo://app?vid=9167256e-c95d-4d3b-8323-b584cb9e608f","ios":"levelo://app?vid=9167256e-c95d-4d3b-8323-b584cb9e608f"},"vehicle_type_id":"4","last_reported":1736215946,"current_range_meters":0,"station_id":"ce4bhhp2rcd13ifvqfm0","pricing_plan_id":"cebpf4jnsgd1na2vs0mg"},{"bike_id":"664044e6-e824-440a-a874-8e818a3a1b1b","system_id":"levelo_inurba_marseille","lat":43.28572,"lon":5.39496,"is_reserved":false,"is_disabled":true,"rental_uris":{"android":"levelo://app?vid=664044e6-e824-440a-a874-8e818a3a1b1b","ios":"levelo://app?vid=664044e6-e824-440a-a874-8e818a3a1b1b"},"vehicle_type_id":"4","last_reported":1736215946,"current_range_meters":36400,"station_id":"ce4bh292rcd13ifvqdg0","pricing_plan_id":"cebpf4jnsgd1na2vs0mg"},{"bike_id":"d1436c26-e212-42bd-b89e-6dcd5bba9fb3","system_id":"levelo_inurba_marseille","lat":43.28408,"lon":5.37531,"is_reserved":false,"is_disabled":false,"rental_uris":{"android":"levelo://app?vid=d1436c26-e212-42bd-b89e-6dcd5bba9fb3","ios":"levelo://app?vid=d1436c26-e212-42bd-b89e-6dcd5bba9fb3"},"vehicle_type_id":"4","last_reported":1736215946,"current_range_meters":38800,"station_id":"ce4bh412rcd13ifvqds0","pricing_plan_id":"cebpf4jnsgd1na2vs0mg"},{"bike_id":"4b559c7e-0d51-44f6-a2d4-e5a8316f9982","system_id":"levelo_inurba_marseille","lat":43.28934,"lon":5.39595,"is_reserved":false,"is_disabled":false,"rental_uris":{"android":"levelo://app?vid=4b559c7e-0d51-44f6-a2d4-e5a8316f9982","ios":"levelo://app?vid=4b559c7e-0d51-44f6-a2d4-e5a8316f9982"},"vehicle_type_id":"4","last_reported":1736215946,"current_range_meters":38800,"station_id":"ce4bh3h2rcd13ifvqdn0","pricing_plan_id":"cebpf4jnsgd1na2vs0mg"},{"bike_id":"936ed474-610f-4c67-b8c9-91392f127c61","system_id":"levelo_inurba_marseille","lat":43.29453,"lon":5.39736,"is_reserved":false,"is_disabled":false,"rental_uris":{"android":"levelo://app?vid=936ed474-610f-4c67-b8c9-91392f127c61","ios":"levelo://app?vid=936ed474-610f-4c67-b8c9-91392f127c61"},"vehicle_type_id":"4","last_reported":1736215946,"current_range_meters":38800,"station_id":"ce4bh3h2rcd13ifvqdo0","pricing_plan_id":"cebpf4jnsgd1na2vs0mg"},{"bike_id":"02201d32-ece4-4cd3-8c2d-8eacbfc5c3d0","system_id":"levelo_inurba_marseille","lat":43.25129,"lon":5.4031,"is_reserved":false,"is_disabled":false,"rental_uris":{"android":"levelo://app?vid=02201d32-ece4-4cd3-8c2d-8eacbfc5c3d0","ios":"levelo://app?vid=02201d32-ece4-4cd3-8c2d-8eacbfc5c3d0"},"vehicle_type_id":"4","last_reported":1736215946,"current_range_meters":35600,"station_id":"ce4bhlh2rcd13ifvqgig","pricing_plan_id":"cebpf4jnsgd1na2vs0mg"},{"bike_id":"d8bf17bb-a10c-4664-bc5a-7fe14bc8f4da","system_id":"levelo_inurba_marseille","lat":43.29964,"lon":5.37192,"is_reserved":false,"is_disabled":false,"rental_uris":{"android":"levelo://app?vid=d8bf17bb-a10c-4664-bc5a-7fe14bc8f4da","ios":"levelo://app?vid=d8bf17bb-a10c-4664-bc5a-7fe14bc8f4da"},"vehicle_type_id":"4","last_reported":1736215946,"current_range_meters":38800,"station_id":"ce4bgr92rcd13ifvqc7g","pricing_plan_id":"cebpf4jnsgd1na2vs0mg"},{"bike_id":"0bcfea18-61ca-412d-bded-b63f59943884","system_id":"levelo_inurba_marseille","lat":43.28613,"lon":5.35104,"is_reserved":false,"is_disabled":true,"rental_uris":{"android":"levelo://app?vid=0bcfea18-61ca-412d-bded-b63f59943884","ios":"levelo://app?vid=0bcfea18-61ca-412d-bded-b63f59943884"},"vehicle_type_id":"4","last_reported":1736215946,"current_range_meters":30800,"station_id":"ce4bhch2rcd13ifvqeug","pricing_plan_id":"cebpf4jnsgd1na2vs0mg"},{"bike_id":"1a84399a-435c-4ec1-bdbf-8e844d989c4b","system_id":"levelo_inurba_marseille","lat":43.29708,"lon":5.36585,"is_reserved":false,"is_disabled":false,"rental_uris":{"android":"levelo://app?vid=1a84399a-435c-4ec1-bdbf-8e844d989c4b","ios":"levelo://app?vid=1a84399a-435c-4ec1-bdbf-8e844d989c4b"},"vehicle_type_id":"4","last_reported":1736215946,"current_range_meters":39200,"station_id":"ce4bgn12rcd13ifvqbt0","pricing_plan_id":"cebpf4jnsgd1na2vs0mg"},{"bike_id":"01844f2c-8e2d-4e7b-84eb-c284d12438cb","system_id":"levelo_inurba_marseille","lat":43.28076,"lon":5.39645,"is_reserved":false,"is_disabled":false,"rental_uris":{"android":"levelo://app?vid=01844f2c-8e2d-4e7b-84eb-c284d12438cb","ios":"levelo://app?vid=01844f2c-8e2d-4e7b-84eb-c284d12438cb"},"vehicle_type_id":"4","last_reported":1736215946,"current_range_meters":38800,"station_id":"ce4bho12rcd13ifvqh2g","pricing_plan_id":"cebpf4jnsgd1na2vs0mg"},{"bike_id":"6abef6a9-caf5-451a-afc9-43df477f8261","system_id":"levelo_inurba_marseille","lat":43.28673,"lon":5.36341,"is_reserved":false,"is_disabled":false,"rental_uris":{"android":"levelo://app?vid=6abef6a9-caf5-451a-afc9-43df477f8261","ios":"levelo://app?vid=6abef6a9-caf5-451a-afc9-43df477f8261"},"vehicle_type_id":"4","last_reported":1736215946,"current_range_meters":38800,"station_id":"ce4bhah2rcd13ifvqej0","pricing_plan_id":"cebpf4jnsgd1na2vs0mg"},{"bike_id":"086ec256-c7bb-4298-b024-d47a185c580f","system_id":"levelo_inurba_marseille","lat":43.29,"lon":5.3561,"is_reserved":false,"is_disabled":false,"rental_uris":{"android":"levelo://app?vid=086ec256-c7bb-4298-b024-d47a185c580f","ios":"levelo://app?vid=086ec256-c7bb-4298-b024-d47a185c580f"},"vehicle_type_id":"4","last_reported":1736215946,"current_range_meters":37600,"station_id":"ce4bhb92rcd13ifvqen0","pricing_plan_id":"cebpf4jnsgd1na2vs0mg"},{"bike_id":"03630410-cff2-41ca-8ab4-df6ebc45a627","system_id":"levelo_inurba_marseille","lat":43.30139,"lon":5.38111,"is_reserved":false,"is_disabled":true,"rental_uris":{"android":"levelo://app?vid=03630410-cff2-41ca-8ab4-df6ebc45a627","ios":"levelo://app?vid=03630410-cff2-41ca-8ab4-df6ebc45a627"},"vehicle_type_id":"4","last_reported":1736215946,"current_range_meters":35600,"station_id":"ce4bgjp2rcd13ifvqbh0","pricing_plan_id":"cebpf4jnsgd1na2vs0mg"},{"bike_id":"52200668-cd8f-4dc4-8199-1244ab61819a","system_id":"levelo_inurba_marseille","lat":43.2481,"lon":5.37453,"is_reserved":false,"is_disabled":false,"rental_uris":{"android":"levelo://app?vid=52200668-cd8f-4dc4-8199-1244ab61819a","ios":"levelo://app?vid=52200668-cd8f-4dc4-8199-1244ab61819a"},"vehicle_type_id":"4","last_reported":1736215946,"current_range_meters":38800,"station_id":"ce4bhgh2rcd13ifvqfb0","pricing_plan_id":"cebpf4jnsgd1na2vs0mg"},{"bike_id":"fadb19b4-38ae-483b-b181-ac76c2092bc0","system_id":"levelo_inurba_marseille","lat":43.31093,"lon":5.38336,"is_reserved":false,"is_disabled":false,"rental_uris":{"android":"levelo://app?vid=fadb19b4-38ae-483b-b181-ac76c2092bc0","ios":"levelo://app?vid=fadb19b4-38ae-483b-b181-ac76c2092bc0"},"vehicle_type_id":"4","last_reported":1736215946,"current_range_meters":38000,"station_id":"ce4bgv92rcd13ifvqcr0","pricing_plan_id":"cebpf4jnsgd1na2vs0mg"},{"bike_id":"bc5b5855-1cf6-4cdc-af1a-e3906d45046d","system_id":"levelo_inurba_marseille","lat":43.25003,"lon":5.38916,"is_reserved":false,"is_disabled":false,"rental_uris":{"android":"levelo://app?vid=bc5b5855-1cf6-4cdc-af1a-e3906d45046d","ios":"levelo://app?vid=bc5b5855-1cf6-4cdc-af1a-e3906d45046d"},"vehicle_type_id":"4","last_reported":1736215946,"current_range_meters":25600,"station_id":"ce4bhgp2rcd13ifvqfd0","pricing_plan_id":"cebpf4jnsgd1na2vs0mg"},{"bike_id":"b174120d-6c0e-448a-9af0-af9dcc29822e","system_id":"levelo_inurba_marseille","lat":43.28025,"lon":5.36943,"is_reserved":false,"is_disabled":false,"rental_uris":{"android":"levelo://app?vid=b174120d-6c0e-448a-9af0-af9dcc29822e","ios":"levelo://app?vid=b174120d-6c0e-448a-9af0-af9dcc29822e"},"vehicle_type_id":"4","last_reported":1736215946,"current_range_meters":37600,"station_id":"ce4bha12rcd13ifvqef0","pricing_plan_id":"cebpf4jnsgd1na2vs0mg"},{"bike_id":"9206d9db-6a1d-4495-9bc2-7d4e1ef0f397","system_id":"levelo_inurba_marseille","lat":43.28919,"lon":5.38414,"is_reserved":false,"is_disabled":true,"rental_uris":{"android":"levelo://app?vid=9206d9db-6a1d-4495-9bc2-7d4e1ef0f397","ios":"levelo://app?vid=9206d9db-6a1d-4495-9bc2-7d4e1ef0f397"},"vehicle_type_id":"4","last_reported":1736215946,"current_range_meters":36800,"station_id":"ce4bh612rcd13ifvqe6g","pricing_plan_id":"cebpf4jnsgd1na2vs0mg"},{"bike_id":"2937c8f0-6f06-4c7f-8240-41ad44bc55fa","system_id":"levelo_inurba_marseille","lat":43.23193,"lon":5.39973,"is_reserved":false,"is_disabled":false,"rental_uris":{"android":"levelo://app?vid=2937c8f0-6f06-4c7f-8240-41ad44bc55fa","ios":"levelo://app?vid=2937c8f0-6f06-4c7f-8240-41ad44bc55fa"},"vehicle_type_id":"4","last_reported":1736215946,"current_range_meters":12400,"station_id":"ce4bhn12rcd13ifvqgqg","pricing_plan_id":"cebpf4jnsgd1na2vs0mg"},{"bike_id":"c033709f-e02c-4018-a70f-8dad9d0696e0","system_id":"levelo_inurba_marseille","lat":43.2884,"lon":5.35842,"is_reserved":false,"is_disabled":false,"rental_uris":{"android":"levelo://app?vid=c033709f-e02c-4018-a70f-8dad9d0696e0","ios":"levelo://app?vid=c033709f-e02c-4018-a70f-8dad9d0696e0"},"vehicle_type_id":"4","last_reported":1736215946,"current_range_meters":38800,"station_id":"ce4bhb12rcd13ifvqem0","pricing_plan_id":"cebpf4jnsgd1na2vs0mg"},{"bike_id":"efaac073-0042-47ef-98ca-9e2ef1fc5fd4","system_id":"levelo_inurba_marseille","lat":43.32339,"lon":5.40612,"is_reserved":false,"is_disabled":false,"rental_uris":{"android":"levelo://app?vid=efaac073-0042-47ef-98ca-9e2ef1fc5fd4","ios":"levelo://app?vid=efaac073-0042-47ef-98ca-9e2ef1fc5fd4"},"vehicle_type_id":"4","last_reported":1736215946,"current_range_meters":26800,"station_id":"ce4bhq92rcd13ifvqhjg","pricing_plan_id":"cebpf4jnsgd1na2vs0mg"},{"bike_id":"6d4dc888-c3dc-4474-a3b9-e5fa733b91aa","system_id":"levelo_inurba_marseille","lat":43.31696,"lon":5.37771,"is_reserved":false,"is_disabled":false,"rental_uris":{"android":"levelo://app?vid=6d4dc888-c3dc-4474-a3b9-e5fa733b91aa","ios":"levelo://app?vid=6d4dc888-c3dc-4474-a3b9-e5fa733b91aa"},"vehicle_type_id":"4","last_reported":1736215946,"current_range_meters":37600,"station_id":"ce4bgth2rcd13ifvqch0","pricing_plan_id":"cebpf4jnsgd1na2vs0mg"},{"bike_id":"f49298c6-b208-404d-bb0c-160ccbda2eed","system_id":"levelo_inurba_marseille","lat":43.279895,"lon":5.400121,"is_reserved":false,"is_disabled":true,"rental_uris":{"android":"levelo://app?vid=f49298c6-b208-404d-bb0c-160ccbda2eed","ios":"levelo://app?vid=f49298c6-b208-404d-bb0c-160ccbda2eed"},"vehicle_type_id":"4","last_reported":1736215946,"current_range_meters":32800,"station_id":"ce4bho92rcd13ifvqh4g","pricing_plan_id":"cebpf4jnsgd1na2vs0mg"},{"bike_id":"d014f699-d84d-436b-b3bf-8c059d18ea89","system_id":"levelo_inurba_marseille","lat":43.22923,"lon":5.35376,"is_reserved":false,"is_disabled":false,"rental_uris":{"android":"levelo://app?vid=d014f699-d84d-436b-b3bf-8c059d18ea89","ios":"levelo://app?vid=d014f699-d84d-436b-b3bf-8c059d18ea89"},"vehicle_type_id":"4","last_reported":1736215946,"current_range_meters":9200,"station_id":"cpo3532slgdg3j2ikp40","pricing_plan_id":"cebpf4jnsgd1na2vs0mg"},{"bike_id":"7f58f993-175d-4e12-8a7f-3fbf9704cd26","system_id":"levelo_inurba_marseille","lat":43.28933,"lon":5.36615,"is_reserved":false,"is_disabled":false,"rental_uris":{"android":"levelo://app?vid=7f58f993-175d-4e12-8a7f-3fbf9704cd26","ios":"levelo://app?vid=7f58f993-175d-4e12-8a7f-3fbf9704cd26"},"vehicle_type_id":"4","last_reported":1736215946,"current_range_meters":36800,"station_id":"ce4bhap2rcd13ifvqek0","pricing_plan_id":"cebpf4jnsgd1na2vs0mg"},{"bike_id":"c4ef25b2-0ad5-4900-81fa-11f2a64f085f","system_id":"levelo_inurba_marseille","lat":43.28465,"lon":5.35882,"is_reserved":false,"is_disabled":false,"rental_uris":{"android":"levelo://app?vid=c4ef25b2-0ad5-4900-81fa-11f2a64f085f","ios":"levelo://app?vid=c4ef25b2-0ad5-4900-81fa-11f2a64f085f"},"vehicle_type_id":"4","last_reported":1736215946,"current_range_meters":23200,"station_id":"ce4bhah2rcd13ifvqei0","pricing_plan_id":"cebpf4jnsgd1na2vs0mg"},{"bike_id":"955387a8-4a47-4691-946f-78754c88504b","system_id":"levelo_inurba_marseille","lat":43.232,"lon":5.35534,"is_reserved":false,"is_disabled":false,"rental_uris":{"android":"levelo://app?vid=955387a8-4a47-4691-946f-78754c88504b","ios":"levelo://app?vid=955387a8-4a47-4691-946f-78754c88504b"},"vehicle_type_id":"4","last_reported":1736215946,"current_range_meters":38000,"station_id":"ce4bhu92rcd13ifvqi70","pricing_plan_id":"cebpf4jnsgd1na2vs0mg"},