{"last_updated":1738685483,"ttl":60,"version":"2.2","data":{"bikes":[{"bike_id":"a6accd57-54cf-4d44-87f9-766d1013e2f7","system_id":"levelo_inurba_marseille","lat":43.26055,"lon":5.3752,"is_reserved":false,"is_disabled":false,"rental_uris":{"android":"levelo://app?vid=a6accd57-54cf-4d44-87f9-766d1013e2f7","ios":"levelo://app?vid=a6accd57-54cf-4d44-87f9-766d1013e2f7"},"vehicle_type_id":"4","last_reported":1738685483,"current_range_meters":36400,"station_id":"ce4bhgh2rcd13ifvqfa0","pricing_plan_id":"cebpf4jnsgd1na2vs0mg"},{"bike_id":"4166f30a-72db-41d5-b2ba-dfec6ab056dc","system_id":"levelo_inurba_marseille","lat":43.27945,"lon":5.41044,"is_reserved":false,"is_disabled":false,"rental_uris":{"android":"levelo://app?vid=4166f30a-72db-41d5-b2ba-dfec6ab056dc","ios":"levelo://app?vid=4166f30a-72db-41d5-b2ba-dfec6ab056dc"},"vehicle_type_id":"4","last_reported":1738685483,"current_range_meters":38800,"station_id":"ce4bhnp2rcd13ifvqh0g","pricing_plan_id":"cebpf4jnsgd1na2vs0mg"},{"bike_id":"1ae6562d-660e-4805-b9fa-ffde6ca908d4","system_id":"levelo_inurba_marseille","lat":43.28706,"lon":5.3739,"is_reserved":false,"is_disabled":false,"rental_uris":{"android":"levelo://app?vid=1ae6562d-660e-4805-b9fa-ffde6ca908d4","ios":"levelo://app?vid=1ae6562d-660e-4805-b9fa-ffde6ca908d4"},"vehicle_type_id":"4","last_reported":1738685483,"current_range_meters":39200,"station_id":"ce4bh3p2rcd13ifvqdq0","pricing_plan_id":"cebpf4jnsgd1na2vs0mg"},{"bike_id":"fac3fed1-5272-4e42-8d19-dc185db43a07","system_id":"levelo_inurba_marseille","lat":43.27376,"lon":5.36258,"is_reserved":false,"is_disabled":false,"rental_uris":{"android":"levelo://app?vid=fac3fed1-5272-4e42-8d19-dc185db43a07","ios":"levelo://app?vid=fac3fed1-5272-4e42-8d19-dc185db43a07"},"vehicle_type_id":"4","last_reported":1738685483,"current_range_meters":18000,"station_id":"ce4bhbh2rcd13ifvqeo0","pricing_plan_id":"cebpf4jnsgd1na2vs0mg"},{"bike_id":"f18a6606-13b4-4033-9b81-977358c095e8","system_id":"levelo_inurba_marseille","lat":43.28426,"lon":5.34988,"is_reserved":false,"is_disabled":true,"rental_uris":{"android":"levelo://app?vid=f18a6606-13b4-4033-9b81-977358c095e8","ios":"levelo://app?vid=f18a6606-13b4-4033-9b81-977358c095e8"},"vehicle_type_id":"4","last_reported":1738685483,"current_range_meters":1200,"station_id":"ce4bhbh2rcd13ifvqepg","pricing_plan_id":"cebpf4jnsgd1na2vs0mg"},{"bike_id":"53a9d8da-5f7e-48a8-b489-8866ab88b092","system_id":"levelo_inurba_marseille","lat":43.28266,"lon":5.3507,"is_reserved":false,"is_disabled":false,"rental_uris":{"android":"levelo://app?vid=53a9d8da-5f7e-48a8-b489-8866ab88b092","ios":"levelo://app?vid=53a9d8da-5f7e-48a8-b489-8866ab88b092"},"vehicle_type_id":"4","last_reported":1738685483,"current_range_meters":38800,"station_id":"ce4bhbp2rcd13ifvqerg","pricing_plan_id":"cebpf4jnsgd1na2vs0mg"},{"bike_id":"6b0b28d7-637f-4ae4-8bc9-de31813f1237","system_id":"levelo_inurba_marseille","lat":43.28618,"lon":5.35107,"is_reserved":false,"is_disabled":false,"rental_uris":{"android":"levelo://app?vid=6b0b28d7-637f-4ae4-8bc9-de31813f1237","ios":"levelo://app?vid=6b0b28d7-637f-4ae4-8bc9-de31813f1237"},"vehicle_type_id":"4","last_reported":1738685483,"current_range_meters":37600,"station_id":"ce4bhch2rcd13ifvqeug","pricing_plan_id":"cebpf4jnsgd1na2vs0mg"},{"bike_id":"c3d081d5-4d92-46ae-b635-182bf30c7a9e","system_id":"levelo_inurba_marseille","lat":43.30545,"lon":5.36541,"is_reserved":false,"is_disabled":false,"rental_uris":{"android":"levelo://app?vid=c3d081d5-4d92-46ae-b635-182bf30c7a9e","ios":"levelo://app?vid=c3d081d5-4d92-46ae-b635-182bf30c7a9e"},"vehicle_type_id":"4","last_reported":1738685483,"current_range_meters":27200,"station_id":"ce4bgs12rcd13ifvqcag","pricing_plan_id":"cebpf4jnsgd1na2vs0mg"},{"bike_id":"58151ec7-e20c-4a1b-8d6e-c593d4cf06cb","system_id":"levelo_inurba_marseille","lat":43.2995,"lon":5.36524,"is_reserved":false,"is_disabled":false,"rental_uris":{"android":"levelo://app?vid=58151ec7-e20c-4a1b-8d6e-c593d4cf06cb","ios":"levelo://app?vid=58151ec7-e20c-4a1b-8d6e-c593d4cf06cb"},"vehicle_type_id":"4","last_reported":1738685483,"current_range_meters":26800,"station_id":"ce4bgm92rcd13ifvqbr0","pricing_plan_id":"cebpf4jnsgd1na2vs0mg"},{"bike_id":"583c3fe7-92be-46dc-8c89-368fd147bd7e","system_id":"levelo_inurba_marseille","lat":43.30622,"lon":5.36748,"is_reserved":false,"is_disabled":false,"rental_uris":{"android":"levelo://app?vid=583c3fe7-92be-46dc-8c89-368fd147bd7e","ios":"levelo://app?vid=583c3fe7-92be-46dc-8c89-368fd147bd7e"},"vehicle_type_id":"4","last_reported":1738685483,"current_range_meters":38400,"station_id":"","pricing_plan_id":"cebpf4jnsgd1na2vs0mg"},{"bike_id":"03bced63-8d1e-4d33-9107-4357a30ccb0b","system_id":"levelo_inurba_marseille","lat":43.2694,"lon":5.40246,"is_reserved":false,"is_disabled":false,"rental_uris":{"android":"levelo://app?vid=03bced63-8d1e-4d33-9107-4357a30ccb0b","ios":"levelo://app?vid=03bced63-8d1e-4d33-9107-4357a30ccb0b"},"vehicle_type_id":"4","last_reported":1738685483,"current_range_meters":20000,"station_id":"cjm6bp8fraef2m0cb0m0","pricing_plan_id":"cebpf4jnsgd1na2vs0mg"},{"bike_id":"b4288bdc-e476-4c8c-946d-02f603986442","system_id":"levelo_inurba_marseille","lat":43.28285,"lon":5.35078,"is_reserved":false,"is_disabled":false,"rental_uris":{"android":"levelo://app?vid=b4288bdc-e476-4c8c-946d-02f603986442","ios":"levelo://app?vid=b4288bdc-e476-4c8c-946d-02f603986442"},"vehicle_type_id":"4","last_reported":1738685483,"current_range_meters":17200,"station_id":"ce4bhbp2rcd13ifvqerg","pricing_plan_id":"cebpf4jnsgd1na2vs0mg"},{"bike_id":"a7eaf7b2-6c40-46bc-8260-81d8b4422738","system_id":"levelo_inurba_marseille","lat":43.28658,"lon":5.36346,"is_reserved":false,"is_disabled":false,"rental_uris":{"android":"levelo://app?vid=a7eaf7b2-6c40-46bc-8260-81d8b4422738","ios":"levelo://app?vid=a7eaf7b2-6c40-46bc-8260-81d8b4422738"},"vehicle_type_id":"4","last_reported":1738685483,"current_range_meters":24800,"station_id":"ce4bhah2rcd13ifvqej0","pricing_plan_id":"cebpf4jnsgd1na2vs0mg"},{"bike_id":"ab0b6329-8448-4e17-8b0d-f17e0a460b82","system_id":"levelo_inurba_marseille","lat":43.29286,"lon":5.36843,"is_reserved":false,"is_disabled":false,"rental_uris":{"android":"levelo://app?vid=ab0b6329-8448-4e17-8b0d-f17e0a460b82","ios":"levelo://app?vid=ab0b6329-8448-4e17-8b0d-f17e0a460b82"},"vehicle_type_id":"4","last_reported":1738685483,"current_range_meters":36800,"station_id":"ce4bhbp2rcd13ifvqesg","pricing_plan_id":"cebpf4jnsgd1na2vs0mg"},{"bike_id":"dafd10ed-96a4-4fae-a2bc-6ff46c93b8d6","system_id":"levelo_inurba_marseille","lat":43.26212,"lon":5.37453,"is_reserved":false,"is_disabled":true,"rental_uris":{"android":"levelo://app?vid=dafd10ed-96a4-4fae-a2bc-6ff46c93b8d6","ios":"levelo://app?vid=dafd10ed-96a4-4fae-a2bc-6ff46c93b8d6"},"vehicle_type_id":"4","last_reported":1738685483,"current_range_meters":2000,"station_id":"ce4bhgp2rcd13ifvqfc0","pricing_plan_id":"cebpf4jnsgd1na2vs0mg"},{"bike_id":"f88e9836-7d29-4bff-b116-30872ae8c64b","system_id":"levelo_inurba_marseille","lat":43.27991,"lon":5.41659,"is_reserved":false,"is_disabled":false,"rental_uris":{"android":"levelo://app?vid=f88e9836-7d29-4bff-b116-30872ae8c64b","ios":"levelo://app?vid=f88e9836-7d29-4bff-b116-30872ae8c64b"},"vehicle_type_id":"4","last_reported":1738685483,"current_range_meters":38800,"station_id":"ce4bho12rcd13ifvqh1g","pricing_plan_id":"cebpf4jnsgd1na2vs0mg"},{"bike_id":"585548c3-dfea-4775-b261-9cda396a75ed","system_id":"levelo_inurba_marseille","lat":43.30925,"lon":5.40137,"is_reserved":false,"is_disabled":true,"rental_uris":{"android":"levelo://app?vid=585548c3-dfea-4775-b261-9cda396a75ed","ios":"levelo://app?vid=585548c3-dfea-4775-b261-9cda396a75ed"},"vehicle_type_id":"4","last_reported":1738685483,"current_range_meters":38800,"station_id":"ce4bgvp2rcd13ifvqct0","pricing_plan_id":"cebpf4jnsgd1na2vs0mg"},{"bike_id":"c5bc887f-937a-4827-8fcd-0e5d0dcc3dcb","system_id":"levelo_inurba_marseille","lat":43.3058,"lon":5.36519,"is_reserved":false,"is_disabled":false,"rental_uris":{"android":"levelo://app?vid=c5bc887f-937a-4827-8fcd-0e5d0dcc3dcb","ios":"levelo://app?vid=c5bc887f-937a-4827-8fcd-0e5d0dcc3dcb"},"vehicle_type_id":"4","last_reported":1738685483,"current_range_meters":33600,"station_id":"ce4bgs12rcd13ifvqcag","pricing_plan_id":"cebpf4jnsgd1na2vs0mg"},{"bike_id":"f31636ca-6405-4e6c-85fa-081c63767f88","system_id":"levelo_inurba_marseille","lat":43.30337,"lon":5.40437,"is_reserved":false,"is_disabled":false,"rental_uris":{"android":"levelo://app?vid=f31636ca-6405-4e6c-85fa-081c63767f88","ios":"levelo://app?vid=f31636ca-6405-4e6c-85fa-081c63767f88"},"vehicle_type_id":"4","last_reported":1738685483,"current_range_meters":38400,"station_id":"ce4bh012rcd13ifvqd10","pricing_plan_id":"cebpf4jnsgd1na2vs0mg"},{"bike_id":"28c04bd2-52b8-487d-94d1-79ceb6b7a224","system_id":"levelo_inurba_marseille","lat":43.24811,"lon":5.37454,"is_reserved":false,"is_disabled":false,"rental_uris":{"android":"levelo://app?vid=28c04bd2-52b8-487d-94d1-79ceb6b7a224","ios":"levelo://app?vid=28c04bd2-52b8-487d-94d1-79ceb6b7a224"},"vehicle_type_id":"4","last_reported":1738685483,"current_range_meters":36000,"station_id":"ce4bhgh2rcd13ifvqfb0","pricing_plan_id":"cebpf4jnsgd1na2vs0mg"},{"bike_id":"820e8ef9-125b-498e-aafa-fafccb5e57f1","system_id":"levelo_inurba_marseille","lat":43.30569,"lon":5.36679,"is_reserved":false,"is_disabled":false,"rental_uris":{"android":"levelo://app?vid=820e8ef9-125b-498e-aafa-fafccb5e57f1","ios":"levelo://app?vid=820e8ef9-125b-498e-aafa-fafccb5e57f1"},"vehicle_type_id":"4","last_reported":1738685483,"current_range_meters":24000,"station_id":"ce4bgrp2rcd13ifvqc9g","pricing_plan_id":"cebpf4jnsgd1na2vs0mg"},{"bike_id":"1acba062-edab-43e1-aeac-51696cfffa6f","system_id":"levelo_inurba_marseille","lat":43.2963,"lon":5.406,"is_reserved":false,"is_disabled":false,"rental_uris":{"android":"levelo://app?vid=1acba062-edab-43e1-aeac-51696cfffa6f","ios":"levelo://app?vid=1acba062-edab-43e1-aeac-51696cfffa6f"},"vehicle_type_id":"4","last_reported":1738685483,"current_range_meters":7200,"station_id":"ce4bh0h2rcd13ifvqd60","pricing_plan_id":"cebpf4jnsgd1na2vs0mg"},{"bike_id":"c92d27b3-011a-4b9b-85d3-c7a68cdf0054","system_id":"levelo_inurba_marseille","lat":43.324777,"lon":5.365669,"is_reserved":false,"is_disabled":true,"rental_uris":{"android":"levelo://app?vid=c92d27b3-011a-4b9b-85d3-c7a68cdf0054","ios":"levelo://app?vid=c92d27b3-011a-4b9b-85d3-c7a68cdf0054"},"vehicle_type_id":"4","last_reported":1738685483,"current_range_meters":16400,"station_id":"","pricing_plan_id":"cebpf4jnsgd1na2vs0mg"},{"bike_id":"a80f9fca-cee1-471f-97e6-54eb567d43dc","system_id":"levelo_inurba_marseille","lat":43.2861,"lon":5.37059,"is_reserved":false,"is_disabled":false,"rental_uris":{"android":"levelo://app?vid=a80f9fca-cee1-471f-97e6-54eb567d43dc","ios":"levelo://app?vid=a80f9fca-cee1-471f-97e6-54eb567d43dc"},"vehicle_type_id":"4","last_reported":1738685483,"current_range_meters":17600,"station_id":"ce4bht12rcd13ifvqi60","pricing_plan_id":"cebpf4jnsgd1na2vs0mg"},{"bike_id":"a1a7079b-68b5-45ca-9af8-b6bc9f7cd559","system_id":"levelo_inurba_marseille","lat":43.22926,"lon":5.35383,"is_reserved":false,"is_disabled":false,"rental_uris":{"android":"levelo://app?vid=a1a7079b-68b5-45ca-9af8-b6bc9f7cd559","ios":"levelo://app?vid=a1a7079b-68b5-45ca-9af8-b6bc9f7cd559"},"vehicle_type_id":"4","last_reported":1738685483,"current_range_meters":38800,"station_id":"cpo3532slgdg3j2ikp40","pricing_plan_id":"cebpf4jnsgd1na2vs0mg"},{"bike_id":"434b618f-54de-4fea-a4f7-8069e6ab644a","system_id":"levelo_inurba_marseille","lat":43.27572,"lon":5.38436,"is_reserved":false,"is_disabled":false,"rental_uris":{"android":"levelo://app?vid=434b618f-54de-4fea-a4f7-8069e6ab644a","ios":"levelo://app?vid=434b618f-54de-4fea-a4f7-8069e6ab644a"},"vehicle_type_id":"4","last_reported":1738685483,"current_range_meters":32400,"station_id":"ce4bhh92rcd13ifvqfi0","pricing_plan_id":"cebpf4jnsgd1na2vs0mg"},{"bike_id":"594da6ce-7b42-468d-8462-44282befaf0d","system_id":"levelo_inurba_marseille","lat":43.30596,"lon":5.39352,"is_reserved":false,"is_disabled":false,"rental_uris":{"android":"levelo://app?vid=594da6ce-7b42-468d-8462-44282befaf0d","ios":"levelo://app?vid=594da6ce-7b42-468d-8462-44282befaf0d"},"vehicle_type_id":"4","last_reported":1738685483,"current_range_meters":12000,"station_id":"ce4bh0p2rcd13ifvqd80","pricing_plan_id":"cebpf4jnsgd1na2vs0mg"},{"bike_id":"b2a19fe6-c9df-433d-8fa4-95bea12eff65","system_id":"levelo_inurba_marseille","lat":43.24547,"lon":5.39534,"is_reserved":false,"is_disabled":false,"rental_uris":{"android":"levelo://app?vid=b2a19fe6-c9df-433d-8fa4-95bea12eff65","ios":"levelo://app?vid=b2a19fe6-c9df-433d-8fa4-95bea12eff65"},"vehicle_type_id":"4","last_reported":1738685483,"current_range_meters":32400,"station_id":"ce4bhlp2rcd13ifvqgjg","pricing_plan_id":"cebpf4jnsgd1na2vs0mg"},{"bike_id":"fff747a3-bd82-458d-baaa-d1987fbbf2c0","system_id":"levelo_inurba_marseille","lat":43.24537,"lon":5.39479,"is_reserved":false,"is_disabled":true,"rental_uris":{"android":"levelo://app?vid=fff747a3-bd82-458d-baaa-d1987fbbf2c0","ios":"levelo://app?vid=fff747a3-bd82-458d-baaa-d1987fbbf2c0"},"vehicle_type_id":"4","last_reported":1738685483,"current_range_meters":1200,"station_id":"ce4bhlp2rcd13ifvqgjg","pricing_plan_id":"cebpf4jnsgd1na2vs0mg"},{"bike_id":"38d9c123-c80e-4d99-abd9-1554da4e609f","system_id":"levelo_inurba_marseille","lat":43.24657,"lon":5.38885,"is_reserved":false,"is_disabled":false,"rental_uris":{"android":"levelo://app?vid=38d9c123-c80e-4d99-abd9-1554da4e609f","ios":"levelo://app?vid=38d9c123-c80e-4d99-abd9-1554da4e609f"},"vehicle_type_id":"4","last_reported":1738685483,"current_range_meters":29600,"station_id":"ce4bhg12rcd13ifvqf60","pricing_plan_id":"cebpf4jnsgd1na2vs0mg"},{"bike_id":"26bd63c3-d338-46d6-80db-c7ce06f0d803","system_id":"levelo_inurba_marseille","lat":43.31085,"lon":5.42431,"is_reserved":false,"is_disabled":false,"rental_uris":{"android":"levelo://app?vid=26bd63c3-d338-46d6-80db-c7ce06f0d803","ios":"levelo://app?vid=26bd63c3-d338-46d6-80db-c7ce06f0d803"},"vehicle_type_id":"4","last_reported":1738685483,"current_range_meters":8800,"station_id":"ce4bhp92rcd13ifvqhag","pricing_plan_id":"cebpf4jnsgd1na2vs0mg"},{"bike_id":"ceb82e7c-0330-43b3-bf40-a63bb09d01e0","system_id":"levelo_inurba_marseille","lat":43.30492,"lon":5.36533,"is_reserved":false,"is_disabled":false,"rental_uris":{"android":"levelo://app?vid=ceb82e7c-0330-43b3-bf40-a63bb09d01e0","ios":"levelo://app?vid=ceb82e7c-0330-43b3-bf40-a63bb09d01e0"},"vehicle_type_id":"4","last_reported":1738685483,"current_range_meters":11600,"station_id":"","pricing_plan_id":"cebpf4jnsgd1na2vs0mg"},{"bike_id":"c5cd2f6c-22f1-415b-9448-8b0f8e7870b1","system_id":"levelo_inurba_marseille","lat":43.2862,"lon":5.35104,"is_reserved":false,"is_disabled":false,"rental_uris":{"android":"levelo://app?vid=c5cd2f6c-22f1-415b-9448-8b0f8e7870b1","ios":"levelo://app?vid=c5cd2f6c-22f1-415b-9448-8b0f8e7870b1"},"vehicle_type_id":"4","last_reported":1738685483,"current_range_meters":20000,"station_id":"ce4bhch2rcd13ifvqeug","pricing_plan_id":"cebpf4jnsgd1na2vs0mg"},{"bike_id":"3659cb67-3600-4793-be8d-da9135489df9","system_id":"levelo_inurba_marseille","lat":43.26786,"lon":5.39415,"is_reserved":false,"is_disabled":false,"rental_uris":{"android":"levelo://app?vid=3659cb67-3600-4793-be8d-da9135489df9","ios":"levelo://app?vid=3659cb67-3600-4793-be8d-da9135489df9"},"vehicle_type_id":"4","last_reported":1738685483,"current_range_meters":24800,"station_id":"ce4bhh12rcd13ifvqfg0","pricing_plan_id":"cebpf4jnsgd1na2vs0mg"},{"bike_id":"a2538355-c49a-4fbc-ae30-b92334098ed6","system_id":"levelo_inurba_marseille","lat":43.30323,"lon":5.369,"is_reserved":false,"is_disabled":false,"rental_uris":{"android":"levelo://app?vid=a2538355-c49a-4fbc-ae30-b92334098ed6","ios":"levelo://app?vid=a2538355-c49a-4fbc-ae30-b92334098ed6"},"vehicle_type_id":"4","last_reported":1738685483,"current_range_meters":33200,"station_id":"ce4bgqh2rcd13ifvqc5g","pricing_plan_id":"cebpf4jnsgd1na2vs0mg"},{"bike_id":"0f7906dd-c54a-4015-9338-869d6d6cd458","system_id":"levelo_inurba_marseille","lat":43.30436,"lon":5.38908,"is_reserved":false,"is_disabled":false,"rental_uris":{"android":"levelo://app?vid=0f7906dd-c54a-4015-9338-869d6d6cd458","ios":"levelo://app?vid=0f7906dd-c54a-4015-9338-869d6d6cd458"},"vehicle_type_id":"4","last_reported":1738685483,"current_range_meters":34000,"station_id":"ce4bgk12rcd13ifvqbi0","pricing_plan_id":"cebpf4jnsgd1na2vs0mg"},{"bike_id":"fcec2196-c533-4670-933c-9ee1e51f8179","system_id":"levelo_inurba_marseille","lat":43.25492,"lon":5.37648,"is_reserved":false,"is_disabled":false,"rental_uris":{"android":"levelo://app?vid=fcec2196-c533-4670-933c-9ee1e51f8179","ios":"levelo://app?vid=fcec2196-c533-4670-933c-9ee1e51f8179"},"vehicle_type_id":"4","last_reported":1738685483,"current_range_meters":22000,"station_id":"ce4bhh12rcd13ifvqff0","pricing_plan_id":"cebpf4jnsgd1na2vs0mg"},{"bike_id":"3c8e5445-cf86-469e-9c11-4a5caaef9b7e","system_id":"levelo_inurba_marseille","lat":43.24642,"lon":5.389,"is_reserved":false,"is_disabled":false,"rental_uris":{"android":"levelo://app?vid=3c8e5445-cf86-469e-9c11-4a5caaef9b7e","ios":"levelo://app?vid=3c8e5445-cf86-469e-9c11-4a5caaef9b7e"},"vehicle_type_id":"4","last_reported":1738685483,"current_range_meters":38000,"station_id":"ce4bhg12rcd13ifvqf60","pricing_plan_id":"cebpf4jnsgd1na2vs0mg"},{"bike_id":"9208f6b8-39db-41a2-aea0-c3749413240d","system_id":"levelo_inurba_marseille","lat":43.26568,"lon":5.39023,"is_reserved":false,"is_disabled":false,"rental_uris":{"android":"levelo://app?vid=9208f6b8-39db-41a2-aea0-c3749413240d","ios":"levelo://app?vid=9208f6b8-39db-41a2-aea0-c3749413240d"},"vehicle_type_id":"4","last_reported":1738685483,"current_range_meters":38800,"station_id":"ce4bhe12rcd13ifvqf30","pricing_plan_id":"cebpf4jnsgd1na2vs0mg"},{"bike_id":"089df069-8adf-4126-a035-63f98c49a5f7","system_id":"levelo_inurba_marseille","lat":43.33023,"lon":5.39039,"is_reserved":false,"is_disabled":false,"rental_uris":{"android":"levelo://app?vid=089df069-8adf-4126-a035-63f98c49a5f7","ios":"levelo://app?vid=089df069-8adf-4126-a035-63f98c49a5f7"},"vehicle_type_id":"4","last_reported":1738685483,"current_range_meters":21600,"station_id":"ce4bhr92rcd13ifvqhrg","pricing_plan_id":"cebpf4jnsgd1na2vs0mg"},{"bike_id":"d0f83c8b-7d8b-4405-b29d-b6f7f57a005e","system_id":"levelo_inurba_marseille","lat":43.33013,"lon":5.39037,"is_reserved":false,"is_disabled":false,"rental_uris":{"android":"levelo://app?vid=d0f83c8b-7d8b-4405-b29d-b6f7f57a005e","ios":"levelo://app?vid=d0f83c8b-7d8b-4405-b29d-b6f7f57a005e"},"vehicle_type_id":"4","last_reported":1738685483,"current_range_meters":11200,"station_id":"ce4bhr92rcd13ifvqhrg","pricing_plan_id":"cebpf4jnsgd1na2vs0mg"},{"bike_id":"30d68ac6-7ba6-4749-8154-bf914e372a6a","system_id":"levelo_inurba_marseille","lat":43.32367,"lon":5.3889,"is_reserved":false,"is_disabled":false,"rental_uris":{"android":"levelo://app?vid=30d68ac6-7ba6-4749-8154-bf914e372a6a","ios":"levelo://app?vid=30d68ac6-7ba6-4749-8154-bf914e372a6a"},"vehicle_type_id":"4","last_reported":1738685483,"current_range_meters":37600,"station_id":"ce4bhqp2rcd13ifvqhog","pricing_plan_id":"cebpf4jnsgd1na2vs0mg"},{"bike_id":"dac6ccdc-e336-4042-ac1d-9eaa9fd083c7","system_id":"levelo_inurba_marseille","lat":43.30547,"lon":5.36509,"is_reserved":false,"is_disabled":false,"rental_uris":{"android":"levelo://app?vid=dac6ccdc-e336-4042-ac1d-9eaa9fd083c7","ios":"levelo://app?vid=dac6ccdc-e336-4042-ac1d-9eaa9fd083c7"},"vehicle_type_id":"4","last_reported":1738685483,"current_range_meters":28400,"station_id":"ce4bgs12rcd13ifvqcag","pricing_plan_id":"cebpf4jnsgd1na2vs0mg"},{"bike_id":"47835302-4051-4ddc-bf72-ddbdf3a013d2","system_id":"levelo_inurba_marseille","lat":43.2973,"lon":5.36604,"is_reserved":false,"is_disabled":false,"rental_uris":{"android":"levelo://app?vid=47835302-4051-4ddc-bf72-ddbdf3a013d2","ios":"levelo://app?vid=47835302-4051-4ddc-bf72-ddbdf3a013d2"},"vehicle_type_id":"4","last_reported":1738685483,"current_range_meters":27600,"station_id":"ce4bgn12rcd13ifvqbt0","pricing_plan_id":"cebpf4jnsgd1na2vs0mg"},{"bike_id":"e33c097b-83d0-40ec-9fbf-364e5b0a9ef8","system_id":"levelo_inurba_marseille","lat":43.23196,"lon":5.35553,"is_reserved":false,"is_disabled":false,"rental_uris":{"android":"levelo://app?vid=e33c097b-83d0-40ec-9fbf-364e5b0a9ef8","ios":"levelo://app?vid=e33c097b-83d0-40ec-9fbf-364e5b0a9ef8"},"vehicle_type_id":"4","last_reported":1738685483,"current_range_meters":38800,"station_id":"ce4bhu92rcd13ifvqi70","pricing_plan_id":"cebpf4jnsgd1na2vs0mg"},{"bike_id":"08be7a1f-f3b8-476a-8666-1fc5c5c22668","system_id":"levelo_inurba_marseille","lat":43.28685,"lon":5.38668,"is_reserved":false,"is_disabled":false,"rental_uris":{"android":"levelo://app?vid=08be7a1f-f3b8-476a-8666-1fc5c5c22668","ios":"levelo://app?vid=08be7a1f-f3b8-476a-8666-1fc5c5c22668"},"vehicle_type_id":"4","last_reported":1738685483,"current_range_meters":23200,"station_id":"ce4bh492rcd13ifvqdug","pricing_plan_id":"cebpf4jnsgd1na2vs0mg"},{"bike_id":"ee341683-1a77-4804-b12a-d2775c1030ab","system_id":"levelo_inurba_marseille","lat":43.30812,"lon":5.38154,"is_reserved":false,"is_disabled":false,"rental_uris":{"android":"levelo://app?vid=ee341683-1a77-4804-b12a-d2775c1030ab","ios":"levelo://app?vid=ee341683-1a77-4804-b12a-d2775c1030ab"},"vehicle_type_id":"4","last_reported":1738685483,"current_range_meters":38400,"station_id":"ce4bgt12rcd13ifvqce0","pricing_plan_id":"cebpf4jnsgd1na2vs0mg"},{"bike_id":"3ba7f611-5015-4a72-b440-6d2e738e0b16","system_id":"levelo_inurba_marseille","lat":43.2811,"lon":5.37852,"is_reserved":false,"is_disabled":false,"rental_uris":{"android":"levelo://app?vid=3ba7f611-5015-4a72-b440-6d2e738e0b16","ios":"levelo://app?vid=3ba7f611-5015-4a72-b440-6d2e738e0b16"},"vehicle_type_id":"4","last_reported":1738685483,"current_range_meters":5600,"station_id":"ce4bha12rcd13ifvqee0","pricing_plan_id":"cebpf4jnsgd1na2vs0mg"},{"bike_id":"bcffccef-04d8-43ab-adc0-81a05a81b215","system_id":"levelo_inurba_marseille","lat":43.25092,"lon":5.40344,"is_reserved":false,"is_disabled":false,"rental_uris":{"android":"levelo://app?vid=bcffccef-04d8-43ab-adc0-81a05a81b215","ios":"levelo://app?vid=bcffccef-04d8-43ab-adc0-81a05a81b215"},"vehicle_type_id":"4","last_reported":1738685483,"current_range_meters":9600,"station_id":"ce4bhlh2rcd13ifvqgig","pricing_plan_id":"cebpf4jnsgd1na2vs0mg"},{"bike_id":"0e775c38-7145-4e54-8c6f-1ded1dd2ad0f","system_id":"levelo_inurba_marseille","lat":43.24559,"lon":5.3952,"is_reserved":false,"is_disabled":false,"rental_uris":{"android":"levelo://app?vid=0e775c38-7145-4e54-8c6f-1ded1dd2ad0f","ios":"levelo://app?vid=0e775c38-7145-4e54-8c6f-1ded1dd2ad0f"},"vehicle_type_id":"4","last_reported":1738685483,"current_range_meters":38800,"station_id":"ce4bhlp2rcd13ifvqgjg","pricing_plan_id":"cebpf4jnsgd1na2vs0mg"},{"bike_id":"087030d9-e5e2-496a-a083-b7c401a9076d","system_id":"levelo_inurba_marseille","lat":43.2621,"lon":5.37434,"is_reserved":false,"is_disabled":false,"rental_uris":{"android":"levelo://app?vid=087030d9-e5e2-496a-a083-b7c401a9076d","ios":"levelo://app?vid=087030d9-e5e2-496a-a083-b7c401a9076d"},"vehicle_type_id":"4","last_reported":1738685483,"current_range_meters":38400,"station_id":"ce4bhgp2rcd13ifvqfc0","pricing_plan_id":"cebpf4jnsgd1na2vs0mg"},{"bike_id":"23978451-64c8-4430-8675-dd6e01ec0f5c","system_id":"levelo_inurba_marseille","lat":43.25496,"lon":5.37656,"is_reserved":false,"is_disabled":false,"rental_uris":{"android":"levelo://app?vid=23978451-64c8-4430-8675-dd6e01ec0f5c","ios":"levelo://app?vid=23978451-64c8-4430-8675-dd6e01ec0f5c"},"vehicle_type_id":"4","last_reported":1738685483,"current_range_meters":34000,"station_id":"ce4bhh12rcd13ifvqff0","pricing_plan_id":"cebpf4jnsgd1na2vs0mg"},{"bike_id":"414c5f1b-099c-4baf-afb3-edbe2beb204d","system_id":"levelo_inurba_marseille","lat":43.26503,"lon":5.39532,"is_reserved":false,"is_disabled":false,"rental_uris":{"android":"levelo://app?vid=414c5f1b-099c-4baf-afb3-edbe2beb204d","ios":"levelo://app?vid=414c5f1b-099c-4baf-afb3-edbe2beb204d"},"vehicle_type_id":"4","last_reported":1738685483,"current_range_meters":18800,"station_id":"ce4bhi12rcd13ifvqfq0","pricing_plan_id":"cebpf4jnsgd1na2vs0mg"},{"bike_id":"57ed5871-d5be-4a61-9458-17e8666ef770","system_id":"levelo_inurba_marseille","lat":43.22933,"lon":5.35379,"is_reserved":false,"is_disabled":false,"rental_uris":{"android":"levelo://app?vid=57ed5871-d5be-4a61-9458-17e8666ef770","ios":"levelo://app?vid=57ed5871-d5be-4a61-9458-17e8666ef770"},"vehicle_type_id":"4","last_reported":1738685483,"current_range_meters":29600,"station_id":"cpo3532slgdg3j2ikp40","pricing_plan_id":"cebpf4jnsgd1na2vs0mg"},{"bike_id":"d66f66f4-d296-4c99-9fd4-3aa0faa733eb","system_id":"levelo_inurba_marseille","lat":43.282798,"lon":5.350845,"is_reserved":false,"is_disabled":false,"rental_uris":{"android":"levelo://app?vid=d66f66f4-d296-4c99-9fd4-3aa0faa733eb","ios":"levelo://app?vid=d66f66f4-d296-4c99-9fd4-3aa0faa733eb"},"vehicle_type_id":"4","last_reported":1738685483,"current_range_meters":22800,"station_id":"ce4bhbp2rcd13ifvqerg","pricing_plan_id":"cebpf4jnsgd1na2vs0mg"},{"bike_id":"f469f869-7059-4d2b-b3d4-8bcd20ad4980","system_id":"levelo_inurba_marseille","lat":43.29241,"lon":5.36057,"is_reserved":false,"is_disabled":false,"rental_uris":{"android":"levelo://app?vid=f469f869-7059-4d2b-b3d4-8bcd20ad4980","ios":"levelo://app?vid=f469f869-7059-4d2b-b3d4-8bcd20ad4980"},"vehicle_type_id":"4","last_reported":1738685483,"current_range_meters":38400,"station_id":"ce4bhbh2rcd13ifvqeqg","pricing_plan_id":"cebpf4jnsgd1na2vs0mg"},{"bike_id":"8c07feb5-cbd8-46f7-99e8-d220c7df54d9","system_id":"levelo_inurba_marseille","lat":43.24665,"lon":5.38171,"is_reserved":false,"is_disabled":false,"rental_uris":{"android":"levelo://app?vid=8c07feb5-cbd8-46f7-99e8-d220c7df54d9","ios":"levelo://app?vid=8c07feb5-cbd8-46f7-99e8-d220c7df54d9"},"vehicle_type_id":"4","last_reported":1738685483,"current_range_meters":24000,"station_id":"ce4bhih2rcd13ifvqfr0","pricing_plan_id":"cebpf4jnsgd1na2vs0mg"},{"bike_id":"95d3fe19-40f1-42c6-b4b2-b771949e7399","system_id":"levelo_inurba_marseille","lat":43.28681,"lon":5.38658,"is_reserved":false,"is_disabled":false,"rental_uris":{"android":"levelo://app?vid=95d3fe19-40f1-42c6-b4b2-b771949e7399","ios":"levelo://app?vid=95d3fe19-40f1-42c6-b4b2-b771949e7399"},"vehicle_type_id":"4","last_reported":1738685483,"current_range_meters":38800,"station_id":"ce4bh492rcd13ifvqdug","pricing_plan_id":"cebpf4jnsgd1na2vs0mg"},{"bike_id":"a05a129f-0a9c-4de5-aa71-7f2c423f2bb7","system_id":"levelo_inurba_marseille","lat":43.29304,"lon":5.3744,"is_reserved":false,"is_disabled":false,"rental_uris":{"android":"levelo://app?vid=a05a129f-0a9c-4de5-aa71-7f2c423f2bb7","ios":"levelo://app?vid=a05a129f-0a9c-4de5-aa71-7f2c423f2bb7"},"vehicle_type_id":"4","last_reported":1738685483,"current_range_meters":20800,"station_id":"ce4bgi12rcd13ifvqb70","pricing_plan_id":"cebpf4jnsgd1na2vs0mg"},{"bike_id":"37af1a2a-09d5-4424-83e9-300ff39d2083","system_id":"levelo_inurba_marseille","lat":43.29707,"lon":5.36617,"is_reserved":false,"is_disabled":false,"rental_uris":{"android":"levelo://app?vid=37af1a2a-09d5-4424-83e9-300ff39d2083","ios":"levelo://app?vid=37af1a2a-09d5-4424-83e9-300ff39d2083"},"vehicle_type_id":"4","last_reported":1738685483,"current_range_meters":33200,"station_id":"ce4bgn12rcd13ifvqbt0","pricing_plan_id":"cebpf4jnsgd1na2vs0mg"},{"bike_id":"5b923ddc-8db2-401f-ad14-03f7f159acc1","system_id":"levelo_inurba_marseille","lat":43.29884,"lon":5.389007,"is_reserved":false,"is_disabled":false,"rental_uris":{"android":"levelo://app?vid=5b923ddc-8db2-401f-ad14-03f7f159acc1","ios":"levelo://app?vid=5b923ddc-8db2-401f-ad14-03f7f159acc1"},"vehicle_type_id":"4","last_reported":1738685483,"current_range_meters":16800,"station_id":"ce4bh392rcd13ifvqdl0","pricing_plan_id":"cebpf4jnsgd1na2vs0mg"},{"bike_id":"278902b4-7b50-4f46-8ac1-6d0f29cc8638","system_id":"levelo_inurba_marseille","lat":43.24394,"lon":5.37054,"is_reserved":false,"is_disabled":false,"rental_uris":{"android":"levelo://app?vid=278902b4-7b50-4f46-8ac1-6d0f29cc8638","ios":"levelo://app?vid=278902b4-7b50-4f46-8ac1-6d0f29cc8638"},"vehicle_type_id":"4","last_reported":1738685483,"current_range_meters":38000,"station_id":"ce4bhhh2rcd13ifvqfk0","pricing_plan_id":"cebpf4jnsgd1na2vs0mg"},{"bike_id":"319c07b1-1113-4b80-85ab-349457551ef4","system_id":"levelo_inurba_marseille","lat":43.3176,"lon":5.39018,"is_reserved":false,"is_disabled":false,"rental_uris":{"android":"levelo://app?vid=319c07b1-1113-4b80-85ab-349457551ef4","ios":"levelo://app?vid=319c07b1-1113-4b80-85ab-349457551ef4"},"vehicle_type_id":"4","last_reported":1738685483,"current_range_meters":4000,"station_id":"ce4bhqp2rcd13ifvqhng","pricing_plan_id":"cebpf4jnsgd1na2vs0mg"},{"bike_id":"cb2762cd-f7e2-444a-8b27-4495e8447411","system_id":"levelo_inurba_marseille","lat":43.29038,"lon":5.38658,"is_reserved":false,"is_disabled":false,"rental_uris":{"android":"levelo://app?vid=cb2762cd-f7e2-444a-8b27-4495e8447411","ios":"levelo://app?vid=cb2762cd-f7e2-444a-8b27-4495e8447411"},"vehicle_type_id":"4","last_reported":1738685483,"current_range_meters":26000,"station_id":"ce4bh4p2rcd13ifvqe0g","pricing_plan_id":"cebpf4jnsgd1na2vs0mg"},{"bike_id":"0eadb2c4-2cc0-4ad8-b27e-7ccbffe41159","system_id":"levelo_inurba_marseille","lat":43.31489,"lon":5.3731,"is_reserved":false,"is_disabled":false,"rental_uris":{"android":"levelo://app?vid=0eadb2c4-2cc0-4ad8-b27e-7ccbffe41159","ios":"levelo://app?vid=0eadb2c4-2cc0-4ad8-b27e-7ccbffe41159"},"vehicle_type_id":"4","last_reported":1738685483,"current_range_meters":28400,"station_id":"ce4bgt12rcd13ifvqcd0","pricing_plan_id":"cebpf4jnsgd1na2vs0mg"},{"bike_id":"3ab0ceb6-cd89-477f-8038-1be761eb4bda","system_id":"levelo_inurba_marseille","lat":43.29497,"lon":5.37428,"is_reserved":false,"is_disabled":true,"rental_uris":{"android":"levelo://app?vid=3ab0ceb6-cd89-477f-8038-1be761eb4bda","ios":"levelo://app?vid=3ab0ceb6-cd89-477f-8038-1be761eb4bda"},"vehicle_type_id":"4","last_reported":1738685483,"current_range_meters":0,"station_id":"","pricing_plan_id":"cebpf4jnsgd1na2vs0mg"},{"bike_id":"5129cac2-ccf4-42be-b51d-69a309823b58","system_id":"levelo_inurba_marseille","lat":43.29979,"lon":5.38491,"is_reserved":false,"is_disabled":false,"rental_uris":{"android":"levelo://app?vid=5129cac2-ccf4-42be-b51d-69a309823b58","ios":"levelo://app?vid=5129cac2-ccf4-42be-b51d-69a309823b58"},"vehicle_type_id":"4","last_reported":1738685483,"current_range_meters":30400,"station_id":"ce4bgj92rcd13ifvqbd0","pricing_plan_id":"cebpf4jnsgd1na2vs0mg"},{"bike_id":"c85a26e1-f53e-4ec1-b1ea-8b32d23f1f4d","system_id":"levelo_inurba_marseille","lat":43.23066,"lon":5.35502,"is_reserved":false,"is_disabled":false,"rental_uris":{"android":"levelo://app?vid=c85a26e1-f53e-4ec1-b1ea-8b32d23f1f4d","ios":"levelo://app?vid=c85a26e1-f53e-4ec1-b1ea-8b32d23f1f4d"},"vehicle_type_id":"4","last_reported":1738685483,"current_range_meters":25600,"station_id":"cpo3342slgdg3j2ifvpg","pricing_plan_id":"cebpf4jnsgd1na2vs0mg"},{"bike_id":"caacd4d7-cbe5-4528-bd6a-271ae30bc4c2","system_id":"levelo_inurba_marseille","lat":43.28626,"lon":5.35075,"is_reserved":false,"is_disabled":false,"rental_uris":{"android":"levelo://app?vid=caacd4d7-cbe5-4528-bd6a-271ae30bc4c2","ios":"levelo://app?vid=caacd4d7-cbe5-4528-bd6a-271ae30bc4c2"},"vehicle_type_id":"4","last_reported":1738685483,"current_range_meters":32800,"station_id":"ce4bhch2rcd13ifvqeug","pricing_plan_id":"cebpf4jnsgd1na2vs0mg"},{"bike_id":"e3fa5aaf-a54f-49f1-9073-60a9cb58ace8","system_id":"levelo_inurba_marseille","lat":43.26851,"lon":5.40616,"is_reserved":false,"is_disabled":false,"rental_uris":{"android":"levelo://app?vid=e3fa5aaf-a54f-49f1-9073-60a9cb58ace8","ios":"levelo://app?vid=e3fa5aaf-a54f-49f1-9073-60a9cb58ace8"},"vehicle_type_id":"4","last_reported":1738685483,"current_range_meters":19200,"station_id":"","pricing_plan_id":"cebpf4jnsgd1na2vs0mg"},{"bike_id":"453d704f-455e-47cc-8e98-44b6f2cf6431","system_id":"levelo_inurba_marseille","lat":43.30791,"lon":5.37653,"is_reserved":false,"is_disabled":false,"rental_uris":{"android":"levelo://app?vid=453d704f-455e-47cc-8e98-44b6f2cf6431","ios":"levelo://app?vid=453d704f-455e-47cc-8e98-44b6f2cf6431"},"vehicle_type_id":"4","last_reported":1738685483,"current_range_meters":24000,"station_id":"ce4bgv92rcd13ifvqcq0","pricing_plan_id":"cebpf4jnsgd1na2vs0mg"},{"bike_id":"442c47af-1128-49ae-9cee-0ff261b8d776","system_id":"levelo_inurba_marseille","lat":43.28274,"lon":5.35089,"is_reserved":false,"is_disabled":false,"rental_uris":{"android":"levelo://app?vid=442c47af-1128-49ae-9cee-0ff261b8d776","ios":"levelo://app?vid=442c47af-1128-49ae-9cee-0ff261b8d776"},"vehicle_type_id":"4","last_reported":1738685483,"current_range_meters":8000,"station_id":"ce4bhbp2rcd13ifvqerg","pricing_plan_id":"cebpf4jnsgd1na2vs0mg"},{"bike_id":"c1f7b273-d408-45d7-ab11-9e8b2a8dd15e","system_id":"levelo_inurba_marseille","lat":43.29992,"lon":5.3849,"is_reserved":false,"is_disabled":false,"rental_uris":{"android":"levelo://app?vid=c1f7b273-d408-45d7-ab11-9e8b2a8dd15e","ios":"levelo://app?vid=c1f7b273-d408-45d7-ab11-9e8b2a8dd15e"},"vehicle_type_id":"4","last_reported":1738685483,"current_range_meters":33200,"station_id":"ce4bgj92rcd13ifvqbd0","pricing_plan_id":"cebpf4jnsgd1na2vs0mg"},{"bike_id":"6fc78eb6-b2d7-451a-bdbf-7780752a4b37","system_id":"levelo_inurba_marseille","lat":43.27982,"lon":5.38742,"is_reserved":false,"is_disabled":false,"rental_uris":{"android":"levelo://app?vid=6fc78eb6-b2d7-451a-bdbf-7780752a4b37","ios":"levelo://app?vid=6fc78eb6-b2d7-451a-bdbf-7780752a4b37"},"vehicle_type_id":"4","last_reported":1738685483,"current_range_meters":38000,"station_id":"ce4bhg12rcd13ifvqf80","pricing_plan_id":"cebpf4jnsgd1na2vs0mg"},{"bike_id":"5105e794-8f56-4998-b5ce-9b5937c2a99c","system_id":"levelo_inurba_marseille","lat":43.32668,"lon":5.40987,"is_reserved":false,"is_disabled":false,"rental_uris":{"android":"levelo://app?vid=5105e794-8f56-4998-b5ce-9b5937c2a99c","ios":"levelo://app?vid=5105e794-8f56-4998-b5ce-9b5937c2a99c"},"vehicle_type_id":"4","last_reported":1738685483,"current_range_meters":39200,"station_id":"ce4bhpp2rcd13ifvqhgg","pricing_plan_id":"cebpf4jnsgd1na2vs0mg"},{"bike_id":"abfef716-ff8e-455a-bfdf-1757c8e08e3b","system_id":"levelo_inurba_marseille","lat":43.30596,"lon":5.37213,"is_reserved":false,"is_disabled":false,"rental_uris":{"android":"levelo://app?vid=abfef716-ff8e-455a-bfdf-1757c8e08e3b","ios":"levelo://app?vid=abfef716-ff8e-455a-bfdf-1757c8e08e3b"},"vehicle_type_id":"4","last_reported":1738685483,"current_range_meters":38800,"station_id":"ce4bgqh2rcd13ifvqc4g","pricing_plan_id":"cebpf4jnsgd1na2vs0mg"},{"bike_id":"8c0f28f0-c587-4374-8c95-376d0641de2d","system_id":"levelo_inurba_marseille","lat":43.29913,"lon":5.37464,"is_reserved":false,"is_disabled":false,"rental_uris":{"android":"levelo://app?vid=8c0f28f0-c587-4374-8c95-376d0641de2d","ios":"levelo://app?vid=8c0f28f0-c587-4374-8c95-376d0641de2d"},"vehicle_type_id":"4","last_reported":1738685483,"current_range_meters":25200,"station_id":"ce4bgjh2rcd13ifvqbg0","pricing_plan_id":"cebpf4jnsgd1na2vs0mg"},{"bike_id":"a1877b68-a0fc-46e1-bf1e-3e602e2ab4b8","system_id":"levelo_inurba_marseille","lat":43.2815,"lon":5.42632,"is_reserved":false,"is_disabled":false,"rental_uris":{"android":"levelo://app?vid=a1877b68-a0fc-46e1-bf1e-3e602e2ab4b8","ios":"levelo://app?vid=a1877b68-a0fc-46e1-bf1e-3e602e2ab4b8"},"vehicle_type_id":"4","last_reported":1738685483,"current_range_meters":30000,"station_id":"ce4bhnh2rcd13ifvqgug","pricing_plan_id":"cebpf4jnsgd1na2vs0mg"},{"bike_id":"3356b867-8857-44a4-9882-de148bdf9b77","system_id":"levelo_inurba_marseille","lat":43.29931,"lon":5.37461,"is_reserved":false,"is_disabled":false,"rental_uris":{"android":"levelo://app?vid=3356b867-8857-44a4-9882-de148bdf9b77","ios":"levelo://app?vid=3356b867-8857-44a4-9882-de148bdf9b77"},"vehicle_type_id":"4","last_reported":1738685483,"current_range_meters":17200,"station_id":"ce4bgjh2rcd13ifvqbg0","pricing_plan_id":"cebpf4jnsgd1na2vs0mg"},{"bike_id":"f74b4b88-f10b-40e1-a6e5-13216996c734","system_id":"levelo_inurba_marseille","lat":43.27936,"lon":5.41035,"is_reserved":false,"is_disabled":false,"rental_uris":{"android":"levelo://app?vid=f74b4b88-f10b-40e1-a6e5-13216996c734","ios":"levelo://app?vid=f74b4b88-f10b-40e1-a6e5-13216996c734"},"vehicle_type_id":"4","last_reported":1738685483,"current_range_meters":33200,"station_id":"ce4bhnp2rcd13ifvqh0g","pricing_plan_id":"cebpf4jnsgd1na2vs0mg"},{"bike_id":"28bb841b-94b3-4842-8d56-4fd8bc4ce1ed","system_id":"levelo_inurba_marseille","lat":43.24539,"lon":5.39489,"is_reserved":false,"is_disabled":false,"rental_uris":{"android":"levelo://app?vid=28bb841b-94b3-4842-8d56-4fd8bc4ce1ed","ios":"levelo://app?vid=28bb841b-94b3-4842-8d56-4fd8bc4ce1ed"},"vehicle_type_id":"4","last_reported":1738685483,"current_range_meters":10800,"station_id":"ce4bhlp2rcd13ifvqgjg","pricing_plan_id":"cebpf4jnsgd1na2vs0mg"},{"bike_id":"859bb824-8c25-4117-8961-4c9005d1d354","system_id":"levelo_inurba_marseille","lat":43.26565,"lon":5.37283,"is_reserved":false,"is_disabled":false,"rental_uris":{"android":"levelo://app?vid=859bb824-8c25-4117-8961-4c9005d1d354","ios":"levelo://app?vid=859bb824-8c25-4117-8961-4c9005d1d354"},"vehicle_type_id":"4","last_reported":1738685483,"current_range_meters":5600,"station_id":"ce4bhg12rcd13ifvqf70","pricing_plan_id":"cebpf4jnsgd1na2vs0mg"},{"bike_id":"fbeaba64-5263-425b-9cf3-c3eeb7b7a341","system_id":"levelo_inurba_marseille","lat":43.28932,"lon":5.38407,"is_reserved":false,"is_disabled":true,"rental_uris":{"android":"levelo://app?vid=fbeaba64-5263-425b-9cf3-c3eeb7b7a341","ios":"levelo://app?vid=fbeaba64-5263-425b-9cf3-c3eeb7b7a341"},"vehicle_type_id":"4","last_reported":1738685483,"current_range_meters":0,"station_id":"ce4bh612rcd13ifvqe6g","pricing_plan_id":"cebpf4jnsgd1na2vs0mg"},{"bike_id":"1247e56b-ab9c-48cc-8c8f-a48a5e66a3bb","system_id":"levelo_inurba_marseille","lat":43.28277,"lon":5.35078,"is_reserved":false,"is_disabled":false,"rental_uris":{"android":"levelo://app?vid=1247e56b-ab9c-48cc-8c8f-a48a5e66a3bb","ios":"levelo://app?vid=1247e56b-ab9c-48cc-8c8f-a48a5e66a3bb"},"vehicle_type_id":"4","last_reported":1738685483,"current_range_meters":27600,"station_id":"ce4bhbp2rcd13ifvqerg","pricing_plan_id":"cebpf4jnsgd1na2vs0mg"},{"bike_id":"dfe4a7c7-0508-43ad-a0c0-ea841f1a5151","system_id":"levelo_inurba_marseille","lat":43.312181,"lon":5.368449,"is_reserved":false,"is_disabled":false,"rental_uris":{"android":"levelo://app?vid=dfe4a7c7-0508-43ad-a0c0-ea841f1a5151","ios":"levelo://app?vid=dfe4a7c7-0508-43ad-a0c0-ea841f1a5151"},"vehicle_type_id":"4","last_reported":1738685483,"current_range_meters":33600,"station_id":"ce4bgl92rcd13ifvqbq0","pricing_plan_id":"cebpf4jnsgd1na2vs0mg"},{"bike_id":"d62c7830-f46d-4d3f-b69b-86946aa9df9b","system_id":"levelo_inurba_marseille","lat":43.2972,"lon":5.37697,"is_reserved":false,"is_disabled":false,"rental_uris":{"android":"levelo://app?vid=d62c7830-f46d-4d3f-b69b-86946aa9df9b","ios":"levelo://app?vid=d62c7830-f46d-4d3f-b69b-86946aa9df9b"},"vehicle_type_id":"4","last_reported":1738685483,"current_range_meters":22000,"station_id":"ce4bgkh2rcd13ifvqbl0","pricing_plan_id":"cebpf4jnsgd1na2vs0mg"},{"bike_id":"aca382da-65d7-4eae-8c83-78ddee271a42","system_id":"levelo_inurba_marseille","lat":43.29312,"lon":5.37181,"is_reserved":false,"is_disabled":false,"rental_uris":{"android":"levelo://app?vid=aca382da-65d7-4eae-8c83-78ddee271a42","ios":"levelo://app?vid=aca382da-65d7-4eae-8c83-78ddee271a42"},"vehicle_type_id":"4","last_reported":1738685483,"current_range_meters":37600,"station_id":"ce4bgh92rcd13ifvqb40","pricing_plan_id":"cebpf4jnsgd1na2vs0mg"},{"bike_id":"4dd4d20b-ede5-47d0-948d-cc2515eca781","system_id":"levelo_inurba_marseille","lat":43.31759,"lon":5.39031,"is_reserved":false,"is_disabled":true,"rental_uris":{"android":"levelo://app?vid=4dd4d20b-ede5-47d0-948d-cc2515eca781","ios":"levelo://app?vid=4dd4d20b-ede5-47d0-948d-cc2515eca781"},"vehicle_type_id":"4","last_reported":1738685483,"current_range_meters":32000,"station_id":"ce4bhqp2rcd13ifvqhng","pricing_plan_id":"cebpf4jnsgd1na2vs0mg"},{"bike_id":"aacbfc6b-bd24-4951-a999-16b074dc2bb4","system_id":"levelo_inurba_marseille","lat":43.28454,"lon":5.39181,"is_reserved":false,"is_disabled":false,"rental_uris":{"android":"levelo://app?vid=aacbfc6b-bd24-4951-a999-16b074dc2bb4","ios":"levelo://app?vid=aacbfc6b-bd24-4951-a999-16b074dc2bb4"},"vehicle_type_id":"4","last_reported":1738685483,"current_range_meters":28400,"station_id":"ce4bhoh2rcd13ifvqh5g","pricing_plan_id":"cebpf4jnsgd1na2vs0mg"},{"bike_id":"5a0f533b-6796-45be-b395-ee0170457779","system_id":"levelo_inurba_marseille","lat":43.26559,"lon":5.37283,"is_reserved":false,"is_disabled":false,"rental_uris":{"android":"levelo://app?vid=5a0f533b-6796-45be-b395-ee0170457779","ios":"levelo://app?vid=5a0f533b-6796-45be-b395-ee0170457779"},"vehicle_type_id":"4","last_reported":1738685483,"current_range_meters":28000,"station_id":"ce4bhg12rcd13ifvqf70","pricing_plan_id":"cebpf4jnsgd1na2vs0mg"},{"bike_id":"4c2b5510-f059-4851-950c-427afc1965af","system_id":"levelo_inurba_marseille","lat":43.3014,"lon":5.3743,"is_reserved":false,"is_disabled":false,"rental_uris":{"android":"levelo://app?vid=4c2b5510-f059-4851-950c-427afc1965af","ios":"levelo://app?vid=4c2b5510-f059-4851-950c-427afc1965af"},"vehicle_type_id":"4","last_reported":1738685483,"current_range_meters":35200,"station_id":"ce4bgs92rcd13ifvqcc0","pricing_plan_id":"cebpf4jnsgd1na2vs0mg"},{"bike_id":"49043dcc-dc87-4f32-9b9e-584978211017","system_id":"levelo_inurba_marseille","lat":43.30163,"lon":5.37405,"is_reserved":false,"is_disabled":false,"rental_uris":{"android":"levelo://app?vid=49043dcc-dc87-4f32-9b9e-584978211017","ios":"levelo://app?vid=49043dcc-dc87-4f32-9b9e-584978211017"},"vehicle_type_id":"4","last_reported":1738685483,"current_range_meters":38000,"station_id":"ce4bgs92rcd13ifvqcc0","pricing_plan_id":"cebpf4jnsgd1na2vs0mg"},{"bike_id":"88f6ec14-1047-428a-bfc8-ed7564b679d3","system_id":"levelo_inurba_marseille","lat":43.24386,"lon":5.37098,"is_reserved":false,"is_disabled":false,"rental_uris":{"android":"levelo://app?vid=88f6ec14-1047-428a-bfc8-ed7564b679d3","ios":"levelo://app?vid=88f6ec14-1047-428a-bfc8-ed7564b679d3"},"vehicle_type_id":"4","last_reported":1738685483,"current_range_meters":38800,"station_id":"ce4bhhh2rcd13ifvqfk0","pricing_plan_id":"cebpf4jnsgd1na2vs0mg"},{"bike_id":"941a420b-bcd5-4f63-a1ba-5c15116a6c1e","system_id":"levelo_inurba_marseille","lat":43.29237,"lon":5.36395,"is_reserved":false,"is_disabled":false,"rental_uris":{"android":"levelo://app?vid=941a420b-bcd5-4f63-a1ba-5c15116a6c1e","ios":"levelo://app?vid=941a420b-bcd5-4f63-a1ba-5c15116a6c1e"},"vehicle_type_id":"4","last_reported":1738685483,"current_range_meters":38000,"station_id":"","pricing_plan_id":"cebpf4jnsgd1na2vs0mg"},{"bike_id":"3eb089a4-83c3-4e94-92de-84f6b7286420","system_id":"levelo_inurba_marseille","lat":43.28151,"lon":5.42638,"is_reserved":false,"is_disabled":false,"rental_uris":{"android":"levelo://app?vid=3eb089a4-83c3-4e94-92de-84f6b7286420","ios":"levelo://app?vid=3eb089a4-83c3-4e94-92de-84f6b7286420"},"vehicle_type_id":"4","last_reported":1738685483,"current_range_meters":12400,"station_id":"ce4bhnh2rcd13ifvqgug","pricing_plan_id":"cebpf4jnsgd1na2vs0mg"},{"bike_id":"b7e521ff-9c11-428e-883b-f725f09333f3","system_id":"levelo_inurba_marseille","lat":43.29628,"lon":5.40599,"is_reserved":false,"is_disabled":false,"rental_uris":{"android":"levelo://app?vid=b7e521ff-9c11-428e-883b-f725f09333f3","ios":"levelo://app?vid=b7e521ff-9c11-428e-883b-f725f09333f3"},"vehicle_type_id":"4","last_reported":1738685483,"current_range_meters":10000,"station_id":"ce4bh0h2rcd13ifvqd60","pricing_plan_id":"cebpf4jnsgd1na2vs0mg"},{"bike_id":"6b94be04-b4cb-4dc0-b06a-30ca4458a88c","system_id":"levelo_inurba_marseille","lat":43.32543,"lon":5.41426,"is_reserved":false,"is_disabled":false,"rental_uris":{"android":"levelo://app?vid=6b94be04-b4cb-4dc0-b06a-30ca4458a88c","ios":"levelo://app?vid=6b94be04-b4cb-4dc0-b06a-30ca4458a88c"},"vehicle_type_id":"4","last_reported":1738685483,"current_range_meters":17200,"station_id":"ce4bhq12rcd13ifvqhhg","pricing_plan_id":"cebpf4jnsgd1na2vs0mg"},{"bike_id":"ac10ecdc-782c-467c-8065-29ce4e1b1aab","system_id":"levelo_inurba_marseille","lat":43.32653,"lon":5.41,"is_reserved":false,"is_disabled":true,"rental_uris":{"android":"levelo://app?vid=ac10ecdc-782c-467c-8065-29ce4e1b1aab","ios":"levelo://app?vid=ac10ecdc-782c-467c-8065-29ce4e1b1aab"},"vehicle_type_id":"4","last_reported":1738685483,"current_range_meters":2000,"station_id":"ce4bhpp2rcd13ifvqhgg","pricing_plan_id":"cebpf4jnsgd1na2vs0mg"},{"bike_id":"352d595e-1fe6-4582-beb8-01e7d677d0ed","system_id":"levelo_inurba_marseille","lat":43.2396,"lon":5.36615,"is_reserved":false,"is_disabled":false,"rental_uris":{"android":"levelo://app?vid=352d595e-1fe6-4582-beb8-01e7d677d0ed","ios":"levelo://app?vid=352d595e-1fe6-4582-beb8-01e7d677d0ed"},"vehicle_type_id":"4","last_reported":1738685483,"current_range_meters":2800,"station_id":"ce4bhi12rcd13ifvqfp0","pricing_plan_id":"cebpf4jnsgd1na2vs0mg"},{"bike_id":"c19b3c74-f079-41ca-a5e6-f86d20b3a1ed","system_id":"levelo_inurba_marseille","lat":43.2842,"lon":5.34998,"is_reserved":false,"is_disabled":false,"rental_uris":{"android":"levelo://app?vid=c19b3c74-f079-41ca-a5e6-f86d20b3a1ed","ios":"levelo://app?vid=c19b3c74-f079-41ca-a5e6-f86d20b3a1ed"},"vehicle_type_id":"4","last_reported":1738685483,"current_range_meters":19600,"station_id":"ce4bhbh2rcd13ifvqepg","pricing_plan_id":"cebpf4jnsgd1na2vs0mg"},{"bike_id":"3894dca2-273b-40ed-8be2-d6f8dae96388","system_id":"levelo_inurba_marseille","lat":43.28622,"lon":5.35097,"is_reserved":false,"is_disabled":false,"rental_uris":{"android":"levelo://app?vid=3894dca2-273b-40ed-8be2-d6f8dae96388","ios":"levelo://app?vid=3894dca2-273b-40ed-8be2-d6f8dae96388"},"vehicle_type_id":"4","last_reported":1738685483,"current_range_meters":38800,"station_id":"ce4bhch2rcd13ifvqeug","pricing_plan_id":"cebpf4jnsgd1na2vs0mg"},{"bike_id":"03215b30-aa65-4b10-b451-ed50967ec88e","system_id":"levelo_inurba_marseille","lat":43.34466,"lon":5.35936,"is_reserved":false,"is_disabled":true,"rental_uris":{"android":"levelo://app?vid=03215b30-aa65-4b10-b451-ed50967ec88e","ios":"levelo://app?vid=03215b30-aa65-4b10-b451-ed50967ec88e"},"vehicle_type_id":"4","last_reported":1738685483,"current_range_meters":0,"station_id":"","pricing_plan_id":"cebpf4jnsgd1na2vs0mg"},{"bike_id":"931c3b97-cce1-4ebe-a291-6c50a6f2810e","system_id":"levelo_inurba_marseille","lat":43.31958,"lon":5.37507,"is_reserved":false,"is_disabled":false,"rental_uris":{"android":"levelo://app?vid=931c3b97-cce1-4ebe-a291-6c50a6f2810e","ios":"levelo://app?vid=931c3b97-cce1-4ebe-a291-6c50a6f2810e"},"vehicle_type_id":"4","last_reported":1738685483,"current_range_meters":23200,"station_id":"","pricing_plan_id":"cebpf4jnsgd1na2vs0mg"},{"bike_id":"d1d51ec2-e1ab-4b92-9a4b-f935b04ef436","system_id":"levelo_inurba_marseille","lat":43.2501,"lon":5.38904,"is_reserved":false,"is_disabled":false,"rental_uris":{"android":"levelo://app?vid=d1d51ec2-e1ab-4b92-9a4b-f935b04ef436","ios":"levelo://app?vid=d1d51ec2-e1ab-4b92-9a4b-f935b04ef436"},"vehicle_type_id":"4","last_reported":1738685483,"current_range_meters":24000,"station_id":"ce4bhgp2rcd13ifvqfd0","pricing_plan_id":"cebpf4jnsgd1na2vs0mg"},{"bike_id":"102b9f2d-4c9c-4720-8aef-3f4ab487e1a0","system_id":"levelo_inurba_marseille","lat":43.32332,"lon":5.38851,"is_reserved":false,"is_disabled":false,"rental_uris":{"android":"levelo://app?vid=102b9f2d-4c9c-4720-8aef-3f4ab487e1a0","ios":"levelo://app?vid=102b9f2d-4c9c-4720-8aef-3f4ab487e1a0"},"vehicle_type_id":"4","last_reported":1738685483,"current_range_meters":10800,"station_id":"ce4bhqp2rcd13ifvqhog","pricing_plan_id":"cebpf4jnsgd1na2vs0mg"},{"bike_id":"7a2080c9-d44a-471c-9acd-526428e8e5dc","system_id":"levelo_inurba_marseille","lat":43.229353,"lon":5.353839,"is_reserved":false,"is_disabled":false,"rental_uris":{"android":"levelo://app?vid=7a2080c9-d44a-471c-9acd-526428e8e5dc","ios":"levelo://app?vid=7a2080c9-d44a-471c-9acd-526428e8e5dc"},"vehicle_type_id":"4","last_reported":1738685483,"current_range_meters":38800,"station_id":"cpo3532slgdg3j2ikp40","pricing_plan_id":"cebpf4jnsgd1na2vs0mg"},{"bike_id":"ed3bfddd-5d89-486d-b8a5-a24c7f40de57","system_id":"levelo_inurba_marseille","lat":43.29983,"lon":5.38483,"is_reserved":false,"is_disabled":false,"rental_uris":{"android":"levelo://app?vid=ed3bfddd-5d89-486d-b8a5-a24c7f40de57","ios":"levelo://app?vid=ed3bfddd-5d89-486d-b8a5-a24c7f40de57"},"vehicle_type_id":"4","last_reported":1738685483,"current_range_meters":30000,"station_id":"ce4bgj92rcd13ifvqbd0","pricing_plan_id":"cebpf4jnsgd1na2vs0mg"},{"bike_id":"63048f82-d2f8-4892-b5b3-d703ed24ef1c","system_id":"levelo_inurba_marseille","lat":43.29014,"lon":5.35615,"is_reserved":false,"is_disabled":false,"rental_uris":{"android":"levelo://app?vid=63048f82-d2f8-4892-b5b3-d703ed24ef1c","ios":"levelo://app?vid=63048f82-d2f8-4892-b5b3-d703ed24ef1c"},"vehicle_type_id":"4","last_reported":1738685483,"current_range_meters":38800,"station_id":"ce4bhb92rcd13ifvqen0","pricing_plan_id":"cebpf4jnsgd1na2vs0mg"},{"bike_id":"f307dfc9-492f-427c-886b-0aebd0c4a217","system_id":"levelo_inurba_marseille","lat":43.24173,"lon":5.36395,"is_reserved":false,"is_disabled":false,"rental_uris":{"android":"levelo://app?vid=f307dfc9-492f-427c-886b-0aebd0c4a217","ios":"levelo://app?vid=f307dfc9-492f-427c-886b-0aebd0c4a217"},"vehicle_type_id":"4","last_reported":1738685483,"current_range_meters":12400,"station_id":"cpo36qri1sfpv3e86is0","pricing_plan_id":"cebpf4jnsgd1na2vs0mg"},{"bike_id":"1bdf073d-c097-4150-87c6-187750a9dea9","system_id":"levelo_inurba_marseille","lat":43.26213,"lon":5.37431,"is_reserved":false,"is_disabled":false,"rental_uris":{"android":"levelo://app?vid=1bdf073d-c097-4150-87c6-187750a9dea9","ios":"levelo://app?vid=1bdf073d-c097-4150-87c6-187750a9dea9"},"vehicle_type_id":"4","last_reported":1738685483,"current_range_meters":38000,"station_id":"ce4bhgp2rcd13ifvqfc0","pricing_plan_id":"cebpf4jnsgd1na2vs0mg"},{"bike_id":"fab3989b-9ef0-40ea-98d6-a4f08f6254f9","system_id":"levelo_inurba_marseille","lat":43.28707,"lon":5.39993,"is_reserved":false,"is_disabled":true,"rental_uris":{"android":"levelo://app?vid=fab3989b-9ef0-40ea-98d6-a4f08f6254f9","ios":"levelo://app?vid=fab3989b-9ef0-40ea-98d6-a4f08f6254f9"},"vehicle_type_id":"4","last_reported":1738685483,"current_range_meters":1600,"station_id":"ce4bho92rcd13ifvqh3g","pricing_plan_id":"cebpf4jnsgd1na2vs0mg"},{"bike_id":"aef60d43-a0e2-4827-ba61-76af64d7e088","system_id":"levelo_inurba_marseille","lat":43.29945,"lon":5.3652,"is_reserved":false,"is_disabled":false,"rental_uris":{"android":"levelo://app?vid=aef60d43-a0e2-4827-ba61-76af64d7e088","ios":"levelo://app?vid=aef60d43-a0e2-4827-ba61-76af64d7e088"},"vehicle_type_id":"4","last_reported":1738685483,"current_range_meters":38400,"station_id":"ce4bgm92rcd13ifvqbr0","pricing_plan_id":"cebpf4jnsgd1na2vs0mg"},{"bike_id":"5eb0e5ef-6daf-4b41-a37d-597d1bef38ab","system_id":"levelo_inurba_marseille","lat":43.28929,"lon":5.38386,"is_reserved":false,"is_disabled":false,"rental_uris":{"android":"levelo://app?vid=5eb0e5ef-6daf-4b41-a37d-597d1bef38ab","ios":"levelo://app?vid=5eb0e5ef-6daf-4b41-a37d-597d1bef38ab"},"vehicle_type_id":"4","last_reported":1738685483,"current_range_meters":21600,"station_id":"ce4bh612rcd13ifvqe6g","pricing_plan_id":"cebpf4jnsgd1na2vs0mg"},{"bike_id":"6dfe34ee-89dc-4687-a40b-bb003e3c18c6","system_id":"levelo_inurba_marseille","lat":43.28108,"lon":5.3784,"is_reserved":false,"is_disabled":true,"rental_uris":{"android":"levelo://app?vid=6dfe34ee-89dc-4687-a40b-bb003e3c18c6","ios":"levelo://app?vid=6dfe34ee-89dc-4687-a40b-bb003e3c18c6"},"vehicle_type_id":"4","last_reported":1738685483,"current_range_meters":38800,"station_id":"ce4bha12rcd13ifvqee0","pricing_plan_id":"cebpf4jnsgd1na2vs0mg"},{"bike_id":"0bb638d0-2838-47fa-8a2d-f175e9aec41a","system_id":"levelo_inurba_marseille","lat":43.23967,"lon":5.36622,"is_reserved":false,"is_disabled":false,"rental_uris":{"android":"levelo://app?vid=0bb638d0-2838-47fa-8a2d-f175e9aec41a","ios":"levelo://app?vid=0bb638d0-2838-47fa-8a2d-f175e9aec41a"},"vehicle_type_id":"4","last_reported":1738685483,"current_range_meters":14000,"station_id":"ce4bhi12rcd13ifvqfp0","pricing_plan_id":"cebpf4jnsgd1na2vs0mg"},{"bike_id":"5210df53-aec6-4271-b818-cd0f2fcc1e1b","system_id":"levelo_inurba_marseille","lat":43.26796,"lon":5.3941,"is_reserved":false,"is_disabled":false,"rental_uris":{"android":"levelo://app?vid=5210df53-aec6-4271-b818-cd0f2fcc1e1b","ios":"levelo://app?vid=5210df53-aec6-4271-b818-cd0f2fcc1e1b"},"vehicle_type_id":"4","last_reported":1738685483,"current_range_meters":6400,"station_id":"ce4bhh12rcd13ifvqfg0","pricing_plan_id":"cebpf4jnsgd1na2vs0mg"},{"bike_id":"6d60913d-cc26-4ecc-b494-5bb2f9b2ea83","system_id":"levelo_inurba_marseille","lat":43.29889,"lon":5.43681,"is_reserved":false,"is_disabled":false,"rental_uris":{"android":"levelo://app?vid=6d60913d-cc26-4ecc-b494-5bb2f9b2ea83","ios":"levelo://app?vid=6d60913d-cc26-4ecc-b494-5bb2f9b2ea83"},"vehicle_type_id":"4","last_reported":1738685483,"current_range_meters":6400,"station_id":"ce4bhpp2rcd13ifvqhfg","pricing_plan_id":"cebpf4jnsgd1na2vs0mg"},{"bike_id":"2fed9ba3-3909-423b-8e60-69abd9978d73","system_id":"levelo_inurba_marseille","lat":43.26809,"lon":5.40255,"is_reserved":false,"is_disabled":false,"rental_uris":{"android":"levelo://app?vid=2fed9ba3-3909-423b-8e60-69abd9978d73","ios":"levelo://app?vid=2fed9ba3-3909-423b-8e60-69abd9978d73"},"vehicle_type_id":"4","last_reported":1738685483,"current_range_meters":38800,"station_id":"ce501612rcd8frsf0b60","pricing_plan_id":"cebpf4jnsgd1na2vs0mg"},{"bike_id":"0d29e889-4ac8-4f11-8508-d44f9972bb25","system_id":"levelo_inurba_marseille","lat":43.29612,"lon":5.38106,"is_reserved":false,"is_disabled":false,"rental_uris":{"android":"levelo://app?vid=0d29e889-4ac8-4f11-8508-d44f9972bb25","ios":"levelo://app?vid=0d29e889-4ac8-4f11-8508-d44f9972bb25"},"vehicle_type_id":"4","last_reported":1738685483,"current_range_meters":11600,"station_id":"ce4bgl12rcd13ifvqbo0","pricing_plan_id":"cebpf4jnsgd1na2vs0mg"},{"bike_id":"20c96357-4212-46b3-8e71-0a10c460fd0a","system_id":"levelo_inurba_marseille","lat":43.2623,"lon":5.40449,"is_reserved":false,"is_disabled":false,"rental_uris":{"android":"levelo://app?vid=20c96357-4212-46b3-8e71-0a10c460fd0a","ios":"levelo://app?vid=20c96357-4212-46b3-8e71-0a10c460fd0a"},"vehicle_type_id":"4","last_reported":1738685483,"current_range_meters":22000,"station_id":"ce4bhmh2rcd13ifvqgmg","pricing_plan_id":"cebpf4jnsgd1na2vs0mg"},{"bike_id":"fb1830e2-f6fc-4fde-afda-8615e8ed9c4a","system_id":"levelo_inurba_marseille","lat":43.26195,"lon":5.37451,"is_reserved":false,"is_disabled":false,"rental_uris":{"android":"levelo://app?vid=fb1830e2-f6fc-4fde-afda-8615e8ed9c4a","ios":"levelo://app?vid=fb1830e2-f6fc-4fde-afda-8615e8ed9c4a"},"vehicle_type_id":"4","last_reported":1738685483,"current_range_meters":4800,"station_id":"ce4bhgp2rcd13ifvqfc0","pricing_plan_id":"cebpf4jnsgd1na2vs0mg"},{"bike_id":"4b66423c-d12f-413f-8f11-d888fc73ce31","system_id":"levelo_inurba_marseille","lat":43.27572,"lon":5.38436,"is_reserved":false,"is_disabled":false,"rental_uris":{"android":"levelo://app?vid=4b66423c-d12f-413f-8f11-d888fc73ce31","ios":"levelo://app?vid=4b66423c-d12f-413f-8f11-d888fc73ce31"},"vehicle_type_id":"4","last_reported":1738685483,"current_range_meters":6800,"station_id":"ce4bhh92rcd13ifvqfi0","pricing_plan_id":"cebpf4jnsgd1na2vs0mg"},{"bike_id":"f8c2871a-6248-42e4-a79e-45d82d922f74","system_id":"levelo_inurba_marseille","lat":43.28854,"lon":5.39304,"is_reserved":false,"is_disabled":false,"rental_uris":{"android":"levelo://app?vid=f8c2871a-6248-42e4-a79e-45d82d922f74","ios":"levelo://app?vid=f8c2871a-6248-42e4-a79e-45d82d922f74"},"vehicle_type_id":"4","last_reported":1738685483,"current_range_meters":35200,"station_id":"ce4bh2p2rcd13ifvqdi0","pricing_plan_id":"cebpf4jnsgd1na2vs0mg"},{"bike_id":"6e7c1ac2-e791-43c7-8c36-9db37854d07d","system_id":"levelo_inurba_marseille","lat":43.28631,"lon":5.35085,"is_reserved":false,"is_disabled":true,"rental_uris":{"android":"levelo://app?vid=6e7c1ac2-e791-43c7-8c36-9db37854d07d","ios":"levelo://app?vid=6e7c1ac2-e791-43c7-8c36-9db37854d07d"},"vehicle_type_id":"4","last_reported":1738685483,"current_range_meters":25600,"station_id":"ce4bhch2rcd13ifvqeug","pricing_plan_id":"cebpf4jnsgd1na2vs0mg"},{"bike_id":"dc7046c0-2c32-461f-9598-e9cad1a0e646","system_id":"levelo_inurba_marseille","lat":43.27075,"lon":5.40244,"is_reserved":false,"is_disabled":false,"rental_uris":{"android":"levelo://app?vid=dc7046c0-2c32-461f-9598-e9cad1a0e646","ios":"levelo://app?vid=dc7046c0-2c32-461f-9598-e9cad1a0e646"},"vehicle_type_id":"4","last_reported":1738685483,"current_range_meters":10000,"station_id":"ce4bhk92rcd13ifvqgc0","pricing_plan_id":"cebpf4jnsgd1na2vs0mg"},{"bike_id":"f3ecf09e-1100-4fb7-8665-2e98d84633ae","system_id":"levelo_inurba_marseille","lat":43.27372,"lon":5.36256,"is_reserved":false,"is_disabled":true,"rental_uris":{"android":"levelo://app?vid=f3ecf09e-1100-4fb7-8665-2e98d84633ae","ios":"levelo://app?vid=f3ecf09e-1100-4fb7-8665-2e98d84633ae"},"vehicle_type_id":"4","last_reported":1738685483,"current_range_meters":0,"station_id":"ce4bhbh2rcd13ifvqeo0","pricing_plan_id":"cebpf4jnsgd1na2vs0mg"},{"bike_id":"1418b524-1535-4478-a5d6-289886b7efa0","system_id":"levelo_inurba_marseille","lat":43.28161,"lon":5.42653,"is_reserved":false,"is_disabled":false,"rental_uris":{"android":"levelo://app?vid=1418b524-1535-4478-a5d6-289886b7efa0","ios":"levelo://app?vid=1418b524-1535-4478-a5d6-289886b7efa0"},"vehicle_type_id":"4","last_reported":1738685483,"current_range_meters":36400,"station_id":"ce4bhnh2rcd13ifvqgug","pricing_plan_id":"cebpf4jnsgd1na2vs0mg"},{"bike_id":"1c0fcfbd-53b3-4951-bff2-3d95c9bb7c00","system_id":"levelo_inurba_marseille","lat":43.29798,"lon":5.40403,"is_reserved":false,"is_disabled":false,"rental_uris":{"android":"levelo://app?vid=1c0fcfbd-53b3-4951-bff2-3d95c9bb7c00","ios":"levelo://app?vid=1c0fcfbd-53b3-4951-bff2-3d95c9bb7c00"},"vehicle_type_id":"4","last_reported":1738685483,"current_range_meters":24800,"station_id":"ce4bh112rcd13ifvqd90","pricing_plan_id":"cebpf4jnsgd1na2vs0mg"},{"bike_id":"9b71e329-f58f-4038-b3a1-ec2921912ecf","system_id":"levelo_inurba_marseille","lat":43.2873,"lon":5.36093,"is_reserved":false,"is_disabled":false,"rental_uris":{"android":"levelo://app?vid=9b71e329-f58f-4038-b3a1-ec2921912ecf","ios":"levelo://app?vid=9b71e329-f58f-4038-b3a1-ec2921912ecf"},"vehicle_type_id":"4","last_reported":1738685483,"current_range_meters":22400,"station_id":"cki0cbj6b192h4jlfktg","pricing_plan_id":"cebpf4jnsgd1na2vs0mg"},{"bike_id":"a0148fd1-4e35-4bf1-86de-0fb7c2b72f7b","system_id":"levelo_inurba_marseille","lat":43.30907,"lon":5.36839,"is_reserved":false,"is_disabled":false,"rental_uris":{"android":"levelo://app?vid=a0148fd1-4e35-4bf1-86de-0fb7c2b72f7b","ios":"levelo://app?vid=a0148fd1-4e35-4bf1-86de-0fb7c2b72f7b"},"vehicle_type_id":"4","last_reported":1738685483,"current_range_meters":14400,"station_id":"ce4bgn92rcd13ifvqbvg","pricing_plan_id":"cebpf4jnsgd1na2vs0mg"},{"bike_id":"e300a7ef-aeec-44cc-9e84-6205338a2cf8","system_id":"levelo_inurba_marseille","lat":43.30298,"lon":5.37692,"is_reserved":false,"is_disabled":false,"rental_uris":{"android":"levelo://app?vid=e300a7ef-aeec-44cc-9e84-6205338a2cf8","ios":"levelo://app?vid=e300a7ef-aeec-44cc-9e84-6205338a2cf8"},"vehicle_type_id":"4","last_reported":1738685483,"current_range_meters":36800,"station_id":"ce4bguh2rcd13ifvqcj0","pricing_plan_id":"cebpf4jnsgd1na2vs0mg"},{"bike_id":"f8a64017-c9fd-4970-b9ef-56d8f996ff24","system_id":"levelo_inurba_marseille","lat":43.29604,"lon":5.37713,"is_reserved":false,"is_disabled":false,"rental_uris":{"android":"levelo://app?vid=f8a64017-c9fd-4970-b9ef-56d8f996ff24","ios":"levelo://app?vid=f8a64017-c9fd-4970-b9ef-56d8f996ff24"},"vehicle_type_id":"4","last_reported":1738685483,"current_range_meters":38400,"station_id":"ce4bgi92rcd13ifvqb90","pricing_plan_id":"cebpf4jnsgd1na2vs0mg"},{"bike_id":"b865dc42-6caf-409a-ae8a-03708b612fe9","system_id":"levelo_inurba_marseille","lat":43.31757,"lon":5.39031,"is_reserved":false,"is_disabled":false,"rental_uris":{"android":"levelo://app?vid=b865dc42-6caf-409a-ae8a-03708b612fe9","ios":"levelo://app?vid=b865dc42-6caf-409a-ae8a-03708b612fe9"},"vehicle_type_id":"4","last_reported":1738685483,"current_range_meters":31200,"station_id":"ce4bhqp2rcd13ifvqhng","pricing_plan_id":"cebpf4jnsgd1na2vs0mg"},{"bike_id":"db29e449-363c-4f44-8022-1f4785c44132","system_id":"levelo_inurba_marseille","lat":43.26499,"lon":5.39553,"is_reserved":false,"is_disabled":false,"rental_uris":{"android":"levelo://app?vid=db29e449-363c-4f44-8022-1f4785c44132","ios":"levelo://app?vid=db29e449-363c-4f44-8022-1f4785c44132"},"vehicle_type_id":"4","last_reported":1738685483,"current_range_meters":37600,"station_id":"ce4bhi12rcd13ifvqfq0","pricing_plan_id":"cebpf4jnsgd1na2vs0mg"},{"bike_id":"914ec534-1a47-40d1-bcdf-2eb1ad8d20c4","system_id":"levelo_inurba_marseille","lat":43.28277,"lon":5.35072,"is_reserved":false,"is_disabled":false,"rental_uris":{"android":"levelo://app?vid=914ec534-1a47-40d1-bcdf-2eb1ad8d20c4","ios":"levelo://app?vid=914ec534-1a47-40d1-bcdf-2eb1ad8d20c4"},"vehicle_type_id":"4","last_reported":1738685483,"current_range_meters":11200,"station_id":"ce4bhbp2rcd13ifvqerg","pricing_plan_id":"cebpf4jnsgd1na2vs0mg"},{"bike_id":"c4f2303f-f4be-479d-9c18-55e5c41c740f","system_id":"levelo_inurba_marseille","lat":43.26566,"lon":5.37288,"is_reserved":false,"is_disabled":true,"rental_uris":{"android":"levelo://app?vid=c4f2303f-f4be-479d-9c18-55e5c41c740f","ios":"levelo://app?vid=c4f2303f-f4be-479d-9c18-55e5c41c740f"},"vehicle_type_id":"4","last_reported":1738685483,"current_range_meters":1600,"station_id":"ce4bhg12rcd13ifvqf70","pricing_plan_id":"cebpf4jnsgd1na2vs0mg"},{"bike_id":"26d397a9-61ee-400d-a6b0-dc8b026ea3e4","system_id":"levelo_inurba_marseille","lat":43.296321,"lon":5.371543,"is_reserved":false,"is_disabled":false,"rental_uris":{"android":"levelo://app?vid=26d397a9-61ee-400d-a6b0-dc8b026ea3e4","ios":"levelo://app?vid=26d397a9-61ee-400d-a6b0-dc8b026ea3e4"},"vehicle_type_id":"4","last_reported":1738685483,"current_range_meters":36400,"station_id":"ce4bgnh2rcd13ifvqc0g","pricing_plan_id":"cebpf4jnsgd1na2vs0mg"},{"bike_id":"5b32ac20-0ef6-44a5-a59c-9311fb9b7409","system_id":"levelo_inurba_marseille","lat":43.29303,"lon":5.37464,"is_reserved":false,"is_disabled":false,"rental_uris":{"android":"levelo://app?vid=5b32ac20-0ef6-44a5-a59c-9311fb9b7409","ios":"levelo://app?vid=5b32ac20-0ef6-44a5-a59c-9311fb9b7409"},"vehicle_type_id":"4","last_reported":1738685483,"current_range_meters":8000,"station_id":"ce4bgi12rcd13ifvqb70","pricing_plan_id":"cebpf4jnsgd1na2vs0mg"},{"bike_id":"b1ec94f9-d00d-4cc4-b285-5cd3debf5407","system_id":"levelo_inurba_marseille","lat":43.2678,"lon":5.39421,"is_reserved":false,"is_disabled":false,"rental_uris":{"android":"levelo://app?vid=b1ec94f9-d00d-4cc4-b285-5cd3debf5407","ios":"levelo://app?vid=b1ec94f9-d00d-4cc4-b285-5cd3debf5407"},"vehicle_type_id":"4","last_reported":1738685483,"current_range_meters":18000,"station_id":"ce4bhh12rcd13ifvqfg0","pricing_plan_id":"cebpf4jnsgd1na2vs0mg"},{"bike_id":"d017a21b-7b58-4514-bf06-3b19fe96541c","system_id":"levelo_inurba_marseille","lat":43.2827,"lon":5.35075,"is_reserved":false,"is_disabled":false,"rental_uris":{"android":"levelo://app?vid=d017a21b-7b58-4514-bf06-3b19fe96541c","ios":"levelo://app?vid=d017a21b-7b58-4514-bf06-3b19fe96541c"},"vehicle_type_id":"4","last_reported":1738685483,"current_range_meters":38400,"station_id":"ce4bhbp2rcd13ifvqerg","pricing_plan_id":"cebpf4jnsgd1na2vs0mg"},{"bike_id":"48457462-e2e5-4b0c-9657-da77fe2191e8","system_id":"levelo_inurba_marseille","lat":43.30558,"lon":5.36537,"is_reserved":false,"is_disabled":false,"rental_uris":{"android":"levelo://app?vid=48457462-e2e5-4b0c-9657-da77fe2191e8","ios":"levelo://app?vid=48457462-e2e5-4b0c-9657-da77fe2191e8"},"vehicle_type_id":"4","last_reported":1738685483,"current_range_meters":24400,"station_id":"ce4bgs12rcd13ifvqcag","pricing_plan_id":"cebpf4jnsgd1na2vs0mg"},{"bike_id":"a9ee38d0-21e8-4d99-8e3f-cc643e32473e","system_id":"levelo_inurba_marseille","lat":43.27829,"lon":5.40694,"is_reserved":false,"is_disabled":false,"rental_uris":{"android":"levelo://app?vid=a9ee38d0-21e8-4d99-8e3f-cc643e32473e","ios":"levelo://app?vid=a9ee38d0-21e8-4d99-8e3f-cc643e32473e"},"vehicle_type_id":"4","last_reported":1738685483,"current_range_meters":38800,"station_id":"ce4bhnh2rcd13ifvqgtg","pricing_plan_id":"cebpf4jnsgd1na2vs0mg"},{"bike_id":"b66f0845-62d2-4d08-bbcf-a06568ad3ffb","system_id":"levelo_inurba_marseille","lat":43.30808,"lon":5.3815,"is_reserved":false,"is_disabled":false,"rental_uris":{"android":"levelo://app?vid=b66f0845-62d2-4d08-bbcf-a06568ad3ffb","ios":"levelo://app?vid=b66f0845-62d2-4d08-bbcf-a06568ad3ffb"},"vehicle_type_id":"4","last_reported":1738685483,"current_range_meters":23200,"station_id":"ce4bgt12rcd13ifvqce0","pricing_plan_id":"cebpf4jnsgd1na2vs0mg"},{"bike_id":"630dd466-e4dd-4ada-8a39-01e92abf0818","system_id":"levelo_inurba_marseille","lat":43.26203,"lon":5.3744,"is_reserved":false,"is_disabled":false,"rental_uris":{"android":"levelo://app?vid=630dd466-e4dd-4ada-8a39-01e92abf0818","ios":"levelo://app?vid=630dd466-e4dd-4ada-8a39-01e92abf0818"},"vehicle_type_id":"4","last_reported":1738685483,"current_range_meters":33200,"station_id":"ce4bhgp2rcd13ifvqfc0","pricing_plan_id":"cebpf4jnsgd1na2vs0mg"},{"bike_id":"3034d64e-f78e-468c-b4d6-2520a053438f","system_id":"levelo_inurba_marseille","lat":43.23193,"lon":5.39999,"is_reserved":false,"is_disabled":false,"rental_uris":{"android":"levelo://app?vid=3034d64e-f78e-468c-b4d6-2520a053438f","ios":"levelo://app?vid=3034d64e-f78e-468c-b4d6-2520a053438f"},"vehicle_type_id":"4","last_reported":1738685483,"current_range_meters":38800,"station_id":"ce4bhn12rcd13ifvqgqg","pricing_plan_id":"cebpf4jnsgd1na2vs0mg"},{"bike_id":"146f24d8-73c8-471d-85b2-d3baa3971eeb","system_id":"levelo_inurba_marseille","lat":43.29962,"lon":5.36514,"is_reserved":false,"is_disabled":false,"rental_uris":{"android":"levelo://app?vid=146f24d8-73c8-471d-85b2-d3baa3971eeb","ios":"levelo://app?vid=146f24d8-73c8-471d-85b2-d3baa3971eeb"},"vehicle_type_id":"4","last_reported":1738685483,"current_range_meters":35600,"station_id":"ce4bgm92rcd13ifvqbr0","pricing_plan_id":"cebpf4jnsgd1na2vs0mg"},{"bike_id":"a71a13a2-8266-4c25-af80-2bbd24a53eb4","system_id":"levelo_inurba_marseille","lat":43.29047,"lon":5.35908,"is_reserved":false,"is_disabled":false,"rental_uris":{"android":"levelo://app?vid=a71a13a2-8266-4c25-af80-2bbd24a53eb4","ios":"levelo://app?vid=a71a13a2-8266-4c25-af80-2bbd24a53eb4"},"vehicle_type_id":"4","last_reported":1738685483,"current_range_meters":11200,"station_id":"ce4bha92rcd13ifvqeg0","pricing_plan_id":"cebpf4jnsgd1na2vs0mg"},{"bike_id":"b09ebd01-c975-4878-ac0b-8fd11b1739f7","system_id":"levelo_inurba_marseille","lat":43.28154,"lon":5.42664,"is_reserved":false,"is_disabled":false,"rental_uris":{"android":"levelo://app?vid=b09ebd01-c975-4878-ac0b-8fd11b1739f7","ios":"levelo://app?vid=b09ebd01-c975-4878-ac0b-8fd11b1739f7"},"vehicle_type_id":"4","last_reported":1738685483,"current_range_meters":16000,"station_id":"ce4bhnh2rcd13ifvqgug","pricing_plan_id":"cebpf4jnsgd1na2vs0mg"},{"bike_id":"e214cb68-bd90-4283-80e9-951f93a1751c","system_id":"levelo_inurba_marseille","lat":43.32345,"lon":5.40625,"is_reserved":false,"is_disabled":false,"rental_uris":{"android":"levelo://app?vid=e214cb68-bd90-4283-80e9-951f93a1751c","ios":"levelo://app?vid=e214cb68-bd90-4283-80e9-951f93a1751c"},"vehicle_type_id":"4","last_reported":1738685483,"current_range_meters":38800,"station_id":"ce4bhq92rcd13ifvqhjg","pricing_plan_id":"cebpf4jnsgd1na2vs0mg"},{"bike_id":"3e7cd5ce-717c-4728-a973-6e6a663d2007","system_id":"levelo_inurba_marseille","lat":43.29043,"lon":5.35916,"is_reserved":false,"is_disabled":false,"rental_uris":{"android":"levelo://app?vid=3e7cd5ce-717c-4728-a973-6e6a663d2007","ios":"levelo://app?vid=3e7cd5ce-717c-4728-a973-6e6a663d2007"},"vehicle_type_id":"4","last_reported":1738685483,"current_range_meters":38400,"station_id":"ce4bha92rcd13ifvqeg0","pricing_plan_id":"cebpf4jnsgd1na2vs0mg"},{"bike_id":"a7dc0848-081a-4438-bce6-7e161a91f066","system_id":"levelo_inurba_marseille","lat":43.28158,"lon":5.42632,"is_reserved":false,"is_disabled":false,"rental_uris":{"android":"levelo://app?vid=a7dc0848-081a-4438-bce6-7e161a91f066","ios":"levelo://app?vid=a7dc0848-081a-4438-bce6-7e161a91f066"},"vehicle_type_id":"4","last_reported":1738685483,"current_range_meters":34000,"station_id":"ce4bhnh2rcd13ifvqgug","pricing_plan_id":"cebpf4jnsgd1na2vs0mg"},{"bike_id":"5ede3e11-8ca3-494d-a04b-8d91f240c4d2","system_id":"levelo_inurba_marseille","lat":43.278972,"lon":5.380274,"is_reserved":false,"is_disabled":false,"rental_uris":{"android":"levelo://app?vid=5ede3e11-8ca3-494d-a04b-8d91f240c4d2","ios":"levelo://app?vid=5ede3e11-8ca3-494d-a04b-8d91f240c4d2"},"vehicle_type_id":"4","last_reported":1738685483,"current_range_meters":19200,"station_id":"ce4bhf92rcd13ifvqf50","pricing_plan_id":"cebpf4jnsgd1na2vs0mg"},{"bike_id":"efb4e0c5-012a-40d5-b751-7a0e28f587ae","system_id":"levelo_inurba_marseille","lat":43.2828,"lon":5.35079,"is_reserved":false,"is_disabled":false,"rental_uris":{"android":"levelo://app?vid=efb4e0c5-012a-40d5-b751-7a0e28f587ae","ios":"levelo://app?vid=efb4e0c5-012a-40d5-b751-7a0e28f587ae"},"vehicle_type_id":"4","last_reported":1738685483,"current_range_meters":38400,"station_id":"ce4bhbp2rcd13ifvqerg","pricing_plan_id":"cebpf4jnsgd1na2vs0mg"},{"bike_id":"2055a81d-8e5e-4bf5-b5e1-2fc40f396b7c","system_id":"levelo_inurba_marseille","lat":43.30553,"lon":5.38413,"is_reserved":false,"is_disabled":true,"rental_uris":{"android":"levelo://app?vid=2055a81d-8e5e-4bf5-b5e1-2fc40f396b7c","ios":"levelo://app?vid=2055a81d-8e5e-4bf5-b5e1-2fc40f396b7c"},"vehicle_type_id":"4","last_reported":1738685483,"current_range_meters":32000,"station_id":"ce4bgg92rcd13ifvqb30","pricing_plan_id":"cebpf4jnsgd1na2vs0mg"},{"bike_id":"da05f112-ffb2-4f41-a3cb-99544f3f7f0e","system_id":"levelo_inurba_marseille","lat":43.30544,"lon":5.367,"is_reserved":false,"is_disabled":false,"rental_uris":{"android":"levelo://app?vid=da05f112-ffb2-4f41-a3cb-99544f3f7f0e","ios":"levelo://app?vid=da05f112-ffb2-4f41-a3cb-99544f3f7f0e"},"vehicle_type_id":"4","last_reported":1738685483,"current_range_meters":33200,"station_id":"ce4bgrp2rcd13ifvqc9g","pricing_plan_id":"cebpf4jnsgd1na2vs0mg"},{"bike_id":"7a7be061-dcd8-4fa1-99a0-1c18453e11cb","system_id":"levelo_inurba_marseille","lat":43.26227,"lon":5.40449,"is_reserved":false,"is_disabled":false,"rental_uris":{"android":"levelo://app?vid=7a7be061-dcd8-4fa1-99a0-1c18453e11cb","ios":"levelo://app?vid=7a7be061-dcd8-4fa1-99a0-1c18453e11cb"},"vehicle_type_id":"4","last_reported":1738685483,"current_range_meters":6800,"station_id":"ce4bhmh2rcd13ifvqgmg","pricing_plan_id":"cebpf4jnsgd1na2vs0mg"},{"bike_id":"bb846df9-2969-480a-aed6-edbcf9c326fb","system_id":"levelo_inurba_marseille","lat":43.24814,"lon":5.37463,"is_reserved":false,"is_disabled":false,"rental_uris":{"android":"levelo://app?vid=bb846df9-2969-480a-aed6-edbcf9c326fb","ios":"levelo://app?vid=bb846df9-2969-480a-aed6-edbcf9c326fb"},"vehicle_type_id":"4","last_reported":1738685483,"current_range_meters":24800,"station_id":"ce4bhgh2rcd13ifvqfb0","pricing_plan_id":"cebpf4jnsgd1na2vs0mg"},{"bike_id":"f7b06ef1-8fe2-49dc-97bf-948e009e701e","system_id":"levelo_inurba_marseille","lat":43.29253,"lon":5.38445,"is_reserved":false,"is_disabled":true,"rental_uris":{"android":"levelo://app?vid=f7b06ef1-8fe2-49dc-97bf-948e009e701e","ios":"levelo://app?vid=f7b06ef1-8fe2-49dc-97bf-948e009e701e"},"vehicle_type_id":"4","last_reported":1738685483,"current_range_meters":12000,"station_id":"ce4bh692rcd13ifvqea0","pricing_plan_id":"cebpf4jnsgd1na2vs0mg"},{"bike_id":"cd07e062-2af1-406e-bcb9-5f1ec4730937","system_id":"levelo_inurba_marseille","lat":43.23068,"lon":5.35503,"is_reserved":false,"is_disabled":false,"rental_uris":{"android":"levelo://app?vid=cd07e062-2af1-406e-bcb9-5f1ec4730937","ios":"levelo://app?vid=cd07e062-2af1-406e-bcb9-5f1ec4730937"},"vehicle_type_id":"4","last_reported":1738685483,"current_range_meters":8400,"station_id":"cpo3342slgdg3j2ifvpg","pricing_plan_id":"cebpf4jnsgd1na2vs0mg"},{"bike_id":"c3644d12-8427-4602-9945-9ef42c46feca","system_id":"levelo_inurba_marseille","lat":43.24166,"lon":5.36402,"is_reserved":false,"is_disabled":false,"rental_uris":{"android":"levelo://app?vid=c3644d12-8427-4602-9945-9ef42c46feca","ios":"levelo://app?vid=c3644d12-8427-4602-9945-9ef42c46feca"},"vehicle_type_id":"4","last_reported":1738685483,"current_range_meters":12800,"station_id":"cpo36qri1sfpv3e86is0","pricing_plan_id":"cebpf4jnsgd1na2vs0mg"},{"bike_id":"c63fc382-f0a8-4f5d-988c-41b6516dbf79","system_id":"levelo_inurba_marseille","lat":43.28619,"lon":5.35112,"is_reserved":false,"is_disabled":false,"rental_uris":{"android":"levelo://app?vid=c63fc382-f0a8-4f5d-988c-41b6516dbf79","ios":"levelo://app?vid=c63fc382-f0a8-4f5d-988c-41b6516dbf79"},"vehicle_type_id":"4","last_reported":1738685483,"current_range_meters":16000,"station_id":"ce4bhch2rcd13ifvqeug","pricing_plan_id":"cebpf4jnsgd1na2vs0mg"},{"bike_id":"516f2549-79cf-4297-a0ad-3d3f06a71f80","system_id":"levelo_inurba_marseille","lat":43.31715,"lon":5.42416,"is_reserved":false,"is_disabled":true,"rental_uris":{"android":"levelo://app?vid=516f2549-79cf-4297-a0ad-3d3f06a71f80","ios":"levelo://app?vid=516f2549-79cf-4297-a0ad-3d3f06a71f80"},"vehicle_type_id":"4","last_reported":1738685483,"current_range_meters":2000,"station_id":"ce4bhp92rcd13ifvqhbg","pricing_plan_id":"cebpf4jnsgd1na2vs0mg"},{"bike_id":"751fac2e-ef11-4a23-92a3-eb0ddf16dfcd","system_id":"levelo_inurba_marseille","lat":43.28146,"lon":5.42645,"is_reserved":false,"is_disabled":false,"rental_uris":{"android":"levelo://app?vid=751fac2e-ef11-4a23-92a3-eb0ddf16dfcd","ios":"levelo://app?vid=751fac2e-ef11-4a23-92a3-eb0ddf16dfcd"},"vehicle_type_id":"4","last_reported":1738685483,"current_range_meters":15200,"station_id":"ce4bhnh2rcd13ifvqgug","pricing_plan_id":"cebpf4jnsgd1na2vs0mg"},{"bike_id":"670803b2-80ef-4a70-8583-de7af10c6bc0","system_id":"levelo_inurba_marseille","lat":43.2953,"lon":5.39424,"is_reserved":false,"is_disabled":false,"rental_uris":{"android":"levelo://app?vid=670803b2-80ef-4a70-8583-de7af10c6bc0","ios":"levelo://app?vid=670803b2-80ef-4a70-8583-de7af10c6bc0"},"vehicle_type_id":"4","last_reported":1738685483,"current_range_meters":38400,"station_id":"ce4bh292rcd13ifvqdf0","pricing_plan_id":"cebpf4jnsgd1na2vs0mg"},{"bike_id":"8ef0e9d0-cc1c-4c7b-918e-e518efe6eca6","system_id":"levelo_inurba_marseille","lat":43.31172,"lon":5.38724,"is_reserved":false,"is_disabled":false,"rental_uris":{"android":"levelo://app?vid=8ef0e9d0-cc1c-4c7b-918e-e518efe6eca6","ios":"levelo://app?vid=8ef0e9d0-cc1c-4c7b-918e-e518efe6eca6"},"vehicle_type_id":"4","last_reported":1738685483,"current_range_meters":28000,"station_id":"ce4bgv12rcd13ifvqcp0","pricing_plan_id":"cebpf4jnsgd1na2vs0mg"},{"bike_id":"57cc5f6e-9c57-4235-9a68-9d32445ce2e4","system_id":"levelo_inurba_marseille","lat":43.29193,"lon":5.3606,"is_reserved":false,"is_disabled":false,"rental_uris":{"android":"levelo://app?vid=57cc5f6e-9c57-4235-9a68-9d32445ce2e4","ios":"levelo://app?vid=57cc5f6e-9c57-4235-9a68-9d32445ce2e4"},"vehicle_type_id":"4","last_reported":1738685483,"current_range_meters":8800,"station_id":"ce4bhbh2rcd13ifvqeqg","pricing_plan_id":"cebpf4jnsgd1na2vs0mg"},{"bike_id":"0583ef0d-bc00-438f-a5c6-4d0d32f322c9","system_id":"levelo_inurba_marseille","lat":43.29724,"lon":5.36625,"is_reserved":false,"is_disabled":false,"rental_uris":{"android":"levelo://app?vid=0583ef0d-bc00-438f-a5c6-4d0d32f322c9","ios":"levelo://app?vid=0583ef0d-bc00-438f-a5c6-4d0d32f322c9"},"vehicle_type_id":"4","last_reported":1738685483,"current_range_meters":9200,"station_id":"ce4bgn12rcd13ifvqbt0","pricing_plan_id":"cebpf4jnsgd1na2vs0mg"},{"bike_id":"2cf89d7f-ca43-4d74-8eef-dbb802943768","system_id":"levelo_inurba_marseille","lat":43.28618,"lon":5.35109,"is_reserved":false,"is_disabled":false,"rental_uris":{"android":"levelo://app?vid=2cf89d7f-ca43-4d74-8eef-dbb802943768","ios":"levelo://app?vid=2cf89d7f-ca43-4d74-8eef-dbb802943768"},"vehicle_type_id":"4","last_reported":1738685483,"current_range_meters":33600,"station_id":"ce4bhch2rcd13ifvqeug","pricing_plan_id":"cebpf4jnsgd1na2vs0mg"},{"bike_id":"45a7daa2-2a2e-4454-90c3-1009aaecc5bd","system_id":"levelo_inurba_marseille","lat":43.23199,"lon":5.35553,"is_reserved":false,"is_disabled":false,"rental_uris":{"android":"levelo://app?vid=45a7daa2-2a2e-4454-90c3-1009aaecc5bd","ios":"levelo://app?vid=45a7daa2-2a2e-4454-90c3-1009aaecc5bd"},"vehicle_type_id":"4","last_reported":1738685483,"current_range_meters":8400,"station_id":"ce4bhu92rcd13ifvqi70","pricing_plan_id":"cebpf4jnsgd1na2vs0mg"},{"bike_id":"3022d964-2ce8-480e-a7b4-4db2285b929c","system_id":"levelo_inurba_marseille","lat":43.27995,"lon":5.41669,"is_reserved":false,"is_disabled":false,"rental_uris":{"android":"levelo://app?vid=3022d964-2ce8-480e-a7b4-4db2285b929c","ios":"levelo://app?vid=3022d964-2ce8-480e-a7b4-4db2285b929c"},"vehicle_type_id":"4","last_reported":1738685483,"current_range_meters":22400,"station_id":"ce4bho12rcd13ifvqh1g","pricing_plan_id":"cebpf4jnsgd1na2vs0mg"},{"bike_id":"74ac9332-b9cb-4e06-889e-59e58441238a","system_id":"levelo_inurba_marseille","lat":43.307068,"lon":5.40101,"is_reserved":false,"is_disabled":false,"rental_uris":{"android":"levelo://app?vid=74ac9332-b9cb-4e06-889e-59e58441238a","ios":"levelo://app?vid=74ac9332-b9cb-4e06-889e-59e58441238a"},"vehicle_type_id":"4","last_reported":1738685483,"current_range_meters":39200,"station_id":"ce4bh112rcd13ifvqda0","pricing_plan_id":"cebpf4jnsgd1na2vs0mg"},{"bike_id":"798d4fb3-33c4-4fe4-8dc7-7ea41c6a8d01","system_id":"levelo_inurba_marseille","lat":43.29981,"lon":5.37175,"is_reserved":false,"is_disabled":false,"rental_uris":{"android":"levelo://app?vid=798d4fb3-33c4-4fe4-8dc7-7ea41c6a8d01","ios":"levelo://app?vid=798d4fb3-33c4-4fe4-8dc7-7ea41c6a8d01"},"vehicle_type_id":"4","last_reported":1738685483,"current_range_meters":22800,"station_id":"ce4bgr92rcd13ifvqc7g","pricing_plan_id":"cebpf4jnsgd1na2vs0mg"},{"bike_id":"c9e52d37-8631-4772-b657-47dd6f42d4bd","system_id":"levelo_inurba_marseille","lat":43.30547,"lon":5.36531,"is_reserved":false,"is_disabled":false,"rental_uris":{"android":"levelo://app?vid=c9e52d37-8631-4772-b657-47dd6f42d4bd","ios":"levelo://app?vid=c9e52d37-8631-4772-b657-47dd6f42d4bd"},"vehicle_type_id":"4","last_reported":1738685483,"current_range_meters":15200,"station_id":"ce4bgs12rcd13ifvqcag","pricing_plan_id":"cebpf4jnsgd1na2vs0mg"},{"bike_id":"919212fb-f151-4bc5-ab23-d704e5dea3d7","system_id":"levelo_inurba_marseille","lat":43.2872,"lon":5.37939,"is_reserved":false,"is_disabled":false,"rental_uris":{"android":"levelo://app?vid=919212fb-f151-4bc5-ab23-d704e5dea3d7","ios":"levelo://app?vid=919212fb-f151-4bc5-ab23-d704e5dea3d7"},"vehicle_type_id":"4","last_reported":1738685483,"current_range_meters":2800,"station_id":"ce4bh9p2rcd13ifvqec0","pricing_plan_id":"cebpf4jnsgd1na2vs0mg"},{"bike_id":"c6ae0839-efd7-420d-b320-aac368d7bcba","system_id":"levelo_inurba_marseille","lat":43.27071,"lon":5.42275,"is_reserved":false,"is_disabled":false,"rental_uris":{"android":"levelo://app?vid=c6ae0839-efd7-420d-b320-aac368d7bcba","ios":"levelo://app?vid=c6ae0839-efd7-420d-b320-aac368d7bcba"},"vehicle_type_id":"4","last_reported":1738685483,"current_range_meters":19200,"station_id":"ce4bhk92rcd13ifvqgb0","pricing_plan_id":"cebpf4jnsgd1na2vs0mg"},{"bike_id":"35798297-b936-47d1-8a98-bfdb50e14c75","system_id":"levelo_inurba_marseille","lat":43.32065,"lon":5.43314,"is_reserved":false,"is_disabled":true,"rental_uris":{"android":"levelo://app?vid=35798297-b936-47d1-8a98-bfdb50e14c75","ios":"levelo://app?vid=35798297-b936-47d1-8a98-bfdb50e14c75"},"vehicle_type_id":"4","last_reported":1738685483,"current_range_meters":36800,"station_id":"","pricing_plan_id":"cebpf4jnsgd1na2vs0mg"},{"bike_id":"ea5d774f-7eab-4828-a560-1535ca043c02","system_id":"levelo_inurba_marseille","lat":43.28427,"lon":5.34993,"is_reserved":false,"is_disabled":false,"rental_uris":{"android":"levelo://app?vid=ea5d774f-7eab-4828-a560-1535ca043c02","ios":"levelo://app?vid=ea5d774f-7eab-4828-a560-1535ca043c02"},"vehicle_type_id":"4","last_reported":1738685483,"current_range_meters":38800,"station_id":"ce4bhbh2rcd13ifvqepg","pricing_plan_id":"cebpf4jnsgd1na2vs0mg"},{"bike_id":"e6dc612f-7f56-4634-8aac-2cfefb7b3910","system_id":"levelo_inurba_marseille","lat":43.28274,"lon":5.35069,"is_reserved":false,"is_disabled":true,"rental_uris":{"android":"levelo://app?vid=e6dc612f-7f56-4634-8aac-2cfefb7b3910","ios":"levelo://app?vid=e6dc612f-7f56-4634-8aac-2cfefb7b3910"},"vehicle_type_id":"4","last_reported":1738685483,"current_range_meters":30800,"station_id":"ce4bhbp2rcd13ifvqerg","pricing_plan_id":"cebpf4jnsgd1na2vs0mg"},{"bike_id":"866129f9-73e3-4490-aa31-a7ad95306b09","system_id":"levelo_inurba_marseille","lat":43.29423,"lon":5.38623,"is_reserved":false,"is_disabled":false,"rental_uris":{"android":"levelo://app?vid=866129f9-73e3-4490-aa31-a7ad95306b09","ios":"levelo://app?vid=866129f9-73e3-4490-aa31-a7ad95306b09"},"vehicle_type_id":"4","last_reported":1738685483,"current_range_meters":18000,"station_id":"ce4bh2h2rcd13ifvqdh0","pricing_plan_id":"cebpf4jnsgd1na2vs0mg"},{"bike_id":"0a1ad481-35fa-4ced-9992-bed62a569e3a","system_id":"levelo_inurba_marseille","lat":43.31758,"lon":5.3902,"is_reserved":false,"is_disabled":false,"rental_uris":{"android":"levelo://app?vid=0a1ad481-35fa-4ced-9992-bed62a569e3a","ios":"levelo://app?vid=0a1ad481-35fa-4ced-9992-bed62a569e3a"},"vehicle_type_id":"4","last_reported":1738685483,"current_range_meters":9600,"station_id":"ce4bhqp2rcd13ifvqhng","pricing_plan_id":"cebpf4jnsgd1na2vs0mg"},{"bike_id":"48a3f017-a474-490e-a7e8-15c5850cbbb4","system_id":"levelo_inurba_marseille","lat":43.28354,"lon":5.38659,"is_reserved":false,"is_disabled":true,"rental_uris":{"android":"levelo://app?vid=48a3f017-a474-490e-a7e8-15c5850cbbb4","ios":"levelo://app?vid=48a3f017-a474-490e-a7e8-15c5850cbbb4"},"vehicle_type_id":"4","last_reported":1738685483,"current_range_meters":1200,"station_id":"ce4bh492rcd13ifvqdvg","pricing_plan_id":"cebpf4jnsgd1na2vs0mg"},{"bike_id":"297a4a02-2730-48f7-b051-15a6abe2b802","system_id":"levelo_inurba_marseille","lat":43.31283,"lon":5.40177,"is_reserved":false,"is_disabled":false,"rental_uris":{"android":"levelo://app?vid=297a4a02-2730-48f7-b051-15a6abe2b802","ios":"levelo://app?vid=297a4a02-2730-48f7-b051-15a6abe2b802"},"vehicle_type_id":"4","last_reported":1738685483,"current_range_meters":8800,"station_id":"ce4bh092rcd13ifvqd30","pricing_plan_id":"cebpf4jnsgd1na2vs0mg"},{"bike_id":"637c3436-3246-4528-a804-501c70d08596","system_id":"levelo_inurba_marseille","lat":43.29539,"lon":5.39053,"is_reserved":false,"is_disabled":false,"rental_uris":{"android":"levelo://app?vid=637c3436-3246-4528-a804-501c70d08596","ios":"levelo://app?vid=637c3436-3246-4528-a804-501c70d08596"},"vehicle_type_id":"4","last_reported":1738685483,"current_range_meters":20400,"station_id":"ce4bh3p2rcd13ifvqdp0","pricing_plan_id":"cebpf4jnsgd1na2vs0mg"},{"bike_id":"803b226a-c9a9-4a71-bee7-dce0690502ee","system_id":"levelo_inurba_marseille","lat":43.29036,"lon":5.37566,"is_reserved":false,"is_disabled":false,"rental_uris":{"android":"levelo://app?vid=803b226a-c9a9-4a71-bee7-dce0690502ee","ios":"levelo://app?vid=803b226a-c9a9-4a71-bee7-dce0690502ee"},"vehicle_type_id":"4","last_reported":1738685483,"current_range_meters":38000,"station_id":"ce4bh692rcd13ifvqe90","pricing_plan_id":"cebpf4jnsgd1na2vs0mg"},{"bike_id":"6bb18b6b-35db-4080-8375-2a2e83c6fc4b","system_id":"levelo_inurba_marseille","lat":43.23176,"lon":5.43694,"is_reserved":false,"is_disabled":true,"rental_uris":{"android":"levelo://app?vid=6bb18b6b-35db-4080-8375-2a2e83c6fc4b","ios":"levelo://app?vid=6bb18b6b-35db-4080-8375-2a2e83c6fc4b"},"vehicle_type_id":"4","last_reported":1738685483,"current_range_meters":38800,"station_id":"ce4bhmp2rcd13ifvqgog","pricing_plan_id":"cebpf4jnsgd1na2vs0mg"},{"bike_id":"c0a3a442-67a0-40bd-8014-408a01235cc1","system_id":"levelo_inurba_marseille","lat":43.29529,"lon":5.39411,"is_reserved":false,"is_disabled":false,"rental_uris":{"android":"levelo://app?vid=c0a3a442-67a0-40bd-8014-408a01235cc1","ios":"levelo://app?vid=c0a3a442-67a0-40bd-8014-408a01235cc1"},"vehicle_type_id":"4","last_reported":1738685483,"current_range_meters":25200,"station_id":"ce4bh292rcd13ifvqdf0","pricing_plan_id":"cebpf4jnsgd1na2vs0mg"},{"bike_id":"4c938425-c231-42e7-aed2-476a37f6fa3f","system_id":"levelo_inurba_marseille","lat":43.29051,"lon":5.39946,"is_reserved":false,"is_disabled":true,"rental_uris":{"android":"levelo://app?vid=4c938425-c231-42e7-aed2-476a37f6fa3f","ios":"levelo://app?vid=4c938425-c231-42e7-aed2-476a37f6fa3f"},"vehicle_type_id":"4","last_reported":1738685483,"current_range_meters":800,"station_id":"ce4bh392rcd13ifvqdm0","pricing_plan_id":"cebpf4jnsgd1na2vs0mg"},{"bike_id":"787b7837-f258-4886-bbf5-841ee39c0166","system_id":"levelo_inurba_marseille","lat":43.2828,"lon":5.35068,"is_reserved":false,"is_disabled":true,"rental_uris":{"android":"levelo://app?vid=787b7837-f258-4886-bbf5-841ee39c0166","ios":"levelo://app?vid=787b7837-f258-4886-bbf5-841ee39c0166"},"vehicle_type_id":"4","last_reported":1738685483,"current_range_meters":36800,"station_id":"ce4bhbp2rcd13ifvqerg","pricing_plan_id":"cebpf4jnsgd1na2vs0mg"},{"bike_id":"35e9be92-813b-4a24-804a-34341a2b466d","system_id":"levelo_inurba_marseille","lat":43.264916,"lon":5.3954,"is_reserved":false,"is_disabled":false,"rental_uris":{"android":"levelo://app?vid=35e9be92-813b-4a24-804a-34341a2b466d","ios":"levelo://app?vid=35e9be92-813b-4a24-804a-34341a2b466d"},"vehicle_type_id":"4","last_reported":1738685483,"current_range_meters":38800,"station_id":"ce4bhi12rcd13ifvqfq0","pricing_plan_id":"cebpf4jnsgd1na2vs0mg"},{"bike_id":"6f5a1112-5cfe-4ef0-a162-b9d7e241b871","system_id":"levelo_inurba_marseille","lat":43.30546,"lon":5.36675,"is_reserved":false,"is_disabled":false,"rental_uris":{"android":"levelo://app?vid=6f5a1112-5cfe-4ef0-a162-b9d7e241b871","ios":"levelo://app?vid=6f5a1112-5cfe-4ef0-a162-b9d7e241b871"},"vehicle_type_id":"4","last_reported":1738685483,"current_range_meters":36800,"station_id":"ce4bgrp2rcd13ifvqc9g","pricing_plan_id":"cebpf4jnsgd1na2vs0mg"},{"bike_id":"eac8e106-76e0-4f1b-81af-4eaefecd2501","system_id":"levelo_inurba_marseille","lat":43.25016,"lon":5.38937,"is_reserved":false,"is_disabled":false,"rental_uris":{"android":"levelo://app?vid=eac8e106-76e0-4f1b-81af-4eaefecd2501","ios":"levelo://app?vid=eac8e106-76e0-4f1b-81af-4eaefecd2501"},"vehicle_type_id":"4","last_reported":1738685483,"current_range_meters":16000,"station_id":"ce4bhgp2rcd13ifvqfd0","pricing_plan_id":"cebpf4jnsgd1na2vs0mg"},{"bike_id":"66437f3c-e715-420b-9ac1-a88c5c69a7e9","system_id":"levelo_inurba_marseille","lat":43.3249,"lon":5.36588,"is_reserved":false,"is_disabled":false,"rental_uris":{"android":"levelo://app?vid=66437f3c-e715-420b-9ac1-a88c5c69a7e9","ios":"levelo://app?vid=66437f3c-e715-420b-9ac1-a88c5c69a7e9"},"vehicle_type_id":"4","last_reported":1738685483,"current_range_meters":32400,"station_id":"ce4bhs12rcd13ifvqhvg","pricing_plan_id":"cebpf4jnsgd1na2vs0mg"},{"bike_id":"2c3f911e-c161-4958-8638-34d88ff6dd3f","system_id":"levelo_inurba_marseille","lat":43.30592,"lon":5.3936,"is_reserved":false,"is_disabled":false,"rental_uris":{"android":"levelo://app?vid=2c3f911e-c161-4958-8638-34d88ff6dd3f","ios":"levelo://app?vid=2c3f911e-c161-4958-8638-34d88ff6dd3f"},"vehicle_type_id":"4","last_reported":1738685483,"current_range_meters":26000,"station_id":"ce4bh0p2rcd13ifvqd80","pricing_plan_id":"cebpf4jnsgd1na2vs0mg"},{"bike_id":"79e2cdce-de89-4d4d-9cc4-12889e5b4f33","system_id":"levelo_inurba_marseille","lat":43.29993,"lon":5.38493,"is_reserved":false,"is_disabled":false,"rental_uris":{"android":"levelo://app?vid=79e2cdce-de89-4d4d-9cc4-12889e5b4f33","ios":"levelo://app?vid=79e2cdce-de89-4d4d-9cc4-12889e5b4f33"},"vehicle_type_id":"4","last_reported":1738685483,"current_range_meters":36800,"station_id":"ce4bgj92rcd13ifvqbd0","pricing_plan_id":"cebpf4jnsgd1na2vs0mg"},{"bike_id":"0256ff3c-1df4-4ca0-9ab5-dd91799ec05e","system_id":"levelo_inurba_marseille","lat":43.28867,"lon":5.35859,"is_reserved":false,"is_disabled":false,"rental_uris":{"android":"levelo://app?vid=0256ff3c-1df4-4ca0-9ab5-dd91799ec05e","ios":"levelo://app?vid=0256ff3c-1df4-4ca0-9ab5-dd91799ec05e"},"vehicle_type_id":"4","last_reported":1738685483,"current_range_meters":37600,"station_id":"ce4bhb12rcd13ifvqem0","pricing_plan_id":"cebpf4jnsgd1na2vs0mg"},{"bike_id":"c0ee505a-bf8b-4268-ade4-2cd336eda26b","system_id":"levelo_inurba_marseille","lat":43.31171,"lon":5.38726,"is_reserved":false,"is_disabled":false,"rental_uris":{"android":"levelo://app?vid=c0ee505a-bf8b-4268-ade4-2cd336eda26b","ios":"levelo://app?vid=c0ee505a-bf8b-4268-ade4-2cd336eda26b"},"vehicle_type_id":"4","last_reported":1738685483,"current_range_meters":17200,"station_id":"ce4bgv12rcd13ifvqcp0","pricing_plan_id":"cebpf4jnsgd1na2vs0mg"},{"bike_id":"61ceb31b-03f6-4213-9b34-0374ee45b479","system_id":"levelo_inurba_marseille","lat":43.321059,"lon":5.367816,"is_reserved":false,"is_disabled":false,"rental_uris":{"android":"levelo://app?vid=61ceb31b-03f6-4213-9b34-0374ee45b479","ios":"levelo://app?vid=61ceb31b-03f6-4213-9b34-0374ee45b479"},"vehicle_type_id":"4","last_reported":1738685483,"current_range_meters":24800,"station_id":"ce4bhrh2rcd13ifvqhug","pricing_plan_id":"cebpf4jnsgd1na2vs0mg"},{"bike_id":"7b3a00e0-f748-4f76-8a86-a3522332e99e","system_id":"levelo_inurba_marseille","lat":43.2897,"lon":5.37845,"is_reserved":false,"is_disabled":false,"rental_uris":{"android":"levelo://app?vid=7b3a00e0-f748-4f76-8a86-a3522332e99e","ios":"levelo://app?vid=7b3a00e0-f748-4f76-8a86-a3522332e99e"},"vehicle_type_id":"4","last_reported":1738685483,"current_range_meters":33600,"station_id":"ce4bh9p2rcd13ifvqed0","pricing_plan_id":"cebpf4jnsgd1na2vs0mg"},{"bike_id":"267048d3-41a9-47e1-a8db-3d84f8cb2f7c","system_id":"levelo_inurba_marseille","lat":43.2955,"lon":5.39035,"is_reserved":false,"is_disabled":false,"rental_uris":{"android":"levelo://app?vid=267048d3-41a9-47e1-a8db-3d84f8cb2f7c","ios":"levelo://app?vid=267048d3-41a9-47e1-a8db-3d84f8cb2f7c"},"vehicle_type_id":"4","last_reported":1738685483,"current_range_meters":38800,"station_id":"ce4bh3p2rcd13ifvqdp0","pricing_plan_id":"cebpf4jnsgd1na2vs0mg"},{"bike_id":"c322498b-971c-4774-a775-9df1558e42d2","system_id":"levelo_inurba_marseille","lat":43.29378,"lon":5.37852,"is_reserved":false,"is_disabled":true,"rental_uris":{"android":"levelo://app?vid=c322498b-971c-4774-a775-9df1558e42d2","ios":"levelo://app?vid=c322498b-971c-4774-a775-9df1558e42d2"},"vehicle_type_id":"4","last_reported":1738685483,"current_range_meters":30000,"station_id":"ce4bgjh2rcd13ifvqbf0","pricing_plan_id":"cebpf4jnsgd1na2vs0mg"},{"bike_id":"2706fcf5-1716-4297-ba14-01e143d132c9","system_id":"levelo_inurba_marseille","lat":43.30149,"lon":5.38078,"is_reserved":false,"is_disabled":false,"rental_uris":{"android":"levelo://app?vid=2706fcf5-1716-4297-ba14-01e143d132c9","ios":"levelo://app?vid=2706fcf5-1716-4297-ba14-01e143d132c9"},"vehicle_type_id":"4","last_reported":1738685483,"current_range_meters":20800,"station_id":"ce4bgjp2rcd13ifvqbh0","pricing_plan_id":"cebpf4jnsgd1na2vs0mg"},{"bike_id":"f320027a-5fa4-4a04-ac6a-616b2c4dd5fe","system_id":"levelo_inurba_marseille","lat":43.29569,"lon":5.39982,"is_reserved":false,"is_disabled":false,"rental_uris":{"android":"levelo://app?vid=f320027a-5fa4-4a04-ac6a-616b2c4dd5fe","ios":"levelo://app?vid=f320027a-5fa4-4a04-ac6a-616b2c4dd5fe"},"vehicle_type_id":"4","last_reported":1738685483,"current_range_meters":38000,"station_id":"ce4bh312rcd13ifvqdj0","pricing_plan_id":"cebpf4jnsgd1na2vs0mg"},{"bike_id":"ac8ca13e-c435-4cf8-b4ae-43fa8a79dd9c","system_id":"levelo_inurba_marseille","lat":43.2963,"lon":5.40601,"is_reserved":false,"is_disabled":false,"rental_uris":{"android":"levelo://app?vid=ac8ca13e-c435-4cf8-b4ae-43fa8a79dd9c","ios":"levelo://app?vid=ac8ca13e-c435-4cf8-b4ae-43fa8a79dd9c"},"vehicle_type_id":"4","last_reported":1738685483,"current_range_meters":24400,"station_id":"ce4bh0h2rcd13ifvqd60","pricing_plan_id":"cebpf4jnsgd1na2vs0mg"},{"bike_id":"e5f34f7c-c503-40c2-aeb7-a92c676b8443","system_id":"levelo_inurba_marseille","lat":43.28718,"lon":5.40003,"is_reserved":false,"is_disabled":true,"rental_uris":{"android":"levelo://app?vid=e5f34f7c-c503-40c2-aeb7-a92c676b8443","ios":"levelo://app?vid=e5f34f7c-c503-40c2-aeb7-a92c676b8443"},"vehicle_type_id":"4","last_reported":1738685483,"current_range_meters":0,"station_id":"ce4bho92rcd13ifvqh3g","pricing_plan_id":"cebpf4jnsgd1na2vs0mg"},{"bike_id":"06b948e0-80a8-479d-b506-6c0e8883522c","system_id":"levelo_inurba_marseille","lat":43.3054,"lon":5.36698,"is_reserved":false,"is_disabled":false,"rental_uris":{"android":"levelo://app?vid=06b948e0-80a8-479d-b506-6c0e8883522c","ios":"levelo://app?vid=06b948e0-80a8-479d-b506-6c0e8883522c"},"vehicle_type_id":"4","last_reported":1738685483,"current_range_meters":36800,"station_id":"ce4bgrp2rcd13ifvqc9g","pricing_plan_id":"cebpf4jnsgd1na2vs0mg"},{"bike_id":"982759eb-b654-4e86-8e5f-84ccdf0fd4f4","system_id":"levelo_inurba_marseille","lat":43.30778,"lon":5.37648,"is_reserved":false,"is_disabled":false,"rental_uris":{"android":"levelo://app?vid=982759eb-b654-4e86-8e5f-84ccdf0fd4f4","ios":"levelo://app?vid=982759eb-b654-4e86-8e5f-84ccdf0fd4f4"},"vehicle_type_id":"4","last_reported":1738685483,"current_range_meters":39200,"station_id":"ce4bgv92rcd13ifvqcq0","pricing_plan_id":"cebpf4jnsgd1na2vs0mg"},{"bike_id":"41fc22b2-e4a5-4bf7-8b06-f43e582920bd","system_id":"levelo_inurba_marseille","lat":43.29604,"lon":5.37707,"is_reserved":false,"is_disabled":false,"rental_uris":{"android":"levelo://app?vid=41fc22b2-e4a5-4bf7-8b06-f43e582920bd","ios":"levelo://app?vid=41fc22b2-e4a5-4bf7-8b06-f43e582920bd"},"vehicle_type_id":"4","last_reported":1738685483,"current_range_meters":37600,"station_id":"ce4bgi92rcd13ifvqb90","pricing_plan_id":"cebpf4jnsgd1na2vs0mg"},{"bike_id":"f22ab9c4-4472-465c-9846-9bcae534d3af","system_id":"levelo_inurba_marseille","lat":43.323702,"lon":5.367704,"is_reserved":false,"is_disabled":false,"rental_uris":{"android":"levelo://app?vid=f22ab9c4-4472-465c-9846-9bcae534d3af","ios":"levelo://app?vid=f22ab9c4-4472-465c-9846-9bcae534d3af"},"vehicle_type_id":"4","last_reported":1738685483,"current_range_meters":29600,"station_id":"ce4bhsh2rcd13ifvqi2g","pricing_plan_id":"cebpf4jnsgd1na2vs0mg"},{"bike_id":"c51d39ba-4b67-43e5-88d6-3fc25608739e","system_id":"levelo_inurba_marseille","lat":43.28417,"lon":5.35002,"is_reserved":false,"is_disabled":false,"rental_uris":{"android":"levelo://app?vid=c51d39ba-4b67-43e5-88d6-3fc25608739e","ios":"levelo://app?vid=c51d39ba-4b67-43e5-88d6-3fc25608739e"},"vehicle_type_id":"4","last_reported":1738685483,"current_range_meters":23200,"station_id":"ce4bhbh2rcd13ifvqepg","pricing_plan_id":"cebpf4jnsgd1na2vs0mg"},{"bike_id":"f83789d2-ed62-4dfb-a73b-208684be8538","system_id":"levelo_inurba_marseille","lat":43.26574,"lon":5.3901,"is_reserved":false,"is_disabled":false,"rental_uris":{"android":"levelo://app?vid=f83789d2-ed62-4dfb-a73b-208684be8538","ios":"levelo://app?vid=f83789d2-ed62-4dfb-a73b-208684be8538"},"vehicle_type_id":"4","last_reported":1738685483,"current_range_meters":32800,"station_id":"ce4bhe12rcd13ifvqf30","pricing_plan_id":"cebpf4jnsgd1na2vs0mg"},{"bike_id":"7b39ed00-86df-4303-bda1-bfc0fee1e7e2","system_id":"levelo_inurba_marseille","lat":43.32464,"lon":5.45554,"is_reserved":false,"is_disabled":false,"rental_uris":{"android":"levelo://app?vid=7b39ed00-86df-4303-bda1-bfc0fee1e7e2","ios":"levelo://app?vid=7b39ed00-86df-4303-bda1-bfc0fee1e7e2"},"vehicle_type_id":"4","last_reported":1738685483,"current_range_meters":24400,"station_id":"","pricing_plan_id":"cebpf4jnsgd1na2vs0mg"},{"bike_id":"9736f717-5d6f-4dd2-a7f1-bb087b3e9e13","system_id":"levelo_inurba_marseille","lat":43.28156,"lon":5.42637,"is_reserved":false,"is_disabled":false,"rental_uris":{"android":"levelo://app?vid=9736f717-5d6f-4dd2-a7f1-bb087b3e9e13","ios":"levelo://app?vid=9736f717-5d6f-4dd2-a7f1-bb087b3e9e13"},"vehicle_type_id":"4","last_reported":1738685483,"current_range_meters":8000,"station_id":"ce4bhnh2rcd13ifvqgug","pricing_plan_id":"cebpf4jnsgd1na2vs0mg"},{"bike_id":"1204b539-144f-4ee7-97e1-36f525469573","system_id":"levelo_inurba_marseille","lat":43.29523,"lon":5.39046,"is_reserved":false,"is_disabled":false,"rental_uris":{"android":"levelo://app?vid=1204b539-144f-4ee7-97e1-36f525469573","ios":"levelo://app?vid=1204b539-144f-4ee7-97e1-36f525469573"},"vehicle_type_id":"4","last_reported":1738685483,"current_range_meters":8400,"station_id":"ce4bh3p2rcd13ifvqdp0","pricing_plan_id":"cebpf4jnsgd1na2vs0mg"},{"bike_id":"31534464-a915-4d39-b204-d521bb2268b2","system_id":"levelo_inurba_marseille","lat":43.26686,"lon":5.38262,"is_reserved":false,"is_disabled":true,"rental_uris":{"android":"levelo://app?vid=31534464-a915-4d39-b204-d521bb2268b2","ios":"levelo://app?vid=31534464-a915-4d39-b204-d521bb2268b2"},"vehicle_type_id":"4","last_reported":1738685483,"current_range_meters":1600,"station_id":"ce4bhg92rcd13ifvqf90","pricing_plan_id":"cebpf4jnsgd1na2vs0mg"},{"bike_id":"23ab2d4c-bac4-425e-94ab-5eea0f65a636","system_id":"levelo_inurba_marseille","lat":43.27813,"lon":5.40714,"is_reserved":false,"is_disabled":false,"rental_uris":{"android":"levelo://app?vid=23ab2d4c-bac4-425e-94ab-5eea0f65a636","ios":"levelo://app?vid=23ab2d4c-bac4-425e-94ab-5eea0f65a636"},"vehicle_type_id":"4","last_reported":1738685483,"current_range_meters":38000,"station_id":"ce4bhnh2rcd13ifvqgtg","pricing_plan_id":"cebpf4jnsgd1na2vs0mg"},{"bike_id":"c7efea0b-41ab-47c4-93f0-43a53000a63b","system_id":"levelo_inurba_marseille","lat":43.23071,"lon":5.35488,"is_reserved":false,"is_disabled":false,"rental_uris":{"android":"levelo://app?vid=c7efea0b-41ab-47c4-93f0-43a53000a63b","ios":"levelo://app?vid=c7efea0b-41ab-47c4-93f0-43a53000a63b"},"vehicle_type_id":"4","last_reported":1738685483,"current_range_meters":35200,"station_id":"cpo3342slgdg3j2ifvpg","pricing_plan_id":"cebpf4jnsgd1na2vs0mg"},{"bike_id":"7e6ba570-7d56-4652-989b-4e30b8b88ee8","system_id":"levelo_inurba_marseille","lat":43.28719,"lon":5.36103,"is_reserved":false,"is_disabled":false,"rental_uris":{"android":"levelo://app?vid=7e6ba570-7d56-4652-989b-4e30b8b88ee8","ios":"levelo://app?vid=7e6ba570-7d56-4652-989b-4e30b8b88ee8"},"vehicle_type_id":"4","last_reported":1738685483,"current_range_meters":20800,"station_id":"cki0cbj6b192h4jlfktg","pricing_plan_id":"cebpf4jnsgd1na2vs0mg"},{"bike_id":"ac3727c3-ade4-4055-b399-6cfe8071692e","system_id":"levelo_inurba_marseille","lat":43.24391,"lon":5.3706,"is_reserved":false,"is_disabled":false,"rental_uris":{"android":"levelo://app?vid=ac3727c3-ade4-4055-b399-6cfe8071692e","ios":"levelo://app?vid=ac3727c3-ade4-4055-b399-6cfe8071692e"},"vehicle_type_id":"4","last_reported":1738685483,"current_range_meters":36800,"station_id":"ce4bhhh2rcd13ifvqfk0","pricing_plan_id":"cebpf4jnsgd1na2vs0mg"},{"bike_id":"e967e1de-a299-4600-bc61-e46ab8b2c61b","system_id":"levelo_inurba_marseille","lat":43.28417,"lon":5.34994,"is_reserved":false,"is_disabled":false,"rental_uris":{"android":"levelo://app?vid=e967e1de-a299-4600-bc61-e46ab8b2c61b","ios":"levelo://app?vid=e967e1de-a299-4600-bc61-e46ab8b2c61b"},"vehicle_type_id":"4","last_reported":1738685483,"current_range_meters":38800,"station_id":"ce4bhbh2rcd13ifvqepg","pricing_plan_id":"cebpf4jnsgd1na2vs0mg"},