{"last_updated":1703675144,"ttl":30,"version":"2.2","data":{"bikes":[{"bike_id":"c068b27c-bebc-4b1c-887f-5ca0e722a000","system_id":"levelo_inurba_marseille","lat":43.313391,"lon":5.36706,"is_reserved":false,"is_disabled":false,"rental_uris":{"android":"levelo://app?vid=c068b27c-bebc-4b1c-887f-5ca0e722a000","ios":"levelo://app?vid=c068b27c-bebc-4b1c-887f-5ca0e722a000"},"vehicle_type_id":"4","last_reported":1703675144,"current_range_meters":31200,"station_id":"ce4bgr92rcd13ifvqc6g","pricing_plan_id":"free"},{"bike_id":"00baa663-bbe5-4a1c-88bc-6014cd3d8baf","system_id":"levelo_inurba_marseille","lat":43.313391,"lon":5.36706,"is_reserved":false,"is_disabled":false,"rental_uris":{"android":"levelo://app?vid=00baa663-bbe5-4a1c-88bc-6014cd3d8baf","ios":"levelo://app?vid=00baa663-bbe5-4a1c-88bc-6014cd3d8baf"},"vehicle_type_id":"4","last_reported":1703675144,"current_range_meters":27200,"station_id":"ce4bgr92rcd13ifvqc6g","pricing_plan_id":"free"},{"bike_id":"fec82d17-80f9-41a0-b057-c05695af3d9d","system_id":"levelo_inurba_marseille","lat":43.31341,"lon":5.367098,"is_reserved":false,"is_disabled":false,"rental_uris":{"android":"levelo://app?vid=fec82d17-80f9-41a0-b057-c05695af3d9d","ios":"levelo://app?vid=fec82d17-80f9-41a0-b057-c05695af3d9d"},"vehicle_type_id":"4","last_reported":1703675144,"current_range_meters":30400,"station_id":"ce4bgr92rcd13ifvqc6g","pricing_plan_id":"free"},{"bike_id":"b5ae4fd0-6cfb-4d70-aa1a-069e3d88a0d7","system_id":"levelo_inurba_marseille","lat":43.313391,"lon":5.36706,"is_reserved":false,"is_disabled":false,"rental_uris":{"android":"levelo://app?vid=b5ae4fd0-6cfb-4d70-aa1a-069e3d88a0d7","ios":"levelo://app?vid=b5ae4fd0-6cfb-4d70-aa1a-069e3d88a0d7"},"vehicle_type_id":"4","last_reported":1703675144,"current_range_meters":26000,"station_id":"ce4bgr92rcd13ifvqc6g","pricing_plan_id":"free"},{"bike_id":"3d697326-0e90-4b6e-b36a-516d875af404","system_id":"levelo_inurba_marseille","lat":43.31341,"lon":5.367098,"is_reserved":false,"is_disabled":false,"rental_uris":{"android":"levelo://app?vid=3d697326-0e90-4b6e-b36a-516d875af404","ios":"levelo://app?vid=3d697326-0e90-4b6e-b36a-516d875af404"},"vehicle_type_id":"4","last_reported":1703675144,"current_range_meters":26400,"station_id":"ce4bgr92rcd13ifvqc6g","pricing_plan_id":"free"},{"bike_id":"02e1d662-ff29-46f4-a4e6-fe710da7bd5a","system_id":"levelo_inurba_marseille","lat":43.31341,"lon":5.367098,"is_reserved":false,"is_disabled":false,"rental_uris":{"android":"levelo://app?vid=02e1d662-ff29-46f4-a4e6-fe710da7bd5a","ios":"levelo://app?vid=02e1d662-ff29-46f4-a4e6-fe710da7bd5a"},"vehicle_type_id":"4","last_reported":1703675144,"current_range_meters":30000,"station_id":"ce4bgr92rcd13ifvqc6g","pricing_plan_id":"free"},{"bike_id":"1ce9bab2-2cf8-44f0-acea-13deb0998b57","system_id":"levelo_inurba_marseille","lat":43.31341,"lon":5.367098,"is_reserved":false,"is_disabled":false,"rental_uris":{"android":"levelo://app?vid=1ce9bab2-2cf8-44f0-acea-13deb0998b57","ios":"levelo://app?vid=1ce9bab2-2cf8-44f0-acea-13deb0998b57"},"vehicle_type_id":"4","last_reported":1703675144,"current_range_meters":27600,"station_id":"ce4bgr92rcd13ifvqc6g","pricing_plan_id":"free"},{"bike_id":"1ec746ac-97c1-4ee8-af22-7127d9546824","system_id":"levelo_inurba_marseille","lat":43.31341,"lon":5.367098,"is_reserved":false,"is_disabled":false,"rental_uris":{"android":"levelo://app?vid=1ec746ac-97c1-4ee8-af22-7127d9546824","ios":"levelo://app?vid=1ec746ac-97c1-4ee8-af22-7127d9546824"},"vehicle_type_id":"4","last_reported":1703675144,"current_range_meters":24400,"station_id":"ce4bgr92rcd13ifvqc6g","pricing_plan_id":"free"},{"bike_id":"918d1ee6-ccef-43f1-a78b-6eb4343b5867","system_id":"levelo_inurba_marseille","lat":43.312239,"lon":5.368562,"is_reserved":false,"is_disabled":false,"rental_uris":{"android":"levelo://app?vid=918d1ee6-ccef-43f1-a78b-6eb4343b5867","ios":"levelo://app?vid=918d1ee6-ccef-43f1-a78b-6eb4343b5867"},"vehicle_type_id":"4","last_reported":1703675144,"current_range_meters":28000,"station_id":"ce4bgl92rcd13ifvqbq0","pricing_plan_id":"free"},{"bike_id":"616a22f3-b1f1-4d01-b062-cd659852e633","system_id":"levelo_inurba_marseille","lat":43.312239,"lon":5.368562,"is_reserved":false,"is_disabled":false,"rental_uris":{"android":"levelo://app?vid=616a22f3-b1f1-4d01-b062-cd659852e633","ios":"levelo://app?vid=616a22f3-b1f1-4d01-b062-cd659852e633"},"vehicle_type_id":"4","last_reported":1703675144,"current_range_meters":31200,"station_id":"ce4bgl92rcd13ifvqbq0","pricing_plan_id":"free"},{"bike_id":"eb1a5221-f30c-4ae4-b626-1617ac8c4bb2","system_id":"levelo_inurba_marseille","lat":43.312239,"lon":5.368562,"is_reserved":false,"is_disabled":false,"rental_uris":{"android":"levelo://app?vid=eb1a5221-f30c-4ae4-b626-1617ac8c4bb2","ios":"levelo://app?vid=eb1a5221-f30c-4ae4-b626-1617ac8c4bb2"},"vehicle_type_id":"4","last_reported":1703675144,"current_range_meters":19600,"station_id":"ce4bgl92rcd13ifvqbq0","pricing_plan_id":"free"},{"bike_id":"62142749-27e6-4f2d-945e-e4f3f2ba90f4","system_id":"levelo_inurba_marseille","lat":43.312239,"lon":5.368562,"is_reserved":false,"is_disabled":false,"rental_uris":{"android":"levelo://app?vid=62142749-27e6-4f2d-945e-e4f3f2ba90f4","ios":"levelo://app?vid=62142749-27e6-4f2d-945e-e4f3f2ba90f4"},"vehicle_type_id":"4","last_reported":1703675144,"current_range_meters":21200,"station_id":"ce4bgl92rcd13ifvqbq0","pricing_plan_id":"free"},{"bike_id":"8ea00e45-2bcc-4708-9fdd-2d6c03744c15","system_id":"levelo_inurba_marseille","lat":43.309076,"lon":5.368465,"is_reserved":false,"is_disabled":false,"rental_uris":{"android":"levelo://app?vid=8ea00e45-2bcc-4708-9fdd-2d6c03744c15","ios":"levelo://app?vid=8ea00e45-2bcc-4708-9fdd-2d6c03744c15"},"vehicle_type_id":"4","last_reported":1703675144,"current_range_meters":26800,"station_id":"ce4bgn92rcd13ifvqbvg","pricing_plan_id":"free"},{"bike_id":"484e5100-b5df-4b81-b3a4-b251959e010c","system_id":"levelo_inurba_marseille","lat":43.309076,"lon":5.368465,"is_reserved":false,"is_disabled":false,"rental_uris":{"android":"levelo://app?vid=484e5100-b5df-4b81-b3a4-b251959e010c","ios":"levelo://app?vid=484e5100-b5df-4b81-b3a4-b251959e010c"},"vehicle_type_id":"4","last_reported":1703675144,"current_range_meters":31200,"station_id":"ce4bgn92rcd13ifvqbvg","pricing_plan_id":"free"},{"bike_id":"60e6c787-fc2b-4a8a-8bbf-c307acfbf39e","system_id":"levelo_inurba_marseille","lat":43.309076,"lon":5.368465,"is_reserved":false,"is_disabled":false,"rental_uris":{"android":"levelo://app?vid=60e6c787-fc2b-4a8a-8bbf-c307acfbf39e","ios":"levelo://app?vid=60e6c787-fc2b-4a8a-8bbf-c307acfbf39e"},"vehicle_type_id":"4","last_reported":1703675144,"current_range_meters":31200,"station_id":"ce4bgn92rcd13ifvqbvg","pricing_plan_id":"free"},{"bike_id":"76101efc-fba6-4716-96c6-c134a43721ad","system_id":"levelo_inurba_marseille","lat":43.314811,"lon":5.373103,"is_reserved":false,"is_disabled":false,"rental_uris":{"android":"levelo://app?vid=76101efc-fba6-4716-96c6-c134a43721ad","ios":"levelo://app?vid=76101efc-fba6-4716-96c6-c134a43721ad"},"vehicle_type_id":"4","last_reported":1703675144,"current_range_meters":30400,"station_id":"ce4bgt12rcd13ifvqcd0","pricing_plan_id":"free"},{"bike_id":"97502ab0-b074-477a-8e64-8e12ca35fa4b","system_id":"levelo_inurba_marseille","lat":43.314811,"lon":5.373104,"is_reserved":false,"is_disabled":false,"rental_uris":{"android":"levelo://app?vid=97502ab0-b074-477a-8e64-8e12ca35fa4b","ios":"levelo://app?vid=97502ab0-b074-477a-8e64-8e12ca35fa4b"},"vehicle_type_id":"4","last_reported":1703675144,"current_range_meters":25600,"station_id":"ce4bgt12rcd13ifvqcd0","pricing_plan_id":"free"},{"bike_id":"ff03b6fc-d42e-4c73-8278-51355d9b5b4e","system_id":"levelo_inurba_marseille","lat":43.314811,"lon":5.373103,"is_reserved":false,"is_disabled":false,"rental_uris":{"android":"levelo://app?vid=ff03b6fc-d42e-4c73-8278-51355d9b5b4e","ios":"levelo://app?vid=ff03b6fc-d42e-4c73-8278-51355d9b5b4e"},"vehicle_type_id":"4","last_reported":1703675144,"current_range_meters":18000,"station_id":"ce4bgt12rcd13ifvqcd0","pricing_plan_id":"free"},{"bike_id":"a0adbac7-5606-441f-a7a6-25965f3f73f6","system_id":"levelo_inurba_marseille","lat":43.314811,"lon":5.373103,"is_reserved":false,"is_disabled":false,"rental_uris":{"android":"levelo://app?vid=a0adbac7-5606-441f-a7a6-25965f3f73f6","ios":"levelo://app?vid=a0adbac7-5606-441f-a7a6-25965f3f73f6"},"vehicle_type_id":"4","last_reported":1703675144,"current_range_meters":29600,"station_id":"ce4bgt12rcd13ifvqcd0","pricing_plan_id":"free"},{"bike_id":"964349dc-d262-4166-a89a-c04e57a78b37","system_id":"levelo_inurba_marseille","lat":43.314811,"lon":5.373103,"is_reserved":false,"is_disabled":false,"rental_uris":{"android":"levelo://app?vid=964349dc-d262-4166-a89a-c04e57a78b37","ios":"levelo://app?vid=964349dc-d262-4166-a89a-c04e57a78b37"},"vehicle_type_id":"4","last_reported":1703675144,"current_range_meters":18000,"station_id":"ce4bgt12rcd13ifvqcd0","pricing_plan_id":"free"},{"bike_id":"d937c6ad-50a2-4900-b30c-d51bf528dd0d","system_id":"levelo_inurba_marseille","lat":43.309039,"lon":5.371797,"is_reserved":false,"is_disabled":false,"rental_uris":{"android":"levelo://app?vid=d937c6ad-50a2-4900-b30c-d51bf528dd0d","ios":"levelo://app?vid=d937c6ad-50a2-4900-b30c-d51bf528dd0d"},"vehicle_type_id":"4","last_reported":1703675144,"current_range_meters":29200,"station_id":"ce4bguh2rcd13ifvqckg","pricing_plan_id":"free"},{"bike_id":"94d95998-ccd6-4a91-8e8c-66895ed3b333","system_id":"levelo_inurba_marseille","lat":43.309039,"lon":5.371797,"is_reserved":false,"is_disabled":false,"rental_uris":{"android":"levelo://app?vid=94d95998-ccd6-4a91-8e8c-66895ed3b333","ios":"levelo://app?vid=94d95998-ccd6-4a91-8e8c-66895ed3b333"},"vehicle_type_id":"4","last_reported":1703675144,"current_range_meters":31600,"station_id":"ce4bguh2rcd13ifvqckg","pricing_plan_id":"free"},{"bike_id":"e07503da-2eec-4d62-af1d-4d98cdd88536","system_id":"levelo_inurba_marseille","lat":43.309039,"lon":5.371797,"is_reserved":false,"is_disabled":false,"rental_uris":{"android":"levelo://app?vid=e07503da-2eec-4d62-af1d-4d98cdd88536","ios":"levelo://app?vid=e07503da-2eec-4d62-af1d-4d98cdd88536"},"vehicle_type_id":"4","last_reported":1703675144,"current_range_meters":22400,"station_id":"ce4bguh2rcd13ifvqckg","pricing_plan_id":"free"},{"bike_id":"b188ea05-75d2-48e4-9a1d-c00cacf47457","system_id":"levelo_inurba_marseille","lat":43.309039,"lon":5.371797,"is_reserved":false,"is_disabled":false,"rental_uris":{"android":"levelo://app?vid=b188ea05-75d2-48e4-9a1d-c00cacf47457","ios":"levelo://app?vid=b188ea05-75d2-48e4-9a1d-c00cacf47457"},"vehicle_type_id":"4","last_reported":1703675144,"current_range_meters":28800,"station_id":"ce4bguh2rcd13ifvqckg","pricing_plan_id":"free"},{"bike_id":"437be774-9347-4f56-865e-861017296255","system_id":"levelo_inurba_marseille","lat":43.318964,"lon":5.36877,"is_reserved":false,"is_disabled":false,"rental_uris":{"android":"levelo://app?vid=437be774-9347-4f56-865e-861017296255","ios":"levelo://app?vid=437be774-9347-4f56-865e-861017296255"},"vehicle_type_id":"4","last_reported":1703675144,"current_range_meters":8400,"station_id":"","pricing_plan_id":"free"},{"bike_id":"23080e11-99f0-474f-83b0-409566e690a7","system_id":"levelo_inurba_marseille","lat":43.30555,"lon":5.36698,"is_reserved":false,"is_disabled":false,"rental_uris":{"android":"levelo://app?vid=23080e11-99f0-474f-83b0-409566e690a7","ios":"levelo://app?vid=23080e11-99f0-474f-83b0-409566e690a7"},"vehicle_type_id":"4","last_reported":1703675144,"current_range_meters":8000,"station_id":"ce4bgrp2rcd13ifvqc9g","pricing_plan_id":"free"},{"bike_id":"95f35649-c5ff-426b-927f-6ea500caf11d","system_id":"levelo_inurba_marseille","lat":43.30537,"lon":5.367345,"is_reserved":false,"is_disabled":false,"rental_uris":{"android":"levelo://app?vid=95f35649-c5ff-426b-927f-6ea500caf11d","ios":"levelo://app?vid=95f35649-c5ff-426b-927f-6ea500caf11d"},"vehicle_type_id":"4","last_reported":1703675144,"current_range_meters":14000,"station_id":"ce4bgrp2rcd13ifvqc9g","pricing_plan_id":"free"},{"bike_id":"5d7049f3-2163-4dcf-bd79-6c1b3f34c0aa","system_id":"levelo_inurba_marseille","lat":43.305368,"lon":5.367343,"is_reserved":false,"is_disabled":false,"rental_uris":{"android":"levelo://app?vid=5d7049f3-2163-4dcf-bd79-6c1b3f34c0aa","ios":"levelo://app?vid=5d7049f3-2163-4dcf-bd79-6c1b3f34c0aa"},"vehicle_type_id":"4","last_reported":1703675144,"current_range_meters":10800,"station_id":"ce4bgrp2rcd13ifvqc9g","pricing_plan_id":"free"},{"bike_id":"86291a32-4dca-442f-8094-05de492b1f27","system_id":"levelo_inurba_marseille","lat":43.305712,"lon":5.365641,"is_reserved":false,"is_disabled":false,"rental_uris":{"android":"levelo://app?vid=86291a32-4dca-442f-8094-05de492b1f27","ios":"levelo://app?vid=86291a32-4dca-442f-8094-05de492b1f27"},"vehicle_type_id":"4","last_reported":1703675144,"current_range_meters":29600,"station_id":"ce4bgs12rcd13ifvqcag","pricing_plan_id":"free"},{"bike_id":"08e924f2-712e-4bf2-9429-cd47f7071929","system_id":"levelo_inurba_marseille","lat":43.305368,"lon":5.367343,"is_reserved":false,"is_disabled":false,"rental_uris":{"android":"levelo://app?vid=08e924f2-712e-4bf2-9429-cd47f7071929","ios":"levelo://app?vid=08e924f2-712e-4bf2-9429-cd47f7071929"},"vehicle_type_id":"4","last_reported":1703675144,"current_range_meters":28800,"station_id":"ce4bgrp2rcd13ifvqc9g","pricing_plan_id":"free"},{"bike_id":"e65a2858-3bdd-448d-8218-902c01daa429","system_id":"levelo_inurba_marseille","lat":43.30537,"lon":5.367345,"is_reserved":false,"is_disabled":false,"rental_uris":{"android":"levelo://app?vid=e65a2858-3bdd-448d-8218-902c01daa429","ios":"levelo://app?vid=e65a2858-3bdd-448d-8218-902c01daa429"},"vehicle_type_id":"4","last_reported":1703675144,"current_range_meters":31200,"station_id":"ce4bgrp2rcd13ifvqc9g","pricing_plan_id":"free"},{"bike_id":"b3c87acb-d0ca-448f-bd14-eb84d28124d6","system_id":"levelo_inurba_marseille","lat":43.305368,"lon":5.367343,"is_reserved":false,"is_disabled":false,"rental_uris":{"android":"levelo://app?vid=b3c87acb-d0ca-448f-bd14-eb84d28124d6","ios":"levelo://app?vid=b3c87acb-d0ca-448f-bd14-eb84d28124d6"},"vehicle_type_id":"4","last_reported":1703675144,"current_range_meters":18800,"station_id":"ce4bgrp2rcd13ifvqc9g","pricing_plan_id":"free"},{"bike_id":"fe3091c2-0d6d-4ae0-a3c3-25b163d6c0fa","system_id":"levelo_inurba_marseille","lat":43.305714,"lon":5.365633,"is_reserved":false,"is_disabled":false,"rental_uris":{"android":"levelo://app?vid=fe3091c2-0d6d-4ae0-a3c3-25b163d6c0fa","ios":"levelo://app?vid=fe3091c2-0d6d-4ae0-a3c3-25b163d6c0fa"},"vehicle_type_id":"4","last_reported":1703675144,"current_range_meters":22000,"station_id":"ce4bgs12rcd13ifvqcag","pricing_plan_id":"free"},{"bike_id":"4d973bd6-70df-43c1-92b0-911cb77aa873","system_id":"levelo_inurba_marseille","lat":43.30537,"lon":5.367345,"is_reserved":false,"is_disabled":false,"rental_uris":{"android":"levelo://app?vid=4d973bd6-70df-43c1-92b0-911cb77aa873","ios":"levelo://app?vid=4d973bd6-70df-43c1-92b0-911cb77aa873"},"vehicle_type_id":"4","last_reported":1703675144,"current_range_meters":22800,"station_id":"ce4bgrp2rcd13ifvqc9g","pricing_plan_id":"free"},{"bike_id":"bb069ab3-e5dd-4e34-808f-776ebfcac5b4","system_id":"levelo_inurba_marseille","lat":43.305714,"lon":5.365633,"is_reserved":false,"is_disabled":false,"rental_uris":{"android":"levelo://app?vid=bb069ab3-e5dd-4e34-808f-776ebfcac5b4","ios":"levelo://app?vid=bb069ab3-e5dd-4e34-808f-776ebfcac5b4"},"vehicle_type_id":"4","last_reported":1703675144,"current_range_meters":24400,"station_id":"ce4bgs12rcd13ifvqcag","pricing_plan_id":"free"},{"bike_id":"a20a198a-322e-4f13-924c-07adcac0ab7f","system_id":"levelo_inurba_marseille","lat":43.305714,"lon":5.365633,"is_reserved":false,"is_disabled":false,"rental_uris":{"android":"levelo://app?vid=a20a198a-322e-4f13-924c-07adcac0ab7f","ios":"levelo://app?vid=a20a198a-322e-4f13-924c-07adcac0ab7f"},"vehicle_type_id":"4","last_reported":1703675144,"current_range_meters":30000,"station_id":"ce4bgs12rcd13ifvqcag","pricing_plan_id":"free"},{"bike_id":"b8a0a6c4-cae7-48f6-98c4-ed3156645f67","system_id":"levelo_inurba_marseille","lat":43.305368,"lon":5.367343,"is_reserved":false,"is_disabled":false,"rental_uris":{"android":"levelo://app?vid=b8a0a6c4-cae7-48f6-98c4-ed3156645f67","ios":"levelo://app?vid=b8a0a6c4-cae7-48f6-98c4-ed3156645f67"},"vehicle_type_id":"4","last_reported":1703675144,"current_range_meters":21600,"station_id":"ce4bgrp2rcd13ifvqc9g","pricing_plan_id":"free"},{"bike_id":"5692ae63-80c6-4f0b-a66b-9feb745ce256","system_id":"levelo_inurba_marseille","lat":43.305714,"lon":5.365633,"is_reserved":false,"is_disabled":false,"rental_uris":{"android":"levelo://app?vid=5692ae63-80c6-4f0b-a66b-9feb745ce256","ios":"levelo://app?vid=5692ae63-80c6-4f0b-a66b-9feb745ce256"},"vehicle_type_id":"4","last_reported":1703675144,"current_range_meters":28000,"station_id":"ce4bgs12rcd13ifvqcag","pricing_plan_id":"free"},{"bike_id":"2be444cf-07db-45f1-a804-02aafccebbea","system_id":"levelo_inurba_marseille","lat":43.305368,"lon":5.367343,"is_reserved":false,"is_disabled":false,"rental_uris":{"android":"levelo://app?vid=2be444cf-07db-45f1-a804-02aafccebbea","ios":"levelo://app?vid=2be444cf-07db-45f1-a804-02aafccebbea"},"vehicle_type_id":"4","last_reported":1703675144,"current_range_meters":25600,"station_id":"ce4bgrp2rcd13ifvqc9g","pricing_plan_id":"free"},{"bike_id":"a6caf4e2-87ff-4b49-b9cf-8b755a13ff89","system_id":"levelo_inurba_marseille","lat":43.305368,"lon":5.367343,"is_reserved":false,"is_disabled":false,"rental_uris":{"android":"levelo://app?vid=a6caf4e2-87ff-4b49-b9cf-8b755a13ff89","ios":"levelo://app?vid=a6caf4e2-87ff-4b49-b9cf-8b755a13ff89"},"vehicle_type_id":"4","last_reported":1703675144,"current_range_meters":0,"station_id":"ce4bgrp2rcd13ifvqc9g","pricing_plan_id":"free"},{"bike_id":"fff16be8-883e-43cd-aef3-c03772c120a8","system_id":"levelo_inurba_marseille","lat":43.305706,"lon":5.365654,"is_reserved":false,"is_disabled":false,"rental_uris":{"android":"levelo://app?vid=fff16be8-883e-43cd-aef3-c03772c120a8","ios":"levelo://app?vid=fff16be8-883e-43cd-aef3-c03772c120a8"},"vehicle_type_id":"4","last_reported":1703675144,"current_range_meters":27200,"station_id":"ce4bgs12rcd13ifvqcag","pricing_plan_id":"free"},{"bike_id":"63df3e00-6b37-4fa1-8e0a-958e4b40f284","system_id":"levelo_inurba_marseille","lat":43.305714,"lon":5.365633,"is_reserved":false,"is_disabled":false,"rental_uris":{"android":"levelo://app?vid=63df3e00-6b37-4fa1-8e0a-958e4b40f284","ios":"levelo://app?vid=63df3e00-6b37-4fa1-8e0a-958e4b40f284"},"vehicle_type_id":"4","last_reported":1703675144,"current_range_meters":20800,"station_id":"ce4bgs12rcd13ifvqcag","pricing_plan_id":"free"},{"bike_id":"e91243af-7bb7-4de7-a9e2-268acebb3db5","system_id":"levelo_inurba_marseille","lat":43.305706,"lon":5.365654,"is_reserved":false,"is_disabled":false,"rental_uris":{"android":"levelo://app?vid=e91243af-7bb7-4de7-a9e2-268acebb3db5","ios":"levelo://app?vid=e91243af-7bb7-4de7-a9e2-268acebb3db5"},"vehicle_type_id":"4","last_reported":1703675144,"current_range_meters":12400,"station_id":"ce4bgs12rcd13ifvqcag","pricing_plan_id":"free"},{"bike_id":"132f30dc-50ba-4eb7-a01e-21cf3379f689","system_id":"levelo_inurba_marseille","lat":43.305706,"lon":5.365654,"is_reserved":false,"is_disabled":false,"rental_uris":{"android":"levelo://app?vid=132f30dc-50ba-4eb7-a01e-21cf3379f689","ios":"levelo://app?vid=132f30dc-50ba-4eb7-a01e-21cf3379f689"},"vehicle_type_id":"4","last_reported":1703675144,"current_range_meters":23200,"station_id":"ce4bgs12rcd13ifvqcag","pricing_plan_id":"free"},{"bike_id":"15e0bc0c-3f20-4972-8a1c-a6b2a2cc89e5","system_id":"levelo_inurba_marseille","lat":43.305706,"lon":5.365654,"is_reserved":false,"is_disabled":false,"rental_uris":{"android":"levelo://app?vid=15e0bc0c-3f20-4972-8a1c-a6b2a2cc89e5","ios":"levelo://app?vid=15e0bc0c-3f20-4972-8a1c-a6b2a2cc89e5"},"vehicle_type_id":"4","last_reported":1703675144,"current_range_meters":24400,"station_id":"ce4bgs12rcd13ifvqcag","pricing_plan_id":"free"},{"bike_id":"d1a05984-5484-40db-bf2e-1373b1705ee3","system_id":"levelo_inurba_marseille","lat":43.305706,"lon":5.365654,"is_reserved":false,"is_disabled":false,"rental_uris":{"android":"levelo://app?vid=d1a05984-5484-40db-bf2e-1373b1705ee3","ios":"levelo://app?vid=d1a05984-5484-40db-bf2e-1373b1705ee3"},"vehicle_type_id":"4","last_reported":1703675144,"current_range_meters":28400,"station_id":"ce4bgs12rcd13ifvqcag","pricing_plan_id":"free"},{"bike_id":"52c464d7-fe66-4257-bdd4-da7f09d0632b","system_id":"levelo_inurba_marseille","lat":43.30605,"lon":5.37213,"is_reserved":false,"is_disabled":false,"rental_uris":{"android":"levelo://app?vid=52c464d7-fe66-4257-bdd4-da7f09d0632b","ios":"levelo://app?vid=52c464d7-fe66-4257-bdd4-da7f09d0632b"},"vehicle_type_id":"4","last_reported":1703675144,"current_range_meters":30800,"station_id":"ce4bgqh2rcd13ifvqc4g","pricing_plan_id":"free"},{"bike_id":"545df49f-4c64-4222-90da-0d520ea6148f","system_id":"levelo_inurba_marseille","lat":43.305989,"lon":5.37225,"is_reserved":false,"is_disabled":false,"rental_uris":{"android":"levelo://app?vid=545df49f-4c64-4222-90da-0d520ea6148f","ios":"levelo://app?vid=545df49f-4c64-4222-90da-0d520ea6148f"},"vehicle_type_id":"4","last_reported":1703675144,"current_range_meters":29600,"station_id":"ce4bgqh2rcd13ifvqc4g","pricing_plan_id":"free"},{"bike_id":"c8f3d374-aaff-4375-a477-8277f30cc778","system_id":"levelo_inurba_marseille","lat":43.305989,"lon":5.37225,"is_reserved":false,"is_disabled":false,"rental_uris":{"android":"levelo://app?vid=c8f3d374-aaff-4375-a477-8277f30cc778","ios":"levelo://app?vid=c8f3d374-aaff-4375-a477-8277f30cc778"},"vehicle_type_id":"4","last_reported":1703675144,"current_range_meters":24800,"station_id":"ce4bgqh2rcd13ifvqc4g","pricing_plan_id":"free"},{"bike_id":"52785944-f7ec-4d44-853a-c685a49aa2ff","system_id":"levelo_inurba_marseille","lat":43.311125,"lon":5.377624,"is_reserved":false,"is_disabled":false,"rental_uris":{"android":"levelo://app?vid=52785944-f7ec-4d44-853a-c685a49aa2ff","ios":"levelo://app?vid=52785944-f7ec-4d44-853a-c685a49aa2ff"},"vehicle_type_id":"4","last_reported":1703675144,"current_range_meters":31200,"station_id":"ce4bgt92rcd13ifvqcg0","pricing_plan_id":"free"},{"bike_id":"de5a5de1-5fe5-42e3-9c3f-34e8b3df6b65","system_id":"levelo_inurba_marseille","lat":43.311173,"lon":5.377644,"is_reserved":false,"is_disabled":false,"rental_uris":{"android":"levelo://app?vid=de5a5de1-5fe5-42e3-9c3f-34e8b3df6b65","ios":"levelo://app?vid=de5a5de1-5fe5-42e3-9c3f-34e8b3df6b65"},"vehicle_type_id":"4","last_reported":1703675144,"current_range_meters":15200,"station_id":"ce4bgt92rcd13ifvqcg0","pricing_plan_id":"free"},{"bike_id":"12de8f02-c3f8-4577-afbd-9bb8e20d2e5b","system_id":"levelo_inurba_marseille","lat":43.317075,"lon":5.377367,"is_reserved":false,"is_disabled":false,"rental_uris":{"android":"levelo://app?vid=12de8f02-c3f8-4577-afbd-9bb8e20d2e5b","ios":"levelo://app?vid=12de8f02-c3f8-4577-afbd-9bb8e20d2e5b"},"vehicle_type_id":"4","last_reported":1703675144,"current_range_meters":17600,"station_id":"ce4bgth2rcd13ifvqch0","pricing_plan_id":"free"},{"bike_id":"1ab5911d-6cd6-464c-a122-7a3cb9e10e72","system_id":"levelo_inurba_marseille","lat":43.317075,"lon":5.377367,"is_reserved":false,"is_disabled":false,"rental_uris":{"android":"levelo://app?vid=1ab5911d-6cd6-464c-a122-7a3cb9e10e72","ios":"levelo://app?vid=1ab5911d-6cd6-464c-a122-7a3cb9e10e72"},"vehicle_type_id":"4","last_reported":1703675144,"current_range_meters":30000,"station_id":"ce4bgth2rcd13ifvqch0","pricing_plan_id":"free"},{"bike_id":"f8e9bbc1-eb17-4f49-8355-fda592faf0d6","system_id":"levelo_inurba_marseille","lat":43.303046,"lon":5.368981,"is_reserved":false,"is_disabled":false,"rental_uris":{"android":"levelo://app?vid=f8e9bbc1-eb17-4f49-8355-fda592faf0d6","ios":"levelo://app?vid=f8e9bbc1-eb17-4f49-8355-fda592faf0d6"},"vehicle_type_id":"4","last_reported":1703675144,"current_range_meters":9600,"station_id":"ce4bgqh2rcd13ifvqc5g","pricing_plan_id":"free"},{"bike_id":"35cf0cd9-a2e3-4422-ab22-54ecba1f4397","system_id":"levelo_inurba_marseille","lat":43.30304,"lon":5.368987,"is_reserved":false,"is_disabled":false,"rental_uris":{"android":"levelo://app?vid=35cf0cd9-a2e3-4422-ab22-54ecba1f4397","ios":"levelo://app?vid=35cf0cd9-a2e3-4422-ab22-54ecba1f4397"},"vehicle_type_id":"4","last_reported":1703675144,"current_range_meters":31200,"station_id":"ce4bgqh2rcd13ifvqc5g","pricing_plan_id":"free"},{"bike_id":"45aa06a4-6207-41c0-90de-ff3c39911319","system_id":"levelo_inurba_marseille","lat":43.3153,"lon":5.380239,"is_reserved":false,"is_disabled":false,"rental_uris":{"android":"levelo://app?vid=45aa06a4-6207-41c0-90de-ff3c39911319","ios":"levelo://app?vid=45aa06a4-6207-41c0-90de-ff3c39911319"},"vehicle_type_id":"4","last_reported":1703675144,"current_range_meters":24800,"station_id":"ce4bhsp2rcd13ifvqi50","pricing_plan_id":"free"},{"bike_id":"4c52c6e3-56e1-4e83-afa2-29fe3d9cca02","system_id":"levelo_inurba_marseille","lat":43.301939,"lon":5.366286,"is_reserved":false,"is_disabled":false,"rental_uris":{"android":"levelo://app?vid=4c52c6e3-56e1-4e83-afa2-29fe3d9cca02","ios":"levelo://app?vid=4c52c6e3-56e1-4e83-afa2-29fe3d9cca02"},"vehicle_type_id":"4","last_reported":1703675144,"current_range_meters":23600,"station_id":"ce4bgrh2rcd13ifvqc8g","pricing_plan_id":"free"},{"bike_id":"53985ff0-b611-4ca1-91aa-6485b0a6bb81","system_id":"levelo_inurba_marseille","lat":43.308012,"lon":5.381511,"is_reserved":false,"is_disabled":false,"rental_uris":{"android":"levelo://app?vid=53985ff0-b611-4ca1-91aa-6485b0a6bb81","ios":"levelo://app?vid=53985ff0-b611-4ca1-91aa-6485b0a6bb81"},"vehicle_type_id":"4","last_reported":1703675144,"current_range_meters":20000,"station_id":"ce4bgt12rcd13ifvqce0","pricing_plan_id":"free"},{"bike_id":"5b191e7f-a443-4652-bba9-5ae2d55f58b6","system_id":"levelo_inurba_marseille","lat":43.308012,"lon":5.381511,"is_reserved":false,"is_disabled":false,"rental_uris":{"android":"levelo://app?vid=5b191e7f-a443-4652-bba9-5ae2d55f58b6","ios":"levelo://app?vid=5b191e7f-a443-4652-bba9-5ae2d55f58b6"},"vehicle_type_id":"4","last_reported":1703675144,"current_range_meters":19600,"station_id":"ce4bgt12rcd13ifvqce0","pricing_plan_id":"free"},{"bike_id":"993f8bbc-e889-4f3e-b207-5281d20a3ebb","system_id":"levelo_inurba_marseille","lat":43.304606,"lon":5.379026,"is_reserved":false,"is_disabled":false,"rental_uris":{"android":"levelo://app?vid=993f8bbc-e889-4f3e-b207-5281d20a3ebb","ios":"levelo://app?vid=993f8bbc-e889-4f3e-b207-5281d20a3ebb"},"vehicle_type_id":"4","last_reported":1703675144,"current_range_meters":22000,"station_id":"ce4bgup2rcd13ifvqcn0","pricing_plan_id":"free"},{"bike_id":"adbd0521-5319-4c26-b88b-64e65385a019","system_id":"levelo_inurba_marseille","lat":43.30474,"lon":5.37905,"is_reserved":false,"is_disabled":false,"rental_uris":{"android":"levelo://app?vid=adbd0521-5319-4c26-b88b-64e65385a019","ios":"levelo://app?vid=adbd0521-5319-4c26-b88b-64e65385a019"},"vehicle_type_id":"4","last_reported":1703675144,"current_range_meters":8000,"station_id":"ce4bgup2rcd13ifvqcn0","pricing_plan_id":"free"},{"bike_id":"bea53d04-e229-4f19-a7f6-8945b3a45f4f","system_id":"levelo_inurba_marseille","lat":43.304606,"lon":5.379026,"is_reserved":false,"is_disabled":false,"rental_uris":{"android":"levelo://app?vid=bea53d04-e229-4f19-a7f6-8945b3a45f4f","ios":"levelo://app?vid=bea53d04-e229-4f19-a7f6-8945b3a45f4f"},"vehicle_type_id":"4","last_reported":1703675144,"current_range_meters":12800,"station_id":"ce4bgup2rcd13ifvqcn0","pricing_plan_id":"free"},{"bike_id":"bd1dba45-31eb-4468-90ae-db0eb19fde7f","system_id":"levelo_inurba_marseille","lat":43.304606,"lon":5.379026,"is_reserved":false,"is_disabled":false,"rental_uris":{"android":"levelo://app?vid=bd1dba45-31eb-4468-90ae-db0eb19fde7f","ios":"levelo://app?vid=bd1dba45-31eb-4468-90ae-db0eb19fde7f"},"vehicle_type_id":"4","last_reported":1703675144,"current_range_meters":25600,"station_id":"ce4bgup2rcd13ifvqcn0","pricing_plan_id":"free"},{"bike_id":"320df9da-3de5-4443-8c59-a05bdc2ab5a1","system_id":"levelo_inurba_marseille","lat":43.304606,"lon":5.379026,"is_reserved":false,"is_disabled":false,"rental_uris":{"android":"levelo://app?vid=320df9da-3de5-4443-8c59-a05bdc2ab5a1","ios":"levelo://app?vid=320df9da-3de5-4443-8c59-a05bdc2ab5a1"},"vehicle_type_id":"4","last_reported":1703675144,"current_range_meters":20800,"station_id":"ce4bgup2rcd13ifvqcn0","pricing_plan_id":"free"},{"bike_id":"5c3120fc-3167-462a-8b40-58c57a05850b","system_id":"levelo_inurba_marseille","lat":43.304606,"lon":5.379026,"is_reserved":false,"is_disabled":false,"rental_uris":{"android":"levelo://app?vid=5c3120fc-3167-462a-8b40-58c57a05850b","ios":"levelo://app?vid=5c3120fc-3167-462a-8b40-58c57a05850b"},"vehicle_type_id":"4","last_reported":1703675144,"current_range_meters":24800,"station_id":"ce4bgup2rcd13ifvqcn0","pricing_plan_id":"free"},{"bike_id":"a92a8f32-1532-4c71-8a2d-27536651c6b6","system_id":"levelo_inurba_marseille","lat":43.304606,"lon":5.379026,"is_reserved":false,"is_disabled":false,"rental_uris":{"android":"levelo://app?vid=a92a8f32-1532-4c71-8a2d-27536651c6b6","ios":"levelo://app?vid=a92a8f32-1532-4c71-8a2d-27536651c6b6"},"vehicle_type_id":"4","last_reported":1703675144,"current_range_meters":28800,"station_id":"ce4bgup2rcd13ifvqcn0","pricing_plan_id":"free"},{"bike_id":"4f586151-e508-4e17-90ff-bad69191b9ae","system_id":"levelo_inurba_marseille","lat":43.304606,"lon":5.379026,"is_reserved":false,"is_disabled":false,"rental_uris":{"android":"levelo://app?vid=4f586151-e508-4e17-90ff-bad69191b9ae","ios":"levelo://app?vid=4f586151-e508-4e17-90ff-bad69191b9ae"},"vehicle_type_id":"4","last_reported":1703675144,"current_range_meters":31200,"station_id":"ce4bgup2rcd13ifvqcn0","pricing_plan_id":"free"},{"bike_id":"310db758-48a1-4d78-827e-4598dfee7cff","system_id":"levelo_inurba_marseille","lat":43.304606,"lon":5.379026,"is_reserved":false,"is_disabled":false,"rental_uris":{"android":"levelo://app?vid=310db758-48a1-4d78-827e-4598dfee7cff","ios":"levelo://app?vid=310db758-48a1-4d78-827e-4598dfee7cff"},"vehicle_type_id":"4","last_reported":1703675144,"current_range_meters":24800,"station_id":"ce4bgup2rcd13ifvqcn0","pricing_plan_id":"free"},{"bike_id":"b4b21e72-2e3a-4531-8f6e-e3b8e1b435b1","system_id":"levelo_inurba_marseille","lat":43.301429,"lon":5.37413,"is_reserved":false,"is_disabled":false,"rental_uris":{"android":"levelo://app?vid=b4b21e72-2e3a-4531-8f6e-e3b8e1b435b1","ios":"levelo://app?vid=b4b21e72-2e3a-4531-8f6e-e3b8e1b435b1"},"vehicle_type_id":"4","last_reported":1703675144,"current_range_meters":26000,"station_id":"ce4bgs92rcd13ifvqcc0","pricing_plan_id":"free"},{"bike_id":"422f048e-8e72-4fee-b565-b5e05701ac60","system_id":"levelo_inurba_marseille","lat":43.301453,"lon":5.37416,"is_reserved":false,"is_disabled":false,"rental_uris":{"android":"levelo://app?vid=422f048e-8e72-4fee-b565-b5e05701ac60","ios":"levelo://app?vid=422f048e-8e72-4fee-b565-b5e05701ac60"},"vehicle_type_id":"4","last_reported":1703675144,"current_range_meters":10000,"station_id":"","pricing_plan_id":"free"},{"bike_id":"6a37b03d-5eb4-49dc-a7d9-a1314f82fe68","system_id":"levelo_inurba_marseille","lat":43.30143,"lon":5.37413,"is_reserved":false,"is_disabled":false,"rental_uris":{"android":"levelo://app?vid=6a37b03d-5eb4-49dc-a7d9-a1314f82fe68","ios":"levelo://app?vid=6a37b03d-5eb4-49dc-a7d9-a1314f82fe68"},"vehicle_type_id":"4","last_reported":1703675144,"current_range_meters":30000,"station_id":"ce4bgs92rcd13ifvqcc0","pricing_plan_id":"free"},{"bike_id":"eec999d6-9128-405e-95a0-18d1c0f9a51b","system_id":"levelo_inurba_marseille","lat":43.302784,"lon":5.377158,"is_reserved":false,"is_disabled":false,"rental_uris":{"android":"levelo://app?vid=eec999d6-9128-405e-95a0-18d1c0f9a51b","ios":"levelo://app?vid=eec999d6-9128-405e-95a0-18d1c0f9a51b"},"vehicle_type_id":"4","last_reported":1703675144,"current_range_meters":29600,"station_id":"ce4bguh2rcd13ifvqcj0","pricing_plan_id":"free"},{"bike_id":"d5219808-27fb-44a2-8cf4-51d1ae3ecab8","system_id":"levelo_inurba_marseille","lat":43.301429,"lon":5.37413,"is_reserved":false,"is_disabled":false,"rental_uris":{"android":"levelo://app?vid=d5219808-27fb-44a2-8cf4-51d1ae3ecab8","ios":"levelo://app?vid=d5219808-27fb-44a2-8cf4-51d1ae3ecab8"},"vehicle_type_id":"4","last_reported":1703675144,"current_range_meters":31200,"station_id":"ce4bgs92rcd13ifvqcc0","pricing_plan_id":"free"},{"bike_id":"d3df8c1f-09c9-448d-97d6-daf6e6951a61","system_id":"levelo_inurba_marseille","lat":43.302784,"lon":5.377158,"is_reserved":false,"is_disabled":false,"rental_uris":{"android":"levelo://app?vid=d3df8c1f-09c9-448d-97d6-daf6e6951a61","ios":"levelo://app?vid=d3df8c1f-09c9-448d-97d6-daf6e6951a61"},"vehicle_type_id":"4","last_reported":1703675144,"current_range_meters":25200,"station_id":"ce4bguh2rcd13ifvqcj0","pricing_plan_id":"free"},{"bike_id":"4da7d567-16cf-4287-a9f1-e0f4b0c39f32","system_id":"levelo_inurba_marseille","lat":43.319935,"lon":5.381699,"is_reserved":false,"is_disabled":false,"rental_uris":{"android":"levelo://app?vid=4da7d567-16cf-4287-a9f1-e0f4b0c39f32","ios":"levelo://app?vid=4da7d567-16cf-4287-a9f1-e0f4b0c39f32"},"vehicle_type_id":"4","last_reported":1703675144,"current_range_meters":9200,"station_id":"ce4bhr12rcd13ifvqhpg","pricing_plan_id":"free"},{"bike_id":"7d5fd1e7-16b9-4b94-a726-dc90747fa958","system_id":"levelo_inurba_marseille","lat":43.313571,"lon":5.384829,"is_reserved":false,"is_disabled":false,"rental_uris":{"android":"levelo://app?vid=7d5fd1e7-16b9-4b94-a726-dc90747fa958","ios":"levelo://app?vid=7d5fd1e7-16b9-4b94-a726-dc90747fa958"},"vehicle_type_id":"4","last_reported":1703675144,"current_range_meters":30400,"station_id":"ce4bgt92rcd13ifvqcf0","pricing_plan_id":"free"},{"bike_id":"4ed79cfc-ba3c-4c49-b002-158ffeee4f86","system_id":"levelo_inurba_marseille","lat":43.299724,"lon":5.371829,"is_reserved":false,"is_disabled":false,"rental_uris":{"android":"levelo://app?vid=4ed79cfc-ba3c-4c49-b002-158ffeee4f86","ios":"levelo://app?vid=4ed79cfc-ba3c-4c49-b002-158ffeee4f86"},"vehicle_type_id":"4","last_reported":1703675144,"current_range_meters":31200,"station_id":"ce4bgr92rcd13ifvqc7g","pricing_plan_id":"free"},{"bike_id":"56c68113-444c-4f35-ada1-9f5b8aed4e75","system_id":"levelo_inurba_marseille","lat":43.298433,"lon":5.362774,"is_reserved":false,"is_disabled":false,"rental_uris":{"android":"levelo://app?vid=56c68113-444c-4f35-ada1-9f5b8aed4e75","ios":"levelo://app?vid=56c68113-444c-4f35-ada1-9f5b8aed4e75"},"vehicle_type_id":"4","last_reported":1703675144,"current_range_meters":28800,"station_id":"ce4bgpp2rcd13ifvqc3g","pricing_plan_id":"free"},{"bike_id":"3d1d0ecd-6942-4ff1-b835-ddb70847c443","system_id":"levelo_inurba_marseille","lat":43.31158,"lon":5.38694,"is_reserved":false,"is_disabled":false,"rental_uris":{"android":"levelo://app?vid=3d1d0ecd-6942-4ff1-b835-ddb70847c443","ios":"levelo://app?vid=3d1d0ecd-6942-4ff1-b835-ddb70847c443"},"vehicle_type_id":"4","last_reported":1703675144,"current_range_meters":23200,"station_id":"ce4bgv12rcd13ifvqcp0","pricing_plan_id":"free"},{"bike_id":"3079b9a6-a319-4d6f-9a2b-75f20777206a","system_id":"levelo_inurba_marseille","lat":43.298433,"lon":5.362774,"is_reserved":false,"is_disabled":false,"rental_uris":{"android":"levelo://app?vid=3079b9a6-a319-4d6f-9a2b-75f20777206a","ios":"levelo://app?vid=3079b9a6-a319-4d6f-9a2b-75f20777206a"},"vehicle_type_id":"4","last_reported":1703675144,"current_range_meters":30400,"station_id":"ce4bgpp2rcd13ifvqc3g","pricing_plan_id":"free"},{"bike_id":"7dc5ff3c-1e2a-42f8-bb5e-fd8acaae6c9f","system_id":"levelo_inurba_marseille","lat":43.299243,"lon":5.374807,"is_reserved":false,"is_disabled":false,"rental_uris":{"android":"levelo://app?vid=7dc5ff3c-1e2a-42f8-bb5e-fd8acaae6c9f","ios":"levelo://app?vid=7dc5ff3c-1e2a-42f8-bb5e-fd8acaae6c9f"},"vehicle_type_id":"4","last_reported":1703675144,"current_range_meters":31600,"station_id":"ce4bgjh2rcd13ifvqbg0","pricing_plan_id":"free"},{"bike_id":"e2e7452f-0622-4b48-b105-ee17de4f29f3","system_id":"levelo_inurba_marseille","lat":43.299113,"lon":5.37467,"is_reserved":false,"is_disabled":false,"rental_uris":{"android":"levelo://app?vid=e2e7452f-0622-4b48-b105-ee17de4f29f3","ios":"levelo://app?vid=e2e7452f-0622-4b48-b105-ee17de4f29f3"},"vehicle_type_id":"4","last_reported":1703675144,"current_range_meters":31200,"station_id":"ce4bgjh2rcd13ifvqbg0","pricing_plan_id":"free"},{"bike_id":"a5753004-cd04-4b65-b67e-44d470d24115","system_id":"levelo_inurba_marseille","lat":43.299243,"lon":5.374807,"is_reserved":false,"is_disabled":false,"rental_uris":{"android":"levelo://app?vid=a5753004-cd04-4b65-b67e-44d470d24115","ios":"levelo://app?vid=a5753004-cd04-4b65-b67e-44d470d24115"},"vehicle_type_id":"4","last_reported":1703675144,"current_range_meters":26000,"station_id":"ce4bgjh2rcd13ifvqbg0","pricing_plan_id":"free"},{"bike_id":"380b667d-1e41-4b6c-b6a7-338dd9d3a2fd","system_id":"levelo_inurba_marseille","lat":43.311722,"lon":5.387247,"is_reserved":false,"is_disabled":false,"rental_uris":{"android":"levelo://app?vid=380b667d-1e41-4b6c-b6a7-338dd9d3a2fd","ios":"levelo://app?vid=380b667d-1e41-4b6c-b6a7-338dd9d3a2fd"},"vehicle_type_id":"4","last_reported":1703675144,"current_range_meters":12800,"station_id":"ce4bgv12rcd13ifvqcp0","pricing_plan_id":"free"},{"bike_id":"1c2f7f54-9a72-4154-8652-e43885870456","system_id":"levelo_inurba_marseille","lat":43.311722,"lon":5.387247,"is_reserved":false,"is_disabled":false,"rental_uris":{"android":"levelo://app?vid=1c2f7f54-9a72-4154-8652-e43885870456","ios":"levelo://app?vid=1c2f7f54-9a72-4154-8652-e43885870456"},"vehicle_type_id":"4","last_reported":1703675144,"current_range_meters":31200,"station_id":"ce4bgv12rcd13ifvqcp0","pricing_plan_id":"free"},{"bike_id":"b9cfef56-3585-4a94-8d81-a960420caccc","system_id":"levelo_inurba_marseille","lat":43.311722,"lon":5.387247,"is_reserved":false,"is_disabled":false,"rental_uris":{"android":"levelo://app?vid=b9cfef56-3585-4a94-8d81-a960420caccc","ios":"levelo://app?vid=b9cfef56-3585-4a94-8d81-a960420caccc"},"vehicle_type_id":"4","last_reported":1703675144,"current_range_meters":18800,"station_id":"ce4bgv12rcd13ifvqcp0","pricing_plan_id":"free"},{"bike_id":"9f5a96a2-0db8-4b1c-8450-c51d03940f00","system_id":"levelo_inurba_marseille","lat":43.322872,"lon":5.382756,"is_reserved":false,"is_disabled":false,"rental_uris":{"android":"levelo://app?vid=9f5a96a2-0db8-4b1c-8450-c51d03940f00","ios":"levelo://app?vid=9f5a96a2-0db8-4b1c-8450-c51d03940f00"},"vehicle_type_id":"4","last_reported":1703675144,"current_range_meters":28800,"station_id":"ce4bhr12rcd13ifvqhqg","pricing_plan_id":"free"},{"bike_id":"1cecd7ec-d453-43c5-a38d-0ee14477aaf1","system_id":"levelo_inurba_marseille","lat":43.322872,"lon":5.382773,"is_reserved":false,"is_disabled":false,"rental_uris":{"android":"levelo://app?vid=1cecd7ec-d453-43c5-a38d-0ee14477aaf1","ios":"levelo://app?vid=1cecd7ec-d453-43c5-a38d-0ee14477aaf1"},"vehicle_type_id":"4","last_reported":1703675144,"current_range_meters":26000,"station_id":"ce4bhr12rcd13ifvqhqg","pricing_plan_id":"free"},{"bike_id":"1ea82e61-37ea-4b15-a6ef-01d29683b9fd","system_id":"levelo_inurba_marseille","lat":43.32821,"lon":5.36694,"is_reserved":false,"is_disabled":false,"rental_uris":{"android":"levelo://app?vid=1ea82e61-37ea-4b15-a6ef-01d29683b9fd","ios":"levelo://app?vid=1ea82e61-37ea-4b15-a6ef-01d29683b9fd"},"vehicle_type_id":"4","last_reported":1703675144,"current_range_meters":26400,"station_id":"ce4bhs92rcd13ifvqi0g","pricing_plan_id":"free"},{"bike_id":"5c89eee7-6e83-42b4-bd81-efdcf68f6666","system_id":"levelo_inurba_marseille","lat":43.32827,"lon":5.36685,"is_reserved":false,"is_disabled":false,"rental_uris":{"android":"levelo://app?vid=5c89eee7-6e83-42b4-bd81-efdcf68f6666","ios":"levelo://app?vid=5c89eee7-6e83-42b4-bd81-efdcf68f6666"},"vehicle_type_id":"4","last_reported":1703675144,"current_range_meters":28400,"station_id":"ce4bhs92rcd13ifvqi0g","pricing_plan_id":"free"},{"bike_id":"6f67326a-1664-406f-9978-902e013e2357","system_id":"levelo_inurba_marseille","lat":43.32829,"lon":5.36675,"is_reserved":false,"is_disabled":false,"rental_uris":{"android":"levelo://app?vid=6f67326a-1664-406f-9978-902e013e2357","ios":"levelo://app?vid=6f67326a-1664-406f-9978-902e013e2357"},"vehicle_type_id":"4","last_reported":1703675144,"current_range_meters":27600,"station_id":"ce4bhs92rcd13ifvqi0g","pricing_plan_id":"free"},{"bike_id":"51714c4a-3132-4951-88ec-80e85fa125e8","system_id":"levelo_inurba_marseille","lat":43.328298,"lon":5.366784,"is_reserved":false,"is_disabled":false,"rental_uris":{"android":"levelo://app?vid=51714c4a-3132-4951-88ec-80e85fa125e8","ios":"levelo://app?vid=51714c4a-3132-4951-88ec-80e85fa125e8"},"vehicle_type_id":"4","last_reported":1703675144,"current_range_meters":24000,"station_id":"ce4bhs92rcd13ifvqi0g","pricing_plan_id":"free"},{"bike_id":"904f83aa-e9ab-401d-84c1-9edfed82b884","system_id":"levelo_inurba_marseille","lat":43.328371,"lon":5.366909,"is_reserved":false,"is_disabled":false,"rental_uris":{"android":"levelo://app?vid=904f83aa-e9ab-401d-84c1-9edfed82b884","ios":"levelo://app?vid=904f83aa-e9ab-401d-84c1-9edfed82b884"},"vehicle_type_id":"4","last_reported":1703675144,"current_range_meters":15200,"station_id":"ce4bhs92rcd13ifvqi0g","pricing_plan_id":"free"},{"bike_id":"a448ca86-2b35-41e1-89c4-32a99bab0563","system_id":"levelo_inurba_marseille","lat":43.328371,"lon":5.366912,"is_reserved":false,"is_disabled":false,"rental_uris":{"android":"levelo://app?vid=a448ca86-2b35-41e1-89c4-32a99bab0563","ios":"levelo://app?vid=a448ca86-2b35-41e1-89c4-32a99bab0563"},"vehicle_type_id":"4","last_reported":1703675144,"current_range_meters":28400,"station_id":"ce4bhs92rcd13ifvqi0g","pricing_plan_id":"free"},{"bike_id":"de708f00-7118-4d7c-9021-d7dcbd798473","system_id":"levelo_inurba_marseille","lat":43.328371,"lon":5.366909,"is_reserved":false,"is_disabled":false,"rental_uris":{"android":"levelo://app?vid=de708f00-7118-4d7c-9021-d7dcbd798473","ios":"levelo://app?vid=de708f00-7118-4d7c-9021-d7dcbd798473"},"vehicle_type_id":"4","last_reported":1703675144,"current_range_meters":21600,"station_id":"ce4bhs92rcd13ifvqi0g","pricing_plan_id":"free"},{"bike_id":"1b153e13-a71b-4488-b2a8-cfe5f551a81a","system_id":"levelo_inurba_marseille","lat":43.32833,"lon":5.36675,"is_reserved":false,"is_disabled":false,"rental_uris":{"android":"levelo://app?vid=1b153e13-a71b-4488-b2a8-cfe5f551a81a","ios":"levelo://app?vid=1b153e13-a71b-4488-b2a8-cfe5f551a81a"},"vehicle_type_id":"4","last_reported":1703675144,"current_range_meters":22800,"station_id":"ce4bhs92rcd13ifvqi0g","pricing_plan_id":"free"},{"bike_id":"b33e79d7-85bd-413c-801b-bcd1df69d847","system_id":"levelo_inurba_marseille","lat":43.32833,"lon":5.36669,"is_reserved":false,"is_disabled":false,"rental_uris":{"android":"levelo://app?vid=b33e79d7-85bd-413c-801b-bcd1df69d847","ios":"levelo://app?vid=b33e79d7-85bd-413c-801b-bcd1df69d847"},"vehicle_type_id":"4","last_reported":1703675144,"current_range_meters":22000,"station_id":"ce4bhs92rcd13ifvqi0g","pricing_plan_id":"free"},{"bike_id":"be72c8fa-57ca-4b39-a06f-106528121e53","system_id":"levelo_inurba_marseille","lat":43.32835,"lon":5.36681,"is_reserved":false,"is_disabled":false,"rental_uris":{"android":"levelo://app?vid=be72c8fa-57ca-4b39-a06f-106528121e53","ios":"levelo://app?vid=be72c8fa-57ca-4b39-a06f-106528121e53"},"vehicle_type_id":"4","last_reported":1703675144,"current_range_meters":4800,"station_id":"ce4bhs92rcd13ifvqi0g","pricing_plan_id":"free"},{"bike_id":"ea7074d7-b7c9-4941-82c2-dff391bae9cb","system_id":"levelo_inurba_marseille","lat":43.32836,"lon":5.36674,"is_reserved":false,"is_disabled":false,"rental_uris":{"android":"levelo://app?vid=ea7074d7-b7c9-4941-82c2-dff391bae9cb","ios":"levelo://app?vid=ea7074d7-b7c9-4941-82c2-dff391bae9cb"},"vehicle_type_id":"4","last_reported":1703675144,"current_range_meters":20000,"station_id":"ce4bhs92rcd13ifvqi0g","pricing_plan_id":"free"},{"bike_id":"2297abed-d1af-4c0b-82f3-823ddc30a87d","system_id":"levelo_inurba_marseille","lat":43.297163,"lon":5.365866,"is_reserved":false,"is_disabled":false,"rental_uris":{"android":"levelo://app?vid=2297abed-d1af-4c0b-82f3-823ddc30a87d","ios":"levelo://app?vid=2297abed-d1af-4c0b-82f3-823ddc30a87d"},"vehicle_type_id":"4","last_reported":1703675144,"current_range_meters":20400,"station_id":"ce4bgn12rcd13ifvqbt0","pricing_plan_id":"free"},{"bike_id":"1f2fc42b-2acd-49d9-9c6b-ed5fda2c9d96","system_id":"levelo_inurba_marseille","lat":43.297163,"lon":5.365866,"is_reserved":false,"is_disabled":false,"rental_uris":{"android":"levelo://app?vid=1f2fc42b-2acd-49d9-9c6b-ed5fda2c9d96","ios":"levelo://app?vid=1f2fc42b-2acd-49d9-9c6b-ed5fda2c9d96"},"vehicle_type_id":"4","last_reported":1703675144,"current_range_meters":12000,"station_id":"ce4bgn12rcd13ifvqbt0","pricing_plan_id":"free"},{"bike_id":"0f98ad1f-98c5-4216-be21-1053c941867e","system_id":"levelo_inurba_marseille","lat":43.2968,"lon":5.37291,"is_reserved":false,"is_disabled":false,"rental_uris":{"android":"levelo://app?vid=0f98ad1f-98c5-4216-be21-1053c941867e","ios":"levelo://app?vid=0f98ad1f-98c5-4216-be21-1053c941867e"},"vehicle_type_id":"4","last_reported":1703675144,"current_range_meters":23600,"station_id":"ce4bgk12rcd13ifvqbj0","pricing_plan_id":"free"},{"bike_id":"921b424d-ad0d-4c7a-9d74-66e3a49bfa19","system_id":"levelo_inurba_marseille","lat":43.32934,"lon":5.36612,"is_reserved":false,"is_disabled":false,"rental_uris":{"android":"levelo://app?vid=921b424d-ad0d-4c7a-9d74-66e3a49bfa19","ios":"levelo://app?vid=921b424d-ad0d-4c7a-9d74-66e3a49bfa19"},"vehicle_type_id":"4","last_reported":1703675144,"current_range_meters":17600,"station_id":"","pricing_plan_id":"free"},{"bike_id":"bb7efdbe-8649-4a12-a0e6-9e3efb90f6bf","system_id":"levelo_inurba_marseille","lat":43.29573,"lon":5.367355,"is_reserved":false,"is_disabled":false,"rental_uris":{"android":"levelo://app?vid=bb7efdbe-8649-4a12-a0e6-9e3efb90f6bf","ios":"levelo://app?vid=bb7efdbe-8649-4a12-a0e6-9e3efb90f6bf"},"vehicle_type_id":"4","last_reported":1703675144,"current_range_meters":26400,"station_id":"ce4bgph2rcd13ifvqc2g","pricing_plan_id":"free"},{"bike_id":"e7a2b826-1c52-4798-a4e8-d3128f4729aa","system_id":"levelo_inurba_marseille","lat":43.296921,"lon":5.376579,"is_reserved":false,"is_disabled":false,"rental_uris":{"android":"levelo://app?vid=e7a2b826-1c52-4798-a4e8-d3128f4729aa","ios":"levelo://app?vid=e7a2b826-1c52-4798-a4e8-d3128f4729aa"},"vehicle_type_id":"4","last_reported":1703675144,"current_range_meters":28000,"station_id":"ce4bgkh2rcd13ifvqbl0","pricing_plan_id":"free"},{"bike_id":"45b9fead-c400-455a-9e25-dc53df55c266","system_id":"levelo_inurba_marseille","lat":43.296935,"lon":5.376544,"is_reserved":false,"is_disabled":false,"rental_uris":{"android":"levelo://app?vid=45b9fead-c400-455a-9e25-dc53df55c266","ios":"levelo://app?vid=45b9fead-c400-455a-9e25-dc53df55c266"},"vehicle_type_id":"4","last_reported":1703675144,"current_range_meters":30000,"station_id":"ce4bgkh2rcd13ifvqbl0","pricing_plan_id":"free"},{"bike_id":"e190d914-1afa-4f41-aa25-8ff4c5683b37","system_id":"levelo_inurba_marseille","lat":43.299028,"lon":5.381509,"is_reserved":false,"is_disabled":false,"rental_uris":{"android":"levelo://app?vid=e190d914-1afa-4f41-aa25-8ff4c5683b37","ios":"levelo://app?vid=e190d914-1afa-4f41-aa25-8ff4c5683b37"},"vehicle_type_id":"4","last_reported":1703675144,"current_range_meters":27200,"station_id":"ce4bgj12rcd13ifvqbc0","pricing_plan_id":"free"},{"bike_id":"d7f505eb-676a-4f76-850e-ec9317df0cb4","system_id":"levelo_inurba_marseille","lat":43.309589,"lon":5.390258,"is_reserved":false,"is_disabled":false,"rental_uris":{"android":"levelo://app?vid=d7f505eb-676a-4f76-850e-ec9317df0cb4","ios":"levelo://app?vid=d7f505eb-676a-4f76-850e-ec9317df0cb4"},"vehicle_type_id":"4","last_reported":1703675144,"current_range_meters":18800,"station_id":"ce4bgup2rcd13ifvqco0","pricing_plan_id":"free"},{"bike_id":"909ae84b-cb7a-4c83-988b-d104423adf03","system_id":"levelo_inurba_marseille","lat":43.309589,"lon":5.390258,"is_reserved":false,"is_disabled":false,"rental_uris":{"android":"levelo://app?vid=909ae84b-cb7a-4c83-988b-d104423adf03","ios":"levelo://app?vid=909ae84b-cb7a-4c83-988b-d104423adf03"},"vehicle_type_id":"4","last_reported":1703675144,"current_range_meters":15200,"station_id":"ce4bgup2rcd13ifvqco0","pricing_plan_id":"free"},{"bike_id":"8047d197-2dce-48cd-9092-41c626e1e2d0","system_id":"levelo_inurba_marseille","lat":43.309589,"lon":5.390258,"is_reserved":false,"is_disabled":false,"rental_uris":{"android":"levelo://app?vid=8047d197-2dce-48cd-9092-41c626e1e2d0","ios":"levelo://app?vid=8047d197-2dce-48cd-9092-41c626e1e2d0"},"vehicle_type_id":"4","last_reported":1703675144,"current_range_meters":26000,"station_id":"ce4bgup2rcd13ifvqco0","pricing_plan_id":"free"},{"bike_id":"02b31deb-8d27-47bf-bbf0-4ae52b237d44","system_id":"levelo_inurba_marseille","lat":43.31755,"lon":5.39014,"is_reserved":false,"is_disabled":false,"rental_uris":{"android":"levelo://app?vid=02b31deb-8d27-47bf-bbf0-4ae52b237d44","ios":"levelo://app?vid=02b31deb-8d27-47bf-bbf0-4ae52b237d44"},"vehicle_type_id":"4","last_reported":1703675144,"current_range_meters":14800,"station_id":"ce4bhqp2rcd13ifvqhng","pricing_plan_id":"free"},{"bike_id":"d30890f6-9cbc-46b7-bfe8-8de8fe3ad98c","system_id":"levelo_inurba_marseille","lat":43.298037,"lon":5.381066,"is_reserved":false,"is_disabled":false,"rental_uris":{"android":"levelo://app?vid=d30890f6-9cbc-46b7-bfe8-8de8fe3ad98c","ios":"levelo://app?vid=d30890f6-9cbc-46b7-bfe8-8de8fe3ad98c"},"vehicle_type_id":"4","last_reported":1703675144,"current_range_meters":31200,"station_id":"ce4bgip2rcd13ifvqbb0","pricing_plan_id":"free"},{"bike_id":"ac10d2fb-a92e-4dde-befe-4b8b9616d323","system_id":"levelo_inurba_marseille","lat":43.295748,"lon":5.37522,"is_reserved":false,"is_disabled":false,"rental_uris":{"android":"levelo://app?vid=ac10d2fb-a92e-4dde-befe-4b8b9616d323","ios":"levelo://app?vid=ac10d2fb-a92e-4dde-befe-4b8b9616d323"},"vehicle_type_id":"4","last_reported":1703675144,"current_range_meters":28400,"station_id":"ce4bgh92rcd13ifvqb50","pricing_plan_id":"free"},{"bike_id":"e1a824c8-1be8-4880-81a4-4071b24e8add","system_id":"levelo_inurba_marseille","lat":43.295748,"lon":5.37522,"is_reserved":false,"is_disabled":false,"rental_uris":{"android":"levelo://app?vid=e1a824c8-1be8-4880-81a4-4071b24e8add","ios":"levelo://app?vid=e1a824c8-1be8-4880-81a4-4071b24e8add"},"vehicle_type_id":"4","last_reported":1703675144,"current_range_meters":18800,"station_id":"ce4bgh92rcd13ifvqb50","pricing_plan_id":"free"},{"bike_id":"a36a26ba-17a0-471b-954e-6992247eafd6","system_id":"levelo_inurba_marseille","lat":43.295748,"lon":5.37522,"is_reserved":false,"is_disabled":false,"rental_uris":{"android":"levelo://app?vid=a36a26ba-17a0-471b-954e-6992247eafd6","ios":"levelo://app?vid=a36a26ba-17a0-471b-954e-6992247eafd6"},"vehicle_type_id":"4","last_reported":1703675144,"current_range_meters":17600,"station_id":"ce4bgh92rcd13ifvqb50","pricing_plan_id":"free"},{"bike_id":"1cbd5ac5-9ae4-40f8-839a-db4d8529ec2b","system_id":"levelo_inurba_marseille","lat":43.295748,"lon":5.37522,"is_reserved":false,"is_disabled":false,"rental_uris":{"android":"levelo://app?vid=1cbd5ac5-9ae4-40f8-839a-db4d8529ec2b","ios":"levelo://app?vid=1cbd5ac5-9ae4-40f8-839a-db4d8529ec2b"},"vehicle_type_id":"4","last_reported":1703675144,"current_range_meters":20800,"station_id":"ce4bgh92rcd13ifvqb50","pricing_plan_id":"free"},{"bike_id":"11008321-d50d-469d-a82b-f8636bdfefaa","system_id":"levelo_inurba_marseille","lat":43.295748,"lon":5.37522,"is_reserved":false,"is_disabled":false,"rental_uris":{"android":"levelo://app?vid=11008321-d50d-469d-a82b-f8636bdfefaa","ios":"levelo://app?vid=11008321-d50d-469d-a82b-f8636bdfefaa"},"vehicle_type_id":"4","last_reported":1703675144,"current_range_meters":17200,"station_id":"ce4bgh92rcd13ifvqb50","pricing_plan_id":"free"},{"bike_id":"4163b08a-f913-4f60-96a3-2e255a5a65b8","system_id":"levelo_inurba_marseille","lat":43.296263,"lon":5.377094,"is_reserved":false,"is_disabled":false,"rental_uris":{"android":"levelo://app?vid=4163b08a-f913-4f60-96a3-2e255a5a65b8","ios":"levelo://app?vid=4163b08a-f913-4f60-96a3-2e255a5a65b8"},"vehicle_type_id":"4","last_reported":1703675144,"current_range_meters":2400,"station_id":"ce4bgi92rcd13ifvqb90","pricing_plan_id":"free"},{"bike_id":"3a8d1e30-64c5-4673-bda4-18dcf5ffeb03","system_id":"levelo_inurba_marseille","lat":43.295748,"lon":5.37522,"is_reserved":false,"is_disabled":false,"rental_uris":{"android":"levelo://app?vid=3a8d1e30-64c5-4673-bda4-18dcf5ffeb03","ios":"levelo://app?vid=3a8d1e30-64c5-4673-bda4-18dcf5ffeb03"},"vehicle_type_id":"4","last_reported":1703675144,"current_range_meters":16000,"station_id":"ce4bgh92rcd13ifvqb50","pricing_plan_id":"free"},{"bike_id":"60a67cc5-73b7-49b1-8f9d-43244b55c40b","system_id":"levelo_inurba_marseille","lat":43.295748,"lon":5.37522,"is_reserved":false,"is_disabled":false,"rental_uris":{"android":"levelo://app?vid=60a67cc5-73b7-49b1-8f9d-43244b55c40b","ios":"levelo://app?vid=60a67cc5-73b7-49b1-8f9d-43244b55c40b"},"vehicle_type_id":"4","last_reported":1703675144,"current_range_meters":22000,"station_id":"ce4bgh92rcd13ifvqb50","pricing_plan_id":"free"},{"bike_id":"1f2c2055-c7b0-41d1-ae59-ed4a96b6d899","system_id":"levelo_inurba_marseille","lat":43.295748,"lon":5.37522,"is_reserved":false,"is_disabled":false,"rental_uris":{"android":"levelo://app?vid=1f2c2055-c7b0-41d1-ae59-ed4a96b6d899","ios":"levelo://app?vid=1f2c2055-c7b0-41d1-ae59-ed4a96b6d899"},"vehicle_type_id":"4","last_reported":1703675144,"current_range_meters":31200,"station_id":"ce4bgh92rcd13ifvqb50","pricing_plan_id":"free"},{"bike_id":"1e111250-e50d-4bb2-90f6-85efcd475794","system_id":"levelo_inurba_marseille","lat":43.296081,"lon":5.377284,"is_reserved":false,"is_disabled":false,"rental_uris":{"android":"levelo://app?vid=1e111250-e50d-4bb2-90f6-85efcd475794","ios":"levelo://app?vid=1e111250-e50d-4bb2-90f6-85efcd475794"},"vehicle_type_id":"4","last_reported":1703675144,"current_range_meters":15200,"station_id":"ce4bgi92rcd13ifvqb90","pricing_plan_id":"free"},{"bike_id":"f6426d2a-a923-4981-af6f-fc613fbda8ac","system_id":"levelo_inurba_marseille","lat":43.299717,"lon":5.384845,"is_reserved":false,"is_disabled":false,"rental_uris":{"android":"levelo://app?vid=f6426d2a-a923-4981-af6f-fc613fbda8ac","ios":"levelo://app?vid=f6426d2a-a923-4981-af6f-fc613fbda8ac"},"vehicle_type_id":"4","last_reported":1703675144,"current_range_meters":21200,"station_id":"ce4bgj92rcd13ifvqbd0","pricing_plan_id":"free"},{"bike_id":"59d2577f-1cde-425b-aa1b-de3b8aabb29a","system_id":"levelo_inurba_marseille","lat":43.295279,"lon":5.375048,"is_reserved":false,"is_disabled":false,"rental_uris":{"android":"levelo://app?vid=59d2577f-1cde-425b-aa1b-de3b8aabb29a","ios":"levelo://app?vid=59d2577f-1cde-425b-aa1b-de3b8aabb29a"},"vehicle_type_id":"4","last_reported":1703675144,"current_range_meters":30400,"station_id":"ce4bgkp2rcd13ifvqbmg","pricing_plan_id":"free"},{"bike_id":"ae4b4c81-2e1c-4dbd-9363-5c975b75d54b","system_id":"levelo_inurba_marseille","lat":43.299707,"lon":5.384859,"is_reserved":false,"is_disabled":false,"rental_uris":{"android":"levelo://app?vid=ae4b4c81-2e1c-4dbd-9363-5c975b75d54b","ios":"levelo://app?vid=ae4b4c81-2e1c-4dbd-9363-5c975b75d54b"},"vehicle_type_id":"4","last_reported":1703675144,"current_range_meters":26400,"station_id":"ce4bgj92rcd13ifvqbd0","pricing_plan_id":"free"},{"bike_id":"c2156fd8-88e6-4b40-8835-ad917c646ab6","system_id":"levelo_inurba_marseille","lat":43.32363,"lon":5.38882,"is_reserved":false,"is_disabled":false,"rental_uris":{"android":"levelo://app?vid=c2156fd8-88e6-4b40-8835-ad917c646ab6","ios":"levelo://app?vid=c2156fd8-88e6-4b40-8835-ad917c646ab6"},"vehicle_type_id":"4","last_reported":1703675144,"current_range_meters":18000,"station_id":"ce4bhqp2rcd13ifvqhog","pricing_plan_id":"free"},{"bike_id":"94a70657-973e-4a4a-8e5f-48624fa95146","system_id":"levelo_inurba_marseille","lat":43.32363,"lon":5.38883,"is_reserved":false,"is_disabled":false,"rental_uris":{"android":"levelo://app?vid=94a70657-973e-4a4a-8e5f-48624fa95146","ios":"levelo://app?vid=94a70657-973e-4a4a-8e5f-48624fa95146"},"vehicle_type_id":"4","last_reported":1703675144,"current_range_meters":13200,"station_id":"ce4bhqp2rcd13ifvqhog","pricing_plan_id":"free"},{"bike_id":"382c4cfa-6874-4a44-a4c4-4277cc22ec8b","system_id":"levelo_inurba_marseille","lat":43.32367,"lon":5.388836,"is_reserved":false,"is_disabled":false,"rental_uris":{"android":"levelo://app?vid=382c4cfa-6874-4a44-a4c4-4277cc22ec8b","ios":"levelo://app?vid=382c4cfa-6874-4a44-a4c4-4277cc22ec8b"},"vehicle_type_id":"4","last_reported":1703675144,"current_range_meters":9200,"station_id":"ce4bhqp2rcd13ifvqhog","pricing_plan_id":"free"},{"bike_id":"4869b9ec-c725-48aa-bedf-96a45a7a549d","system_id":"levelo_inurba_marseille","lat":43.32367,"lon":5.388836,"is_reserved":false,"is_disabled":false,"rental_uris":{"android":"levelo://app?vid=4869b9ec-c725-48aa-bedf-96a45a7a549d","ios":"levelo://app?vid=4869b9ec-c725-48aa-bedf-96a45a7a549d"},"vehicle_type_id":"4","last_reported":1703675144,"current_range_meters":28400,"station_id":"ce4bhqp2rcd13ifvqhog","pricing_plan_id":"free"},{"bike_id":"0aeff03b-c088-4633-a9b9-ca0ac8a59c2c","system_id":"levelo_inurba_marseille","lat":43.32367,"lon":5.388836,"is_reserved":false,"is_disabled":false,"rental_uris":{"android":"levelo://app?vid=0aeff03b-c088-4633-a9b9-ca0ac8a59c2c","ios":"levelo://app?vid=0aeff03b-c088-4633-a9b9-ca0ac8a59c2c"},"vehicle_type_id":"4","last_reported":1703675144,"current_range_meters":28000,"station_id":"ce4bhqp2rcd13ifvqhog","pricing_plan_id":"free"},{"bike_id":"1bc92fca-26b1-4cc2-8ecb-e2a7adabfdb5","system_id":"levelo_inurba_marseille","lat":43.292749,"lon":5.368402,"is_reserved":false,"is_disabled":false,"rental_uris":{"android":"levelo://app?vid=1bc92fca-26b1-4cc2-8ecb-e2a7adabfdb5","ios":"levelo://app?vid=1bc92fca-26b1-4cc2-8ecb-e2a7adabfdb5"},"vehicle_type_id":"4","last_reported":1703675144,"current_range_meters":16800,"station_id":"ce4bhbp2rcd13ifvqesg","pricing_plan_id":"free"},{"bike_id":"1a11c6f0-e178-40a8-a655-0aac92d7d593","system_id":"levelo_inurba_marseille","lat":43.292749,"lon":5.368398,"is_reserved":false,"is_disabled":false,"rental_uris":{"android":"levelo://app?vid=1a11c6f0-e178-40a8-a655-0aac92d7d593","ios":"levelo://app?vid=1a11c6f0-e178-40a8-a655-0aac92d7d593"},"vehicle_type_id":"4","last_reported":1703675144,"current_range_meters":31200,"station_id":"ce4bhbp2rcd13ifvqesg","pricing_plan_id":"free"},{"bike_id":"dcb5ca07-daac-439c-ae66-a69e825affc9","system_id":"levelo_inurba_marseille","lat":43.292749,"lon":5.368402,"is_reserved":false,"is_disabled":false,"rental_uris":{"android":"levelo://app?vid=dcb5ca07-daac-439c-ae66-a69e825affc9","ios":"levelo://app?vid=dcb5ca07-daac-439c-ae66-a69e825affc9"},"vehicle_type_id":"4","last_reported":1703675144,"current_range_meters":20800,"station_id":"ce4bhbp2rcd13ifvqesg","pricing_plan_id":"free"},{"bike_id":"544ccd29-e682-4589-928e-39cc0e11024e","system_id":"levelo_inurba_marseille","lat":43.293259,"lon":5.371586,"is_reserved":false,"is_disabled":false,"rental_uris":{"android":"levelo://app?vid=544ccd29-e682-4589-928e-39cc0e11024e","ios":"levelo://app?vid=544ccd29-e682-4589-928e-39cc0e11024e"},"vehicle_type_id":"4","last_reported":1703675144,"current_range_meters":26000,"station_id":"ce4bgh92rcd13ifvqb40","pricing_plan_id":"free"},{"bike_id":"7cf320e6-44c1-46e2-8fe3-0df1afa38f15","system_id":"levelo_inurba_marseille","lat":43.292749,"lon":5.368402,"is_reserved":false,"is_disabled":false,"rental_uris":{"android":"levelo://app?vid=7cf320e6-44c1-46e2-8fe3-0df1afa38f15","ios":"levelo://app?vid=7cf320e6-44c1-46e2-8fe3-0df1afa38f15"},"vehicle_type_id":"4","last_reported":1703675144,"current_range_meters":16800,"station_id":"ce4bhbp2rcd13ifvqesg","pricing_plan_id":"free"},{"bike_id":"b18ac087-5e39-4cd7-ba73-8452c26bf0c2","system_id":"levelo_inurba_marseille","lat":43.30085,"lon":5.390856,"is_reserved":false,"is_disabled":false,"rental_uris":{"android":"levelo://app?vid=b18ac087-5e39-4cd7-ba73-8452c26bf0c2","ios":"levelo://app?vid=b18ac087-5e39-4cd7-ba73-8452c26bf0c2"},"vehicle_type_id":"4","last_reported":1703675144,"current_range_meters":31200,"station_id":"ce4bh192rcd13ifvqdb0","pricing_plan_id":"free"},{"bike_id":"b986daa5-ac74-431c-bbf2-1a1d5423b015","system_id":"levelo_inurba_marseille","lat":43.29259,"lon":5.37615,"is_reserved":false,"is_disabled":false,"rental_uris":{"android":"levelo://app?vid=b986daa5-ac74-431c-bbf2-1a1d5423b015","ios":"levelo://app?vid=b986daa5-ac74-431c-bbf2-1a1d5423b015"},"vehicle_type_id":"4","last_reported":1703675144,"current_range_meters":30800,"station_id":"","pricing_plan_id":"free"},{"bike_id":"6fef0418-0507-4151-8523-fdb5e280620a","system_id":"levelo_inurba_marseille","lat":43.291675,"lon":5.371583,"is_reserved":false,"is_disabled":false,"rental_uris":{"android":"levelo://app?vid=6fef0418-0507-4151-8523-fdb5e280620a","ios":"levelo://app?vid=6fef0418-0507-4151-8523-fdb5e280620a"},"vehicle_type_id":"4","last_reported":1703675144,"current_range_meters":29600,"station_id":"ce4bha92rcd13ifvqeh0","pricing_plan_id":"free"},{"bike_id":"3a8f53ab-00d8-4541-9cd6-39fa05bc998a","system_id":"levelo_inurba_marseille","lat":43.291675,"lon":5.371583,"is_reserved":false,"is_disabled":false,"rental_uris":{"android":"levelo://app?vid=3a8f53ab-00d8-4541-9cd6-39fa05bc998a","ios":"levelo://app?vid=3a8f53ab-00d8-4541-9cd6-39fa05bc998a"},"vehicle_type_id":"4","last_reported":1703675144,"current_range_meters":27600,"station_id":"ce4bha92rcd13ifvqeh0","pricing_plan_id":"free"},{"bike_id":"a69d868c-c888-4a74-a238-60dca1f8e14a","system_id":"levelo_inurba_marseille","lat":43.291671,"lon":5.371575,"is_reserved":false,"is_disabled":false,"rental_uris":{"android":"levelo://app?vid=a69d868c-c888-4a74-a238-60dca1f8e14a","ios":"levelo://app?vid=a69d868c-c888-4a74-a238-60dca1f8e14a"},"vehicle_type_id":"4","last_reported":1703675144,"current_range_meters":29200,"station_id":"ce4bha92rcd13ifvqeh0","pricing_plan_id":"free"},{"bike_id":"f8ad87fb-faf9-4310-8434-bc415fdf4816","system_id":"levelo_inurba_marseille","lat":43.29869,"lon":5.38911,"is_reserved":false,"is_disabled":false,"rental_uris":{"android":"levelo://app?vid=f8ad87fb-faf9-4310-8434-bc415fdf4816","ios":"levelo://app?vid=f8ad87fb-faf9-4310-8434-bc415fdf4816"},"vehicle_type_id":"4","last_reported":1703675144,"current_range_meters":18400,"station_id":"","pricing_plan_id":"free"},{"bike_id":"93f95f9e-1e97-4039-9bbb-c694391343ef","system_id":"levelo_inurba_marseille","lat":43.291994,"lon":5.357886,"is_reserved":false,"is_disabled":false,"rental_uris":{"android":"levelo://app?vid=93f95f9e-1e97-4039-9bbb-c694391343ef","ios":"levelo://app?vid=93f95f9e-1e97-4039-9bbb-c694391343ef"},"vehicle_type_id":"4","last_reported":1703675144,"current_range_meters":0,"station_id":"ce4bhb12rcd13ifvqel0","pricing_plan_id":"free"},{"bike_id":"e0c4aee5-6b25-4571-b300-f9da4146c9ad","system_id":"levelo_inurba_marseille","lat":43.290779,"lon":5.371482,"is_reserved":false,"is_disabled":false,"rental_uris":{"android":"levelo://app?vid=e0c4aee5-6b25-4571-b300-f9da4146c9ad","ios":"levelo://app?vid=e0c4aee5-6b25-4571-b300-f9da4146c9ad"},"vehicle_type_id":"4","last_reported":1703675144,"current_range_meters":30800,"station_id":"ce4bh5p2rcd13ifvqe4g","pricing_plan_id":"free"},{"bike_id":"1f0b4114-1a1e-44e9-b23c-2039da872d83","system_id":"levelo_inurba_marseille","lat":43.302008,"lon":5.394694,"is_reserved":false,"is_disabled":false,"rental_uris":{"android":"levelo://app?vid=1f0b4114-1a1e-44e9-b23c-2039da872d83","ios":"levelo://app?vid=1f0b4114-1a1e-44e9-b23c-2039da872d83"},"vehicle_type_id":"4","last_reported":1703675144,"current_range_meters":21600,"station_id":"ce4bh0p2rcd13ifvqd70","pricing_plan_id":"free"},{"bike_id":"ec9f46c5-b153-42c3-9863-3b9f9d909b56","system_id":"levelo_inurba_marseille","lat":43.302008,"lon":5.394694,"is_reserved":false,"is_disabled":false,"rental_uris":{"android":"levelo://app?vid=ec9f46c5-b153-42c3-9863-3b9f9d909b56","ios":"levelo://app?vid=ec9f46c5-b153-42c3-9863-3b9f9d909b56"},"vehicle_type_id":"4","last_reported":1703675144,"current_range_meters":23600,"station_id":"ce4bh0p2rcd13ifvqd70","pricing_plan_id":"free"},{"bike_id":"8d8bc9e2-6706-4589-9cf1-624e791bd0a5","system_id":"levelo_inurba_marseille","lat":43.290624,"lon":5.359245,"is_reserved":false,"is_disabled":false,"rental_uris":{"android":"levelo://app?vid=8d8bc9e2-6706-4589-9cf1-624e791bd0a5","ios":"levelo://app?vid=8d8bc9e2-6706-4589-9cf1-624e791bd0a5"},"vehicle_type_id":"4","last_reported":1703675144,"current_range_meters":28800,"station_id":"ce4bha92rcd13ifvqeg0","pricing_plan_id":"free"},{"bike_id":"2f2681be-bb93-41d0-9177-b7129d548eca","system_id":"levelo_inurba_marseille","lat":43.289184,"lon":5.366408,"is_reserved":false,"is_disabled":false,"rental_uris":{"android":"levelo://app?vid=2f2681be-bb93-41d0-9177-b7129d548eca","ios":"levelo://app?vid=2f2681be-bb93-41d0-9177-b7129d548eca"},"vehicle_type_id":"4","last_reported":1703675144,"current_range_meters":24400,"station_id":"ce4bhap2rcd13ifvqek0","pricing_plan_id":"free"},{"bike_id":"2d80009a-5941-4150-94ca-378f9d886398","system_id":"levelo_inurba_marseille","lat":43.289402,"lon":5.366322,"is_reserved":false,"is_disabled":false,"rental_uris":{"android":"levelo://app?vid=2d80009a-5941-4150-94ca-378f9d886398","ios":"levelo://app?vid=2d80009a-5941-4150-94ca-378f9d886398"},"vehicle_type_id":"4","last_reported":1703675144,"current_range_meters":22000,"station_id":"ce4bhap2rcd13ifvqek0","pricing_plan_id":"free"},{"bike_id":"ef4d3f97-1118-4c92-99ae-81db773494be","system_id":"levelo_inurba_marseille","lat":43.289468,"lon":5.363719,"is_reserved":false,"is_disabled":false,"rental_uris":{"android":"levelo://app?vid=ef4d3f97-1118-4c92-99ae-81db773494be","ios":"levelo://app?vid=ef4d3f97-1118-4c92-99ae-81db773494be"},"vehicle_type_id":"4","last_reported":1703675144,"current_range_meters":22800,"station_id":"ce4bhc92rcd13ifvqetg","pricing_plan_id":"free"},{"bike_id":"7663e09e-3ada-4627-b980-b17c1dbd6a6e","system_id":"levelo_inurba_marseille","lat":43.292644,"lon":5.384257,"is_reserved":false,"is_disabled":false,"rental_uris":{"android":"levelo://app?vid=7663e09e-3ada-4627-b980-b17c1dbd6a6e","ios":"levelo://app?vid=7663e09e-3ada-4627-b980-b17c1dbd6a6e"},"vehicle_type_id":"4","last_reported":1703675144,"current_range_meters":24800,"station_id":"ce4bh692rcd13ifvqea0","pricing_plan_id":"free"},{"bike_id":"ba9ff484-22c9-4de9-9832-2d07c68350a3","system_id":"levelo_inurba_marseille","lat":43.292628,"lon":5.384444,"is_reserved":false,"is_disabled":false,"rental_uris":{"android":"levelo://app?vid=ba9ff484-22c9-4de9-9832-2d07c68350a3","ios":"levelo://app?vid=ba9ff484-22c9-4de9-9832-2d07c68350a3"},"vehicle_type_id":"4","last_reported":1703675144,"current_range_meters":7200,"station_id":"ce4bh3p2rcd13ifvqdq0","pricing_plan_id":"free"},{"bike_id":"e6edc563-3ee6-44a1-9dea-fc03b8031ca9","system_id":"levelo_inurba_marseille","lat":43.290104,"lon":5.356111,"is_reserved":false,"is_disabled":false,"rental_uris":{"android":"levelo://app?vid=e6edc563-3ee6-44a1-9dea-fc03b8031ca9","ios":"levelo://app?vid=e6edc563-3ee6-44a1-9dea-fc03b8031ca9"},"vehicle_type_id":"4","last_reported":1703675144,"current_range_meters":25200,"station_id":"ce4bhb92rcd13ifvqen0","pricing_plan_id":"free"},{"bike_id":"02b7415d-999b-4d29-8596-05993696c1bd","system_id":"levelo_inurba_marseille","lat":43.290995,"lon":5.381361,"is_reserved":false,"is_disabled":false,"rental_uris":{"android":"levelo://app?vid=02b7415d-999b-4d29-8596-05993696c1bd","ios":"levelo://app?vid=02b7415d-999b-4d29-8596-05993696c1bd"},"vehicle_type_id":"4","last_reported":1703675144,"current_range_meters":26000,"station_id":"ce4bh512rcd13ifvqe2g","pricing_plan_id":"free"},{"bike_id":"934b98c3-39d1-4fb9-8b32-715a583eb57e","system_id":"levelo_inurba_marseille","lat":43.290995,"lon":5.381361,"is_reserved":false,"is_disabled":false,"rental_uris":{"android":"levelo://app?vid=934b98c3-39d1-4fb9-8b32-715a583eb57e","ios":"levelo://app?vid=934b98c3-39d1-4fb9-8b32-715a583eb57e"},"vehicle_type_id":"4","last_reported":1703675144,"current_range_meters":30400,"station_id":"ce4bh512rcd13ifvqe2g","pricing_plan_id":"free"},{"bike_id":"ec714f70-0f4f-4e82-9b49-b3c3cb66e9a4","system_id":"levelo_inurba_marseille","lat":43.290995,"lon":5.381361,"is_reserved":false,"is_disabled":false,"rental_uris":{"android":"levelo://app?vid=ec714f70-0f4f-4e82-9b49-b3c3cb66e9a4","ios":"levelo://app?vid=ec714f70-0f4f-4e82-9b49-b3c3cb66e9a4"},"vehicle_type_id":"4","last_reported":1703675144,"current_range_meters":29200,"station_id":"ce4bh512rcd13ifvqe2g","pricing_plan_id":"free"},{"bike_id":"38625b4d-47d0-4df6-b214-9eb5eae0e53d","system_id":"levelo_inurba_marseille","lat":43.29787,"lon":5.393363,"is_reserved":false,"is_disabled":false,"rental_uris":{"android":"levelo://app?vid=38625b4d-47d0-4df6-b214-9eb5eae0e53d","ios":"levelo://app?vid=38625b4d-47d0-4df6-b214-9eb5eae0e53d"},"vehicle_type_id":"4","last_reported":1703675144,"current_range_meters":10000,"station_id":"chh1huq6cuj3fo74tm60","pricing_plan_id":"free"},{"bike_id":"495faf64-a935-4c6e-b77f-2b296d14493a","system_id":"levelo_inurba_marseille","lat":43.331017,"lon":5.389194,"is_reserved":false,"is_disabled":false,"rental_uris":{"android":"levelo://app?vid=495faf64-a935-4c6e-b77f-2b296d14493a","ios":"levelo://app?vid=495faf64-a935-4c6e-b77f-2b296d14493a"},"vehicle_type_id":"4","last_reported":1703675144,"current_range_meters":16800,"station_id":"","pricing_plan_id":"free"},{"bike_id":"1f35156d-0504-4380-9e27-573fecb4657e","system_id":"levelo_inurba_marseille","lat":43.284538,"lon":5.358657,"is_reserved":false,"is_disabled":false,"rental_uris":{"android":"levelo://app?vid=1f35156d-0504-4380-9e27-573fecb4657e","ios":"levelo://app?vid=1f35156d-0504-4380-9e27-573fecb4657e"},"vehicle_type_id":"4","last_reported":1703675144,"current_range_meters":24400,"station_id":"ce4bhah2rcd13ifvqei0","pricing_plan_id":"free"},{"bike_id":"276c5078-d675-47e0-b191-46dd933c8038","system_id":"levelo_inurba_marseille","lat":43.33021,"lon":5.39043,"is_reserved":false,"is_disabled":false,"rental_uris":{"android":"levelo://app?vid=276c5078-d675-47e0-b191-46dd933c8038","ios":"levelo://app?vid=276c5078-d675-47e0-b191-46dd933c8038"},"vehicle_type_id":"4","last_reported":1703675144,"current_range_meters":3600,"station_id":"","pricing_plan_id":"free"},{"bike_id":"370cccf7-c9ba-46c2-819b-c8e8cacc4c21","system_id":"levelo_inurba_marseille","lat":43.33019,"lon":5.39046,"is_reserved":false,"is_disabled":false,"rental_uris":{"android":"levelo://app?vid=370cccf7-c9ba-46c2-819b-c8e8cacc4c21","ios":"levelo://app?vid=370cccf7-c9ba-46c2-819b-c8e8cacc4c21"},"vehicle_type_id":"4","last_reported":1703675144,"current_range_meters":16400,"station_id":"","pricing_plan_id":"free"},{"bike_id":"95a8bad4-84a5-4a68-a4d8-ab38cc1f3f3c","system_id":"levelo_inurba_marseille","lat":43.2901,"lon":5.381269,"is_reserved":false,"is_disabled":false,"rental_uris":{"android":"levelo://app?vid=95a8bad4-84a5-4a68-a4d8-ab38cc1f3f3c","ios":"levelo://app?vid=95a8bad4-84a5-4a68-a4d8-ab38cc1f3f3c"},"vehicle_type_id":"4","last_reported":1703675144,"current_range_meters":28800,"station_id":"ce4bh4p2rcd13ifvqe1g","pricing_plan_id":"free"},{"bike_id":"40ddc76f-21d7-44e6-acd6-600504551103","system_id":"levelo_inurba_marseille","lat":43.2901,"lon":5.381269,"is_reserved":false,"is_disabled":false,"rental_uris":{"android":"levelo://app?vid=40ddc76f-21d7-44e6-acd6-600504551103","ios":"levelo://app?vid=40ddc76f-21d7-44e6-acd6-600504551103"},"vehicle_type_id":"4","last_reported":1703675144,"current_range_meters":29600,"station_id":"ce4bh4p2rcd13ifvqe1g","pricing_plan_id":"free"},{"bike_id":"2049ee9c-17d1-46a8-bbf5-13a3f9ce9d7c","system_id":"levelo_inurba_marseille","lat":43.290243,"lon":5.38133,"is_reserved":false,"is_disabled":false,"rental_uris":{"android":"levelo://app?vid=2049ee9c-17d1-46a8-bbf5-13a3f9ce9d7c","ios":"levelo://app?vid=2049ee9c-17d1-46a8-bbf5-13a3f9ce9d7c"},"vehicle_type_id":"4","last_reported":1703675144,"current_range_meters":14800,"station_id":"ce4bh4p2rcd13ifvqe1g","pricing_plan_id":"free"},{"bike_id":"7a543b19-90cd-4a87-b80d-37f423d89307","system_id":"levelo_inurba_marseille","lat":43.330385,"lon":5.391222,"is_reserved":false,"is_disabled":false,"rental_uris":{"android":"levelo://app?vid=7a543b19-90cd-4a87-b80d-37f423d89307","ios":"levelo://app?vid=7a543b19-90cd-4a87-b80d-37f423d89307"},"vehicle_type_id":"4","last_reported":1703675144,"current_range_meters":4800,"station_id":"","pricing_plan_id":"free"},{"bike_id":"3de2d39a-8d21-4ad8-8db1-706219f7d669","system_id":"levelo_inurba_marseille","lat":43.312779,"lon":5.401569,"is_reserved":false,"is_disabled":false,"rental_uris":{"android":"levelo://app?vid=3de2d39a-8d21-4ad8-8db1-706219f7d669","ios":"levelo://app?vid=3de2d39a-8d21-4ad8-8db1-706219f7d669"},"vehicle_type_id":"4","last_reported":1703675144,"current_range_meters":7200,"station_id":"ce4bh092rcd13ifvqd30","pricing_plan_id":"free"},{"bike_id":"a74afbca-d0f7-4bca-9627-ccf286ba1b35","system_id":"levelo_inurba_marseille","lat":43.312609,"lon":5.401662,"is_reserved":false,"is_disabled":false,"rental_uris":{"android":"levelo://app?vid=a74afbca-d0f7-4bca-9627-ccf286ba1b35","ios":"levelo://app?vid=a74afbca-d0f7-4bca-9627-ccf286ba1b35"},"vehicle_type_id":"4","last_reported":1703675144,"current_range_meters":12400,"station_id":"ce4bh092rcd13ifvqd30","pricing_plan_id":"free"},{"bike_id":"ebfe6fb4-dca5-4644-983c-b19c6f78c74e","system_id":"levelo_inurba_marseille","lat":43.312609,"lon":5.401662,"is_reserved":false,"is_disabled":false,"rental_uris":{"android":"levelo://app?vid=ebfe6fb4-dca5-4644-983c-b19c6f78c74e","ios":"levelo://app?vid=ebfe6fb4-dca5-4644-983c-b19c6f78c74e"},"vehicle_type_id":"4","last_reported":1703675144,"current_range_meters":15200,"station_id":"ce4bh092rcd13ifvqd30","pricing_plan_id":"free"},{"bike_id":"b8ad220d-c11d-4378-a8cf-420aaf9df86f","system_id":"levelo_inurba_marseille","lat":43.337381,"lon":5.374556,"is_reserved":false,"is_disabled":false,"rental_uris":{"android":"levelo://app?vid=b8ad220d-c11d-4378-a8cf-420aaf9df86f","ios":"levelo://app?vid=b8ad220d-c11d-4378-a8cf-420aaf9df86f"},"vehicle_type_id":"4","last_reported":1703675144,"current_range_meters":30000,"station_id":"","pricing_plan_id":"free"},{"bike_id":"e80f0ed0-6a4e-405a-8da1-244c0c09f819","system_id":"levelo_inurba_marseille","lat":43.312609,"lon":5.401662,"is_reserved":false,"is_disabled":false,"rental_uris":{"android":"levelo://app?vid=e80f0ed0-6a4e-405a-8da1-244c0c09f819","ios":"levelo://app?vid=e80f0ed0-6a4e-405a-8da1-244c0c09f819"},"vehicle_type_id":"4","last_reported":1703675144,"current_range_meters":19200,"station_id":"ce4bh092rcd13ifvqd30","pricing_plan_id":"free"},{"bike_id":"fc15c8d0-e517-4abe-84e5-8b5edbd6104d","system_id":"levelo_inurba_marseille","lat":43.30642,"lon":5.401031,"is_reserved":false,"is_disabled":false,"rental_uris":{"android":"levelo://app?vid=fc15c8d0-e517-4abe-84e5-8b5edbd6104d","ios":"levelo://app?vid=fc15c8d0-e517-4abe-84e5-8b5edbd6104d"},"vehicle_type_id":"4","last_reported":1703675144,"current_range_meters":30400,"station_id":"ce4bh112rcd13ifvqda0","pricing_plan_id":"free"},{"bike_id":"5810a51d-900e-4f21-b011-504985336ccb","system_id":"levelo_inurba_marseille","lat":43.337669,"lon":5.374473,"is_reserved":false,"is_disabled":false,"rental_uris":{"android":"levelo://app?vid=5810a51d-900e-4f21-b011-504985336ccb","ios":"levelo://app?vid=5810a51d-900e-4f21-b011-504985336ccb"},"vehicle_type_id":"4","last_reported":1703675144,"current_range_meters":28400,"station_id":"ce4rr2p2rcd13i802rgg","pricing_plan_id":"free"},{"bike_id":"c09aaeb6-113e-420b-9716-6389504faf63","system_id":"levelo_inurba_marseille","lat":43.30642,"lon":5.401031,"is_reserved":false,"is_disabled":false,"rental_uris":{"android":"levelo://app?vid=c09aaeb6-113e-420b-9716-6389504faf63","ios":"levelo://app?vid=c09aaeb6-113e-420b-9716-6389504faf63"},"vehicle_type_id":"4","last_reported":1703675144,"current_range_meters":16800,"station_id":"ce4bh112rcd13ifvqda0","pricing_plan_id":"free"},{"bike_id":"0572e11d-ec7c-4be7-932a-bafcc05e8303","system_id":"levelo_inurba_marseille","lat":43.301117,"lon":5.398795,"is_reserved":false,"is_disabled":false,"rental_uris":{"android":"levelo://app?vid=0572e11d-ec7c-4be7-932a-bafcc05e8303","ios":"levelo://app?vid=0572e11d-ec7c-4be7-932a-bafcc05e8303"},"vehicle_type_id":"4","last_reported":1703675144,"current_range_meters":23200,"station_id":"ce4bh0h2rcd13ifvqd40","pricing_plan_id":"free"},{"bike_id":"efa4bdad-d1c6-4947-b9f2-fca7e9f233ef","system_id":"levelo_inurba_marseille","lat":43.30133,"lon":5.39869,"is_reserved":false,"is_disabled":false,"rental_uris":{"android":"levelo://app?vid=efa4bdad-d1c6-4947-b9f2-fca7e9f233ef","ios":"levelo://app?vid=efa4bdad-d1c6-4947-b9f2-fca7e9f233ef"},"vehicle_type_id":"4","last_reported":1703675144,"current_range_meters":26800,"station_id":"ce4bh0h2rcd13ifvqd40","pricing_plan_id":"free"},{"bike_id":"aa743935-8558-45a1-aa4e-06dd50e5fa89","system_id":"levelo_inurba_marseille","lat":43.28727,"lon":5.36078,"is_reserved":false,"is_disabled":false,"rental_uris":{"android":"levelo://app?vid=aa743935-8558-45a1-aa4e-06dd50e5fa89","ios":"levelo://app?vid=aa743935-8558-45a1-aa4e-06dd50e5fa89"},"vehicle_type_id":"4","last_reported":1703675144,"current_range_meters":31200,"station_id":"cki0cbj6b192h4jlfktg","pricing_plan_id":"free"},{"bike_id":"395b4c6b-2846-48f8-adf3-a7b6e4defa20","system_id":"levelo_inurba_marseille","lat":43.28727,"lon":5.36078,"is_reserved":false,"is_disabled":false,"rental_uris":{"android":"levelo://app?vid=395b4c6b-2846-48f8-adf3-a7b6e4defa20","ios":"levelo://app?vid=395b4c6b-2846-48f8-adf3-a7b6e4defa20"},"vehicle_type_id":"4","last_reported":1703675144,"current_range_meters":31600,"station_id":"cki0cbj6b192h4jlfktg","pricing_plan_id":"free"},{"bike_id":"724ad528-868e-4aa6-901d-98ded2d09131","system_id":"levelo_inurba_marseille","lat":43.28727,"lon":5.36078,"is_reserved":false,"is_disabled":false,"rental_uris":{"android":"levelo://app?vid=724ad528-868e-4aa6-901d-98ded2d09131","ios":"levelo://app?vid=724ad528-868e-4aa6-901d-98ded2d09131"},"vehicle_type_id":"4","last_reported":1703675144,"current_range_meters":24400,"station_id":"cki0cbj6b192h4jlfktg","pricing_plan_id":"free"},{"bike_id":"90ec8a63-de85-44cd-9b6d-70708d09f61a","system_id":"levelo_inurba_marseille","lat":43.298681,"lon":5.397225,"is_reserved":false,"is_disabled":false,"rental_uris":{"android":"levelo://app?vid=90ec8a63-de85-44cd-9b6d-70708d09f61a","ios":"levelo://app?vid=90ec8a63-de85-44cd-9b6d-70708d09f61a"},"vehicle_type_id":"4","last_reported":1703675144,"current_range_meters":30000,"station_id":"ce4bh0h2rcd13ifvqd50","pricing_plan_id":"free"},{"bike_id":"08b36d16-9759-428c-8612-e7b754694f1c","system_id":"levelo_inurba_marseille","lat":43.295196,"lon":5.39397,"is_reserved":false,"is_disabled":false,"rental_uris":{"android":"levelo://app?vid=08b36d16-9759-428c-8612-e7b754694f1c","ios":"levelo://app?vid=08b36d16-9759-428c-8612-e7b754694f1c"},"vehicle_type_id":"4","last_reported":1703675144,"current_range_meters":22400,"station_id":"ce4bh292rcd13ifvqdf0","pricing_plan_id":"free"},{"bike_id":"6fbf3895-d9f1-49f8-a968-71cf1727efd3","system_id":"levelo_inurba_marseille","lat":43.302759,"lon":5.400793,"is_reserved":false,"is_disabled":false,"rental_uris":{"android":"levelo://app?vid=6fbf3895-d9f1-49f8-a968-71cf1727efd3","ios":"levelo://app?vid=6fbf3895-d9f1-49f8-a968-71cf1727efd3"},"vehicle_type_id":"4","last_reported":1703675144,"current_range_meters":31200,"station_id":"ce4bgvh2rcd13ifvqcs0","pricing_plan_id":"free"},{"bike_id":"e2adfa7c-882e-48a1-9ee4-b36e6186ebbf","system_id":"levelo_inurba_marseille","lat":43.330912,"lon":5.396935,"is_reserved":false,"is_disabled":false,"rental_uris":{"android":"levelo://app?vid=e2adfa7c-882e-48a1-9ee4-b36e6186ebbf","ios":"levelo://app?vid=e2adfa7c-882e-48a1-9ee4-b36e6186ebbf"},"vehicle_type_id":"4","last_reported":1703675144,"current_range_meters":0,"station_id":"","pricing_plan_id":"free"},{"bike_id":"9766f81c-915b-4787-994d-ddbcb5bd8c99","system_id":"levelo_inurba_marseille","lat":43.284538,"lon":5.358657,"is_reserved":false,"is_disabled":false,"rental_uris":{"android":"levelo://app?vid=9766f81c-915b-4787-994d-ddbcb5bd8c99","ios":"levelo://app?vid=9766f81c-915b-4787-994d-ddbcb5bd8c99"},"vehicle_type_id":"4","last_reported":1703675144,"current_range_meters":20000,"station_id":"ce4bhah2rcd13ifvqei0","pricing_plan_id":"free"},{"bike_id":"d4f96582-f88b-4bbb-b80d-330306907182","system_id":"levelo_inurba_marseille","lat":43.284534,"lon":5.358662,"is_reserved":false,"is_disabled":false,"rental_uris":{"android":"levelo://app?vid=d4f96582-f88b-4bbb-b80d-330306907182","ios":"levelo://app?vid=d4f96582-f88b-4bbb-b80d-330306907182"},"vehicle_type_id":"4","last_reported":1703675144,"current_range_meters":27600,"station_id":"ce4bhah2rcd13ifvqei0","pricing_plan_id":"free"},{"bike_id":"9f75a46c-856c-430c-945a-ee2f32330eb6","system_id":"levelo_inurba_marseille","lat":43.295169,"lon":5.390426,"is_reserved":false,"is_disabled":false,"rental_uris":{"android":"levelo://app?vid=9f75a46c-856c-430c-945a-ee2f32330eb6","ios":"levelo://app?vid=9f75a46c-856c-430c-945a-ee2f32330eb6"},"vehicle_type_id":"4","last_reported":1703675144,"current_range_meters":4000,"station_id":"ce4bh3p2rcd13ifvqdp0","pricing_plan_id":"free"},{"bike_id":"29b0e79a-c4b1-4618-9632-48c18970938b","system_id":"levelo_inurba_marseille","lat":43.284534,"lon":5.358662,"is_reserved":false,"is_disabled":false,"rental_uris":{"android":"levelo://app?vid=29b0e79a-c4b1-4618-9632-48c18970938b","ios":"levelo://app?vid=29b0e79a-c4b1-4618-9632-48c18970938b"},"vehicle_type_id":"4","last_reported":1703675144,"current_range_meters":0,"station_id":"ce4bhah2rcd13ifvqei0","pricing_plan_id":"free"},{"bike_id":"e8461375-0f60-40d6-a4f2-f82cbfa959ea","system_id":"levelo_inurba_marseille","lat":43.284588,"lon":5.358917,"is_reserved":false,"is_disabled":false,"rental_uris":{"android":"levelo://app?vid=e8461375-0f60-40d6-a4f2-f82cbfa959ea","ios":"levelo://app?vid=e8461375-0f60-40d6-a4f2-f82cbfa959ea"},"vehicle_type_id":"4","last_reported":1703675144,"current_range_meters":14400,"station_id":"ce4bhah2rcd13ifvqei0","pricing_plan_id":"free"},{"bike_id":"6e2f050e-f189-4eec-9361-bc1a26638747","system_id":"levelo_inurba_marseille","lat":43.284534,"lon":5.358662,"is_reserved":false,"is_disabled":false,"rental_uris":{"android":"levelo://app?vid=6e2f050e-f189-4eec-9361-bc1a26638747","ios":"levelo://app?vid=6e2f050e-f189-4eec-9361-bc1a26638747"},"vehicle_type_id":"4","last_reported":1703675144,"current_range_meters":31600,"station_id":"ce4bhah2rcd13ifvqei0","pricing_plan_id":"free"},{"bike_id":"ec5235d9-7d6f-4082-8172-2e3bfe7b18e3","system_id":"levelo_inurba_marseille","lat":43.284538,"lon":5.358657,"is_reserved":false,"is_disabled":false,"rental_uris":{"android":"levelo://app?vid=ec5235d9-7d6f-4082-8172-2e3bfe7b18e3","ios":"levelo://app?vid=ec5235d9-7d6f-4082-8172-2e3bfe7b18e3"},"vehicle_type_id":"4","last_reported":1703675144,"current_range_meters":30000,"station_id":"ce4bhah2rcd13ifvqei0","pricing_plan_id":"free"},{"bike_id":"3ba09285-b777-4f84-b36b-32deefd312a8","system_id":"levelo_inurba_marseille","lat":43.294314,"lon":5.397498,"is_reserved":false,"is_disabled":false,"rental_uris":{"android":"levelo://app?vid=3ba09285-b777-4f84-b36b-32deefd312a8","ios":"levelo://app?vid=3ba09285-b777-4f84-b36b-32deefd312a8"},"vehicle_type_id":"4","last_reported":1703675144,"current_range_meters":25600,"station_id":"ce4bh3h2rcd13ifvqdo0","pricing_plan_id":"free"},{"bike_id":"39bb32ee-1394-487b-82e0-25147d83dbc7","system_id":"levelo_inurba_marseille","lat":43.28615,"lon":5.35104,"is_reserved":false,"is_disabled":false,"rental_uris":{"android":"levelo://app?vid=39bb32ee-1394-487b-82e0-25147d83dbc7","ios":"levelo://app?vid=39bb32ee-1394-487b-82e0-25147d83dbc7"},"vehicle_type_id":"4","last_reported":1703675144,"current_range_meters":22400,"station_id":"ce4bhch2rcd13ifvqeug","pricing_plan_id":"free"},{"bike_id":"fe1d0260-0e7a-4bd1-877b-0ca11697faa7","system_id":"levelo_inurba_marseille","lat":43.285856,"lon":5.350771,"is_reserved":false,"is_disabled":false,"rental_uris":{"android":"levelo://app?vid=fe1d0260-0e7a-4bd1-877b-0ca11697faa7","ios":"levelo://app?vid=fe1d0260-0e7a-4bd1-877b-0ca11697faa7"},"vehicle_type_id":"4","last_reported":1703675144,"current_range_meters":22400,"station_id":"ce4bhch2rcd13ifvqeug","pricing_plan_id":"free"},{"bike_id":"83aec757-a91f-4b76-9615-a2a2dce68e38","system_id":"levelo_inurba_marseille","lat":43.295713,"lon":5.399639,"is_reserved":false,"is_disabled":false,"rental_uris":{"android":"levelo://app?vid=83aec757-a91f-4b76-9615-a2a2dce68e38","ios":"levelo://app?vid=83aec757-a91f-4b76-9615-a2a2dce68e38"},"vehicle_type_id":"4","last_reported":1703675144,"current_range_meters":16000,"station_id":"ce4bh312rcd13ifvqdj0","pricing_plan_id":"free"},{"bike_id":"dad15610-19a0-43ee-97bd-2a3c1699e416","system_id":"levelo_inurba_marseille","lat":43.285856,"lon":5.350771,"is_reserved":false,"is_disabled":false,"rental_uris":{"android":"levelo://app?vid=dad15610-19a0-43ee-97bd-2a3c1699e416","ios":"levelo://app?vid=dad15610-19a0-43ee-97bd-2a3c1699e416"},"vehicle_type_id":"4","last_reported":1703675144,"current_range_meters":19600,"station_id":"ce4bhch2rcd13ifvqeug","pricing_plan_id":"free"},{"bike_id":"8674e5f2-9049-46c9-b56a-4b649e65a82f","system_id":"levelo_inurba_marseille","lat":43.285856,"lon":5.350771,"is_reserved":false,"is_disabled":false,"rental_uris":{"android":"levelo://app?vid=8674e5f2-9049-46c9-b56a-4b649e65a82f","ios":"levelo://app?vid=8674e5f2-9049-46c9-b56a-4b649e65a82f"},"vehicle_type_id":"4","last_reported":1703675144,"current_range_meters":25200,"station_id":"ce4bhch2rcd13ifvqeug","pricing_plan_id":"free"},{"bike_id":"1105d5f1-c444-4dc5-9dba-da9a26de5766","system_id":"levelo_inurba_marseille","lat":43.285848,"lon":5.350787,"is_reserved":false,"is_disabled":false,"rental_uris":{"android":"levelo://app?vid=1105d5f1-c444-4dc5-9dba-da9a26de5766","ios":"levelo://app?vid=1105d5f1-c444-4dc5-9dba-da9a26de5766"},"vehicle_type_id":"4","last_reported":1703675144,"current_range_meters":24800,"station_id":"ce4bhch2rcd13ifvqeug","pricing_plan_id":"free"},{"bike_id":"8adc8d2b-d6d4-4dca-acdb-6f0640e12cef","system_id":"levelo_inurba_marseille","lat":43.295713,"lon":5.399639,"is_reserved":false,"is_disabled":false,"rental_uris":{"android":"levelo://app?vid=8adc8d2b-d6d4-4dca-acdb-6f0640e12cef","ios":"levelo://app?vid=8adc8d2b-d6d4-4dca-acdb-6f0640e12cef"},"vehicle_type_id":"4","last_reported":1703675144,"current_range_meters":30000,"station_id":"ce4bh312rcd13ifvqdj0","pricing_plan_id":"free"},{"bike_id":"27d6ce92-f298-40da-97ab-d1299622bfd2","system_id":"levelo_inurba_marseille","lat":43.319179,"lon":5.407725,"is_reserved":false,"is_disabled":false,"rental_uris":{"android":"levelo://app?vid=27d6ce92-f298-40da-97ab-d1299622bfd2","ios":"levelo://app?vid=27d6ce92-f298-40da-97ab-d1299622bfd2"},"vehicle_type_id":"4","last_reported":1703675144,"current_range_meters":25600,"station_id":"ce4bhq12rcd13ifvqhig","pricing_plan_id":"free"},{"bike_id":"2c19d3c9-4607-4f7c-a824-53ba2d2ee0b5","system_id":"levelo_inurba_marseille","lat":43.319179,"lon":5.407725,"is_reserved":false,"is_disabled":false,"rental_uris":{"android":"levelo://app?vid=2c19d3c9-4607-4f7c-a824-53ba2d2ee0b5","ios":"levelo://app?vid=2c19d3c9-4607-4f7c-a824-53ba2d2ee0b5"},"vehicle_type_id":"4","last_reported":1703675144,"current_range_meters":28000,"station_id":"ce4bhq12rcd13ifvqhig","pricing_plan_id":"free"},{"bike_id":"60f88bc2-f11a-4f80-8dc4-bcdce989f2f8","system_id":"levelo_inurba_marseille","lat":43.284793,"lon":5.384113,"is_reserved":false,"is_disabled":false,"rental_uris":{"android":"levelo://app?vid=60f88bc2-f11a-4f80-8dc4-bcdce989f2f8","ios":"levelo://app?vid=60f88bc2-f11a-4f80-8dc4-bcdce989f2f8"},"vehicle_type_id":"4","last_reported":1703675144,"current_range_meters":28000,"station_id":"ce4bh512rcd13ifvqe3g","pricing_plan_id":"free"},{"bike_id":"769019c4-eb9e-4a31-95b4-3ef192cc753f","system_id":"levelo_inurba_marseille","lat":43.28741,"lon":5.38986,"is_reserved":false,"is_disabled":false,"rental_uris":{"android":"levelo://app?vid=769019c4-eb9e-4a31-95b4-3ef192cc753f","ios":"levelo://app?vid=769019c4-eb9e-4a31-95b4-3ef192cc753f"},"vehicle_type_id":"4","last_reported":1703675144,"current_range_meters":3200,"station_id":"","pricing_plan_id":"free"},{"bike_id":"34552b8f-c7bb-4791-a358-f93b93898df9","system_id":"levelo_inurba_marseille","lat":43.323464,"lon":5.406297,"is_reserved":false,"is_disabled":false,"rental_uris":{"android":"levelo://app?vid=34552b8f-c7bb-4791-a358-f93b93898df9","ios":"levelo://app?vid=34552b8f-c7bb-4791-a358-f93b93898df9"},"vehicle_type_id":"4","last_reported":1703675144,"current_range_meters":31200,"station_id":"ce4bhq92rcd13ifvqhjg","pricing_plan_id":"free"},{"bike_id":"fdbbfd13-a35d-4174-8ff7-eda61486c3fd","system_id":"levelo_inurba_marseille","lat":43.323464,"lon":5.406297,"is_reserved":false,"is_disabled":false,"rental_uris":{"android":"levelo://app?vid=fdbbfd13-a35d-4174-8ff7-eda61486c3fd","ios":"levelo://app?vid=fdbbfd13-a35d-4174-8ff7-eda61486c3fd"},"vehicle_type_id":"4","last_reported":1703675144,"current_range_meters":31200,"station_id":"ce4bhq92rcd13ifvqhjg","pricing_plan_id":"free"},{"bike_id":"4fa01bdd-5629-4c59-b63e-c36dfa4d80f6","system_id":"levelo_inurba_marseille","lat":43.323464,"lon":5.406297,"is_reserved":false,"is_disabled":false,"rental_uris":{"android":"levelo://app?vid=4fa01bdd-5629-4c59-b63e-c36dfa4d80f6","ios":"levelo://app?vid=4fa01bdd-5629-4c59-b63e-c36dfa4d80f6"},"vehicle_type_id":"4","last_reported":1703675144,"current_range_meters":29600,"station_id":"ce4bhq92rcd13ifvqhjg","pricing_plan_id":"free"},{"bike_id":"c0c65d69-902f-4d01-a014-7499f02076cf","system_id":"levelo_inurba_marseille","lat":43.284787,"lon":5.384116,"is_reserved":false,"is_disabled":false,"rental_uris":{"android":"levelo://app?vid=c0c65d69-902f-4d01-a014-7499f02076cf","ios":"levelo://app?vid=c0c65d69-902f-4d01-a014-7499f02076cf"},"vehicle_type_id":"4","last_reported":1703675144,"current_range_meters":30000,"station_id":"ce4bh512rcd13ifvqe3g","pricing_plan_id":"free"},{"bike_id":"2971b8a4-e847-4711-a7d4-770c03fe8a4e","system_id":"levelo_inurba_marseille","lat":43.284733,"lon":5.384214,"is_reserved":false,"is_disabled":false,"rental_uris":{"android":"levelo://app?vid=2971b8a4-e847-4711-a7d4-770c03fe8a4e","ios":"levelo://app?vid=2971b8a4-e847-4711-a7d4-770c03fe8a4e"},"vehicle_type_id":"4","last_reported":1703675144,"current_range_meters":28400,"station_id":"ce4bh512rcd13ifvqe3g","pricing_plan_id":"free"},{"bike_id":"d60802d6-4f47-444a-b234-883690eec05b","system_id":"levelo_inurba_marseille","lat":43.33317,"lon":5.39847,"is_reserved":false,"is_disabled":false,"rental_uris":{"android":"levelo://app?vid=d60802d6-4f47-444a-b234-883690eec05b","ios":"levelo://app?vid=d60802d6-4f47-444a-b234-883690eec05b"},"vehicle_type_id":"4","last_reported":1703675144,"current_range_meters":31200,"station_id":"","pricing_plan_id":"free"},{"bike_id":"e485450b-2736-4f4c-b94b-0da5a69b88aa","system_id":"levelo_inurba_marseille","lat":43.33385,"lon":5.39822,"is_reserved":false,"is_disabled":false,"rental_uris":{"android":"levelo://app?vid=e485450b-2736-4f4c-b94b-0da5a69b88aa","ios":"levelo://app?vid=e485450b-2736-4f4c-b94b-0da5a69b88aa"},"vehicle_type_id":"4","last_reported":1703675144,"current_range_meters":18800,"station_id":"","pricing_plan_id":"free"},{"bike_id":"2e0fadb3-e581-40cc-83c3-8e6f32fcef77","system_id":"levelo_inurba_marseille","lat":43.284219,"lon":5.3497,"is_reserved":false,"is_disabled":false,"rental_uris":{"android":"levelo://app?vid=2e0fadb3-e581-40cc-83c3-8e6f32fcef77","ios":"levelo://app?vid=2e0fadb3-e581-40cc-83c3-8e6f32fcef77"},"vehicle_type_id":"4","last_reported":1703675144,"current_range_meters":26400,"station_id":"ce4bhbh2rcd13ifvqepg","pricing_plan_id":"free"},{"bike_id":"4711b521-24f2-42ed-ad1a-2f7d37c91a38","system_id":"levelo_inurba_marseille","lat":43.289363,"lon":5.396322,"is_reserved":false,"is_disabled":false,"rental_uris":{"android":"levelo://app?vid=4711b521-24f2-42ed-ad1a-2f7d37c91a38","ios":"levelo://app?vid=4711b521-24f2-42ed-ad1a-2f7d37c91a38"},"vehicle_type_id":"4","last_reported":1703675144,"current_range_meters":23200,"station_id":"ce4bh3h2rcd13ifvqdn0","pricing_plan_id":"free"},{"bike_id":"3061696c-3362-4bab-8410-ed23b1e28363","system_id":"levelo_inurba_marseille","lat":43.292724,"lon":5.401131,"is_reserved":false,"is_disabled":false,"rental_uris":{"android":"levelo://app?vid=3061696c-3362-4bab-8410-ed23b1e28363","ios":"levelo://app?vid=3061696c-3362-4bab-8410-ed23b1e28363"},"vehicle_type_id":"4","last_reported":1703675144,"current_range_meters":26800,"station_id":"ce4bh312rcd13ifvqdk0","pricing_plan_id":"free"},{"bike_id":"ded108ab-dcb5-429b-9b3b-aa0ae7a43dfb","system_id":"levelo_inurba_marseille","lat":43.28272,"lon":5.350633,"is_reserved":false,"is_disabled":false,"rental_uris":{"android":"levelo://app?vid=ded108ab-dcb5-429b-9b3b-aa0ae7a43dfb","ios":"levelo://app?vid=ded108ab-dcb5-429b-9b3b-aa0ae7a43dfb"},"vehicle_type_id":"4","last_reported":1703675144,"current_range_meters":14000,"station_id":"ce4bhbp2rcd13ifvqerg","pricing_plan_id":"free"},{"bike_id":"50b74807-ea59-48d6-8f46-e58e2792f6e8","system_id":"levelo_inurba_marseille","lat":43.283502,"lon":5.386471,"is_reserved":false,"is_disabled":false,"rental_uris":{"android":"levelo://app?vid=50b74807-ea59-48d6-8f46-e58e2792f6e8","ios":"levelo://app?vid=50b74807-ea59-48d6-8f46-e58e2792f6e8"},"vehicle_type_id":"4","last_reported":1703675144,"current_range_meters":22800,"station_id":"ce4bh492rcd13ifvqdvg","pricing_plan_id":"free"},{"bike_id":"08081c07-4ac4-4390-89e7-b8a06b54db30","system_id":"levelo_inurba_marseille","lat":43.283642,"lon":5.386504,"is_reserved":false,"is_disabled":false,"rental_uris":{"android":"levelo://app?vid=08081c07-4ac4-4390-89e7-b8a06b54db30","ios":"levelo://app?vid=08081c07-4ac4-4390-89e7-b8a06b54db30"},"vehicle_type_id":"4","last_reported":1703675144,"current_range_meters":14800,"station_id":"ce4bh492rcd13ifvqdvg","pricing_plan_id":"free"},{"bike_id":"1a95d4de-1fa3-4c2b-8aed-0dc809aa8770","system_id":"levelo_inurba_marseille","lat":43.28039,"lon":5.369297,"is_reserved":false,"is_disabled":false,"rental_uris":{"android":"levelo://app?vid=1a95d4de-1fa3-4c2b-8aed-0dc809aa8770","ios":"levelo://app?vid=1a95d4de-1fa3-4c2b-8aed-0dc809aa8770"},"vehicle_type_id":"4","last_reported":1703675144,"current_range_meters":31200,"station_id":"ce4bha12rcd13ifvqef0","pricing_plan_id":"free"},{"bike_id":"874247a8-b851-4752-bb55-16e8eebdc42c","system_id":"levelo_inurba_marseille","lat":43.280382,"lon":5.369291,"is_reserved":false,"is_disabled":false,"rental_uris":{"android":"levelo://app?vid=874247a8-b851-4752-bb55-16e8eebdc42c","ios":"levelo://app?vid=874247a8-b851-4752-bb55-16e8eebdc42c"},"vehicle_type_id":"4","last_reported":1703675144,"current_range_meters":31200,"station_id":"ce4bha12rcd13ifvqef0","pricing_plan_id":"free"},{"bike_id":"24e2c243-d810-4cb0-bf16-4757ab160c8b","system_id":"levelo_inurba_marseille","lat":43.28039,"lon":5.369297,"is_reserved":false,"is_disabled":false,"rental_uris":{"android":"levelo://app?vid=24e2c243-d810-4cb0-bf16-4757ab160c8b","ios":"levelo://app?vid=24e2c243-d810-4cb0-bf16-4757ab160c8b"},"vehicle_type_id":"4","last_reported":1703675144,"current_range_meters":31200,"station_id":"ce4bha12rcd13ifvqef0","pricing_plan_id":"free"},{"bike_id":"21cdddc6-61d7-4c4d-8e98-9b6c2f0d4480","system_id":"levelo_inurba_marseille","lat":43.280382,"lon":5.369291,"is_reserved":false,"is_disabled":false,"rental_uris":{"android":"levelo://app?vid=21cdddc6-61d7-4c4d-8e98-9b6c2f0d4480","ios":"levelo://app?vid=21cdddc6-61d7-4c4d-8e98-9b6c2f0d4480"},"vehicle_type_id":"4","last_reported":1703675144,"current_range_meters":30000,"station_id":"ce4bha12rcd13ifvqef0","pricing_plan_id":"free"},{"bike_id":"b0afad70-cf1e-4652-afbe-225426f48ac2","system_id":"levelo_inurba_marseille","lat":43.29041,"lon":5.399634,"is_reserved":false,"is_disabled":false,"rental_uris":{"android":"levelo://app?vid=b0afad70-cf1e-4652-afbe-225426f48ac2","ios":"levelo://app?vid=b0afad70-cf1e-4652-afbe-225426f48ac2"},"vehicle_type_id":"4","last_reported":1703675144,"current_range_meters":31200,"station_id":"ce4bh392rcd13ifvqdm0","pricing_plan_id":"free"},{"bike_id":"7c03d0c2-1f37-4959-b920-af70194c329d","system_id":"levelo_inurba_marseille","lat":43.296263,"lon":5.40601,"is_reserved":false,"is_disabled":false,"rental_uris":{"android":"levelo://app?vid=7c03d0c2-1f37-4959-b920-af70194c329d","ios":"levelo://app?vid=7c03d0c2-1f37-4959-b920-af70194c329d"},"vehicle_type_id":"4","last_reported":1703675144,"current_range_meters":28400,"station_id":"ce4bh0h2rcd13ifvqd60","pricing_plan_id":"free"},{"bike_id":"61664b73-34a4-42d0-ad72-4de632914dfa","system_id":"levelo_inurba_marseille","lat":43.284462,"lon":5.392121,"is_reserved":false,"is_disabled":false,"rental_uris":{"android":"levelo://app?vid=61664b73-34a4-42d0-ad72-4de632914dfa","ios":"levelo://app?vid=61664b73-34a4-42d0-ad72-4de632914dfa"},"vehicle_type_id":"4","last_reported":1703675144,"current_range_meters":24400,"station_id":"ce4bhoh2rcd13ifvqh5g","pricing_plan_id":"free"},{"bike_id":"c1c0a5a5-ee88-4e7f-8342-e4ef1b8b65fb","system_id":"levelo_inurba_marseille","lat":43.28573,"lon":5.394992,"is_reserved":false,"is_disabled":false,"rental_uris":{"android":"levelo://app?vid=c1c0a5a5-ee88-4e7f-8342-e4ef1b8b65fb","ios":"levelo://app?vid=c1c0a5a5-ee88-4e7f-8342-e4ef1b8b65fb"},"vehicle_type_id":"4","last_reported":1703675144,"current_range_meters":29200,"station_id":"ce4bh292rcd13ifvqdg0","pricing_plan_id":"free"},{"bike_id":"c9d73eed-5888-4e39-be0e-da9a3b48d0b3","system_id":"levelo_inurba_marseille","lat":43.283633,"lon":5.392028,"is_reserved":false,"is_disabled":false,"rental_uris":{"android":"levelo://app?vid=c9d73eed-5888-4e39-be0e-da9a3b48d0b3","ios":"levelo://app?vid=c9d73eed-5888-4e39-be0e-da9a3b48d0b3"},"vehicle_type_id":"4","last_reported":1703675144,"current_range_meters":23200,"station_id":"","pricing_plan_id":"free"},{"bike_id":"382817f5-305b-4a2e-9b98-6727492e26f7","system_id":"levelo_inurba_marseille","lat":43.304188,"lon":5.412904,"is_reserved":false,"is_disabled":false,"rental_uris":{"android":"levelo://app?vid=382817f5-305b-4a2e-9b98-6727492e26f7","ios":"levelo://app?vid=382817f5-305b-4a2e-9b98-6727492e26f7"},"vehicle_type_id":"4","last_reported":1703675144,"current_range_meters":13600,"station_id":"ce4bhop2rcd13ifvqh8g","pricing_plan_id":"free"},{"bike_id":"67faecc4-9a22-4583-bdb1-f4c053f949fd","system_id":"levelo_inurba_marseille","lat":43.304188,"lon":5.412904,"is_reserved":false,"is_disabled":false,"rental_uris":{"android":"levelo://app?vid=67faecc4-9a22-4583-bdb1-f4c053f949fd","ios":"levelo://app?vid=67faecc4-9a22-4583-bdb1-f4c053f949fd"},"vehicle_type_id":"4","last_reported":1703675144,"current_range_meters":28000,"station_id":"ce4bhop2rcd13ifvqh8g","pricing_plan_id":"free"},{"bike_id":"a4a5ccde-62af-4c28-95c1-d68b50703509","system_id":"levelo_inurba_marseille","lat":43.32672,"lon":5.41035,"is_reserved":false,"is_disabled":false,"rental_uris":{"android":"levelo://app?vid=a4a5ccde-62af-4c28-95c1-d68b50703509","ios":"levelo://app?vid=a4a5ccde-62af-4c28-95c1-d68b50703509"},"vehicle_type_id":"4","last_reported":1703675144,"current_range_meters":27200,"station_id":"ce4bhpp2rcd13ifvqhgg","pricing_plan_id":"free"},{"bike_id":"e4562e61-c7f1-432e-a237-2760948baef0","system_id":"levelo_inurba_marseille","lat":43.287154,"lon":5.399979,"is_reserved":false,"is_disabled":false,"rental_uris":{"android":"levelo://app?vid=e4562e61-c7f1-432e-a237-2760948baef0","ios":"levelo://app?vid=e4562e61-c7f1-432e-a237-2760948baef0"},"vehicle_type_id":"4","last_reported":1703675144,"current_range_meters":21200,"station_id":"ce4bho92rcd13ifvqh3g","pricing_plan_id":"free"},