{"last_updated":1750453736,"ttl":60,"version":"2.2","data":{"bikes":[{"bike_id":"3da29fb8-fc97-44c6-b9ac-31dd456b2fd4","system_id":"levelo_inurba_marseille","lat":43.33771,"lon":5.37424,"is_reserved":false,"is_disabled":true,"rental_uris":{"android":"levelo://app?vid=3da29fb8-fc97-44c6-b9ac-31dd456b2fd4","ios":"levelo://app?vid=3da29fb8-fc97-44c6-b9ac-31dd456b2fd4"},"vehicle_type_id":"4","last_reported":1750453737,"current_range_meters":0,"station_id":"","pricing_plan_id":"cebpf4jnsgd1na2vs0mg"},{"bike_id":"01861ad8-a8d7-4be6-816e-651927c87584","system_id":"levelo_inurba_marseille","lat":43.33751,"lon":5.37456,"is_reserved":false,"is_disabled":true,"rental_uris":{"android":"levelo://app?vid=01861ad8-a8d7-4be6-816e-651927c87584","ios":"levelo://app?vid=01861ad8-a8d7-4be6-816e-651927c87584"},"vehicle_type_id":"4","last_reported":1750453737,"current_range_meters":0,"station_id":"","pricing_plan_id":"cebpf4jnsgd1na2vs0mg"},{"bike_id":"7bcccf35-e344-4f00-9a7f-199c76d3c58d","system_id":"levelo_inurba_marseille","lat":43.29169,"lon":5.41598,"is_reserved":false,"is_disabled":true,"rental_uris":{"android":"levelo://app?vid=7bcccf35-e344-4f00-9a7f-199c76d3c58d","ios":"levelo://app?vid=7bcccf35-e344-4f00-9a7f-199c76d3c58d"},"vehicle_type_id":"4","last_reported":1750453737,"current_range_meters":0,"station_id":"","pricing_plan_id":"cebpf4jnsgd1na2vs0mg"},{"bike_id":"1eea55df-a17e-4fdf-a523-9ad982e8087b","system_id":"levelo_inurba_marseille","lat":43.3316,"lon":5.38182,"is_reserved":false,"is_disabled":true,"rental_uris":{"android":"levelo://app?vid=1eea55df-a17e-4fdf-a523-9ad982e8087b","ios":"levelo://app?vid=1eea55df-a17e-4fdf-a523-9ad982e8087b"},"vehicle_type_id":"4","last_reported":1750453737,"current_range_meters":0,"station_id":"","pricing_plan_id":"cebpf4jnsgd1na2vs0mg"},{"bike_id":"d2bd57c8-6b64-48db-ad24-5398eb3fd9d6","system_id":"levelo_inurba_marseille","lat":43.337444,"lon":5.374475,"is_reserved":false,"is_disabled":true,"rental_uris":{"android":"levelo://app?vid=d2bd57c8-6b64-48db-ad24-5398eb3fd9d6","ios":"levelo://app?vid=d2bd57c8-6b64-48db-ad24-5398eb3fd9d6"},"vehicle_type_id":"4","last_reported":1750453737,"current_range_meters":0,"station_id":"","pricing_plan_id":"cebpf4jnsgd1na2vs0mg"},{"bike_id":"62a493c7-4534-4419-ad43-0582de34a72a","system_id":"levelo_inurba_marseille","lat":43.21366,"lon":5.355183,"is_reserved":false,"is_disabled":true,"rental_uris":{"android":"levelo://app?vid=62a493c7-4534-4419-ad43-0582de34a72a","ios":"levelo://app?vid=62a493c7-4534-4419-ad43-0582de34a72a"},"vehicle_type_id":"4","last_reported":1750453737,"current_range_meters":0,"station_id":"","pricing_plan_id":"cebpf4jnsgd1na2vs0mg"},{"bike_id":"59f88fb1-a6f1-4c57-aa45-7f345d559650","system_id":"levelo_inurba_marseille","lat":43.323376,"lon":5.40625,"is_reserved":false,"is_disabled":true,"rental_uris":{"android":"levelo://app?vid=59f88fb1-a6f1-4c57-aa45-7f345d559650","ios":"levelo://app?vid=59f88fb1-a6f1-4c57-aa45-7f345d559650"},"vehicle_type_id":"4","last_reported":1750453737,"current_range_meters":0,"station_id":"","pricing_plan_id":"cebpf4jnsgd1na2vs0mg"},{"bike_id":"d5a1ae9e-4421-4539-b5ac-98a00695a8d8","system_id":"levelo_inurba_marseille","lat":43.3343,"lon":5.400345,"is_reserved":false,"is_disabled":true,"rental_uris":{"android":"levelo://app?vid=d5a1ae9e-4421-4539-b5ac-98a00695a8d8","ios":"levelo://app?vid=d5a1ae9e-4421-4539-b5ac-98a00695a8d8"},"vehicle_type_id":"4","last_reported":1750453737,"current_range_meters":0,"station_id":"","pricing_plan_id":"cebpf4jnsgd1na2vs0mg"},{"bike_id":"d6609b4f-333b-43c1-9ebe-8726f5e76e88","system_id":"levelo_inurba_marseille","lat":43.337444,"lon":5.374475,"is_reserved":false,"is_disabled":true,"rental_uris":{"android":"levelo://app?vid=d6609b4f-333b-43c1-9ebe-8726f5e76e88","ios":"levelo://app?vid=d6609b4f-333b-43c1-9ebe-8726f5e76e88"},"vehicle_type_id":"4","last_reported":1750453737,"current_range_meters":0,"station_id":"","pricing_plan_id":"cebpf4jnsgd1na2vs0mg"},{"bike_id":"11e13553-c475-421d-a348-bac5f0dccdd0","system_id":"levelo_inurba_marseille","lat":43.273107,"lon":5.399423,"is_reserved":false,"is_disabled":true,"rental_uris":{"android":"levelo://app?vid=11e13553-c475-421d-a348-bac5f0dccdd0","ios":"levelo://app?vid=11e13553-c475-421d-a348-bac5f0dccdd0"},"vehicle_type_id":"4","last_reported":1750453737,"current_range_meters":0,"station_id":"","pricing_plan_id":"cebpf4jnsgd1na2vs0mg"},{"bike_id":"990bc901-ee44-4071-986b-dcf82dd9d598","system_id":"levelo_inurba_marseille","lat":43.30327,"lon":5.40429,"is_reserved":false,"is_disabled":true,"rental_uris":{"android":"levelo://app?vid=990bc901-ee44-4071-986b-dcf82dd9d598","ios":"levelo://app?vid=990bc901-ee44-4071-986b-dcf82dd9d598"},"vehicle_type_id":"4","last_reported":1750453737,"current_range_meters":0,"station_id":"ce4bh012rcd13ifvqd10","pricing_plan_id":"cebpf4jnsgd1na2vs0mg"},{"bike_id":"982d89d8-a333-4489-bc32-54551848dace","system_id":"levelo_inurba_marseille","lat":43.28376,"lon":5.38644,"is_reserved":false,"is_disabled":true,"rental_uris":{"android":"levelo://app?vid=982d89d8-a333-4489-bc32-54551848dace","ios":"levelo://app?vid=982d89d8-a333-4489-bc32-54551848dace"},"vehicle_type_id":"4","last_reported":1750453737,"current_range_meters":0,"station_id":"ce4bh492rcd13ifvqdvg","pricing_plan_id":"cebpf4jnsgd1na2vs0mg"},{"bike_id":"e599175c-1f1a-4790-b945-a7eb70816d5a","system_id":"levelo_inurba_marseille","lat":43.28413,"lon":5.34986,"is_reserved":false,"is_disabled":true,"rental_uris":{"android":"levelo://app?vid=e599175c-1f1a-4790-b945-a7eb70816d5a","ios":"levelo://app?vid=e599175c-1f1a-4790-b945-a7eb70816d5a"},"vehicle_type_id":"4","last_reported":1750453737,"current_range_meters":0,"station_id":"ce4bhbh2rcd13ifvqepg","pricing_plan_id":"cebpf4jnsgd1na2vs0mg"},{"bike_id":"3f8ec4a8-4da4-4bad-852d-f385045ee1dc","system_id":"levelo_inurba_marseille","lat":43.25494,"lon":5.37646,"is_reserved":false,"is_disabled":true,"rental_uris":{"android":"levelo://app?vid=3f8ec4a8-4da4-4bad-852d-f385045ee1dc","ios":"levelo://app?vid=3f8ec4a8-4da4-4bad-852d-f385045ee1dc"},"vehicle_type_id":"4","last_reported":1750453737,"current_range_meters":0,"station_id":"ce4bhh12rcd13ifvqff0","pricing_plan_id":"cebpf4jnsgd1na2vs0mg"},{"bike_id":"2603cd31-2a09-4a34-aed3-aadbfefb8396","system_id":"levelo_inurba_marseille","lat":43.26497,"lon":5.3954,"is_reserved":false,"is_disabled":true,"rental_uris":{"android":"levelo://app?vid=2603cd31-2a09-4a34-aed3-aadbfefb8396","ios":"levelo://app?vid=2603cd31-2a09-4a34-aed3-aadbfefb8396"},"vehicle_type_id":"4","last_reported":1750453737,"current_range_meters":0,"station_id":"ce4bhi12rcd13ifvqfq0","pricing_plan_id":"cebpf4jnsgd1na2vs0mg"},{"bike_id":"0e505cdd-f711-428f-a20b-15fc6f083490","system_id":"levelo_inurba_marseille","lat":43.25581,"lon":5.38226,"is_reserved":false,"is_disabled":true,"rental_uris":{"android":"levelo://app?vid=0e505cdd-f711-428f-a20b-15fc6f083490","ios":"levelo://app?vid=0e505cdd-f711-428f-a20b-15fc6f083490"},"vehicle_type_id":"4","last_reported":1750453737,"current_range_meters":0,"station_id":"ce4bhih2rcd13ifvqfs0","pricing_plan_id":"cebpf4jnsgd1na2vs0mg"},{"bike_id":"08f08ee3-27e7-4701-8fa2-a7b4d3b12355","system_id":"levelo_inurba_marseille","lat":43.25105,"lon":5.40322,"is_reserved":false,"is_disabled":true,"rental_uris":{"android":"levelo://app?vid=08f08ee3-27e7-4701-8fa2-a7b4d3b12355","ios":"levelo://app?vid=08f08ee3-27e7-4701-8fa2-a7b4d3b12355"},"vehicle_type_id":"4","last_reported":1750453737,"current_range_meters":0,"station_id":"ce4bhlh2rcd13ifvqgig","pricing_plan_id":"cebpf4jnsgd1na2vs0mg"},{"bike_id":"2be082ca-4467-48fd-b65c-3c02b405800f","system_id":"levelo_inurba_marseille","lat":43.23156,"lon":5.43703,"is_reserved":false,"is_disabled":true,"rental_uris":{"android":"levelo://app?vid=2be082ca-4467-48fd-b65c-3c02b405800f","ios":"levelo://app?vid=2be082ca-4467-48fd-b65c-3c02b405800f"},"vehicle_type_id":"4","last_reported":1750453737,"current_range_meters":0,"station_id":"ce4bhmp2rcd13ifvqgog","pricing_plan_id":"cebpf4jnsgd1na2vs0mg"},{"bike_id":"c25e6075-ec55-4018-ac40-58bf3174224e","system_id":"levelo_inurba_marseille","lat":43.26931,"lon":5.40248,"is_reserved":false,"is_disabled":true,"rental_uris":{"android":"levelo://app?vid=c25e6075-ec55-4018-ac40-58bf3174224e","ios":"levelo://app?vid=c25e6075-ec55-4018-ac40-58bf3174224e"},"vehicle_type_id":"4","last_reported":1750453737,"current_range_meters":0,"station_id":"cjm6bp8fraef2m0cb0m0","pricing_plan_id":"cebpf4jnsgd1na2vs0mg"},{"bike_id":"24466bb8-ea46-418f-a473-cce465177766","system_id":"levelo_inurba_marseille","lat":43.21747,"lon":5.34604,"is_reserved":false,"is_disabled":true,"rental_uris":{"android":"levelo://app?vid=24466bb8-ea46-418f-a473-cce465177766","ios":"levelo://app?vid=24466bb8-ea46-418f-a473-cce465177766"},"vehicle_type_id":"4","last_reported":1750453737,"current_range_meters":0,"station_id":"st_cvj6r9ubvosntc0bgbag","pricing_plan_id":"cebpf4jnsgd1na2vs0mg"},{"bike_id":"19745ddc-eca2-4296-893c-935534e0511f","system_id":"levelo_inurba_marseille","lat":43.312618,"lon":5.373233,"is_reserved":false,"is_disabled":true,"rental_uris":{"android":"levelo://app?vid=19745ddc-eca2-4296-893c-935534e0511f","ios":"levelo://app?vid=19745ddc-eca2-4296-893c-935534e0511f"},"vehicle_type_id":"4","last_reported":1750453737,"current_range_meters":400,"station_id":"","pricing_plan_id":"cebpf4jnsgd1na2vs0mg"},{"bike_id":"bc6f1c15-61e2-49fa-a7cf-721b8d493c61","system_id":"levelo_inurba_marseille","lat":43.29854,"lon":5.39625,"is_reserved":false,"is_disabled":true,"rental_uris":{"android":"levelo://app?vid=bc6f1c15-61e2-49fa-a7cf-721b8d493c61","ios":"levelo://app?vid=bc6f1c15-61e2-49fa-a7cf-721b8d493c61"},"vehicle_type_id":"4","last_reported":1750453737,"current_range_meters":400,"station_id":"","pricing_plan_id":"cebpf4jnsgd1na2vs0mg"},{"bike_id":"9eef838e-3bfd-4a16-83bf-84f9290561f9","system_id":"levelo_inurba_marseille","lat":43.31262,"lon":5.36914,"is_reserved":false,"is_disabled":true,"rental_uris":{"android":"levelo://app?vid=9eef838e-3bfd-4a16-83bf-84f9290561f9","ios":"levelo://app?vid=9eef838e-3bfd-4a16-83bf-84f9290561f9"},"vehicle_type_id":"4","last_reported":1750453737,"current_range_meters":800,"station_id":"","pricing_plan_id":"cebpf4jnsgd1na2vs0mg"},{"bike_id":"b8c79b14-d964-42ee-b59f-1fa8aaa62fd4","system_id":"levelo_inurba_marseille","lat":43.29573,"lon":5.39971,"is_reserved":false,"is_disabled":true,"rental_uris":{"android":"levelo://app?vid=b8c79b14-d964-42ee-b59f-1fa8aaa62fd4","ios":"levelo://app?vid=b8c79b14-d964-42ee-b59f-1fa8aaa62fd4"},"vehicle_type_id":"4","last_reported":1750453737,"current_range_meters":800,"station_id":"ce4bh312rcd13ifvqdj0","pricing_plan_id":"cebpf4jnsgd1na2vs0mg"},{"bike_id":"2d7d7c16-9aff-44ac-882c-c217872cee9a","system_id":"levelo_inurba_marseille","lat":43.27375,"lon":5.36257,"is_reserved":false,"is_disabled":true,"rental_uris":{"android":"levelo://app?vid=2d7d7c16-9aff-44ac-882c-c217872cee9a","ios":"levelo://app?vid=2d7d7c16-9aff-44ac-882c-c217872cee9a"},"vehicle_type_id":"4","last_reported":1750453737,"current_range_meters":800,"station_id":"ce4bhbh2rcd13ifvqeo0","pricing_plan_id":"cebpf4jnsgd1na2vs0mg"},{"bike_id":"b7b9d6a7-64ad-4aa1-ae7d-1d861de2678e","system_id":"levelo_inurba_marseille","lat":43.25874,"lon":5.39891,"is_reserved":false,"is_disabled":true,"rental_uris":{"android":"levelo://app?vid=b7b9d6a7-64ad-4aa1-ae7d-1d861de2678e","ios":"levelo://app?vid=b7b9d6a7-64ad-4aa1-ae7d-1d861de2678e"},"vehicle_type_id":"4","last_reported":1750453737,"current_range_meters":800,"station_id":"ce4bhl92rcd13ifvqghg","pricing_plan_id":"cebpf4jnsgd1na2vs0mg"},{"bike_id":"d2f8af12-8931-4d88-bcc5-9f91ab451d4a","system_id":"levelo_inurba_marseille","lat":43.32631,"lon":5.4102,"is_reserved":false,"is_disabled":true,"rental_uris":{"android":"levelo://app?vid=d2f8af12-8931-4d88-bcc5-9f91ab451d4a","ios":"levelo://app?vid=d2f8af12-8931-4d88-bcc5-9f91ab451d4a"},"vehicle_type_id":"4","last_reported":1750453737,"current_range_meters":800,"station_id":"ce4bhpp2rcd13ifvqhgg","pricing_plan_id":"cebpf4jnsgd1na2vs0mg"},{"bike_id":"323aa753-fc1d-41e9-9992-b0402b704672","system_id":"levelo_inurba_marseille","lat":43.331727,"lon":5.381964,"is_reserved":false,"is_disabled":true,"rental_uris":{"android":"levelo://app?vid=323aa753-fc1d-41e9-9992-b0402b704672","ios":"levelo://app?vid=323aa753-fc1d-41e9-9992-b0402b704672"},"vehicle_type_id":"4","last_reported":1750453737,"current_range_meters":1200,"station_id":"","pricing_plan_id":"cebpf4jnsgd1na2vs0mg"},{"bike_id":"36308d81-caf9-4cf8-abdb-bbb158c3fc5e","system_id":"levelo_inurba_marseille","lat":43.2737,"lon":5.36257,"is_reserved":false,"is_disabled":true,"rental_uris":{"android":"levelo://app?vid=36308d81-caf9-4cf8-abdb-bbb158c3fc5e","ios":"levelo://app?vid=36308d81-caf9-4cf8-abdb-bbb158c3fc5e"},"vehicle_type_id":"4","last_reported":1750453737,"current_range_meters":1200,"station_id":"ce4bhbh2rcd13ifvqeo0","pricing_plan_id":"cebpf4jnsgd1na2vs0mg"},{"bike_id":"6264bffe-992b-4f44-a4b0-9db813b4745c","system_id":"levelo_inurba_marseille","lat":43.245447,"lon":5.395264,"is_reserved":false,"is_disabled":false,"rental_uris":{"android":"levelo://app?vid=6264bffe-992b-4f44-a4b0-9db813b4745c","ios":"levelo://app?vid=6264bffe-992b-4f44-a4b0-9db813b4745c"},"vehicle_type_id":"4","last_reported":1750453737,"current_range_meters":1200,"station_id":"ce4bhlp2rcd13ifvqgjg","pricing_plan_id":"cebpf4jnsgd1na2vs0mg"},{"bike_id":"8151ce36-e1fe-499a-b955-cd2271fd0f86","system_id":"levelo_inurba_marseille","lat":43.30603,"lon":5.37228,"is_reserved":false,"is_disabled":false,"rental_uris":{"android":"levelo://app?vid=8151ce36-e1fe-499a-b955-cd2271fd0f86","ios":"levelo://app?vid=8151ce36-e1fe-499a-b955-cd2271fd0f86"},"vehicle_type_id":"4","last_reported":1750453737,"current_range_meters":1600,"station_id":"ce4bgqh2rcd13ifvqc4g","pricing_plan_id":"cebpf4jnsgd1na2vs0mg"},{"bike_id":"6f576172-bdad-4d41-ab2c-8a756853a734","system_id":"levelo_inurba_marseille","lat":43.30641,"lon":5.40107,"is_reserved":false,"is_disabled":true,"rental_uris":{"android":"levelo://app?vid=6f576172-bdad-4d41-ab2c-8a756853a734","ios":"levelo://app?vid=6f576172-bdad-4d41-ab2c-8a756853a734"},"vehicle_type_id":"4","last_reported":1750453737,"current_range_meters":1600,"station_id":"ce4bh112rcd13ifvqda0","pricing_plan_id":"cebpf4jnsgd1na2vs0mg"},{"bike_id":"feb830cf-bfe1-42d0-8df6-567ec51f3d6a","system_id":"levelo_inurba_marseille","lat":43.27809,"lon":5.407,"is_reserved":false,"is_disabled":false,"rental_uris":{"android":"levelo://app?vid=feb830cf-bfe1-42d0-8df6-567ec51f3d6a","ios":"levelo://app?vid=feb830cf-bfe1-42d0-8df6-567ec51f3d6a"},"vehicle_type_id":"4","last_reported":1750453737,"current_range_meters":1600,"station_id":"ce4bhnh2rcd13ifvqgtg","pricing_plan_id":"cebpf4jnsgd1na2vs0mg"},{"bike_id":"36942197-328f-40f8-bfdf-36a0c358c696","system_id":"levelo_inurba_marseille","lat":43.260345,"lon":5.375508,"is_reserved":false,"is_disabled":true,"rental_uris":{"android":"levelo://app?vid=36942197-328f-40f8-bfdf-36a0c358c696","ios":"levelo://app?vid=36942197-328f-40f8-bfdf-36a0c358c696"},"vehicle_type_id":"4","last_reported":1750453737,"current_range_meters":2000,"station_id":"ce4bhgh2rcd13ifvqfa0","pricing_plan_id":"cebpf4jnsgd1na2vs0mg"},{"bike_id":"2462de02-4321-41fc-9263-d19f043438ff","system_id":"levelo_inurba_marseille","lat":43.24542,"lon":5.39524,"is_reserved":false,"is_disabled":true,"rental_uris":{"android":"levelo://app?vid=2462de02-4321-41fc-9263-d19f043438ff","ios":"levelo://app?vid=2462de02-4321-41fc-9263-d19f043438ff"},"vehicle_type_id":"4","last_reported":1750453737,"current_range_meters":2000,"station_id":"ce4bhlp2rcd13ifvqgjg","pricing_plan_id":"cebpf4jnsgd1na2vs0mg"},{"bike_id":"635f773d-b08e-4401-b654-a59cdea688fa","system_id":"levelo_inurba_marseille","lat":43.262172,"lon":5.374229,"is_reserved":false,"is_disabled":true,"rental_uris":{"android":"levelo://app?vid=635f773d-b08e-4401-b654-a59cdea688fa","ios":"levelo://app?vid=635f773d-b08e-4401-b654-a59cdea688fa"},"vehicle_type_id":"4","last_reported":1750453737,"current_range_meters":2000,"station_id":"ce4bhqp2rcd13ifvqhog","pricing_plan_id":"cebpf4jnsgd1na2vs0mg"},{"bike_id":"3d15022d-9ee5-4e4a-8f9d-55a4af9f69bf","system_id":"levelo_inurba_marseille","lat":43.31685,"lon":5.40475,"is_reserved":false,"is_disabled":false,"rental_uris":{"android":"levelo://app?vid=3d15022d-9ee5-4e4a-8f9d-55a4af9f69bf","ios":"levelo://app?vid=3d15022d-9ee5-4e4a-8f9d-55a4af9f69bf"},"vehicle_type_id":"4","last_reported":1750453737,"current_range_meters":3200,"station_id":"ce4bh012rcd13ifvqd00","pricing_plan_id":"cebpf4jnsgd1na2vs0mg"},{"bike_id":"0976760c-648b-4d9a-a314-386db88317ef","system_id":"levelo_inurba_marseille","lat":43.31223,"lon":5.36864,"is_reserved":false,"is_disabled":false,"rental_uris":{"android":"levelo://app?vid=0976760c-648b-4d9a-a314-386db88317ef","ios":"levelo://app?vid=0976760c-648b-4d9a-a314-386db88317ef"},"vehicle_type_id":"4","last_reported":1750453737,"current_range_meters":3600,"station_id":"ce4bgl92rcd13ifvqbq0","pricing_plan_id":"cebpf4jnsgd1na2vs0mg"},{"bike_id":"06ea1bff-02d7-4152-ade6-8d57d0172a49","system_id":"levelo_inurba_marseille","lat":43.28459,"lon":5.35889,"is_reserved":false,"is_disabled":false,"rental_uris":{"android":"levelo://app?vid=06ea1bff-02d7-4152-ade6-8d57d0172a49","ios":"levelo://app?vid=06ea1bff-02d7-4152-ade6-8d57d0172a49"},"vehicle_type_id":"4","last_reported":1750453737,"current_range_meters":3600,"station_id":"ce4bhah2rcd13ifvqei0","pricing_plan_id":"cebpf4jnsgd1na2vs0mg"},{"bike_id":"3e37ff1a-9541-46b1-b38e-55af51098d2f","system_id":"levelo_inurba_marseille","lat":43.30792,"lon":5.38161,"is_reserved":false,"is_disabled":false,"rental_uris":{"android":"levelo://app?vid=3e37ff1a-9541-46b1-b38e-55af51098d2f","ios":"levelo://app?vid=3e37ff1a-9541-46b1-b38e-55af51098d2f"},"vehicle_type_id":"4","last_reported":1750453737,"current_range_meters":4000,"station_id":"ce4bgt12rcd13ifvqce0","pricing_plan_id":"cebpf4jnsgd1na2vs0mg"},{"bike_id":"268aafb4-1331-426c-97bc-a7d6564caeb6","system_id":"levelo_inurba_marseille","lat":43.32933,"lon":5.37919,"is_reserved":false,"is_disabled":false,"rental_uris":{"android":"levelo://app?vid=268aafb4-1331-426c-97bc-a7d6564caeb6","ios":"levelo://app?vid=268aafb4-1331-426c-97bc-a7d6564caeb6"},"vehicle_type_id":"4","last_reported":1750453737,"current_range_meters":4400,"station_id":"","pricing_plan_id":"cebpf4jnsgd1na2vs0mg"},{"bike_id":"0dedb6f6-6801-483b-bfb8-9cd4533d158f","system_id":"levelo_inurba_marseille","lat":43.31145,"lon":5.38112,"is_reserved":false,"is_disabled":false,"rental_uris":{"android":"levelo://app?vid=0dedb6f6-6801-483b-bfb8-9cd4533d158f","ios":"levelo://app?vid=0dedb6f6-6801-483b-bfb8-9cd4533d158f"},"vehicle_type_id":"4","last_reported":1750453737,"current_range_meters":4400,"station_id":"","pricing_plan_id":"cebpf4jnsgd1na2vs0mg"},{"bike_id":"b6068ce1-caef-4304-9261-82d47e23af42","system_id":"levelo_inurba_marseille","lat":43.26566,"lon":5.39011,"is_reserved":false,"is_disabled":false,"rental_uris":{"android":"levelo://app?vid=b6068ce1-caef-4304-9261-82d47e23af42","ios":"levelo://app?vid=b6068ce1-caef-4304-9261-82d47e23af42"},"vehicle_type_id":"4","last_reported":1750453737,"current_range_meters":4400,"station_id":"ce4bhe12rcd13ifvqf30","pricing_plan_id":"cebpf4jnsgd1na2vs0mg"},{"bike_id":"328d2ec3-0760-45e2-8482-85772a414821","system_id":"levelo_inurba_marseille","lat":43.28355,"lon":5.38096,"is_reserved":false,"is_disabled":false,"rental_uris":{"android":"levelo://app?vid=328d2ec3-0760-45e2-8482-85772a414821","ios":"levelo://app?vid=328d2ec3-0760-45e2-8482-85772a414821"},"vehicle_type_id":"4","last_reported":1750453737,"current_range_meters":4800,"station_id":"ce4bh412rcd13ifvqdr0","pricing_plan_id":"cebpf4jnsgd1na2vs0mg"},{"bike_id":"f65a600d-a957-41d0-8d0d-1b7dc6c84520","system_id":"levelo_inurba_marseille","lat":43.2511,"lon":5.40328,"is_reserved":false,"is_disabled":false,"rental_uris":{"android":"levelo://app?vid=f65a600d-a957-41d0-8d0d-1b7dc6c84520","ios":"levelo://app?vid=f65a600d-a957-41d0-8d0d-1b7dc6c84520"},"vehicle_type_id":"4","last_reported":1750453737,"current_range_meters":4800,"station_id":"ce4bhlh2rcd13ifvqgig","pricing_plan_id":"cebpf4jnsgd1na2vs0mg"},{"bike_id":"822f23ce-a85e-42bd-be8a-9d9bf5dfac38","system_id":"levelo_inurba_marseille","lat":43.32661,"lon":5.4099,"is_reserved":false,"is_disabled":false,"rental_uris":{"android":"levelo://app?vid=822f23ce-a85e-42bd-be8a-9d9bf5dfac38","ios":"levelo://app?vid=822f23ce-a85e-42bd-be8a-9d9bf5dfac38"},"vehicle_type_id":"4","last_reported":1750453737,"current_range_meters":4800,"station_id":"ce4bhpp2rcd13ifvqhgg","pricing_plan_id":"cebpf4jnsgd1na2vs0mg"},{"bike_id":"404275fa-a562-4c55-90f7-8c020f54c777","system_id":"levelo_inurba_marseille","lat":43.29602,"lon":5.38094,"is_reserved":false,"is_disabled":false,"rental_uris":{"android":"levelo://app?vid=404275fa-a562-4c55-90f7-8c020f54c777","ios":"levelo://app?vid=404275fa-a562-4c55-90f7-8c020f54c777"},"vehicle_type_id":"4","last_reported":1750453737,"current_range_meters":5600,"station_id":"ce4bgl12rcd13ifvqbo0","pricing_plan_id":"cebpf4jnsgd1na2vs0mg"},{"bike_id":"884c2b29-7fdc-458e-bbd7-1a5fc6859081","system_id":"levelo_inurba_marseille","lat":43.31168,"lon":5.38712,"is_reserved":false,"is_disabled":false,"rental_uris":{"android":"levelo://app?vid=884c2b29-7fdc-458e-bbd7-1a5fc6859081","ios":"levelo://app?vid=884c2b29-7fdc-458e-bbd7-1a5fc6859081"},"vehicle_type_id":"4","last_reported":1750453737,"current_range_meters":5600,"station_id":"ce4bgv12rcd13ifvqcp0","pricing_plan_id":"cebpf4jnsgd1na2vs0mg"},{"bike_id":"e40baa6b-fa91-4127-a481-94c5e46c4e1b","system_id":"levelo_inurba_marseille","lat":43.3026,"lon":5.40076,"is_reserved":false,"is_disabled":false,"rental_uris":{"android":"levelo://app?vid=e40baa6b-fa91-4127-a481-94c5e46c4e1b","ios":"levelo://app?vid=e40baa6b-fa91-4127-a481-94c5e46c4e1b"},"vehicle_type_id":"4","last_reported":1750453737,"current_range_meters":5600,"station_id":"ce4bgvh2rcd13ifvqcs0","pricing_plan_id":"cebpf4jnsgd1na2vs0mg"},{"bike_id":"3ec7fb5c-347d-4640-ad8b-4b36546a2beb","system_id":"levelo_inurba_marseille","lat":43.29532,"lon":5.3904,"is_reserved":false,"is_disabled":false,"rental_uris":{"android":"levelo://app?vid=3ec7fb5c-347d-4640-ad8b-4b36546a2beb","ios":"levelo://app?vid=3ec7fb5c-347d-4640-ad8b-4b36546a2beb"},"vehicle_type_id":"4","last_reported":1750453737,"current_range_meters":5600,"station_id":"ce4bh3p2rcd13ifvqdp0","pricing_plan_id":"cebpf4jnsgd1na2vs0mg"},{"bike_id":"861a5cb8-39d0-4b8b-8bda-b586f349af0b","system_id":"levelo_inurba_marseille","lat":43.27371,"lon":5.3626,"is_reserved":false,"is_disabled":false,"rental_uris":{"android":"levelo://app?vid=861a5cb8-39d0-4b8b-8bda-b586f349af0b","ios":"levelo://app?vid=861a5cb8-39d0-4b8b-8bda-b586f349af0b"},"vehicle_type_id":"4","last_reported":1750453737,"current_range_meters":5600,"station_id":"ce4bhbh2rcd13ifvqeo0","pricing_plan_id":"cebpf4jnsgd1na2vs0mg"},{"bike_id":"f21e633d-5584-4238-aa03-ac1345374f8f","system_id":"levelo_inurba_marseille","lat":43.25499,"lon":5.37649,"is_reserved":false,"is_disabled":false,"rental_uris":{"android":"levelo://app?vid=f21e633d-5584-4238-aa03-ac1345374f8f","ios":"levelo://app?vid=f21e633d-5584-4238-aa03-ac1345374f8f"},"vehicle_type_id":"4","last_reported":1750453737,"current_range_meters":5600,"station_id":"ce4bhh12rcd13ifvqff0","pricing_plan_id":"cebpf4jnsgd1na2vs0mg"},{"bike_id":"0eeba687-f481-4161-a370-fad9b50d31b2","system_id":"levelo_inurba_marseille","lat":43.29634,"lon":5.3772,"is_reserved":false,"is_disabled":false,"rental_uris":{"android":"levelo://app?vid=0eeba687-f481-4161-a370-fad9b50d31b2","ios":"levelo://app?vid=0eeba687-f481-4161-a370-fad9b50d31b2"},"vehicle_type_id":"4","last_reported":1750453737,"current_range_meters":6000,"station_id":"ce4bgi92rcd13ifvqb90","pricing_plan_id":"cebpf4jnsgd1na2vs0mg"},{"bike_id":"16804072-8e53-404c-a414-5d0ee48dce33","system_id":"levelo_inurba_marseille","lat":43.30249,"lon":5.40072,"is_reserved":false,"is_disabled":false,"rental_uris":{"android":"levelo://app?vid=16804072-8e53-404c-a414-5d0ee48dce33","ios":"levelo://app?vid=16804072-8e53-404c-a414-5d0ee48dce33"},"vehicle_type_id":"4","last_reported":1750453737,"current_range_meters":6000,"station_id":"ce4bgvh2rcd13ifvqcs0","pricing_plan_id":"cebpf4jnsgd1na2vs0mg"},{"bike_id":"af6d2881-b2f3-429d-b641-2c3322056244","system_id":"levelo_inurba_marseille","lat":43.29415,"lon":5.38629,"is_reserved":false,"is_disabled":false,"rental_uris":{"android":"levelo://app?vid=af6d2881-b2f3-429d-b641-2c3322056244","ios":"levelo://app?vid=af6d2881-b2f3-429d-b641-2c3322056244"},"vehicle_type_id":"4","last_reported":1750453737,"current_range_meters":6000,"station_id":"ce4bh2h2rcd13ifvqdh0","pricing_plan_id":"cebpf4jnsgd1na2vs0mg"},{"bike_id":"cf4271b4-f537-47fa-a126-157664f17c8c","system_id":"levelo_inurba_marseille","lat":43.304197,"lon":5.413001,"is_reserved":false,"is_disabled":false,"rental_uris":{"android":"levelo://app?vid=cf4271b4-f537-47fa-a126-157664f17c8c","ios":"levelo://app?vid=cf4271b4-f537-47fa-a126-157664f17c8c"},"vehicle_type_id":"4","last_reported":1750453737,"current_range_meters":6000,"station_id":"ce4bhop2rcd13ifvqh8g","pricing_plan_id":"cebpf4jnsgd1na2vs0mg"},{"bike_id":"ba6e0e26-b5c8-45ae-a347-1b058a4d15b7","system_id":"levelo_inurba_marseille","lat":43.29779,"lon":5.3934,"is_reserved":false,"is_disabled":false,"rental_uris":{"android":"levelo://app?vid=ba6e0e26-b5c8-45ae-a347-1b058a4d15b7","ios":"levelo://app?vid=ba6e0e26-b5c8-45ae-a347-1b058a4d15b7"},"vehicle_type_id":"4","last_reported":1750453737,"current_range_meters":6000,"station_id":"chh1huq6cuj3fo74tm60","pricing_plan_id":"cebpf4jnsgd1na2vs0mg"},{"bike_id":"0ae0a5e2-4172-42fc-b67e-dcb70ad4d289","system_id":"levelo_inurba_marseille","lat":43.26741,"lon":5.42234,"is_reserved":false,"is_disabled":false,"rental_uris":{"android":"levelo://app?vid=0ae0a5e2-4172-42fc-b67e-dcb70ad4d289","ios":"levelo://app?vid=0ae0a5e2-4172-42fc-b67e-dcb70ad4d289"},"vehicle_type_id":"4","last_reported":1750453737,"current_range_meters":7200,"station_id":"","pricing_plan_id":"cebpf4jnsgd1na2vs0mg"},{"bike_id":"dd45b830-666c-4c76-b06e-9938bffa2cad","system_id":"levelo_inurba_marseille","lat":43.319756,"lon":5.375373,"is_reserved":false,"is_disabled":false,"rental_uris":{"android":"levelo://app?vid=dd45b830-666c-4c76-b06e-9938bffa2cad","ios":"levelo://app?vid=dd45b830-666c-4c76-b06e-9938bffa2cad"},"vehicle_type_id":"4","last_reported":1750453737,"current_range_meters":7200,"station_id":"","pricing_plan_id":"cebpf4jnsgd1na2vs0mg"},{"bike_id":"f025e0b0-8595-426c-b214-cb9b74c5fcfd","system_id":"levelo_inurba_marseille","lat":43.32197,"lon":5.40575,"is_reserved":false,"is_disabled":false,"rental_uris":{"android":"levelo://app?vid=f025e0b0-8595-426c-b214-cb9b74c5fcfd","ios":"levelo://app?vid=f025e0b0-8595-426c-b214-cb9b74c5fcfd"},"vehicle_type_id":"4","last_reported":1750453737,"current_range_meters":7200,"station_id":"","pricing_plan_id":"cebpf4jnsgd1na2vs0mg"},{"bike_id":"a9095211-c3f5-45c2-b2ee-33f07a23a90e","system_id":"levelo_inurba_marseille","lat":43.26226,"lon":5.40456,"is_reserved":false,"is_disabled":false,"rental_uris":{"android":"levelo://app?vid=a9095211-c3f5-45c2-b2ee-33f07a23a90e","ios":"levelo://app?vid=a9095211-c3f5-45c2-b2ee-33f07a23a90e"},"vehicle_type_id":"4","last_reported":1750453737,"current_range_meters":7200,"station_id":"ce4bhmh2rcd13ifvqgmg","pricing_plan_id":"cebpf4jnsgd1na2vs0mg"},{"bike_id":"73521383-be10-4e11-87d9-5858a5a26f0a","system_id":"levelo_inurba_marseille","lat":43.337444,"lon":5.374475,"is_reserved":false,"is_disabled":false,"rental_uris":{"android":"levelo://app?vid=73521383-be10-4e11-87d9-5858a5a26f0a","ios":"levelo://app?vid=73521383-be10-4e11-87d9-5858a5a26f0a"},"vehicle_type_id":"4","last_reported":1750453737,"current_range_meters":8000,"station_id":"","pricing_plan_id":"cebpf4jnsgd1na2vs0mg"},{"bike_id":"df735c88-ae0a-4f8e-9723-d29eb27d80b9","system_id":"levelo_inurba_marseille","lat":43.29922,"lon":5.37648,"is_reserved":false,"is_disabled":false,"rental_uris":{"android":"levelo://app?vid=df735c88-ae0a-4f8e-9723-d29eb27d80b9","ios":"levelo://app?vid=df735c88-ae0a-4f8e-9723-d29eb27d80b9"},"vehicle_type_id":"4","last_reported":1750453737,"current_range_meters":8000,"station_id":"","pricing_plan_id":"cebpf4jnsgd1na2vs0mg"},{"bike_id":"c5c75dcc-bac0-4c8b-944d-188489960f20","system_id":"levelo_inurba_marseille","lat":43.30716,"lon":5.3928,"is_reserved":false,"is_disabled":false,"rental_uris":{"android":"levelo://app?vid=c5c75dcc-bac0-4c8b-944d-188489960f20","ios":"levelo://app?vid=c5c75dcc-bac0-4c8b-944d-188489960f20"},"vehicle_type_id":"4","last_reported":1750453737,"current_range_meters":8000,"station_id":"","pricing_plan_id":"cebpf4jnsgd1na2vs0mg"},{"bike_id":"87d97120-ba35-4237-9b5f-740d93eb4c1b","system_id":"levelo_inurba_marseille","lat":43.31485,"lon":5.37305,"is_reserved":false,"is_disabled":false,"rental_uris":{"android":"levelo://app?vid=87d97120-ba35-4237-9b5f-740d93eb4c1b","ios":"levelo://app?vid=87d97120-ba35-4237-9b5f-740d93eb4c1b"},"vehicle_type_id":"4","last_reported":1750453737,"current_range_meters":8000,"station_id":"ce4bgt12rcd13ifvqcd0","pricing_plan_id":"cebpf4jnsgd1na2vs0mg"},{"bike_id":"bbe1ac5e-4bf4-42b3-9227-0e84c6aa0dfa","system_id":"levelo_inurba_marseille","lat":43.28676,"lon":5.38656,"is_reserved":false,"is_disabled":false,"rental_uris":{"android":"levelo://app?vid=bbe1ac5e-4bf4-42b3-9227-0e84c6aa0dfa","ios":"levelo://app?vid=bbe1ac5e-4bf4-42b3-9227-0e84c6aa0dfa"},"vehicle_type_id":"4","last_reported":1750453737,"current_range_meters":8000,"station_id":"ce4bh492rcd13ifvqdug","pricing_plan_id":"cebpf4jnsgd1na2vs0mg"},{"bike_id":"5ddf9834-85a9-4261-91f8-2684ab134ddf","system_id":"levelo_inurba_marseille","lat":43.25712,"lon":5.41104,"is_reserved":false,"is_disabled":false,"rental_uris":{"android":"levelo://app?vid=5ddf9834-85a9-4261-91f8-2684ab134ddf","ios":"levelo://app?vid=5ddf9834-85a9-4261-91f8-2684ab134ddf"},"vehicle_type_id":"4","last_reported":1750453737,"current_range_meters":8000,"station_id":"ce4bhkp2rcd13ifvqgd0","pricing_plan_id":"cebpf4jnsgd1na2vs0mg"},{"bike_id":"3e08c61c-c476-486d-a9a8-0190adfa4ae1","system_id":"levelo_inurba_marseille","lat":43.27996,"lon":5.41668,"is_reserved":false,"is_disabled":false,"rental_uris":{"android":"levelo://app?vid=3e08c61c-c476-486d-a9a8-0190adfa4ae1","ios":"levelo://app?vid=3e08c61c-c476-486d-a9a8-0190adfa4ae1"},"vehicle_type_id":"4","last_reported":1750453737,"current_range_meters":8000,"station_id":"ce4bho12rcd13ifvqh1g","pricing_plan_id":"cebpf4jnsgd1na2vs0mg"},{"bike_id":"8eecaebc-cf1b-47d1-af16-1216a09714af","system_id":"levelo_inurba_marseille","lat":43.31176,"lon":5.38709,"is_reserved":false,"is_disabled":false,"rental_uris":{"android":"levelo://app?vid=8eecaebc-cf1b-47d1-af16-1216a09714af","ios":"levelo://app?vid=8eecaebc-cf1b-47d1-af16-1216a09714af"},"vehicle_type_id":"4","last_reported":1750453737,"current_range_meters":8400,"station_id":"ce4bgv12rcd13ifvqcp0","pricing_plan_id":"cebpf4jnsgd1na2vs0mg"},{"bike_id":"b490d9da-51c1-486e-808a-1cb2e50a5207","system_id":"levelo_inurba_marseille","lat":43.31172,"lon":5.38714,"is_reserved":false,"is_disabled":false,"rental_uris":{"android":"levelo://app?vid=b490d9da-51c1-486e-808a-1cb2e50a5207","ios":"levelo://app?vid=b490d9da-51c1-486e-808a-1cb2e50a5207"},"vehicle_type_id":"4","last_reported":1750453737,"current_range_meters":8400,"station_id":"ce4bgv12rcd13ifvqcp0","pricing_plan_id":"cebpf4jnsgd1na2vs0mg"},{"bike_id":"787add47-dc09-4663-93e4-ec55687b9ad5","system_id":"levelo_inurba_marseille","lat":43.29284,"lon":5.40123,"is_reserved":false,"is_disabled":false,"rental_uris":{"android":"levelo://app?vid=787add47-dc09-4663-93e4-ec55687b9ad5","ios":"levelo://app?vid=787add47-dc09-4663-93e4-ec55687b9ad5"},"vehicle_type_id":"4","last_reported":1750453737,"current_range_meters":8400,"station_id":"ce4bh312rcd13ifvqdk0","pricing_plan_id":"cebpf4jnsgd1na2vs0mg"},{"bike_id":"90a030da-8505-45e4-9c08-d2f5c34ad378","system_id":"levelo_inurba_marseille","lat":43.29032,"lon":5.38654,"is_reserved":false,"is_disabled":false,"rental_uris":{"android":"levelo://app?vid=90a030da-8505-45e4-9c08-d2f5c34ad378","ios":"levelo://app?vid=90a030da-8505-45e4-9c08-d2f5c34ad378"},"vehicle_type_id":"4","last_reported":1750453737,"current_range_meters":8400,"station_id":"ce4bh4p2rcd13ifvqe0g","pricing_plan_id":"cebpf4jnsgd1na2vs0mg"},{"bike_id":"336adeeb-85bd-47f5-bc60-7e8ea4af00c1","system_id":"levelo_inurba_marseille","lat":43.27935,"lon":5.4103,"is_reserved":false,"is_disabled":false,"rental_uris":{"android":"levelo://app?vid=336adeeb-85bd-47f5-bc60-7e8ea4af00c1","ios":"levelo://app?vid=336adeeb-85bd-47f5-bc60-7e8ea4af00c1"},"vehicle_type_id":"4","last_reported":1750453737,"current_range_meters":8400,"station_id":"ce4bhnp2rcd13ifvqh0g","pricing_plan_id":"cebpf4jnsgd1na2vs0mg"},{"bike_id":"1481b7cb-269d-4a81-841e-ba680290f91d","system_id":"levelo_inurba_marseille","lat":43.23198,"lon":5.35551,"is_reserved":false,"is_disabled":false,"rental_uris":{"android":"levelo://app?vid=1481b7cb-269d-4a81-841e-ba680290f91d","ios":"levelo://app?vid=1481b7cb-269d-4a81-841e-ba680290f91d"},"vehicle_type_id":"4","last_reported":1750453737,"current_range_meters":8400,"station_id":"ce4bhu92rcd13ifvqi70","pricing_plan_id":"cebpf4jnsgd1na2vs0mg"},{"bike_id":"780312c6-fb3c-420c-aa0a-1b3858289cf1","system_id":"levelo_inurba_marseille","lat":43.26925,"lon":5.4027,"is_reserved":false,"is_disabled":false,"rental_uris":{"android":"levelo://app?vid=780312c6-fb3c-420c-aa0a-1b3858289cf1","ios":"levelo://app?vid=780312c6-fb3c-420c-aa0a-1b3858289cf1"},"vehicle_type_id":"4","last_reported":1750453737,"current_range_meters":8400,"station_id":"cjm6bp8fraef2m0cb0m0","pricing_plan_id":"cebpf4jnsgd1na2vs0mg"},{"bike_id":"f2169430-8ab5-4f68-846f-87f05b34d076","system_id":"levelo_inurba_marseille","lat":43.21212,"lon":5.35047,"is_reserved":false,"is_disabled":false,"rental_uris":{"android":"levelo://app?vid=f2169430-8ab5-4f68-846f-87f05b34d076","ios":"levelo://app?vid=f2169430-8ab5-4f68-846f-87f05b34d076"},"vehicle_type_id":"4","last_reported":1750453737,"current_range_meters":8400,"station_id":"st_cvj6sg6p6f1abm77japg","pricing_plan_id":"cebpf4jnsgd1na2vs0mg"},{"bike_id":"d70a429d-ff72-4c7d-8870-1f2c9a0c4020","system_id":"levelo_inurba_marseille","lat":43.29524,"lon":5.38532,"is_reserved":false,"is_disabled":false,"rental_uris":{"android":"levelo://app?vid=d70a429d-ff72-4c7d-8870-1f2c9a0c4020","ios":"levelo://app?vid=d70a429d-ff72-4c7d-8870-1f2c9a0c4020"},"vehicle_type_id":"4","last_reported":1750453737,"current_range_meters":8800,"station_id":"ce4bgih2rcd13ifvqba0","pricing_plan_id":"cebpf4jnsgd1na2vs0mg"},{"bike_id":"7f966026-5667-4df8-8578-1b468d1c2007","system_id":"levelo_inurba_marseille","lat":43.24806,"lon":5.37465,"is_reserved":false,"is_disabled":false,"rental_uris":{"android":"levelo://app?vid=7f966026-5667-4df8-8578-1b468d1c2007","ios":"levelo://app?vid=7f966026-5667-4df8-8578-1b468d1c2007"},"vehicle_type_id":"4","last_reported":1750453737,"current_range_meters":8800,"station_id":"ce4bhgh2rcd13ifvqfb0","pricing_plan_id":"cebpf4jnsgd1na2vs0mg"},{"bike_id":"1367d28b-3107-4f41-a662-0dcf59e55174","system_id":"levelo_inurba_marseille","lat":43.25502,"lon":5.37648,"is_reserved":false,"is_disabled":false,"rental_uris":{"android":"levelo://app?vid=1367d28b-3107-4f41-a662-0dcf59e55174","ios":"levelo://app?vid=1367d28b-3107-4f41-a662-0dcf59e55174"},"vehicle_type_id":"4","last_reported":1750453737,"current_range_meters":8800,"station_id":"ce4bhh12rcd13ifvqff0","pricing_plan_id":"cebpf4jnsgd1na2vs0mg"},{"bike_id":"c29360ba-3169-4086-8d60-dc81ff6cd432","system_id":"levelo_inurba_marseille","lat":43.2767,"lon":5.38879,"is_reserved":false,"is_disabled":false,"rental_uris":{"android":"levelo://app?vid=c29360ba-3169-4086-8d60-dc81ff6cd432","ios":"levelo://app?vid=c29360ba-3169-4086-8d60-dc81ff6cd432"},"vehicle_type_id":"4","last_reported":1750453737,"current_range_meters":8800,"station_id":"ce4bhi12rcd13ifvqfo0","pricing_plan_id":"cebpf4jnsgd1na2vs0mg"},{"bike_id":"d171420b-e146-4c18-8c32-8e960e2410da","system_id":"levelo_inurba_marseille","lat":43.25726,"lon":5.41111,"is_reserved":false,"is_disabled":false,"rental_uris":{"android":"levelo://app?vid=d171420b-e146-4c18-8c32-8e960e2410da","ios":"levelo://app?vid=d171420b-e146-4c18-8c32-8e960e2410da"},"vehicle_type_id":"4","last_reported":1750453737,"current_range_meters":8800,"station_id":"ce4bhkp2rcd13ifvqgd0","pricing_plan_id":"cebpf4jnsgd1na2vs0mg"},{"bike_id":"da9237b5-8226-4a5b-9aeb-3cc7c30699b3","system_id":"levelo_inurba_marseille","lat":43.303,"lon":5.39217,"is_reserved":false,"is_disabled":false,"rental_uris":{"android":"levelo://app?vid=da9237b5-8226-4a5b-9aeb-3cc7c30699b3","ios":"levelo://app?vid=da9237b5-8226-4a5b-9aeb-3cc7c30699b3"},"vehicle_type_id":"4","last_reported":1750453737,"current_range_meters":9200,"station_id":"ce4bgkh2rcd13ifvqbk0","pricing_plan_id":"cebpf4jnsgd1na2vs0mg"},{"bike_id":"275c178d-c92d-4a9b-ae38-5c763594b2b7","system_id":"levelo_inurba_marseille","lat":43.29976,"lon":5.37184,"is_reserved":false,"is_disabled":false,"rental_uris":{"android":"levelo://app?vid=275c178d-c92d-4a9b-ae38-5c763594b2b7","ios":"levelo://app?vid=275c178d-c92d-4a9b-ae38-5c763594b2b7"},"vehicle_type_id":"4","last_reported":1750453737,"current_range_meters":9200,"station_id":"ce4bgr92rcd13ifvqc7g","pricing_plan_id":"cebpf4jnsgd1na2vs0mg"},{"bike_id":"b6b25b81-c613-4ef7-a518-825b8ab86a27","system_id":"levelo_inurba_marseille","lat":43.30929,"lon":5.4014,"is_reserved":false,"is_disabled":false,"rental_uris":{"android":"levelo://app?vid=b6b25b81-c613-4ef7-a518-825b8ab86a27","ios":"levelo://app?vid=b6b25b81-c613-4ef7-a518-825b8ab86a27"},"vehicle_type_id":"4","last_reported":1750453737,"current_range_meters":9200,"station_id":"ce4bgvp2rcd13ifvqct0","pricing_plan_id":"cebpf4jnsgd1na2vs0mg"},{"bike_id":"3b3075b1-87e9-43af-9d88-48c91d4da194","system_id":"levelo_inurba_marseille","lat":43.27816,"lon":5.40691,"is_reserved":false,"is_disabled":false,"rental_uris":{"android":"levelo://app?vid=3b3075b1-87e9-43af-9d88-48c91d4da194","ios":"levelo://app?vid=3b3075b1-87e9-43af-9d88-48c91d4da194"},"vehicle_type_id":"4","last_reported":1750453737,"current_range_meters":9200,"station_id":"ce4bhnh2rcd13ifvqgtg","pricing_plan_id":"cebpf4jnsgd1na2vs0mg"},{"bike_id":"f7fe012d-71ff-43e8-8978-96ef2c51a3a7","system_id":"levelo_inurba_marseille","lat":43.29788,"lon":5.39347,"is_reserved":false,"is_disabled":false,"rental_uris":{"android":"levelo://app?vid=f7fe012d-71ff-43e8-8978-96ef2c51a3a7","ios":"levelo://app?vid=f7fe012d-71ff-43e8-8978-96ef2c51a3a7"},"vehicle_type_id":"4","last_reported":1750453737,"current_range_meters":9200,"station_id":"chh1huq6cuj3fo74tm60","pricing_plan_id":"cebpf4jnsgd1na2vs0mg"},{"bike_id":"e5ace183-eafa-4977-9870-6547326bba36","system_id":"levelo_inurba_marseille","lat":43.309479,"lon":5.390388,"is_reserved":false,"is_disabled":false,"rental_uris":{"android":"levelo://app?vid=e5ace183-eafa-4977-9870-6547326bba36","ios":"levelo://app?vid=e5ace183-eafa-4977-9870-6547326bba36"},"vehicle_type_id":"4","last_reported":1750453737,"current_range_meters":9600,"station_id":"ce4bgup2rcd13ifvqco0","pricing_plan_id":"cebpf4jnsgd1na2vs0mg"},{"bike_id":"07eb6289-d073-4169-9982-9b8fd3fb8787","system_id":"levelo_inurba_marseille","lat":43.28567,"lon":5.39503,"is_reserved":false,"is_disabled":false,"rental_uris":{"android":"levelo://app?vid=07eb6289-d073-4169-9982-9b8fd3fb8787","ios":"levelo://app?vid=07eb6289-d073-4169-9982-9b8fd3fb8787"},"vehicle_type_id":"4","last_reported":1750453737,"current_range_meters":9600,"station_id":"ce4bh292rcd13ifvqdg0","pricing_plan_id":"cebpf4jnsgd1na2vs0mg"},{"bike_id":"345e7a68-760f-4786-8d6b-5c217da4cb1e","system_id":"levelo_inurba_marseille","lat":43.29256,"lon":5.38453,"is_reserved":false,"is_disabled":false,"rental_uris":{"android":"levelo://app?vid=345e7a68-760f-4786-8d6b-5c217da4cb1e","ios":"levelo://app?vid=345e7a68-760f-4786-8d6b-5c217da4cb1e"},"vehicle_type_id":"4","last_reported":1750453737,"current_range_meters":9600,"station_id":"ce4bh692rcd13ifvqea0","pricing_plan_id":"cebpf4jnsgd1na2vs0mg"},{"bike_id":"eb86011f-5d60-40ae-8afd-67dd8d54e4c5","system_id":"levelo_inurba_marseille","lat":43.31892,"lon":5.40719,"is_reserved":false,"is_disabled":false,"rental_uris":{"android":"levelo://app?vid=eb86011f-5d60-40ae-8afd-67dd8d54e4c5","ios":"levelo://app?vid=eb86011f-5d60-40ae-8afd-67dd8d54e4c5"},"vehicle_type_id":"4","last_reported":1750453737,"current_range_meters":9600,"station_id":"ce4bhq12rcd13ifvqhig","pricing_plan_id":"cebpf4jnsgd1na2vs0mg"},{"bike_id":"32f84a23-3360-4a47-a67a-41875109b867","system_id":"levelo_inurba_marseille","lat":43.33024,"lon":5.39035,"is_reserved":false,"is_disabled":false,"rental_uris":{"android":"levelo://app?vid=32f84a23-3360-4a47-a67a-41875109b867","ios":"levelo://app?vid=32f84a23-3360-4a47-a67a-41875109b867"},"vehicle_type_id":"4","last_reported":1750453737,"current_range_meters":9600,"station_id":"ce4bhr92rcd13ifvqhrg","pricing_plan_id":"cebpf4jnsgd1na2vs0mg"},{"bike_id":"46e3c449-caa6-431f-b263-b88f672d0c35","system_id":"levelo_inurba_marseille","lat":43.29595,"lon":5.38091,"is_reserved":false,"is_disabled":false,"rental_uris":{"android":"levelo://app?vid=46e3c449-caa6-431f-b263-b88f672d0c35","ios":"levelo://app?vid=46e3c449-caa6-431f-b263-b88f672d0c35"},"vehicle_type_id":"4","last_reported":1750453737,"current_range_meters":10000,"station_id":"ce4bgl12rcd13ifvqbo0","pricing_plan_id":"cebpf4jnsgd1na2vs0mg"},{"bike_id":"99f783bc-76e8-42ca-ad9c-129409e7ec8e","system_id":"levelo_inurba_marseille","lat":43.30137,"lon":5.37427,"is_reserved":false,"is_disabled":false,"rental_uris":{"android":"levelo://app?vid=99f783bc-76e8-42ca-ad9c-129409e7ec8e","ios":"levelo://app?vid=99f783bc-76e8-42ca-ad9c-129409e7ec8e"},"vehicle_type_id":"4","last_reported":1750453737,"current_range_meters":10000,"station_id":"ce4bgs92rcd13ifvqcc0","pricing_plan_id":"cebpf4jnsgd1na2vs0mg"},{"bike_id":"f8adf24b-7b9e-40c0-935f-d86e2296217f","system_id":"levelo_inurba_marseille","lat":43.3095,"lon":5.39025,"is_reserved":false,"is_disabled":false,"rental_uris":{"android":"levelo://app?vid=f8adf24b-7b9e-40c0-935f-d86e2296217f","ios":"levelo://app?vid=f8adf24b-7b9e-40c0-935f-d86e2296217f"},"vehicle_type_id":"4","last_reported":1750453737,"current_range_meters":10000,"station_id":"ce4bgup2rcd13ifvqco0","pricing_plan_id":"cebpf4jnsgd1na2vs0mg"},{"bike_id":"95948f8c-ed1b-4579-a2fd-8de9a76479dd","system_id":"levelo_inurba_marseille","lat":43.29875,"lon":5.3973,"is_reserved":false,"is_disabled":false,"rental_uris":{"android":"levelo://app?vid=95948f8c-ed1b-4579-a2fd-8de9a76479dd","ios":"levelo://app?vid=95948f8c-ed1b-4579-a2fd-8de9a76479dd"},"vehicle_type_id":"4","last_reported":1750453737,"current_range_meters":10000,"station_id":"ce4bh0h2rcd13ifvqd50","pricing_plan_id":"cebpf4jnsgd1na2vs0mg"},{"bike_id":"ac7d3aae-a715-4f3e-8d48-c147ea66c853","system_id":"levelo_inurba_marseille","lat":43.28484,"lon":5.38555,"is_reserved":false,"is_disabled":false,"rental_uris":{"android":"levelo://app?vid=ac7d3aae-a715-4f3e-8d48-c147ea66c853","ios":"levelo://app?vid=ac7d3aae-a715-4f3e-8d48-c147ea66c853"},"vehicle_type_id":"4","last_reported":1750453737,"current_range_meters":10000,"station_id":"ce4bh8p2rcd13ifvqeb0","pricing_plan_id":"cebpf4jnsgd1na2vs0mg"},{"bike_id":"1130ad13-103a-4985-b9eb-a470f985b800","system_id":"levelo_inurba_marseille","lat":43.33715,"lon":5.39183,"is_reserved":false,"is_disabled":false,"rental_uris":{"android":"levelo://app?vid=1130ad13-103a-4985-b9eb-a470f985b800","ios":"levelo://app?vid=1130ad13-103a-4985-b9eb-a470f985b800"},"vehicle_type_id":"4","last_reported":1750453737,"current_range_meters":10000,"station_id":"ce4bhr92rcd13ifvqhsg","pricing_plan_id":"cebpf4jnsgd1na2vs0mg"},{"bike_id":"f30123e7-96d3-442d-9d01-6c98dc61e7c8","system_id":"levelo_inurba_marseille","lat":43.298013,"lon":5.368492,"is_reserved":false,"is_disabled":false,"rental_uris":{"android":"levelo://app?vid=f30123e7-96d3-442d-9d01-6c98dc61e7c8","ios":"levelo://app?vid=f30123e7-96d3-442d-9d01-6c98dc61e7c8"},"vehicle_type_id":"4","last_reported":1750453737,"current_range_meters":10800,"station_id":"","pricing_plan_id":"cebpf4jnsgd1na2vs0mg"},{"bike_id":"2cd1ab55-3df8-4a22-8204-5e1bdb85c64f","system_id":"levelo_inurba_marseille","lat":43.28103,"lon":5.3783,"is_reserved":false,"is_disabled":false,"rental_uris":{"android":"levelo://app?vid=2cd1ab55-3df8-4a22-8204-5e1bdb85c64f","ios":"levelo://app?vid=2cd1ab55-3df8-4a22-8204-5e1bdb85c64f"},"vehicle_type_id":"4","last_reported":1750453737,"current_range_meters":10800,"station_id":"ce4bha12rcd13ifvqee0","pricing_plan_id":"cebpf4jnsgd1na2vs0mg"},{"bike_id":"226f9053-f467-4aee-bab3-f8d8708a8049","system_id":"levelo_inurba_marseille","lat":43.33032,"lon":5.39039,"is_reserved":false,"is_disabled":false,"rental_uris":{"android":"levelo://app?vid=226f9053-f467-4aee-bab3-f8d8708a8049","ios":"levelo://app?vid=226f9053-f467-4aee-bab3-f8d8708a8049"},"vehicle_type_id":"4","last_reported":1750453737,"current_range_meters":10800,"station_id":"ce4bhr92rcd13ifvqhrg","pricing_plan_id":"cebpf4jnsgd1na2vs0mg"},{"bike_id":"199c2831-e081-4bc0-9b94-19503817091d","system_id":"levelo_inurba_marseille","lat":43.24893,"lon":5.40683,"is_reserved":false,"is_disabled":false,"rental_uris":{"android":"levelo://app?vid=199c2831-e081-4bc0-9b94-19503817091d","ios":"levelo://app?vid=199c2831-e081-4bc0-9b94-19503817091d"},"vehicle_type_id":"4","last_reported":1750453737,"current_range_meters":11200,"station_id":"","pricing_plan_id":"cebpf4jnsgd1na2vs0mg"},{"bike_id":"30870cd0-916b-49d8-94d8-0f725685f99e","system_id":"levelo_inurba_marseille","lat":43.31365,"lon":5.38494,"is_reserved":false,"is_disabled":false,"rental_uris":{"android":"levelo://app?vid=30870cd0-916b-49d8-94d8-0f725685f99e","ios":"levelo://app?vid=30870cd0-916b-49d8-94d8-0f725685f99e"},"vehicle_type_id":"4","last_reported":1750453737,"current_range_meters":11200,"station_id":"ce4bgt92rcd13ifvqcf0","pricing_plan_id":"cebpf4jnsgd1na2vs0mg"},{"bike_id":"4794a94d-4a78-4612-9ca2-03c25a85e4ae","system_id":"levelo_inurba_marseille","lat":43.3138,"lon":5.38501,"is_reserved":false,"is_disabled":false,"rental_uris":{"android":"levelo://app?vid=4794a94d-4a78-4612-9ca2-03c25a85e4ae","ios":"levelo://app?vid=4794a94d-4a78-4612-9ca2-03c25a85e4ae"},"vehicle_type_id":"4","last_reported":1750453737,"current_range_meters":11200,"station_id":"ce4bgt92rcd13ifvqcf0","pricing_plan_id":"cebpf4jnsgd1na2vs0mg"},{"bike_id":"7a76abab-12d1-427c-a57b-19fe1db046ba","system_id":"levelo_inurba_marseille","lat":43.30949,"lon":5.39025,"is_reserved":false,"is_disabled":false,"rental_uris":{"android":"levelo://app?vid=7a76abab-12d1-427c-a57b-19fe1db046ba","ios":"levelo://app?vid=7a76abab-12d1-427c-a57b-19fe1db046ba"},"vehicle_type_id":"4","last_reported":1750453737,"current_range_meters":11200,"station_id":"ce4bgup2rcd13ifvqco0","pricing_plan_id":"cebpf4jnsgd1na2vs0mg"},{"bike_id":"ed8007d5-9311-4dcd-b313-49a431308121","system_id":"levelo_inurba_marseille","lat":43.29422,"lon":5.38624,"is_reserved":false,"is_disabled":false,"rental_uris":{"android":"levelo://app?vid=ed8007d5-9311-4dcd-b313-49a431308121","ios":"levelo://app?vid=ed8007d5-9311-4dcd-b313-49a431308121"},"vehicle_type_id":"4","last_reported":1750453737,"current_range_meters":11200,"station_id":"ce4bh2h2rcd13ifvqdh0","pricing_plan_id":"cebpf4jnsgd1na2vs0mg"},{"bike_id":"2219cb8b-fa48-4c8c-b1e8-bb240adf9fed","system_id":"levelo_inurba_marseille","lat":43.27374,"lon":5.36254,"is_reserved":false,"is_disabled":false,"rental_uris":{"android":"levelo://app?vid=2219cb8b-fa48-4c8c-b1e8-bb240adf9fed","ios":"levelo://app?vid=2219cb8b-fa48-4c8c-b1e8-bb240adf9fed"},"vehicle_type_id":"4","last_reported":1750453737,"current_range_meters":11200,"station_id":"ce4bhbh2rcd13ifvqeo0","pricing_plan_id":"cebpf4jnsgd1na2vs0mg"},{"bike_id":"92636463-0a9d-46b1-9cc3-f5c5b6835403","system_id":"levelo_inurba_marseille","lat":43.26207,"lon":5.40436,"is_reserved":false,"is_disabled":false,"rental_uris":{"android":"levelo://app?vid=92636463-0a9d-46b1-9cc3-f5c5b6835403","ios":"levelo://app?vid=92636463-0a9d-46b1-9cc3-f5c5b6835403"},"vehicle_type_id":"4","last_reported":1750453737,"current_range_meters":11200,"station_id":"ce4bhmh2rcd13ifvqgmg","pricing_plan_id":"cebpf4jnsgd1na2vs0mg"},{"bike_id":"2930bf7b-2372-4ddb-a96e-39fc10a37e17","system_id":"levelo_inurba_marseille","lat":43.3229,"lon":5.40592,"is_reserved":false,"is_disabled":false,"rental_uris":{"android":"levelo://app?vid=2930bf7b-2372-4ddb-a96e-39fc10a37e17","ios":"levelo://app?vid=2930bf7b-2372-4ddb-a96e-39fc10a37e17"},"vehicle_type_id":"4","last_reported":1750453737,"current_range_meters":11600,"station_id":"","pricing_plan_id":"cebpf4jnsgd1na2vs0mg"},{"bike_id":"3aaee78d-658b-40b3-81aa-40d8f6edf63c","system_id":"levelo_inurba_marseille","lat":43.29906,"lon":5.38153,"is_reserved":false,"is_disabled":false,"rental_uris":{"android":"levelo://app?vid=3aaee78d-658b-40b3-81aa-40d8f6edf63c","ios":"levelo://app?vid=3aaee78d-658b-40b3-81aa-40d8f6edf63c"},"vehicle_type_id":"4","last_reported":1750453737,"current_range_meters":11600,"station_id":"ce4bgj12rcd13ifvqbc0","pricing_plan_id":"cebpf4jnsgd1na2vs0mg"},{"bike_id":"43271cf0-1771-4092-b4cf-736424008359","system_id":"levelo_inurba_marseille","lat":43.2738,"lon":5.36259,"is_reserved":false,"is_disabled":false,"rental_uris":{"android":"levelo://app?vid=43271cf0-1771-4092-b4cf-736424008359","ios":"levelo://app?vid=43271cf0-1771-4092-b4cf-736424008359"},"vehicle_type_id":"4","last_reported":1750453737,"current_range_meters":11600,"station_id":"ce4bhbh2rcd13ifvqeo0","pricing_plan_id":"cebpf4jnsgd1na2vs0mg"},{"bike_id":"29ebffb9-7367-46df-bb9e-6091196da560","system_id":"levelo_inurba_marseille","lat":43.26194,"lon":5.37447,"is_reserved":false,"is_disabled":false,"rental_uris":{"android":"levelo://app?vid=29ebffb9-7367-46df-bb9e-6091196da560","ios":"levelo://app?vid=29ebffb9-7367-46df-bb9e-6091196da560"},"vehicle_type_id":"4","last_reported":1750453737,"current_range_meters":11600,"station_id":"ce4bhgp2rcd13ifvqfc0","pricing_plan_id":"cebpf4jnsgd1na2vs0mg"},{"bike_id":"1e11989f-e475-4397-9a45-bd9147224a5e","system_id":"levelo_inurba_marseille","lat":43.24416,"lon":5.37104,"is_reserved":false,"is_disabled":false,"rental_uris":{"android":"levelo://app?vid=1e11989f-e475-4397-9a45-bd9147224a5e","ios":"levelo://app?vid=1e11989f-e475-4397-9a45-bd9147224a5e"},"vehicle_type_id":"4","last_reported":1750453737,"current_range_meters":11600,"station_id":"ce4bhhh2rcd13ifvqfk0","pricing_plan_id":"cebpf4jnsgd1na2vs0mg"},{"bike_id":"8fd94bfe-b0a3-4509-a3c9-0f6e3f8eed78","system_id":"levelo_inurba_marseille","lat":43.24162,"lon":5.36385,"is_reserved":false,"is_disabled":false,"rental_uris":{"android":"levelo://app?vid=8fd94bfe-b0a3-4509-a3c9-0f6e3f8eed78","ios":"levelo://app?vid=8fd94bfe-b0a3-4509-a3c9-0f6e3f8eed78"},"vehicle_type_id":"4","last_reported":1750453737,"current_range_meters":11600,"station_id":"cpo36qri1sfpv3e86is0","pricing_plan_id":"cebpf4jnsgd1na2vs0mg"},{"bike_id":"8300812b-c3f4-4460-a462-0c10590e5460","system_id":"levelo_inurba_marseille","lat":43.32879,"lon":5.40535,"is_reserved":false,"is_disabled":false,"rental_uris":{"android":"levelo://app?vid=8300812b-c3f4-4460-a462-0c10590e5460","ios":"levelo://app?vid=8300812b-c3f4-4460-a462-0c10590e5460"},"vehicle_type_id":"4","last_reported":1750453737,"current_range_meters":12000,"station_id":"","pricing_plan_id":"cebpf4jnsgd1na2vs0mg"},{"bike_id":"7c607cae-d549-4454-9d8b-baa5d6e88b39","system_id":"levelo_inurba_marseille","lat":43.24804,"lon":5.37456,"is_reserved":false,"is_disabled":false,"rental_uris":{"android":"levelo://app?vid=7c607cae-d549-4454-9d8b-baa5d6e88b39","ios":"levelo://app?vid=7c607cae-d549-4454-9d8b-baa5d6e88b39"},"vehicle_type_id":"4","last_reported":1750453737,"current_range_meters":12000,"station_id":"ce4bhgh2rcd13ifvqfb0","pricing_plan_id":"cebpf4jnsgd1na2vs0mg"},{"bike_id":"04694ddd-bf8e-4a04-a095-88283d6986fe","system_id":"levelo_inurba_marseille","lat":43.24683,"lon":5.38152,"is_reserved":false,"is_disabled":false,"rental_uris":{"android":"levelo://app?vid=04694ddd-bf8e-4a04-a095-88283d6986fe","ios":"levelo://app?vid=04694ddd-bf8e-4a04-a095-88283d6986fe"},"vehicle_type_id":"4","last_reported":1750453737,"current_range_meters":12000,"station_id":"ce4bhih2rcd13ifvqfr0","pricing_plan_id":"cebpf4jnsgd1na2vs0mg"},{"bike_id":"a72b561e-675d-4a14-8c3d-5e9eea2b76ac","system_id":"levelo_inurba_marseille","lat":43.32368,"lon":5.3888,"is_reserved":false,"is_disabled":false,"rental_uris":{"android":"levelo://app?vid=a72b561e-675d-4a14-8c3d-5e9eea2b76ac","ios":"levelo://app?vid=a72b561e-675d-4a14-8c3d-5e9eea2b76ac"},"vehicle_type_id":"4","last_reported":1750453737,"current_range_meters":12000,"station_id":"ce4bhqp2rcd13ifvqhog","pricing_plan_id":"cebpf4jnsgd1na2vs0mg"},{"bike_id":"e178a6b4-9956-4554-beea-26209f3ac9db","system_id":"levelo_inurba_marseille","lat":43.29604,"lon":5.38094,"is_reserved":false,"is_disabled":false,"rental_uris":{"android":"levelo://app?vid=e178a6b4-9956-4554-beea-26209f3ac9db","ios":"levelo://app?vid=e178a6b4-9956-4554-beea-26209f3ac9db"},"vehicle_type_id":"4","last_reported":1750453737,"current_range_meters":12400,"station_id":"ce4bgl12rcd13ifvqbo0","pricing_plan_id":"cebpf4jnsgd1na2vs0mg"},{"bike_id":"05f69300-23b4-44be-a7e1-398a0efe81a4","system_id":"levelo_inurba_marseille","lat":43.3169,"lon":5.404651,"is_reserved":false,"is_disabled":false,"rental_uris":{"android":"levelo://app?vid=05f69300-23b4-44be-a7e1-398a0efe81a4","ios":"levelo://app?vid=05f69300-23b4-44be-a7e1-398a0efe81a4"},"vehicle_type_id":"4","last_reported":1750453737,"current_range_meters":12400,"station_id":"ce4bh012rcd13ifvqd00","pricing_plan_id":"cebpf4jnsgd1na2vs0mg"},{"bike_id":"0eb04758-0b59-4b82-b42b-fbfc24d51078","system_id":"levelo_inurba_marseille","lat":43.27372,"lon":5.36247,"is_reserved":false,"is_disabled":false,"rental_uris":{"android":"levelo://app?vid=0eb04758-0b59-4b82-b42b-fbfc24d51078","ios":"levelo://app?vid=0eb04758-0b59-4b82-b42b-fbfc24d51078"},"vehicle_type_id":"4","last_reported":1750453737,"current_range_meters":12400,"station_id":"ce4bhbh2rcd13ifvqeo0","pricing_plan_id":"cebpf4jnsgd1na2vs0mg"},{"bike_id":"5a6f9450-a07d-4f82-9a7e-2b0ce7aead3b","system_id":"levelo_inurba_marseille","lat":43.28716,"lon":5.37942,"is_reserved":false,"is_disabled":false,"rental_uris":{"android":"levelo://app?vid=5a6f9450-a07d-4f82-9a7e-2b0ce7aead3b","ios":"levelo://app?vid=5a6f9450-a07d-4f82-9a7e-2b0ce7aead3b"},"vehicle_type_id":"4","last_reported":1750453737,"current_range_meters":12800,"station_id":"ce4bh9p2rcd13ifvqec0","pricing_plan_id":"cebpf4jnsgd1na2vs0mg"},{"bike_id":"acb4a8c5-6857-4a30-b550-7c7dc7b87051","system_id":"levelo_inurba_marseille","lat":43.24651,"lon":5.38892,"is_reserved":false,"is_disabled":false,"rental_uris":{"android":"levelo://app?vid=acb4a8c5-6857-4a30-b550-7c7dc7b87051","ios":"levelo://app?vid=acb4a8c5-6857-4a30-b550-7c7dc7b87051"},"vehicle_type_id":"4","last_reported":1750453737,"current_range_meters":12800,"station_id":"ce4bhg12rcd13ifvqf60","pricing_plan_id":"cebpf4jnsgd1na2vs0mg"},{"bike_id":"80c758c1-4781-42c0-baad-6067c90c167b","system_id":"levelo_inurba_marseille","lat":43.26207,"lon":5.37914,"is_reserved":false,"is_disabled":false,"rental_uris":{"android":"levelo://app?vid=80c758c1-4781-42c0-baad-6067c90c167b","ios":"levelo://app?vid=80c758c1-4781-42c0-baad-6067c90c167b"},"vehicle_type_id":"4","last_reported":1750453737,"current_range_meters":12800,"station_id":"ce4bhjp2rcd13ifvqg90","pricing_plan_id":"cebpf4jnsgd1na2vs0mg"},{"bike_id":"490e922c-04ac-47db-a75f-4ffe68627c40","system_id":"levelo_inurba_marseille","lat":43.33026,"lon":5.39047,"is_reserved":false,"is_disabled":false,"rental_uris":{"android":"levelo://app?vid=490e922c-04ac-47db-a75f-4ffe68627c40","ios":"levelo://app?vid=490e922c-04ac-47db-a75f-4ffe68627c40"},"vehicle_type_id":"4","last_reported":1750453737,"current_range_meters":12800,"station_id":"ce4bhr92rcd13ifvqhrg","pricing_plan_id":"cebpf4jnsgd1na2vs0mg"},{"bike_id":"b0c36570-8a06-4ca8-b90b-1ab5801fe902","system_id":"levelo_inurba_marseille","lat":43.31233,"lon":5.404467,"is_reserved":false,"is_disabled":false,"rental_uris":{"android":"levelo://app?vid=b0c36570-8a06-4ca8-b90b-1ab5801fe902","ios":"levelo://app?vid=b0c36570-8a06-4ca8-b90b-1ab5801fe902"},"vehicle_type_id":"4","last_reported":1750453737,"current_range_meters":13600,"station_id":"","pricing_plan_id":"cebpf4jnsgd1na2vs0mg"},{"bike_id":"f6d13259-8db0-40b4-95b5-0066107be7e6","system_id":"levelo_inurba_marseille","lat":43.28758,"lon":5.36185,"is_reserved":false,"is_disabled":false,"rental_uris":{"android":"levelo://app?vid=f6d13259-8db0-40b4-95b5-0066107be7e6","ios":"levelo://app?vid=f6d13259-8db0-40b4-95b5-0066107be7e6"},"vehicle_type_id":"4","last_reported":1750453737,"current_range_meters":13600,"station_id":"","pricing_plan_id":"cebpf4jnsgd1na2vs0mg"},{"bike_id":"8351fd4d-9adb-4bb2-babf-5b5a9b124648","system_id":"levelo_inurba_marseille","lat":43.30423,"lon":5.39739,"is_reserved":false,"is_disabled":false,"rental_uris":{"android":"levelo://app?vid=8351fd4d-9adb-4bb2-babf-5b5a9b124648","ios":"levelo://app?vid=8351fd4d-9adb-4bb2-babf-5b5a9b124648"},"vehicle_type_id":"4","last_reported":1750453737,"current_range_meters":13600,"station_id":"ce4bh092rcd13ifvqd20","pricing_plan_id":"cebpf4jnsgd1na2vs0mg"},{"bike_id":"e9b72e0a-22b6-43d3-b8dd-d3e494e7b121","system_id":"levelo_inurba_marseille","lat":43.307159,"lon":5.373723,"is_reserved":false,"is_disabled":false,"rental_uris":{"android":"levelo://app?vid=e9b72e0a-22b6-43d3-b8dd-d3e494e7b121","ios":"levelo://app?vid=e9b72e0a-22b6-43d3-b8dd-d3e494e7b121"},"vehicle_type_id":"4","last_reported":1750453737,"current_range_meters":14000,"station_id":"","pricing_plan_id":"cebpf4jnsgd1na2vs0mg"},{"bike_id":"b2fbf416-55dd-439d-a34e-ffa65e1028d3","system_id":"levelo_inurba_marseille","lat":43.29602,"lon":5.38093,"is_reserved":false,"is_disabled":false,"rental_uris":{"android":"levelo://app?vid=b2fbf416-55dd-439d-a34e-ffa65e1028d3","ios":"levelo://app?vid=b2fbf416-55dd-439d-a34e-ffa65e1028d3"},"vehicle_type_id":"4","last_reported":1750453737,"current_range_meters":14000,"station_id":"ce4bgl12rcd13ifvqbo0","pricing_plan_id":"cebpf4jnsgd1na2vs0mg"},{"bike_id":"7111679d-d60e-4d9c-bbed-18f2e804cfdd","system_id":"levelo_inurba_marseille","lat":43.28353,"lon":5.38098,"is_reserved":false,"is_disabled":false,"rental_uris":{"android":"levelo://app?vid=7111679d-d60e-4d9c-bbed-18f2e804cfdd","ios":"levelo://app?vid=7111679d-d60e-4d9c-bbed-18f2e804cfdd"},"vehicle_type_id":"4","last_reported":1750453737,"current_range_meters":14000,"station_id":"ce4bh412rcd13ifvqdr0","pricing_plan_id":"cebpf4jnsgd1na2vs0mg"},{"bike_id":"fbdb0fe8-64b5-49df-827c-9def601508d9","system_id":"levelo_inurba_marseille","lat":43.255,"lon":5.37651,"is_reserved":false,"is_disabled":false,"rental_uris":{"android":"levelo://app?vid=fbdb0fe8-64b5-49df-827c-9def601508d9","ios":"levelo://app?vid=fbdb0fe8-64b5-49df-827c-9def601508d9"},"vehicle_type_id":"4","last_reported":1750453737,"current_range_meters":14000,"station_id":"ce4bhh12rcd13ifvqff0","pricing_plan_id":"cebpf4jnsgd1na2vs0mg"},{"bike_id":"30b0661b-e110-4661-8e48-5161670c888a","system_id":"levelo_inurba_marseille","lat":43.24662,"lon":5.38161,"is_reserved":false,"is_disabled":false,"rental_uris":{"android":"levelo://app?vid=30b0661b-e110-4661-8e48-5161670c888a","ios":"levelo://app?vid=30b0661b-e110-4661-8e48-5161670c888a"},"vehicle_type_id":"4","last_reported":1750453737,"current_range_meters":14000,"station_id":"ce4bhih2rcd13ifvqfr0","pricing_plan_id":"cebpf4jnsgd1na2vs0mg"},{"bike_id":"dc540ba2-fb63-45eb-b83a-1826fb3d30b7","system_id":"levelo_inurba_marseille","lat":43.24612,"lon":5.39263,"is_reserved":false,"is_disabled":false,"rental_uris":{"android":"levelo://app?vid=dc540ba2-fb63-45eb-b83a-1826fb3d30b7","ios":"levelo://app?vid=dc540ba2-fb63-45eb-b83a-1826fb3d30b7"},"vehicle_type_id":"4","last_reported":1750453737,"current_range_meters":14400,"station_id":"","pricing_plan_id":"cebpf4jnsgd1na2vs0mg"},{"bike_id":"959f0c62-9761-4a35-9c23-557e23ca2679","system_id":"levelo_inurba_marseille","lat":43.24675,"lon":5.38149,"is_reserved":false,"is_disabled":false,"rental_uris":{"android":"levelo://app?vid=959f0c62-9761-4a35-9c23-557e23ca2679","ios":"levelo://app?vid=959f0c62-9761-4a35-9c23-557e23ca2679"},"vehicle_type_id":"4","last_reported":1750453737,"current_range_meters":14400,"station_id":"ce4bhih2rcd13ifvqfr0","pricing_plan_id":"cebpf4jnsgd1na2vs0mg"},{"bike_id":"bd27fe72-6fbc-453f-8b77-bee10ab3b13c","system_id":"levelo_inurba_marseille","lat":43.29536,"lon":5.42343,"is_reserved":false,"is_disabled":false,"rental_uris":{"android":"levelo://app?vid=bd27fe72-6fbc-453f-8b77-bee10ab3b13c","ios":"levelo://app?vid=bd27fe72-6fbc-453f-8b77-bee10ab3b13c"},"vehicle_type_id":"4","last_reported":1750453737,"current_range_meters":14400,"station_id":"ce4bhph2rcd13ifvqhdg","pricing_plan_id":"cebpf4jnsgd1na2vs0mg"},{"bike_id":"e89db88b-1c2c-475c-a56d-e9d66d636fb2","system_id":"levelo_inurba_marseille","lat":43.232023,"lon":5.355445,"is_reserved":false,"is_disabled":false,"rental_uris":{"android":"levelo://app?vid=e89db88b-1c2c-475c-a56d-e9d66d636fb2","ios":"levelo://app?vid=e89db88b-1c2c-475c-a56d-e9d66d636fb2"},"vehicle_type_id":"4","last_reported":1750453737,"current_range_meters":14400,"station_id":"ce4bhu92rcd13ifvqi70","pricing_plan_id":"cebpf4jnsgd1na2vs0mg"},{"bike_id":"37c6f042-31ee-4f5a-a5e3-1ca9490c788c","system_id":"levelo_inurba_marseille","lat":43.29132,"lon":5.40376,"is_reserved":false,"is_disabled":false,"rental_uris":{"android":"levelo://app?vid=37c6f042-31ee-4f5a-a5e3-1ca9490c788c","ios":"levelo://app?vid=37c6f042-31ee-4f5a-a5e3-1ca9490c788c"},"vehicle_type_id":"4","last_reported":1750453737,"current_range_meters":14800,"station_id":"","pricing_plan_id":"cebpf4jnsgd1na2vs0mg"},{"bike_id":"8ef11a45-504d-45b0-a2b5-97fef9594218","system_id":"levelo_inurba_marseille","lat":43.295566,"lon":5.381441,"is_reserved":false,"is_disabled":false,"rental_uris":{"android":"levelo://app?vid=8ef11a45-504d-45b0-a2b5-97fef9594218","ios":"levelo://app?vid=8ef11a45-504d-45b0-a2b5-97fef9594218"},"vehicle_type_id":"4","last_reported":1750453737,"current_range_meters":14800,"station_id":"","pricing_plan_id":"cebpf4jnsgd1na2vs0mg"},{"bike_id":"3d54aa55-f2d1-45fe-8dcd-30232236e679","system_id":"levelo_inurba_marseille","lat":43.31365,"lon":5.38497,"is_reserved":false,"is_disabled":false,"rental_uris":{"android":"levelo://app?vid=3d54aa55-f2d1-45fe-8dcd-30232236e679","ios":"levelo://app?vid=3d54aa55-f2d1-45fe-8dcd-30232236e679"},"vehicle_type_id":"4","last_reported":1750453737,"current_range_meters":14800,"station_id":"ce4bgt92rcd13ifvqcf0","pricing_plan_id":"cebpf4jnsgd1na2vs0mg"},{"bike_id":"252b66a2-ac48-480d-89c8-6f8cd9e3dcd2","system_id":"levelo_inurba_marseille","lat":43.311646,"lon":5.387267,"is_reserved":false,"is_disabled":false,"rental_uris":{"android":"levelo://app?vid=252b66a2-ac48-480d-89c8-6f8cd9e3dcd2","ios":"levelo://app?vid=252b66a2-ac48-480d-89c8-6f8cd9e3dcd2"},"vehicle_type_id":"4","last_reported":1750453737,"current_range_meters":14800,"station_id":"ce4bgv12rcd13ifvqcp0","pricing_plan_id":"cebpf4jnsgd1na2vs0mg"},{"bike_id":"ed58a425-97f7-4e49-97ef-31c6411d6dc3","system_id":"levelo_inurba_marseille","lat":43.3117,"lon":5.38712,"is_reserved":false,"is_disabled":false,"rental_uris":{"android":"levelo://app?vid=ed58a425-97f7-4e49-97ef-31c6411d6dc3","ios":"levelo://app?vid=ed58a425-97f7-4e49-97ef-31c6411d6dc3"},"vehicle_type_id":"4","last_reported":1750453737,"current_range_meters":14800,"station_id":"ce4bgv12rcd13ifvqcp0","pricing_plan_id":"cebpf4jnsgd1na2vs0mg"},{"bike_id":"4afd6626-2640-4571-9002-44d7170d9242","system_id":"levelo_inurba_marseille","lat":43.29419,"lon":5.38627,"is_reserved":false,"is_disabled":false,"rental_uris":{"android":"levelo://app?vid=4afd6626-2640-4571-9002-44d7170d9242","ios":"levelo://app?vid=4afd6626-2640-4571-9002-44d7170d9242"},"vehicle_type_id":"4","last_reported":1750453737,"current_range_meters":14800,"station_id":"ce4bh2h2rcd13ifvqdh0","pricing_plan_id":"cebpf4jnsgd1na2vs0mg"},{"bike_id":"24c3f3cb-ddcf-46f0-9b3f-14585b768a2d","system_id":"levelo_inurba_marseille","lat":43.23153,"lon":5.43719,"is_reserved":false,"is_disabled":false,"rental_uris":{"android":"levelo://app?vid=24c3f3cb-ddcf-46f0-9b3f-14585b768a2d","ios":"levelo://app?vid=24c3f3cb-ddcf-46f0-9b3f-14585b768a2d"},"vehicle_type_id":"4","last_reported":1750453737,"current_range_meters":14800,"station_id":"ce4bhmp2rcd13ifvqgog","pricing_plan_id":"cebpf4jnsgd1na2vs0mg"},{"bike_id":"d40af265-11b5-43a6-9bb6-f910f57901ba","system_id":"levelo_inurba_marseille","lat":43.32984,"lon":5.3807,"is_reserved":false,"is_disabled":false,"rental_uris":{"android":"levelo://app?vid=d40af265-11b5-43a6-9bb6-f910f57901ba","ios":"levelo://app?vid=d40af265-11b5-43a6-9bb6-f910f57901ba"},"vehicle_type_id":"4","last_reported":1750453737,"current_range_meters":15200,"station_id":"","pricing_plan_id":"cebpf4jnsgd1na2vs0mg"},{"bike_id":"876990a7-0521-4fff-9f0d-1d75791b6a4d","system_id":"levelo_inurba_marseille","lat":43.29418,"lon":5.38626,"is_reserved":false,"is_disabled":false,"rental_uris":{"android":"levelo://app?vid=876990a7-0521-4fff-9f0d-1d75791b6a4d","ios":"levelo://app?vid=876990a7-0521-4fff-9f0d-1d75791b6a4d"},"vehicle_type_id":"4","last_reported":1750453737,"current_range_meters":15200,"station_id":"","pricing_plan_id":"cebpf4jnsgd1na2vs0mg"},{"bike_id":"67b776d8-fe5b-488d-99cb-eefee58fffe0","system_id":"levelo_inurba_marseille","lat":43.29528,"lon":5.38536,"is_reserved":false,"is_disabled":false,"rental_uris":{"android":"levelo://app?vid=67b776d8-fe5b-488d-99cb-eefee58fffe0","ios":"levelo://app?vid=67b776d8-fe5b-488d-99cb-eefee58fffe0"},"vehicle_type_id":"4","last_reported":1750453737,"current_range_meters":15200,"station_id":"ce4bgih2rcd13ifvqba0","pricing_plan_id":"cebpf4jnsgd1na2vs0mg"},{"bike_id":"df242628-1ee4-431a-8961-c07809179b5a","system_id":"levelo_inurba_marseille","lat":43.29714,"lon":5.36605,"is_reserved":false,"is_disabled":false,"rental_uris":{"android":"levelo://app?vid=df242628-1ee4-431a-8961-c07809179b5a","ios":"levelo://app?vid=df242628-1ee4-431a-8961-c07809179b5a"},"vehicle_type_id":"4","last_reported":1750453737,"current_range_meters":15200,"station_id":"ce4bgn12rcd13ifvqbt0","pricing_plan_id":"cebpf4jnsgd1na2vs0mg"},{"bike_id":"73ca78af-c969-4f07-9a86-35bf9abdcb85","system_id":"levelo_inurba_marseille","lat":43.29019,"lon":5.38613,"is_reserved":false,"is_disabled":false,"rental_uris":{"android":"levelo://app?vid=73ca78af-c969-4f07-9a86-35bf9abdcb85","ios":"levelo://app?vid=73ca78af-c969-4f07-9a86-35bf9abdcb85"},"vehicle_type_id":"4","last_reported":1750453737,"current_range_meters":15200,"station_id":"ce4bh4p2rcd13ifvqe0g","pricing_plan_id":"cebpf4jnsgd1na2vs0mg"},{"bike_id":"755ae074-1e1c-4323-945c-448ccd2c34ba","system_id":"levelo_inurba_marseille","lat":43.337444,"lon":5.374475,"is_reserved":false,"is_disabled":false,"rental_uris":{"android":"levelo://app?vid=755ae074-1e1c-4323-945c-448ccd2c34ba","ios":"levelo://app?vid=755ae074-1e1c-4323-945c-448ccd2c34ba"},"vehicle_type_id":"4","last_reported":1750453737,"current_range_meters":16000,"station_id":"","pricing_plan_id":"cebpf4jnsgd1na2vs0mg"},{"bike_id":"a22aa312-0025-4f42-88e2-b1e95e79340f","system_id":"levelo_inurba_marseille","lat":43.31654,"lon":5.38361,"is_reserved":false,"is_disabled":false,"rental_uris":{"android":"levelo://app?vid=a22aa312-0025-4f42-88e2-b1e95e79340f","ios":"levelo://app?vid=a22aa312-0025-4f42-88e2-b1e95e79340f"},"vehicle_type_id":"4","last_reported":1750453737,"current_range_meters":16000,"station_id":"","pricing_plan_id":"cebpf4jnsgd1na2vs0mg"},{"bike_id":"45fd36bd-3b77-4893-ad95-aac06b5d7698","system_id":"levelo_inurba_marseille","lat":43.29603,"lon":5.38083,"is_reserved":false,"is_disabled":false,"rental_uris":{"android":"levelo://app?vid=45fd36bd-3b77-4893-ad95-aac06b5d7698","ios":"levelo://app?vid=45fd36bd-3b77-4893-ad95-aac06b5d7698"},"vehicle_type_id":"4","last_reported":1750453737,"current_range_meters":16000,"station_id":"ce4bgl12rcd13ifvqbo0","pricing_plan_id":"cebpf4jnsgd1na2vs0mg"},{"bike_id":"875bac96-4b2b-43b3-bfcd-d9b5faccf704","system_id":"levelo_inurba_marseille","lat":43.304388,"lon":5.397432,"is_reserved":false,"is_disabled":false,"rental_uris":{"android":"levelo://app?vid=875bac96-4b2b-43b3-bfcd-d9b5faccf704","ios":"levelo://app?vid=875bac96-4b2b-43b3-bfcd-d9b5faccf704"},"vehicle_type_id":"4","last_reported":1750453737,"current_range_meters":16000,"station_id":"ce4bh092rcd13ifvqd20","pricing_plan_id":"cebpf4jnsgd1na2vs0mg"},{"bike_id":"4643bc90-1bac-4c4b-98b1-e2d500830573","system_id":"levelo_inurba_marseille","lat":43.31357,"lon":5.37693,"is_reserved":false,"is_disabled":false,"rental_uris":{"android":"levelo://app?vid=4643bc90-1bac-4c4b-98b1-e2d500830573","ios":"levelo://app?vid=4643bc90-1bac-4c4b-98b1-e2d500830573"},"vehicle_type_id":"4","last_reported":1750453737,"current_range_meters":16400,"station_id":"","pricing_plan_id":"cebpf4jnsgd1na2vs0mg"},{"bike_id":"90c109b5-5cee-495e-8f11-f318c0f086b6","system_id":"levelo_inurba_marseille","lat":43.32496,"lon":5.43447,"is_reserved":false,"is_disabled":false,"rental_uris":{"android":"levelo://app?vid=90c109b5-5cee-495e-8f11-f318c0f086b6","ios":"levelo://app?vid=90c109b5-5cee-495e-8f11-f318c0f086b6"},"vehicle_type_id":"4","last_reported":1750453737,"current_range_meters":16400,"station_id":"","pricing_plan_id":"cebpf4jnsgd1na2vs0mg"},{"bike_id":"708057cf-5043-47e6-80d1-937dcb5e329c","system_id":"levelo_inurba_marseille","lat":43.2953,"lon":5.38521,"is_reserved":false,"is_disabled":false,"rental_uris":{"android":"levelo://app?vid=708057cf-5043-47e6-80d1-937dcb5e329c","ios":"levelo://app?vid=708057cf-5043-47e6-80d1-937dcb5e329c"},"vehicle_type_id":"4","last_reported":1750453737,"current_range_meters":16400,"station_id":"ce4bgih2rcd13ifvqba0","pricing_plan_id":"cebpf4jnsgd1na2vs0mg"},{"bike_id":"ad7bc185-3adc-4e5b-841b-d61acf8adb22","system_id":"levelo_inurba_marseille","lat":43.29879,"lon":5.36304,"is_reserved":false,"is_disabled":false,"rental_uris":{"android":"levelo://app?vid=ad7bc185-3adc-4e5b-841b-d61acf8adb22","ios":"levelo://app?vid=ad7bc185-3adc-4e5b-841b-d61acf8adb22"},"vehicle_type_id":"4","last_reported":1750453737,"current_range_meters":16400,"station_id":"ce4bgpp2rcd13ifvqc3g","pricing_plan_id":"cebpf4jnsgd1na2vs0mg"},{"bike_id":"a27dfe13-84f1-4a5a-95b6-055954b50ba0","system_id":"levelo_inurba_marseille","lat":43.27373,"lon":5.36252,"is_reserved":false,"is_disabled":false,"rental_uris":{"android":"levelo://app?vid=a27dfe13-84f1-4a5a-95b6-055954b50ba0","ios":"levelo://app?vid=a27dfe13-84f1-4a5a-95b6-055954b50ba0"},"vehicle_type_id":"4","last_reported":1750453737,"current_range_meters":16400,"station_id":"ce4bhbh2rcd13ifvqeo0","pricing_plan_id":"cebpf4jnsgd1na2vs0mg"},{"bike_id":"833b9aa8-dbc1-4036-870c-2229d9641bf5","system_id":"levelo_inurba_marseille","lat":43.26222,"lon":5.37453,"is_reserved":false,"is_disabled":false,"rental_uris":{"android":"levelo://app?vid=833b9aa8-dbc1-4036-870c-2229d9641bf5","ios":"levelo://app?vid=833b9aa8-dbc1-4036-870c-2229d9641bf5"},"vehicle_type_id":"4","last_reported":1750453737,"current_range_meters":16400,"station_id":"ce4bhgp2rcd13ifvqfc0","pricing_plan_id":"cebpf4jnsgd1na2vs0mg"},{"bike_id":"204afd8f-d13a-468d-a59c-e2db9671fff1","system_id":"levelo_inurba_marseille","lat":43.24412,"lon":5.37115,"is_reserved":false,"is_disabled":false,"rental_uris":{"android":"levelo://app?vid=204afd8f-d13a-468d-a59c-e2db9671fff1","ios":"levelo://app?vid=204afd8f-d13a-468d-a59c-e2db9671fff1"},"vehicle_type_id":"4","last_reported":1750453737,"current_range_meters":16400,"station_id":"ce4bhhh2rcd13ifvqfk0","pricing_plan_id":"cebpf4jnsgd1na2vs0mg"},{"bike_id":"86fd7931-fd1a-4f6b-a59f-ef3c33ba28c8","system_id":"levelo_inurba_marseille","lat":43.25722,"lon":5.41103,"is_reserved":false,"is_disabled":false,"rental_uris":{"android":"levelo://app?vid=86fd7931-fd1a-4f6b-a59f-ef3c33ba28c8","ios":"levelo://app?vid=86fd7931-fd1a-4f6b-a59f-ef3c33ba28c8"},"vehicle_type_id":"4","last_reported":1750453737,"current_range_meters":16400,"station_id":"ce4bhkp2rcd13ifvqgd0","pricing_plan_id":"cebpf4jnsgd1na2vs0mg"},{"bike_id":"bc7b16b0-1094-4230-b70a-2ea3c24f6a61","system_id":"levelo_inurba_marseille","lat":43.24072,"lon":5.37761,"is_reserved":false,"is_disabled":false,"rental_uris":{"android":"levelo://app?vid=bc7b16b0-1094-4230-b70a-2ea3c24f6a61","ios":"levelo://app?vid=bc7b16b0-1094-4230-b70a-2ea3c24f6a61"},"vehicle_type_id":"4","last_reported":1750453737,"current_range_meters":16400,"station_id":"ce4bhnp2rcd13ifvqgvg","pricing_plan_id":"cebpf4jnsgd1na2vs0mg"},{"bike_id":"1549c9e6-1e83-4a20-b2a4-a46583c5b9f9","system_id":"levelo_inurba_marseille","lat":43.32483,"lon":5.36568,"is_reserved":false,"is_disabled":false,"rental_uris":{"android":"levelo://app?vid=1549c9e6-1e83-4a20-b2a4-a46583c5b9f9","ios":"levelo://app?vid=1549c9e6-1e83-4a20-b2a4-a46583c5b9f9"},"vehicle_type_id":"4","last_reported":1750453737,"current_range_meters":16400,"station_id":"ce4bhs12rcd13ifvqhvg","pricing_plan_id":"cebpf4jnsgd1na2vs0mg"},{"bike_id":"2d9013a6-c423-43b7-a9c0-cbceb06bfc0c","system_id":"levelo_inurba_marseille","lat":43.30426,"lon":5.38888,"is_reserved":false,"is_disabled":false,"rental_uris":{"android":"levelo://app?vid=2d9013a6-c423-43b7-a9c0-cbceb06bfc0c","ios":"levelo://app?vid=2d9013a6-c423-43b7-a9c0-cbceb06bfc0c"},"vehicle_type_id":"4","last_reported":1750453737,"current_range_meters":16800,"station_id":"ce4bgk12rcd13ifvqbi0","pricing_plan_id":"cebpf4jnsgd1na2vs0mg"},{"bike_id":"e7209db1-f9cb-4a4d-9055-5ef516db4fbd","system_id":"levelo_inurba_marseille","lat":43.3043,"lon":5.39741,"is_reserved":false,"is_disabled":false,"rental_uris":{"android":"levelo://app?vid=e7209db1-f9cb-4a4d-9055-5ef516db4fbd","ios":"levelo://app?vid=e7209db1-f9cb-4a4d-9055-5ef516db4fbd"},"vehicle_type_id":"4","last_reported":1750453737,"current_range_meters":16800,"station_id":"ce4bh092rcd13ifvqd20","pricing_plan_id":"cebpf4jnsgd1na2vs0mg"},{"bike_id":"ff0585d1-3da0-48f3-9fda-da5b5d5767f8","system_id":"levelo_inurba_marseille","lat":43.29455,"lon":5.38656,"is_reserved":false,"is_disabled":false,"rental_uris":{"android":"levelo://app?vid=ff0585d1-3da0-48f3-9fda-da5b5d5767f8","ios":"levelo://app?vid=ff0585d1-3da0-48f3-9fda-da5b5d5767f8"},"vehicle_type_id":"4","last_reported":1750453737,"current_range_meters":16800,"station_id":"ce4bh2h2rcd13ifvqdh0","pricing_plan_id":"cebpf4jnsgd1na2vs0mg"},{"bike_id":"65cd3205-9709-4194-9eff-0716887c63b6","system_id":"levelo_inurba_marseille","lat":43.23179,"lon":5.3999,"is_reserved":false,"is_disabled":false,"rental_uris":{"android":"levelo://app?vid=65cd3205-9709-4194-9eff-0716887c63b6","ios":"levelo://app?vid=65cd3205-9709-4194-9eff-0716887c63b6"},"vehicle_type_id":"4","last_reported":1750453737,"current_range_meters":16800,"station_id":"ce4bhn12rcd13ifvqgqg","pricing_plan_id":"cebpf4jnsgd1na2vs0mg"},{"bike_id":"887a2013-b236-480a-b2c3-7f621a895692","system_id":"levelo_inurba_marseille","lat":43.28153,"lon":5.42643,"is_reserved":false,"is_disabled":false,"rental_uris":{"android":"levelo://app?vid=887a2013-b236-480a-b2c3-7f621a895692","ios":"levelo://app?vid=887a2013-b236-480a-b2c3-7f621a895692"},"vehicle_type_id":"4","last_reported":1750453737,"current_range_meters":16800,"station_id":"ce4bhnh2rcd13ifvqgug","pricing_plan_id":"cebpf4jnsgd1na2vs0mg"},{"bike_id":"dcc4ec47-7cb8-4560-93ae-21c89b30d203","system_id":"levelo_inurba_marseille","lat":43.29786,"lon":5.3935,"is_reserved":false,"is_disabled":false,"rental_uris":{"android":"levelo://app?vid=dcc4ec47-7cb8-4560-93ae-21c89b30d203","ios":"levelo://app?vid=dcc4ec47-7cb8-4560-93ae-21c89b30d203"},"vehicle_type_id":"4","last_reported":1750453737,"current_range_meters":16800,"station_id":"chh1huq6cuj3fo74tm60","pricing_plan_id":"cebpf4jnsgd1na2vs0mg"},{"bike_id":"ffbb0c22-3f4e-4cdb-a0e5-79e3b9f3e1a2","system_id":"levelo_inurba_marseille","lat":43.33771,"lon":5.37432,"is_reserved":false,"is_disabled":false,"rental_uris":{"android":"levelo://app?vid=ffbb0c22-3f4e-4cdb-a0e5-79e3b9f3e1a2","ios":"levelo://app?vid=ffbb0c22-3f4e-4cdb-a0e5-79e3b9f3e1a2"},"vehicle_type_id":"4","last_reported":1750453737,"current_range_meters":17200,"station_id":"","pricing_plan_id":"cebpf4jnsgd1na2vs0mg"},{"bike_id":"e346d9bf-4493-4351-a8a5-3d12d8dd5382","system_id":"levelo_inurba_marseille","lat":43.29413,"lon":5.38609,"is_reserved":false,"is_disabled":false,"rental_uris":{"android":"levelo://app?vid=e346d9bf-4493-4351-a8a5-3d12d8dd5382","ios":"levelo://app?vid=e346d9bf-4493-4351-a8a5-3d12d8dd5382"},"vehicle_type_id":"4","last_reported":1750453737,"current_range_meters":17200,"station_id":"ce4bh2h2rcd13ifvqdh0","pricing_plan_id":"cebpf4jnsgd1na2vs0mg"},{"bike_id":"a2d47822-b9b5-466b-b697-efda3b543e71","system_id":"levelo_inurba_marseille","lat":43.29029,"lon":5.38645,"is_reserved":false,"is_disabled":false,"rental_uris":{"android":"levelo://app?vid=a2d47822-b9b5-466b-b697-efda3b543e71","ios":"levelo://app?vid=a2d47822-b9b5-466b-b697-efda3b543e71"},"vehicle_type_id":"4","last_reported":1750453737,"current_range_meters":17200,"station_id":"ce4bh4p2rcd13ifvqe0g","pricing_plan_id":"cebpf4jnsgd1na2vs0mg"},{"bike_id":"3b7eb2a4-0d13-4351-82f6-c81a63215988","system_id":"levelo_inurba_marseille","lat":43.26025,"lon":5.37547,"is_reserved":false,"is_disabled":false,"rental_uris":{"android":"levelo://app?vid=3b7eb2a4-0d13-4351-82f6-c81a63215988","ios":"levelo://app?vid=3b7eb2a4-0d13-4351-82f6-c81a63215988"},"vehicle_type_id":"4","last_reported":1750453737,"current_range_meters":17200,"station_id":"ce4bhgh2rcd13ifvqfa0","pricing_plan_id":"cebpf4jnsgd1na2vs0mg"},{"bike_id":"01c0ac0f-b40f-4f7c-a9fe-4fc3ed3169fe","system_id":"levelo_inurba_marseille","lat":43.25982,"lon":5.37569,"is_reserved":false,"is_disabled":false,"rental_uris":{"android":"levelo://app?vid=01c0ac0f-b40f-4f7c-a9fe-4fc3ed3169fe","ios":"levelo://app?vid=01c0ac0f-b40f-4f7c-a9fe-4fc3ed3169fe"},"vehicle_type_id":"4","last_reported":1750453737,"current_range_meters":17200,"station_id":"ce4bhgh2rcd13ifvqfa0","pricing_plan_id":"cebpf4jnsgd1na2vs0mg"},{"bike_id":"57961322-9178-4454-bb5f-965a33c84a53","system_id":"levelo_inurba_marseille","lat":43.27996,"lon":5.41667,"is_reserved":false,"is_disabled":false,"rental_uris":{"android":"levelo://app?vid=57961322-9178-4454-bb5f-965a33c84a53","ios":"levelo://app?vid=57961322-9178-4454-bb5f-965a33c84a53"},"vehicle_type_id":"4","last_reported":1750453737,"current_range_meters":17200,"station_id":"ce4bho12rcd13ifvqh1g","pricing_plan_id":"cebpf4jnsgd1na2vs0mg"},{"bike_id":"2a8ae250-8f88-4f87-8b13-fa6781778122","system_id":"levelo_inurba_marseille","lat":43.26943,"lon":5.4025,"is_reserved":false,"is_disabled":false,"rental_uris":{"android":"levelo://app?vid=2a8ae250-8f88-4f87-8b13-fa6781778122","ios":"levelo://app?vid=2a8ae250-8f88-4f87-8b13-fa6781778122"},"vehicle_type_id":"4","last_reported":1750453737,"current_range_meters":17200,"station_id":"cjm6bp8fraef2m0cb0m0","pricing_plan_id":"cebpf4jnsgd1na2vs0mg"},{"bike_id":"9436b3f7-e71d-4814-81fe-95d1af5df695","system_id":"levelo_inurba_marseille","lat":43.21201,"lon":5.35057,"is_reserved":false,"is_disabled":false,"rental_uris":{"android":"levelo://app?vid=9436b3f7-e71d-4814-81fe-95d1af5df695","ios":"levelo://app?vid=9436b3f7-e71d-4814-81fe-95d1af5df695"},"vehicle_type_id":"4","last_reported":1750453737,"current_range_meters":17200,"station_id":"st_cvj6sg6p6f1abm77japg","pricing_plan_id":"cebpf4jnsgd1na2vs0mg"},{"bike_id":"05288ece-95fb-4ab9-8db7-855928f6c71c","system_id":"levelo_inurba_marseille","lat":43.29535,"lon":5.38539,"is_reserved":false,"is_disabled":false,"rental_uris":{"android":"levelo://app?vid=05288ece-95fb-4ab9-8db7-855928f6c71c","ios":"levelo://app?vid=05288ece-95fb-4ab9-8db7-855928f6c71c"},"vehicle_type_id":"4","last_reported":1750453737,"current_range_meters":17600,"station_id":"ce4bgih2rcd13ifvqba0","pricing_plan_id":"cebpf4jnsgd1na2vs0mg"},{"bike_id":"2682441d-3917-42d2-82d5-feb122ced386","system_id":"levelo_inurba_marseille","lat":43.3046,"lon":5.37902,"is_reserved":false,"is_disabled":false,"rental_uris":{"android":"levelo://app?vid=2682441d-3917-42d2-82d5-feb122ced386","ios":"levelo://app?vid=2682441d-3917-42d2-82d5-feb122ced386"},"vehicle_type_id":"4","last_reported":1750453737,"current_range_meters":17600,"station_id":"ce4bgup2rcd13ifvqcn0","pricing_plan_id":"cebpf4jnsgd1na2vs0mg"},{"bike_id":"f3c8e970-00b7-47d4-b758-30057f073d06","system_id":"levelo_inurba_marseille","lat":43.25507,"lon":5.37654,"is_reserved":false,"is_disabled":false,"rental_uris":{"android":"levelo://app?vid=f3c8e970-00b7-47d4-b758-30057f073d06","ios":"levelo://app?vid=f3c8e970-00b7-47d4-b758-30057f073d06"},"vehicle_type_id":"4","last_reported":1750453737,"current_range_meters":17600,"station_id":"ce4bhh12rcd13ifvqff0","pricing_plan_id":"cebpf4jnsgd1na2vs0mg"},{"bike_id":"a3a242a8-f687-485d-8b12-3da594c21732","system_id":"levelo_inurba_marseille","lat":43.28702,"lon":5.39986,"is_reserved":false,"is_disabled":false,"rental_uris":{"android":"levelo://app?vid=a3a242a8-f687-485d-8b12-3da594c21732","ios":"levelo://app?vid=a3a242a8-f687-485d-8b12-3da594c21732"},"vehicle_type_id":"4","last_reported":1750453737,"current_range_meters":17600,"station_id":"ce4bho92rcd13ifvqh3g","pricing_plan_id":"cebpf4jnsgd1na2vs0mg"},{"bike_id":"7255fa22-1e2d-4b3d-a6b2-844cbee0a581","system_id":"levelo_inurba_marseille","lat":43.3203,"lon":5.40817,"is_reserved":false,"is_disabled":false,"rental_uris":{"android":"levelo://app?vid=7255fa22-1e2d-4b3d-a6b2-844cbee0a581","ios":"levelo://app?vid=7255fa22-1e2d-4b3d-a6b2-844cbee0a581"},"vehicle_type_id":"4","last_reported":1750453737,"current_range_meters":18000,"station_id":"","pricing_plan_id":"cebpf4jnsgd1na2vs0mg"},{"bike_id":"287c1cb4-0481-498f-b12c-099262a3613e","system_id":"levelo_inurba_marseille","lat":43.31361,"lon":5.38495,"is_reserved":false,"is_disabled":false,"rental_uris":{"android":"levelo://app?vid=287c1cb4-0481-498f-b12c-099262a3613e","ios":"levelo://app?vid=287c1cb4-0481-498f-b12c-099262a3613e"},"vehicle_type_id":"4","last_reported":1750453737,"current_range_meters":18000,"station_id":"ce4bgt92rcd13ifvqcf0","pricing_plan_id":"cebpf4jnsgd1na2vs0mg"},{"bike_id":"fbc199d6-3034-471f-93d1-c5e90231f3e0","system_id":"levelo_inurba_marseille","lat":43.29867,"lon":5.39728,"is_reserved":false,"is_disabled":false,"rental_uris":{"android":"levelo://app?vid=fbc199d6-3034-471f-93d1-c5e90231f3e0","ios":"levelo://app?vid=fbc199d6-3034-471f-93d1-c5e90231f3e0"},"vehicle_type_id":"4","last_reported":1750453737,"current_range_meters":18000,"station_id":"ce4bh0h2rcd13ifvqd50","pricing_plan_id":"cebpf4jnsgd1na2vs0mg"},{"bike_id":"b6ed284a-1baa-40d7-a070-2aa156676ec4","system_id":"levelo_inurba_marseille","lat":43.28841,"lon":5.39311,"is_reserved":false,"is_disabled":false,"rental_uris":{"android":"levelo://app?vid=b6ed284a-1baa-40d7-a070-2aa156676ec4","ios":"levelo://app?vid=b6ed284a-1baa-40d7-a070-2aa156676ec4"},"vehicle_type_id":"4","last_reported":1750453737,"current_range_meters":18000,"station_id":"ce4bh2p2rcd13ifvqdi0","pricing_plan_id":"cebpf4jnsgd1na2vs0mg"},{"bike_id":"2cec0bc7-dead-4af8-95ca-e858e0d59839","system_id":"levelo_inurba_marseille","lat":43.289316,"lon":5.366398,"is_reserved":false,"is_disabled":false,"rental_uris":{"android":"levelo://app?vid=2cec0bc7-dead-4af8-95ca-e858e0d59839","ios":"levelo://app?vid=2cec0bc7-dead-4af8-95ca-e858e0d59839"},"vehicle_type_id":"4","last_reported":1750453737,"current_range_meters":18000,"station_id":"ce4bhap2rcd13ifvqek0","pricing_plan_id":"cebpf4jnsgd1na2vs0mg"},{"bike_id":"6a9073e1-dbca-4177-891c-395ea8a302d8","system_id":"levelo_inurba_marseille","lat":43.27371,"lon":5.36257,"is_reserved":false,"is_disabled":false,"rental_uris":{"android":"levelo://app?vid=6a9073e1-dbca-4177-891c-395ea8a302d8","ios":"levelo://app?vid=6a9073e1-dbca-4177-891c-395ea8a302d8"},"vehicle_type_id":"4","last_reported":1750453737,"current_range_meters":18000,"station_id":"ce4bhbh2rcd13ifvqeo0","pricing_plan_id":"cebpf4jnsgd1na2vs0mg"},{"bike_id":"65490dbb-fb26-48b3-b1b6-17abf527e385","system_id":"levelo_inurba_marseille","lat":43.24178,"lon":5.36405,"is_reserved":false,"is_disabled":false,"rental_uris":{"android":"levelo://app?vid=65490dbb-fb26-48b3-b1b6-17abf527e385","ios":"levelo://app?vid=65490dbb-fb26-48b3-b1b6-17abf527e385"},"vehicle_type_id":"4","last_reported":1750453737,"current_range_meters":18000,"station_id":"cpo36qri1sfpv3e86is0","pricing_plan_id":"cebpf4jnsgd1na2vs0mg"},{"bike_id":"38b4578b-d322-4ae7-86ef-2a7e9839b4fd","system_id":"levelo_inurba_marseille","lat":43.21188,"lon":5.35079,"is_reserved":false,"is_disabled":false,"rental_uris":{"android":"levelo://app?vid=38b4578b-d322-4ae7-86ef-2a7e9839b4fd","ios":"levelo://app?vid=38b4578b-d322-4ae7-86ef-2a7e9839b4fd"},"vehicle_type_id":"4","last_reported":1750453737,"current_range_meters":18000,"station_id":"st_cvj6sg6p6f1abm77japg","pricing_plan_id":"cebpf4jnsgd1na2vs0mg"},{"bike_id":"f6069a5d-a2bc-44cc-bc6f-f26f79591d92","system_id":"levelo_inurba_marseille","lat":43.30779,"lon":5.37365,"is_reserved":false,"is_disabled":false,"rental_uris":{"android":"levelo://app?vid=f6069a5d-a2bc-44cc-bc6f-f26f79591d92","ios":"levelo://app?vid=f6069a5d-a2bc-44cc-bc6f-f26f79591d92"},"vehicle_type_id":"4","last_reported":1750453737,"current_range_meters":18800,"station_id":"","pricing_plan_id":"cebpf4jnsgd1na2vs0mg"},{"bike_id":"a03a949d-876f-42db-9564-0aeae678fff4","system_id":"levelo_inurba_marseille","lat":43.29421,"lon":5.44467,"is_reserved":false,"is_disabled":false,"rental_uris":{"android":"levelo://app?vid=a03a949d-876f-42db-9564-0aeae678fff4","ios":"levelo://app?vid=a03a949d-876f-42db-9564-0aeae678fff4"},"vehicle_type_id":"4","last_reported":1750453737,"current_range_meters":18800,"station_id":"","pricing_plan_id":"cebpf4jnsgd1na2vs0mg"},{"bike_id":"e9de61fc-3f4b-464d-b8a9-fe451105de53","system_id":"levelo_inurba_marseille","lat":43.304353,"lon":5.38887,"is_reserved":false,"is_disabled":false,"rental_uris":{"android":"levelo://app?vid=e9de61fc-3f4b-464d-b8a9-fe451105de53","ios":"levelo://app?vid=e9de61fc-3f4b-464d-b8a9-fe451105de53"},"vehicle_type_id":"4","last_reported":1750453737,"current_range_meters":18800,"station_id":"ce4bgk12rcd13ifvqbi0","pricing_plan_id":"cebpf4jnsgd1na2vs0mg"},{"bike_id":"28f0579f-efe3-4a8b-8de2-670cf7adef4d","system_id":"levelo_inurba_marseille","lat":43.30954,"lon":5.39022,"is_reserved":false,"is_disabled":false,"rental_uris":{"android":"levelo://app?vid=28f0579f-efe3-4a8b-8de2-670cf7adef4d","ios":"levelo://app?vid=28f0579f-efe3-4a8b-8de2-670cf7adef4d"},"vehicle_type_id":"4","last_reported":1750453737,"current_range_meters":18800,"station_id":"ce4bgup2rcd13ifvqco0","pricing_plan_id":"cebpf4jnsgd1na2vs0mg"},{"bike_id":"6eec6455-39a4-4283-ab50-3a4961116b52","system_id":"levelo_inurba_marseille","lat":43.2893,"lon":5.38391,"is_reserved":false,"is_disabled":false,"rental_uris":{"android":"levelo://app?vid=6eec6455-39a4-4283-ab50-3a4961116b52","ios":"levelo://app?vid=6eec6455-39a4-4283-ab50-3a4961116b52"},"vehicle_type_id":"4","last_reported":1750453737,"current_range_meters":18800,"station_id":"ce4bh612rcd13ifvqe6g","pricing_plan_id":"cebpf4jnsgd1na2vs0mg"},{"bike_id":"199e2f09-3415-4bcb-9b4d-540e87bba859","system_id":"levelo_inurba_marseille","lat":43.29262,"lon":5.38449,"is_reserved":false,"is_disabled":false,"rental_uris":{"android":"levelo://app?vid=199e2f09-3415-4bcb-9b4d-540e87bba859","ios":"levelo://app?vid=199e2f09-3415-4bcb-9b4d-540e87bba859"},"vehicle_type_id":"4","last_reported":1750453737,"current_range_meters":18800,"station_id":"ce4bh692rcd13ifvqea0","pricing_plan_id":"cebpf4jnsgd1na2vs0mg"},{"bike_id":"a094b0ab-60c5-4349-94e3-42d01ee69592","system_id":"levelo_inurba_marseille","lat":43.28722,"lon":5.37927,"is_reserved":false,"is_disabled":false,"rental_uris":{"android":"levelo://app?vid=a094b0ab-60c5-4349-94e3-42d01ee69592","ios":"levelo://app?vid=a094b0ab-60c5-4349-94e3-42d01ee69592"},"vehicle_type_id":"4","last_reported":1750453737,"current_range_meters":18800,"station_id":"ce4bh9p2rcd13ifvqec0","pricing_plan_id":"cebpf4jnsgd1na2vs0mg"},{"bike_id":"4899c20b-9009-4c0d-8e4b-0e2f6fde69de","system_id":"levelo_inurba_marseille","lat":43.32042,"lon":5.41547,"is_reserved":false,"is_disabled":false,"rental_uris":{"android":"levelo://app?vid=4899c20b-9009-4c0d-8e4b-0e2f6fde69de","ios":"levelo://app?vid=4899c20b-9009-4c0d-8e4b-0e2f6fde69de"},"vehicle_type_id":"4","last_reported":1750453737,"current_range_meters":18800,"station_id":"ce4bhq92rcd13ifvqhkg","pricing_plan_id":"cebpf4jnsgd1na2vs0mg"},{"bike_id":"90c5a1b6-730c-413e-bcee-b223ffbd4504","system_id":"levelo_inurba_marseille","lat":43.24173,"lon":5.36393,"is_reserved":false,"is_disabled":false,"rental_uris":{"android":"levelo://app?vid=90c5a1b6-730c-413e-bcee-b223ffbd4504","ios":"levelo://app?vid=90c5a1b6-730c-413e-bcee-b223ffbd4504"},"vehicle_type_id":"4","last_reported":1750453737,"current_range_meters":18800,"station_id":"cpo36qri1sfpv3e86is0","pricing_plan_id":"cebpf4jnsgd1na2vs0mg"},{"bike_id":"4652fcd3-8fa3-4f43-ac1d-f66153d7f3b7","system_id":"levelo_inurba_marseille","lat":43.28213,"lon":5.40386,"is_reserved":false,"is_disabled":false,"rental_uris":{"android":"levelo://app?vid=4652fcd3-8fa3-4f43-ac1d-f66153d7f3b7","ios":"levelo://app?vid=4652fcd3-8fa3-4f43-ac1d-f66153d7f3b7"},"vehicle_type_id":"4","last_reported":1750453737,"current_range_meters":19200,"station_id":"","pricing_plan_id":"cebpf4jnsgd1na2vs0mg"},{"bike_id":"832d7b27-6565-4ab4-8a23-c2befdc18fbc","system_id":"levelo_inurba_marseille","lat":43.29575,"lon":5.3811,"is_reserved":false,"is_disabled":false,"rental_uris":{"android":"levelo://app?vid=832d7b27-6565-4ab4-8a23-c2befdc18fbc","ios":"levelo://app?vid=832d7b27-6565-4ab4-8a23-c2befdc18fbc"},"vehicle_type_id":"4","last_reported":1750453737,"current_range_meters":19200,"station_id":"ce4bgl12rcd13ifvqbo0","pricing_plan_id":"cebpf4jnsgd1na2vs0mg"},{"bike_id":"b2cd42bf-c374-4718-86cd-ce0a1099bcec","system_id":"levelo_inurba_marseille","lat":43.30189,"lon":5.36603,"is_reserved":false,"is_disabled":false,"rental_uris":{"android":"levelo://app?vid=b2cd42bf-c374-4718-86cd-ce0a1099bcec","ios":"levelo://app?vid=b2cd42bf-c374-4718-86cd-ce0a1099bcec"},"vehicle_type_id":"4","last_reported":1750453737,"current_range_meters":19200,"station_id":"ce4bgrh2rcd13ifvqc8g","pricing_plan_id":"cebpf4jnsgd1na2vs0mg"},{"bike_id":"516c9aa9-3a48-433d-a841-8d5f0167a747","system_id":"levelo_inurba_marseille","lat":43.29249,"lon":5.3843,"is_reserved":false,"is_disabled":false,"rental_uris":{"android":"levelo://app?vid=516c9aa9-3a48-433d-a841-8d5f0167a747","ios":"levelo://app?vid=516c9aa9-3a48-433d-a841-8d5f0167a747"},"vehicle_type_id":"4","last_reported":1750453737,"current_range_meters":19200,"station_id":"ce4bh692rcd13ifvqea0","pricing_plan_id":"cebpf4jnsgd1na2vs0mg"},{"bike_id":"c97f21c3-a4d5-4c44-8db8-7b4057367130","system_id":"levelo_inurba_marseille","lat":43.27383,"lon":5.36255,"is_reserved":false,"is_disabled":false,"rental_uris":{"android":"levelo://app?vid=c97f21c3-a4d5-4c44-8db8-7b4057367130","ios":"levelo://app?vid=c97f21c3-a4d5-4c44-8db8-7b4057367130"},"vehicle_type_id":"4","last_reported":1750453737,"current_range_meters":19200,"station_id":"ce4bhbh2rcd13ifvqeo0","pricing_plan_id":"cebpf4jnsgd1na2vs0mg"},{"bike_id":"acd56193-f7c0-4f54-aeb1-ad80866788ba","system_id":"levelo_inurba_marseille","lat":43.27366,"lon":5.36254,"is_reserved":false,"is_disabled":false,"rental_uris":{"android":"levelo://app?vid=acd56193-f7c0-4f54-aeb1-ad80866788ba","ios":"levelo://app?vid=acd56193-f7c0-4f54-aeb1-ad80866788ba"},"vehicle_type_id":"4","last_reported":1750453737,"current_range_meters":19200,"station_id":"ce4bhbh2rcd13ifvqeo0","pricing_plan_id":"cebpf4jnsgd1na2vs0mg"},{"bike_id":"50d17df6-25aa-4d4b-a253-e8b68e277311","system_id":"levelo_inurba_marseille","lat":43.26577,"lon":5.39012,"is_reserved":false,"is_disabled":false,"rental_uris":{"android":"levelo://app?vid=50d17df6-25aa-4d4b-a253-e8b68e277311","ios":"levelo://app?vid=50d17df6-25aa-4d4b-a253-e8b68e277311"},"vehicle_type_id":"4","last_reported":1750453737,"current_range_meters":19200,"station_id":"ce4bhe12rcd13ifvqf30","pricing_plan_id":"cebpf4jnsgd1na2vs0mg"},{"bike_id":"c78a9fcf-578e-432e-9718-618df7a42466","system_id":"levelo_inurba_marseille","lat":43.26929,"lon":5.38924,"is_reserved":false,"is_disabled":false,"rental_uris":{"android":"levelo://app?vid=c78a9fcf-578e-432e-9718-618df7a42466","ios":"levelo://app?vid=c78a9fcf-578e-432e-9718-618df7a42466"},"vehicle_type_id":"4","last_reported":1750453737,"current_range_meters":19200,"station_id":"ce4bhhh2rcd13ifvqfl0","pricing_plan_id":"cebpf4jnsgd1na2vs0mg"},{"bike_id":"81dd4f49-4327-4be0-9da0-854e434cc849","system_id":"levelo_inurba_marseille","lat":43.242854,"lon":5.367621,"is_reserved":false,"is_disabled":false,"rental_uris":{"android":"levelo://app?vid=81dd4f49-4327-4be0-9da0-854e434cc849","ios":"levelo://app?vid=81dd4f49-4327-4be0-9da0-854e434cc849"},"vehicle_type_id":"4","last_reported":1750453737,"current_range_meters":19200,"station_id":"ce4bhi12rcd13ifvqfp0","pricing_plan_id":"cebpf4jnsgd1na2vs0mg"},{"bike_id":"9fe7422a-7e0c-45dc-804e-d6475625cc7d","system_id":"levelo_inurba_marseille","lat":43.26225,"lon":5.40453,"is_reserved":false,"is_disabled":false,"rental_uris":{"android":"levelo://app?vid=9fe7422a-7e0c-45dc-804e-d6475625cc7d","ios":"levelo://app?vid=9fe7422a-7e0c-45dc-804e-d6475625cc7d"},"vehicle_type_id":"4","last_reported":1750453737,"current_range_meters":19200,"station_id":"ce4bhmh2rcd13ifvqgmg","pricing_plan_id":"cebpf4jnsgd1na2vs0mg"},{"bike_id":"f43b20ba-20b3-48a6-9e21-59c702a50865","system_id":"levelo_inurba_marseille","lat":43.24052,"lon":5.37756,"is_reserved":false,"is_disabled":false,"rental_uris":{"android":"levelo://app?vid=f43b20ba-20b3-48a6-9e21-59c702a50865","ios":"levelo://app?vid=f43b20ba-20b3-48a6-9e21-59c702a50865"},"vehicle_type_id":"4","last_reported":1750453737,"current_range_meters":19200,"station_id":"ce4bhnp2rcd13ifvqgvg","pricing_plan_id":"cebpf4jnsgd1na2vs0mg"},{"bike_id":"04b016b0-78f2-4a40-9df3-2f41fff75a5c","system_id":"levelo_inurba_marseille","lat":43.211902,"lon":5.350693,"is_reserved":false,"is_disabled":false,"rental_uris":{"android":"levelo://app?vid=04b016b0-78f2-4a40-9df3-2f41fff75a5c","ios":"levelo://app?vid=04b016b0-78f2-4a40-9df3-2f41fff75a5c"},"vehicle_type_id":"4","last_reported":1750453737,"current_range_meters":19200,"station_id":"st_cvj6sg6p6f1abm77japg","pricing_plan_id":"cebpf4jnsgd1na2vs0mg"},{"bike_id":"34894e1d-f66e-41f7-b520-f7f215a5970f","system_id":"levelo_inurba_marseille","lat":43.29544,"lon":5.38529,"is_reserved":false,"is_disabled":false,"rental_uris":{"android":"levelo://app?vid=34894e1d-f66e-41f7-b520-f7f215a5970f","ios":"levelo://app?vid=34894e1d-f66e-41f7-b520-f7f215a5970f"},"vehicle_type_id":"4","last_reported":1750453737,"current_range_meters":19600,"station_id":"ce4bgih2rcd13ifvqba0","pricing_plan_id":"cebpf4jnsgd1na2vs0mg"},{"bike_id":"b128e821-eb31-4de3-9679-a35523274758","system_id":"levelo_inurba_marseille","lat":43.30806,"lon":5.3817,"is_reserved":false,"is_disabled":false,"rental_uris":{"android":"levelo://app?vid=b128e821-eb31-4de3-9679-a35523274758","ios":"levelo://app?vid=b128e821-eb31-4de3-9679-a35523274758"},"vehicle_type_id":"4","last_reported":1750453737,"current_range_meters":19600,"station_id":"ce4bgt12rcd13ifvqce0","pricing_plan_id":"cebpf4jnsgd1na2vs0mg"},{"bike_id":"b9d2382d-1be4-47af-a77b-4c132fab4025","system_id":"levelo_inurba_marseille","lat":43.29027,"lon":5.39968,"is_reserved":false,"is_disabled":false,"rental_uris":{"android":"levelo://app?vid=b9d2382d-1be4-47af-a77b-4c132fab4025","ios":"levelo://app?vid=b9d2382d-1be4-47af-a77b-4c132fab4025"},"vehicle_type_id":"4","last_reported":1750453737,"current_range_meters":19600,"station_id":"ce4bh392rcd13ifvqdm0","pricing_plan_id":"cebpf4jnsgd1na2vs0mg"},{"bike_id":"c7746d98-c277-42ee-a44d-2fcc471cf75b","system_id":"levelo_inurba_marseille","lat":43.29028,"lon":5.38647,"is_reserved":false,"is_disabled":false,"rental_uris":{"android":"levelo://app?vid=c7746d98-c277-42ee-a44d-2fcc471cf75b","ios":"levelo://app?vid=c7746d98-c277-42ee-a44d-2fcc471cf75b"},"vehicle_type_id":"4","last_reported":1750453737,"current_range_meters":19600,"station_id":"ce4bh4p2rcd13ifvqe0g","pricing_plan_id":"cebpf4jnsgd1na2vs0mg"},{"bike_id":"60873ee6-8485-416b-932a-610150096c85","system_id":"levelo_inurba_marseille","lat":43.27382,"lon":5.36257,"is_reserved":false,"is_disabled":false,"rental_uris":{"android":"levelo://app?vid=60873ee6-8485-416b-932a-610150096c85","ios":"levelo://app?vid=60873ee6-8485-416b-932a-610150096c85"},"vehicle_type_id":"4","last_reported":1750453737,"current_range_meters":19600,"station_id":"ce4bhbh2rcd13ifvqeo0","pricing_plan_id":"cebpf4jnsgd1na2vs0mg"},{"bike_id":"88e13f3c-e104-4a00-81e1-fffc2ec0e30e","system_id":"levelo_inurba_marseille","lat":43.27837,"lon":5.39206,"is_reserved":false,"is_disabled":false,"rental_uris":{"android":"levelo://app?vid=88e13f3c-e104-4a00-81e1-fffc2ec0e30e","ios":"levelo://app?vid=88e13f3c-e104-4a00-81e1-fffc2ec0e30e"},"vehicle_type_id":"4","last_reported":1750453737,"current_range_meters":19600,"station_id":"ce4bhjp2rcd13ifvqga0","pricing_plan_id":"cebpf4jnsgd1na2vs0mg"},{"bike_id":"0dcb3d89-5ce5-4566-b88a-1947a7196732","system_id":"levelo_inurba_marseille","lat":43.28438,"lon":5.39195,"is_reserved":false,"is_disabled":false,"rental_uris":{"android":"levelo://app?vid=0dcb3d89-5ce5-4566-b88a-1947a7196732","ios":"levelo://app?vid=0dcb3d89-5ce5-4566-b88a-1947a7196732"},"vehicle_type_id":"4","last_reported":1750453737,"current_range_meters":19600,"station_id":"ce4bhoh2rcd13ifvqh5g","pricing_plan_id":"cebpf4jnsgd1na2vs0mg"},{"bike_id":"1c6eee43-889f-4cff-bc8c-307447a31830","system_id":"levelo_inurba_marseille","lat":43.30799,"lon":5.43504,"is_reserved":false,"is_disabled":false,"rental_uris":{"android":"levelo://app?vid=1c6eee43-889f-4cff-bc8c-307447a31830","ios":"levelo://app?vid=1c6eee43-889f-4cff-bc8c-307447a31830"},"vehicle_type_id":"4","last_reported":1750453737,"current_range_meters":19600,"station_id":"ce4bhph2rcd13ifvqheg","pricing_plan_id":"cebpf4jnsgd1na2vs0mg"},{"bike_id":"91d988b7-666c-44b2-b2e1-aca873c9037e","system_id":"levelo_inurba_marseille","lat":43.29965,"lon":5.39871,"is_reserved":false,"is_disabled":false,"rental_uris":{"android":"levelo://app?vid=91d988b7-666c-44b2-b2e1-aca873c9037e","ios":"levelo://app?vid=91d988b7-666c-44b2-b2e1-aca873c9037e"},"vehicle_type_id":"4","last_reported":1750453737,"current_range_meters":20000,"station_id":"","pricing_plan_id":"cebpf4jnsgd1na2vs0mg"},{"bike_id":"26b95de5-0df1-4b0c-a6b0-36a0496ae321","system_id":"levelo_inurba_marseille","lat":43.30121,"lon":5.39155,"is_reserved":false,"is_disabled":false,"rental_uris":{"android":"levelo://app?vid=26b95de5-0df1-4b0c-a6b0-36a0496ae321","ios":"levelo://app?vid=26b95de5-0df1-4b0c-a6b0-36a0496ae321"},"vehicle_type_id":"4","last_reported":1750453737,"current_range_meters":20000,"station_id":"","pricing_plan_id":"cebpf4jnsgd1na2vs0mg"},{"bike_id":"da4929bb-ef96-4c2b-b545-a0262d7bb924","system_id":"levelo_inurba_marseille","lat":43.29524,"lon":5.38541,"is_reserved":false,"is_disabled":false,"rental_uris":{"android":"levelo://app?vid=da4929bb-ef96-4c2b-b545-a0262d7bb924","ios":"levelo://app?vid=da4929bb-ef96-4c2b-b545-a0262d7bb924"},"vehicle_type_id":"4","last_reported":1750453737,"current_range_meters":20000,"station_id":"ce4bgih2rcd13ifvqba0","pricing_plan_id":"cebpf4jnsgd1na2vs0mg"},{"bike_id":"e73743fb-4473-4d9e-b870-527d8be14fb8","system_id":"levelo_inurba_marseille","lat":43.29037,"lon":5.38656,"is_reserved":false,"is_disabled":false,"rental_uris":{"android":"levelo://app?vid=e73743fb-4473-4d9e-b870-527d8be14fb8","ios":"levelo://app?vid=e73743fb-4473-4d9e-b870-527d8be14fb8"},"vehicle_type_id":"4","last_reported":1750453737,"current_range_meters":20000,"station_id":"ce4bh4p2rcd13ifvqe0g","pricing_plan_id":"cebpf4jnsgd1na2vs0mg"},