{"last_updated":1724080099,"ttl":30,"version":"2.2","data":{"bikes":[{"bike_id":"e11fc206-d827-472d-a198-ab584d95fc90","system_id":"levelo_inurba_marseille","lat":43.31494,"lon":5.37309,"is_reserved":false,"is_disabled":false,"rental_uris":{"android":"levelo://app?vid=e11fc206-d827-472d-a198-ab584d95fc90","ios":"levelo://app?vid=e11fc206-d827-472d-a198-ab584d95fc90"},"vehicle_type_id":"4","last_reported":1724080099,"current_range_meters":0,"station_id":"ce4bgt12rcd13ifvqcd0","pricing_plan_id":"cebpf4jnsgd1na2vs0mg"},{"bike_id":"7b9ee7e8-5abe-4ae5-a03b-760beb6ef082","system_id":"levelo_inurba_marseille","lat":43.314572,"lon":5.373783,"is_reserved":false,"is_disabled":false,"rental_uris":{"android":"levelo://app?vid=7b9ee7e8-5abe-4ae5-a03b-760beb6ef082","ios":"levelo://app?vid=7b9ee7e8-5abe-4ae5-a03b-760beb6ef082"},"vehicle_type_id":"4","last_reported":1724080099,"current_range_meters":2800,"station_id":"","pricing_plan_id":"cebpf4jnsgd1na2vs0mg"},{"bike_id":"51959d1f-b9c0-4b35-9c2f-3dedf0b9ab20","system_id":"levelo_inurba_marseille","lat":43.30554,"lon":5.36712,"is_reserved":false,"is_disabled":false,"rental_uris":{"android":"levelo://app?vid=51959d1f-b9c0-4b35-9c2f-3dedf0b9ab20","ios":"levelo://app?vid=51959d1f-b9c0-4b35-9c2f-3dedf0b9ab20"},"vehicle_type_id":"4","last_reported":1724080099,"current_range_meters":22000,"station_id":"ce4bgrp2rcd13ifvqc9g","pricing_plan_id":"cebpf4jnsgd1na2vs0mg"},{"bike_id":"83c0e439-f622-40f3-ac35-6b131dd735df","system_id":"levelo_inurba_marseille","lat":43.305499,"lon":5.367118,"is_reserved":false,"is_disabled":false,"rental_uris":{"android":"levelo://app?vid=83c0e439-f622-40f3-ac35-6b131dd735df","ios":"levelo://app?vid=83c0e439-f622-40f3-ac35-6b131dd735df"},"vehicle_type_id":"4","last_reported":1724080099,"current_range_meters":26400,"station_id":"ce4bgrp2rcd13ifvqc9g","pricing_plan_id":"cebpf4jnsgd1na2vs0mg"},{"bike_id":"2542efb0-fc96-4da8-ad52-cba78e68c582","system_id":"levelo_inurba_marseille","lat":43.30549,"lon":5.36702,"is_reserved":false,"is_disabled":false,"rental_uris":{"android":"levelo://app?vid=2542efb0-fc96-4da8-ad52-cba78e68c582","ios":"levelo://app?vid=2542efb0-fc96-4da8-ad52-cba78e68c582"},"vehicle_type_id":"4","last_reported":1724080099,"current_range_meters":30000,"station_id":"ce4bgrp2rcd13ifvqc9g","pricing_plan_id":"cebpf4jnsgd1na2vs0mg"},{"bike_id":"cf71794a-7bb0-4fc4-8ff9-b88111b3e454","system_id":"levelo_inurba_marseille","lat":43.305712,"lon":5.365641,"is_reserved":false,"is_disabled":false,"rental_uris":{"android":"levelo://app?vid=cf71794a-7bb0-4fc4-8ff9-b88111b3e454","ios":"levelo://app?vid=cf71794a-7bb0-4fc4-8ff9-b88111b3e454"},"vehicle_type_id":"4","last_reported":1724080099,"current_range_meters":31600,"station_id":"ce4bgs12rcd13ifvqcag","pricing_plan_id":"cebpf4jnsgd1na2vs0mg"},{"bike_id":"329ec484-df36-4cf4-bc96-7d7946e2c098","system_id":"levelo_inurba_marseille","lat":43.30552,"lon":5.36529,"is_reserved":false,"is_disabled":false,"rental_uris":{"android":"levelo://app?vid=329ec484-df36-4cf4-bc96-7d7946e2c098","ios":"levelo://app?vid=329ec484-df36-4cf4-bc96-7d7946e2c098"},"vehicle_type_id":"4","last_reported":1724080099,"current_range_meters":31600,"station_id":"ce4bgs12rcd13ifvqcag","pricing_plan_id":"cebpf4jnsgd1na2vs0mg"},{"bike_id":"0612bc79-b8ff-48c3-a5aa-b5d1d3976933","system_id":"levelo_inurba_marseille","lat":43.30549,"lon":5.36531,"is_reserved":false,"is_disabled":false,"rental_uris":{"android":"levelo://app?vid=0612bc79-b8ff-48c3-a5aa-b5d1d3976933","ios":"levelo://app?vid=0612bc79-b8ff-48c3-a5aa-b5d1d3976933"},"vehicle_type_id":"4","last_reported":1724080099,"current_range_meters":30000,"station_id":"ce4bgs12rcd13ifvqcag","pricing_plan_id":"cebpf4jnsgd1na2vs0mg"},{"bike_id":"38e1d71c-15da-43b8-b209-dd9d21d081ba","system_id":"levelo_inurba_marseille","lat":43.30537,"lon":5.367345,"is_reserved":false,"is_disabled":false,"rental_uris":{"android":"levelo://app?vid=38e1d71c-15da-43b8-b209-dd9d21d081ba","ios":"levelo://app?vid=38e1d71c-15da-43b8-b209-dd9d21d081ba"},"vehicle_type_id":"4","last_reported":1724080099,"current_range_meters":28400,"station_id":"ce4bgrp2rcd13ifvqc9g","pricing_plan_id":"cebpf4jnsgd1na2vs0mg"},{"bike_id":"75c33fc9-b0df-42dd-89e9-f474d67f9955","system_id":"levelo_inurba_marseille","lat":43.30537,"lon":5.367345,"is_reserved":false,"is_disabled":false,"rental_uris":{"android":"levelo://app?vid=75c33fc9-b0df-42dd-89e9-f474d67f9955","ios":"levelo://app?vid=75c33fc9-b0df-42dd-89e9-f474d67f9955"},"vehicle_type_id":"4","last_reported":1724080099,"current_range_meters":10800,"station_id":"ce4bgrp2rcd13ifvqc9g","pricing_plan_id":"cebpf4jnsgd1na2vs0mg"},{"bike_id":"3b996a13-ae7b-499d-97c2-1a444c068c3b","system_id":"levelo_inurba_marseille","lat":43.305706,"lon":5.365654,"is_reserved":false,"is_disabled":false,"rental_uris":{"android":"levelo://app?vid=3b996a13-ae7b-499d-97c2-1a444c068c3b","ios":"levelo://app?vid=3b996a13-ae7b-499d-97c2-1a444c068c3b"},"vehicle_type_id":"4","last_reported":1724080099,"current_range_meters":31200,"station_id":"ce4bgs12rcd13ifvqcag","pricing_plan_id":"cebpf4jnsgd1na2vs0mg"},{"bike_id":"92915386-c263-4a50-b24b-62d1d12944d4","system_id":"levelo_inurba_marseille","lat":43.305989,"lon":5.37225,"is_reserved":false,"is_disabled":false,"rental_uris":{"android":"levelo://app?vid=92915386-c263-4a50-b24b-62d1d12944d4","ios":"levelo://app?vid=92915386-c263-4a50-b24b-62d1d12944d4"},"vehicle_type_id":"4","last_reported":1724080099,"current_range_meters":25600,"station_id":"ce4bgqh2rcd13ifvqc4g","pricing_plan_id":"cebpf4jnsgd1na2vs0mg"},{"bike_id":"f0f9ba48-ef0d-4c96-9402-0828b0a84ecf","system_id":"levelo_inurba_marseille","lat":43.304274,"lon":5.388873,"is_reserved":false,"is_disabled":false,"rental_uris":{"android":"levelo://app?vid=f0f9ba48-ef0d-4c96-9402-0828b0a84ecf","ios":"levelo://app?vid=f0f9ba48-ef0d-4c96-9402-0828b0a84ecf"},"vehicle_type_id":"4","last_reported":1724080099,"current_range_meters":2000,"station_id":"ce4bgk12rcd13ifvqbi0","pricing_plan_id":"cebpf4jnsgd1na2vs0mg"},{"bike_id":"9b824386-923b-49dd-b741-acbfee24d8a0","system_id":"levelo_inurba_marseille","lat":43.31122,"lon":5.37765,"is_reserved":false,"is_disabled":false,"rental_uris":{"android":"levelo://app?vid=9b824386-923b-49dd-b741-acbfee24d8a0","ios":"levelo://app?vid=9b824386-923b-49dd-b741-acbfee24d8a0"},"vehicle_type_id":"4","last_reported":1724080099,"current_range_meters":0,"station_id":"ce4bgt92rcd13ifvqcg0","pricing_plan_id":"cebpf4jnsgd1na2vs0mg"},{"bike_id":"4cdb609e-699d-4d39-b4c8-d2a028101125","system_id":"levelo_inurba_marseille","lat":43.30779,"lon":5.37636,"is_reserved":false,"is_disabled":false,"rental_uris":{"android":"levelo://app?vid=4cdb609e-699d-4d39-b4c8-d2a028101125","ios":"levelo://app?vid=4cdb609e-699d-4d39-b4c8-d2a028101125"},"vehicle_type_id":"4","last_reported":1724080099,"current_range_meters":6800,"station_id":"ce4bgv92rcd13ifvqcq0","pricing_plan_id":"cebpf4jnsgd1na2vs0mg"},{"bike_id":"545c8e51-e822-4604-941b-6bffe9358360","system_id":"levelo_inurba_marseille","lat":43.30929,"lon":5.37891,"is_reserved":false,"is_disabled":false,"rental_uris":{"android":"levelo://app?vid=545c8e51-e822-4604-941b-6bffe9358360","ios":"levelo://app?vid=545c8e51-e822-4604-941b-6bffe9358360"},"vehicle_type_id":"4","last_reported":1724080099,"current_range_meters":15200,"station_id":"","pricing_plan_id":"cebpf4jnsgd1na2vs0mg"},{"bike_id":"d368a325-7b5a-475e-a182-fe9f1a5f5154","system_id":"levelo_inurba_marseille","lat":43.303046,"lon":5.368981,"is_reserved":false,"is_disabled":false,"rental_uris":{"android":"levelo://app?vid=d368a325-7b5a-475e-a182-fe9f1a5f5154","ios":"levelo://app?vid=d368a325-7b5a-475e-a182-fe9f1a5f5154"},"vehicle_type_id":"4","last_reported":1724080099,"current_range_meters":28400,"station_id":"ce4bgqh2rcd13ifvqc5g","pricing_plan_id":"cebpf4jnsgd1na2vs0mg"},{"bike_id":"1c75cd06-af93-4e69-8544-a30346ba4aaa","system_id":"levelo_inurba_marseille","lat":43.30304,"lon":5.368987,"is_reserved":false,"is_disabled":false,"rental_uris":{"android":"levelo://app?vid=1c75cd06-af93-4e69-8544-a30346ba4aaa","ios":"levelo://app?vid=1c75cd06-af93-4e69-8544-a30346ba4aaa"},"vehicle_type_id":"4","last_reported":1724080099,"current_range_meters":14000,"station_id":"ce4bgqh2rcd13ifvqc5g","pricing_plan_id":"cebpf4jnsgd1na2vs0mg"},{"bike_id":"59f7c551-b7f5-4215-8083-d61ee98d6c86","system_id":"levelo_inurba_marseille","lat":43.315423,"lon":5.380332,"is_reserved":false,"is_disabled":false,"rental_uris":{"android":"levelo://app?vid=59f7c551-b7f5-4215-8083-d61ee98d6c86","ios":"levelo://app?vid=59f7c551-b7f5-4215-8083-d61ee98d6c86"},"vehicle_type_id":"4","last_reported":1724080099,"current_range_meters":6800,"station_id":"ce4bhsp2rcd13ifvqi50","pricing_plan_id":"cebpf4jnsgd1na2vs0mg"},{"bike_id":"e054f41d-52bd-4071-80be-00d19feee661","system_id":"levelo_inurba_marseille","lat":43.301939,"lon":5.366286,"is_reserved":false,"is_disabled":false,"rental_uris":{"android":"levelo://app?vid=e054f41d-52bd-4071-80be-00d19feee661","ios":"levelo://app?vid=e054f41d-52bd-4071-80be-00d19feee661"},"vehicle_type_id":"4","last_reported":1724080099,"current_range_meters":6400,"station_id":"ce4bgrh2rcd13ifvqc8g","pricing_plan_id":"cebpf4jnsgd1na2vs0mg"},{"bike_id":"f2a35f12-d6ba-408c-9754-3250f34c37ba","system_id":"levelo_inurba_marseille","lat":43.308012,"lon":5.381511,"is_reserved":false,"is_disabled":false,"rental_uris":{"android":"levelo://app?vid=f2a35f12-d6ba-408c-9754-3250f34c37ba","ios":"levelo://app?vid=f2a35f12-d6ba-408c-9754-3250f34c37ba"},"vehicle_type_id":"4","last_reported":1724080099,"current_range_meters":2400,"station_id":"ce4bgt12rcd13ifvqce0","pricing_plan_id":"cebpf4jnsgd1na2vs0mg"},{"bike_id":"517ac380-0ed3-452f-b9b9-3aa95d3c8fb1","system_id":"levelo_inurba_marseille","lat":43.30465,"lon":5.37899,"is_reserved":false,"is_disabled":false,"rental_uris":{"android":"levelo://app?vid=517ac380-0ed3-452f-b9b9-3aa95d3c8fb1","ios":"levelo://app?vid=517ac380-0ed3-452f-b9b9-3aa95d3c8fb1"},"vehicle_type_id":"4","last_reported":1724080099,"current_range_meters":10400,"station_id":"","pricing_plan_id":"cebpf4jnsgd1na2vs0mg"},{"bike_id":"e3320ad1-80fc-4357-8088-3385ae06d232","system_id":"levelo_inurba_marseille","lat":43.324771,"lon":5.36557,"is_reserved":false,"is_disabled":false,"rental_uris":{"android":"levelo://app?vid=e3320ad1-80fc-4357-8088-3385ae06d232","ios":"levelo://app?vid=e3320ad1-80fc-4357-8088-3385ae06d232"},"vehicle_type_id":"4","last_reported":1724080099,"current_range_meters":31200,"station_id":"ce4bhs12rcd13ifvqhvg","pricing_plan_id":"cebpf4jnsgd1na2vs0mg"},{"bike_id":"7d6df19f-981a-4a14-b583-0633972fbbd0","system_id":"levelo_inurba_marseille","lat":43.324771,"lon":5.36557,"is_reserved":false,"is_disabled":false,"rental_uris":{"android":"levelo://app?vid=7d6df19f-981a-4a14-b583-0633972fbbd0","ios":"levelo://app?vid=7d6df19f-981a-4a14-b583-0633972fbbd0"},"vehicle_type_id":"4","last_reported":1724080099,"current_range_meters":31200,"station_id":"ce4bhs12rcd13ifvqhvg","pricing_plan_id":"cebpf4jnsgd1na2vs0mg"},{"bike_id":"e902b916-5dd8-43c6-8122-e8ebf75ff3e6","system_id":"levelo_inurba_marseille","lat":43.324771,"lon":5.36557,"is_reserved":false,"is_disabled":false,"rental_uris":{"android":"levelo://app?vid=e902b916-5dd8-43c6-8122-e8ebf75ff3e6","ios":"levelo://app?vid=e902b916-5dd8-43c6-8122-e8ebf75ff3e6"},"vehicle_type_id":"4","last_reported":1724080099,"current_range_meters":18400,"station_id":"ce4bhs12rcd13ifvqhvg","pricing_plan_id":"cebpf4jnsgd1na2vs0mg"},{"bike_id":"37cf23ff-c337-43b0-abb7-46373bdb32ad","system_id":"levelo_inurba_marseille","lat":43.324771,"lon":5.36557,"is_reserved":false,"is_disabled":false,"rental_uris":{"android":"levelo://app?vid=37cf23ff-c337-43b0-abb7-46373bdb32ad","ios":"levelo://app?vid=37cf23ff-c337-43b0-abb7-46373bdb32ad"},"vehicle_type_id":"4","last_reported":1724080099,"current_range_meters":4400,"station_id":"ce4bhs12rcd13ifvqhvg","pricing_plan_id":"cebpf4jnsgd1na2vs0mg"},{"bike_id":"dc18ef80-7b17-4500-950b-a5b475701f80","system_id":"levelo_inurba_marseille","lat":43.324771,"lon":5.36557,"is_reserved":false,"is_disabled":false,"rental_uris":{"android":"levelo://app?vid=dc18ef80-7b17-4500-950b-a5b475701f80","ios":"levelo://app?vid=dc18ef80-7b17-4500-950b-a5b475701f80"},"vehicle_type_id":"4","last_reported":1724080099,"current_range_meters":12400,"station_id":"ce4bhs12rcd13ifvqhvg","pricing_plan_id":"cebpf4jnsgd1na2vs0mg"},{"bike_id":"f3cecce2-6278-4047-a7b5-8bb3a3e1ccf3","system_id":"levelo_inurba_marseille","lat":43.324771,"lon":5.36557,"is_reserved":false,"is_disabled":false,"rental_uris":{"android":"levelo://app?vid=f3cecce2-6278-4047-a7b5-8bb3a3e1ccf3","ios":"levelo://app?vid=f3cecce2-6278-4047-a7b5-8bb3a3e1ccf3"},"vehicle_type_id":"4","last_reported":1724080099,"current_range_meters":31200,"station_id":"ce4bhs12rcd13ifvqhvg","pricing_plan_id":"cebpf4jnsgd1na2vs0mg"},{"bike_id":"f8173ec7-acea-4d64-b64f-f4958fe74976","system_id":"levelo_inurba_marseille","lat":43.324771,"lon":5.36557,"is_reserved":false,"is_disabled":false,"rental_uris":{"android":"levelo://app?vid=f8173ec7-acea-4d64-b64f-f4958fe74976","ios":"levelo://app?vid=f8173ec7-acea-4d64-b64f-f4958fe74976"},"vehicle_type_id":"4","last_reported":1724080099,"current_range_meters":10400,"station_id":"ce4bhs12rcd13ifvqhvg","pricing_plan_id":"cebpf4jnsgd1na2vs0mg"},{"bike_id":"24cb5cef-ed2d-4242-b19a-10161e815d19","system_id":"levelo_inurba_marseille","lat":43.324771,"lon":5.36557,"is_reserved":false,"is_disabled":false,"rental_uris":{"android":"levelo://app?vid=24cb5cef-ed2d-4242-b19a-10161e815d19","ios":"levelo://app?vid=24cb5cef-ed2d-4242-b19a-10161e815d19"},"vehicle_type_id":"4","last_reported":1724080099,"current_range_meters":14800,"station_id":"ce4bhs12rcd13ifvqhvg","pricing_plan_id":"cebpf4jnsgd1na2vs0mg"},{"bike_id":"bab65e71-f65e-444e-beaa-87bdcd5515b3","system_id":"levelo_inurba_marseille","lat":43.324771,"lon":5.36557,"is_reserved":false,"is_disabled":false,"rental_uris":{"android":"levelo://app?vid=bab65e71-f65e-444e-beaa-87bdcd5515b3","ios":"levelo://app?vid=bab65e71-f65e-444e-beaa-87bdcd5515b3"},"vehicle_type_id":"4","last_reported":1724080099,"current_range_meters":20400,"station_id":"ce4bhs12rcd13ifvqhvg","pricing_plan_id":"cebpf4jnsgd1na2vs0mg"},{"bike_id":"13c661e1-fcc2-48bc-95f3-582ad174802e","system_id":"levelo_inurba_marseille","lat":43.32483,"lon":5.36569,"is_reserved":false,"is_disabled":false,"rental_uris":{"android":"levelo://app?vid=13c661e1-fcc2-48bc-95f3-582ad174802e","ios":"levelo://app?vid=13c661e1-fcc2-48bc-95f3-582ad174802e"},"vehicle_type_id":"4","last_reported":1724080099,"current_range_meters":15200,"station_id":"ce4bhs12rcd13ifvqhvg","pricing_plan_id":"cebpf4jnsgd1na2vs0mg"},{"bike_id":"b21ae2cc-8f08-4a6a-925b-99ae3e66c2f3","system_id":"levelo_inurba_marseille","lat":43.324771,"lon":5.36557,"is_reserved":false,"is_disabled":false,"rental_uris":{"android":"levelo://app?vid=b21ae2cc-8f08-4a6a-925b-99ae3e66c2f3","ios":"levelo://app?vid=b21ae2cc-8f08-4a6a-925b-99ae3e66c2f3"},"vehicle_type_id":"4","last_reported":1724080099,"current_range_meters":23200,"station_id":"ce4bhs12rcd13ifvqhvg","pricing_plan_id":"cebpf4jnsgd1na2vs0mg"},{"bike_id":"47fddce7-e112-4bcd-90a1-bbc8058afde4","system_id":"levelo_inurba_marseille","lat":43.324771,"lon":5.36557,"is_reserved":false,"is_disabled":false,"rental_uris":{"android":"levelo://app?vid=47fddce7-e112-4bcd-90a1-bbc8058afde4","ios":"levelo://app?vid=47fddce7-e112-4bcd-90a1-bbc8058afde4"},"vehicle_type_id":"4","last_reported":1724080099,"current_range_meters":28800,"station_id":"ce4bhs12rcd13ifvqhvg","pricing_plan_id":"cebpf4jnsgd1na2vs0mg"},{"bike_id":"006d918b-d366-4358-bcb1-321285afa275","system_id":"levelo_inurba_marseille","lat":43.324865,"lon":5.365653,"is_reserved":false,"is_disabled":false,"rental_uris":{"android":"levelo://app?vid=006d918b-d366-4358-bcb1-321285afa275","ios":"levelo://app?vid=006d918b-d366-4358-bcb1-321285afa275"},"vehicle_type_id":"4","last_reported":1724080099,"current_range_meters":8400,"station_id":"ce4bhs12rcd13ifvqhvg","pricing_plan_id":"cebpf4jnsgd1na2vs0mg"},{"bike_id":"db0429e6-97a6-490b-9ebb-3426860d7859","system_id":"levelo_inurba_marseille","lat":43.32489,"lon":5.3657,"is_reserved":false,"is_disabled":false,"rental_uris":{"android":"levelo://app?vid=db0429e6-97a6-490b-9ebb-3426860d7859","ios":"levelo://app?vid=db0429e6-97a6-490b-9ebb-3426860d7859"},"vehicle_type_id":"4","last_reported":1724080099,"current_range_meters":9200,"station_id":"ce4bhs12rcd13ifvqhvg","pricing_plan_id":"cebpf4jnsgd1na2vs0mg"},{"bike_id":"cced093b-a673-4626-b160-7ff1d8debb20","system_id":"levelo_inurba_marseille","lat":43.324771,"lon":5.36557,"is_reserved":false,"is_disabled":false,"rental_uris":{"android":"levelo://app?vid=cced093b-a673-4626-b160-7ff1d8debb20","ios":"levelo://app?vid=cced093b-a673-4626-b160-7ff1d8debb20"},"vehicle_type_id":"4","last_reported":1724080099,"current_range_meters":13600,"station_id":"ce4bhs12rcd13ifvqhvg","pricing_plan_id":"cebpf4jnsgd1na2vs0mg"},{"bike_id":"76d2b630-720c-4f71-b53a-6e2dd105d1c5","system_id":"levelo_inurba_marseille","lat":43.301429,"lon":5.37413,"is_reserved":false,"is_disabled":false,"rental_uris":{"android":"levelo://app?vid=76d2b630-720c-4f71-b53a-6e2dd105d1c5","ios":"levelo://app?vid=76d2b630-720c-4f71-b53a-6e2dd105d1c5"},"vehicle_type_id":"4","last_reported":1724080099,"current_range_meters":31200,"station_id":"ce4bgs92rcd13ifvqcc0","pricing_plan_id":"cebpf4jnsgd1na2vs0mg"},{"bike_id":"874e50ba-aa3e-48b7-b610-3263f4ab3eaa","system_id":"levelo_inurba_marseille","lat":43.30594,"lon":5.38199,"is_reserved":false,"is_disabled":false,"rental_uris":{"android":"levelo://app?vid=874e50ba-aa3e-48b7-b610-3263f4ab3eaa","ios":"levelo://app?vid=874e50ba-aa3e-48b7-b610-3263f4ab3eaa"},"vehicle_type_id":"4","last_reported":1724080099,"current_range_meters":22800,"station_id":"","pricing_plan_id":"cebpf4jnsgd1na2vs0mg"},{"bike_id":"7fbdd7fc-9166-4dd8-b080-fa92434c1091","system_id":"levelo_inurba_marseille","lat":43.29986,"lon":5.37177,"is_reserved":false,"is_disabled":false,"rental_uris":{"android":"levelo://app?vid=7fbdd7fc-9166-4dd8-b080-fa92434c1091","ios":"levelo://app?vid=7fbdd7fc-9166-4dd8-b080-fa92434c1091"},"vehicle_type_id":"4","last_reported":1724080099,"current_range_meters":0,"station_id":"ce4bgr92rcd13ifvqc7g","pricing_plan_id":"cebpf4jnsgd1na2vs0mg"},{"bike_id":"0fe93b42-4de4-48d6-adab-12127e98b20e","system_id":"levelo_inurba_marseille","lat":43.299724,"lon":5.371829,"is_reserved":false,"is_disabled":false,"rental_uris":{"android":"levelo://app?vid=0fe93b42-4de4-48d6-adab-12127e98b20e","ios":"levelo://app?vid=0fe93b42-4de4-48d6-adab-12127e98b20e"},"vehicle_type_id":"4","last_reported":1724080099,"current_range_meters":22000,"station_id":"ce4bgr92rcd13ifvqc7g","pricing_plan_id":"cebpf4jnsgd1na2vs0mg"},{"bike_id":"cadd3f44-8e08-4656-b2bb-b94ca5d7cc2e","system_id":"levelo_inurba_marseille","lat":43.299724,"lon":5.371829,"is_reserved":false,"is_disabled":false,"rental_uris":{"android":"levelo://app?vid=cadd3f44-8e08-4656-b2bb-b94ca5d7cc2e","ios":"levelo://app?vid=cadd3f44-8e08-4656-b2bb-b94ca5d7cc2e"},"vehicle_type_id":"4","last_reported":1724080099,"current_range_meters":1200,"station_id":"ce4bgr92rcd13ifvqc7g","pricing_plan_id":"cebpf4jnsgd1na2vs0mg"},{"bike_id":"9a633129-47c5-4152-8fb0-d1104ff2f47c","system_id":"levelo_inurba_marseille","lat":43.299724,"lon":5.371829,"is_reserved":false,"is_disabled":false,"rental_uris":{"android":"levelo://app?vid=9a633129-47c5-4152-8fb0-d1104ff2f47c","ios":"levelo://app?vid=9a633129-47c5-4152-8fb0-d1104ff2f47c"},"vehicle_type_id":"4","last_reported":1724080099,"current_range_meters":29200,"station_id":"ce4bgr92rcd13ifvqc7g","pricing_plan_id":"cebpf4jnsgd1na2vs0mg"},{"bike_id":"8c0ddd2a-2055-4920-b25d-bb10129f9f4e","system_id":"levelo_inurba_marseille","lat":43.29855,"lon":5.36284,"is_reserved":false,"is_disabled":false,"rental_uris":{"android":"levelo://app?vid=8c0ddd2a-2055-4920-b25d-bb10129f9f4e","ios":"levelo://app?vid=8c0ddd2a-2055-4920-b25d-bb10129f9f4e"},"vehicle_type_id":"4","last_reported":1724080099,"current_range_meters":0,"station_id":"ce4bgpp2rcd13ifvqc3g","pricing_plan_id":"cebpf4jnsgd1na2vs0mg"},{"bike_id":"11ff791e-46bd-4bfd-b8b9-2ee1f8df3624","system_id":"levelo_inurba_marseille","lat":43.298433,"lon":5.362774,"is_reserved":false,"is_disabled":false,"rental_uris":{"android":"levelo://app?vid=11ff791e-46bd-4bfd-b8b9-2ee1f8df3624","ios":"levelo://app?vid=11ff791e-46bd-4bfd-b8b9-2ee1f8df3624"},"vehicle_type_id":"4","last_reported":1724080099,"current_range_meters":31200,"station_id":"ce4bgpp2rcd13ifvqc3g","pricing_plan_id":"cebpf4jnsgd1na2vs0mg"},{"bike_id":"00569c05-5dc7-472e-8b22-8883bdef98ca","system_id":"levelo_inurba_marseille","lat":43.2985,"lon":5.36288,"is_reserved":false,"is_disabled":false,"rental_uris":{"android":"levelo://app?vid=00569c05-5dc7-472e-8b22-8883bdef98ca","ios":"levelo://app?vid=00569c05-5dc7-472e-8b22-8883bdef98ca"},"vehicle_type_id":"4","last_reported":1724080099,"current_range_meters":16400,"station_id":"ce4bgpp2rcd13ifvqc3g","pricing_plan_id":"cebpf4jnsgd1na2vs0mg"},{"bike_id":"bc94694b-263f-45ba-a0de-2a7b89b3368e","system_id":"levelo_inurba_marseille","lat":43.2991,"lon":5.37476,"is_reserved":false,"is_disabled":false,"rental_uris":{"android":"levelo://app?vid=bc94694b-263f-45ba-a0de-2a7b89b3368e","ios":"levelo://app?vid=bc94694b-263f-45ba-a0de-2a7b89b3368e"},"vehicle_type_id":"4","last_reported":1724080099,"current_range_meters":29200,"station_id":"","pricing_plan_id":"cebpf4jnsgd1na2vs0mg"},{"bike_id":"f5756eed-ea1c-4ab7-b4f2-8ac9473fed35","system_id":"levelo_inurba_marseille","lat":43.32289,"lon":5.38256,"is_reserved":false,"is_disabled":false,"rental_uris":{"android":"levelo://app?vid=f5756eed-ea1c-4ab7-b4f2-8ac9473fed35","ios":"levelo://app?vid=f5756eed-ea1c-4ab7-b4f2-8ac9473fed35"},"vehicle_type_id":"4","last_reported":1724080099,"current_range_meters":27200,"station_id":"ce4bhr12rcd13ifvqhqg","pricing_plan_id":"cebpf4jnsgd1na2vs0mg"},{"bike_id":"d3faddab-ce23-4210-a928-444e98600fed","system_id":"levelo_inurba_marseille","lat":43.297794,"lon":5.370888,"is_reserved":false,"is_disabled":false,"rental_uris":{"android":"levelo://app?vid=d3faddab-ce23-4210-a928-444e98600fed","ios":"levelo://app?vid=d3faddab-ce23-4210-a928-444e98600fed"},"vehicle_type_id":"4","last_reported":1724080099,"current_range_meters":11200,"station_id":"ce4bgop2rcd13ifvqc1g","pricing_plan_id":"cebpf4jnsgd1na2vs0mg"},{"bike_id":"80ccae18-7ee6-4580-a494-0d3d9da84511","system_id":"levelo_inurba_marseille","lat":43.322872,"lon":5.382756,"is_reserved":false,"is_disabled":false,"rental_uris":{"android":"levelo://app?vid=80ccae18-7ee6-4580-a494-0d3d9da84511","ios":"levelo://app?vid=80ccae18-7ee6-4580-a494-0d3d9da84511"},"vehicle_type_id":"4","last_reported":1724080099,"current_range_meters":18800,"station_id":"ce4bhr12rcd13ifvqhqg","pricing_plan_id":"cebpf4jnsgd1na2vs0mg"},{"bike_id":"680222ee-ca5b-4b0c-a0b2-21a6e7d291b8","system_id":"levelo_inurba_marseille","lat":43.297163,"lon":5.365866,"is_reserved":false,"is_disabled":false,"rental_uris":{"android":"levelo://app?vid=680222ee-ca5b-4b0c-a0b2-21a6e7d291b8","ios":"levelo://app?vid=680222ee-ca5b-4b0c-a0b2-21a6e7d291b8"},"vehicle_type_id":"4","last_reported":1724080099,"current_range_meters":17200,"station_id":"ce4bgn12rcd13ifvqbt0","pricing_plan_id":"cebpf4jnsgd1na2vs0mg"},{"bike_id":"3404492c-5729-4918-8f36-ea7347bf5316","system_id":"levelo_inurba_marseille","lat":43.297163,"lon":5.365866,"is_reserved":false,"is_disabled":false,"rental_uris":{"android":"levelo://app?vid=3404492c-5729-4918-8f36-ea7347bf5316","ios":"levelo://app?vid=3404492c-5729-4918-8f36-ea7347bf5316"},"vehicle_type_id":"4","last_reported":1724080099,"current_range_meters":8800,"station_id":"ce4bgn12rcd13ifvqbt0","pricing_plan_id":"cebpf4jnsgd1na2vs0mg"},{"bike_id":"f2026b0d-7c63-497e-bb85-98fbe609cbb2","system_id":"levelo_inurba_marseille","lat":43.297163,"lon":5.365866,"is_reserved":false,"is_disabled":false,"rental_uris":{"android":"levelo://app?vid=f2026b0d-7c63-497e-bb85-98fbe609cbb2","ios":"levelo://app?vid=f2026b0d-7c63-497e-bb85-98fbe609cbb2"},"vehicle_type_id":"4","last_reported":1724080099,"current_range_meters":16800,"station_id":"ce4bgn12rcd13ifvqbt0","pricing_plan_id":"cebpf4jnsgd1na2vs0mg"},{"bike_id":"7ff9038a-0cfb-46bb-aa5a-659c86e7587e","system_id":"levelo_inurba_marseille","lat":43.297163,"lon":5.365866,"is_reserved":false,"is_disabled":false,"rental_uris":{"android":"levelo://app?vid=7ff9038a-0cfb-46bb-aa5a-659c86e7587e","ios":"levelo://app?vid=7ff9038a-0cfb-46bb-aa5a-659c86e7587e"},"vehicle_type_id":"4","last_reported":1724080099,"current_range_meters":22000,"station_id":"ce4bgn12rcd13ifvqbt0","pricing_plan_id":"cebpf4jnsgd1na2vs0mg"},{"bike_id":"f4c27fed-1beb-40f7-b926-bc26674ebdfc","system_id":"levelo_inurba_marseille","lat":43.297163,"lon":5.365866,"is_reserved":false,"is_disabled":false,"rental_uris":{"android":"levelo://app?vid=f4c27fed-1beb-40f7-b926-bc26674ebdfc","ios":"levelo://app?vid=f4c27fed-1beb-40f7-b926-bc26674ebdfc"},"vehicle_type_id":"4","last_reported":1724080099,"current_range_meters":18800,"station_id":"ce4bgn12rcd13ifvqbt0","pricing_plan_id":"cebpf4jnsgd1na2vs0mg"},{"bike_id":"93582603-9d56-406d-b197-ec23666d7eeb","system_id":"levelo_inurba_marseille","lat":43.297045,"lon":5.36592,"is_reserved":false,"is_disabled":false,"rental_uris":{"android":"levelo://app?vid=93582603-9d56-406d-b197-ec23666d7eeb","ios":"levelo://app?vid=93582603-9d56-406d-b197-ec23666d7eeb"},"vehicle_type_id":"4","last_reported":1724080099,"current_range_meters":30000,"station_id":"ce4bgn12rcd13ifvqbt0","pricing_plan_id":"cebpf4jnsgd1na2vs0mg"},{"bike_id":"0d615faa-0c87-4d55-b1e1-ae665abcddf1","system_id":"levelo_inurba_marseille","lat":43.297163,"lon":5.365866,"is_reserved":false,"is_disabled":false,"rental_uris":{"android":"levelo://app?vid=0d615faa-0c87-4d55-b1e1-ae665abcddf1","ios":"levelo://app?vid=0d615faa-0c87-4d55-b1e1-ae665abcddf1"},"vehicle_type_id":"4","last_reported":1724080099,"current_range_meters":29600,"station_id":"ce4bgn12rcd13ifvqbt0","pricing_plan_id":"cebpf4jnsgd1na2vs0mg"},{"bike_id":"1a9fa839-3f21-4630-951f-c1527192bc8d","system_id":"levelo_inurba_marseille","lat":43.2968,"lon":5.37291,"is_reserved":false,"is_disabled":false,"rental_uris":{"android":"levelo://app?vid=1a9fa839-3f21-4630-951f-c1527192bc8d","ios":"levelo://app?vid=1a9fa839-3f21-4630-951f-c1527192bc8d"},"vehicle_type_id":"4","last_reported":1724080099,"current_range_meters":18000,"station_id":"ce4bgk12rcd13ifvqbj0","pricing_plan_id":"cebpf4jnsgd1na2vs0mg"},{"bike_id":"022e1652-b9be-49b1-8282-7420de050911","system_id":"levelo_inurba_marseille","lat":43.313571,"lon":5.384829,"is_reserved":false,"is_disabled":false,"rental_uris":{"android":"levelo://app?vid=022e1652-b9be-49b1-8282-7420de050911","ios":"levelo://app?vid=022e1652-b9be-49b1-8282-7420de050911"},"vehicle_type_id":"4","last_reported":1724080099,"current_range_meters":22400,"station_id":"ce4bgt92rcd13ifvqcf0","pricing_plan_id":"cebpf4jnsgd1na2vs0mg"},{"bike_id":"ac7d1a7b-e97c-4614-8b9d-6d4a0b0b1a89","system_id":"levelo_inurba_marseille","lat":43.296131,"lon":5.370791,"is_reserved":false,"is_disabled":false,"rental_uris":{"android":"levelo://app?vid=ac7d1a7b-e97c-4614-8b9d-6d4a0b0b1a89","ios":"levelo://app?vid=ac7d1a7b-e97c-4614-8b9d-6d4a0b0b1a89"},"vehicle_type_id":"4","last_reported":1724080099,"current_range_meters":24800,"station_id":"ce4bgnh2rcd13ifvqc0g","pricing_plan_id":"cebpf4jnsgd1na2vs0mg"},{"bike_id":"9cdefbbe-c279-4837-8bfa-a1675943bb56","system_id":"levelo_inurba_marseille","lat":43.29573,"lon":5.367355,"is_reserved":false,"is_disabled":false,"rental_uris":{"android":"levelo://app?vid=9cdefbbe-c279-4837-8bfa-a1675943bb56","ios":"levelo://app?vid=9cdefbbe-c279-4837-8bfa-a1675943bb56"},"vehicle_type_id":"4","last_reported":1724080099,"current_range_meters":30400,"station_id":"ce4bgph2rcd13ifvqc2g","pricing_plan_id":"cebpf4jnsgd1na2vs0mg"},{"bike_id":"79ab1b51-97ab-4699-8d00-34e5fb1bced4","system_id":"levelo_inurba_marseille","lat":43.299028,"lon":5.381509,"is_reserved":false,"is_disabled":false,"rental_uris":{"android":"levelo://app?vid=79ab1b51-97ab-4699-8d00-34e5fb1bced4","ios":"levelo://app?vid=79ab1b51-97ab-4699-8d00-34e5fb1bced4"},"vehicle_type_id":"4","last_reported":1724080099,"current_range_meters":14000,"station_id":"ce4bgj12rcd13ifvqbc0","pricing_plan_id":"cebpf4jnsgd1na2vs0mg"},{"bike_id":"467a9ef2-ffd8-4441-8757-08ca8e076df4","system_id":"levelo_inurba_marseille","lat":43.317557,"lon":5.390173,"is_reserved":false,"is_disabled":false,"rental_uris":{"android":"levelo://app?vid=467a9ef2-ffd8-4441-8757-08ca8e076df4","ios":"levelo://app?vid=467a9ef2-ffd8-4441-8757-08ca8e076df4"},"vehicle_type_id":"4","last_reported":1724080099,"current_range_meters":11600,"station_id":"ce4bhqp2rcd13ifvqhng","pricing_plan_id":"cebpf4jnsgd1na2vs0mg"},{"bike_id":"10a1a3a9-b6df-4a03-b47d-ae89e6c86e5f","system_id":"levelo_inurba_marseille","lat":43.298037,"lon":5.381066,"is_reserved":false,"is_disabled":false,"rental_uris":{"android":"levelo://app?vid=10a1a3a9-b6df-4a03-b47d-ae89e6c86e5f","ios":"levelo://app?vid=10a1a3a9-b6df-4a03-b47d-ae89e6c86e5f"},"vehicle_type_id":"4","last_reported":1724080099,"current_range_meters":0,"station_id":"ce4bgip2rcd13ifvqbb0","pricing_plan_id":"cebpf4jnsgd1na2vs0mg"},{"bike_id":"2d6fb221-33ff-4201-a928-88962a257a28","system_id":"levelo_inurba_marseille","lat":43.295757,"lon":5.375127,"is_reserved":false,"is_disabled":false,"rental_uris":{"android":"levelo://app?vid=2d6fb221-33ff-4201-a928-88962a257a28","ios":"levelo://app?vid=2d6fb221-33ff-4201-a928-88962a257a28"},"vehicle_type_id":"4","last_reported":1724080099,"current_range_meters":28800,"station_id":"ce4bgh92rcd13ifvqb50","pricing_plan_id":"cebpf4jnsgd1na2vs0mg"},{"bike_id":"36c00e8d-0c23-4390-bbb0-802af9ae42d1","system_id":"levelo_inurba_marseille","lat":43.298037,"lon":5.381066,"is_reserved":false,"is_disabled":false,"rental_uris":{"android":"levelo://app?vid=36c00e8d-0c23-4390-bbb0-802af9ae42d1","ios":"levelo://app?vid=36c00e8d-0c23-4390-bbb0-802af9ae42d1"},"vehicle_type_id":"4","last_reported":1724080099,"current_range_meters":14400,"station_id":"ce4bgip2rcd13ifvqbb0","pricing_plan_id":"cebpf4jnsgd1na2vs0mg"},{"bike_id":"d8a96d0b-1052-4ebb-af18-27a95774a5f9","system_id":"levelo_inurba_marseille","lat":43.31475,"lon":5.39161,"is_reserved":false,"is_disabled":false,"rental_uris":{"android":"levelo://app?vid=d8a96d0b-1052-4ebb-af18-27a95774a5f9","ios":"levelo://app?vid=d8a96d0b-1052-4ebb-af18-27a95774a5f9"},"vehicle_type_id":"4","last_reported":1724080099,"current_range_meters":14800,"station_id":"","pricing_plan_id":"cebpf4jnsgd1na2vs0mg"},{"bike_id":"a9a76e0c-0020-4383-87e5-1b8b459e2f05","system_id":"levelo_inurba_marseille","lat":43.298037,"lon":5.381066,"is_reserved":false,"is_disabled":false,"rental_uris":{"android":"levelo://app?vid=a9a76e0c-0020-4383-87e5-1b8b459e2f05","ios":"levelo://app?vid=a9a76e0c-0020-4383-87e5-1b8b459e2f05"},"vehicle_type_id":"4","last_reported":1724080099,"current_range_meters":4400,"station_id":"ce4bgip2rcd13ifvqbb0","pricing_plan_id":"cebpf4jnsgd1na2vs0mg"},{"bike_id":"5d183f77-28eb-44e3-adaf-a9142cbeb4e4","system_id":"levelo_inurba_marseille","lat":43.2961,"lon":5.3771,"is_reserved":false,"is_disabled":false,"rental_uris":{"android":"levelo://app?vid=5d183f77-28eb-44e3-adaf-a9142cbeb4e4","ios":"levelo://app?vid=5d183f77-28eb-44e3-adaf-a9142cbeb4e4"},"vehicle_type_id":"4","last_reported":1724080099,"current_range_meters":0,"station_id":"ce4bgi92rcd13ifvqb90","pricing_plan_id":"cebpf4jnsgd1na2vs0mg"},{"bike_id":"5fb62282-3993-46ed-99ad-c2ef461a68d9","system_id":"levelo_inurba_marseille","lat":43.282744,"lon":5.350533,"is_reserved":false,"is_disabled":false,"rental_uris":{"android":"levelo://app?vid=5fb62282-3993-46ed-99ad-c2ef461a68d9","ios":"levelo://app?vid=5fb62282-3993-46ed-99ad-c2ef461a68d9"},"vehicle_type_id":"4","last_reported":1724080099,"current_range_meters":16400,"station_id":"ce4bhbp2rcd13ifvqerg","pricing_plan_id":"cebpf4jnsgd1na2vs0mg"},{"bike_id":"655df425-540b-452e-8db6-920d429bcca8","system_id":"levelo_inurba_marseille","lat":43.299717,"lon":5.384845,"is_reserved":false,"is_disabled":false,"rental_uris":{"android":"levelo://app?vid=655df425-540b-452e-8db6-920d429bcca8","ios":"levelo://app?vid=655df425-540b-452e-8db6-920d429bcca8"},"vehicle_type_id":"4","last_reported":1724080099,"current_range_meters":7600,"station_id":"ce4bgj92rcd13ifvqbd0","pricing_plan_id":"cebpf4jnsgd1na2vs0mg"},{"bike_id":"2b95ed40-dfa7-4fdb-a2c4-793be7117a88","system_id":"levelo_inurba_marseille","lat":43.29405,"lon":5.37363,"is_reserved":false,"is_disabled":false,"rental_uris":{"android":"levelo://app?vid=2b95ed40-dfa7-4fdb-a2c4-793be7117a88","ios":"levelo://app?vid=2b95ed40-dfa7-4fdb-a2c4-793be7117a88"},"vehicle_type_id":"4","last_reported":1724080099,"current_range_meters":12800,"station_id":"","pricing_plan_id":"cebpf4jnsgd1na2vs0mg"},{"bike_id":"380d9c94-eeb8-4f5f-9ed5-25dde5e1c8d6","system_id":"levelo_inurba_marseille","lat":43.32367,"lon":5.388836,"is_reserved":false,"is_disabled":false,"rental_uris":{"android":"levelo://app?vid=380d9c94-eeb8-4f5f-9ed5-25dde5e1c8d6","ios":"levelo://app?vid=380d9c94-eeb8-4f5f-9ed5-25dde5e1c8d6"},"vehicle_type_id":"4","last_reported":1724080099,"current_range_meters":12400,"station_id":"ce4bhqp2rcd13ifvqhog","pricing_plan_id":"cebpf4jnsgd1na2vs0mg"},{"bike_id":"31d224f4-9314-4a79-9b1d-f402330ac315","system_id":"levelo_inurba_marseille","lat":43.29602,"lon":5.381084,"is_reserved":false,"is_disabled":false,"rental_uris":{"android":"levelo://app?vid=31d224f4-9314-4a79-9b1d-f402330ac315","ios":"levelo://app?vid=31d224f4-9314-4a79-9b1d-f402330ac315"},"vehicle_type_id":"4","last_reported":1724080099,"current_range_meters":18400,"station_id":"ce4bgl12rcd13ifvqbo0","pricing_plan_id":"cebpf4jnsgd1na2vs0mg"},{"bike_id":"669433f3-8b4c-4b84-bc3b-e3e77728b0b7","system_id":"levelo_inurba_marseille","lat":43.293259,"lon":5.371586,"is_reserved":false,"is_disabled":false,"rental_uris":{"android":"levelo://app?vid=669433f3-8b4c-4b84-bc3b-e3e77728b0b7","ios":"levelo://app?vid=669433f3-8b4c-4b84-bc3b-e3e77728b0b7"},"vehicle_type_id":"4","last_reported":1724080099,"current_range_meters":13600,"station_id":"ce4bgh92rcd13ifvqb40","pricing_plan_id":"cebpf4jnsgd1na2vs0mg"},{"bike_id":"8e4a7418-5f88-4a8f-8e48-0fc8c86d600d","system_id":"levelo_inurba_marseille","lat":43.293259,"lon":5.371586,"is_reserved":false,"is_disabled":false,"rental_uris":{"android":"levelo://app?vid=8e4a7418-5f88-4a8f-8e48-0fc8c86d600d","ios":"levelo://app?vid=8e4a7418-5f88-4a8f-8e48-0fc8c86d600d"},"vehicle_type_id":"4","last_reported":1724080099,"current_range_meters":0,"station_id":"ce4bgh92rcd13ifvqb40","pricing_plan_id":"cebpf4jnsgd1na2vs0mg"},{"bike_id":"fffdba13-12fa-4144-819e-6eca9f4ce855","system_id":"levelo_inurba_marseille","lat":43.292749,"lon":5.368398,"is_reserved":false,"is_disabled":false,"rental_uris":{"android":"levelo://app?vid=fffdba13-12fa-4144-819e-6eca9f4ce855","ios":"levelo://app?vid=fffdba13-12fa-4144-819e-6eca9f4ce855"},"vehicle_type_id":"4","last_reported":1724080099,"current_range_meters":12400,"station_id":"ce4bhbp2rcd13ifvqesg","pricing_plan_id":"cebpf4jnsgd1na2vs0mg"},{"bike_id":"a529c5a2-ed96-49f7-86a5-08d4860788a2","system_id":"levelo_inurba_marseille","lat":43.292749,"lon":5.368402,"is_reserved":false,"is_disabled":false,"rental_uris":{"android":"levelo://app?vid=a529c5a2-ed96-49f7-86a5-08d4860788a2","ios":"levelo://app?vid=a529c5a2-ed96-49f7-86a5-08d4860788a2"},"vehicle_type_id":"4","last_reported":1724080099,"current_range_meters":7200,"station_id":"ce4bhbp2rcd13ifvqesg","pricing_plan_id":"cebpf4jnsgd1na2vs0mg"},{"bike_id":"0f92af19-2f73-4495-9e39-29557a46668d","system_id":"levelo_inurba_marseille","lat":43.313989,"lon":5.394594,"is_reserved":false,"is_disabled":false,"rental_uris":{"android":"levelo://app?vid=0f92af19-2f73-4495-9e39-29557a46668d","ios":"levelo://app?vid=0f92af19-2f73-4495-9e39-29557a46668d"},"vehicle_type_id":"4","last_reported":1724080099,"current_range_meters":19200,"station_id":"","pricing_plan_id":"cebpf4jnsgd1na2vs0mg"},{"bike_id":"ac029415-ae23-4e56-ab32-3270672e4d09","system_id":"levelo_inurba_marseille","lat":43.31821,"lon":5.39362,"is_reserved":false,"is_disabled":false,"rental_uris":{"android":"levelo://app?vid=ac029415-ae23-4e56-ab32-3270672e4d09","ios":"levelo://app?vid=ac029415-ae23-4e56-ab32-3270672e4d09"},"vehicle_type_id":"4","last_reported":1724080099,"current_range_meters":6000,"station_id":"","pricing_plan_id":"cebpf4jnsgd1na2vs0mg"},{"bike_id":"35a42c31-9f05-4a3e-a915-9810fcabba2a","system_id":"levelo_inurba_marseille","lat":43.29242,"lon":5.36767,"is_reserved":false,"is_disabled":false,"rental_uris":{"android":"levelo://app?vid=35a42c31-9f05-4a3e-a915-9810fcabba2a","ios":"levelo://app?vid=35a42c31-9f05-4a3e-a915-9810fcabba2a"},"vehicle_type_id":"4","last_reported":1724080099,"current_range_meters":30400,"station_id":"ce4bhch2rcd13ifvqeug","pricing_plan_id":"cebpf4jnsgd1na2vs0mg"},{"bike_id":"1d77f0c6-6ae7-4066-afa9-96d787999250","system_id":"levelo_inurba_marseille","lat":43.305994,"lon":5.393687,"is_reserved":false,"is_disabled":false,"rental_uris":{"android":"levelo://app?vid=1d77f0c6-6ae7-4066-afa9-96d787999250","ios":"levelo://app?vid=1d77f0c6-6ae7-4066-afa9-96d787999250"},"vehicle_type_id":"4","last_reported":1724080099,"current_range_meters":19600,"station_id":"ce4bh0p2rcd13ifvqd80","pricing_plan_id":"cebpf4jnsgd1na2vs0mg"},{"bike_id":"fac5f51e-433a-430f-a753-f21be5e013fe","system_id":"levelo_inurba_marseille","lat":43.2936,"lon":5.37835,"is_reserved":false,"is_disabled":false,"rental_uris":{"android":"levelo://app?vid=fac5f51e-433a-430f-a753-f21be5e013fe","ios":"levelo://app?vid=fac5f51e-433a-430f-a753-f21be5e013fe"},"vehicle_type_id":"4","last_reported":1724080099,"current_range_meters":0,"station_id":"ce4bgjh2rcd13ifvqbf0","pricing_plan_id":"cebpf4jnsgd1na2vs0mg"},{"bike_id":"3bf3cf2c-cc0e-49d9-84dc-cc2ba16d4389","system_id":"levelo_inurba_marseille","lat":43.2936,"lon":5.37835,"is_reserved":false,"is_disabled":false,"rental_uris":{"android":"levelo://app?vid=3bf3cf2c-cc0e-49d9-84dc-cc2ba16d4389","ios":"levelo://app?vid=3bf3cf2c-cc0e-49d9-84dc-cc2ba16d4389"},"vehicle_type_id":"4","last_reported":1724080099,"current_range_meters":800,"station_id":"ce4bgjh2rcd13ifvqbf0","pricing_plan_id":"cebpf4jnsgd1na2vs0mg"},{"bike_id":"855fb053-3358-4029-8e7a-dc5e04ff7bcd","system_id":"levelo_inurba_marseille","lat":43.2936,"lon":5.37835,"is_reserved":false,"is_disabled":false,"rental_uris":{"android":"levelo://app?vid=855fb053-3358-4029-8e7a-dc5e04ff7bcd","ios":"levelo://app?vid=855fb053-3358-4029-8e7a-dc5e04ff7bcd"},"vehicle_type_id":"4","last_reported":1724080099,"current_range_meters":21600,"station_id":"ce4bgjh2rcd13ifvqbf0","pricing_plan_id":"cebpf4jnsgd1na2vs0mg"},{"bike_id":"ca0dfd57-151a-4022-8256-9375cbc8a2f7","system_id":"levelo_inurba_marseille","lat":43.292311,"lon":5.360731,"is_reserved":false,"is_disabled":false,"rental_uris":{"android":"levelo://app?vid=ca0dfd57-151a-4022-8256-9375cbc8a2f7","ios":"levelo://app?vid=ca0dfd57-151a-4022-8256-9375cbc8a2f7"},"vehicle_type_id":"4","last_reported":1724080099,"current_range_meters":30000,"station_id":"ce4bhbh2rcd13ifvqeqg","pricing_plan_id":"cebpf4jnsgd1na2vs0mg"},{"bike_id":"836fa699-d0bb-44f6-87c3-f7dd051d8520","system_id":"levelo_inurba_marseille","lat":43.292311,"lon":5.360731,"is_reserved":false,"is_disabled":false,"rental_uris":{"android":"levelo://app?vid=836fa699-d0bb-44f6-87c3-f7dd051d8520","ios":"levelo://app?vid=836fa699-d0bb-44f6-87c3-f7dd051d8520"},"vehicle_type_id":"4","last_reported":1724080099,"current_range_meters":20400,"station_id":"ce4bhbh2rcd13ifvqeqg","pricing_plan_id":"cebpf4jnsgd1na2vs0mg"},{"bike_id":"095ba801-0a16-4992-841c-1e91f754d799","system_id":"levelo_inurba_marseille","lat":43.292005,"lon":5.357875,"is_reserved":false,"is_disabled":false,"rental_uris":{"android":"levelo://app?vid=095ba801-0a16-4992-841c-1e91f754d799","ios":"levelo://app?vid=095ba801-0a16-4992-841c-1e91f754d799"},"vehicle_type_id":"4","last_reported":1724080099,"current_range_meters":20000,"station_id":"ce4bhb12rcd13ifvqel0","pricing_plan_id":"cebpf4jnsgd1na2vs0mg"},{"bike_id":"e6e8f76c-f824-455e-9bb3-bce79db1b271","system_id":"levelo_inurba_marseille","lat":43.292005,"lon":5.357875,"is_reserved":false,"is_disabled":false,"rental_uris":{"android":"levelo://app?vid=e6e8f76c-f824-455e-9bb3-bce79db1b271","ios":"levelo://app?vid=e6e8f76c-f824-455e-9bb3-bce79db1b271"},"vehicle_type_id":"4","last_reported":1724080099,"current_range_meters":25200,"station_id":"ce4bhb12rcd13ifvqel0","pricing_plan_id":"cebpf4jnsgd1na2vs0mg"},{"bike_id":"e3f0b19a-db72-4dfc-bc8b-48e3667dd516","system_id":"levelo_inurba_marseille","lat":43.292005,"lon":5.357875,"is_reserved":false,"is_disabled":false,"rental_uris":{"android":"levelo://app?vid=e3f0b19a-db72-4dfc-bc8b-48e3667dd516","ios":"levelo://app?vid=e3f0b19a-db72-4dfc-bc8b-48e3667dd516"},"vehicle_type_id":"4","last_reported":1724080099,"current_range_meters":15200,"station_id":"ce4bhb12rcd13ifvqel0","pricing_plan_id":"cebpf4jnsgd1na2vs0mg"},{"bike_id":"8bd63733-44d4-4741-a5cb-d5da4eacb066","system_id":"levelo_inurba_marseille","lat":43.29194,"lon":5.35803,"is_reserved":false,"is_disabled":false,"rental_uris":{"android":"levelo://app?vid=8bd63733-44d4-4741-a5cb-d5da4eacb066","ios":"levelo://app?vid=8bd63733-44d4-4741-a5cb-d5da4eacb066"},"vehicle_type_id":"4","last_reported":1724080099,"current_range_meters":27200,"station_id":"ce4bhbh2rcd13ifvqepg","pricing_plan_id":"cebpf4jnsgd1na2vs0mg"},{"bike_id":"cc525616-dd40-4e22-b029-4078d5e3fa38","system_id":"levelo_inurba_marseille","lat":43.309038,"lon":5.396546,"is_reserved":false,"is_disabled":false,"rental_uris":{"android":"levelo://app?vid=cc525616-dd40-4e22-b029-4078d5e3fa38","ios":"levelo://app?vid=cc525616-dd40-4e22-b029-4078d5e3fa38"},"vehicle_type_id":"4","last_reported":1724080099,"current_range_meters":0,"station_id":"ce4bh012rcd13ifvqcv0","pricing_plan_id":"cebpf4jnsgd1na2vs0mg"},{"bike_id":"f779c2a0-46cd-4efc-bab9-48e28c3b79a7","system_id":"levelo_inurba_marseille","lat":43.302008,"lon":5.394694,"is_reserved":false,"is_disabled":false,"rental_uris":{"android":"levelo://app?vid=f779c2a0-46cd-4efc-bab9-48e28c3b79a7","ios":"levelo://app?vid=f779c2a0-46cd-4efc-bab9-48e28c3b79a7"},"vehicle_type_id":"4","last_reported":1724080099,"current_range_meters":1200,"station_id":"ce4bh0p2rcd13ifvqd70","pricing_plan_id":"cebpf4jnsgd1na2vs0mg"},{"bike_id":"20885f96-ed4b-40ad-9e85-284bcd874654","system_id":"levelo_inurba_marseille","lat":43.290631,"lon":5.359244,"is_reserved":false,"is_disabled":false,"rental_uris":{"android":"levelo://app?vid=20885f96-ed4b-40ad-9e85-284bcd874654","ios":"levelo://app?vid=20885f96-ed4b-40ad-9e85-284bcd874654"},"vehicle_type_id":"4","last_reported":1724080099,"current_range_meters":8000,"station_id":"ce4bha92rcd13ifvqeg0","pricing_plan_id":"cebpf4jnsgd1na2vs0mg"},{"bike_id":"41d11d21-316a-468d-8852-084fc76d043f","system_id":"levelo_inurba_marseille","lat":43.290995,"lon":5.381361,"is_reserved":false,"is_disabled":false,"rental_uris":{"android":"levelo://app?vid=41d11d21-316a-468d-8852-084fc76d043f","ios":"levelo://app?vid=41d11d21-316a-468d-8852-084fc76d043f"},"vehicle_type_id":"4","last_reported":1724080099,"current_range_meters":17600,"station_id":"ce4bh512rcd13ifvqe2g","pricing_plan_id":"cebpf4jnsgd1na2vs0mg"},{"bike_id":"e50c83b9-fb9a-44e8-ae10-f10aa9d77112","system_id":"levelo_inurba_marseille","lat":43.290327,"lon":5.375711,"is_reserved":false,"is_disabled":false,"rental_uris":{"android":"levelo://app?vid=e50c83b9-fb9a-44e8-ae10-f10aa9d77112","ios":"levelo://app?vid=e50c83b9-fb9a-44e8-ae10-f10aa9d77112"},"vehicle_type_id":"4","last_reported":1724080099,"current_range_meters":5600,"station_id":"ce4bh692rcd13ifvqe90","pricing_plan_id":"cebpf4jnsgd1na2vs0mg"},{"bike_id":"7354faa9-0ada-4f6a-92e5-382caf50841c","system_id":"levelo_inurba_marseille","lat":43.290327,"lon":5.375711,"is_reserved":false,"is_disabled":false,"rental_uris":{"android":"levelo://app?vid=7354faa9-0ada-4f6a-92e5-382caf50841c","ios":"levelo://app?vid=7354faa9-0ada-4f6a-92e5-382caf50841c"},"vehicle_type_id":"4","last_reported":1724080099,"current_range_meters":17200,"station_id":"ce4bh692rcd13ifvqe90","pricing_plan_id":"cebpf4jnsgd1na2vs0mg"},{"bike_id":"b0ac08a1-c7dd-462e-9ca2-0259374ab66b","system_id":"levelo_inurba_marseille","lat":43.28947,"lon":5.36637,"is_reserved":false,"is_disabled":false,"rental_uris":{"android":"levelo://app?vid=b0ac08a1-c7dd-462e-9ca2-0259374ab66b","ios":"levelo://app?vid=b0ac08a1-c7dd-462e-9ca2-0259374ab66b"},"vehicle_type_id":"4","last_reported":1724080099,"current_range_meters":8800,"station_id":"ce4bhap2rcd13ifvqek0","pricing_plan_id":"cebpf4jnsgd1na2vs0mg"},{"bike_id":"cb9344fe-f98f-4dfd-902f-3f1ad9f03524","system_id":"levelo_inurba_marseille","lat":43.289184,"lon":5.366408,"is_reserved":false,"is_disabled":false,"rental_uris":{"android":"levelo://app?vid=cb9344fe-f98f-4dfd-902f-3f1ad9f03524","ios":"levelo://app?vid=cb9344fe-f98f-4dfd-902f-3f1ad9f03524"},"vehicle_type_id":"4","last_reported":1724080099,"current_range_meters":19200,"station_id":"ce4bhap2rcd13ifvqek0","pricing_plan_id":"cebpf4jnsgd1na2vs0mg"},{"bike_id":"a44ba99a-4453-40cd-bf40-f60f0aa9a9ac","system_id":"levelo_inurba_marseille","lat":43.289184,"lon":5.366408,"is_reserved":false,"is_disabled":false,"rental_uris":{"android":"levelo://app?vid=a44ba99a-4453-40cd-bf40-f60f0aa9a9ac","ios":"levelo://app?vid=a44ba99a-4453-40cd-bf40-f60f0aa9a9ac"},"vehicle_type_id":"4","last_reported":1724080099,"current_range_meters":0,"station_id":"ce4bhap2rcd13ifvqek0","pricing_plan_id":"cebpf4jnsgd1na2vs0mg"},{"bike_id":"7d893845-3a90-4568-8cb2-ffc9e6b6f4c3","system_id":"levelo_inurba_marseille","lat":43.289468,"lon":5.363719,"is_reserved":false,"is_disabled":false,"rental_uris":{"android":"levelo://app?vid=7d893845-3a90-4568-8cb2-ffc9e6b6f4c3","ios":"levelo://app?vid=7d893845-3a90-4568-8cb2-ffc9e6b6f4c3"},"vehicle_type_id":"4","last_reported":1724080099,"current_range_meters":21600,"station_id":"ce4bhc92rcd13ifvqetg","pricing_plan_id":"cebpf4jnsgd1na2vs0mg"},{"bike_id":"1eaa4639-0722-4e12-9290-ffcedf6f7cd3","system_id":"levelo_inurba_marseille","lat":43.28938,"lon":5.363817,"is_reserved":false,"is_disabled":false,"rental_uris":{"android":"levelo://app?vid=1eaa4639-0722-4e12-9290-ffcedf6f7cd3","ios":"levelo://app?vid=1eaa4639-0722-4e12-9290-ffcedf6f7cd3"},"vehicle_type_id":"4","last_reported":1724080099,"current_range_meters":0,"station_id":"ce4bhc92rcd13ifvqetg","pricing_plan_id":"cebpf4jnsgd1na2vs0mg"},{"bike_id":"0c6ea18d-a66c-48dc-a82a-e5d26fb44870","system_id":"levelo_inurba_marseille","lat":43.304296,"lon":5.397513,"is_reserved":false,"is_disabled":false,"rental_uris":{"android":"levelo://app?vid=0c6ea18d-a66c-48dc-a82a-e5d26fb44870","ios":"levelo://app?vid=0c6ea18d-a66c-48dc-a82a-e5d26fb44870"},"vehicle_type_id":"4","last_reported":1724080099,"current_range_meters":800,"station_id":"ce4bh092rcd13ifvqd20","pricing_plan_id":"cebpf4jnsgd1na2vs0mg"},{"bike_id":"c4a7144b-7a23-45d7-9179-9f17cc3f8e3f","system_id":"levelo_inurba_marseille","lat":43.292644,"lon":5.384257,"is_reserved":false,"is_disabled":false,"rental_uris":{"android":"levelo://app?vid=c4a7144b-7a23-45d7-9179-9f17cc3f8e3f","ios":"levelo://app?vid=c4a7144b-7a23-45d7-9179-9f17cc3f8e3f"},"vehicle_type_id":"4","last_reported":1724080099,"current_range_meters":0,"station_id":"ce4bh692rcd13ifvqea0","pricing_plan_id":"cebpf4jnsgd1na2vs0mg"},{"bike_id":"57a2c5b3-a7a9-405d-afc3-a0a60495290e","system_id":"levelo_inurba_marseille","lat":43.290103,"lon":5.356114,"is_reserved":false,"is_disabled":false,"rental_uris":{"android":"levelo://app?vid=57a2c5b3-a7a9-405d-afc3-a0a60495290e","ios":"levelo://app?vid=57a2c5b3-a7a9-405d-afc3-a0a60495290e"},"vehicle_type_id":"4","last_reported":1724080099,"current_range_meters":22800,"station_id":"ce4bhb92rcd13ifvqen0","pricing_plan_id":"cebpf4jnsgd1na2vs0mg"},{"bike_id":"935d8832-412f-485f-899c-7b1ac4bccd67","system_id":"levelo_inurba_marseille","lat":43.290103,"lon":5.356114,"is_reserved":false,"is_disabled":false,"rental_uris":{"android":"levelo://app?vid=935d8832-412f-485f-899c-7b1ac4bccd67","ios":"levelo://app?vid=935d8832-412f-485f-899c-7b1ac4bccd67"},"vehicle_type_id":"4","last_reported":1724080099,"current_range_meters":1600,"station_id":"ce4bhb92rcd13ifvqen0","pricing_plan_id":"cebpf4jnsgd1na2vs0mg"},{"bike_id":"9b1751eb-7bc4-4682-9802-d442c419a895","system_id":"levelo_inurba_marseille","lat":43.290103,"lon":5.356114,"is_reserved":false,"is_disabled":false,"rental_uris":{"android":"levelo://app?vid=9b1751eb-7bc4-4682-9802-d442c419a895","ios":"levelo://app?vid=9b1751eb-7bc4-4682-9802-d442c419a895"},"vehicle_type_id":"4","last_reported":1724080099,"current_range_meters":20800,"station_id":"ce4bhb92rcd13ifvqen0","pricing_plan_id":"cebpf4jnsgd1na2vs0mg"},{"bike_id":"6c9a8f85-7ddc-46ca-84c0-c0d5478a0c11","system_id":"levelo_inurba_marseille","lat":43.290083,"lon":5.3561,"is_reserved":false,"is_disabled":false,"rental_uris":{"android":"levelo://app?vid=6c9a8f85-7ddc-46ca-84c0-c0d5478a0c11","ios":"levelo://app?vid=6c9a8f85-7ddc-46ca-84c0-c0d5478a0c11"},"vehicle_type_id":"4","last_reported":1724080099,"current_range_meters":0,"station_id":"ce4bhb92rcd13ifvqen0","pricing_plan_id":"cebpf4jnsgd1na2vs0mg"},{"bike_id":"94c8019c-2f1d-4912-9de7-a84bd8c87712","system_id":"levelo_inurba_marseille","lat":43.290104,"lon":5.356111,"is_reserved":false,"is_disabled":false,"rental_uris":{"android":"levelo://app?vid=94c8019c-2f1d-4912-9de7-a84bd8c87712","ios":"levelo://app?vid=94c8019c-2f1d-4912-9de7-a84bd8c87712"},"vehicle_type_id":"4","last_reported":1724080099,"current_range_meters":31200,"station_id":"ce4bhb92rcd13ifvqen0","pricing_plan_id":"cebpf4jnsgd1na2vs0mg"},{"bike_id":"8e39b0f3-ae0b-4de9-98d9-f2409595b663","system_id":"levelo_inurba_marseille","lat":43.290103,"lon":5.356114,"is_reserved":false,"is_disabled":false,"rental_uris":{"android":"levelo://app?vid=8e39b0f3-ae0b-4de9-98d9-f2409595b663","ios":"levelo://app?vid=8e39b0f3-ae0b-4de9-98d9-f2409595b663"},"vehicle_type_id":"4","last_reported":1724080099,"current_range_meters":15200,"station_id":"ce4bhb92rcd13ifvqen0","pricing_plan_id":"cebpf4jnsgd1na2vs0mg"},{"bike_id":"bdce14f7-f612-4bb9-9780-8749cd1aacab","system_id":"levelo_inurba_marseille","lat":43.290104,"lon":5.356111,"is_reserved":false,"is_disabled":false,"rental_uris":{"android":"levelo://app?vid=bdce14f7-f612-4bb9-9780-8749cd1aacab","ios":"levelo://app?vid=bdce14f7-f612-4bb9-9780-8749cd1aacab"},"vehicle_type_id":"4","last_reported":1724080099,"current_range_meters":18000,"station_id":"ce4bhb92rcd13ifvqen0","pricing_plan_id":"cebpf4jnsgd1na2vs0mg"},{"bike_id":"891e184a-f273-4f98-982d-14ee4f3dadd6","system_id":"levelo_inurba_marseille","lat":43.290103,"lon":5.356114,"is_reserved":false,"is_disabled":false,"rental_uris":{"android":"levelo://app?vid=891e184a-f273-4f98-982d-14ee4f3dadd6","ios":"levelo://app?vid=891e184a-f273-4f98-982d-14ee4f3dadd6"},"vehicle_type_id":"4","last_reported":1724080099,"current_range_meters":23200,"station_id":"ce4bhb92rcd13ifvqen0","pricing_plan_id":"cebpf4jnsgd1na2vs0mg"},{"bike_id":"37640aba-6dab-443e-85b3-f1e2dd80c9dc","system_id":"levelo_inurba_marseille","lat":43.2889,"lon":5.36059,"is_reserved":false,"is_disabled":false,"rental_uris":{"android":"levelo://app?vid=37640aba-6dab-443e-85b3-f1e2dd80c9dc","ios":"levelo://app?vid=37640aba-6dab-443e-85b3-f1e2dd80c9dc"},"vehicle_type_id":"4","last_reported":1724080099,"current_range_meters":20000,"station_id":"ce4bhbh2rcd13ifvqepg","pricing_plan_id":"cebpf4jnsgd1na2vs0mg"},{"bike_id":"bb4a156c-4b1e-43c4-991b-2dce30396804","system_id":"levelo_inurba_marseille","lat":43.297807,"lon":5.393533,"is_reserved":false,"is_disabled":false,"rental_uris":{"android":"levelo://app?vid=bb4a156c-4b1e-43c4-991b-2dce30396804","ios":"levelo://app?vid=bb4a156c-4b1e-43c4-991b-2dce30396804"},"vehicle_type_id":"4","last_reported":1724080099,"current_range_meters":21600,"station_id":"chh1huq6cuj3fo74tm60","pricing_plan_id":"cebpf4jnsgd1na2vs0mg"},{"bike_id":"a34c49f4-e568-474d-bf87-2aa4f48e76ce","system_id":"levelo_inurba_marseille","lat":43.297807,"lon":5.393533,"is_reserved":false,"is_disabled":false,"rental_uris":{"android":"levelo://app?vid=a34c49f4-e568-474d-bf87-2aa4f48e76ce","ios":"levelo://app?vid=a34c49f4-e568-474d-bf87-2aa4f48e76ce"},"vehicle_type_id":"4","last_reported":1724080099,"current_range_meters":4400,"station_id":"chh1huq6cuj3fo74tm60","pricing_plan_id":"cebpf4jnsgd1na2vs0mg"},{"bike_id":"23daca0f-f29c-406b-9c7c-6ba1402f4ec4","system_id":"levelo_inurba_marseille","lat":43.297815,"lon":5.393548,"is_reserved":false,"is_disabled":false,"rental_uris":{"android":"levelo://app?vid=23daca0f-f29c-406b-9c7c-6ba1402f4ec4","ios":"levelo://app?vid=23daca0f-f29c-406b-9c7c-6ba1402f4ec4"},"vehicle_type_id":"4","last_reported":1724080099,"current_range_meters":6800,"station_id":"chh1huq6cuj3fo74tm60","pricing_plan_id":"cebpf4jnsgd1na2vs0mg"},{"bike_id":"ea188c12-63f1-4917-8115-0e3adf763a12","system_id":"levelo_inurba_marseille","lat":43.3302,"lon":5.39036,"is_reserved":false,"is_disabled":false,"rental_uris":{"android":"levelo://app?vid=ea188c12-63f1-4917-8115-0e3adf763a12","ios":"levelo://app?vid=ea188c12-63f1-4917-8115-0e3adf763a12"},"vehicle_type_id":"4","last_reported":1724080099,"current_range_meters":13600,"station_id":"ce4bhr92rcd13ifvqhrg","pricing_plan_id":"cebpf4jnsgd1na2vs0mg"},{"bike_id":"798d4b2e-9389-474c-95cb-73fa5443b68b","system_id":"levelo_inurba_marseille","lat":43.33021,"lon":5.39035,"is_reserved":false,"is_disabled":false,"rental_uris":{"android":"levelo://app?vid=798d4b2e-9389-474c-95cb-73fa5443b68b","ios":"levelo://app?vid=798d4b2e-9389-474c-95cb-73fa5443b68b"},"vehicle_type_id":"4","last_reported":1724080099,"current_range_meters":7600,"station_id":"ce4bhr92rcd13ifvqhrg","pricing_plan_id":"cebpf4jnsgd1na2vs0mg"},{"bike_id":"5da4af9b-0a5e-471c-8cd4-61ce3f155e82","system_id":"levelo_inurba_marseille","lat":43.33019,"lon":5.39038,"is_reserved":false,"is_disabled":false,"rental_uris":{"android":"levelo://app?vid=5da4af9b-0a5e-471c-8cd4-61ce3f155e82","ios":"levelo://app?vid=5da4af9b-0a5e-471c-8cd4-61ce3f155e82"},"vehicle_type_id":"4","last_reported":1724080099,"current_range_meters":31200,"station_id":"ce4bhr92rcd13ifvqhrg","pricing_plan_id":"cebpf4jnsgd1na2vs0mg"},{"bike_id":"266be89d-3858-4d33-88ca-708cc3e68ea4","system_id":"levelo_inurba_marseille","lat":43.330442,"lon":5.389148,"is_reserved":false,"is_disabled":false,"rental_uris":{"android":"levelo://app?vid=266be89d-3858-4d33-88ca-708cc3e68ea4","ios":"levelo://app?vid=266be89d-3858-4d33-88ca-708cc3e68ea4"},"vehicle_type_id":"4","last_reported":1724080099,"current_range_meters":2000,"station_id":"ce4bhr92rcd13ifvqhrg","pricing_plan_id":"cebpf4jnsgd1na2vs0mg"},{"bike_id":"695b7675-4a81-469d-91bc-fd18327ee81c","system_id":"levelo_inurba_marseille","lat":43.33025,"lon":5.39031,"is_reserved":false,"is_disabled":false,"rental_uris":{"android":"levelo://app?vid=695b7675-4a81-469d-91bc-fd18327ee81c","ios":"levelo://app?vid=695b7675-4a81-469d-91bc-fd18327ee81c"},"vehicle_type_id":"4","last_reported":1724080099,"current_range_meters":4800,"station_id":"ce4bhr92rcd13ifvqhrg","pricing_plan_id":"cebpf4jnsgd1na2vs0mg"},{"bike_id":"39597a1f-f8db-4f79-b704-e97ed580d241","system_id":"levelo_inurba_marseille","lat":43.330442,"lon":5.389148,"is_reserved":false,"is_disabled":false,"rental_uris":{"android":"levelo://app?vid=39597a1f-f8db-4f79-b704-e97ed580d241","ios":"levelo://app?vid=39597a1f-f8db-4f79-b704-e97ed580d241"},"vehicle_type_id":"4","last_reported":1724080099,"current_range_meters":31200,"station_id":"ce4bhr92rcd13ifvqhrg","pricing_plan_id":"cebpf4jnsgd1na2vs0mg"},{"bike_id":"8b995eda-d792-4667-8e45-2a3b6bc9f8e8","system_id":"levelo_inurba_marseille","lat":43.33019,"lon":5.390421,"is_reserved":false,"is_disabled":false,"rental_uris":{"android":"levelo://app?vid=8b995eda-d792-4667-8e45-2a3b6bc9f8e8","ios":"levelo://app?vid=8b995eda-d792-4667-8e45-2a3b6bc9f8e8"},"vehicle_type_id":"4","last_reported":1724080099,"current_range_meters":31200,"station_id":"ce4bhr92rcd13ifvqhrg","pricing_plan_id":"cebpf4jnsgd1na2vs0mg"},{"bike_id":"ee0d0773-cb7f-41b3-a9dd-6d7b8e68ee20","system_id":"levelo_inurba_marseille","lat":43.330442,"lon":5.389148,"is_reserved":false,"is_disabled":false,"rental_uris":{"android":"levelo://app?vid=ee0d0773-cb7f-41b3-a9dd-6d7b8e68ee20","ios":"levelo://app?vid=ee0d0773-cb7f-41b3-a9dd-6d7b8e68ee20"},"vehicle_type_id":"4","last_reported":1724080099,"current_range_meters":31200,"station_id":"ce4bhr92rcd13ifvqhrg","pricing_plan_id":"cebpf4jnsgd1na2vs0mg"},{"bike_id":"d2478b89-e017-4ef6-97ff-b42dd22055d4","system_id":"levelo_inurba_marseille","lat":43.330442,"lon":5.389148,"is_reserved":false,"is_disabled":false,"rental_uris":{"android":"levelo://app?vid=d2478b89-e017-4ef6-97ff-b42dd22055d4","ios":"levelo://app?vid=d2478b89-e017-4ef6-97ff-b42dd22055d4"},"vehicle_type_id":"4","last_reported":1724080099,"current_range_meters":28400,"station_id":"ce4bhr92rcd13ifvqhrg","pricing_plan_id":"cebpf4jnsgd1na2vs0mg"},{"bike_id":"864a9688-380a-454b-bf6d-85255f4cbe06","system_id":"levelo_inurba_marseille","lat":43.33023,"lon":5.3904,"is_reserved":false,"is_disabled":false,"rental_uris":{"android":"levelo://app?vid=864a9688-380a-454b-bf6d-85255f4cbe06","ios":"levelo://app?vid=864a9688-380a-454b-bf6d-85255f4cbe06"},"vehicle_type_id":"4","last_reported":1724080099,"current_range_meters":28000,"station_id":"ce4bhr92rcd13ifvqhrg","pricing_plan_id":"cebpf4jnsgd1na2vs0mg"},{"bike_id":"adb755f0-596a-484b-a14c-c563dd92c33e","system_id":"levelo_inurba_marseille","lat":43.33028,"lon":5.39036,"is_reserved":false,"is_disabled":false,"rental_uris":{"android":"levelo://app?vid=adb755f0-596a-484b-a14c-c563dd92c33e","ios":"levelo://app?vid=adb755f0-596a-484b-a14c-c563dd92c33e"},"vehicle_type_id":"4","last_reported":1724080099,"current_range_meters":31200,"station_id":"ce4bhr92rcd13ifvqhrg","pricing_plan_id":"cebpf4jnsgd1na2vs0mg"},{"bike_id":"a1f77ca5-3240-4b1b-a07e-c4c4a5330094","system_id":"levelo_inurba_marseille","lat":43.33025,"lon":5.39043,"is_reserved":false,"is_disabled":false,"rental_uris":{"android":"levelo://app?vid=a1f77ca5-3240-4b1b-a07e-c4c4a5330094","ios":"levelo://app?vid=a1f77ca5-3240-4b1b-a07e-c4c4a5330094"},"vehicle_type_id":"4","last_reported":1724080099,"current_range_meters":4800,"station_id":"ce4bhr92rcd13ifvqhrg","pricing_plan_id":"cebpf4jnsgd1na2vs0mg"},{"bike_id":"c8fe5e0b-77ac-44d9-b357-364d22e2bf85","system_id":"levelo_inurba_marseille","lat":43.29031,"lon":5.3814,"is_reserved":false,"is_disabled":false,"rental_uris":{"android":"levelo://app?vid=c8fe5e0b-77ac-44d9-b357-364d22e2bf85","ios":"levelo://app?vid=c8fe5e0b-77ac-44d9-b357-364d22e2bf85"},"vehicle_type_id":"4","last_reported":1724080099,"current_range_meters":1200,"station_id":"ce4bh4p2rcd13ifvqe1g","pricing_plan_id":"cebpf4jnsgd1na2vs0mg"},{"bike_id":"1da2b160-e7af-468a-974f-56ca078dd0cb","system_id":"levelo_inurba_marseille","lat":43.2901,"lon":5.381269,"is_reserved":false,"is_disabled":false,"rental_uris":{"android":"levelo://app?vid=1da2b160-e7af-468a-974f-56ca078dd0cb","ios":"levelo://app?vid=1da2b160-e7af-468a-974f-56ca078dd0cb"},"vehicle_type_id":"4","last_reported":1724080099,"current_range_meters":0,"station_id":"ce4bh4p2rcd13ifvqe1g","pricing_plan_id":"cebpf4jnsgd1na2vs0mg"},{"bike_id":"972a372f-d170-4332-88e5-f96b5931cf74","system_id":"levelo_inurba_marseille","lat":43.28856,"lon":5.358371,"is_reserved":false,"is_disabled":false,"rental_uris":{"android":"levelo://app?vid=972a372f-d170-4332-88e5-f96b5931cf74","ios":"levelo://app?vid=972a372f-d170-4332-88e5-f96b5931cf74"},"vehicle_type_id":"4","last_reported":1724080099,"current_range_meters":10400,"station_id":"ce4bhb12rcd13ifvqem0","pricing_plan_id":"cebpf4jnsgd1na2vs0mg"},{"bike_id":"17049fa7-1e3d-4914-9403-9567abbca9d1","system_id":"levelo_inurba_marseille","lat":43.28856,"lon":5.358371,"is_reserved":false,"is_disabled":false,"rental_uris":{"android":"levelo://app?vid=17049fa7-1e3d-4914-9403-9567abbca9d1","ios":"levelo://app?vid=17049fa7-1e3d-4914-9403-9567abbca9d1"},"vehicle_type_id":"4","last_reported":1724080099,"current_range_meters":18400,"station_id":"ce4bhb12rcd13ifvqem0","pricing_plan_id":"cebpf4jnsgd1na2vs0mg"},{"bike_id":"f8f29ea7-67e9-465d-9c41-14d78a3272c2","system_id":"levelo_inurba_marseille","lat":43.28792,"lon":5.36347,"is_reserved":false,"is_disabled":false,"rental_uris":{"android":"levelo://app?vid=f8f29ea7-67e9-465d-9c41-14d78a3272c2","ios":"levelo://app?vid=f8f29ea7-67e9-465d-9c41-14d78a3272c2"},"vehicle_type_id":"4","last_reported":1724080099,"current_range_meters":15200,"station_id":"","pricing_plan_id":"cebpf4jnsgd1na2vs0mg"},{"bike_id":"b751e7e3-cf04-4b31-ac8b-3277945a1188","system_id":"levelo_inurba_marseille","lat":43.28856,"lon":5.358371,"is_reserved":false,"is_disabled":false,"rental_uris":{"android":"levelo://app?vid=b751e7e3-cf04-4b31-ac8b-3277945a1188","ios":"levelo://app?vid=b751e7e3-cf04-4b31-ac8b-3277945a1188"},"vehicle_type_id":"4","last_reported":1724080099,"current_range_meters":19600,"station_id":"ce4bhb12rcd13ifvqem0","pricing_plan_id":"cebpf4jnsgd1na2vs0mg"},{"bike_id":"3b81b6d9-263d-4ab5-b543-19d615d7af37","system_id":"levelo_inurba_marseille","lat":43.28856,"lon":5.358371,"is_reserved":false,"is_disabled":false,"rental_uris":{"android":"levelo://app?vid=3b81b6d9-263d-4ab5-b543-19d615d7af37","ios":"levelo://app?vid=3b81b6d9-263d-4ab5-b543-19d615d7af37"},"vehicle_type_id":"4","last_reported":1724080099,"current_range_meters":0,"station_id":"ce4bhb12rcd13ifvqem0","pricing_plan_id":"cebpf4jnsgd1na2vs0mg"},{"bike_id":"2c0c44fe-f28b-4ec7-9d6f-3cb5c42453d9","system_id":"levelo_inurba_marseille","lat":43.28856,"lon":5.358371,"is_reserved":false,"is_disabled":false,"rental_uris":{"android":"levelo://app?vid=2c0c44fe-f28b-4ec7-9d6f-3cb5c42453d9","ios":"levelo://app?vid=2c0c44fe-f28b-4ec7-9d6f-3cb5c42453d9"},"vehicle_type_id":"4","last_reported":1724080099,"current_range_meters":22000,"station_id":"ce4bhb12rcd13ifvqem0","pricing_plan_id":"cebpf4jnsgd1na2vs0mg"},{"bike_id":"1836cc79-05f9-4e7a-b5bb-2f4ade13265f","system_id":"levelo_inurba_marseille","lat":43.337188,"lon":5.374574,"is_reserved":false,"is_disabled":false,"rental_uris":{"android":"levelo://app?vid=1836cc79-05f9-4e7a-b5bb-2f4ade13265f","ios":"levelo://app?vid=1836cc79-05f9-4e7a-b5bb-2f4ade13265f"},"vehicle_type_id":"4","last_reported":1724080099,"current_range_meters":23200,"station_id":"","pricing_plan_id":"cebpf4jnsgd1na2vs0mg"},{"bike_id":"1a12fe31-e3f6-4324-b8b3-bbb7448c5e18","system_id":"levelo_inurba_marseille","lat":43.28856,"lon":5.358371,"is_reserved":false,"is_disabled":false,"rental_uris":{"android":"levelo://app?vid=1a12fe31-e3f6-4324-b8b3-bbb7448c5e18","ios":"levelo://app?vid=1a12fe31-e3f6-4324-b8b3-bbb7448c5e18"},"vehicle_type_id":"4","last_reported":1724080099,"current_range_meters":13200,"station_id":"ce4bhb12rcd13ifvqem0","pricing_plan_id":"cebpf4jnsgd1na2vs0mg"},{"bike_id":"0e29bb4b-a142-468e-b1d8-2aad49f218eb","system_id":"levelo_inurba_marseille","lat":43.33733,"lon":5.37443,"is_reserved":false,"is_disabled":false,"rental_uris":{"android":"levelo://app?vid=0e29bb4b-a142-468e-b1d8-2aad49f218eb","ios":"levelo://app?vid=0e29bb4b-a142-468e-b1d8-2aad49f218eb"},"vehicle_type_id":"4","last_reported":1724080099,"current_range_meters":26800,"station_id":"","pricing_plan_id":"cebpf4jnsgd1na2vs0mg"},{"bike_id":"b3bc95aa-c280-4f4d-b1b3-df60b5d859ec","system_id":"levelo_inurba_marseille","lat":43.337444,"lon":5.374475,"is_reserved":false,"is_disabled":false,"rental_uris":{"android":"levelo://app?vid=b3bc95aa-c280-4f4d-b1b3-df60b5d859ec","ios":"levelo://app?vid=b3bc95aa-c280-4f4d-b1b3-df60b5d859ec"},"vehicle_type_id":"3","last_reported":1724080099,"current_range_meters":24800,"station_id":"","pricing_plan_id":"cebpf4jnsgd1na2vs0mg"},{"bike_id":"1efa0b4a-e2bc-496e-a256-a2f14c3799dd","system_id":"levelo_inurba_marseille","lat":43.337457,"lon":5.374581,"is_reserved":false,"is_disabled":false,"rental_uris":{"android":"levelo://app?vid=1efa0b4a-e2bc-496e-a256-a2f14c3799dd","ios":"levelo://app?vid=1efa0b4a-e2bc-496e-a256-a2f14c3799dd"},"vehicle_type_id":"4","last_reported":1724080099,"current_range_meters":10800,"station_id":"","pricing_plan_id":"cebpf4jnsgd1na2vs0mg"},{"bike_id":"54fdf921-46c4-497a-93b1-cbec754b3d62","system_id":"levelo_inurba_marseille","lat":43.33749,"lon":5.37464,"is_reserved":false,"is_disabled":false,"rental_uris":{"android":"levelo://app?vid=54fdf921-46c4-497a-93b1-cbec754b3d62","ios":"levelo://app?vid=54fdf921-46c4-497a-93b1-cbec754b3d62"},"vehicle_type_id":"4","last_reported":1724080099,"current_range_meters":22800,"station_id":"","pricing_plan_id":"cebpf4jnsgd1na2vs0mg"},{"bike_id":"5f490b04-8ec8-49bd-9c24-398595aab77a","system_id":"levelo_inurba_marseille","lat":43.30642,"lon":5.401031,"is_reserved":false,"is_disabled":false,"rental_uris":{"android":"levelo://app?vid=5f490b04-8ec8-49bd-9c24-398595aab77a","ios":"levelo://app?vid=5f490b04-8ec8-49bd-9c24-398595aab77a"},"vehicle_type_id":"4","last_reported":1724080099,"current_range_meters":6000,"station_id":"ce4bh112rcd13ifvqda0","pricing_plan_id":"cebpf4jnsgd1na2vs0mg"},{"bike_id":"73915b61-057d-4aad-b027-f6cc821c52df","system_id":"levelo_inurba_marseille","lat":43.301117,"lon":5.398795,"is_reserved":false,"is_disabled":false,"rental_uris":{"android":"levelo://app?vid=73915b61-057d-4aad-b027-f6cc821c52df","ios":"levelo://app?vid=73915b61-057d-4aad-b027-f6cc821c52df"},"vehicle_type_id":"4","last_reported":1724080099,"current_range_meters":30400,"station_id":"ce4bh0h2rcd13ifvqd40","pricing_plan_id":"cebpf4jnsgd1na2vs0mg"},{"bike_id":"f617c3b9-8612-4a18-9ba0-eb4387033ba9","system_id":"levelo_inurba_marseille","lat":43.28891,"lon":5.3539,"is_reserved":false,"is_disabled":false,"rental_uris":{"android":"levelo://app?vid=f617c3b9-8612-4a18-9ba0-eb4387033ba9","ios":"levelo://app?vid=f617c3b9-8612-4a18-9ba0-eb4387033ba9"},"vehicle_type_id":"4","last_reported":1724080099,"current_range_meters":15200,"station_id":"","pricing_plan_id":"cebpf4jnsgd1na2vs0mg"},{"bike_id":"ce8fef01-5724-4e17-83b6-97684042381c","system_id":"levelo_inurba_marseille","lat":43.301117,"lon":5.398795,"is_reserved":false,"is_disabled":false,"rental_uris":{"android":"levelo://app?vid=ce8fef01-5724-4e17-83b6-97684042381c","ios":"levelo://app?vid=ce8fef01-5724-4e17-83b6-97684042381c"},"vehicle_type_id":"4","last_reported":1724080099,"current_range_meters":19600,"station_id":"ce4bh0h2rcd13ifvqd40","pricing_plan_id":"cebpf4jnsgd1na2vs0mg"},{"bike_id":"f061648a-a899-4b2d-814d-defded3243db","system_id":"levelo_inurba_marseille","lat":43.301117,"lon":5.398795,"is_reserved":false,"is_disabled":false,"rental_uris":{"android":"levelo://app?vid=f061648a-a899-4b2d-814d-defded3243db","ios":"levelo://app?vid=f061648a-a899-4b2d-814d-defded3243db"},"vehicle_type_id":"4","last_reported":1724080099,"current_range_meters":0,"station_id":"ce4bh0h2rcd13ifvqd40","pricing_plan_id":"cebpf4jnsgd1na2vs0mg"},{"bike_id":"66dfcbf6-6bb5-4dc6-a866-79a190690844","system_id":"levelo_inurba_marseille","lat":43.301117,"lon":5.398795,"is_reserved":false,"is_disabled":false,"rental_uris":{"android":"levelo://app?vid=66dfcbf6-6bb5-4dc6-a866-79a190690844","ios":"levelo://app?vid=66dfcbf6-6bb5-4dc6-a866-79a190690844"},"vehicle_type_id":"4","last_reported":1724080099,"current_range_meters":30400,"station_id":"ce4bh0h2rcd13ifvqd40","pricing_plan_id":"cebpf4jnsgd1na2vs0mg"},{"bike_id":"a6d345e8-da28-4495-b9ab-25d5301582f2","system_id":"levelo_inurba_marseille","lat":43.301117,"lon":5.398795,"is_reserved":false,"is_disabled":false,"rental_uris":{"android":"levelo://app?vid=a6d345e8-da28-4495-b9ab-25d5301582f2","ios":"levelo://app?vid=a6d345e8-da28-4495-b9ab-25d5301582f2"},"vehicle_type_id":"4","last_reported":1724080099,"current_range_meters":23200,"station_id":"ce4bh0h2rcd13ifvqd40","pricing_plan_id":"cebpf4jnsgd1na2vs0mg"},{"bike_id":"8304788a-19ce-48d4-a7f7-0907c167a89f","system_id":"levelo_inurba_marseille","lat":43.301117,"lon":5.398795,"is_reserved":false,"is_disabled":false,"rental_uris":{"android":"levelo://app?vid=8304788a-19ce-48d4-a7f7-0907c167a89f","ios":"levelo://app?vid=8304788a-19ce-48d4-a7f7-0907c167a89f"},"vehicle_type_id":"4","last_reported":1724080099,"current_range_meters":18400,"station_id":"ce4bh0h2rcd13ifvqd40","pricing_plan_id":"cebpf4jnsgd1na2vs0mg"},{"bike_id":"37737e76-8f49-49a7-b4f1-7f34ff621794","system_id":"levelo_inurba_marseille","lat":43.301117,"lon":5.398795,"is_reserved":false,"is_disabled":false,"rental_uris":{"android":"levelo://app?vid=37737e76-8f49-49a7-b4f1-7f34ff621794","ios":"levelo://app?vid=37737e76-8f49-49a7-b4f1-7f34ff621794"},"vehicle_type_id":"4","last_reported":1724080099,"current_range_meters":6000,"station_id":"ce4bh0h2rcd13ifvqd40","pricing_plan_id":"cebpf4jnsgd1na2vs0mg"},{"bike_id":"07a14048-bff2-45eb-85da-45adfb2d9253","system_id":"levelo_inurba_marseille","lat":43.301117,"lon":5.398795,"is_reserved":false,"is_disabled":false,"rental_uris":{"android":"levelo://app?vid=07a14048-bff2-45eb-85da-45adfb2d9253","ios":"levelo://app?vid=07a14048-bff2-45eb-85da-45adfb2d9253"},"vehicle_type_id":"4","last_reported":1724080099,"current_range_meters":30000,"station_id":"ce4bh0h2rcd13ifvqd40","pricing_plan_id":"cebpf4jnsgd1na2vs0mg"},{"bike_id":"8ff564fa-d930-4bd0-bb02-20ac754a0fec","system_id":"levelo_inurba_marseille","lat":43.301117,"lon":5.398795,"is_reserved":false,"is_disabled":false,"rental_uris":{"android":"levelo://app?vid=8ff564fa-d930-4bd0-bb02-20ac754a0fec","ios":"levelo://app?vid=8ff564fa-d930-4bd0-bb02-20ac754a0fec"},"vehicle_type_id":"4","last_reported":1724080099,"current_range_meters":12000,"station_id":"ce4bh0h2rcd13ifvqd40","pricing_plan_id":"cebpf4jnsgd1na2vs0mg"},{"bike_id":"020ee19a-36f5-4775-848f-b3f0f1d6bc84","system_id":"levelo_inurba_marseille","lat":43.28727,"lon":5.36078,"is_reserved":false,"is_disabled":false,"rental_uris":{"android":"levelo://app?vid=020ee19a-36f5-4775-848f-b3f0f1d6bc84","ios":"levelo://app?vid=020ee19a-36f5-4775-848f-b3f0f1d6bc84"},"vehicle_type_id":"4","last_reported":1724080099,"current_range_meters":18000,"station_id":"cki0cbj6b192h4jlfktg","pricing_plan_id":"cebpf4jnsgd1na2vs0mg"},{"bike_id":"d3d94d2f-9c75-4788-a8f6-9650ebc5d709","system_id":"levelo_inurba_marseille","lat":43.298681,"lon":5.397225,"is_reserved":false,"is_disabled":false,"rental_uris":{"android":"levelo://app?vid=d3d94d2f-9c75-4788-a8f6-9650ebc5d709","ios":"levelo://app?vid=d3d94d2f-9c75-4788-a8f6-9650ebc5d709"},"vehicle_type_id":"4","last_reported":1724080099,"current_range_meters":28000,"station_id":"ce4bh0h2rcd13ifvqd50","pricing_plan_id":"cebpf4jnsgd1na2vs0mg"},{"bike_id":"6881a6d0-eaec-42d9-bc22-c9d8e06ff116","system_id":"levelo_inurba_marseille","lat":43.287215,"lon":5.3588,"is_reserved":false,"is_disabled":false,"rental_uris":{"android":"levelo://app?vid=6881a6d0-eaec-42d9-bc22-c9d8e06ff116","ios":"levelo://app?vid=6881a6d0-eaec-42d9-bc22-c9d8e06ff116"},"vehicle_type_id":"4","last_reported":1724080099,"current_range_meters":21200,"station_id":"ce4bhch2rcd13ifvqeug","pricing_plan_id":"cebpf4jnsgd1na2vs0mg"},{"bike_id":"07f67ffe-7980-469e-ab88-6eb71c7059ce","system_id":"levelo_inurba_marseille","lat":43.286961,"lon":5.373785,"is_reserved":false,"is_disabled":false,"rental_uris":{"android":"levelo://app?vid=07f67ffe-7980-469e-ab88-6eb71c7059ce","ios":"levelo://app?vid=07f67ffe-7980-469e-ab88-6eb71c7059ce"},"vehicle_type_id":"4","last_reported":1724080099,"current_range_meters":0,"station_id":"ce4bh3p2rcd13ifvqdq0","pricing_plan_id":"cebpf4jnsgd1na2vs0mg"},{"bike_id":"1d4cdcf9-b6da-42cc-b6c4-714ff44b1c60","system_id":"levelo_inurba_marseille","lat":43.286961,"lon":5.373785,"is_reserved":false,"is_disabled":false,"rental_uris":{"android":"levelo://app?vid=1d4cdcf9-b6da-42cc-b6c4-714ff44b1c60","ios":"levelo://app?vid=1d4cdcf9-b6da-42cc-b6c4-714ff44b1c60"},"vehicle_type_id":"4","last_reported":1724080099,"current_range_meters":20800,"station_id":"ce4bh3p2rcd13ifvqdq0","pricing_plan_id":"cebpf4jnsgd1na2vs0mg"},{"bike_id":"f114d0da-ea99-4908-bd5c-92c6a62ff0af","system_id":"levelo_inurba_marseille","lat":43.290336,"lon":5.386425,"is_reserved":false,"is_disabled":false,"rental_uris":{"android":"levelo://app?vid=f114d0da-ea99-4908-bd5c-92c6a62ff0af","ios":"levelo://app?vid=f114d0da-ea99-4908-bd5c-92c6a62ff0af"},"vehicle_type_id":"4","last_reported":1724080099,"current_range_meters":4000,"station_id":"ce4bh4p2rcd13ifvqe0g","pricing_plan_id":"cebpf4jnsgd1na2vs0mg"},{"bike_id":"17abeb95-8320-41c3-8325-2ae962780ce2","system_id":"levelo_inurba_marseille","lat":43.290336,"lon":5.386425,"is_reserved":false,"is_disabled":false,"rental_uris":{"android":"levelo://app?vid=17abeb95-8320-41c3-8325-2ae962780ce2","ios":"levelo://app?vid=17abeb95-8320-41c3-8325-2ae962780ce2"},"vehicle_type_id":"4","last_reported":1724080099,"current_range_meters":20000,"station_id":"ce4bh4p2rcd13ifvqe0g","pricing_plan_id":"cebpf4jnsgd1na2vs0mg"},{"bike_id":"2fb9aa99-4baf-48db-82a3-40c18d9d2612","system_id":"levelo_inurba_marseille","lat":43.302759,"lon":5.400793,"is_reserved":false,"is_disabled":false,"rental_uris":{"android":"levelo://app?vid=2fb9aa99-4baf-48db-82a3-40c18d9d2612","ios":"levelo://app?vid=2fb9aa99-4baf-48db-82a3-40c18d9d2612"},"vehicle_type_id":"4","last_reported":1724080099,"current_range_meters":30400,"station_id":"ce4bgvh2rcd13ifvqcs0","pricing_plan_id":"cebpf4jnsgd1na2vs0mg"},{"bike_id":"ae7af521-1e92-441a-8741-349ac1e85b6a","system_id":"levelo_inurba_marseille","lat":43.302759,"lon":5.400793,"is_reserved":false,"is_disabled":false,"rental_uris":{"android":"levelo://app?vid=ae7af521-1e92-441a-8741-349ac1e85b6a","ios":"levelo://app?vid=ae7af521-1e92-441a-8741-349ac1e85b6a"},"vehicle_type_id":"4","last_reported":1724080099,"current_range_meters":14000,"station_id":"ce4bgvh2rcd13ifvqcs0","pricing_plan_id":"cebpf4jnsgd1na2vs0mg"},{"bike_id":"5fb61614-9d91-4805-9bd7-97ec54081b94","system_id":"levelo_inurba_marseille","lat":43.302759,"lon":5.400793,"is_reserved":false,"is_disabled":false,"rental_uris":{"android":"levelo://app?vid=5fb61614-9d91-4805-9bd7-97ec54081b94","ios":"levelo://app?vid=5fb61614-9d91-4805-9bd7-97ec54081b94"},"vehicle_type_id":"4","last_reported":1724080099,"current_range_meters":5600,"station_id":"ce4bgvh2rcd13ifvqcs0","pricing_plan_id":"cebpf4jnsgd1na2vs0mg"},{"bike_id":"6a66d19d-a0a2-40c3-b9c3-162075a8ec8a","system_id":"levelo_inurba_marseille","lat":43.286039,"lon":5.370679,"is_reserved":false,"is_disabled":false,"rental_uris":{"android":"levelo://app?vid=6a66d19d-a0a2-40c3-b9c3-162075a8ec8a","ios":"levelo://app?vid=6a66d19d-a0a2-40c3-b9c3-162075a8ec8a"},"vehicle_type_id":"4","last_reported":1724080099,"current_range_meters":16000,"station_id":"ce4bht12rcd13ifvqi60","pricing_plan_id":"cebpf4jnsgd1na2vs0mg"},{"bike_id":"900f09cf-821f-43c8-9533-322a27ae3b99","system_id":"levelo_inurba_marseille","lat":43.28612,"lon":5.37064,"is_reserved":false,"is_disabled":false,"rental_uris":{"android":"levelo://app?vid=900f09cf-821f-43c8-9533-322a27ae3b99","ios":"levelo://app?vid=900f09cf-821f-43c8-9533-322a27ae3b99"},"vehicle_type_id":"4","last_reported":1724080099,"current_range_meters":0,"station_id":"ce4bht12rcd13ifvqi60","pricing_plan_id":"cebpf4jnsgd1na2vs0mg"},{"bike_id":"ae154d6e-9c85-4c78-b9db-f9e4ba329c09","system_id":"levelo_inurba_marseille","lat":43.286039,"lon":5.370679,"is_reserved":false,"is_disabled":false,"rental_uris":{"android":"levelo://app?vid=ae154d6e-9c85-4c78-b9db-f9e4ba329c09","ios":"levelo://app?vid=ae154d6e-9c85-4c78-b9db-f9e4ba329c09"},"vehicle_type_id":"4","last_reported":1724080099,"current_range_meters":6400,"station_id":"ce4bht12rcd13ifvqi60","pricing_plan_id":"cebpf4jnsgd1na2vs0mg"},{"bike_id":"b6991a5b-a4b2-4412-b269-dc5db63d1b73","system_id":"levelo_inurba_marseille","lat":43.28609,"lon":5.37063,"is_reserved":false,"is_disabled":false,"rental_uris":{"android":"levelo://app?vid=b6991a5b-a4b2-4412-b269-dc5db63d1b73","ios":"levelo://app?vid=b6991a5b-a4b2-4412-b269-dc5db63d1b73"},"vehicle_type_id":"4","last_reported":1724080099,"current_range_meters":0,"station_id":"ce4bht12rcd13ifvqi60","pricing_plan_id":"cebpf4jnsgd1na2vs0mg"},{"bike_id":"bc64b6c7-2861-4095-b98b-7e140831cb95","system_id":"levelo_inurba_marseille","lat":43.287184,"lon":5.37937,"is_reserved":false,"is_disabled":false,"rental_uris":{"android":"levelo://app?vid=bc64b6c7-2861-4095-b98b-7e140831cb95","ios":"levelo://app?vid=bc64b6c7-2861-4095-b98b-7e140831cb95"},"vehicle_type_id":"4","last_reported":1724080099,"current_range_meters":0,"station_id":"ce4bh9p2rcd13ifvqec0","pricing_plan_id":"cebpf4jnsgd1na2vs0mg"},{"bike_id":"4983168b-1b3e-4083-8542-2298e6a415d7","system_id":"levelo_inurba_marseille","lat":43.287184,"lon":5.37937,"is_reserved":false,"is_disabled":false,"rental_uris":{"android":"levelo://app?vid=4983168b-1b3e-4083-8542-2298e6a415d7","ios":"levelo://app?vid=4983168b-1b3e-4083-8542-2298e6a415d7"},"vehicle_type_id":"4","last_reported":1724080099,"current_range_meters":15200,"station_id":"ce4bh9p2rcd13ifvqec0","pricing_plan_id":"cebpf4jnsgd1na2vs0mg"},{"bike_id":"fdf53517-72b2-4d35-94b5-07ebd9310205","system_id":"levelo_inurba_marseille","lat":43.287184,"lon":5.37937,"is_reserved":false,"is_disabled":false,"rental_uris":{"android":"levelo://app?vid=fdf53517-72b2-4d35-94b5-07ebd9310205","ios":"levelo://app?vid=fdf53517-72b2-4d35-94b5-07ebd9310205"},"vehicle_type_id":"4","last_reported":1724080099,"current_range_meters":14400,"station_id":"ce4bh9p2rcd13ifvqec0","pricing_plan_id":"cebpf4jnsgd1na2vs0mg"},{"bike_id":"8a7dd363-4797-4925-b20c-1e03aa6cffbf","system_id":"levelo_inurba_marseille","lat":43.28719,"lon":5.37937,"is_reserved":false,"is_disabled":false,"rental_uris":{"android":"levelo://app?vid=8a7dd363-4797-4925-b20c-1e03aa6cffbf","ios":"levelo://app?vid=8a7dd363-4797-4925-b20c-1e03aa6cffbf"},"vehicle_type_id":"4","last_reported":1724080099,"current_range_meters":0,"station_id":"ce4bh9p2rcd13ifvqec0","pricing_plan_id":"cebpf4jnsgd1na2vs0mg"},{"bike_id":"5de004a5-2659-4d94-96f8-120d46d0f6f2","system_id":"levelo_inurba_marseille","lat":43.287184,"lon":5.37937,"is_reserved":false,"is_disabled":false,"rental_uris":{"android":"levelo://app?vid=5de004a5-2659-4d94-96f8-120d46d0f6f2","ios":"levelo://app?vid=5de004a5-2659-4d94-96f8-120d46d0f6f2"},"vehicle_type_id":"4","last_reported":1724080099,"current_range_meters":6400,"station_id":"ce4bh9p2rcd13ifvqec0","pricing_plan_id":"cebpf4jnsgd1na2vs0mg"},{"bike_id":"26547fd0-1313-4f45-9de1-6c6c53e46b8c","system_id":"levelo_inurba_marseille","lat":43.316828,"lon":5.404723,"is_reserved":false,"is_disabled":false,"rental_uris":{"android":"levelo://app?vid=26547fd0-1313-4f45-9de1-6c6c53e46b8c","ios":"levelo://app?vid=26547fd0-1313-4f45-9de1-6c6c53e46b8c"},"vehicle_type_id":"4","last_reported":1724080099,"current_range_meters":26800,"station_id":"ce4bh012rcd13ifvqd00","pricing_plan_id":"cebpf4jnsgd1na2vs0mg"},{"bike_id":"5a9c7d53-31cd-4440-96aa-b0c226250d2e","system_id":"levelo_inurba_marseille","lat":43.291994,"lon":5.392907,"is_reserved":false,"is_disabled":false,"rental_uris":{"android":"levelo://app?vid=5a9c7d53-31cd-4440-96aa-b0c226250d2e","ios":"levelo://app?vid=5a9c7d53-31cd-4440-96aa-b0c226250d2e"},"vehicle_type_id":"4","last_reported":1724080099,"current_range_meters":27600,"station_id":"ce4bh192rcd13ifvqdd0","pricing_plan_id":"cebpf4jnsgd1na2vs0mg"},{"bike_id":"e13f3dbd-a31e-4e6b-8fbf-ace055ca07e3","system_id":"levelo_inurba_marseille","lat":43.285013,"lon":5.35966,"is_reserved":false,"is_disabled":false,"rental_uris":{"android":"levelo://app?vid=e13f3dbd-a31e-4e6b-8fbf-ace055ca07e3","ios":"levelo://app?vid=e13f3dbd-a31e-4e6b-8fbf-ace055ca07e3"},"vehicle_type_id":"4","last_reported":1724080099,"current_range_meters":12400,"station_id":"","pricing_plan_id":"cebpf4jnsgd1na2vs0mg"},{"bike_id":"9d310d34-cb0b-4910-b80c-8f1c20e81022","system_id":"levelo_inurba_marseille","lat":43.291994,"lon":5.392907,"is_reserved":false,"is_disabled":false,"rental_uris":{"android":"levelo://app?vid=9d310d34-cb0b-4910-b80c-8f1c20e81022","ios":"levelo://app?vid=9d310d34-cb0b-4910-b80c-8f1c20e81022"},"vehicle_type_id":"4","last_reported":1724080099,"current_range_meters":18800,"station_id":"ce4bh192rcd13ifvqdd0","pricing_plan_id":"cebpf4jnsgd1na2vs0mg"},{"bike_id":"8e210c1b-aa2c-40f9-bd0e-57e820476ff0","system_id":"levelo_inurba_marseille","lat":43.291994,"lon":5.392907,"is_reserved":false,"is_disabled":false,"rental_uris":{"android":"levelo://app?vid=8e210c1b-aa2c-40f9-bd0e-57e820476ff0","ios":"levelo://app?vid=8e210c1b-aa2c-40f9-bd0e-57e820476ff0"},"vehicle_type_id":"4","last_reported":1724080099,"current_range_meters":18800,"station_id":"ce4bh192rcd13ifvqdd0","pricing_plan_id":"cebpf4jnsgd1na2vs0mg"},{"bike_id":"cc7dba49-b6bf-4e9f-889c-14d8236bbc23","system_id":"levelo_inurba_marseille","lat":43.294314,"lon":5.397498,"is_reserved":false,"is_disabled":false,"rental_uris":{"android":"levelo://app?vid=cc7dba49-b6bf-4e9f-889c-14d8236bbc23","ios":"levelo://app?vid=cc7dba49-b6bf-4e9f-889c-14d8236bbc23"},"vehicle_type_id":"4","last_reported":1724080099,"current_range_meters":6400,"station_id":"ce4bh3h2rcd13ifvqdo0","pricing_plan_id":"cebpf4jnsgd1na2vs0mg"},{"bike_id":"88b31e86-4ac8-474e-8b3a-4bf1178b3c05","system_id":"levelo_inurba_marseille","lat":43.284538,"lon":5.358657,"is_reserved":false,"is_disabled":false,"rental_uris":{"android":"levelo://app?vid=88b31e86-4ac8-474e-8b3a-4bf1178b3c05","ios":"levelo://app?vid=88b31e86-4ac8-474e-8b3a-4bf1178b3c05"},"vehicle_type_id":"4","last_reported":1724080099,"current_range_meters":27200,"station_id":"ce4bhah2rcd13ifvqei0","pricing_plan_id":"cebpf4jnsgd1na2vs0mg"},{"bike_id":"cda615ea-4c54-4cdd-8d0b-bef23b0ac180","system_id":"levelo_inurba_marseille","lat":43.284538,"lon":5.358657,"is_reserved":false,"is_disabled":false,"rental_uris":{"android":"levelo://app?vid=cda615ea-4c54-4cdd-8d0b-bef23b0ac180","ios":"levelo://app?vid=cda615ea-4c54-4cdd-8d0b-bef23b0ac180"},"vehicle_type_id":"4","last_reported":1724080099,"current_range_meters":14000,"station_id":"ce4bhah2rcd13ifvqei0","pricing_plan_id":"cebpf4jnsgd1na2vs0mg"},{"bike_id":"711dbaad-e384-4323-a6d5-ffd0e074a57b","system_id":"levelo_inurba_marseille","lat":43.284538,"lon":5.358657,"is_reserved":false,"is_disabled":false,"rental_uris":{"android":"levelo://app?vid=711dbaad-e384-4323-a6d5-ffd0e074a57b","ios":"levelo://app?vid=711dbaad-e384-4323-a6d5-ffd0e074a57b"},"vehicle_type_id":"4","last_reported":1724080099,"current_range_meters":23200,"station_id":"ce4bhah2rcd13ifvqei0","pricing_plan_id":"cebpf4jnsgd1na2vs0mg"},{"bike_id":"a2e4904c-bafe-4bb7-9eb7-8920685e3992","system_id":"levelo_inurba_marseille","lat":43.284534,"lon":5.358662,"is_reserved":false,"is_disabled":false,"rental_uris":{"android":"levelo://app?vid=a2e4904c-bafe-4bb7-9eb7-8920685e3992","ios":"levelo://app?vid=a2e4904c-bafe-4bb7-9eb7-8920685e3992"},"vehicle_type_id":"4","last_reported":1724080099,"current_range_meters":31200,"station_id":"ce4bhah2rcd13ifvqei0","pricing_plan_id":"cebpf4jnsgd1na2vs0mg"},{"bike_id":"2f586d8a-afee-44dc-b5a1-6a0a6cfb1416","system_id":"levelo_inurba_marseille","lat":43.284538,"lon":5.358657,"is_reserved":false,"is_disabled":false,"rental_uris":{"android":"levelo://app?vid=2f586d8a-afee-44dc-b5a1-6a0a6cfb1416","ios":"levelo://app?vid=2f586d8a-afee-44dc-b5a1-6a0a6cfb1416"},"vehicle_type_id":"4","last_reported":1724080099,"current_range_meters":19200,"station_id":"ce4bhah2rcd13ifvqei0","pricing_plan_id":"cebpf4jnsgd1na2vs0mg"},{"bike_id":"bf1c0933-bd6c-4c60-b601-63a6142565ff","system_id":"levelo_inurba_marseille","lat":43.28624,"lon":5.35109,"is_reserved":false,"is_disabled":false,"rental_uris":{"android":"levelo://app?vid=bf1c0933-bd6c-4c60-b601-63a6142565ff","ios":"levelo://app?vid=bf1c0933-bd6c-4c60-b601-63a6142565ff"},"vehicle_type_id":"4","last_reported":1724080099,"current_range_meters":31200,"station_id":"ce4bhch2rcd13ifvqeug","pricing_plan_id":"cebpf4jnsgd1na2vs0mg"},{"bike_id":"d2435045-89d6-45c2-aa18-8562a28bc6ef","system_id":"levelo_inurba_marseille","lat":43.28623,"lon":5.35112,"is_reserved":false,"is_disabled":false,"rental_uris":{"android":"levelo://app?vid=d2435045-89d6-45c2-aa18-8562a28bc6ef","ios":"levelo://app?vid=d2435045-89d6-45c2-aa18-8562a28bc6ef"},"vehicle_type_id":"4","last_reported":1724080099,"current_range_meters":0,"station_id":"ce4bhch2rcd13ifvqeug","pricing_plan_id":"cebpf4jnsgd1na2vs0mg"},{"bike_id":"9dbdfeb5-f915-4e4f-962e-b0f3aad93307","system_id":"levelo_inurba_marseille","lat":43.28624,"lon":5.35102,"is_reserved":false,"is_disabled":false,"rental_uris":{"android":"levelo://app?vid=9dbdfeb5-f915-4e4f-962e-b0f3aad93307","ios":"levelo://app?vid=9dbdfeb5-f915-4e4f-962e-b0f3aad93307"},"vehicle_type_id":"4","last_reported":1724080099,"current_range_meters":22800,"station_id":"ce4bhch2rcd13ifvqeug","pricing_plan_id":"cebpf4jnsgd1na2vs0mg"},{"bike_id":"692b1280-c872-43e3-95b0-210923b1c01d","system_id":"levelo_inurba_marseille","lat":43.2862,"lon":5.35109,"is_reserved":false,"is_disabled":false,"rental_uris":{"android":"levelo://app?vid=692b1280-c872-43e3-95b0-210923b1c01d","ios":"levelo://app?vid=692b1280-c872-43e3-95b0-210923b1c01d"},"vehicle_type_id":"4","last_reported":1724080099,"current_range_meters":5200,"station_id":"ce4bhch2rcd13ifvqeug","pricing_plan_id":"cebpf4jnsgd1na2vs0mg"},{"bike_id":"e1f3378e-6394-4978-bc55-6a9e46ec6efb","system_id":"levelo_inurba_marseille","lat":43.2862,"lon":5.35109,"is_reserved":false,"is_disabled":false,"rental_uris":{"android":"levelo://app?vid=e1f3378e-6394-4978-bc55-6a9e46ec6efb","ios":"levelo://app?vid=e1f3378e-6394-4978-bc55-6a9e46ec6efb"},"vehicle_type_id":"4","last_reported":1724080099,"current_range_meters":2000,"station_id":"ce4bhch2rcd13ifvqeug","pricing_plan_id":"cebpf4jnsgd1na2vs0mg"},{"bike_id":"d7a7af95-5041-426d-9dc4-261ac3b3cd53","system_id":"levelo_inurba_marseille","lat":43.2862,"lon":5.35104,"is_reserved":false,"is_disabled":false,"rental_uris":{"android":"levelo://app?vid=d7a7af95-5041-426d-9dc4-261ac3b3cd53","ios":"levelo://app?vid=d7a7af95-5041-426d-9dc4-261ac3b3cd53"},"vehicle_type_id":"4","last_reported":1724080099,"current_range_meters":20800,"station_id":"ce4bhch2rcd13ifvqeug","pricing_plan_id":"cebpf4jnsgd1na2vs0mg"},{"bike_id":"034e01db-e2ff-41d3-990c-6264bf016edd","system_id":"levelo_inurba_marseille","lat":43.28619,"lon":5.35106,"is_reserved":false,"is_disabled":false,"rental_uris":{"android":"levelo://app?vid=034e01db-e2ff-41d3-990c-6264bf016edd","ios":"levelo://app?vid=034e01db-e2ff-41d3-990c-6264bf016edd"},"vehicle_type_id":"4","last_reported":1724080099,"current_range_meters":21200,"station_id":"ce4bhch2rcd13ifvqeug","pricing_plan_id":"cebpf4jnsgd1na2vs0mg"},{"bike_id":"ebe6c1ee-32af-4606-847e-85a10568f432","system_id":"levelo_inurba_marseille","lat":43.28618,"lon":5.35109,"is_reserved":false,"is_disabled":false,"rental_uris":{"android":"levelo://app?vid=ebe6c1ee-32af-4606-847e-85a10568f432","ios":"levelo://app?vid=ebe6c1ee-32af-4606-847e-85a10568f432"},"vehicle_type_id":"4","last_reported":1724080099,"current_range_meters":31200,"station_id":"ce4bhch2rcd13ifvqeug","pricing_plan_id":"cebpf4jnsgd1na2vs0mg"},{"bike_id":"af030742-668c-4054-8db4-3ff90f86b69c","system_id":"levelo_inurba_marseille","lat":43.28617,"lon":5.35111,"is_reserved":false,"is_disabled":false,"rental_uris":{"android":"levelo://app?vid=af030742-668c-4054-8db4-3ff90f86b69c","ios":"levelo://app?vid=af030742-668c-4054-8db4-3ff90f86b69c"},"vehicle_type_id":"4","last_reported":1724080099,"current_range_meters":21200,"station_id":"ce4bhch2rcd13ifvqeug","pricing_plan_id":"cebpf4jnsgd1na2vs0mg"},{"bike_id":"256f0fb6-e883-4d05-ad23-faaf3a3d0c7e","system_id":"levelo_inurba_marseille","lat":43.28617,"lon":5.35109,"is_reserved":false,"is_disabled":false,"rental_uris":{"android":"levelo://app?vid=256f0fb6-e883-4d05-ad23-faaf3a3d0c7e","ios":"levelo://app?vid=256f0fb6-e883-4d05-ad23-faaf3a3d0c7e"},"vehicle_type_id":"4","last_reported":1724080099,"current_range_meters":10000,"station_id":"ce4bhch2rcd13ifvqeug","pricing_plan_id":"cebpf4jnsgd1na2vs0mg"},{"bike_id":"4c2846ff-0751-4d25-9a93-f94e665f749c","system_id":"levelo_inurba_marseille","lat":43.28618,"lon":5.35104,"is_reserved":false,"is_disabled":false,"rental_uris":{"android":"levelo://app?vid=4c2846ff-0751-4d25-9a93-f94e665f749c","ios":"levelo://app?vid=4c2846ff-0751-4d25-9a93-f94e665f749c"},"vehicle_type_id":"4","last_reported":1724080099,"current_range_meters":9200,"station_id":"ce4bhch2rcd13ifvqeug","pricing_plan_id":"cebpf4jnsgd1na2vs0mg"},{"bike_id":"c91f4265-f2cf-4662-8034-39a0663d0517","system_id":"levelo_inurba_marseille","lat":43.28617,"lon":5.35107,"is_reserved":false,"is_disabled":false,"rental_uris":{"android":"levelo://app?vid=c91f4265-f2cf-4662-8034-39a0663d0517","ios":"levelo://app?vid=c91f4265-f2cf-4662-8034-39a0663d0517"},"vehicle_type_id":"4","last_reported":1724080099,"current_range_meters":18800,"station_id":"ce4bhch2rcd13ifvqeug","pricing_plan_id":"cebpf4jnsgd1na2vs0mg"},{"bike_id":"3c30841a-68aa-4e15-9788-aa7069d0a569","system_id":"levelo_inurba_marseille","lat":43.28617,"lon":5.35107,"is_reserved":false,"is_disabled":false,"rental_uris":{"android":"levelo://app?vid=3c30841a-68aa-4e15-9788-aa7069d0a569","ios":"levelo://app?vid=3c30841a-68aa-4e15-9788-aa7069d0a569"},"vehicle_type_id":"4","last_reported":1724080099,"current_range_meters":11600,"station_id":"ce4bhch2rcd13ifvqeug","pricing_plan_id":"cebpf4jnsgd1na2vs0mg"},{"bike_id":"8767516d-f75d-482b-a8a0-78b78df13d44","system_id":"levelo_inurba_marseille","lat":43.28617,"lon":5.35107,"is_reserved":false,"is_disabled":false,"rental_uris":{"android":"levelo://app?vid=8767516d-f75d-482b-a8a0-78b78df13d44","ios":"levelo://app?vid=8767516d-f75d-482b-a8a0-78b78df13d44"},"vehicle_type_id":"4","last_reported":1724080099,"current_range_meters":8400,"station_id":"ce4bhch2rcd13ifvqeug","pricing_plan_id":"cebpf4jnsgd1na2vs0mg"},{"bike_id":"846d336f-9c4d-4baa-89ae-8ef533c05655","system_id":"levelo_inurba_marseille","lat":43.28617,"lon":5.35106,"is_reserved":false,"is_disabled":false,"rental_uris":{"android":"levelo://app?vid=846d336f-9c4d-4baa-89ae-8ef533c05655","ios":"levelo://app?vid=846d336f-9c4d-4baa-89ae-8ef533c05655"},"vehicle_type_id":"4","last_reported":1724080099,"current_range_meters":16800,"station_id":"ce4bhch2rcd13ifvqeug","pricing_plan_id":"cebpf4jnsgd1na2vs0mg"},{"bike_id":"ccc467f7-5ac2-4210-b44f-9d89cc451c86","system_id":"levelo_inurba_marseille","lat":43.28617,"lon":5.35105,"is_reserved":false,"is_disabled":false,"rental_uris":{"android":"levelo://app?vid=ccc467f7-5ac2-4210-b44f-9d89cc451c86","ios":"levelo://app?vid=ccc467f7-5ac2-4210-b44f-9d89cc451c86"},"vehicle_type_id":"4","last_reported":1724080099,"current_range_meters":14400,"station_id":"ce4bhch2rcd13ifvqeug","pricing_plan_id":"cebpf4jnsgd1na2vs0mg"},{"bike_id":"dd2d679a-ef3e-4616-98dd-c9b572506801","system_id":"levelo_inurba_marseille","lat":43.28614,"lon":5.351138,"is_reserved":false,"is_disabled":false,"rental_uris":{"android":"levelo://app?vid=dd2d679a-ef3e-4616-98dd-c9b572506801","ios":"levelo://app?vid=dd2d679a-ef3e-4616-98dd-c9b572506801"},"vehicle_type_id":"4","last_reported":1724080099,"current_range_meters":3600,"station_id":"","pricing_plan_id":"cebpf4jnsgd1na2vs0mg"},{"bike_id":"71d2098a-d835-449f-b148-5aa3a79cd998","system_id":"levelo_inurba_marseille","lat":43.28618,"lon":5.351,"is_reserved":false,"is_disabled":false,"rental_uris":{"android":"levelo://app?vid=71d2098a-d835-449f-b148-5aa3a79cd998","ios":"levelo://app?vid=71d2098a-d835-449f-b148-5aa3a79cd998"},"vehicle_type_id":"4","last_reported":1724080099,"current_range_meters":16800,"station_id":"ce4bhch2rcd13ifvqeug","pricing_plan_id":"cebpf4jnsgd1na2vs0mg"},{"bike_id":"fa93ff01-70a5-46b1-aacf-3f4219fef6e7","system_id":"levelo_inurba_marseille","lat":43.28617,"lon":5.35103,"is_reserved":false,"is_disabled":false,"rental_uris":{"android":"levelo://app?vid=fa93ff01-70a5-46b1-aacf-3f4219fef6e7","ios":"levelo://app?vid=fa93ff01-70a5-46b1-aacf-3f4219fef6e7"},"vehicle_type_id":"4","last_reported":1724080099,"current_range_meters":30000,"station_id":"ce4bhch2rcd13ifvqeug","pricing_plan_id":"cebpf4jnsgd1na2vs0mg"},{"bike_id":"b245620c-806b-4144-ab91-77a133e235a5","system_id":"levelo_inurba_marseille","lat":43.28616,"lon":5.35106,"is_reserved":false,"is_disabled":false,"rental_uris":{"android":"levelo://app?vid=b245620c-806b-4144-ab91-77a133e235a5","ios":"levelo://app?vid=b245620c-806b-4144-ab91-77a133e235a5"},"vehicle_type_id":"4","last_reported":1724080099,"current_range_meters":20800,"station_id":"ce4bhch2rcd13ifvqeug","pricing_plan_id":"cebpf4jnsgd1na2vs0mg"},{"bike_id":"45ac114b-c75e-4af3-971c-9b06ad78da97","system_id":"levelo_inurba_marseille","lat":43.285856,"lon":5.350771,"is_reserved":false,"is_disabled":false,"rental_uris":{"android":"levelo://app?vid=45ac114b-c75e-4af3-971c-9b06ad78da97","ios":"levelo://app?vid=45ac114b-c75e-4af3-971c-9b06ad78da97"},"vehicle_type_id":"4","last_reported":1724080099,"current_range_meters":30400,"station_id":"ce4bhch2rcd13ifvqeug","pricing_plan_id":"cebpf4jnsgd1na2vs0mg"},{"bike_id":"2ca99bf2-189a-490c-9c63-701db2fd5fb1","system_id":"levelo_inurba_marseille","lat":43.28616,"lon":5.35105,"is_reserved":false,"is_disabled":false,"rental_uris":{"android":"levelo://app?vid=2ca99bf2-189a-490c-9c63-701db2fd5fb1","ios":"levelo://app?vid=2ca99bf2-189a-490c-9c63-701db2fd5fb1"},"vehicle_type_id":"4","last_reported":1724080099,"current_range_meters":0,"station_id":"ce4bhch2rcd13ifvqeug","pricing_plan_id":"cebpf4jnsgd1na2vs0mg"},{"bike_id":"95baca7c-99bd-4edd-a20f-2664e7df844b","system_id":"levelo_inurba_marseille","lat":43.28617,"lon":5.35101,"is_reserved":false,"is_disabled":false,"rental_uris":{"android":"levelo://app?vid=95baca7c-99bd-4edd-a20f-2664e7df844b","ios":"levelo://app?vid=95baca7c-99bd-4edd-a20f-2664e7df844b"},"vehicle_type_id":"4","last_reported":1724080099,"current_range_meters":4400,"station_id":"ce4bhch2rcd13ifvqeug","pricing_plan_id":"cebpf4jnsgd1na2vs0mg"},{"bike_id":"d6dfc70e-a93f-4ec9-ba6b-3b70dd0d89f8","system_id":"levelo_inurba_marseille","lat":43.28615,"lon":5.35105,"is_reserved":false,"is_disabled":false,"rental_uris":{"android":"levelo://app?vid=d6dfc70e-a93f-4ec9-ba6b-3b70dd0d89f8","ios":"levelo://app?vid=d6dfc70e-a93f-4ec9-ba6b-3b70dd0d89f8"},"vehicle_type_id":"4","last_reported":1724080099,"current_range_meters":16800,"station_id":"ce4bhch2rcd13ifvqeug","pricing_plan_id":"cebpf4jnsgd1na2vs0mg"},{"bike_id":"8f7ed6a9-d810-42df-aeca-0384469fb82b","system_id":"levelo_inurba_marseille","lat":43.28614,"lon":5.35108,"is_reserved":false,"is_disabled":false,"rental_uris":{"android":"levelo://app?vid=8f7ed6a9-d810-42df-aeca-0384469fb82b","ios":"levelo://app?vid=8f7ed6a9-d810-42df-aeca-0384469fb82b"},"vehicle_type_id":"4","last_reported":1724080099,"current_range_meters":14800,"station_id":"ce4bhch2rcd13ifvqeug","pricing_plan_id":"cebpf4jnsgd1na2vs0mg"},{"bike_id":"34bdda58-d9e3-475b-b9eb-efbe6c9c8ca0","system_id":"levelo_inurba_marseille","lat":43.28615,"lon":5.35104,"is_reserved":false,"is_disabled":false,"rental_uris":{"android":"levelo://app?vid=34bdda58-d9e3-475b-b9eb-efbe6c9c8ca0","ios":"levelo://app?vid=34bdda58-d9e3-475b-b9eb-efbe6c9c8ca0"},"vehicle_type_id":"4","last_reported":1724080099,"current_range_meters":23600,"station_id":"ce4bhch2rcd13ifvqeug","pricing_plan_id":"cebpf4jnsgd1na2vs0mg"},{"bike_id":"eae5f8d3-f24f-4e15-a4a1-bef92f3400b0","system_id":"levelo_inurba_marseille","lat":43.28615,"lon":5.35103,"is_reserved":false,"is_disabled":false,"rental_uris":{"android":"levelo://app?vid=eae5f8d3-f24f-4e15-a4a1-bef92f3400b0","ios":"levelo://app?vid=eae5f8d3-f24f-4e15-a4a1-bef92f3400b0"},"vehicle_type_id":"4","last_reported":1724080099,"current_range_meters":27600,"station_id":"ce4bhch2rcd13ifvqeug","pricing_plan_id":"cebpf4jnsgd1na2vs0mg"},{"bike_id":"a9db6721-fb56-42e0-93cf-ae70c81e4925","system_id":"levelo_inurba_marseille","lat":43.28612,"lon":5.35112,"is_reserved":false,"is_disabled":false,"rental_uris":{"android":"levelo://app?vid=a9db6721-fb56-42e0-93cf-ae70c81e4925","ios":"levelo://app?vid=a9db6721-fb56-42e0-93cf-ae70c81e4925"},"vehicle_type_id":"4","last_reported":1724080099,"current_range_meters":6000,"station_id":"ce4bhch2rcd13ifvqeug","pricing_plan_id":"cebpf4jnsgd1na2vs0mg"},{"bike_id":"399178d4-e96d-4e3f-a2fd-bbf1b64e110b","system_id":"levelo_inurba_marseille","lat":43.28616,"lon":5.35099,"is_reserved":false,"is_disabled":false,"rental_uris":{"android":"levelo://app?vid=399178d4-e96d-4e3f-a2fd-bbf1b64e110b","ios":"levelo://app?vid=399178d4-e96d-4e3f-a2fd-bbf1b64e110b"},"vehicle_type_id":"4","last_reported":1724080099,"current_range_meters":14000,"station_id":"ce4bhch2rcd13ifvqeug","pricing_plan_id":"cebpf4jnsgd1na2vs0mg"},{"bike_id":"3f872f2f-3c96-4540-9ef3-7bafbb18621f","system_id":"levelo_inurba_marseille","lat":43.28614,"lon":5.35105,"is_reserved":false,"is_disabled":false,"rental_uris":{"android":"levelo://app?vid=3f872f2f-3c96-4540-9ef3-7bafbb18621f","ios":"levelo://app?vid=3f872f2f-3c96-4540-9ef3-7bafbb18621f"},"vehicle_type_id":"4","last_reported":1724080099,"current_range_meters":5600,"station_id":"ce4bhch2rcd13ifvqeug","pricing_plan_id":"cebpf4jnsgd1na2vs0mg"},{"bike_id":"09982907-ad8a-4ab1-badb-8bbcd85e2eea","system_id":"levelo_inurba_marseille","lat":43.28613,"lon":5.35108,"is_reserved":false,"is_disabled":false,"rental_uris":{"android":"levelo://app?vid=09982907-ad8a-4ab1-badb-8bbcd85e2eea","ios":"levelo://app?vid=09982907-ad8a-4ab1-badb-8bbcd85e2eea"},"vehicle_type_id":"4","last_reported":1724080099,"current_range_meters":16400,"station_id":"ce4bhch2rcd13ifvqeug","pricing_plan_id":"cebpf4jnsgd1na2vs0mg"},{"bike_id":"577e1841-a982-49ab-baea-3c3c7021ac20","system_id":"levelo_inurba_marseille","lat":43.28614,"lon":5.35104,"is_reserved":false,"is_disabled":false,"rental_uris":{"android":"levelo://app?vid=577e1841-a982-49ab-baea-3c3c7021ac20","ios":"levelo://app?vid=577e1841-a982-49ab-baea-3c3c7021ac20"},"vehicle_type_id":"4","last_reported":1724080099,"current_range_meters":25600,"station_id":"ce4bhch2rcd13ifvqeug","pricing_plan_id":"cebpf4jnsgd1na2vs0mg"},{"bike_id":"17e37eb0-c1b3-4802-8981-f5c7cf04e834","system_id":"levelo_inurba_marseille","lat":43.28615,"lon":5.351,"is_reserved":false,"is_disabled":false,"rental_uris":{"android":"levelo://app?vid=17e37eb0-c1b3-4802-8981-f5c7cf04e834","ios":"levelo://app?vid=17e37eb0-c1b3-4802-8981-f5c7cf04e834"},"vehicle_type_id":"4","last_reported":1724080099,"current_range_meters":15600,"station_id":"ce4bhch2rcd13ifvqeug","pricing_plan_id":"cebpf4jnsgd1na2vs0mg"},{"bike_id":"edc51789-b491-49fc-bf82-3319f9f20c7a","system_id":"levelo_inurba_marseille","lat":43.28615,"lon":5.351,"is_reserved":false,"is_disabled":false,"rental_uris":{"android":"levelo://app?vid=edc51789-b491-49fc-bf82-3319f9f20c7a","ios":"levelo://app?vid=edc51789-b491-49fc-bf82-3319f9f20c7a"},"vehicle_type_id":"4","last_reported":1724080099,"current_range_meters":27600,"station_id":"ce4bhch2rcd13ifvqeug","pricing_plan_id":"cebpf4jnsgd1na2vs0mg"},{"bike_id":"c4d35de5-672c-46fd-b6e7-1cc9335de60b","system_id":"levelo_inurba_marseille","lat":43.28614,"lon":5.35103,"is_reserved":false,"is_disabled":false,"rental_uris":{"android":"levelo://app?vid=c4d35de5-672c-46fd-b6e7-1cc9335de60b","ios":"levelo://app?vid=c4d35de5-672c-46fd-b6e7-1cc9335de60b"},"vehicle_type_id":"4","last_reported":1724080099,"current_range_meters":22000,"station_id":"ce4bhch2rcd13ifvqeug","pricing_plan_id":"cebpf4jnsgd1na2vs0mg"},{"bike_id":"8f868bf3-2c60-48ab-894d-86d627947599","system_id":"levelo_inurba_marseille","lat":43.28613,"lon":5.35106,"is_reserved":false,"is_disabled":false,"rental_uris":{"android":"levelo://app?vid=8f868bf3-2c60-48ab-894d-86d627947599","ios":"levelo://app?vid=8f868bf3-2c60-48ab-894d-86d627947599"},"vehicle_type_id":"4","last_reported":1724080099,"current_range_meters":400,"station_id":"ce4bhch2rcd13ifvqeug","pricing_plan_id":"cebpf4jnsgd1na2vs0mg"},