{"last_updated":1726057009,"ttl":30,"version":"2.2","data":{"bikes":[{"bike_id":"435104b8-d822-4993-825a-649f045fffdc","system_id":"levelo_inurba_marseille","lat":43.30421,"lon":5.39752,"is_reserved":false,"is_disabled":false,"rental_uris":{"android":"levelo://app?vid=435104b8-d822-4993-825a-649f045fffdc","ios":"levelo://app?vid=435104b8-d822-4993-825a-649f045fffdc"},"vehicle_type_id":"4","last_reported":1726057009,"current_range_meters":22000,"station_id":"ce4bh092rcd13ifvqd20","pricing_plan_id":"cebpf4jnsgd1na2vs0mg"},{"bike_id":"f56f0c93-bf77-4e54-9e0a-65b6b35b836b","system_id":"levelo_inurba_marseille","lat":43.25936,"lon":5.40906,"is_reserved":false,"is_disabled":false,"rental_uris":{"android":"levelo://app?vid=f56f0c93-bf77-4e54-9e0a-65b6b35b836b","ios":"levelo://app?vid=f56f0c93-bf77-4e54-9e0a-65b6b35b836b"},"vehicle_type_id":"4","last_reported":1726057009,"current_range_meters":11600,"station_id":"ce4bhm92rcd13ifvqglg","pricing_plan_id":"cebpf4jnsgd1na2vs0mg"},{"bike_id":"076eed2f-acff-49e1-939c-d0a4d7ec60c4","system_id":"levelo_inurba_marseille","lat":43.25086,"lon":5.39525,"is_reserved":false,"is_disabled":false,"rental_uris":{"android":"levelo://app?vid=076eed2f-acff-49e1-939c-d0a4d7ec60c4","ios":"levelo://app?vid=076eed2f-acff-49e1-939c-d0a4d7ec60c4"},"vehicle_type_id":"4","last_reported":1726057009,"current_range_meters":32800,"station_id":"ce4bhm12rcd13ifvqgkg","pricing_plan_id":"cebpf4jnsgd1na2vs0mg"},{"bike_id":"df309b89-5a78-43de-882f-97473f6ecfee","system_id":"levelo_inurba_marseille","lat":43.26199,"lon":5.37445,"is_reserved":false,"is_disabled":false,"rental_uris":{"android":"levelo://app?vid=df309b89-5a78-43de-882f-97473f6ecfee","ios":"levelo://app?vid=df309b89-5a78-43de-882f-97473f6ecfee"},"vehicle_type_id":"4","last_reported":1726057009,"current_range_meters":11600,"station_id":"ce4bhgp2rcd13ifvqfc0","pricing_plan_id":"cebpf4jnsgd1na2vs0mg"},{"bike_id":"f1333513-ca27-413e-a698-2d6bed71649e","system_id":"levelo_inurba_marseille","lat":43.30911,"lon":5.36844,"is_reserved":false,"is_disabled":false,"rental_uris":{"android":"levelo://app?vid=f1333513-ca27-413e-a698-2d6bed71649e","ios":"levelo://app?vid=f1333513-ca27-413e-a698-2d6bed71649e"},"vehicle_type_id":"4","last_reported":1726057009,"current_range_meters":25600,"station_id":"ce4bgn92rcd13ifvqbvg","pricing_plan_id":"cebpf4jnsgd1na2vs0mg"},{"bike_id":"e3e51122-48a1-453a-a082-cb7d6579d717","system_id":"levelo_inurba_marseille","lat":43.2969,"lon":5.38161,"is_reserved":false,"is_disabled":false,"rental_uris":{"android":"levelo://app?vid=e3e51122-48a1-453a-a082-cb7d6579d717","ios":"levelo://app?vid=e3e51122-48a1-453a-a082-cb7d6579d717"},"vehicle_type_id":"4","last_reported":1726057009,"current_range_meters":36800,"station_id":"","pricing_plan_id":"cebpf4jnsgd1na2vs0mg"},{"bike_id":"93ff9b33-20dd-4ae4-a6b7-1cc7dab0baf3","system_id":"levelo_inurba_marseille","lat":43.29016,"lon":5.37267,"is_reserved":false,"is_disabled":false,"rental_uris":{"android":"levelo://app?vid=93ff9b33-20dd-4ae4-a6b7-1cc7dab0baf3","ios":"levelo://app?vid=93ff9b33-20dd-4ae4-a6b7-1cc7dab0baf3"},"vehicle_type_id":"4","last_reported":1726057009,"current_range_meters":22800,"station_id":"","pricing_plan_id":"cebpf4jnsgd1na2vs0mg"},{"bike_id":"ea2ddb7b-9622-4f69-a771-c53556b72d68","system_id":"levelo_inurba_marseille","lat":43.25083,"lon":5.39519,"is_reserved":false,"is_disabled":false,"rental_uris":{"android":"levelo://app?vid=ea2ddb7b-9622-4f69-a771-c53556b72d68","ios":"levelo://app?vid=ea2ddb7b-9622-4f69-a771-c53556b72d68"},"vehicle_type_id":"4","last_reported":1726057009,"current_range_meters":27200,"station_id":"ce4bhm12rcd13ifvqgkg","pricing_plan_id":"cebpf4jnsgd1na2vs0mg"},{"bike_id":"2fd862b8-b2e1-47f9-bebb-44e9e3518085","system_id":"levelo_inurba_marseille","lat":43.2956,"lon":5.42284,"is_reserved":false,"is_disabled":false,"rental_uris":{"android":"levelo://app?vid=2fd862b8-b2e1-47f9-bebb-44e9e3518085","ios":"levelo://app?vid=2fd862b8-b2e1-47f9-bebb-44e9e3518085"},"vehicle_type_id":"4","last_reported":1726057009,"current_range_meters":33200,"station_id":"ce4bhph2rcd13ifvqhdg","pricing_plan_id":"cebpf4jnsgd1na2vs0mg"},{"bike_id":"e78a8ff4-b538-4a11-8a0e-f5007b1dc84a","system_id":"levelo_inurba_marseille","lat":43.336,"lon":5.41028,"is_reserved":false,"is_disabled":false,"rental_uris":{"android":"levelo://app?vid=e78a8ff4-b538-4a11-8a0e-f5007b1dc84a","ios":"levelo://app?vid=e78a8ff4-b538-4a11-8a0e-f5007b1dc84a"},"vehicle_type_id":"4","last_reported":1726057009,"current_range_meters":20800,"station_id":"ce4bhqh2rcd13ifvqhmg","pricing_plan_id":"cebpf4jnsgd1na2vs0mg"},{"bike_id":"a5869154-dee6-4e63-bb64-1a92a2bc0bdd","system_id":"levelo_inurba_marseille","lat":43.31114,"lon":5.37765,"is_reserved":false,"is_disabled":false,"rental_uris":{"android":"levelo://app?vid=a5869154-dee6-4e63-bb64-1a92a2bc0bdd","ios":"levelo://app?vid=a5869154-dee6-4e63-bb64-1a92a2bc0bdd"},"vehicle_type_id":"4","last_reported":1726057009,"current_range_meters":22400,"station_id":"ce4bgt92rcd13ifvqcg0","pricing_plan_id":"cebpf4jnsgd1na2vs0mg"},{"bike_id":"d30b53c0-6c85-4298-805d-1b7017c6f9c8","system_id":"levelo_inurba_marseille","lat":43.30896,"lon":5.37183,"is_reserved":false,"is_disabled":false,"rental_uris":{"android":"levelo://app?vid=d30b53c0-6c85-4298-805d-1b7017c6f9c8","ios":"levelo://app?vid=d30b53c0-6c85-4298-805d-1b7017c6f9c8"},"vehicle_type_id":"4","last_reported":1726057009,"current_range_meters":8000,"station_id":"ce4bguh2rcd13ifvqckg","pricing_plan_id":"cebpf4jnsgd1na2vs0mg"},{"bike_id":"7bb63ba7-8eaf-465f-b0b9-ad886cbb1270","system_id":"levelo_inurba_marseille","lat":43.29554,"lon":5.42289,"is_reserved":false,"is_disabled":false,"rental_uris":{"android":"levelo://app?vid=7bb63ba7-8eaf-465f-b0b9-ad886cbb1270","ios":"levelo://app?vid=7bb63ba7-8eaf-465f-b0b9-ad886cbb1270"},"vehicle_type_id":"4","last_reported":1726057009,"current_range_meters":6800,"station_id":"ce4bhph2rcd13ifvqhdg","pricing_plan_id":"cebpf4jnsgd1na2vs0mg"},{"bike_id":"12cebb0e-7cfd-4816-a1b2-6ce7ace2ec48","system_id":"levelo_inurba_marseille","lat":43.27068,"lon":5.42273,"is_reserved":false,"is_disabled":false,"rental_uris":{"android":"levelo://app?vid=12cebb0e-7cfd-4816-a1b2-6ce7ace2ec48","ios":"levelo://app?vid=12cebb0e-7cfd-4816-a1b2-6ce7ace2ec48"},"vehicle_type_id":"4","last_reported":1726057009,"current_range_meters":38800,"station_id":"ce4bhk92rcd13ifvqgb0","pricing_plan_id":"cebpf4jnsgd1na2vs0mg"},{"bike_id":"6437f527-4de6-4c35-8c67-581461d05ddd","system_id":"levelo_inurba_marseille","lat":43.2872,"lon":5.36092,"is_reserved":false,"is_disabled":false,"rental_uris":{"android":"levelo://app?vid=6437f527-4de6-4c35-8c67-581461d05ddd","ios":"levelo://app?vid=6437f527-4de6-4c35-8c67-581461d05ddd"},"vehicle_type_id":"4","last_reported":1726057009,"current_range_meters":23200,"station_id":"cki0cbj6b192h4jlfktg","pricing_plan_id":"cebpf4jnsgd1na2vs0mg"},{"bike_id":"281d3ad1-763e-47ea-88e5-d24111c5e4a6","system_id":"levelo_inurba_marseille","lat":43.24653,"lon":5.38891,"is_reserved":false,"is_disabled":false,"rental_uris":{"android":"levelo://app?vid=281d3ad1-763e-47ea-88e5-d24111c5e4a6","ios":"levelo://app?vid=281d3ad1-763e-47ea-88e5-d24111c5e4a6"},"vehicle_type_id":"4","last_reported":1726057009,"current_range_meters":6000,"station_id":"ce4bhg12rcd13ifvqf60","pricing_plan_id":"cebpf4jnsgd1na2vs0mg"},{"bike_id":"4bb006ea-4d8a-4c2c-a5b4-c87958a7768d","system_id":"levelo_inurba_marseille","lat":43.27561,"lon":5.38427,"is_reserved":false,"is_disabled":false,"rental_uris":{"android":"levelo://app?vid=4bb006ea-4d8a-4c2c-a5b4-c87958a7768d","ios":"levelo://app?vid=4bb006ea-4d8a-4c2c-a5b4-c87958a7768d"},"vehicle_type_id":"4","last_reported":1726057009,"current_range_meters":24800,"station_id":"ce4bhh92rcd13ifvqfi0","pricing_plan_id":"cebpf4jnsgd1na2vs0mg"},{"bike_id":"d02d6740-b6de-4487-a048-a0fcd35b8dee","system_id":"levelo_inurba_marseille","lat":43.23144,"lon":5.43712,"is_reserved":false,"is_disabled":false,"rental_uris":{"android":"levelo://app?vid=d02d6740-b6de-4487-a048-a0fcd35b8dee","ios":"levelo://app?vid=d02d6740-b6de-4487-a048-a0fcd35b8dee"},"vehicle_type_id":"4","last_reported":1726057009,"current_range_meters":40000,"station_id":"ce4bhmp2rcd13ifvqgog","pricing_plan_id":"cebpf4jnsgd1na2vs0mg"},{"bike_id":"7f132b6a-b4c3-469c-a967-4c0f798e305a","system_id":"levelo_inurba_marseille","lat":43.27379,"lon":5.3626,"is_reserved":false,"is_disabled":false,"rental_uris":{"android":"levelo://app?vid=7f132b6a-b4c3-469c-a967-4c0f798e305a","ios":"levelo://app?vid=7f132b6a-b4c3-469c-a967-4c0f798e305a"},"vehicle_type_id":"4","last_reported":1726057009,"current_range_meters":38400,"station_id":"ce4bhbh2rcd13ifvqeo0","pricing_plan_id":"cebpf4jnsgd1na2vs0mg"},{"bike_id":"25d5c37c-dd2d-4026-9a2d-3b77079af424","system_id":"levelo_inurba_marseille","lat":43.2418,"lon":5.3973,"is_reserved":false,"is_disabled":false,"rental_uris":{"android":"levelo://app?vid=25d5c37c-dd2d-4026-9a2d-3b77079af424","ios":"levelo://app?vid=25d5c37c-dd2d-4026-9a2d-3b77079af424"},"vehicle_type_id":"4","last_reported":1726057009,"current_range_meters":7200,"station_id":"ce4bhn12rcd13ifvqgpg","pricing_plan_id":"cebpf4jnsgd1na2vs0mg"},{"bike_id":"9b57632a-4220-4291-9a02-b1205f515dc9","system_id":"levelo_inurba_marseille","lat":43.28103,"lon":5.37845,"is_reserved":false,"is_disabled":false,"rental_uris":{"android":"levelo://app?vid=9b57632a-4220-4291-9a02-b1205f515dc9","ios":"levelo://app?vid=9b57632a-4220-4291-9a02-b1205f515dc9"},"vehicle_type_id":"4","last_reported":1726057009,"current_range_meters":24800,"station_id":"ce4bha12rcd13ifvqee0","pricing_plan_id":"cebpf4jnsgd1na2vs0mg"},{"bike_id":"e705d9fb-2171-4281-8e32-77a497e36ec3","system_id":"levelo_inurba_marseille","lat":43.26947,"lon":5.40244,"is_reserved":false,"is_disabled":false,"rental_uris":{"android":"levelo://app?vid=e705d9fb-2171-4281-8e32-77a497e36ec3","ios":"levelo://app?vid=e705d9fb-2171-4281-8e32-77a497e36ec3"},"vehicle_type_id":"4","last_reported":1726057009,"current_range_meters":21600,"station_id":"cjm6bp8fraef2m0cb0m0","pricing_plan_id":"cebpf4jnsgd1na2vs0mg"},{"bike_id":"433b3573-7d19-4add-a6c2-445f5c31da67","system_id":"levelo_inurba_marseille","lat":43.31225,"lon":5.36853,"is_reserved":false,"is_disabled":false,"rental_uris":{"android":"levelo://app?vid=433b3573-7d19-4add-a6c2-445f5c31da67","ios":"levelo://app?vid=433b3573-7d19-4add-a6c2-445f5c31da67"},"vehicle_type_id":"4","last_reported":1726057009,"current_range_meters":22800,"station_id":"ce4bgl92rcd13ifvqbq0","pricing_plan_id":"cebpf4jnsgd1na2vs0mg"},{"bike_id":"dc3db784-5305-4c2f-9b60-3b329bc1df65","system_id":"levelo_inurba_marseille","lat":43.29896,"lon":5.43673,"is_reserved":false,"is_disabled":false,"rental_uris":{"android":"levelo://app?vid=dc3db784-5305-4c2f-9b60-3b329bc1df65","ios":"levelo://app?vid=dc3db784-5305-4c2f-9b60-3b329bc1df65"},"vehicle_type_id":"4","last_reported":1726057009,"current_range_meters":26000,"station_id":"ce4bhpp2rcd13ifvqhfg","pricing_plan_id":"cebpf4jnsgd1na2vs0mg"},{"bike_id":"b3a2489e-4d27-4f12-9d4e-603c8b1275f8","system_id":"levelo_inurba_marseille","lat":43.30143,"lon":5.37428,"is_reserved":false,"is_disabled":false,"rental_uris":{"android":"levelo://app?vid=b3a2489e-4d27-4f12-9d4e-603c8b1275f8","ios":"levelo://app?vid=b3a2489e-4d27-4f12-9d4e-603c8b1275f8"},"vehicle_type_id":"4","last_reported":1726057009,"current_range_meters":23200,"station_id":"ce4bgs92rcd13ifvqcc0","pricing_plan_id":"cebpf4jnsgd1na2vs0mg"},{"bike_id":"06adf3a8-2c1e-4849-94c6-5664fa506492","system_id":"levelo_inurba_marseille","lat":43.3089,"lon":5.37184,"is_reserved":false,"is_disabled":false,"rental_uris":{"android":"levelo://app?vid=06adf3a8-2c1e-4849-94c6-5664fa506492","ios":"levelo://app?vid=06adf3a8-2c1e-4849-94c6-5664fa506492"},"vehicle_type_id":"4","last_reported":1726057009,"current_range_meters":21600,"station_id":"ce4bguh2rcd13ifvqckg","pricing_plan_id":"cebpf4jnsgd1na2vs0mg"},{"bike_id":"2413a8c5-3673-44da-a30b-07a1465e7a31","system_id":"levelo_inurba_marseille","lat":43.24179,"lon":5.39722,"is_reserved":false,"is_disabled":false,"rental_uris":{"android":"levelo://app?vid=2413a8c5-3673-44da-a30b-07a1465e7a31","ios":"levelo://app?vid=2413a8c5-3673-44da-a30b-07a1465e7a31"},"vehicle_type_id":"4","last_reported":1726057009,"current_range_meters":4000,"station_id":"ce4bhn12rcd13ifvqgpg","pricing_plan_id":"cebpf4jnsgd1na2vs0mg"},{"bike_id":"51e493b3-99be-47a7-96ad-466ce2c6401e","system_id":"levelo_inurba_marseille","lat":43.28445,"lon":5.39197,"is_reserved":false,"is_disabled":false,"rental_uris":{"android":"levelo://app?vid=51e493b3-99be-47a7-96ad-466ce2c6401e","ios":"levelo://app?vid=51e493b3-99be-47a7-96ad-466ce2c6401e"},"vehicle_type_id":"4","last_reported":1726057009,"current_range_meters":22400,"station_id":"ce4bhoh2rcd13ifvqh5g","pricing_plan_id":"cebpf4jnsgd1na2vs0mg"},{"bike_id":"fdb27bfa-9a78-4d97-bfad-551fdb71c670","system_id":"levelo_inurba_marseille","lat":43.30566,"lon":5.36544,"is_reserved":false,"is_disabled":false,"rental_uris":{"android":"levelo://app?vid=fdb27bfa-9a78-4d97-bfad-551fdb71c670","ios":"levelo://app?vid=fdb27bfa-9a78-4d97-bfad-551fdb71c670"},"vehicle_type_id":"4","last_reported":1726057009,"current_range_meters":25600,"station_id":"ce4bgs12rcd13ifvqcag","pricing_plan_id":"cebpf4jnsgd1na2vs0mg"},{"bike_id":"98f8975b-1652-45a9-a84f-e0f8cf84af34","system_id":"levelo_inurba_marseille","lat":43.23153,"lon":5.4372,"is_reserved":false,"is_disabled":false,"rental_uris":{"android":"levelo://app?vid=98f8975b-1652-45a9-a84f-e0f8cf84af34","ios":"levelo://app?vid=98f8975b-1652-45a9-a84f-e0f8cf84af34"},"vehicle_type_id":"4","last_reported":1726057009,"current_range_meters":16000,"station_id":"ce4bhmp2rcd13ifvqgog","pricing_plan_id":"cebpf4jnsgd1na2vs0mg"},{"bike_id":"b413bc3e-6bbd-4e11-abff-54bb0b63b087","system_id":"levelo_inurba_marseille","lat":43.23971,"lon":5.36625,"is_reserved":false,"is_disabled":false,"rental_uris":{"android":"levelo://app?vid=b413bc3e-6bbd-4e11-abff-54bb0b63b087","ios":"levelo://app?vid=b413bc3e-6bbd-4e11-abff-54bb0b63b087"},"vehicle_type_id":"4","last_reported":1726057009,"current_range_meters":19600,"station_id":"ce4bhi12rcd13ifvqfp0","pricing_plan_id":"cebpf4jnsgd1na2vs0mg"},{"bike_id":"c418a0a3-69bc-4a59-97fd-7bc4eeb30394","system_id":"levelo_inurba_marseille","lat":43.30546,"lon":5.36544,"is_reserved":false,"is_disabled":false,"rental_uris":{"android":"levelo://app?vid=c418a0a3-69bc-4a59-97fd-7bc4eeb30394","ios":"levelo://app?vid=c418a0a3-69bc-4a59-97fd-7bc4eeb30394"},"vehicle_type_id":"4","last_reported":1726057009,"current_range_meters":39200,"station_id":"ce4bgs12rcd13ifvqcag","pricing_plan_id":"cebpf4jnsgd1na2vs0mg"},{"bike_id":"1f98b9ef-5838-4b23-9534-ebf3100516cd","system_id":"levelo_inurba_marseille","lat":43.28285,"lon":5.35073,"is_reserved":false,"is_disabled":false,"rental_uris":{"android":"levelo://app?vid=1f98b9ef-5838-4b23-9534-ebf3100516cd","ios":"levelo://app?vid=1f98b9ef-5838-4b23-9534-ebf3100516cd"},"vehicle_type_id":"4","last_reported":1726057009,"current_range_meters":38000,"station_id":"ce4bhbp2rcd13ifvqerg","pricing_plan_id":"cebpf4jnsgd1na2vs0mg"},{"bike_id":"a21c3523-e07c-4797-b9a3-e320b570c062","system_id":"levelo_inurba_marseille","lat":43.24391,"lon":5.37056,"is_reserved":false,"is_disabled":false,"rental_uris":{"android":"levelo://app?vid=a21c3523-e07c-4797-b9a3-e320b570c062","ios":"levelo://app?vid=a21c3523-e07c-4797-b9a3-e320b570c062"},"vehicle_type_id":"4","last_reported":1726057009,"current_range_meters":36000,"station_id":"ce4bhhh2rcd13ifvqfk0","pricing_plan_id":"cebpf4jnsgd1na2vs0mg"},{"bike_id":"57f5190d-6866-4549-9940-f4325c73d47b","system_id":"levelo_inurba_marseille","lat":43.31477,"lon":5.37312,"is_reserved":false,"is_disabled":false,"rental_uris":{"android":"levelo://app?vid=57f5190d-6866-4549-9940-f4325c73d47b","ios":"levelo://app?vid=57f5190d-6866-4549-9940-f4325c73d47b"},"vehicle_type_id":"4","last_reported":1726057009,"current_range_meters":18800,"station_id":"ce4bgt12rcd13ifvqcd0","pricing_plan_id":"cebpf4jnsgd1na2vs0mg"},{"bike_id":"5378f583-5237-4b5e-9d1e-c891eec83829","system_id":"levelo_inurba_marseille","lat":43.30143,"lon":5.37416,"is_reserved":false,"is_disabled":false,"rental_uris":{"android":"levelo://app?vid=5378f583-5237-4b5e-9d1e-c891eec83829","ios":"levelo://app?vid=5378f583-5237-4b5e-9d1e-c891eec83829"},"vehicle_type_id":"4","last_reported":1726057009,"current_range_meters":36800,"station_id":"ce4bgs92rcd13ifvqcc0","pricing_plan_id":"cebpf4jnsgd1na2vs0mg"},{"bike_id":"00115f0a-ac26-4e9a-986d-383b5654c372","system_id":"levelo_inurba_marseille","lat":43.26687,"lon":5.38273,"is_reserved":false,"is_disabled":false,"rental_uris":{"android":"levelo://app?vid=00115f0a-ac26-4e9a-986d-383b5654c372","ios":"levelo://app?vid=00115f0a-ac26-4e9a-986d-383b5654c372"},"vehicle_type_id":"4","last_reported":1726057009,"current_range_meters":24400,"station_id":"ce4bhg92rcd13ifvqf90","pricing_plan_id":"cebpf4jnsgd1na2vs0mg"},{"bike_id":"bfce0d69-d726-4501-86eb-d582d2598780","system_id":"levelo_inurba_marseille","lat":43.29881,"lon":5.39738,"is_reserved":false,"is_disabled":false,"rental_uris":{"android":"levelo://app?vid=bfce0d69-d726-4501-86eb-d582d2598780","ios":"levelo://app?vid=bfce0d69-d726-4501-86eb-d582d2598780"},"vehicle_type_id":"4","last_reported":1726057009,"current_range_meters":38800,"station_id":"ce4bh0h2rcd13ifvqd50","pricing_plan_id":"cebpf4jnsgd1na2vs0mg"},{"bike_id":"746ca02b-c738-48f1-bd77-4c115f70adfe","system_id":"levelo_inurba_marseille","lat":43.30543,"lon":5.36696,"is_reserved":false,"is_disabled":false,"rental_uris":{"android":"levelo://app?vid=746ca02b-c738-48f1-bd77-4c115f70adfe","ios":"levelo://app?vid=746ca02b-c738-48f1-bd77-4c115f70adfe"},"vehicle_type_id":"4","last_reported":1726057009,"current_range_meters":8400,"station_id":"ce4bgrp2rcd13ifvqc9g","pricing_plan_id":"cebpf4jnsgd1na2vs0mg"},{"bike_id":"902e8bcc-2ba1-4ed4-b68d-8430f1bbbafc","system_id":"levelo_inurba_marseille","lat":43.29757,"lon":5.38125,"is_reserved":false,"is_disabled":false,"rental_uris":{"android":"levelo://app?vid=902e8bcc-2ba1-4ed4-b68d-8430f1bbbafc","ios":"levelo://app?vid=902e8bcc-2ba1-4ed4-b68d-8430f1bbbafc"},"vehicle_type_id":"4","last_reported":1726057009,"current_range_meters":30000,"station_id":"ce4bha92rcd13ifvqeh0","pricing_plan_id":"cebpf4jnsgd1na2vs0mg"},{"bike_id":"b1e2266a-36f7-4a04-a387-80ff24cacc69","system_id":"levelo_inurba_marseille","lat":43.26194,"lon":5.37448,"is_reserved":false,"is_disabled":false,"rental_uris":{"android":"levelo://app?vid=b1e2266a-36f7-4a04-a387-80ff24cacc69","ios":"levelo://app?vid=b1e2266a-36f7-4a04-a387-80ff24cacc69"},"vehicle_type_id":"4","last_reported":1726057009,"current_range_meters":15200,"station_id":"ce4bhgp2rcd13ifvqfc0","pricing_plan_id":"cebpf4jnsgd1na2vs0mg"},{"bike_id":"ad83dbd3-4c69-48a8-bcde-2de92924d787","system_id":"levelo_inurba_marseille","lat":43.285001,"lon":5.38039,"is_reserved":false,"is_disabled":false,"rental_uris":{"android":"levelo://app?vid=ad83dbd3-4c69-48a8-bcde-2de92924d787","ios":"levelo://app?vid=ad83dbd3-4c69-48a8-bcde-2de92924d787"},"vehicle_type_id":"4","last_reported":1726057009,"current_range_meters":26000,"station_id":"ce4bh2p2rcd13ifvqdi0","pricing_plan_id":"cebpf4jnsgd1na2vs0mg"},{"bike_id":"9dbf4882-289e-4171-bdea-bbea2cd2aa4a","system_id":"levelo_inurba_marseille","lat":43.25934,"lon":5.40919,"is_reserved":false,"is_disabled":false,"rental_uris":{"android":"levelo://app?vid=9dbf4882-289e-4171-bdea-bbea2cd2aa4a","ios":"levelo://app?vid=9dbf4882-289e-4171-bdea-bbea2cd2aa4a"},"vehicle_type_id":"4","last_reported":1726057009,"current_range_meters":18800,"station_id":"ce4bhm92rcd13ifvqglg","pricing_plan_id":"cebpf4jnsgd1na2vs0mg"},{"bike_id":"00ca710c-aa25-453d-b5eb-9286e939dc6d","system_id":"levelo_inurba_marseille","lat":43.29553,"lon":5.42286,"is_reserved":false,"is_disabled":false,"rental_uris":{"android":"levelo://app?vid=00ca710c-aa25-453d-b5eb-9286e939dc6d","ios":"levelo://app?vid=00ca710c-aa25-453d-b5eb-9286e939dc6d"},"vehicle_type_id":"4","last_reported":1726057009,"current_range_meters":40000,"station_id":"ce4bhph2rcd13ifvqhdg","pricing_plan_id":"cebpf4jnsgd1na2vs0mg"},{"bike_id":"b63cd219-a325-46a7-b551-57983cf6a940","system_id":"levelo_inurba_marseille","lat":43.26033,"lon":5.37546,"is_reserved":false,"is_disabled":false,"rental_uris":{"android":"levelo://app?vid=b63cd219-a325-46a7-b551-57983cf6a940","ios":"levelo://app?vid=b63cd219-a325-46a7-b551-57983cf6a940"},"vehicle_type_id":"4","last_reported":1726057009,"current_range_meters":32800,"station_id":"ce4bhgh2rcd13ifvqfa0","pricing_plan_id":"cebpf4jnsgd1na2vs0mg"},{"bike_id":"a36a6131-7175-4d21-afcf-16a3b952996a","system_id":"levelo_inurba_marseille","lat":43.30817,"lon":5.37657,"is_reserved":false,"is_disabled":false,"rental_uris":{"android":"levelo://app?vid=a36a6131-7175-4d21-afcf-16a3b952996a","ios":"levelo://app?vid=a36a6131-7175-4d21-afcf-16a3b952996a"},"vehicle_type_id":"4","last_reported":1726057009,"current_range_meters":9600,"station_id":"ce4bgv92rcd13ifvqcq0","pricing_plan_id":"cebpf4jnsgd1na2vs0mg"},{"bike_id":"3be19a4a-e7a2-4727-8522-bfdcc2f9851c","system_id":"levelo_inurba_marseille","lat":43.25505,"lon":5.3765,"is_reserved":false,"is_disabled":false,"rental_uris":{"android":"levelo://app?vid=3be19a4a-e7a2-4727-8522-bfdcc2f9851c","ios":"levelo://app?vid=3be19a4a-e7a2-4727-8522-bfdcc2f9851c"},"vehicle_type_id":"4","last_reported":1726057009,"current_range_meters":12000,"station_id":"ce4bhh12rcd13ifvqff0","pricing_plan_id":"cebpf4jnsgd1na2vs0mg"},{"bike_id":"e193415e-3db3-4686-9712-1fe45879b28b","system_id":"levelo_inurba_marseille","lat":43.23153,"lon":5.43718,"is_reserved":false,"is_disabled":false,"rental_uris":{"android":"levelo://app?vid=e193415e-3db3-4686-9712-1fe45879b28b","ios":"levelo://app?vid=e193415e-3db3-4686-9712-1fe45879b28b"},"vehicle_type_id":"4","last_reported":1726057009,"current_range_meters":26000,"station_id":"ce4bhmp2rcd13ifvqgog","pricing_plan_id":"cebpf4jnsgd1na2vs0mg"},{"bike_id":"a409ead4-343d-4917-a009-cc2865f0afc8","system_id":"levelo_inurba_marseille","lat":43.28349,"lon":5.38098,"is_reserved":false,"is_disabled":false,"rental_uris":{"android":"levelo://app?vid=a409ead4-343d-4917-a009-cc2865f0afc8","ios":"levelo://app?vid=a409ead4-343d-4917-a009-cc2865f0afc8"},"vehicle_type_id":"4","last_reported":1726057009,"current_range_meters":8400,"station_id":"ce4bh412rcd13ifvqdr0","pricing_plan_id":"cebpf4jnsgd1na2vs0mg"},{"bike_id":"3e71dd62-37f9-4fdf-b475-7d894230e08d","system_id":"levelo_inurba_marseille","lat":43.2315,"lon":5.43719,"is_reserved":false,"is_disabled":false,"rental_uris":{"android":"levelo://app?vid=3e71dd62-37f9-4fdf-b475-7d894230e08d","ios":"levelo://app?vid=3e71dd62-37f9-4fdf-b475-7d894230e08d"},"vehicle_type_id":"4","last_reported":1726057009,"current_range_meters":16800,"station_id":"ce4bhmp2rcd13ifvqgog","pricing_plan_id":"cebpf4jnsgd1na2vs0mg"},{"bike_id":"738025fc-7584-417e-910b-f34061370de4","system_id":"levelo_inurba_marseille","lat":43.29723,"lon":5.36875,"is_reserved":false,"is_disabled":false,"rental_uris":{"android":"levelo://app?vid=738025fc-7584-417e-910b-f34061370de4","ios":"levelo://app?vid=738025fc-7584-417e-910b-f34061370de4"},"vehicle_type_id":"4","last_reported":1726057009,"current_range_meters":38400,"station_id":"","pricing_plan_id":"cebpf4jnsgd1na2vs0mg"},{"bike_id":"037f67a0-dd77-45e0-aefd-14821f6a4c5d","system_id":"levelo_inurba_marseille","lat":43.29626,"lon":5.40591,"is_reserved":false,"is_disabled":false,"rental_uris":{"android":"levelo://app?vid=037f67a0-dd77-45e0-aefd-14821f6a4c5d","ios":"levelo://app?vid=037f67a0-dd77-45e0-aefd-14821f6a4c5d"},"vehicle_type_id":"4","last_reported":1726057009,"current_range_meters":26800,"station_id":"ce4bh0h2rcd13ifvqd60","pricing_plan_id":"cebpf4jnsgd1na2vs0mg"},{"bike_id":"8a6a71a1-d788-4248-868c-9c2bbbe886e7","system_id":"levelo_inurba_marseille","lat":43.30557,"lon":5.36544,"is_reserved":false,"is_disabled":false,"rental_uris":{"android":"levelo://app?vid=8a6a71a1-d788-4248-868c-9c2bbbe886e7","ios":"levelo://app?vid=8a6a71a1-d788-4248-868c-9c2bbbe886e7"},"vehicle_type_id":"4","last_reported":1726057009,"current_range_meters":3600,"station_id":"ce4bgs12rcd13ifvqcag","pricing_plan_id":"cebpf4jnsgd1na2vs0mg"},{"bike_id":"b57b7c50-b45e-48bf-80f1-5809fd7245ab","system_id":"levelo_inurba_marseille","lat":43.26685,"lon":5.3828,"is_reserved":false,"is_disabled":false,"rental_uris":{"android":"levelo://app?vid=b57b7c50-b45e-48bf-80f1-5809fd7245ab","ios":"levelo://app?vid=b57b7c50-b45e-48bf-80f1-5809fd7245ab"},"vehicle_type_id":"4","last_reported":1726057009,"current_range_meters":38800,"station_id":"ce4bhg92rcd13ifvqf90","pricing_plan_id":"cebpf4jnsgd1na2vs0mg"},{"bike_id":"9734d854-1bee-4703-b105-c182cf679f1a","system_id":"levelo_inurba_marseille","lat":43.25934,"lon":5.40906,"is_reserved":false,"is_disabled":false,"rental_uris":{"android":"levelo://app?vid=9734d854-1bee-4703-b105-c182cf679f1a","ios":"levelo://app?vid=9734d854-1bee-4703-b105-c182cf679f1a"},"vehicle_type_id":"4","last_reported":1726057009,"current_range_meters":19200,"station_id":"ce4bhm92rcd13ifvqglg","pricing_plan_id":"cebpf4jnsgd1na2vs0mg"},{"bike_id":"1b8e2124-c9b2-450b-8e12-e90ed145db35","system_id":"levelo_inurba_marseille","lat":43.29842,"lon":5.36259,"is_reserved":false,"is_disabled":false,"rental_uris":{"android":"levelo://app?vid=1b8e2124-c9b2-450b-8e12-e90ed145db35","ios":"levelo://app?vid=1b8e2124-c9b2-450b-8e12-e90ed145db35"},"vehicle_type_id":"4","last_reported":1726057009,"current_range_meters":33200,"station_id":"ce4bgpp2rcd13ifvqc3g","pricing_plan_id":"cebpf4jnsgd1na2vs0mg"},{"bike_id":"dc25e7e5-2e2d-47f2-8b02-d73c5122dd03","system_id":"levelo_inurba_marseille","lat":43.27065,"lon":5.42281,"is_reserved":false,"is_disabled":false,"rental_uris":{"android":"levelo://app?vid=dc25e7e5-2e2d-47f2-8b02-d73c5122dd03","ios":"levelo://app?vid=dc25e7e5-2e2d-47f2-8b02-d73c5122dd03"},"vehicle_type_id":"4","last_reported":1726057009,"current_range_meters":2800,"station_id":"ce4bhk92rcd13ifvqgb0","pricing_plan_id":"cebpf4jnsgd1na2vs0mg"},{"bike_id":"4e49efab-0cfa-4ca8-8581-aaf730a81456","system_id":"levelo_inurba_marseille","lat":43.29785,"lon":5.39344,"is_reserved":false,"is_disabled":false,"rental_uris":{"android":"levelo://app?vid=4e49efab-0cfa-4ca8-8581-aaf730a81456","ios":"levelo://app?vid=4e49efab-0cfa-4ca8-8581-aaf730a81456"},"vehicle_type_id":"4","last_reported":1726057009,"current_range_meters":39200,"station_id":"chh1huq6cuj3fo74tm60","pricing_plan_id":"cebpf4jnsgd1na2vs0mg"},{"bike_id":"da9cf560-bd94-4bf1-80a2-02b50e8a8e8b","system_id":"levelo_inurba_marseille","lat":43.27318,"lon":5.39081,"is_reserved":false,"is_disabled":false,"rental_uris":{"android":"levelo://app?vid=da9cf560-bd94-4bf1-80a2-02b50e8a8e8b","ios":"levelo://app?vid=da9cf560-bd94-4bf1-80a2-02b50e8a8e8b"},"vehicle_type_id":"4","last_reported":1726057009,"current_range_meters":10800,"station_id":"ce4bhgp2rcd13ifvqfe0","pricing_plan_id":"cebpf4jnsgd1na2vs0mg"},{"bike_id":"e082a46a-f196-43b0-9cd1-9b2e906a6ee4","system_id":"levelo_inurba_marseille","lat":43.26787,"lon":5.39417,"is_reserved":false,"is_disabled":false,"rental_uris":{"android":"levelo://app?vid=e082a46a-f196-43b0-9cd1-9b2e906a6ee4","ios":"levelo://app?vid=e082a46a-f196-43b0-9cd1-9b2e906a6ee4"},"vehicle_type_id":"4","last_reported":1726057009,"current_range_meters":21600,"station_id":"ce4bhh12rcd13ifvqfg0","pricing_plan_id":"cebpf4jnsgd1na2vs0mg"},{"bike_id":"0f0894d7-2205-4192-a29f-48c116cf0184","system_id":"levelo_inurba_marseille","lat":43.30176,"lon":5.36631,"is_reserved":false,"is_disabled":false,"rental_uris":{"android":"levelo://app?vid=0f0894d7-2205-4192-a29f-48c116cf0184","ios":"levelo://app?vid=0f0894d7-2205-4192-a29f-48c116cf0184"},"vehicle_type_id":"4","last_reported":1726057009,"current_range_meters":9200,"station_id":"ce4bgrh2rcd13ifvqc8g","pricing_plan_id":"cebpf4jnsgd1na2vs0mg"},{"bike_id":"7876f957-da73-4dac-91a4-696aecd59a59","system_id":"levelo_inurba_marseille","lat":43.33768,"lon":5.37434,"is_reserved":false,"is_disabled":false,"rental_uris":{"android":"levelo://app?vid=7876f957-da73-4dac-91a4-696aecd59a59","ios":"levelo://app?vid=7876f957-da73-4dac-91a4-696aecd59a59"},"vehicle_type_id":"4","last_reported":1726057009,"current_range_meters":38400,"station_id":"","pricing_plan_id":"cebpf4jnsgd1na2vs0mg"},{"bike_id":"a3c30c85-909f-49f7-a7f9-2b4800abb237","system_id":"levelo_inurba_marseille","lat":43.2842,"lon":5.34988,"is_reserved":false,"is_disabled":false,"rental_uris":{"android":"levelo://app?vid=a3c30c85-909f-49f7-a7f9-2b4800abb237","ios":"levelo://app?vid=a3c30c85-909f-49f7-a7f9-2b4800abb237"},"vehicle_type_id":"4","last_reported":1726057009,"current_range_meters":14000,"station_id":"ce4bhbh2rcd13ifvqepg","pricing_plan_id":"cebpf4jnsgd1na2vs0mg"},{"bike_id":"764df115-754f-47f2-8a00-f0383baa223e","system_id":"levelo_inurba_marseille","lat":43.26953,"lon":5.38629,"is_reserved":false,"is_disabled":false,"rental_uris":{"android":"levelo://app?vid=764df115-754f-47f2-8a00-f0383baa223e","ios":"levelo://app?vid=764df115-754f-47f2-8a00-f0383baa223e"},"vehicle_type_id":"4","last_reported":1726057009,"current_range_meters":11600,"station_id":"ce4bhh92rcd13ifvqfh0","pricing_plan_id":"cebpf4jnsgd1na2vs0mg"},{"bike_id":"aaf6dc9c-0f49-4cfb-8053-0ab150017608","system_id":"levelo_inurba_marseille","lat":43.25939,"lon":5.40899,"is_reserved":false,"is_disabled":false,"rental_uris":{"android":"levelo://app?vid=aaf6dc9c-0f49-4cfb-8053-0ab150017608","ios":"levelo://app?vid=aaf6dc9c-0f49-4cfb-8053-0ab150017608"},"vehicle_type_id":"4","last_reported":1726057009,"current_range_meters":32000,"station_id":"ce4bhm92rcd13ifvqglg","pricing_plan_id":"cebpf4jnsgd1na2vs0mg"},{"bike_id":"c22bf776-82f1-423d-83f3-ab20051eb388","system_id":"levelo_inurba_marseille","lat":43.33616,"lon":5.41038,"is_reserved":false,"is_disabled":false,"rental_uris":{"android":"levelo://app?vid=c22bf776-82f1-423d-83f3-ab20051eb388","ios":"levelo://app?vid=c22bf776-82f1-423d-83f3-ab20051eb388"},"vehicle_type_id":"4","last_reported":1726057009,"current_range_meters":4800,"station_id":"ce4bhqh2rcd13ifvqhmg","pricing_plan_id":"cebpf4jnsgd1na2vs0mg"},{"bike_id":"1fc06e71-ca21-4c11-a920-7b8c0db40830","system_id":"levelo_inurba_marseille","lat":43.254976,"lon":5.379069,"is_reserved":false,"is_disabled":false,"rental_uris":{"android":"levelo://app?vid=1fc06e71-ca21-4c11-a920-7b8c0db40830","ios":"levelo://app?vid=1fc06e71-ca21-4c11-a920-7b8c0db40830"},"vehicle_type_id":"4","last_reported":1726057009,"current_range_meters":22800,"station_id":"","pricing_plan_id":"cebpf4jnsgd1na2vs0mg"},{"bike_id":"682d6a83-4be7-4875-9582-a7844aa64b02","system_id":"levelo_inurba_marseille","lat":43.30143,"lon":5.37424,"is_reserved":false,"is_disabled":false,"rental_uris":{"android":"levelo://app?vid=682d6a83-4be7-4875-9582-a7844aa64b02","ios":"levelo://app?vid=682d6a83-4be7-4875-9582-a7844aa64b02"},"vehicle_type_id":"4","last_reported":1726057009,"current_range_meters":12000,"station_id":"ce4bgs92rcd13ifvqcc0","pricing_plan_id":"cebpf4jnsgd1na2vs0mg"},{"bike_id":"88cf5dd6-c835-4104-9def-26019de205df","system_id":"levelo_inurba_marseille","lat":43.29898,"lon":5.43671,"is_reserved":false,"is_disabled":false,"rental_uris":{"android":"levelo://app?vid=88cf5dd6-c835-4104-9def-26019de205df","ios":"levelo://app?vid=88cf5dd6-c835-4104-9def-26019de205df"},"vehicle_type_id":"4","last_reported":1726057009,"current_range_meters":35200,"station_id":"ce4bhpp2rcd13ifvqhfg","pricing_plan_id":"cebpf4jnsgd1na2vs0mg"},{"bike_id":"3998518a-c67d-4c39-a5fe-455a76b06642","system_id":"levelo_inurba_marseille","lat":43.30611,"lon":5.37229,"is_reserved":false,"is_disabled":false,"rental_uris":{"android":"levelo://app?vid=3998518a-c67d-4c39-a5fe-455a76b06642","ios":"levelo://app?vid=3998518a-c67d-4c39-a5fe-455a76b06642"},"vehicle_type_id":"4","last_reported":1726057009,"current_range_meters":8800,"station_id":"ce4bgqh2rcd13ifvqc4g","pricing_plan_id":"cebpf4jnsgd1na2vs0mg"},{"bike_id":"c5555afa-f31f-4168-bb75-4715c308c07e","system_id":"levelo_inurba_marseille","lat":43.29691,"lon":5.37316,"is_reserved":false,"is_disabled":false,"rental_uris":{"android":"levelo://app?vid=c5555afa-f31f-4168-bb75-4715c308c07e","ios":"levelo://app?vid=c5555afa-f31f-4168-bb75-4715c308c07e"},"vehicle_type_id":"4","last_reported":1726057009,"current_range_meters":32000,"station_id":"ce4bgk12rcd13ifvqbj0","pricing_plan_id":"cebpf4jnsgd1na2vs0mg"},{"bike_id":"0a399320-3934-4592-a0d7-c89b8f73fb58","system_id":"levelo_inurba_marseille","lat":43.3055,"lon":5.36694,"is_reserved":false,"is_disabled":false,"rental_uris":{"android":"levelo://app?vid=0a399320-3934-4592-a0d7-c89b8f73fb58","ios":"levelo://app?vid=0a399320-3934-4592-a0d7-c89b8f73fb58"},"vehicle_type_id":"4","last_reported":1726057009,"current_range_meters":39200,"station_id":"ce4bgrp2rcd13ifvqc9g","pricing_plan_id":"cebpf4jnsgd1na2vs0mg"},{"bike_id":"580259f6-3ca2-4d16-9ed8-882e6461e2b7","system_id":"levelo_inurba_marseille","lat":43.26683,"lon":5.38272,"is_reserved":false,"is_disabled":false,"rental_uris":{"android":"levelo://app?vid=580259f6-3ca2-4d16-9ed8-882e6461e2b7","ios":"levelo://app?vid=580259f6-3ca2-4d16-9ed8-882e6461e2b7"},"vehicle_type_id":"4","last_reported":1726057009,"current_range_meters":18000,"station_id":"ce4bhg92rcd13ifvqf90","pricing_plan_id":"cebpf4jnsgd1na2vs0mg"},{"bike_id":"05044dc5-d217-4d2f-8c90-e2a966da26fb","system_id":"levelo_inurba_marseille","lat":43.25091,"lon":5.39531,"is_reserved":false,"is_disabled":false,"rental_uris":{"android":"levelo://app?vid=05044dc5-d217-4d2f-8c90-e2a966da26fb","ios":"levelo://app?vid=05044dc5-d217-4d2f-8c90-e2a966da26fb"},"vehicle_type_id":"4","last_reported":1726057009,"current_range_meters":26000,"station_id":"ce4bhm12rcd13ifvqgkg","pricing_plan_id":"cebpf4jnsgd1na2vs0mg"},{"bike_id":"723c073e-5c6a-4fb9-a382-e8ea44a73076","system_id":"levelo_inurba_marseille","lat":43.29558,"lon":5.42288,"is_reserved":false,"is_disabled":false,"rental_uris":{"android":"levelo://app?vid=723c073e-5c6a-4fb9-a382-e8ea44a73076","ios":"levelo://app?vid=723c073e-5c6a-4fb9-a382-e8ea44a73076"},"vehicle_type_id":"4","last_reported":1726057009,"current_range_meters":34000,"station_id":"ce4bhph2rcd13ifvqhdg","pricing_plan_id":"cebpf4jnsgd1na2vs0mg"},{"bike_id":"2aad4b02-945c-4d35-b3a5-85b3d17dc503","system_id":"levelo_inurba_marseille","lat":43.32297,"lon":5.3825,"is_reserved":false,"is_disabled":false,"rental_uris":{"android":"levelo://app?vid=2aad4b02-945c-4d35-b3a5-85b3d17dc503","ios":"levelo://app?vid=2aad4b02-945c-4d35-b3a5-85b3d17dc503"},"vehicle_type_id":"4","last_reported":1726057009,"current_range_meters":2800,"station_id":"ce4bhr12rcd13ifvqhqg","pricing_plan_id":"cebpf4jnsgd1na2vs0mg"},{"bike_id":"ca83b445-f9b8-4c3b-8fbf-9f0e930b1f13","system_id":"levelo_inurba_marseille","lat":43.29845,"lon":5.36275,"is_reserved":false,"is_disabled":false,"rental_uris":{"android":"levelo://app?vid=ca83b445-f9b8-4c3b-8fbf-9f0e930b1f13","ios":"levelo://app?vid=ca83b445-f9b8-4c3b-8fbf-9f0e930b1f13"},"vehicle_type_id":"4","last_reported":1726057009,"current_range_meters":36800,"station_id":"ce4bgpp2rcd13ifvqc3g","pricing_plan_id":"cebpf4jnsgd1na2vs0mg"},{"bike_id":"47eb9b26-2e51-46f4-a126-b44f42550daa","system_id":"levelo_inurba_marseille","lat":43.30281,"lon":5.37695,"is_reserved":false,"is_disabled":false,"rental_uris":{"android":"levelo://app?vid=47eb9b26-2e51-46f4-a126-b44f42550daa","ios":"levelo://app?vid=47eb9b26-2e51-46f4-a126-b44f42550daa"},"vehicle_type_id":"4","last_reported":1726057009,"current_range_meters":12800,"station_id":"ce4bguh2rcd13ifvqcj0","pricing_plan_id":"cebpf4jnsgd1na2vs0mg"},{"bike_id":"293bda51-9576-4304-b92c-c060057bed94","system_id":"levelo_inurba_marseille","lat":43.27376,"lon":5.3625,"is_reserved":false,"is_disabled":false,"rental_uris":{"android":"levelo://app?vid=293bda51-9576-4304-b92c-c060057bed94","ios":"levelo://app?vid=293bda51-9576-4304-b92c-c060057bed94"},"vehicle_type_id":"4","last_reported":1726057009,"current_range_meters":6800,"station_id":"ce4bhbh2rcd13ifvqeo0","pricing_plan_id":"cebpf4jnsgd1na2vs0mg"},{"bike_id":"80517cc1-69f0-4d8a-98cf-1adc8526c83e","system_id":"levelo_inurba_marseille","lat":43.2439,"lon":5.37058,"is_reserved":false,"is_disabled":false,"rental_uris":{"android":"levelo://app?vid=80517cc1-69f0-4d8a-98cf-1adc8526c83e","ios":"levelo://app?vid=80517cc1-69f0-4d8a-98cf-1adc8526c83e"},"vehicle_type_id":"4","last_reported":1726057009,"current_range_meters":22400,"station_id":"ce4bhhh2rcd13ifvqfk0","pricing_plan_id":"cebpf4jnsgd1na2vs0mg"},{"bike_id":"7a7391cc-69fd-47a2-89c6-c65796624acf","system_id":"levelo_inurba_marseille","lat":43.266824,"lon":5.382733,"is_reserved":false,"is_disabled":false,"rental_uris":{"android":"levelo://app?vid=7a7391cc-69fd-47a2-89c6-c65796624acf","ios":"levelo://app?vid=7a7391cc-69fd-47a2-89c6-c65796624acf"},"vehicle_type_id":"4","last_reported":1726057009,"current_range_meters":3200,"station_id":"ce4bhg92rcd13ifvqf90","pricing_plan_id":"cebpf4jnsgd1na2vs0mg"},{"bike_id":"73b9e7db-6862-45af-a8fe-5c1dd087d721","system_id":"levelo_inurba_marseille","lat":43.28433,"lon":5.39191,"is_reserved":false,"is_disabled":false,"rental_uris":{"android":"levelo://app?vid=73b9e7db-6862-45af-a8fe-5c1dd087d721","ios":"levelo://app?vid=73b9e7db-6862-45af-a8fe-5c1dd087d721"},"vehicle_type_id":"4","last_reported":1726057009,"current_range_meters":36800,"station_id":"ce4bhoh2rcd13ifvqh5g","pricing_plan_id":"cebpf4jnsgd1na2vs0mg"},{"bike_id":"d1fc0d47-7769-454b-be6a-1c17b2b03cc9","system_id":"levelo_inurba_marseille","lat":43.29845,"lon":5.3627,"is_reserved":false,"is_disabled":false,"rental_uris":{"android":"levelo://app?vid=d1fc0d47-7769-454b-be6a-1c17b2b03cc9","ios":"levelo://app?vid=d1fc0d47-7769-454b-be6a-1c17b2b03cc9"},"vehicle_type_id":"4","last_reported":1726057009,"current_range_meters":17600,"station_id":"ce4bgpp2rcd13ifvqc3g","pricing_plan_id":"cebpf4jnsgd1na2vs0mg"},{"bike_id":"83babb1f-2d07-4a77-86df-cee59a4741b9","system_id":"levelo_inurba_marseille","lat":43.28428,"lon":5.3919,"is_reserved":false,"is_disabled":false,"rental_uris":{"android":"levelo://app?vid=83babb1f-2d07-4a77-86df-cee59a4741b9","ios":"levelo://app?vid=83babb1f-2d07-4a77-86df-cee59a4741b9"},"vehicle_type_id":"4","last_reported":1726057009,"current_range_meters":35200,"station_id":"ce4bhoh2rcd13ifvqh5g","pricing_plan_id":"cebpf4jnsgd1na2vs0mg"},{"bike_id":"813359b2-3322-4822-97a2-b86680fbb9a6","system_id":"levelo_inurba_marseille","lat":43.24391,"lon":5.37061,"is_reserved":false,"is_disabled":false,"rental_uris":{"android":"levelo://app?vid=813359b2-3322-4822-97a2-b86680fbb9a6","ios":"levelo://app?vid=813359b2-3322-4822-97a2-b86680fbb9a6"},"vehicle_type_id":"4","last_reported":1726057009,"current_range_meters":33200,"station_id":"ce4bhhh2rcd13ifvqfk0","pricing_plan_id":"cebpf4jnsgd1na2vs0mg"},{"bike_id":"df5bd83d-06d4-432f-83c4-381810e7a4a9","system_id":"levelo_inurba_marseille","lat":43.25931,"lon":5.40907,"is_reserved":false,"is_disabled":false,"rental_uris":{"android":"levelo://app?vid=df5bd83d-06d4-432f-83c4-381810e7a4a9","ios":"levelo://app?vid=df5bd83d-06d4-432f-83c4-381810e7a4a9"},"vehicle_type_id":"4","last_reported":1726057009,"current_range_meters":28000,"station_id":"ce4bhm92rcd13ifvqglg","pricing_plan_id":"cebpf4jnsgd1na2vs0mg"},{"bike_id":"dd7f6df3-46e6-4f22-b872-d4de8dbafbeb","system_id":"levelo_inurba_marseille","lat":43.28274,"lon":5.35071,"is_reserved":false,"is_disabled":false,"rental_uris":{"android":"levelo://app?vid=dd7f6df3-46e6-4f22-b872-d4de8dbafbeb","ios":"levelo://app?vid=dd7f6df3-46e6-4f22-b872-d4de8dbafbeb"},"vehicle_type_id":"4","last_reported":1726057009,"current_range_meters":25600,"station_id":"ce4bhbp2rcd13ifvqerg","pricing_plan_id":"cebpf4jnsgd1na2vs0mg"},{"bike_id":"4681948f-a2f8-4829-86a6-9b22fff2131d","system_id":"levelo_inurba_marseille","lat":43.24387,"lon":5.37058,"is_reserved":false,"is_disabled":false,"rental_uris":{"android":"levelo://app?vid=4681948f-a2f8-4829-86a6-9b22fff2131d","ios":"levelo://app?vid=4681948f-a2f8-4829-86a6-9b22fff2131d"},"vehicle_type_id":"4","last_reported":1726057009,"current_range_meters":9200,"station_id":"ce4bhhh2rcd13ifvqfk0","pricing_plan_id":"cebpf4jnsgd1na2vs0mg"},{"bike_id":"12c46a6b-f94d-4887-aab7-fe147f78c9b2","system_id":"levelo_inurba_marseille","lat":43.27671,"lon":5.38881,"is_reserved":false,"is_disabled":false,"rental_uris":{"android":"levelo://app?vid=12c46a6b-f94d-4887-aab7-fe147f78c9b2","ios":"levelo://app?vid=12c46a6b-f94d-4887-aab7-fe147f78c9b2"},"vehicle_type_id":"4","last_reported":1726057009,"current_range_meters":17600,"station_id":"ce4bhi12rcd13ifvqfo0","pricing_plan_id":"cebpf4jnsgd1na2vs0mg"},{"bike_id":"e255837d-3471-4ee5-91a0-c027571f1c16","system_id":"levelo_inurba_marseille","lat":43.34147,"lon":5.40906,"is_reserved":false,"is_disabled":false,"rental_uris":{"android":"levelo://app?vid=e255837d-3471-4ee5-91a0-c027571f1c16","ios":"levelo://app?vid=e255837d-3471-4ee5-91a0-c027571f1c16"},"vehicle_type_id":"4","last_reported":1726057009,"current_range_meters":14400,"station_id":"ce4bhqh2rcd13ifvqhlg","pricing_plan_id":"cebpf4jnsgd1na2vs0mg"},{"bike_id":"79c10507-70cc-470f-8bea-ca8a478ada46","system_id":"levelo_inurba_marseille","lat":43.30948,"lon":5.39051,"is_reserved":false,"is_disabled":false,"rental_uris":{"android":"levelo://app?vid=79c10507-70cc-470f-8bea-ca8a478ada46","ios":"levelo://app?vid=79c10507-70cc-470f-8bea-ca8a478ada46"},"vehicle_type_id":"4","last_reported":1726057009,"current_range_meters":18000,"station_id":"ce4bgup2rcd13ifvqco0","pricing_plan_id":"cebpf4jnsgd1na2vs0mg"},{"bike_id":"74d7f432-f596-45ae-b14d-0ddc7f8a62f6","system_id":"levelo_inurba_marseille","lat":43.23147,"lon":5.43715,"is_reserved":false,"is_disabled":false,"rental_uris":{"android":"levelo://app?vid=74d7f432-f596-45ae-b14d-0ddc7f8a62f6","ios":"levelo://app?vid=74d7f432-f596-45ae-b14d-0ddc7f8a62f6"},"vehicle_type_id":"4","last_reported":1726057009,"current_range_meters":8800,"station_id":"ce4bhmp2rcd13ifvqgog","pricing_plan_id":"cebpf4jnsgd1na2vs0mg"},{"bike_id":"c9f2f83d-6815-4c21-848a-e106ac514083","system_id":"levelo_inurba_marseille","lat":43.28274,"lon":5.35081,"is_reserved":false,"is_disabled":false,"rental_uris":{"android":"levelo://app?vid=c9f2f83d-6815-4c21-848a-e106ac514083","ios":"levelo://app?vid=c9f2f83d-6815-4c21-848a-e106ac514083"},"vehicle_type_id":"4","last_reported":1726057009,"current_range_meters":28000,"station_id":"ce4bhbp2rcd13ifvqerg","pricing_plan_id":"cebpf4jnsgd1na2vs0mg"},{"bike_id":"bdba71e7-8469-4b08-9cd2-323fbe8f89f9","system_id":"levelo_inurba_marseille","lat":43.28607,"lon":5.3706,"is_reserved":false,"is_disabled":false,"rental_uris":{"android":"levelo://app?vid=bdba71e7-8469-4b08-9cd2-323fbe8f89f9","ios":"levelo://app?vid=bdba71e7-8469-4b08-9cd2-323fbe8f89f9"},"vehicle_type_id":"4","last_reported":1726057009,"current_range_meters":2800,"station_id":"ce4bht12rcd13ifvqi60","pricing_plan_id":"cebpf4jnsgd1na2vs0mg"},{"bike_id":"883adf4f-9822-48e8-9c16-82ae0dbc702a","system_id":"levelo_inurba_marseille","lat":43.2315,"lon":5.43702,"is_reserved":false,"is_disabled":false,"rental_uris":{"android":"levelo://app?vid=883adf4f-9822-48e8-9c16-82ae0dbc702a","ios":"levelo://app?vid=883adf4f-9822-48e8-9c16-82ae0dbc702a"},"vehicle_type_id":"4","last_reported":1726057009,"current_range_meters":8800,"station_id":"ce4bhmp2rcd13ifvqgog","pricing_plan_id":"cebpf4jnsgd1na2vs0mg"},{"bike_id":"7dcd8fcd-6a55-496a-8a72-6799b3b822ef","system_id":"levelo_inurba_marseille","lat":43.28272,"lon":5.35073,"is_reserved":false,"is_disabled":false,"rental_uris":{"android":"levelo://app?vid=7dcd8fcd-6a55-496a-8a72-6799b3b822ef","ios":"levelo://app?vid=7dcd8fcd-6a55-496a-8a72-6799b3b822ef"},"vehicle_type_id":"4","last_reported":1726057009,"current_range_meters":29600,"station_id":"ce4bhbp2rcd13ifvqerg","pricing_plan_id":"cebpf4jnsgd1na2vs0mg"},{"bike_id":"c71f32af-4532-40a0-87f3-6f59af87149d","system_id":"levelo_inurba_marseille","lat":43.28943,"lon":5.36638,"is_reserved":false,"is_disabled":false,"rental_uris":{"android":"levelo://app?vid=c71f32af-4532-40a0-87f3-6f59af87149d","ios":"levelo://app?vid=c71f32af-4532-40a0-87f3-6f59af87149d"},"vehicle_type_id":"4","last_reported":1726057009,"current_range_meters":24000,"station_id":"ce4bhap2rcd13ifvqek0","pricing_plan_id":"cebpf4jnsgd1na2vs0mg"},{"bike_id":"691f2629-8889-429c-821e-8f2e78669185","system_id":"levelo_inurba_marseille","lat":43.337444,"lon":5.374475,"is_reserved":false,"is_disabled":false,"rental_uris":{"android":"levelo://app?vid=691f2629-8889-429c-821e-8f2e78669185","ios":"levelo://app?vid=691f2629-8889-429c-821e-8f2e78669185"},"vehicle_type_id":"4","last_reported":1726057009,"current_range_meters":34000,"station_id":"ce4bh092rcd13ifvqd20","pricing_plan_id":"cebpf4jnsgd1na2vs0mg"},{"bike_id":"e6f96de0-61ec-4748-a734-8c2cacbee67f","system_id":"levelo_inurba_marseille","lat":43.23053,"lon":5.35486,"is_reserved":false,"is_disabled":false,"rental_uris":{"android":"levelo://app?vid=e6f96de0-61ec-4748-a734-8c2cacbee67f","ios":"levelo://app?vid=e6f96de0-61ec-4748-a734-8c2cacbee67f"},"vehicle_type_id":"4","last_reported":1726057009,"current_range_meters":6000,"station_id":"cpo3342slgdg3j2ifvpg","pricing_plan_id":"cebpf4jnsgd1na2vs0mg"},{"bike_id":"9a3c6365-df00-48f6-9220-61b0c5e00a7f","system_id":"levelo_inurba_marseille","lat":43.28442,"lon":5.39186,"is_reserved":false,"is_disabled":false,"rental_uris":{"android":"levelo://app?vid=9a3c6365-df00-48f6-9220-61b0c5e00a7f","ios":"levelo://app?vid=9a3c6365-df00-48f6-9220-61b0c5e00a7f"},"vehicle_type_id":"4","last_reported":1726057009,"current_range_meters":24000,"station_id":"ce4bhoh2rcd13ifvqh5g","pricing_plan_id":"cebpf4jnsgd1na2vs0mg"},{"bike_id":"8fda4dc6-9bf4-4946-8e46-7d1bedd7ec6c","system_id":"levelo_inurba_marseille","lat":43.30214,"lon":5.39471,"is_reserved":false,"is_disabled":false,"rental_uris":{"android":"levelo://app?vid=8fda4dc6-9bf4-4946-8e46-7d1bedd7ec6c","ios":"levelo://app?vid=8fda4dc6-9bf4-4946-8e46-7d1bedd7ec6c"},"vehicle_type_id":"4","last_reported":1726057009,"current_range_meters":8800,"station_id":"ce4bh0p2rcd13ifvqd70","pricing_plan_id":"cebpf4jnsgd1na2vs0mg"},{"bike_id":"638343ce-15e7-4192-b8b3-9dbbe2d9e121","system_id":"levelo_inurba_marseille","lat":43.27184,"lon":5.40996,"is_reserved":false,"is_disabled":false,"rental_uris":{"android":"levelo://app?vid=638343ce-15e7-4192-b8b3-9dbbe2d9e121","ios":"levelo://app?vid=638343ce-15e7-4192-b8b3-9dbbe2d9e121"},"vehicle_type_id":"4","last_reported":1726057009,"current_range_meters":36000,"station_id":"ce4bhl12rcd13ifvqgf0","pricing_plan_id":"cebpf4jnsgd1na2vs0mg"},{"bike_id":"ca736aa2-9ae6-4cb8-b0fe-510d91a35421","system_id":"levelo_inurba_marseille","lat":43.30567,"lon":5.36537,"is_reserved":false,"is_disabled":false,"rental_uris":{"android":"levelo://app?vid=ca736aa2-9ae6-4cb8-b0fe-510d91a35421","ios":"levelo://app?vid=ca736aa2-9ae6-4cb8-b0fe-510d91a35421"},"vehicle_type_id":"4","last_reported":1726057009,"current_range_meters":18800,"station_id":"ce4bgs12rcd13ifvqcag","pricing_plan_id":"cebpf4jnsgd1na2vs0mg"},{"bike_id":"de0036c5-3604-4f0a-b9d1-9d4857b4c4c2","system_id":"levelo_inurba_marseille","lat":43.27668,"lon":5.38885,"is_reserved":false,"is_disabled":false,"rental_uris":{"android":"levelo://app?vid=de0036c5-3604-4f0a-b9d1-9d4857b4c4c2","ios":"levelo://app?vid=de0036c5-3604-4f0a-b9d1-9d4857b4c4c2"},"vehicle_type_id":"4","last_reported":1726057009,"current_range_meters":8400,"station_id":"ce4bhi12rcd13ifvqfo0","pricing_plan_id":"cebpf4jnsgd1na2vs0mg"},{"bike_id":"3b163329-75e0-42ce-a395-e2936b5dfbec","system_id":"levelo_inurba_marseille","lat":43.2955,"lon":5.42272,"is_reserved":false,"is_disabled":false,"rental_uris":{"android":"levelo://app?vid=3b163329-75e0-42ce-a395-e2936b5dfbec","ios":"levelo://app?vid=3b163329-75e0-42ce-a395-e2936b5dfbec"},"vehicle_type_id":"4","last_reported":1726057009,"current_range_meters":30400,"station_id":"ce4bhph2rcd13ifvqhdg","pricing_plan_id":"cebpf4jnsgd1na2vs0mg"},{"bike_id":"3f4bfdae-c521-4fe4-b9ac-e44cde9a9a59","system_id":"levelo_inurba_marseille","lat":43.24801,"lon":5.37454,"is_reserved":false,"is_disabled":false,"rental_uris":{"android":"levelo://app?vid=3f4bfdae-c521-4fe4-b9ac-e44cde9a9a59","ios":"levelo://app?vid=3f4bfdae-c521-4fe4-b9ac-e44cde9a9a59"},"vehicle_type_id":"4","last_reported":1726057009,"current_range_meters":20800,"station_id":"ce4bhgh2rcd13ifvqfb0","pricing_plan_id":"cebpf4jnsgd1na2vs0mg"},{"bike_id":"f0974e9a-31a3-4c17-841c-57224836aa7a","system_id":"levelo_inurba_marseille","lat":43.24183,"lon":5.3972,"is_reserved":false,"is_disabled":false,"rental_uris":{"android":"levelo://app?vid=f0974e9a-31a3-4c17-841c-57224836aa7a","ios":"levelo://app?vid=f0974e9a-31a3-4c17-841c-57224836aa7a"},"vehicle_type_id":"4","last_reported":1726057009,"current_range_meters":23200,"station_id":"ce4bhn12rcd13ifvqgpg","pricing_plan_id":"cebpf4jnsgd1na2vs0mg"},{"bike_id":"2f886a15-37e4-4dad-86c7-a7a6746278bd","system_id":"levelo_inurba_marseille","lat":43.25941,"lon":5.40901,"is_reserved":false,"is_disabled":false,"rental_uris":{"android":"levelo://app?vid=2f886a15-37e4-4dad-86c7-a7a6746278bd","ios":"levelo://app?vid=2f886a15-37e4-4dad-86c7-a7a6746278bd"},"vehicle_type_id":"4","last_reported":1726057009,"current_range_meters":33200,"station_id":"ce4bhm92rcd13ifvqglg","pricing_plan_id":"cebpf4jnsgd1na2vs0mg"},{"bike_id":"c92f72b1-5ddf-4c1c-b230-a2521bf22d3c","system_id":"levelo_inurba_marseille","lat":43.30531,"lon":5.36704,"is_reserved":false,"is_disabled":false,"rental_uris":{"android":"levelo://app?vid=c92f72b1-5ddf-4c1c-b230-a2521bf22d3c","ios":"levelo://app?vid=c92f72b1-5ddf-4c1c-b230-a2521bf22d3c"},"vehicle_type_id":"4","last_reported":1726057009,"current_range_meters":32000,"station_id":"ce4bgrp2rcd13ifvqc9g","pricing_plan_id":"cebpf4jnsgd1na2vs0mg"},{"bike_id":"6b4268a5-c55a-429f-b7cc-306a1ef61fda","system_id":"levelo_inurba_marseille","lat":43.28931,"lon":5.36643,"is_reserved":false,"is_disabled":false,"rental_uris":{"android":"levelo://app?vid=6b4268a5-c55a-429f-b7cc-306a1ef61fda","ios":"levelo://app?vid=6b4268a5-c55a-429f-b7cc-306a1ef61fda"},"vehicle_type_id":"4","last_reported":1726057009,"current_range_meters":4400,"station_id":"ce4bhap2rcd13ifvqek0","pricing_plan_id":"cebpf4jnsgd1na2vs0mg"},{"bike_id":"903a17fc-6d51-47bc-8223-972952786bdc","system_id":"levelo_inurba_marseille","lat":43.2319,"lon":5.3999,"is_reserved":false,"is_disabled":false,"rental_uris":{"android":"levelo://app?vid=903a17fc-6d51-47bc-8223-972952786bdc","ios":"levelo://app?vid=903a17fc-6d51-47bc-8223-972952786bdc"},"vehicle_type_id":"4","last_reported":1726057009,"current_range_meters":18000,"station_id":"ce4bhn12rcd13ifvqgqg","pricing_plan_id":"cebpf4jnsgd1na2vs0mg"},{"bike_id":"12e74b20-5078-4c0a-be57-68ea4374248f","system_id":"levelo_inurba_marseille","lat":43.25087,"lon":5.39517,"is_reserved":false,"is_disabled":false,"rental_uris":{"android":"levelo://app?vid=12e74b20-5078-4c0a-be57-68ea4374248f","ios":"levelo://app?vid=12e74b20-5078-4c0a-be57-68ea4374248f"},"vehicle_type_id":"4","last_reported":1726057009,"current_range_meters":24400,"station_id":"ce4bhm12rcd13ifvqgkg","pricing_plan_id":"cebpf4jnsgd1na2vs0mg"},{"bike_id":"4eb5cf07-a838-47ac-bfa9-94266ba671b6","system_id":"levelo_inurba_marseille","lat":43.2508,"lon":5.39525,"is_reserved":false,"is_disabled":false,"rental_uris":{"android":"levelo://app?vid=4eb5cf07-a838-47ac-bfa9-94266ba671b6","ios":"levelo://app?vid=4eb5cf07-a838-47ac-bfa9-94266ba671b6"},"vehicle_type_id":"4","last_reported":1726057009,"current_range_meters":18000,"station_id":"ce4bhm12rcd13ifvqgkg","pricing_plan_id":"cebpf4jnsgd1na2vs0mg"},{"bike_id":"bb3dc9ac-db5a-4a63-a635-d5d43d6b394c","system_id":"levelo_inurba_marseille","lat":43.28936,"lon":5.36628,"is_reserved":false,"is_disabled":false,"rental_uris":{"android":"levelo://app?vid=bb3dc9ac-db5a-4a63-a635-d5d43d6b394c","ios":"levelo://app?vid=bb3dc9ac-db5a-4a63-a635-d5d43d6b394c"},"vehicle_type_id":"4","last_reported":1726057009,"current_range_meters":6800,"station_id":"ce4bhap2rcd13ifvqek0","pricing_plan_id":"cebpf4jnsgd1na2vs0mg"},{"bike_id":"0d78d25f-2501-4ffb-b495-6cd64f4c7d8f","system_id":"levelo_inurba_marseille","lat":43.24178,"lon":5.39727,"is_reserved":false,"is_disabled":false,"rental_uris":{"android":"levelo://app?vid=0d78d25f-2501-4ffb-b495-6cd64f4c7d8f","ios":"levelo://app?vid=0d78d25f-2501-4ffb-b495-6cd64f4c7d8f"},"vehicle_type_id":"4","last_reported":1726057009,"current_range_meters":19600,"station_id":"ce4bhn12rcd13ifvqgpg","pricing_plan_id":"cebpf4jnsgd1na2vs0mg"},{"bike_id":"8d703eb6-1560-4a00-92bf-990938569b51","system_id":"levelo_inurba_marseille","lat":43.33714,"lon":5.37397,"is_reserved":false,"is_disabled":false,"rental_uris":{"android":"levelo://app?vid=8d703eb6-1560-4a00-92bf-990938569b51","ios":"levelo://app?vid=8d703eb6-1560-4a00-92bf-990938569b51"},"vehicle_type_id":"4","last_reported":1726057009,"current_range_meters":12800,"station_id":"","pricing_plan_id":"cebpf4jnsgd1na2vs0mg"},{"bike_id":"daab6d33-1de9-4536-9c3f-112d06fe3b1b","system_id":"levelo_inurba_marseille","lat":43.28437,"lon":5.39182,"is_reserved":false,"is_disabled":false,"rental_uris":{"android":"levelo://app?vid=daab6d33-1de9-4536-9c3f-112d06fe3b1b","ios":"levelo://app?vid=daab6d33-1de9-4536-9c3f-112d06fe3b1b"},"vehicle_type_id":"4","last_reported":1726057009,"current_range_meters":27600,"station_id":"ce4bhoh2rcd13ifvqh5g","pricing_plan_id":"cebpf4jnsgd1na2vs0mg"},{"bike_id":"183f1e2e-2cf8-4b28-8a17-5a4c8ed08f98","system_id":"levelo_inurba_marseille","lat":43.2619,"lon":5.37447,"is_reserved":false,"is_disabled":false,"rental_uris":{"android":"levelo://app?vid=183f1e2e-2cf8-4b28-8a17-5a4c8ed08f98","ios":"levelo://app?vid=183f1e2e-2cf8-4b28-8a17-5a4c8ed08f98"},"vehicle_type_id":"4","last_reported":1726057009,"current_range_meters":33600,"station_id":"ce4bhgp2rcd13ifvqfc0","pricing_plan_id":"cebpf4jnsgd1na2vs0mg"},{"bike_id":"f98437bb-0b0f-4da3-ae80-b993396fadcb","system_id":"levelo_inurba_marseille","lat":43.31177,"lon":5.38726,"is_reserved":false,"is_disabled":false,"rental_uris":{"android":"levelo://app?vid=f98437bb-0b0f-4da3-ae80-b993396fadcb","ios":"levelo://app?vid=f98437bb-0b0f-4da3-ae80-b993396fadcb"},"vehicle_type_id":"4","last_reported":1726057009,"current_range_meters":3600,"station_id":"ce4bgv12rcd13ifvqcp0","pricing_plan_id":"cebpf4jnsgd1na2vs0mg"},{"bike_id":"3b764e36-9179-46fa-a102-dabcc05508ec","system_id":"levelo_inurba_marseille","lat":43.301344,"lon":5.387793,"is_reserved":false,"is_disabled":false,"rental_uris":{"android":"levelo://app?vid=3b764e36-9179-46fa-a102-dabcc05508ec","ios":"levelo://app?vid=3b764e36-9179-46fa-a102-dabcc05508ec"},"vehicle_type_id":"4","last_reported":1726057009,"current_range_meters":23200,"station_id":"ce4bgt12rcd13ifvqcd0","pricing_plan_id":"cebpf4jnsgd1na2vs0mg"},{"bike_id":"37d8c39f-1cdd-4f24-9274-2d093441df6e","system_id":"levelo_inurba_marseille","lat":43.31241,"lon":5.36866,"is_reserved":false,"is_disabled":false,"rental_uris":{"android":"levelo://app?vid=37d8c39f-1cdd-4f24-9274-2d093441df6e","ios":"levelo://app?vid=37d8c39f-1cdd-4f24-9274-2d093441df6e"},"vehicle_type_id":"4","last_reported":1726057009,"current_range_meters":30000,"station_id":"","pricing_plan_id":"cebpf4jnsgd1na2vs0mg"},{"bike_id":"1fa994aa-0442-4f93-9f86-820c01823ea5","system_id":"levelo_inurba_marseille","lat":43.33607,"lon":5.41033,"is_reserved":false,"is_disabled":false,"rental_uris":{"android":"levelo://app?vid=1fa994aa-0442-4f93-9f86-820c01823ea5","ios":"levelo://app?vid=1fa994aa-0442-4f93-9f86-820c01823ea5"},"vehicle_type_id":"4","last_reported":1726057009,"current_range_meters":17600,"station_id":"ce4bhqh2rcd13ifvqhmg","pricing_plan_id":"cebpf4jnsgd1na2vs0mg"},{"bike_id":"853e41cf-d448-405b-a47e-b170c8731ca1","system_id":"levelo_inurba_marseille","lat":43.30546,"lon":5.36535,"is_reserved":false,"is_disabled":false,"rental_uris":{"android":"levelo://app?vid=853e41cf-d448-405b-a47e-b170c8731ca1","ios":"levelo://app?vid=853e41cf-d448-405b-a47e-b170c8731ca1"},"vehicle_type_id":"4","last_reported":1726057009,"current_range_meters":36400,"station_id":"ce4bgs12rcd13ifvqcag","pricing_plan_id":"cebpf4jnsgd1na2vs0mg"},{"bike_id":"3774f0da-cfcc-41cf-9ab6-9acf83169616","system_id":"levelo_inurba_marseille","lat":43.29855,"lon":5.36284,"is_reserved":false,"is_disabled":false,"rental_uris":{"android":"levelo://app?vid=3774f0da-cfcc-41cf-9ab6-9acf83169616","ios":"levelo://app?vid=3774f0da-cfcc-41cf-9ab6-9acf83169616"},"vehicle_type_id":"4","last_reported":1726057009,"current_range_meters":24400,"station_id":"ce4bgpp2rcd13ifvqc3g","pricing_plan_id":"cebpf4jnsgd1na2vs0mg"},{"bike_id":"dd2d66a6-976d-43e6-83be-d6211ff78acc","system_id":"levelo_inurba_marseille","lat":43.33733,"lon":5.39175,"is_reserved":false,"is_disabled":false,"rental_uris":{"android":"levelo://app?vid=dd2d66a6-976d-43e6-83be-d6211ff78acc","ios":"levelo://app?vid=dd2d66a6-976d-43e6-83be-d6211ff78acc"},"vehicle_type_id":"4","last_reported":1726057009,"current_range_meters":17600,"station_id":"ce4bhr92rcd13ifvqhsg","pricing_plan_id":"cebpf4jnsgd1na2vs0mg"},{"bike_id":"a2a1f7cb-d451-4d22-9102-eac2267b21fa","system_id":"levelo_inurba_marseille","lat":43.27576,"lon":5.38417,"is_reserved":false,"is_disabled":false,"rental_uris":{"android":"levelo://app?vid=a2a1f7cb-d451-4d22-9102-eac2267b21fa","ios":"levelo://app?vid=a2a1f7cb-d451-4d22-9102-eac2267b21fa"},"vehicle_type_id":"4","last_reported":1726057009,"current_range_meters":38800,"station_id":"ce4bhh92rcd13ifvqfi0","pricing_plan_id":"cebpf4jnsgd1na2vs0mg"},{"bike_id":"22790256-ccac-496a-a45b-454ea8ae2c37","system_id":"levelo_inurba_marseille","lat":43.2318,"lon":5.39988,"is_reserved":false,"is_disabled":false,"rental_uris":{"android":"levelo://app?vid=22790256-ccac-496a-a45b-454ea8ae2c37","ios":"levelo://app?vid=22790256-ccac-496a-a45b-454ea8ae2c37"},"vehicle_type_id":"4","last_reported":1726057009,"current_range_meters":3200,"station_id":"ce4bhn12rcd13ifvqgqg","pricing_plan_id":"cebpf4jnsgd1na2vs0mg"},{"bike_id":"ca333844-ed11-4e92-b488-e3f7c1538794","system_id":"levelo_inurba_marseille","lat":43.23194,"lon":5.35553,"is_reserved":false,"is_disabled":false,"rental_uris":{"android":"levelo://app?vid=ca333844-ed11-4e92-b488-e3f7c1538794","ios":"levelo://app?vid=ca333844-ed11-4e92-b488-e3f7c1538794"},"vehicle_type_id":"4","last_reported":1726057009,"current_range_meters":30800,"station_id":"ce4bhu92rcd13ifvqi70","pricing_plan_id":"cebpf4jnsgd1na2vs0mg"},{"bike_id":"6f4b1573-4922-4d4c-a827-43d0265b8f2f","system_id":"levelo_inurba_marseille","lat":43.309265,"lon":5.401585,"is_reserved":false,"is_disabled":false,"rental_uris":{"android":"levelo://app?vid=6f4b1573-4922-4d4c-a827-43d0265b8f2f","ios":"levelo://app?vid=6f4b1573-4922-4d4c-a827-43d0265b8f2f"},"vehicle_type_id":"4","last_reported":1726057009,"current_range_meters":8000,"station_id":"ce4bgvp2rcd13ifvqct0","pricing_plan_id":"cebpf4jnsgd1na2vs0mg"},{"bike_id":"53d62468-643a-40bd-ac37-ca3fb24b6459","system_id":"levelo_inurba_marseille","lat":43.24546,"lon":5.3952,"is_reserved":false,"is_disabled":false,"rental_uris":{"android":"levelo://app?vid=53d62468-643a-40bd-ac37-ca3fb24b6459","ios":"levelo://app?vid=53d62468-643a-40bd-ac37-ca3fb24b6459"},"vehicle_type_id":"4","last_reported":1726057009,"current_range_meters":14800,"station_id":"ce4bhlp2rcd13ifvqgjg","pricing_plan_id":"cebpf4jnsgd1na2vs0mg"},{"bike_id":"a6a6c0ad-fb47-421e-ab4f-898cc77ab646","system_id":"levelo_inurba_marseille","lat":43.23153,"lon":5.43713,"is_reserved":false,"is_disabled":false,"rental_uris":{"android":"levelo://app?vid=a6a6c0ad-fb47-421e-ab4f-898cc77ab646","ios":"levelo://app?vid=a6a6c0ad-fb47-421e-ab4f-898cc77ab646"},"vehicle_type_id":"4","last_reported":1726057009,"current_range_meters":20800,"station_id":"ce4bhmp2rcd13ifvqgog","pricing_plan_id":"cebpf4jnsgd1na2vs0mg"},{"bike_id":"37c4ba85-c648-464a-b862-79b12398d1bb","system_id":"levelo_inurba_marseille","lat":43.28913,"lon":5.37177,"is_reserved":false,"is_disabled":false,"rental_uris":{"android":"levelo://app?vid=37c4ba85-c648-464a-b862-79b12398d1bb","ios":"levelo://app?vid=37c4ba85-c648-464a-b862-79b12398d1bb"},"vehicle_type_id":"4","last_reported":1726057009,"current_range_meters":20000,"station_id":"ce4bh3p2rcd13ifvqdq0","pricing_plan_id":"cebpf4jnsgd1na2vs0mg"},{"bike_id":"0f2d9545-5626-4769-9f71-a87a485602bf","system_id":"levelo_inurba_marseille","lat":43.32541,"lon":5.41435,"is_reserved":false,"is_disabled":false,"rental_uris":{"android":"levelo://app?vid=0f2d9545-5626-4769-9f71-a87a485602bf","ios":"levelo://app?vid=0f2d9545-5626-4769-9f71-a87a485602bf"},"vehicle_type_id":"4","last_reported":1726057009,"current_range_meters":9600,"station_id":"ce4bhq12rcd13ifvqhhg","pricing_plan_id":"cebpf4jnsgd1na2vs0mg"},{"bike_id":"5876c5ef-9fac-478d-bd3c-ea1780c21005","system_id":"levelo_inurba_marseille","lat":43.33755,"lon":5.37446,"is_reserved":false,"is_disabled":false,"rental_uris":{"android":"levelo://app?vid=5876c5ef-9fac-478d-bd3c-ea1780c21005","ios":"levelo://app?vid=5876c5ef-9fac-478d-bd3c-ea1780c21005"},"vehicle_type_id":"4","last_reported":1726057009,"current_range_meters":38400,"station_id":"","pricing_plan_id":"cebpf4jnsgd1na2vs0mg"},{"bike_id":"3ef293cb-6b10-47c2-a61b-1c747b67c2aa","system_id":"levelo_inurba_marseille","lat":43.22929,"lon":5.35378,"is_reserved":false,"is_disabled":false,"rental_uris":{"android":"levelo://app?vid=3ef293cb-6b10-47c2-a61b-1c747b67c2aa","ios":"levelo://app?vid=3ef293cb-6b10-47c2-a61b-1c747b67c2aa"},"vehicle_type_id":"4","last_reported":1726057009,"current_range_meters":35600,"station_id":"cpo3532slgdg3j2ikp40","pricing_plan_id":"cebpf4jnsgd1na2vs0mg"},{"bike_id":"66f92ba4-058e-4f41-88d2-2ab6d0bc9600","system_id":"levelo_inurba_marseille","lat":43.28699,"lon":5.39983,"is_reserved":false,"is_disabled":false,"rental_uris":{"android":"levelo://app?vid=66f92ba4-058e-4f41-88d2-2ab6d0bc9600","ios":"levelo://app?vid=66f92ba4-058e-4f41-88d2-2ab6d0bc9600"},"vehicle_type_id":"4","last_reported":1726057009,"current_range_meters":29600,"station_id":"ce4bho92rcd13ifvqh3g","pricing_plan_id":"cebpf4jnsgd1na2vs0mg"},{"bike_id":"fd3035c2-1c23-400a-a097-c66b6a8f3914","system_id":"levelo_inurba_marseille","lat":43.277618,"lon":5.355907,"is_reserved":false,"is_disabled":false,"rental_uris":{"android":"levelo://app?vid=fd3035c2-1c23-400a-a097-c66b6a8f3914","ios":"levelo://app?vid=fd3035c2-1c23-400a-a097-c66b6a8f3914"},"vehicle_type_id":"4","last_reported":1726057009,"current_range_meters":14800,"station_id":"","pricing_plan_id":"cebpf4jnsgd1na2vs0mg"},{"bike_id":"482aab35-5abe-410e-8552-3c3e28707da3","system_id":"levelo_inurba_marseille","lat":43.30947,"lon":5.39049,"is_reserved":false,"is_disabled":false,"rental_uris":{"android":"levelo://app?vid=482aab35-5abe-410e-8552-3c3e28707da3","ios":"levelo://app?vid=482aab35-5abe-410e-8552-3c3e28707da3"},"vehicle_type_id":"4","last_reported":1726057009,"current_range_meters":35200,"station_id":"ce4bgup2rcd13ifvqco0","pricing_plan_id":"cebpf4jnsgd1na2vs0mg"},{"bike_id":"cd8034bf-8ead-4e0b-bbf4-e754e85e2c73","system_id":"levelo_inurba_marseille","lat":43.31711,"lon":5.43702,"is_reserved":false,"is_disabled":false,"rental_uris":{"android":"levelo://app?vid=cd8034bf-8ead-4e0b-bbf4-e754e85e2c73","ios":"levelo://app?vid=cd8034bf-8ead-4e0b-bbf4-e754e85e2c73"},"vehicle_type_id":"4","last_reported":1726057009,"current_range_meters":18800,"station_id":"ce4bhp92rcd13ifvqhcg","pricing_plan_id":"cebpf4jnsgd1na2vs0mg"},{"bike_id":"2c5144c4-a44b-4693-9692-c3a9142e1b31","system_id":"levelo_inurba_marseille","lat":43.29871,"lon":5.3974,"is_reserved":false,"is_disabled":false,"rental_uris":{"android":"levelo://app?vid=2c5144c4-a44b-4693-9692-c3a9142e1b31","ios":"levelo://app?vid=2c5144c4-a44b-4693-9692-c3a9142e1b31"},"vehicle_type_id":"4","last_reported":1726057009,"current_range_meters":30800,"station_id":"ce4bh0h2rcd13ifvqd50","pricing_plan_id":"cebpf4jnsgd1na2vs0mg"},{"bike_id":"89c50d6b-3a9a-45c5-ab8a-25e70d260e74","system_id":"levelo_inurba_marseille","lat":43.30648,"lon":5.40094,"is_reserved":false,"is_disabled":false,"rental_uris":{"android":"levelo://app?vid=89c50d6b-3a9a-45c5-ab8a-25e70d260e74","ios":"levelo://app?vid=89c50d6b-3a9a-45c5-ab8a-25e70d260e74"},"vehicle_type_id":"4","last_reported":1726057009,"current_range_meters":25200,"station_id":"ce4bgj12rcd13ifvqbc0","pricing_plan_id":"cebpf4jnsgd1na2vs0mg"},{"bike_id":"9ecc2991-25b1-43d8-8253-10b99fac0036","system_id":"levelo_inurba_marseille","lat":43.30548,"lon":5.36526,"is_reserved":false,"is_disabled":false,"rental_uris":{"android":"levelo://app?vid=9ecc2991-25b1-43d8-8253-10b99fac0036","ios":"levelo://app?vid=9ecc2991-25b1-43d8-8253-10b99fac0036"},"vehicle_type_id":"4","last_reported":1726057009,"current_range_meters":34800,"station_id":"ce4bgs12rcd13ifvqcag","pricing_plan_id":"cebpf4jnsgd1na2vs0mg"},{"bike_id":"e80aca27-bc03-4d4c-ad3d-9f1df805aa08","system_id":"levelo_inurba_marseille","lat":43.23966,"lon":5.36636,"is_reserved":false,"is_disabled":false,"rental_uris":{"android":"levelo://app?vid=e80aca27-bc03-4d4c-ad3d-9f1df805aa08","ios":"levelo://app?vid=e80aca27-bc03-4d4c-ad3d-9f1df805aa08"},"vehicle_type_id":"4","last_reported":1726057009,"current_range_meters":4000,"station_id":"ce4bhi12rcd13ifvqfp0","pricing_plan_id":"cebpf4jnsgd1na2vs0mg"},{"bike_id":"c9da0774-0680-4020-bb36-e88fbe984bd3","system_id":"levelo_inurba_marseille","lat":43.28438,"lon":5.3918,"is_reserved":false,"is_disabled":false,"rental_uris":{"android":"levelo://app?vid=c9da0774-0680-4020-bb36-e88fbe984bd3","ios":"levelo://app?vid=c9da0774-0680-4020-bb36-e88fbe984bd3"},"vehicle_type_id":"4","last_reported":1726057009,"current_range_meters":12800,"station_id":"ce4bhoh2rcd13ifvqh5g","pricing_plan_id":"cebpf4jnsgd1na2vs0mg"},{"bike_id":"e71a1ea5-4590-4a80-93e4-67aaca23c452","system_id":"levelo_inurba_marseille","lat":43.299067,"lon":5.374873,"is_reserved":false,"is_disabled":false,"rental_uris":{"android":"levelo://app?vid=e71a1ea5-4590-4a80-93e4-67aaca23c452","ios":"levelo://app?vid=e71a1ea5-4590-4a80-93e4-67aaca23c452"},"vehicle_type_id":"4","last_reported":1726057009,"current_range_meters":34000,"station_id":"ce4bhbp2rcd13ifvqerg","pricing_plan_id":"cebpf4jnsgd1na2vs0mg"},{"bike_id":"de997810-7554-46cd-8ba3-7bf0bb9bdff4","system_id":"levelo_inurba_marseille","lat":43.25932,"lon":5.40911,"is_reserved":false,"is_disabled":false,"rental_uris":{"android":"levelo://app?vid=de997810-7554-46cd-8ba3-7bf0bb9bdff4","ios":"levelo://app?vid=de997810-7554-46cd-8ba3-7bf0bb9bdff4"},"vehicle_type_id":"4","last_reported":1726057009,"current_range_meters":27600,"station_id":"ce4bhm92rcd13ifvqglg","pricing_plan_id":"cebpf4jnsgd1na2vs0mg"},{"bike_id":"ca493541-0878-4c24-bcaf-aa00cf00a1a9","system_id":"levelo_inurba_marseille","lat":43.3061,"lon":5.37227,"is_reserved":false,"is_disabled":false,"rental_uris":{"android":"levelo://app?vid=ca493541-0878-4c24-bcaf-aa00cf00a1a9","ios":"levelo://app?vid=ca493541-0878-4c24-bcaf-aa00cf00a1a9"},"vehicle_type_id":"4","last_reported":1726057009,"current_range_meters":38800,"station_id":"ce4bgqh2rcd13ifvqc4g","pricing_plan_id":"cebpf4jnsgd1na2vs0mg"},{"bike_id":"8cd12cd8-764e-40b4-879c-e03483e2dcaa","system_id":"levelo_inurba_marseille","lat":43.28446,"lon":5.39198,"is_reserved":false,"is_disabled":false,"rental_uris":{"android":"levelo://app?vid=8cd12cd8-764e-40b4-879c-e03483e2dcaa","ios":"levelo://app?vid=8cd12cd8-764e-40b4-879c-e03483e2dcaa"},"vehicle_type_id":"4","last_reported":1726057009,"current_range_meters":27600,"station_id":"ce4bhoh2rcd13ifvqh5g","pricing_plan_id":"cebpf4jnsgd1na2vs0mg"},{"bike_id":"1058e7c1-db33-402e-9be8-9d1ad73f4d5f","system_id":"levelo_inurba_marseille","lat":43.30556,"lon":5.36723,"is_reserved":false,"is_disabled":false,"rental_uris":{"android":"levelo://app?vid=1058e7c1-db33-402e-9be8-9d1ad73f4d5f","ios":"levelo://app?vid=1058e7c1-db33-402e-9be8-9d1ad73f4d5f"},"vehicle_type_id":"4","last_reported":1726057009,"current_range_meters":36800,"station_id":"ce4bgrp2rcd13ifvqc9g","pricing_plan_id":"cebpf4jnsgd1na2vs0mg"},{"bike_id":"54fb0787-fa9c-4ff4-96a5-a95bfab64da7","system_id":"levelo_inurba_marseille","lat":43.23064,"lon":5.35491,"is_reserved":false,"is_disabled":false,"rental_uris":{"android":"levelo://app?vid=54fb0787-fa9c-4ff4-96a5-a95bfab64da7","ios":"levelo://app?vid=54fb0787-fa9c-4ff4-96a5-a95bfab64da7"},"vehicle_type_id":"4","last_reported":1726057009,"current_range_meters":18000,"station_id":"cpo3342slgdg3j2ifvpg","pricing_plan_id":"cebpf4jnsgd1na2vs0mg"},{"bike_id":"8ad0f033-0eb0-4d4f-9bfb-6fec674c5b0f","system_id":"levelo_inurba_marseille","lat":43.25588,"lon":5.38234,"is_reserved":false,"is_disabled":false,"rental_uris":{"android":"levelo://app?vid=8ad0f033-0eb0-4d4f-9bfb-6fec674c5b0f","ios":"levelo://app?vid=8ad0f033-0eb0-4d4f-9bfb-6fec674c5b0f"},"vehicle_type_id":"4","last_reported":1726057009,"current_range_meters":28000,"station_id":"ce4bhih2rcd13ifvqfs0","pricing_plan_id":"cebpf4jnsgd1na2vs0mg"},{"bike_id":"cf88964a-2b12-44af-8e44-73097f5db6bb","system_id":"levelo_inurba_marseille","lat":43.2922,"lon":5.36059,"is_reserved":false,"is_disabled":false,"rental_uris":{"android":"levelo://app?vid=cf88964a-2b12-44af-8e44-73097f5db6bb","ios":"levelo://app?vid=cf88964a-2b12-44af-8e44-73097f5db6bb"},"vehicle_type_id":"4","last_reported":1726057009,"current_range_meters":32000,"station_id":"ce4bhbh2rcd13ifvqeqg","pricing_plan_id":"cebpf4jnsgd1na2vs0mg"},{"bike_id":"f45ec182-9359-40e1-9d29-51a7570945d5","system_id":"levelo_inurba_marseille","lat":43.26683,"lon":5.38273,"is_reserved":false,"is_disabled":false,"rental_uris":{"android":"levelo://app?vid=f45ec182-9359-40e1-9d29-51a7570945d5","ios":"levelo://app?vid=f45ec182-9359-40e1-9d29-51a7570945d5"},"vehicle_type_id":"4","last_reported":1726057009,"current_range_meters":28400,"station_id":"ce4bhg92rcd13ifvqf90","pricing_plan_id":"cebpf4jnsgd1na2vs0mg"},{"bike_id":"bf066a66-d97e-4389-aa90-8aaed1ab4103","system_id":"levelo_inurba_marseille","lat":43.23152,"lon":5.43716,"is_reserved":false,"is_disabled":false,"rental_uris":{"android":"levelo://app?vid=bf066a66-d97e-4389-aa90-8aaed1ab4103","ios":"levelo://app?vid=bf066a66-d97e-4389-aa90-8aaed1ab4103"},"vehicle_type_id":"4","last_reported":1726057009,"current_range_meters":2800,"station_id":"ce4bhmp2rcd13ifvqgog","pricing_plan_id":"cebpf4jnsgd1na2vs0mg"},{"bike_id":"c7f8f8b5-9e54-4834-bf79-1c8b784a87a2","system_id":"levelo_inurba_marseille","lat":43.337444,"lon":5.374475,"is_reserved":false,"is_disabled":false,"rental_uris":{"android":"levelo://app?vid=c7f8f8b5-9e54-4834-bf79-1c8b784a87a2","ios":"levelo://app?vid=c7f8f8b5-9e54-4834-bf79-1c8b784a87a2"},"vehicle_type_id":"4","last_reported":1726057009,"current_range_meters":22000,"station_id":"","pricing_plan_id":"cebpf4jnsgd1na2vs0mg"},{"bike_id":"eeb7ee54-1b87-4517-93b5-66727d7903ca","system_id":"levelo_inurba_marseille","lat":43.28617,"lon":5.35111,"is_reserved":false,"is_disabled":false,"rental_uris":{"android":"levelo://app?vid=eeb7ee54-1b87-4517-93b5-66727d7903ca","ios":"levelo://app?vid=eeb7ee54-1b87-4517-93b5-66727d7903ca"},"vehicle_type_id":"4","last_reported":1726057009,"current_range_meters":38800,"station_id":"ce4bhch2rcd13ifvqeug","pricing_plan_id":"cebpf4jnsgd1na2vs0mg"},{"bike_id":"3dabd871-e0a5-47af-a32c-a8bd882e1b5f","system_id":"levelo_inurba_marseille","lat":43.25493,"lon":5.37646,"is_reserved":false,"is_disabled":false,"rental_uris":{"android":"levelo://app?vid=3dabd871-e0a5-47af-a32c-a8bd882e1b5f","ios":"levelo://app?vid=3dabd871-e0a5-47af-a32c-a8bd882e1b5f"},"vehicle_type_id":"4","last_reported":1726057009,"current_range_meters":6800,"station_id":"ce4bhh12rcd13ifvqff0","pricing_plan_id":"cebpf4jnsgd1na2vs0mg"},{"bike_id":"5722f385-0124-4bed-a8de-85c0d18d21ac","system_id":"levelo_inurba_marseille","lat":43.25941,"lon":5.40899,"is_reserved":false,"is_disabled":false,"rental_uris":{"android":"levelo://app?vid=5722f385-0124-4bed-a8de-85c0d18d21ac","ios":"levelo://app?vid=5722f385-0124-4bed-a8de-85c0d18d21ac"},"vehicle_type_id":"4","last_reported":1726057009,"current_range_meters":28800,"station_id":"ce4bhm92rcd13ifvqglg","pricing_plan_id":"cebpf4jnsgd1na2vs0mg"},{"bike_id":"c47ec582-38fd-4bea-af3f-eb560b94cee9","system_id":"levelo_inurba_marseille","lat":43.291998,"lon":5.35807,"is_reserved":false,"is_disabled":false,"rental_uris":{"android":"levelo://app?vid=c47ec582-38fd-4bea-af3f-eb560b94cee9","ios":"levelo://app?vid=c47ec582-38fd-4bea-af3f-eb560b94cee9"},"vehicle_type_id":"4","last_reported":1726057009,"current_range_meters":18800,"station_id":"ce4bhg12rcd13ifvqf60","pricing_plan_id":"cebpf4jnsgd1na2vs0mg"},{"bike_id":"002876f4-9769-400c-b484-39af422ae52e","system_id":"levelo_inurba_marseille","lat":43.337444,"lon":5.374475,"is_reserved":false,"is_disabled":false,"rental_uris":{"android":"levelo://app?vid=002876f4-9769-400c-b484-39af422ae52e","ios":"levelo://app?vid=002876f4-9769-400c-b484-39af422ae52e"},"vehicle_type_id":"4","last_reported":1726057009,"current_range_meters":33600,"station_id":"ce4bh0h2rcd13ifvqd50","pricing_plan_id":"cebpf4jnsgd1na2vs0mg"},{"bike_id":"4c377dae-ec91-451f-9cfc-a7d68b830430","system_id":"levelo_inurba_marseille","lat":43.2693,"lon":5.38922,"is_reserved":false,"is_disabled":false,"rental_uris":{"android":"levelo://app?vid=4c377dae-ec91-451f-9cfc-a7d68b830430","ios":"levelo://app?vid=4c377dae-ec91-451f-9cfc-a7d68b830430"},"vehicle_type_id":"4","last_reported":1726057009,"current_range_meters":28000,"station_id":"ce4bhhh2rcd13ifvqfl0","pricing_plan_id":"cebpf4jnsgd1na2vs0mg"},{"bike_id":"a5ebfc3b-dfca-42ce-a6b2-fff0f4aa1394","system_id":"levelo_inurba_marseille","lat":43.29671,"lon":5.373,"is_reserved":false,"is_disabled":false,"rental_uris":{"android":"levelo://app?vid=a5ebfc3b-dfca-42ce-a6b2-fff0f4aa1394","ios":"levelo://app?vid=a5ebfc3b-dfca-42ce-a6b2-fff0f4aa1394"},"vehicle_type_id":"4","last_reported":1726057009,"current_range_meters":36000,"station_id":"ce4bgk12rcd13ifvqbj0","pricing_plan_id":"cebpf4jnsgd1na2vs0mg"},{"bike_id":"321dc09b-9853-4170-af08-25a0d828d560","system_id":"levelo_inurba_marseille","lat":43.23185,"lon":5.39988,"is_reserved":false,"is_disabled":false,"rental_uris":{"android":"levelo://app?vid=321dc09b-9853-4170-af08-25a0d828d560","ios":"levelo://app?vid=321dc09b-9853-4170-af08-25a0d828d560"},"vehicle_type_id":"4","last_reported":1726057009,"current_range_meters":35200,"station_id":"ce4bhn12rcd13ifvqgqg","pricing_plan_id":"cebpf4jnsgd1na2vs0mg"},{"bike_id":"aca486b8-d9de-467b-afdc-8af39c5b67f8","system_id":"levelo_inurba_marseille","lat":43.24665,"lon":5.38168,"is_reserved":false,"is_disabled":false,"rental_uris":{"android":"levelo://app?vid=aca486b8-d9de-467b-afdc-8af39c5b67f8","ios":"levelo://app?vid=aca486b8-d9de-467b-afdc-8af39c5b67f8"},"vehicle_type_id":"4","last_reported":1726057009,"current_range_meters":12800,"station_id":"ce4bhhh2rcd13ifvqfk0","pricing_plan_id":"cebpf4jnsgd1na2vs0mg"},{"bike_id":"e3c9107c-74a8-45bd-838b-6b0401121bef","system_id":"levelo_inurba_marseille","lat":43.31382,"lon":5.40761,"is_reserved":false,"is_disabled":false,"rental_uris":{"android":"levelo://app?vid=e3c9107c-74a8-45bd-838b-6b0401121bef","ios":"levelo://app?vid=e3c9107c-74a8-45bd-838b-6b0401121bef"},"vehicle_type_id":"4","last_reported":1726057009,"current_range_meters":7200,"station_id":"","pricing_plan_id":"cebpf4jnsgd1na2vs0mg"},{"bike_id":"f62c8ed3-aae9-44ef-96e7-313a322b251c","system_id":"levelo_inurba_marseille","lat":43.28697,"lon":5.37407,"is_reserved":false,"is_disabled":false,"rental_uris":{"android":"levelo://app?vid=f62c8ed3-aae9-44ef-96e7-313a322b251c","ios":"levelo://app?vid=f62c8ed3-aae9-44ef-96e7-313a322b251c"},"vehicle_type_id":"4","last_reported":1726057009,"current_range_meters":16000,"station_id":"ce4bh3p2rcd13ifvqdq0","pricing_plan_id":"cebpf4jnsgd1na2vs0mg"},{"bike_id":"a413017d-7b39-4212-a545-d797becdc991","system_id":"levelo_inurba_marseille","lat":43.23149,"lon":5.43719,"is_reserved":false,"is_disabled":false,"rental_uris":{"android":"levelo://app?vid=a413017d-7b39-4212-a545-d797becdc991","ios":"levelo://app?vid=a413017d-7b39-4212-a545-d797becdc991"},"vehicle_type_id":"4","last_reported":1726057009,"current_range_meters":16400,"station_id":"ce4bhmp2rcd13ifvqgog","pricing_plan_id":"cebpf4jnsgd1na2vs0mg"},{"bike_id":"4f9186ae-f72c-4b8e-ba9a-431b6576c950","system_id":"levelo_inurba_marseille","lat":43.29875,"lon":5.3891,"is_reserved":false,"is_disabled":false,"rental_uris":{"android":"levelo://app?vid=4f9186ae-f72c-4b8e-ba9a-431b6576c950","ios":"levelo://app?vid=4f9186ae-f72c-4b8e-ba9a-431b6576c950"},"vehicle_type_id":"4","last_reported":1726057009,"current_range_meters":15200,"station_id":"ce4bh392rcd13ifvqdl0","pricing_plan_id":"cebpf4jnsgd1na2vs0mg"},{"bike_id":"fa3a5175-d2ad-4c32-9b47-3aabf7d99aec","system_id":"levelo_inurba_marseille","lat":43.29063,"lon":5.35914,"is_reserved":false,"is_disabled":false,"rental_uris":{"android":"levelo://app?vid=fa3a5175-d2ad-4c32-9b47-3aabf7d99aec","ios":"levelo://app?vid=fa3a5175-d2ad-4c32-9b47-3aabf7d99aec"},"vehicle_type_id":"4","last_reported":1726057009,"current_range_meters":30800,"station_id":"ce4bha92rcd13ifvqeg0","pricing_plan_id":"cebpf4jnsgd1na2vs0mg"},{"bike_id":"1f9ae8bd-c5cb-482f-9df2-a21651efc56a","system_id":"levelo_inurba_marseille","lat":43.29528,"lon":5.39032,"is_reserved":false,"is_disabled":false,"rental_uris":{"android":"levelo://app?vid=1f9ae8bd-c5cb-482f-9df2-a21651efc56a","ios":"levelo://app?vid=1f9ae8bd-c5cb-482f-9df2-a21651efc56a"},"vehicle_type_id":"4","last_reported":1726057009,"current_range_meters":27600,"station_id":"ce4bh3p2rcd13ifvqdp0","pricing_plan_id":"cebpf4jnsgd1na2vs0mg"},{"bike_id":"c8e0fcb6-1d3f-4d83-b861-1f56e6b3ab2c","system_id":"levelo_inurba_marseille","lat":43.32297,"lon":5.38258,"is_reserved":false,"is_disabled":false,"rental_uris":{"android":"levelo://app?vid=c8e0fcb6-1d3f-4d83-b861-1f56e6b3ab2c","ios":"levelo://app?vid=c8e0fcb6-1d3f-4d83-b861-1f56e6b3ab2c"},"vehicle_type_id":"4","last_reported":1726057009,"current_range_meters":32000,"station_id":"ce4bhr12rcd13ifvqhqg","pricing_plan_id":"cebpf4jnsgd1na2vs0mg"},{"bike_id":"09126ccf-c12c-42c4-8020-e01b0a2af2b0","system_id":"levelo_inurba_marseille","lat":43.31225,"lon":5.38195,"is_reserved":false,"is_disabled":false,"rental_uris":{"android":"levelo://app?vid=09126ccf-c12c-42c4-8020-e01b0a2af2b0","ios":"levelo://app?vid=09126ccf-c12c-42c4-8020-e01b0a2af2b0"},"vehicle_type_id":"4","last_reported":1726057009,"current_range_meters":36800,"station_id":"","pricing_plan_id":"cebpf4jnsgd1na2vs0mg"},{"bike_id":"f5b1dabe-e623-447d-b216-8c8e2bfd95b2","system_id":"levelo_inurba_marseille","lat":43.30462,"lon":5.37909,"is_reserved":false,"is_disabled":false,"rental_uris":{"android":"levelo://app?vid=f5b1dabe-e623-447d-b216-8c8e2bfd95b2","ios":"levelo://app?vid=f5b1dabe-e623-447d-b216-8c8e2bfd95b2"},"vehicle_type_id":"4","last_reported":1726057009,"current_range_meters":35600,"station_id":"ce4bgup2rcd13ifvqcn0","pricing_plan_id":"cebpf4jnsgd1na2vs0mg"},{"bike_id":"2617da1d-a183-41db-bedb-112decfaebd8","system_id":"levelo_inurba_marseille","lat":43.2757,"lon":5.38421,"is_reserved":false,"is_disabled":false,"rental_uris":{"android":"levelo://app?vid=2617da1d-a183-41db-bedb-112decfaebd8","ios":"levelo://app?vid=2617da1d-a183-41db-bedb-112decfaebd8"},"vehicle_type_id":"4","last_reported":1726057009,"current_range_meters":8800,"station_id":"ce4bhh92rcd13ifvqfi0","pricing_plan_id":"cebpf4jnsgd1na2vs0mg"},{"bike_id":"394ba6fe-4a64-44af-8ad8-9ff0cdf59d14","system_id":"levelo_inurba_marseille","lat":43.30553,"lon":5.36532,"is_reserved":false,"is_disabled":false,"rental_uris":{"android":"levelo://app?vid=394ba6fe-4a64-44af-8ad8-9ff0cdf59d14","ios":"levelo://app?vid=394ba6fe-4a64-44af-8ad8-9ff0cdf59d14"},"vehicle_type_id":"4","last_reported":1726057009,"current_range_meters":17600,"station_id":"ce4bgs12rcd13ifvqcag","pricing_plan_id":"cebpf4jnsgd1na2vs0mg"},{"bike_id":"c52b81f0-f341-41f1-9724-0814c2548841","system_id":"levelo_inurba_marseille","lat":43.29579,"lon":5.36738,"is_reserved":false,"is_disabled":false,"rental_uris":{"android":"levelo://app?vid=c52b81f0-f341-41f1-9724-0814c2548841","ios":"levelo://app?vid=c52b81f0-f341-41f1-9724-0814c2548841"},"vehicle_type_id":"4","last_reported":1726057009,"current_range_meters":25600,"station_id":"ce4bgph2rcd13ifvqc2g","pricing_plan_id":"cebpf4jnsgd1na2vs0mg"},{"bike_id":"206eb04c-b603-40cb-b369-a8090514b8b3","system_id":"levelo_inurba_marseille","lat":43.28423,"lon":5.34991,"is_reserved":false,"is_disabled":false,"rental_uris":{"android":"levelo://app?vid=206eb04c-b603-40cb-b369-a8090514b8b3","ios":"levelo://app?vid=206eb04c-b603-40cb-b369-a8090514b8b3"},"vehicle_type_id":"4","last_reported":1726057009,"current_range_meters":32000,"station_id":"ce4bhbh2rcd13ifvqepg","pricing_plan_id":"cebpf4jnsgd1na2vs0mg"},{"bike_id":"3df3dd90-42ec-4ada-91cf-9e8a28468f81","system_id":"levelo_inurba_marseille","lat":43.24552,"lon":5.39526,"is_reserved":false,"is_disabled":false,"rental_uris":{"android":"levelo://app?vid=3df3dd90-42ec-4ada-91cf-9e8a28468f81","ios":"levelo://app?vid=3df3dd90-42ec-4ada-91cf-9e8a28468f81"},"vehicle_type_id":"4","last_reported":1726057009,"current_range_meters":12000,"station_id":"ce4bhlp2rcd13ifvqgjg","pricing_plan_id":"cebpf4jnsgd1na2vs0mg"},{"bike_id":"74e737b5-82b3-4055-9407-d70bde56ceed","system_id":"levelo_inurba_marseille","lat":43.30914,"lon":5.36852,"is_reserved":false,"is_disabled":false,"rental_uris":{"android":"levelo://app?vid=74e737b5-82b3-4055-9407-d70bde56ceed","ios":"levelo://app?vid=74e737b5-82b3-4055-9407-d70bde56ceed"},"vehicle_type_id":"4","last_reported":1726057009,"current_range_meters":33200,"station_id":"ce4bgn92rcd13ifvqbvg","pricing_plan_id":"cebpf4jnsgd1na2vs0mg"},{"bike_id":"9610f388-60c6-49bb-84bb-4ea91a1f925b","system_id":"levelo_inurba_marseille","lat":43.29551,"lon":5.42278,"is_reserved":false,"is_disabled":false,"rental_uris":{"android":"levelo://app?vid=9610f388-60c6-49bb-84bb-4ea91a1f925b","ios":"levelo://app?vid=9610f388-60c6-49bb-84bb-4ea91a1f925b"},"vehicle_type_id":"4","last_reported":1726057009,"current_range_meters":4800,"station_id":"ce4bhph2rcd13ifvqhdg","pricing_plan_id":"cebpf4jnsgd1na2vs0mg"},{"bike_id":"d37a25e5-2e6d-434d-95c8-14a950c64bbc","system_id":"levelo_inurba_marseille","lat":43.27379,"lon":5.36254,"is_reserved":false,"is_disabled":false,"rental_uris":{"android":"levelo://app?vid=d37a25e5-2e6d-434d-95c8-14a950c64bbc","ios":"levelo://app?vid=d37a25e5-2e6d-434d-95c8-14a950c64bbc"},"vehicle_type_id":"4","last_reported":1726057009,"current_range_meters":38000,"station_id":"ce4bhbh2rcd13ifvqeo0","pricing_plan_id":"cebpf4jnsgd1na2vs0mg"},{"bike_id":"9853c78c-8263-484a-97a8-9a982a387087","system_id":"levelo_inurba_marseille","lat":43.2619,"lon":5.37447,"is_reserved":false,"is_disabled":false,"rental_uris":{"android":"levelo://app?vid=9853c78c-8263-484a-97a8-9a982a387087","ios":"levelo://app?vid=9853c78c-8263-484a-97a8-9a982a387087"},"vehicle_type_id":"4","last_reported":1726057009,"current_range_meters":38000,"station_id":"ce4bhgp2rcd13ifvqfc0","pricing_plan_id":"cebpf4jnsgd1na2vs0mg"},{"bike_id":"3ab10fe4-918a-4cc4-b5f1-41590ac16313","system_id":"levelo_inurba_marseille","lat":43.28414,"lon":5.3499,"is_reserved":false,"is_disabled":false,"rental_uris":{"android":"levelo://app?vid=3ab10fe4-918a-4cc4-b5f1-41590ac16313","ios":"levelo://app?vid=3ab10fe4-918a-4cc4-b5f1-41590ac16313"},"vehicle_type_id":"4","last_reported":1726057009,"current_range_meters":20000,"station_id":"ce4bhbh2rcd13ifvqepg","pricing_plan_id":"cebpf4jnsgd1na2vs0mg"},{"bike_id":"9854f29a-55a7-4041-a7d0-a03be8794bd3","system_id":"levelo_inurba_marseille","lat":43.31114,"lon":5.37763,"is_reserved":false,"is_disabled":false,"rental_uris":{"android":"levelo://app?vid=9854f29a-55a7-4041-a7d0-a03be8794bd3","ios":"levelo://app?vid=9854f29a-55a7-4041-a7d0-a03be8794bd3"},"vehicle_type_id":"4","last_reported":1726057009,"current_range_meters":24000,"station_id":"ce4bgt92rcd13ifvqcg0","pricing_plan_id":"cebpf4jnsgd1na2vs0mg"},{"bike_id":"1342df15-a06f-4e9a-81ae-3586a6ec6603","system_id":"levelo_inurba_marseille","lat":43.27813,"lon":5.40715,"is_reserved":false,"is_disabled":false,"rental_uris":{"android":"levelo://app?vid=1342df15-a06f-4e9a-81ae-3586a6ec6603","ios":"levelo://app?vid=1342df15-a06f-4e9a-81ae-3586a6ec6603"},"vehicle_type_id":"4","last_reported":1726057009,"current_range_meters":26000,"station_id":"ce4bhnh2rcd13ifvqgtg","pricing_plan_id":"cebpf4jnsgd1na2vs0mg"},{"bike_id":"39186751-f75a-440a-82a0-1296e8662da9","system_id":"levelo_inurba_marseille","lat":43.273529,"lon":5.362817,"is_reserved":false,"is_disabled":false,"rental_uris":{"android":"levelo://app?vid=39186751-f75a-440a-82a0-1296e8662da9","ios":"levelo://app?vid=39186751-f75a-440a-82a0-1296e8662da9"},"vehicle_type_id":"4","last_reported":1726057009,"current_range_meters":27600,"station_id":"ce4bhbh2rcd13ifvqeo0","pricing_plan_id":"cebpf4jnsgd1na2vs0mg"},{"bike_id":"4cb3f6a4-d878-42a2-8c6f-53aacf3eda67","system_id":"levelo_inurba_marseille","lat":43.30548,"lon":5.36531,"is_reserved":false,"is_disabled":false,"rental_uris":{"android":"levelo://app?vid=4cb3f6a4-d878-42a2-8c6f-53aacf3eda67","ios":"levelo://app?vid=4cb3f6a4-d878-42a2-8c6f-53aacf3eda67"},"vehicle_type_id":"4","last_reported":1726057009,"current_range_meters":30400,"station_id":"ce4bgs12rcd13ifvqcag","pricing_plan_id":"cebpf4jnsgd1na2vs0mg"},{"bike_id":"925f024c-5558-4f13-a811-01b927d9e78e","system_id":"levelo_inurba_marseille","lat":43.2315,"lon":5.43709,"is_reserved":false,"is_disabled":false,"rental_uris":{"android":"levelo://app?vid=925f024c-5558-4f13-a811-01b927d9e78e","ios":"levelo://app?vid=925f024c-5558-4f13-a811-01b927d9e78e"},"vehicle_type_id":"4","last_reported":1726057009,"current_range_meters":19200,"station_id":"ce4bhmp2rcd13ifvqgog","pricing_plan_id":"cebpf4jnsgd1na2vs0mg"},{"bike_id":"f400d370-a20e-4ced-86f0-64f62510749c","system_id":"levelo_inurba_marseille","lat":43.3237,"lon":5.38926,"is_reserved":false,"is_disabled":false,"rental_uris":{"android":"levelo://app?vid=f400d370-a20e-4ced-86f0-64f62510749c","ios":"levelo://app?vid=f400d370-a20e-4ced-86f0-64f62510749c"},"vehicle_type_id":"4","last_reported":1726057009,"current_range_meters":14000,"station_id":"","pricing_plan_id":"cebpf4jnsgd1na2vs0mg"},{"bike_id":"033546f9-7be4-4714-ad74-eb84577c9b06","system_id":"levelo_inurba_marseille","lat":43.29031,"lon":5.39968,"is_reserved":false,"is_disabled":false,"rental_uris":{"android":"levelo://app?vid=033546f9-7be4-4714-ad74-eb84577c9b06","ios":"levelo://app?vid=033546f9-7be4-4714-ad74-eb84577c9b06"},"vehicle_type_id":"4","last_reported":1726057009,"current_range_meters":30800,"station_id":"ce4bh392rcd13ifvqdm0","pricing_plan_id":"cebpf4jnsgd1na2vs0mg"},{"bike_id":"9129cccb-70b9-4c6c-add8-afc1ace990ca","system_id":"levelo_inurba_marseille","lat":43.315,"lon":5.37306,"is_reserved":false,"is_disabled":false,"rental_uris":{"android":"levelo://app?vid=9129cccb-70b9-4c6c-add8-afc1ace990ca","ios":"levelo://app?vid=9129cccb-70b9-4c6c-add8-afc1ace990ca"},"vehicle_type_id":"4","last_reported":1726057009,"current_range_meters":38000,"station_id":"ce4bgt12rcd13ifvqcd0","pricing_plan_id":"cebpf4jnsgd1na2vs0mg"},{"bike_id":"607431b4-fe48-4f3c-adbe-09406537210d","system_id":"levelo_inurba_marseille","lat":43.29784,"lon":5.37102,"is_reserved":false,"is_disabled":false,"rental_uris":{"android":"levelo://app?vid=607431b4-fe48-4f3c-adbe-09406537210d","ios":"levelo://app?vid=607431b4-fe48-4f3c-adbe-09406537210d"},"vehicle_type_id":"4","last_reported":1726057009,"current_range_meters":30000,"station_id":"ce4bgop2rcd13ifvqc1g","pricing_plan_id":"cebpf4jnsgd1na2vs0mg"},{"bike_id":"f01737d4-cc88-495d-bc3b-fe28ed2d3ffa","system_id":"levelo_inurba_marseille","lat":43.28075,"lon":5.3966,"is_reserved":false,"is_disabled":false,"rental_uris":{"android":"levelo://app?vid=f01737d4-cc88-495d-bc3b-fe28ed2d3ffa","ios":"levelo://app?vid=f01737d4-cc88-495d-bc3b-fe28ed2d3ffa"},"vehicle_type_id":"4","last_reported":1726057009,"current_range_meters":6000,"station_id":"ce4bho12rcd13ifvqh2g","pricing_plan_id":"cebpf4jnsgd1na2vs0mg"},{"bike_id":"143049cf-4830-4219-a121-2a60df83aa5d","system_id":"levelo_inurba_marseille","lat":43.337444,"lon":5.374475,"is_reserved":false,"is_disabled":false,"rental_uris":{"android":"levelo://app?vid=143049cf-4830-4219-a121-2a60df83aa5d","ios":"levelo://app?vid=143049cf-4830-4219-a121-2a60df83aa5d"},"vehicle_type_id":"4","last_reported":1726057009,"current_range_meters":37600,"station_id":"","pricing_plan_id":"cebpf4jnsgd1na2vs0mg"},{"bike_id":"fb6f0e86-0599-44ca-b6e3-e65fcfbeb613","system_id":"levelo_inurba_marseille","lat":43.28455,"lon":5.35896,"is_reserved":false,"is_disabled":false,"rental_uris":{"android":"levelo://app?vid=fb6f0e86-0599-44ca-b6e3-e65fcfbeb613","ios":"levelo://app?vid=fb6f0e86-0599-44ca-b6e3-e65fcfbeb613"},"vehicle_type_id":"4","last_reported":1726057009,"current_range_meters":28400,"station_id":"ce4bhah2rcd13ifvqei0","pricing_plan_id":"cebpf4jnsgd1na2vs0mg"},{"bike_id":"e325d999-271d-45eb-b9f8-2a5e51275f9b","system_id":"levelo_inurba_marseille","lat":43.25581,"lon":5.38226,"is_reserved":false,"is_disabled":false,"rental_uris":{"android":"levelo://app?vid=e325d999-271d-45eb-b9f8-2a5e51275f9b","ios":"levelo://app?vid=e325d999-271d-45eb-b9f8-2a5e51275f9b"},"vehicle_type_id":"4","last_reported":1726057009,"current_range_meters":28000,"station_id":"ce4bhih2rcd13ifvqfs0","pricing_plan_id":"cebpf4jnsgd1na2vs0mg"},{"bike_id":"37fba75b-e899-4511-aa88-908f47093daa","system_id":"levelo_inurba_marseille","lat":43.291638,"lon":5.371268,"is_reserved":false,"is_disabled":false,"rental_uris":{"android":"levelo://app?vid=37fba75b-e899-4511-aa88-908f47093daa","ios":"levelo://app?vid=37fba75b-e899-4511-aa88-908f47093daa"},"vehicle_type_id":"4","last_reported":1726057009,"current_range_meters":31200,"station_id":"ce4bha92rcd13ifvqeh0","pricing_plan_id":"cebpf4jnsgd1na2vs0mg"},{"bike_id":"95e8941c-31f9-4740-be1d-4ce44df1514a","system_id":"levelo_inurba_marseille","lat":43.266815,"lon":5.382743,"is_reserved":false,"is_disabled":false,"rental_uris":{"android":"levelo://app?vid=95e8941c-31f9-4740-be1d-4ce44df1514a","ios":"levelo://app?vid=95e8941c-31f9-4740-be1d-4ce44df1514a"},"vehicle_type_id":"4","last_reported":1726057009,"current_range_meters":24400,"station_id":"ce4bhg92rcd13ifvqf90","pricing_plan_id":"cebpf4jnsgd1na2vs0mg"},{"bike_id":"e5ed0075-14c4-4d1d-a9af-a1ffecf526a7","system_id":"levelo_inurba_marseille","lat":43.29845,"lon":5.36259,"is_reserved":false,"is_disabled":false,"rental_uris":{"android":"levelo://app?vid=e5ed0075-14c4-4d1d-a9af-a1ffecf526a7","ios":"levelo://app?vid=e5ed0075-14c4-4d1d-a9af-a1ffecf526a7"},"vehicle_type_id":"4","last_reported":1726057009,"current_range_meters":37600,"station_id":"ce4bgpp2rcd13ifvqc3g","pricing_plan_id":"cebpf4jnsgd1na2vs0mg"},{"bike_id":"069ca928-0809-4e7a-91d4-0a6ccfdcb25f","system_id":"levelo_inurba_marseille","lat":43.28371,"lon":5.38627,"is_reserved":false,"is_disabled":false,"rental_uris":{"android":"levelo://app?vid=069ca928-0809-4e7a-91d4-0a6ccfdcb25f","ios":"levelo://app?vid=069ca928-0809-4e7a-91d4-0a6ccfdcb25f"},"vehicle_type_id":"4","last_reported":1726057009,"current_range_meters":4800,"station_id":"ce4bhgp2rcd13ifvqfe0","pricing_plan_id":"cebpf4jnsgd1na2vs0mg"},{"bike_id":"5e42ee63-7015-475a-8c24-548ccb105fd9","system_id":"levelo_inurba_marseille","lat":43.3376,"lon":5.37448,"is_reserved":false,"is_disabled":false,"rental_uris":{"android":"levelo://app?vid=5e42ee63-7015-475a-8c24-548ccb105fd9","ios":"levelo://app?vid=5e42ee63-7015-475a-8c24-548ccb105fd9"},"vehicle_type_id":"4","last_reported":1726057009,"current_range_meters":17600,"station_id":"","pricing_plan_id":"cebpf4jnsgd1na2vs0mg"},{"bike_id":"5fdc4f56-d1eb-4f8c-9c80-491565351e3a","system_id":"levelo_inurba_marseille","lat":43.2694,"lon":5.40247,"is_reserved":false,"is_disabled":false,"rental_uris":{"android":"levelo://app?vid=5fdc4f56-d1eb-4f8c-9c80-491565351e3a","ios":"levelo://app?vid=5fdc4f56-d1eb-4f8c-9c80-491565351e3a"},"vehicle_type_id":"4","last_reported":1726057009,"current_range_meters":27600,"station_id":"cjm6bp8fraef2m0cb0m0","pricing_plan_id":"cebpf4jnsgd1na2vs0mg"},{"bike_id":"14cf9b04-daba-4222-a934-827da5e49ce5","system_id":"levelo_inurba_marseille","lat":43.295363,"lon":5.385423,"is_reserved":false,"is_disabled":false,"rental_uris":{"android":"levelo://app?vid=14cf9b04-daba-4222-a934-827da5e49ce5","ios":"levelo://app?vid=14cf9b04-daba-4222-a934-827da5e49ce5"},"vehicle_type_id":"4","last_reported":1726057009,"current_range_meters":13600,"station_id":"ce4bgj92rcd13ifvqbe0","pricing_plan_id":"cebpf4jnsgd1na2vs0mg"},{"bike_id":"fa137d2d-ebde-483c-8d8c-7cf19a6d299c","system_id":"levelo_inurba_marseille","lat":43.3377,"lon":5.37433,"is_reserved":false,"is_disabled":false,"rental_uris":{"android":"levelo://app?vid=fa137d2d-ebde-483c-8d8c-7cf19a6d299c","ios":"levelo://app?vid=fa137d2d-ebde-483c-8d8c-7cf19a6d299c"},"vehicle_type_id":"4","last_reported":1726057009,"current_range_meters":33600,"station_id":"","pricing_plan_id":"cebpf4jnsgd1na2vs0mg"},{"bike_id":"cec131b6-6c84-4899-9723-159f4b060af5","system_id":"levelo_inurba_marseille","lat":43.31701,"lon":5.37664,"is_reserved":false,"is_disabled":false,"rental_uris":{"android":"levelo://app?vid=cec131b6-6c84-4899-9723-159f4b060af5","ios":"levelo://app?vid=cec131b6-6c84-4899-9723-159f4b060af5"},"vehicle_type_id":"4","last_reported":1726057009,"current_range_meters":8000,"station_id":"","pricing_plan_id":"cebpf4jnsgd1na2vs0mg"},{"bike_id":"f2b3b549-7f8a-4eae-b464-4b6623533f44","system_id":"levelo_inurba_marseille","lat":43.33755,"lon":5.37451,"is_reserved":false,"is_disabled":false,"rental_uris":{"android":"levelo://app?vid=f2b3b549-7f8a-4eae-b464-4b6623533f44","ios":"levelo://app?vid=f2b3b549-7f8a-4eae-b464-4b6623533f44"},"vehicle_type_id":"4","last_reported":1726057009,"current_range_meters":32400,"station_id":"","pricing_plan_id":"cebpf4jnsgd1na2vs0mg"},{"bike_id":"fbc7a156-46f8-486b-8bbb-b621b41b4e8c","system_id":"levelo_inurba_marseille","lat":43.29979,"lon":5.37176,"is_reserved":false,"is_disabled":false,"rental_uris":{"android":"levelo://app?vid=fbc7a156-46f8-486b-8bbb-b621b41b4e8c","ios":"levelo://app?vid=fbc7a156-46f8-486b-8bbb-b621b41b4e8c"},"vehicle_type_id":"4","last_reported":1726057009,"current_range_meters":34800,"station_id":"ce4bgr92rcd13ifvqc7g","pricing_plan_id":"cebpf4jnsgd1na2vs0mg"},{"bike_id":"ae3190f9-f1eb-40f1-9677-7b663c15145b","system_id":"levelo_inurba_marseille","lat":43.30147,"lon":5.37411,"is_reserved":false,"is_disabled":false,"rental_uris":{"android":"levelo://app?vid=ae3190f9-f1eb-40f1-9677-7b663c15145b","ios":"levelo://app?vid=ae3190f9-f1eb-40f1-9677-7b663c15145b"},"vehicle_type_id":"4","last_reported":1726057009,"current_range_meters":8800,"station_id":"ce4bgs92rcd13ifvqcc0","pricing_plan_id":"cebpf4jnsgd1na2vs0mg"},{"bike_id":"61cf4a3a-2942-44a8-a346-1fbbdf1a4d5c","system_id":"levelo_inurba_marseille","lat":43.23156,"lon":5.43703,"is_reserved":false,"is_disabled":false,"rental_uris":{"android":"levelo://app?vid=61cf4a3a-2942-44a8-a346-1fbbdf1a4d5c","ios":"levelo://app?vid=61cf4a3a-2942-44a8-a346-1fbbdf1a4d5c"},"vehicle_type_id":"4","last_reported":1726057009,"current_range_meters":12800,"station_id":"ce4bhmp2rcd13ifvqgog","pricing_plan_id":"cebpf4jnsgd1na2vs0mg"},{"bike_id":"44446201-1bd0-4e59-a68a-345dabbf9a10","system_id":"levelo_inurba_marseille","lat":43.308833,"lon":5.371927,"is_reserved":false,"is_disabled":false,"rental_uris":{"android":"levelo://app?vid=44446201-1bd0-4e59-a68a-345dabbf9a10","ios":"levelo://app?vid=44446201-1bd0-4e59-a68a-345dabbf9a10"},"vehicle_type_id":"4","last_reported":1726057009,"current_range_meters":15200,"station_id":"ce4bguh2rcd13ifvqckg","pricing_plan_id":"cebpf4jnsgd1na2vs0mg"},{"bike_id":"e33cad1e-30cf-4273-a896-a23e1a614a1a","system_id":"levelo_inurba_marseille","lat":43.30548,"lon":5.36524,"is_reserved":false,"is_disabled":false,"rental_uris":{"android":"levelo://app?vid=e33cad1e-30cf-4273-a896-a23e1a614a1a","ios":"levelo://app?vid=e33cad1e-30cf-4273-a896-a23e1a614a1a"},"vehicle_type_id":"4","last_reported":1726057009,"current_range_meters":15200,"station_id":"ce4bgs12rcd13ifvqcag","pricing_plan_id":"cebpf4jnsgd1na2vs0mg"},{"bike_id":"e9276a52-c68d-4d0a-a50e-d5f93d416648","system_id":"levelo_inurba_marseille","lat":43.24391,"lon":5.37056,"is_reserved":false,"is_disabled":false,"rental_uris":{"android":"levelo://app?vid=e9276a52-c68d-4d0a-a50e-d5f93d416648","ios":"levelo://app?vid=e9276a52-c68d-4d0a-a50e-d5f93d416648"},"vehicle_type_id":"4","last_reported":1726057009,"current_range_meters":32800,"station_id":"ce4bhhh2rcd13ifvqfk0","pricing_plan_id":"cebpf4jnsgd1na2vs0mg"},{"bike_id":"38a69614-fc80-4fe6-9020-2aa2f561d214","system_id":"levelo_inurba_marseille","lat":43.2668,"lon":5.38264,"is_reserved":false,"is_disabled":false,"rental_uris":{"android":"levelo://app?vid=38a69614-fc80-4fe6-9020-2aa2f561d214","ios":"levelo://app?vid=38a69614-fc80-4fe6-9020-2aa2f561d214"},"vehicle_type_id":"4","last_reported":1726057009,"current_range_meters":38800,"station_id":"ce4bhg92rcd13ifvqf90","pricing_plan_id":"cebpf4jnsgd1na2vs0mg"},{"bike_id":"fd122ede-0523-41ae-99fa-a03f8ef48a7a","system_id":"levelo_inurba_marseille","lat":43.26785,"lon":5.39424,"is_reserved":false,"is_disabled":false,"rental_uris":{"android":"levelo://app?vid=fd122ede-0523-41ae-99fa-a03f8ef48a7a","ios":"levelo://app?vid=fd122ede-0523-41ae-99fa-a03f8ef48a7a"},"vehicle_type_id":"4","last_reported":1726057009,"current_range_meters":32800,"station_id":"ce4bhh12rcd13ifvqfg0","pricing_plan_id":"cebpf4jnsgd1na2vs0mg"},{"bike_id":"f9512620-8937-42df-b0f9-dddc2d1232b9","system_id":"levelo_inurba_marseille","lat":43.28428,"lon":5.34997,"is_reserved":false,"is_disabled":false,"rental_uris":{"android":"levelo://app?vid=f9512620-8937-42df-b0f9-dddc2d1232b9","ios":"levelo://app?vid=f9512620-8937-42df-b0f9-dddc2d1232b9"},"vehicle_type_id":"4","last_reported":1726057009,"current_range_meters":39200,"station_id":"ce4bhbh2rcd13ifvqepg","pricing_plan_id":"cebpf4jnsgd1na2vs0mg"},{"bike_id":"2f40207a-a21f-427b-8132-723bde66d773","system_id":"levelo_inurba_marseille","lat":43.337444,"lon":5.374475,"is_reserved":false,"is_disabled":false,"rental_uris":{"android":"levelo://app?vid=2f40207a-a21f-427b-8132-723bde66d773","ios":"levelo://app?vid=2f40207a-a21f-427b-8132-723bde66d773"},"vehicle_type_id":"4","last_reported":1726057009,"current_range_meters":27200,"station_id":"ce4bh0h2rcd13ifvqd50","pricing_plan_id":"cebpf4jnsgd1na2vs0mg"},{"bike_id":"16d37247-1939-4a7b-992c-9c6330b9f1cd","system_id":"levelo_inurba_marseille","lat":43.26554,"lon":5.37283,"is_reserved":false,"is_disabled":false,"rental_uris":{"android":"levelo://app?vid=16d37247-1939-4a7b-992c-9c6330b9f1cd","ios":"levelo://app?vid=16d37247-1939-4a7b-992c-9c6330b9f1cd"},"vehicle_type_id":"4","last_reported":1726057009,"current_range_meters":28000,"station_id":"ce4bhg12rcd13ifvqf70","pricing_plan_id":"cebpf4jnsgd1na2vs0mg"},{"bike_id":"cd4d6f4d-c80a-4353-933b-1fafbf4b8f64","system_id":"levelo_inurba_marseille","lat":43.24172,"lon":5.36399,"is_reserved":false,"is_disabled":false,"rental_uris":{"android":"levelo://app?vid=cd4d6f4d-c80a-4353-933b-1fafbf4b8f64","ios":"levelo://app?vid=cd4d6f4d-c80a-4353-933b-1fafbf4b8f64"},"vehicle_type_id":"4","last_reported":1726057009,"current_range_meters":28000,"station_id":"cpo36qri1sfpv3e86is0","pricing_plan_id":"cebpf4jnsgd1na2vs0mg"},{"bike_id":"8ffba989-0134-4681-b5e3-e6999f7766a8","system_id":"levelo_inurba_marseille","lat":43.276187,"lon":5.361053,"is_reserved":false,"is_disabled":false,"rental_uris":{"android":"levelo://app?vid=8ffba989-0134-4681-b5e3-e6999f7766a8","ios":"levelo://app?vid=8ffba989-0134-4681-b5e3-e6999f7766a8"},"vehicle_type_id":"4","last_reported":1726057009,"current_range_meters":4400,"station_id":"ce4bgj92rcd13ifvqbe0","pricing_plan_id":"cebpf4jnsgd1na2vs0mg"},