{"last_updated":1761567702,"ttl":60,"version":"2.2","data":{"bikes":[{"bike_id":"04c2689d-f990-4457-b220-2b39e031ef7c","system_id":"levelo_inurba_marseille","lat":43.32364,"lon":5.36758,"is_reserved":false,"is_disabled":true,"rental_uris":{"android":"levelo://app?vid=04c2689d-f990-4457-b220-2b39e031ef7c","ios":"levelo://app?vid=04c2689d-f990-4457-b220-2b39e031ef7c"},"vehicle_type_id":"4","last_reported":1761567702,"current_range_meters":2800,"station_id":"ce4bhsh2rcd13ifvqi2g","pricing_plan_id":"cebpf4jnsgd1na2vs0mg"},{"bike_id":"dab36927-4328-48fa-bffb-145a737de07e","system_id":"levelo_inurba_marseille","lat":43.30802,"lon":5.4353,"is_reserved":false,"is_disabled":false,"rental_uris":{"android":"levelo://app?vid=dab36927-4328-48fa-bffb-145a737de07e","ios":"levelo://app?vid=dab36927-4328-48fa-bffb-145a737de07e"},"vehicle_type_id":"4","last_reported":1761567702,"current_range_meters":2800,"station_id":"ce4bhph2rcd13ifvqheg","pricing_plan_id":"cebpf4jnsgd1na2vs0mg"},{"bike_id":"50d20175-b63f-40d4-81c5-f8aff1abbea7","system_id":"levelo_inurba_marseille","lat":43.29916,"lon":5.374663,"is_reserved":false,"is_disabled":false,"rental_uris":{"android":"levelo://app?vid=50d20175-b63f-40d4-81c5-f8aff1abbea7","ios":"levelo://app?vid=50d20175-b63f-40d4-81c5-f8aff1abbea7"},"vehicle_type_id":"4","last_reported":1761567702,"current_range_meters":2800,"station_id":"ce4bgjh2rcd13ifvqbg0","pricing_plan_id":"cebpf4jnsgd1na2vs0mg"},{"bike_id":"d035dc80-6691-4974-a431-41af60a303dd","system_id":"levelo_inurba_marseille","lat":43.3298,"lon":5.39046,"is_reserved":false,"is_disabled":false,"rental_uris":{"android":"levelo://app?vid=d035dc80-6691-4974-a431-41af60a303dd","ios":"levelo://app?vid=d035dc80-6691-4974-a431-41af60a303dd"},"vehicle_type_id":"4","last_reported":1761567702,"current_range_meters":2800,"station_id":"ce4bhr92rcd13ifvqhrg","pricing_plan_id":"cebpf4jnsgd1na2vs0mg"},{"bike_id":"c6a778a8-4ea2-4d2f-a531-09458ad5ce18","system_id":"levelo_inurba_marseille","lat":43.30144,"lon":5.38083,"is_reserved":false,"is_disabled":false,"rental_uris":{"android":"levelo://app?vid=c6a778a8-4ea2-4d2f-a531-09458ad5ce18","ios":"levelo://app?vid=c6a778a8-4ea2-4d2f-a531-09458ad5ce18"},"vehicle_type_id":"4","last_reported":1761567702,"current_range_meters":3200,"station_id":"ce4bgjp2rcd13ifvqbh0","pricing_plan_id":"cebpf4jnsgd1na2vs0mg"},{"bike_id":"8be6a47c-9542-4fed-8109-f6d91a0f2b3f","system_id":"levelo_inurba_marseille","lat":43.29174,"lon":5.37161,"is_reserved":false,"is_disabled":false,"rental_uris":{"android":"levelo://app?vid=8be6a47c-9542-4fed-8109-f6d91a0f2b3f","ios":"levelo://app?vid=8be6a47c-9542-4fed-8109-f6d91a0f2b3f"},"vehicle_type_id":"4","last_reported":1761567702,"current_range_meters":3600,"station_id":"ce4bha92rcd13ifvqeh0","pricing_plan_id":"cebpf4jnsgd1na2vs0mg"},{"bike_id":"2d305dc6-e68d-4fc0-af3c-18b4adb6047b","system_id":"levelo_inurba_marseille","lat":43.225311,"lon":5.34837,"is_reserved":false,"is_disabled":false,"rental_uris":{"android":"levelo://app?vid=2d305dc6-e68d-4fc0-af3c-18b4adb6047b","ios":"levelo://app?vid=2d305dc6-e68d-4fc0-af3c-18b4adb6047b"},"vehicle_type_id":"4","last_reported":1761567702,"current_range_meters":3600,"station_id":"","pricing_plan_id":"cebpf4jnsgd1na2vs0mg"},{"bike_id":"919a39c1-5f97-4664-909f-6b982fa0136d","system_id":"levelo_inurba_marseille","lat":43.30539,"lon":5.36559,"is_reserved":false,"is_disabled":false,"rental_uris":{"android":"levelo://app?vid=919a39c1-5f97-4664-909f-6b982fa0136d","ios":"levelo://app?vid=919a39c1-5f97-4664-909f-6b982fa0136d"},"vehicle_type_id":"4","last_reported":1761567702,"current_range_meters":4000,"station_id":"ce4bgs12rcd13ifvqcag","pricing_plan_id":"cebpf4jnsgd1na2vs0mg"},{"bike_id":"6cd58970-86ba-4ce6-af51-20d4896364c6","system_id":"levelo_inurba_marseille","lat":43.275075,"lon":5.389548,"is_reserved":false,"is_disabled":false,"rental_uris":{"android":"levelo://app?vid=6cd58970-86ba-4ce6-af51-20d4896364c6","ios":"levelo://app?vid=6cd58970-86ba-4ce6-af51-20d4896364c6"},"vehicle_type_id":"4","last_reported":1761567702,"current_range_meters":4000,"station_id":"ce4bhgp2rcd13ifvqfe0","pricing_plan_id":"cebpf4jnsgd1na2vs0mg"},{"bike_id":"79578ceb-d790-40ff-8747-44fc4eb6ef5f","system_id":"levelo_inurba_marseille","lat":43.23195,"lon":5.35545,"is_reserved":false,"is_disabled":false,"rental_uris":{"android":"levelo://app?vid=79578ceb-d790-40ff-8747-44fc4eb6ef5f","ios":"levelo://app?vid=79578ceb-d790-40ff-8747-44fc4eb6ef5f"},"vehicle_type_id":"4","last_reported":1761567702,"current_range_meters":4000,"station_id":"ce4bhu92rcd13ifvqi70","pricing_plan_id":"cebpf4jnsgd1na2vs0mg"},{"bike_id":"e4d24b97-7b17-4da6-8674-bf2c1f581ba9","system_id":"levelo_inurba_marseille","lat":43.21194,"lon":5.3506,"is_reserved":false,"is_disabled":false,"rental_uris":{"android":"levelo://app?vid=e4d24b97-7b17-4da6-8674-bf2c1f581ba9","ios":"levelo://app?vid=e4d24b97-7b17-4da6-8674-bf2c1f581ba9"},"vehicle_type_id":"4","last_reported":1761567702,"current_range_meters":4800,"station_id":"","pricing_plan_id":"cebpf4jnsgd1na2vs0mg"},{"bike_id":"ef6255e0-5317-4ee0-b12e-47ab77969812","system_id":"levelo_inurba_marseille","lat":43.27202,"lon":5.39178,"is_reserved":false,"is_disabled":false,"rental_uris":{"android":"levelo://app?vid=ef6255e0-5317-4ee0-b12e-47ab77969812","ios":"levelo://app?vid=ef6255e0-5317-4ee0-b12e-47ab77969812"},"vehicle_type_id":"4","last_reported":1761567702,"current_range_meters":4800,"station_id":"ce4bhhp2rcd13ifvqfm0","pricing_plan_id":"cebpf4jnsgd1na2vs0mg"},{"bike_id":"69880247-38f2-48e7-ab49-326f3d5eca30","system_id":"levelo_inurba_marseille","lat":43.21188,"lon":5.35082,"is_reserved":false,"is_disabled":false,"rental_uris":{"android":"levelo://app?vid=69880247-38f2-48e7-ab49-326f3d5eca30","ios":"levelo://app?vid=69880247-38f2-48e7-ab49-326f3d5eca30"},"vehicle_type_id":"4","last_reported":1761567702,"current_range_meters":4800,"station_id":"","pricing_plan_id":"cebpf4jnsgd1na2vs0mg"},{"bike_id":"eff2099e-b19a-427a-81ec-2bfddcb37be7","system_id":"levelo_inurba_marseille","lat":43.26224,"lon":5.40448,"is_reserved":false,"is_disabled":false,"rental_uris":{"android":"levelo://app?vid=eff2099e-b19a-427a-81ec-2bfddcb37be7","ios":"levelo://app?vid=eff2099e-b19a-427a-81ec-2bfddcb37be7"},"vehicle_type_id":"4","last_reported":1761567702,"current_range_meters":4800,"station_id":"ce4bhmh2rcd13ifvqgmg","pricing_plan_id":"cebpf4jnsgd1na2vs0mg"},{"bike_id":"375b3fa6-4f19-4ffb-8f5d-26c47e160841","system_id":"levelo_inurba_marseille","lat":43.21746,"lon":5.34598,"is_reserved":false,"is_disabled":false,"rental_uris":{"android":"levelo://app?vid=375b3fa6-4f19-4ffb-8f5d-26c47e160841","ios":"levelo://app?vid=375b3fa6-4f19-4ffb-8f5d-26c47e160841"},"vehicle_type_id":"4","last_reported":1761567702,"current_range_meters":5600,"station_id":"","pricing_plan_id":"cebpf4jnsgd1na2vs0mg"},{"bike_id":"8b978098-665e-4f78-991f-8c8ae767f8aa","system_id":"levelo_inurba_marseille","lat":43.30901,"lon":5.36855,"is_reserved":false,"is_disabled":false,"rental_uris":{"android":"levelo://app?vid=8b978098-665e-4f78-991f-8c8ae767f8aa","ios":"levelo://app?vid=8b978098-665e-4f78-991f-8c8ae767f8aa"},"vehicle_type_id":"4","last_reported":1761567702,"current_range_meters":6000,"station_id":"ce4bgn92rcd13ifvqbvg","pricing_plan_id":"cebpf4jnsgd1na2vs0mg"},{"bike_id":"b1674c84-886a-4347-b6f3-be44a392170f","system_id":"levelo_inurba_marseille","lat":43.231498,"lon":5.437289,"is_reserved":false,"is_disabled":false,"rental_uris":{"android":"levelo://app?vid=b1674c84-886a-4347-b6f3-be44a392170f","ios":"levelo://app?vid=b1674c84-886a-4347-b6f3-be44a392170f"},"vehicle_type_id":"4","last_reported":1761567702,"current_range_meters":6000,"station_id":"ce4bhmp2rcd13ifvqgog","pricing_plan_id":"cebpf4jnsgd1na2vs0mg"},{"bike_id":"11ed3229-da96-464f-bee1-15ff06dff35a","system_id":"levelo_inurba_marseille","lat":43.211863,"lon":5.350693,"is_reserved":false,"is_disabled":false,"rental_uris":{"android":"levelo://app?vid=11ed3229-da96-464f-bee1-15ff06dff35a","ios":"levelo://app?vid=11ed3229-da96-464f-bee1-15ff06dff35a"},"vehicle_type_id":"4","last_reported":1761567702,"current_range_meters":6000,"station_id":"st_cvj6sg6p6f1abm77japg","pricing_plan_id":"cebpf4jnsgd1na2vs0mg"},{"bike_id":"4a950903-413b-4562-94db-06e7d6acdb79","system_id":"levelo_inurba_marseille","lat":43.30142,"lon":5.38064,"is_reserved":false,"is_disabled":false,"rental_uris":{"android":"levelo://app?vid=4a950903-413b-4562-94db-06e7d6acdb79","ios":"levelo://app?vid=4a950903-413b-4562-94db-06e7d6acdb79"},"vehicle_type_id":"4","last_reported":1761567702,"current_range_meters":6400,"station_id":"ce4bgjp2rcd13ifvqbh0","pricing_plan_id":"cebpf4jnsgd1na2vs0mg"},{"bike_id":"9d943b33-e12f-4684-b457-eab990b642ab","system_id":"levelo_inurba_marseille","lat":43.21185,"lon":5.35079,"is_reserved":false,"is_disabled":false,"rental_uris":{"android":"levelo://app?vid=9d943b33-e12f-4684-b457-eab990b642ab","ios":"levelo://app?vid=9d943b33-e12f-4684-b457-eab990b642ab"},"vehicle_type_id":"4","last_reported":1761567702,"current_range_meters":6400,"station_id":"st_cvj6sg6p6f1abm77japg","pricing_plan_id":"cebpf4jnsgd1na2vs0mg"},{"bike_id":"7b93fd53-e605-437d-93b6-67fd11d09c17","system_id":"levelo_inurba_marseille","lat":43.231922,"lon":5.355501,"is_reserved":false,"is_disabled":false,"rental_uris":{"android":"levelo://app?vid=7b93fd53-e605-437d-93b6-67fd11d09c17","ios":"levelo://app?vid=7b93fd53-e605-437d-93b6-67fd11d09c17"},"vehicle_type_id":"4","last_reported":1761567702,"current_range_meters":6400,"station_id":"ce4bhu92rcd13ifvqi70","pricing_plan_id":"cebpf4jnsgd1na2vs0mg"},{"bike_id":"dbd4c64c-c67b-444f-9a35-fc57121394be","system_id":"levelo_inurba_marseille","lat":43.30549,"lon":5.3669,"is_reserved":false,"is_disabled":false,"rental_uris":{"android":"levelo://app?vid=dbd4c64c-c67b-444f-9a35-fc57121394be","ios":"levelo://app?vid=dbd4c64c-c67b-444f-9a35-fc57121394be"},"vehicle_type_id":"4","last_reported":1761567702,"current_range_meters":6400,"station_id":"ce4bgrp2rcd13ifvqc9g","pricing_plan_id":"cebpf4jnsgd1na2vs0mg"},{"bike_id":"3587856d-30a5-4445-9d55-9e3eef050308","system_id":"levelo_inurba_marseille","lat":43.23155,"lon":5.43704,"is_reserved":false,"is_disabled":false,"rental_uris":{"android":"levelo://app?vid=3587856d-30a5-4445-9d55-9e3eef050308","ios":"levelo://app?vid=3587856d-30a5-4445-9d55-9e3eef050308"},"vehicle_type_id":"4","last_reported":1761567702,"current_range_meters":6400,"station_id":"ce4bhmp2rcd13ifvqgog","pricing_plan_id":"cebpf4jnsgd1na2vs0mg"},{"bike_id":"13f12d24-3fc3-4202-88f0-68cc1be473cc","system_id":"levelo_inurba_marseille","lat":43.285252,"lon":5.440905,"is_reserved":false,"is_disabled":false,"rental_uris":{"android":"levelo://app?vid=13f12d24-3fc3-4202-88f0-68cc1be473cc","ios":"levelo://app?vid=13f12d24-3fc3-4202-88f0-68cc1be473cc"},"vehicle_type_id":"4","last_reported":1761567702,"current_range_meters":6800,"station_id":"st_d3j3df2ikq2c7380ej80","pricing_plan_id":"cebpf4jnsgd1na2vs0mg"},{"bike_id":"1e06e241-207f-4985-8e4c-c5ffb3a0d105","system_id":"levelo_inurba_marseille","lat":43.26937,"lon":5.38908,"is_reserved":false,"is_disabled":false,"rental_uris":{"android":"levelo://app?vid=1e06e241-207f-4985-8e4c-c5ffb3a0d105","ios":"levelo://app?vid=1e06e241-207f-4985-8e4c-c5ffb3a0d105"},"vehicle_type_id":"4","last_reported":1761567702,"current_range_meters":6800,"station_id":"ce4bhhh2rcd13ifvqfl0","pricing_plan_id":"cebpf4jnsgd1na2vs0mg"},{"bike_id":"6ee611b3-bf13-495e-a0dc-dfd1a8718271","system_id":"levelo_inurba_marseille","lat":43.298143,"lon":5.440507,"is_reserved":false,"is_disabled":false,"rental_uris":{"android":"levelo://app?vid=6ee611b3-bf13-495e-a0dc-dfd1a8718271","ios":"levelo://app?vid=6ee611b3-bf13-495e-a0dc-dfd1a8718271"},"vehicle_type_id":"4","last_reported":1761567702,"current_range_meters":6800,"station_id":"st_d3jp68qikq2c7381ktn0","pricing_plan_id":"cebpf4jnsgd1na2vs0mg"},{"bike_id":"4cb7054a-1de6-4f4f-905e-a1fe74068889","system_id":"levelo_inurba_marseille","lat":43.29524,"lon":5.37509,"is_reserved":false,"is_disabled":false,"rental_uris":{"android":"levelo://app?vid=4cb7054a-1de6-4f4f-905e-a1fe74068889","ios":"levelo://app?vid=4cb7054a-1de6-4f4f-905e-a1fe74068889"},"vehicle_type_id":"4","last_reported":1761567702,"current_range_meters":6800,"station_id":"ce4bgkp2rcd13ifvqbmg","pricing_plan_id":"cebpf4jnsgd1na2vs0mg"},{"bike_id":"e2a1ebed-bfbf-4bd3-8b50-9c03f3dff106","system_id":"levelo_inurba_marseille","lat":43.31997,"lon":5.38135,"is_reserved":false,"is_disabled":false,"rental_uris":{"android":"levelo://app?vid=e2a1ebed-bfbf-4bd3-8b50-9c03f3dff106","ios":"levelo://app?vid=e2a1ebed-bfbf-4bd3-8b50-9c03f3dff106"},"vehicle_type_id":"4","last_reported":1761567702,"current_range_meters":6800,"station_id":"ce4bhr12rcd13ifvqhpg","pricing_plan_id":"cebpf4jnsgd1na2vs0mg"},{"bike_id":"4ade9d83-f2d5-4d19-a54e-74fbd9ec2b53","system_id":"levelo_inurba_marseille","lat":43.32362,"lon":5.38876,"is_reserved":false,"is_disabled":false,"rental_uris":{"android":"levelo://app?vid=4ade9d83-f2d5-4d19-a54e-74fbd9ec2b53","ios":"levelo://app?vid=4ade9d83-f2d5-4d19-a54e-74fbd9ec2b53"},"vehicle_type_id":"4","last_reported":1761567702,"current_range_meters":6800,"station_id":"ce4bhqp2rcd13ifvqhog","pricing_plan_id":"cebpf4jnsgd1na2vs0mg"},{"bike_id":"e1aa20f8-799a-4567-bfd0-31e71eee617f","system_id":"levelo_inurba_marseille","lat":43.31437,"lon":5.38885,"is_reserved":false,"is_disabled":false,"rental_uris":{"android":"levelo://app?vid=e1aa20f8-799a-4567-bfd0-31e71eee617f","ios":"levelo://app?vid=e1aa20f8-799a-4567-bfd0-31e71eee617f"},"vehicle_type_id":"4","last_reported":1761567702,"current_range_meters":7200,"station_id":"","pricing_plan_id":"cebpf4jnsgd1na2vs0mg"},{"bike_id":"17a77c93-a3c4-4b71-9389-4f3c3d2610b5","system_id":"levelo_inurba_marseille","lat":43.28927,"lon":5.383943,"is_reserved":false,"is_disabled":false,"rental_uris":{"android":"levelo://app?vid=17a77c93-a3c4-4b71-9389-4f3c3d2610b5","ios":"levelo://app?vid=17a77c93-a3c4-4b71-9389-4f3c3d2610b5"},"vehicle_type_id":"4","last_reported":1761567702,"current_range_meters":7200,"station_id":"ce4bh612rcd13ifvqe6g","pricing_plan_id":"cebpf4jnsgd1na2vs0mg"},{"bike_id":"99fa14d4-29ae-41ae-b6a1-973c3ac28e67","system_id":"levelo_inurba_marseille","lat":43.26791,"lon":5.39409,"is_reserved":false,"is_disabled":false,"rental_uris":{"android":"levelo://app?vid=99fa14d4-29ae-41ae-b6a1-973c3ac28e67","ios":"levelo://app?vid=99fa14d4-29ae-41ae-b6a1-973c3ac28e67"},"vehicle_type_id":"4","last_reported":1761567702,"current_range_meters":7200,"station_id":"ce4bhh12rcd13ifvqfg0","pricing_plan_id":"cebpf4jnsgd1na2vs0mg"},{"bike_id":"90c497da-16a3-458b-86d0-8647d0ef6347","system_id":"levelo_inurba_marseille","lat":43.27204,"lon":5.39186,"is_reserved":false,"is_disabled":false,"rental_uris":{"android":"levelo://app?vid=90c497da-16a3-458b-86d0-8647d0ef6347","ios":"levelo://app?vid=90c497da-16a3-458b-86d0-8647d0ef6347"},"vehicle_type_id":"4","last_reported":1761567702,"current_range_meters":8000,"station_id":"ce4bhhp2rcd13ifvqfm0","pricing_plan_id":"cebpf4jnsgd1na2vs0mg"},{"bike_id":"c2641136-3e96-41d3-bba2-4a09183a6d53","system_id":"levelo_inurba_marseille","lat":43.28611,"lon":5.3706,"is_reserved":false,"is_disabled":false,"rental_uris":{"android":"levelo://app?vid=c2641136-3e96-41d3-bba2-4a09183a6d53","ios":"levelo://app?vid=c2641136-3e96-41d3-bba2-4a09183a6d53"},"vehicle_type_id":"4","last_reported":1761567702,"current_range_meters":8000,"station_id":"ce4bht12rcd13ifvqi60","pricing_plan_id":"cebpf4jnsgd1na2vs0mg"},{"bike_id":"435fe6ee-2777-4641-8e2e-a3e2c782b8b7","system_id":"levelo_inurba_marseille","lat":43.28532,"lon":5.35864,"is_reserved":false,"is_disabled":false,"rental_uris":{"android":"levelo://app?vid=435fe6ee-2777-4641-8e2e-a3e2c782b8b7","ios":"levelo://app?vid=435fe6ee-2777-4641-8e2e-a3e2c782b8b7"},"vehicle_type_id":"4","last_reported":1761567702,"current_range_meters":8000,"station_id":"","pricing_plan_id":"cebpf4jnsgd1na2vs0mg"},{"bike_id":"3ac1322b-9797-4d1d-a427-0edfb4ffb3bb","system_id":"levelo_inurba_marseille","lat":43.27937,"lon":5.41041,"is_reserved":false,"is_disabled":false,"rental_uris":{"android":"levelo://app?vid=3ac1322b-9797-4d1d-a427-0edfb4ffb3bb","ios":"levelo://app?vid=3ac1322b-9797-4d1d-a427-0edfb4ffb3bb"},"vehicle_type_id":"4","last_reported":1761567702,"current_range_meters":8400,"station_id":"ce4bhnp2rcd13ifvqh0g","pricing_plan_id":"cebpf4jnsgd1na2vs0mg"},{"bike_id":"4ebfc9c9-75aa-4d2a-b7b8-7db1ded305e6","system_id":"levelo_inurba_marseille","lat":43.21187,"lon":5.35089,"is_reserved":false,"is_disabled":false,"rental_uris":{"android":"levelo://app?vid=4ebfc9c9-75aa-4d2a-b7b8-7db1ded305e6","ios":"levelo://app?vid=4ebfc9c9-75aa-4d2a-b7b8-7db1ded305e6"},"vehicle_type_id":"4","last_reported":1761567702,"current_range_meters":8400,"station_id":"st_cvj6sg6p6f1abm77japg","pricing_plan_id":"cebpf4jnsgd1na2vs0mg"},{"bike_id":"2ff820dd-4701-4c44-978c-027d1723e1a8","system_id":"levelo_inurba_marseille","lat":43.2174,"lon":5.34639,"is_reserved":false,"is_disabled":false,"rental_uris":{"android":"levelo://app?vid=2ff820dd-4701-4c44-978c-027d1723e1a8","ios":"levelo://app?vid=2ff820dd-4701-4c44-978c-027d1723e1a8"},"vehicle_type_id":"4","last_reported":1761567702,"current_range_meters":8400,"station_id":"st_cvj6r9ubvosntc0bgbag","pricing_plan_id":"cebpf4jnsgd1na2vs0mg"},{"bike_id":"5947034f-19ea-4d71-bc4b-92db934cd50e","system_id":"levelo_inurba_marseille","lat":43.21201,"lon":5.35069,"is_reserved":false,"is_disabled":true,"rental_uris":{"android":"levelo://app?vid=5947034f-19ea-4d71-bc4b-92db934cd50e","ios":"levelo://app?vid=5947034f-19ea-4d71-bc4b-92db934cd50e"},"vehicle_type_id":"4","last_reported":1761567702,"current_range_meters":8400,"station_id":"st_cvj6sg6p6f1abm77japg","pricing_plan_id":"cebpf4jnsgd1na2vs0mg"},{"bike_id":"671f5cb2-17e6-442b-889f-90f5630815d2","system_id":"levelo_inurba_marseille","lat":43.2796,"lon":5.40978,"is_reserved":false,"is_disabled":false,"rental_uris":{"android":"levelo://app?vid=671f5cb2-17e6-442b-889f-90f5630815d2","ios":"levelo://app?vid=671f5cb2-17e6-442b-889f-90f5630815d2"},"vehicle_type_id":"4","last_reported":1761567702,"current_range_meters":8400,"station_id":"","pricing_plan_id":"cebpf4jnsgd1na2vs0mg"},{"bike_id":"8e419f9d-51a8-4789-a256-555975ff55f9","system_id":"levelo_inurba_marseille","lat":43.30475,"lon":5.379,"is_reserved":false,"is_disabled":false,"rental_uris":{"android":"levelo://app?vid=8e419f9d-51a8-4789-a256-555975ff55f9","ios":"levelo://app?vid=8e419f9d-51a8-4789-a256-555975ff55f9"},"vehicle_type_id":"4","last_reported":1761567702,"current_range_meters":8800,"station_id":"ce4bgup2rcd13ifvqcn0","pricing_plan_id":"cebpf4jnsgd1na2vs0mg"},{"bike_id":"24d10908-ef96-43b0-9c46-8a2fabcf4302","system_id":"levelo_inurba_marseille","lat":43.3026,"lon":5.40079,"is_reserved":false,"is_disabled":false,"rental_uris":{"android":"levelo://app?vid=24d10908-ef96-43b0-9c46-8a2fabcf4302","ios":"levelo://app?vid=24d10908-ef96-43b0-9c46-8a2fabcf4302"},"vehicle_type_id":"4","last_reported":1761567702,"current_range_meters":8800,"station_id":"ce4bgvh2rcd13ifvqcs0","pricing_plan_id":"cebpf4jnsgd1na2vs0mg"},{"bike_id":"41d45b45-3a52-4b5a-b2b3-1e62d5490ada","system_id":"levelo_inurba_marseille","lat":43.285399,"lon":5.440938,"is_reserved":false,"is_disabled":false,"rental_uris":{"android":"levelo://app?vid=41d45b45-3a52-4b5a-b2b3-1e62d5490ada","ios":"levelo://app?vid=41d45b45-3a52-4b5a-b2b3-1e62d5490ada"},"vehicle_type_id":"4","last_reported":1761567702,"current_range_meters":8800,"station_id":"st_d3j3df2ikq2c7380ej80","pricing_plan_id":"cebpf4jnsgd1na2vs0mg"},{"bike_id":"e77b816f-be7f-4dcb-b720-13c638a87ddf","system_id":"levelo_inurba_marseille","lat":43.23123,"lon":5.43705,"is_reserved":false,"is_disabled":false,"rental_uris":{"android":"levelo://app?vid=e77b816f-be7f-4dcb-b720-13c638a87ddf","ios":"levelo://app?vid=e77b816f-be7f-4dcb-b720-13c638a87ddf"},"vehicle_type_id":"4","last_reported":1761567702,"current_range_meters":8800,"station_id":"ce4bhmp2rcd13ifvqgog","pricing_plan_id":"cebpf4jnsgd1na2vs0mg"},{"bike_id":"0c731a27-812e-46a4-b979-37ba64bd4563","system_id":"levelo_inurba_marseille","lat":43.30933,"lon":5.36859,"is_reserved":false,"is_disabled":false,"rental_uris":{"android":"levelo://app?vid=0c731a27-812e-46a4-b979-37ba64bd4563","ios":"levelo://app?vid=0c731a27-812e-46a4-b979-37ba64bd4563"},"vehicle_type_id":"4","last_reported":1761567702,"current_range_meters":8800,"station_id":"ce4bgn92rcd13ifvqbvg","pricing_plan_id":"cebpf4jnsgd1na2vs0mg"},{"bike_id":"61e35669-bebb-443d-8601-985c12c6d9ec","system_id":"levelo_inurba_marseille","lat":43.324596,"lon":5.365517,"is_reserved":false,"is_disabled":false,"rental_uris":{"android":"levelo://app?vid=61e35669-bebb-443d-8601-985c12c6d9ec","ios":"levelo://app?vid=61e35669-bebb-443d-8601-985c12c6d9ec"},"vehicle_type_id":"4","last_reported":1761567702,"current_range_meters":8800,"station_id":"ce4bhs12rcd13ifvqhvg","pricing_plan_id":"cebpf4jnsgd1na2vs0mg"},{"bike_id":"67f8857f-0853-46d2-b9ef-96c5ce2639bc","system_id":"levelo_inurba_marseille","lat":43.23044,"lon":5.35494,"is_reserved":false,"is_disabled":false,"rental_uris":{"android":"levelo://app?vid=67f8857f-0853-46d2-b9ef-96c5ce2639bc","ios":"levelo://app?vid=67f8857f-0853-46d2-b9ef-96c5ce2639bc"},"vehicle_type_id":"4","last_reported":1761567702,"current_range_meters":8800,"station_id":"cpo3342slgdg3j2ifvpg","pricing_plan_id":"cebpf4jnsgd1na2vs0mg"},{"bike_id":"bbe6dd9a-4774-449a-9f31-b21906e30ea9","system_id":"levelo_inurba_marseille","lat":43.28417,"lon":5.34978,"is_reserved":false,"is_disabled":false,"rental_uris":{"android":"levelo://app?vid=bbe6dd9a-4774-449a-9f31-b21906e30ea9","ios":"levelo://app?vid=bbe6dd9a-4774-449a-9f31-b21906e30ea9"},"vehicle_type_id":"4","last_reported":1761567702,"current_range_meters":8800,"station_id":"ce4bhbh2rcd13ifvqepg","pricing_plan_id":"cebpf4jnsgd1na2vs0mg"},{"bike_id":"c0b81f28-bbba-4247-a74b-c55a34b31846","system_id":"levelo_inurba_marseille","lat":43.33258,"lon":5.41086,"is_reserved":false,"is_disabled":false,"rental_uris":{"android":"levelo://app?vid=c0b81f28-bbba-4247-a74b-c55a34b31846","ios":"levelo://app?vid=c0b81f28-bbba-4247-a74b-c55a34b31846"},"vehicle_type_id":"4","last_reported":1761567702,"current_range_meters":9200,"station_id":"","pricing_plan_id":"cebpf4jnsgd1na2vs0mg"},{"bike_id":"d049a60d-987c-4fee-88a4-fc655b2ac3c0","system_id":"levelo_inurba_marseille","lat":43.30181,"lon":5.36621,"is_reserved":false,"is_disabled":false,"rental_uris":{"android":"levelo://app?vid=d049a60d-987c-4fee-88a4-fc655b2ac3c0","ios":"levelo://app?vid=d049a60d-987c-4fee-88a4-fc655b2ac3c0"},"vehicle_type_id":"4","last_reported":1761567702,"current_range_meters":9200,"station_id":"ce4bgrh2rcd13ifvqc8g","pricing_plan_id":"cebpf4jnsgd1na2vs0mg"},{"bike_id":"64b75b4a-3497-4861-8cc2-90dd62cd9f5e","system_id":"levelo_inurba_marseille","lat":43.293042,"lon":5.434441,"is_reserved":false,"is_disabled":false,"rental_uris":{"android":"levelo://app?vid=64b75b4a-3497-4861-8cc2-90dd62cd9f5e","ios":"levelo://app?vid=64b75b4a-3497-4861-8cc2-90dd62cd9f5e"},"vehicle_type_id":"4","last_reported":1761567702,"current_range_meters":9200,"station_id":"","pricing_plan_id":"cebpf4jnsgd1na2vs0mg"},{"bike_id":"af01d055-b0f4-4e21-ab26-45fb6440de15","system_id":"levelo_inurba_marseille","lat":43.29894,"lon":5.43666,"is_reserved":false,"is_disabled":false,"rental_uris":{"android":"levelo://app?vid=af01d055-b0f4-4e21-ab26-45fb6440de15","ios":"levelo://app?vid=af01d055-b0f4-4e21-ab26-45fb6440de15"},"vehicle_type_id":"4","last_reported":1761567702,"current_range_meters":9200,"station_id":"ce4bhpp2rcd13ifvqhfg","pricing_plan_id":"cebpf4jnsgd1na2vs0mg"},{"bike_id":"e4ccce50-4824-4895-aa8c-033835526f23","system_id":"levelo_inurba_marseille","lat":43.318808,"lon":5.399771,"is_reserved":false,"is_disabled":false,"rental_uris":{"android":"levelo://app?vid=e4ccce50-4824-4895-aa8c-033835526f23","ios":"levelo://app?vid=e4ccce50-4824-4895-aa8c-033835526f23"},"vehicle_type_id":"4","last_reported":1761567702,"current_range_meters":9200,"station_id":"","pricing_plan_id":"cebpf4jnsgd1na2vs0mg"},{"bike_id":"de5cece4-6186-4ccb-b70e-a25e8bd3fc86","system_id":"levelo_inurba_marseille","lat":43.337444,"lon":5.374475,"is_reserved":false,"is_disabled":false,"rental_uris":{"android":"levelo://app?vid=de5cece4-6186-4ccb-b70e-a25e8bd3fc86","ios":"levelo://app?vid=de5cece4-6186-4ccb-b70e-a25e8bd3fc86"},"vehicle_type_id":"4","last_reported":1761567702,"current_range_meters":9200,"station_id":"","pricing_plan_id":"cebpf4jnsgd1na2vs0mg"},{"bike_id":"8847af5d-c1ad-4d8d-a5c1-273c3b41c105","system_id":"levelo_inurba_marseille","lat":43.322455,"lon":5.419618,"is_reserved":false,"is_disabled":false,"rental_uris":{"android":"levelo://app?vid=8847af5d-c1ad-4d8d-a5c1-273c3b41c105","ios":"levelo://app?vid=8847af5d-c1ad-4d8d-a5c1-273c3b41c105"},"vehicle_type_id":"4","last_reported":1761567702,"current_range_meters":9600,"station_id":"","pricing_plan_id":"cebpf4jnsgd1na2vs0mg"},{"bike_id":"376f37db-9367-433a-9ac4-7f57991dd845","system_id":"levelo_inurba_marseille","lat":43.32093,"lon":5.36787,"is_reserved":false,"is_disabled":false,"rental_uris":{"android":"levelo://app?vid=376f37db-9367-433a-9ac4-7f57991dd845","ios":"levelo://app?vid=376f37db-9367-433a-9ac4-7f57991dd845"},"vehicle_type_id":"4","last_reported":1761567702,"current_range_meters":9600,"station_id":"ce4bhrh2rcd13ifvqhug","pricing_plan_id":"cebpf4jnsgd1na2vs0mg"},{"bike_id":"8f4138f1-129f-4dc2-a705-abd002b7d710","system_id":"levelo_inurba_marseille","lat":43.25589,"lon":5.38217,"is_reserved":false,"is_disabled":false,"rental_uris":{"android":"levelo://app?vid=8f4138f1-129f-4dc2-a705-abd002b7d710","ios":"levelo://app?vid=8f4138f1-129f-4dc2-a705-abd002b7d710"},"vehicle_type_id":"4","last_reported":1761567702,"current_range_meters":9600,"station_id":"ce4bhih2rcd13ifvqfs0","pricing_plan_id":"cebpf4jnsgd1na2vs0mg"},{"bike_id":"109eb898-c171-4330-adea-84bd1cfd3c1e","system_id":"levelo_inurba_marseille","lat":43.24807,"lon":5.37454,"is_reserved":false,"is_disabled":false,"rental_uris":{"android":"levelo://app?vid=109eb898-c171-4330-adea-84bd1cfd3c1e","ios":"levelo://app?vid=109eb898-c171-4330-adea-84bd1cfd3c1e"},"vehicle_type_id":"4","last_reported":1761567702,"current_range_meters":9600,"station_id":"ce4bhgh2rcd13ifvqfb0","pricing_plan_id":"cebpf4jnsgd1na2vs0mg"},{"bike_id":"308b83e5-7cab-40fd-bf77-4ff48e75c52b","system_id":"levelo_inurba_marseille","lat":43.32538,"lon":5.4143,"is_reserved":false,"is_disabled":false,"rental_uris":{"android":"levelo://app?vid=308b83e5-7cab-40fd-bf77-4ff48e75c52b","ios":"levelo://app?vid=308b83e5-7cab-40fd-bf77-4ff48e75c52b"},"vehicle_type_id":"4","last_reported":1761567702,"current_range_meters":10000,"station_id":"ce4bhq12rcd13ifvqhhg","pricing_plan_id":"cebpf4jnsgd1na2vs0mg"},{"bike_id":"de0ca7a8-116a-46c8-8c50-6b445a473423","system_id":"levelo_inurba_marseille","lat":43.28864,"lon":5.42511,"is_reserved":false,"is_disabled":false,"rental_uris":{"android":"levelo://app?vid=de0ca7a8-116a-46c8-8c50-6b445a473423","ios":"levelo://app?vid=de0ca7a8-116a-46c8-8c50-6b445a473423"},"vehicle_type_id":"4","last_reported":1761567702,"current_range_meters":10000,"station_id":"st_d3b462108ojc7389ooeg","pricing_plan_id":"cebpf4jnsgd1na2vs0mg"},{"bike_id":"06e0b583-56e3-4369-a385-12661632fe0f","system_id":"levelo_inurba_marseille","lat":43.251083,"lon":5.403258,"is_reserved":false,"is_disabled":false,"rental_uris":{"android":"levelo://app?vid=06e0b583-56e3-4369-a385-12661632fe0f","ios":"levelo://app?vid=06e0b583-56e3-4369-a385-12661632fe0f"},"vehicle_type_id":"4","last_reported":1761567702,"current_range_meters":10000,"station_id":"ce4bhlh2rcd13ifvqgig","pricing_plan_id":"cebpf4jnsgd1na2vs0mg"},{"bike_id":"2fc1f180-acee-43e1-8d09-beee254fde53","system_id":"levelo_inurba_marseille","lat":43.31082,"lon":5.42428,"is_reserved":false,"is_disabled":false,"rental_uris":{"android":"levelo://app?vid=2fc1f180-acee-43e1-8d09-beee254fde53","ios":"levelo://app?vid=2fc1f180-acee-43e1-8d09-beee254fde53"},"vehicle_type_id":"4","last_reported":1761567702,"current_range_meters":10000,"station_id":"ce4bhp92rcd13ifvqhag","pricing_plan_id":"cebpf4jnsgd1na2vs0mg"},{"bike_id":"08b89487-7647-4a54-9c05-2a9b71119650","system_id":"levelo_inurba_marseille","lat":43.32447,"lon":5.36566,"is_reserved":false,"is_disabled":false,"rental_uris":{"android":"levelo://app?vid=08b89487-7647-4a54-9c05-2a9b71119650","ios":"levelo://app?vid=08b89487-7647-4a54-9c05-2a9b71119650"},"vehicle_type_id":"4","last_reported":1761567702,"current_range_meters":10800,"station_id":"ce4bhs12rcd13ifvqhvg","pricing_plan_id":"cebpf4jnsgd1na2vs0mg"},{"bike_id":"6874060c-b03e-4d5e-95fe-78f50e66c087","system_id":"levelo_inurba_marseille","lat":43.27924,"lon":5.38733,"is_reserved":false,"is_disabled":false,"rental_uris":{"android":"levelo://app?vid=6874060c-b03e-4d5e-95fe-78f50e66c087","ios":"levelo://app?vid=6874060c-b03e-4d5e-95fe-78f50e66c087"},"vehicle_type_id":"4","last_reported":1761567702,"current_range_meters":10800,"station_id":"","pricing_plan_id":"cebpf4jnsgd1na2vs0mg"},{"bike_id":"81a1b6fb-1f88-4713-82cd-8758a38cffd9","system_id":"levelo_inurba_marseille","lat":43.212092,"lon":5.350695,"is_reserved":false,"is_disabled":false,"rental_uris":{"android":"levelo://app?vid=81a1b6fb-1f88-4713-82cd-8758a38cffd9","ios":"levelo://app?vid=81a1b6fb-1f88-4713-82cd-8758a38cffd9"},"vehicle_type_id":"4","last_reported":1761567702,"current_range_meters":10800,"station_id":"","pricing_plan_id":"cebpf4jnsgd1na2vs0mg"},{"bike_id":"d9bb607d-1ecc-49cc-9f82-e52383a3bc84","system_id":"levelo_inurba_marseille","lat":43.29339,"lon":5.4118,"is_reserved":false,"is_disabled":false,"rental_uris":{"android":"levelo://app?vid=d9bb607d-1ecc-49cc-9f82-e52383a3bc84","ios":"levelo://app?vid=d9bb607d-1ecc-49cc-9f82-e52383a3bc84"},"vehicle_type_id":"4","last_reported":1761567702,"current_range_meters":11200,"station_id":"","pricing_plan_id":"cebpf4jnsgd1na2vs0mg"},{"bike_id":"882c51c3-23e4-4898-b58e-23d3f4a9d03b","system_id":"levelo_inurba_marseille","lat":43.29275,"lon":5.38427,"is_reserved":false,"is_disabled":false,"rental_uris":{"android":"levelo://app?vid=882c51c3-23e4-4898-b58e-23d3f4a9d03b","ios":"levelo://app?vid=882c51c3-23e4-4898-b58e-23d3f4a9d03b"},"vehicle_type_id":"4","last_reported":1761567702,"current_range_meters":11200,"station_id":"ce4bh692rcd13ifvqea0","pricing_plan_id":"cebpf4jnsgd1na2vs0mg"},{"bike_id":"b021df2f-fd27-4beb-85b8-ce1742af0adf","system_id":"levelo_inurba_marseille","lat":43.23146,"lon":5.43707,"is_reserved":false,"is_disabled":false,"rental_uris":{"android":"levelo://app?vid=b021df2f-fd27-4beb-85b8-ce1742af0adf","ios":"levelo://app?vid=b021df2f-fd27-4beb-85b8-ce1742af0adf"},"vehicle_type_id":"4","last_reported":1761567702,"current_range_meters":11200,"station_id":"ce4bhmp2rcd13ifvqgog","pricing_plan_id":"cebpf4jnsgd1na2vs0mg"},{"bike_id":"e11f3095-9f62-4c95-a026-916a88e497d0","system_id":"levelo_inurba_marseille","lat":43.26783,"lon":5.39413,"is_reserved":false,"is_disabled":false,"rental_uris":{"android":"levelo://app?vid=e11f3095-9f62-4c95-a026-916a88e497d0","ios":"levelo://app?vid=e11f3095-9f62-4c95-a026-916a88e497d0"},"vehicle_type_id":"4","last_reported":1761567702,"current_range_meters":11200,"station_id":"ce4bhh12rcd13ifvqfg0","pricing_plan_id":"cebpf4jnsgd1na2vs0mg"},{"bike_id":"7348219f-62a2-4f61-9dc3-4c6ae6e126f0","system_id":"levelo_inurba_marseille","lat":43.33738,"lon":5.37462,"is_reserved":false,"is_disabled":false,"rental_uris":{"android":"levelo://app?vid=7348219f-62a2-4f61-9dc3-4c6ae6e126f0","ios":"levelo://app?vid=7348219f-62a2-4f61-9dc3-4c6ae6e126f0"},"vehicle_type_id":"4","last_reported":1761567702,"current_range_meters":11600,"station_id":"","pricing_plan_id":"cebpf4jnsgd1na2vs0mg"},{"bike_id":"ce15d64c-7bd4-4017-a01a-0dc353c2995b","system_id":"levelo_inurba_marseille","lat":43.28138,"lon":5.35023,"is_reserved":false,"is_disabled":false,"rental_uris":{"android":"levelo://app?vid=ce15d64c-7bd4-4017-a01a-0dc353c2995b","ios":"levelo://app?vid=ce15d64c-7bd4-4017-a01a-0dc353c2995b"},"vehicle_type_id":"4","last_reported":1761567702,"current_range_meters":11600,"station_id":"","pricing_plan_id":"cebpf4jnsgd1na2vs0mg"},{"bike_id":"8b1c65dd-9b01-4036-8320-18df981e0d69","system_id":"levelo_inurba_marseille","lat":43.29445,"lon":5.39749,"is_reserved":false,"is_disabled":false,"rental_uris":{"android":"levelo://app?vid=8b1c65dd-9b01-4036-8320-18df981e0d69","ios":"levelo://app?vid=8b1c65dd-9b01-4036-8320-18df981e0d69"},"vehicle_type_id":"4","last_reported":1761567702,"current_range_meters":12000,"station_id":"ce4bh3h2rcd13ifvqdo0","pricing_plan_id":"cebpf4jnsgd1na2vs0mg"},{"bike_id":"3dbd451b-f3b1-4112-909c-c80f83b6e4de","system_id":"levelo_inurba_marseille","lat":43.28698,"lon":5.37381,"is_reserved":false,"is_disabled":false,"rental_uris":{"android":"levelo://app?vid=3dbd451b-f3b1-4112-909c-c80f83b6e4de","ios":"levelo://app?vid=3dbd451b-f3b1-4112-909c-c80f83b6e4de"},"vehicle_type_id":"4","last_reported":1761567702,"current_range_meters":12000,"station_id":"ce4bh3p2rcd13ifvqdq0","pricing_plan_id":"cebpf4jnsgd1na2vs0mg"},{"bike_id":"72692e77-b537-477c-ba7d-fdff69794bfb","system_id":"levelo_inurba_marseille","lat":43.25332,"lon":5.42175,"is_reserved":false,"is_disabled":false,"rental_uris":{"android":"levelo://app?vid=72692e77-b537-477c-ba7d-fdff69794bfb","ios":"levelo://app?vid=72692e77-b537-477c-ba7d-fdff69794bfb"},"vehicle_type_id":"4","last_reported":1761567702,"current_range_meters":12000,"station_id":"st_d2m65c5bi1j21697t3ng","pricing_plan_id":"cebpf4jnsgd1na2vs0mg"},{"bike_id":"42ce16c3-920c-4464-8644-8faeec9d5739","system_id":"levelo_inurba_marseille","lat":43.30786,"lon":5.37642,"is_reserved":false,"is_disabled":false,"rental_uris":{"android":"levelo://app?vid=42ce16c3-920c-4464-8644-8faeec9d5739","ios":"levelo://app?vid=42ce16c3-920c-4464-8644-8faeec9d5739"},"vehicle_type_id":"4","last_reported":1761567702,"current_range_meters":12000,"station_id":"ce4bgv92rcd13ifvqcq0","pricing_plan_id":"cebpf4jnsgd1na2vs0mg"},{"bike_id":"a4f07943-0446-4c9f-b805-0a8fa1679b79","system_id":"levelo_inurba_marseille","lat":43.31117,"lon":5.3778,"is_reserved":false,"is_disabled":false,"rental_uris":{"android":"levelo://app?vid=a4f07943-0446-4c9f-b805-0a8fa1679b79","ios":"levelo://app?vid=a4f07943-0446-4c9f-b805-0a8fa1679b79"},"vehicle_type_id":"4","last_reported":1761567702,"current_range_meters":12400,"station_id":"ce4bgt92rcd13ifvqcg0","pricing_plan_id":"cebpf4jnsgd1na2vs0mg"},{"bike_id":"610eea1f-f079-48f2-94f5-adebecc11543","system_id":"levelo_inurba_marseille","lat":43.29976,"lon":5.38482,"is_reserved":false,"is_disabled":false,"rental_uris":{"android":"levelo://app?vid=610eea1f-f079-48f2-94f5-adebecc11543","ios":"levelo://app?vid=610eea1f-f079-48f2-94f5-adebecc11543"},"vehicle_type_id":"4","last_reported":1761567702,"current_range_meters":12800,"station_id":"ce4bgj92rcd13ifvqbd0","pricing_plan_id":"cebpf4jnsgd1na2vs0mg"},{"bike_id":"8ce4acf9-3cce-4a2c-80a0-2e9ba0bb1c6c","system_id":"levelo_inurba_marseille","lat":43.24179,"lon":5.39722,"is_reserved":false,"is_disabled":false,"rental_uris":{"android":"levelo://app?vid=8ce4acf9-3cce-4a2c-80a0-2e9ba0bb1c6c","ios":"levelo://app?vid=8ce4acf9-3cce-4a2c-80a0-2e9ba0bb1c6c"},"vehicle_type_id":"4","last_reported":1761567702,"current_range_meters":12800,"station_id":"ce4bhn12rcd13ifvqgpg","pricing_plan_id":"cebpf4jnsgd1na2vs0mg"},{"bike_id":"7cd06c8e-20e0-4a7b-bdd0-d1a902d0086a","system_id":"levelo_inurba_marseille","lat":43.26227,"lon":5.404544,"is_reserved":false,"is_disabled":false,"rental_uris":{"android":"levelo://app?vid=7cd06c8e-20e0-4a7b-bdd0-d1a902d0086a","ios":"levelo://app?vid=7cd06c8e-20e0-4a7b-bdd0-d1a902d0086a"},"vehicle_type_id":"4","last_reported":1761567702,"current_range_meters":12800,"station_id":"ce4bhmh2rcd13ifvqgmg","pricing_plan_id":"cebpf4jnsgd1na2vs0mg"},{"bike_id":"71fe0d6a-f99e-45a0-9c75-e294b78524b2","system_id":"levelo_inurba_marseille","lat":43.212,"lon":5.35097,"is_reserved":false,"is_disabled":false,"rental_uris":{"android":"levelo://app?vid=71fe0d6a-f99e-45a0-9c75-e294b78524b2","ios":"levelo://app?vid=71fe0d6a-f99e-45a0-9c75-e294b78524b2"},"vehicle_type_id":"4","last_reported":1761567702,"current_range_meters":13600,"station_id":"st_cvj6sg6p6f1abm77japg","pricing_plan_id":"cebpf4jnsgd1na2vs0mg"},{"bike_id":"d23bf304-8579-4071-b2a4-61dc68f83575","system_id":"levelo_inurba_marseille","lat":43.21186,"lon":5.35079,"is_reserved":false,"is_disabled":false,"rental_uris":{"android":"levelo://app?vid=d23bf304-8579-4071-b2a4-61dc68f83575","ios":"levelo://app?vid=d23bf304-8579-4071-b2a4-61dc68f83575"},"vehicle_type_id":"4","last_reported":1761567702,"current_range_meters":13600,"station_id":"st_cvj6sg6p6f1abm77japg","pricing_plan_id":"cebpf4jnsgd1na2vs0mg"},{"bike_id":"f6f41915-49e3-4fb8-8c5c-96d42e084e15","system_id":"levelo_inurba_marseille","lat":43.3204,"lon":5.37109,"is_reserved":false,"is_disabled":false,"rental_uris":{"android":"levelo://app?vid=f6f41915-49e3-4fb8-8c5c-96d42e084e15","ios":"levelo://app?vid=f6f41915-49e3-4fb8-8c5c-96d42e084e15"},"vehicle_type_id":"4","last_reported":1761567702,"current_range_meters":13600,"station_id":"","pricing_plan_id":"cebpf4jnsgd1na2vs0mg"},{"bike_id":"f3673a60-efd2-465f-aa18-cb0baaf105f7","system_id":"levelo_inurba_marseille","lat":43.32358,"lon":5.38877,"is_reserved":false,"is_disabled":false,"rental_uris":{"android":"levelo://app?vid=f3673a60-efd2-465f-aa18-cb0baaf105f7","ios":"levelo://app?vid=f3673a60-efd2-465f-aa18-cb0baaf105f7"},"vehicle_type_id":"4","last_reported":1761567702,"current_range_meters":13600,"station_id":"ce4bhqp2rcd13ifvqhog","pricing_plan_id":"cebpf4jnsgd1na2vs0mg"},{"bike_id":"1271c2bd-0759-49af-b5ab-fb645cf1d3e2","system_id":"levelo_inurba_marseille","lat":43.2992,"lon":5.38137,"is_reserved":false,"is_disabled":false,"rental_uris":{"android":"levelo://app?vid=1271c2bd-0759-49af-b5ab-fb645cf1d3e2","ios":"levelo://app?vid=1271c2bd-0759-49af-b5ab-fb645cf1d3e2"},"vehicle_type_id":"4","last_reported":1761567702,"current_range_meters":13600,"station_id":"ce4bgj12rcd13ifvqbc0","pricing_plan_id":"cebpf4jnsgd1na2vs0mg"},{"bike_id":"f2a4fb14-5f9b-4015-b4b9-ef537bff4032","system_id":"levelo_inurba_marseille","lat":43.30537,"lon":5.36537,"is_reserved":false,"is_disabled":false,"rental_uris":{"android":"levelo://app?vid=f2a4fb14-5f9b-4015-b4b9-ef537bff4032","ios":"levelo://app?vid=f2a4fb14-5f9b-4015-b4b9-ef537bff4032"},"vehicle_type_id":"4","last_reported":1761567702,"current_range_meters":14000,"station_id":"ce4bgs12rcd13ifvqcag","pricing_plan_id":"cebpf4jnsgd1na2vs0mg"},{"bike_id":"83106217-f024-4381-9607-50194d3370ce","system_id":"levelo_inurba_marseille","lat":43.24164,"lon":5.36398,"is_reserved":false,"is_disabled":false,"rental_uris":{"android":"levelo://app?vid=83106217-f024-4381-9607-50194d3370ce","ios":"levelo://app?vid=83106217-f024-4381-9607-50194d3370ce"},"vehicle_type_id":"4","last_reported":1761567702,"current_range_meters":14000,"station_id":"cpo36qri1sfpv3e86is0","pricing_plan_id":"cebpf4jnsgd1na2vs0mg"},{"bike_id":"84249cc4-3db7-480a-8a1d-c307cc9c0a5d","system_id":"levelo_inurba_marseille","lat":43.27196,"lon":5.39184,"is_reserved":false,"is_disabled":false,"rental_uris":{"android":"levelo://app?vid=84249cc4-3db7-480a-8a1d-c307cc9c0a5d","ios":"levelo://app?vid=84249cc4-3db7-480a-8a1d-c307cc9c0a5d"},"vehicle_type_id":"4","last_reported":1761567702,"current_range_meters":14000,"station_id":"ce4bhhp2rcd13ifvqfm0","pricing_plan_id":"cebpf4jnsgd1na2vs0mg"},{"bike_id":"089c1b36-7002-4eeb-98f3-8e0d779e7651","system_id":"levelo_inurba_marseille","lat":43.29576,"lon":5.3752,"is_reserved":false,"is_disabled":false,"rental_uris":{"android":"levelo://app?vid=089c1b36-7002-4eeb-98f3-8e0d779e7651","ios":"levelo://app?vid=089c1b36-7002-4eeb-98f3-8e0d779e7651"},"vehicle_type_id":"4","last_reported":1761567702,"current_range_meters":14000,"station_id":"ce4bgh92rcd13ifvqb50","pricing_plan_id":"cebpf4jnsgd1na2vs0mg"},{"bike_id":"02dd205b-e97c-4104-9683-066d2523fd3f","system_id":"levelo_inurba_marseille","lat":43.21196,"lon":5.35058,"is_reserved":false,"is_disabled":false,"rental_uris":{"android":"levelo://app?vid=02dd205b-e97c-4104-9683-066d2523fd3f","ios":"levelo://app?vid=02dd205b-e97c-4104-9683-066d2523fd3f"},"vehicle_type_id":"4","last_reported":1761567702,"current_range_meters":14000,"station_id":"st_cvj6sg6p6f1abm77japg","pricing_plan_id":"cebpf4jnsgd1na2vs0mg"},{"bike_id":"99604b58-d182-4334-99ee-a0cd33dddfef","system_id":"levelo_inurba_marseille","lat":43.29471,"lon":5.38576,"is_reserved":false,"is_disabled":false,"rental_uris":{"android":"levelo://app?vid=99604b58-d182-4334-99ee-a0cd33dddfef","ios":"levelo://app?vid=99604b58-d182-4334-99ee-a0cd33dddfef"},"vehicle_type_id":"4","last_reported":1761567702,"current_range_meters":14000,"station_id":"","pricing_plan_id":"cebpf4jnsgd1na2vs0mg"},{"bike_id":"c5b3d2e8-0d0b-4c10-b082-f61fd1496032","system_id":"levelo_inurba_marseille","lat":43.29029,"lon":5.39963,"is_reserved":false,"is_disabled":false,"rental_uris":{"android":"levelo://app?vid=c5b3d2e8-0d0b-4c10-b082-f61fd1496032","ios":"levelo://app?vid=c5b3d2e8-0d0b-4c10-b082-f61fd1496032"},"vehicle_type_id":"4","last_reported":1761567702,"current_range_meters":14400,"station_id":"ce4bh392rcd13ifvqdm0","pricing_plan_id":"cebpf4jnsgd1na2vs0mg"},{"bike_id":"b83891d3-7971-45ae-9af3-651a6e6209e2","system_id":"levelo_inurba_marseille","lat":43.23198,"lon":5.35533,"is_reserved":false,"is_disabled":false,"rental_uris":{"android":"levelo://app?vid=b83891d3-7971-45ae-9af3-651a6e6209e2","ios":"levelo://app?vid=b83891d3-7971-45ae-9af3-651a6e6209e2"},"vehicle_type_id":"4","last_reported":1761567702,"current_range_meters":14400,"station_id":"ce4bhu92rcd13ifvqi70","pricing_plan_id":"cebpf4jnsgd1na2vs0mg"},{"bike_id":"bbbf3dbb-fbe2-4b7e-bfad-c027ca4e1c25","system_id":"levelo_inurba_marseille","lat":43.28473,"lon":5.48396,"is_reserved":false,"is_disabled":false,"rental_uris":{"android":"levelo://app?vid=bbbf3dbb-fbe2-4b7e-bfad-c027ca4e1c25","ios":"levelo://app?vid=bbbf3dbb-fbe2-4b7e-bfad-c027ca4e1c25"},"vehicle_type_id":"4","last_reported":1761567702,"current_range_meters":14400,"station_id":"st_d3svhcjqgbts73a3dn0g","pricing_plan_id":"cebpf4jnsgd1na2vs0mg"},{"bike_id":"36dae71f-ce97-4300-afd0-d3737980e549","system_id":"levelo_inurba_marseille","lat":43.30926,"lon":5.40157,"is_reserved":false,"is_disabled":false,"rental_uris":{"android":"levelo://app?vid=36dae71f-ce97-4300-afd0-d3737980e549","ios":"levelo://app?vid=36dae71f-ce97-4300-afd0-d3737980e549"},"vehicle_type_id":"4","last_reported":1761567702,"current_range_meters":14400,"station_id":"ce4bgvp2rcd13ifvqct0","pricing_plan_id":"cebpf4jnsgd1na2vs0mg"},{"bike_id":"e92a5181-3093-4535-adde-2230374de0aa","system_id":"levelo_inurba_marseille","lat":43.31332,"lon":5.37675,"is_reserved":false,"is_disabled":false,"rental_uris":{"android":"levelo://app?vid=e92a5181-3093-4535-adde-2230374de0aa","ios":"levelo://app?vid=e92a5181-3093-4535-adde-2230374de0aa"},"vehicle_type_id":"4","last_reported":1761567702,"current_range_meters":14400,"station_id":"","pricing_plan_id":"cebpf4jnsgd1na2vs0mg"},{"bike_id":"39aed73f-4da1-4597-aa91-1afb19bde151","system_id":"levelo_inurba_marseille","lat":43.29908,"lon":5.38139,"is_reserved":false,"is_disabled":false,"rental_uris":{"android":"levelo://app?vid=39aed73f-4da1-4597-aa91-1afb19bde151","ios":"levelo://app?vid=39aed73f-4da1-4597-aa91-1afb19bde151"},"vehicle_type_id":"4","last_reported":1761567702,"current_range_meters":14400,"station_id":"ce4bgj12rcd13ifvqbc0","pricing_plan_id":"cebpf4jnsgd1na2vs0mg"},{"bike_id":"1b7829fd-c993-41fc-94f6-0cddf3da8a25","system_id":"levelo_inurba_marseille","lat":43.248051,"lon":5.374637,"is_reserved":false,"is_disabled":false,"rental_uris":{"android":"levelo://app?vid=1b7829fd-c993-41fc-94f6-0cddf3da8a25","ios":"levelo://app?vid=1b7829fd-c993-41fc-94f6-0cddf3da8a25"},"vehicle_type_id":"4","last_reported":1761567702,"current_range_meters":14400,"station_id":"ce4bhgh2rcd13ifvqfb0","pricing_plan_id":"cebpf4jnsgd1na2vs0mg"},{"bike_id":"27e624cb-064c-4d87-8b98-5d613fc327dd","system_id":"levelo_inurba_marseille","lat":43.31359,"lon":5.36738,"is_reserved":false,"is_disabled":false,"rental_uris":{"android":"levelo://app?vid=27e624cb-064c-4d87-8b98-5d613fc327dd","ios":"levelo://app?vid=27e624cb-064c-4d87-8b98-5d613fc327dd"},"vehicle_type_id":"4","last_reported":1761567702,"current_range_meters":14800,"station_id":"ce4bgr92rcd13ifvqc6g","pricing_plan_id":"cebpf4jnsgd1na2vs0mg"},{"bike_id":"6b27b53b-ade4-4e59-9555-b40b30fb2fb2","system_id":"levelo_inurba_marseille","lat":43.25327,"lon":5.42188,"is_reserved":false,"is_disabled":false,"rental_uris":{"android":"levelo://app?vid=6b27b53b-ade4-4e59-9555-b40b30fb2fb2","ios":"levelo://app?vid=6b27b53b-ade4-4e59-9555-b40b30fb2fb2"},"vehicle_type_id":"4","last_reported":1761567702,"current_range_meters":14800,"station_id":"st_d2m65c5bi1j21697t3ng","pricing_plan_id":"cebpf4jnsgd1na2vs0mg"},{"bike_id":"59c5b5f6-4dce-4263-8284-9f158e62d22f","system_id":"levelo_inurba_marseille","lat":43.257557,"lon":5.393373,"is_reserved":false,"is_disabled":false,"rental_uris":{"android":"levelo://app?vid=59c5b5f6-4dce-4263-8284-9f158e62d22f","ios":"levelo://app?vid=59c5b5f6-4dce-4263-8284-9f158e62d22f"},"vehicle_type_id":"4","last_reported":1761567702,"current_range_meters":14800,"station_id":"ce4bhip2rcd13ifvqft0","pricing_plan_id":"cebpf4jnsgd1na2vs0mg"},{"bike_id":"1880ebb9-7edb-463e-976b-226e958b9ebe","system_id":"levelo_inurba_marseille","lat":43.31097,"lon":5.37487,"is_reserved":false,"is_disabled":false,"rental_uris":{"android":"levelo://app?vid=1880ebb9-7edb-463e-976b-226e958b9ebe","ios":"levelo://app?vid=1880ebb9-7edb-463e-976b-226e958b9ebe"},"vehicle_type_id":"4","last_reported":1761567702,"current_range_meters":15200,"station_id":"ce4bgt12rcd13ifvqce0","pricing_plan_id":"cebpf4jnsgd1na2vs0mg"},{"bike_id":"2319520a-fc10-4ea5-a5ca-d3a4702f6c7b","system_id":"levelo_inurba_marseille","lat":43.29892,"lon":5.4366,"is_reserved":false,"is_disabled":true,"rental_uris":{"android":"levelo://app?vid=2319520a-fc10-4ea5-a5ca-d3a4702f6c7b","ios":"levelo://app?vid=2319520a-fc10-4ea5-a5ca-d3a4702f6c7b"},"vehicle_type_id":"4","last_reported":1761567702,"current_range_meters":15200,"station_id":"ce4bhpp2rcd13ifvqhfg","pricing_plan_id":"cebpf4jnsgd1na2vs0mg"},{"bike_id":"93ef566c-0909-48d1-8deb-d11c9c5aea5b","system_id":"levelo_inurba_marseille","lat":43.32361,"lon":5.36775,"is_reserved":false,"is_disabled":false,"rental_uris":{"android":"levelo://app?vid=93ef566c-0909-48d1-8deb-d11c9c5aea5b","ios":"levelo://app?vid=93ef566c-0909-48d1-8deb-d11c9c5aea5b"},"vehicle_type_id":"4","last_reported":1761567702,"current_range_meters":15200,"station_id":"ce4bhsh2rcd13ifvqi2g","pricing_plan_id":"cebpf4jnsgd1na2vs0mg"},{"bike_id":"9d8ebc8c-f00c-42c5-a2de-7f9b8c36d074","system_id":"levelo_inurba_marseille","lat":43.26684,"lon":5.38276,"is_reserved":false,"is_disabled":false,"rental_uris":{"android":"levelo://app?vid=9d8ebc8c-f00c-42c5-a2de-7f9b8c36d074","ios":"levelo://app?vid=9d8ebc8c-f00c-42c5-a2de-7f9b8c36d074"},"vehicle_type_id":"4","last_reported":1761567702,"current_range_meters":15200,"station_id":"ce4bhg92rcd13ifvqf90","pricing_plan_id":"cebpf4jnsgd1na2vs0mg"},{"bike_id":"fdc43030-5704-454e-ad42-cd94061c06a1","system_id":"levelo_inurba_marseille","lat":43.32112,"lon":5.3676,"is_reserved":false,"is_disabled":false,"rental_uris":{"android":"levelo://app?vid=fdc43030-5704-454e-ad42-cd94061c06a1","ios":"levelo://app?vid=fdc43030-5704-454e-ad42-cd94061c06a1"},"vehicle_type_id":"4","last_reported":1761567702,"current_range_meters":15200,"station_id":"ce4bhrh2rcd13ifvqhug","pricing_plan_id":"cebpf4jnsgd1na2vs0mg"},{"bike_id":"a41981bd-a928-4902-9568-a616a6fe5616","system_id":"levelo_inurba_marseille","lat":43.31485,"lon":5.37301,"is_reserved":false,"is_disabled":false,"rental_uris":{"android":"levelo://app?vid=a41981bd-a928-4902-9568-a616a6fe5616","ios":"levelo://app?vid=a41981bd-a928-4902-9568-a616a6fe5616"},"vehicle_type_id":"4","last_reported":1761567702,"current_range_meters":16000,"station_id":"ce4bgt12rcd13ifvqcd0","pricing_plan_id":"cebpf4jnsgd1na2vs0mg"},{"bike_id":"69c09662-4f40-4740-addf-1598645e1fcb","system_id":"levelo_inurba_marseille","lat":43.295342,"lon":5.385406,"is_reserved":false,"is_disabled":false,"rental_uris":{"android":"levelo://app?vid=69c09662-4f40-4740-addf-1598645e1fcb","ios":"levelo://app?vid=69c09662-4f40-4740-addf-1598645e1fcb"},"vehicle_type_id":"4","last_reported":1761567702,"current_range_meters":16000,"station_id":"ce4bgih2rcd13ifvqba0","pricing_plan_id":"cebpf4jnsgd1na2vs0mg"},{"bike_id":"b435c3eb-ac69-4665-bed8-d8c98496674c","system_id":"levelo_inurba_marseille","lat":43.231889,"lon":5.400135,"is_reserved":false,"is_disabled":false,"rental_uris":{"android":"levelo://app?vid=b435c3eb-ac69-4665-bed8-d8c98496674c","ios":"levelo://app?vid=b435c3eb-ac69-4665-bed8-d8c98496674c"},"vehicle_type_id":"4","last_reported":1761567702,"current_range_meters":16000,"station_id":"ce4bhn12rcd13ifvqgqg","pricing_plan_id":"cebpf4jnsgd1na2vs0mg"},{"bike_id":"a8eaa7bf-abc4-442b-a39a-70f43953066c","system_id":"levelo_inurba_marseille","lat":43.29168,"lon":5.37164,"is_reserved":false,"is_disabled":false,"rental_uris":{"android":"levelo://app?vid=a8eaa7bf-abc4-442b-a39a-70f43953066c","ios":"levelo://app?vid=a8eaa7bf-abc4-442b-a39a-70f43953066c"},"vehicle_type_id":"4","last_reported":1761567702,"current_range_meters":16000,"station_id":"ce4bha92rcd13ifvqeh0","pricing_plan_id":"cebpf4jnsgd1na2vs0mg"},{"bike_id":"a3742816-3b43-434e-9db0-9ab9379fa4b3","system_id":"levelo_inurba_marseille","lat":43.27379,"lon":5.36257,"is_reserved":false,"is_disabled":true,"rental_uris":{"android":"levelo://app?vid=a3742816-3b43-434e-9db0-9ab9379fa4b3","ios":"levelo://app?vid=a3742816-3b43-434e-9db0-9ab9379fa4b3"},"vehicle_type_id":"4","last_reported":1761567702,"current_range_meters":16400,"station_id":"ce4bhbh2rcd13ifvqeo0","pricing_plan_id":"cebpf4jnsgd1na2vs0mg"},{"bike_id":"e0c0e289-abfa-46b0-8d40-9b8cda538472","system_id":"levelo_inurba_marseille","lat":43.32356,"lon":5.36764,"is_reserved":false,"is_disabled":false,"rental_uris":{"android":"levelo://app?vid=e0c0e289-abfa-46b0-8d40-9b8cda538472","ios":"levelo://app?vid=e0c0e289-abfa-46b0-8d40-9b8cda538472"},"vehicle_type_id":"4","last_reported":1761567702,"current_range_meters":16400,"station_id":"ce4bhsh2rcd13ifvqi2g","pricing_plan_id":"cebpf4jnsgd1na2vs0mg"},{"bike_id":"a507e789-f440-40a8-85cf-09841d81676c","system_id":"levelo_inurba_marseille","lat":43.2254,"lon":5.34851,"is_reserved":false,"is_disabled":false,"rental_uris":{"android":"levelo://app?vid=a507e789-f440-40a8-85cf-09841d81676c","ios":"levelo://app?vid=a507e789-f440-40a8-85cf-09841d81676c"},"vehicle_type_id":"4","last_reported":1761567702,"current_range_meters":16400,"station_id":"","pricing_plan_id":"cebpf4jnsgd1na2vs0mg"},{"bike_id":"596e07e5-ee28-4f19-90c1-99ddc246077a","system_id":"levelo_inurba_marseille","lat":43.29756,"lon":5.42796,"is_reserved":false,"is_disabled":false,"rental_uris":{"android":"levelo://app?vid=596e07e5-ee28-4f19-90c1-99ddc246077a","ios":"levelo://app?vid=596e07e5-ee28-4f19-90c1-99ddc246077a"},"vehicle_type_id":"4","last_reported":1761567702,"current_range_meters":16400,"station_id":"st_d3md5207bmas73dh9klg","pricing_plan_id":"cebpf4jnsgd1na2vs0mg"},{"bike_id":"a3100ff0-76ab-498b-bebf-b9c52f3d2538","system_id":"levelo_inurba_marseille","lat":43.2848,"lon":5.48389,"is_reserved":false,"is_disabled":false,"rental_uris":{"android":"levelo://app?vid=a3100ff0-76ab-498b-bebf-b9c52f3d2538","ios":"levelo://app?vid=a3100ff0-76ab-498b-bebf-b9c52f3d2538"},"vehicle_type_id":"4","last_reported":1761567702,"current_range_meters":16400,"station_id":"","pricing_plan_id":"cebpf4jnsgd1na2vs0mg"},{"bike_id":"04f05742-34e4-4285-9012-d64d097608c7","system_id":"levelo_inurba_marseille","lat":43.25861,"lon":5.39903,"is_reserved":false,"is_disabled":false,"rental_uris":{"android":"levelo://app?vid=04f05742-34e4-4285-9012-d64d097608c7","ios":"levelo://app?vid=04f05742-34e4-4285-9012-d64d097608c7"},"vehicle_type_id":"4","last_reported":1761567702,"current_range_meters":16400,"station_id":"ce4bhl92rcd13ifvqghg","pricing_plan_id":"cebpf4jnsgd1na2vs0mg"},{"bike_id":"f41a6845-02a5-45fd-8f67-03fd68d78092","system_id":"levelo_inurba_marseille","lat":43.29751,"lon":5.42788,"is_reserved":false,"is_disabled":false,"rental_uris":{"android":"levelo://app?vid=f41a6845-02a5-45fd-8f67-03fd68d78092","ios":"levelo://app?vid=f41a6845-02a5-45fd-8f67-03fd68d78092"},"vehicle_type_id":"4","last_reported":1761567702,"current_range_meters":16400,"station_id":"st_d3md5207bmas73dh9klg","pricing_plan_id":"cebpf4jnsgd1na2vs0mg"},{"bike_id":"4018917b-063a-443f-b00c-5121f423f29d","system_id":"levelo_inurba_marseille","lat":43.293224,"lon":5.375654,"is_reserved":false,"is_disabled":false,"rental_uris":{"android":"levelo://app?vid=4018917b-063a-443f-b00c-5121f423f29d","ios":"levelo://app?vid=4018917b-063a-443f-b00c-5121f423f29d"},"vehicle_type_id":"4","last_reported":1761567702,"current_range_meters":16400,"station_id":"ce4bgi12rcd13ifvqb70","pricing_plan_id":"cebpf4jnsgd1na2vs0mg"},{"bike_id":"21dbf7f2-eb19-4663-b1c0-879822879492","system_id":"levelo_inurba_marseille","lat":43.337631,"lon":5.374577,"is_reserved":false,"is_disabled":false,"rental_uris":{"android":"levelo://app?vid=21dbf7f2-eb19-4663-b1c0-879822879492","ios":"levelo://app?vid=21dbf7f2-eb19-4663-b1c0-879822879492"},"vehicle_type_id":"4","last_reported":1761567702,"current_range_meters":16400,"station_id":"","pricing_plan_id":"cebpf4jnsgd1na2vs0mg"},{"bike_id":"6a1d2475-9b76-4fee-b2c9-3a1f0ed26a05","system_id":"levelo_inurba_marseille","lat":43.24209,"lon":5.39707,"is_reserved":false,"is_disabled":false,"rental_uris":{"android":"levelo://app?vid=6a1d2475-9b76-4fee-b2c9-3a1f0ed26a05","ios":"levelo://app?vid=6a1d2475-9b76-4fee-b2c9-3a1f0ed26a05"},"vehicle_type_id":"4","last_reported":1761567702,"current_range_meters":16800,"station_id":"ce4bhn12rcd13ifvqgpg","pricing_plan_id":"cebpf4jnsgd1na2vs0mg"},{"bike_id":"eea3c3c3-734f-4fd3-8061-ed84cfe47b38","system_id":"levelo_inurba_marseille","lat":43.32564,"lon":5.39142,"is_reserved":false,"is_disabled":false,"rental_uris":{"android":"levelo://app?vid=eea3c3c3-734f-4fd3-8061-ed84cfe47b38","ios":"levelo://app?vid=eea3c3c3-734f-4fd3-8061-ed84cfe47b38"},"vehicle_type_id":"4","last_reported":1761567702,"current_range_meters":16800,"station_id":"","pricing_plan_id":"cebpf4jnsgd1na2vs0mg"},{"bike_id":"e6d2836a-0ee9-4bb1-a174-d1afcbbbdca7","system_id":"levelo_inurba_marseille","lat":43.29272,"lon":5.36848,"is_reserved":false,"is_disabled":false,"rental_uris":{"android":"levelo://app?vid=e6d2836a-0ee9-4bb1-a174-d1afcbbbdca7","ios":"levelo://app?vid=e6d2836a-0ee9-4bb1-a174-d1afcbbbdca7"},"vehicle_type_id":"4","last_reported":1761567702,"current_range_meters":16800,"station_id":"ce4bhbp2rcd13ifvqesg","pricing_plan_id":"cebpf4jnsgd1na2vs0mg"},{"bike_id":"6707e9ca-92a2-4e95-8654-3b145595537a","system_id":"levelo_inurba_marseille","lat":43.29843,"lon":5.36274,"is_reserved":false,"is_disabled":false,"rental_uris":{"android":"levelo://app?vid=6707e9ca-92a2-4e95-8654-3b145595537a","ios":"levelo://app?vid=6707e9ca-92a2-4e95-8654-3b145595537a"},"vehicle_type_id":"4","last_reported":1761567702,"current_range_meters":16800,"station_id":"ce4bgpp2rcd13ifvqc3g","pricing_plan_id":"cebpf4jnsgd1na2vs0mg"},{"bike_id":"b689a5bf-875d-4ab1-9212-a71e85899faa","system_id":"levelo_inurba_marseille","lat":43.297533,"lon":5.427806,"is_reserved":false,"is_disabled":false,"rental_uris":{"android":"levelo://app?vid=b689a5bf-875d-4ab1-9212-a71e85899faa","ios":"levelo://app?vid=b689a5bf-875d-4ab1-9212-a71e85899faa"},"vehicle_type_id":"4","last_reported":1761567702,"current_range_meters":17200,"station_id":"st_d3md5207bmas73dh9klg","pricing_plan_id":"cebpf4jnsgd1na2vs0mg"},{"bike_id":"5f14cff6-4b71-49be-9e5d-e8d6147c660c","system_id":"levelo_inurba_marseille","lat":43.27202,"lon":5.39181,"is_reserved":false,"is_disabled":false,"rental_uris":{"android":"levelo://app?vid=5f14cff6-4b71-49be-9e5d-e8d6147c660c","ios":"levelo://app?vid=5f14cff6-4b71-49be-9e5d-e8d6147c660c"},"vehicle_type_id":"4","last_reported":1761567702,"current_range_meters":17200,"station_id":"ce4bhhp2rcd13ifvqfm0","pricing_plan_id":"cebpf4jnsgd1na2vs0mg"},{"bike_id":"e77f1956-d535-4a09-a24d-bcd7bdf095ea","system_id":"levelo_inurba_marseille","lat":43.31247,"lon":5.36873,"is_reserved":false,"is_disabled":false,"rental_uris":{"android":"levelo://app?vid=e77f1956-d535-4a09-a24d-bcd7bdf095ea","ios":"levelo://app?vid=e77f1956-d535-4a09-a24d-bcd7bdf095ea"},"vehicle_type_id":"4","last_reported":1761567702,"current_range_meters":17200,"station_id":"ce4bgl92rcd13ifvqbq0","pricing_plan_id":"cebpf4jnsgd1na2vs0mg"},{"bike_id":"0bbc239a-da27-4714-a802-1c546dd89778","system_id":"levelo_inurba_marseille","lat":43.23131,"lon":5.43745,"is_reserved":false,"is_disabled":false,"rental_uris":{"android":"levelo://app?vid=0bbc239a-da27-4714-a802-1c546dd89778","ios":"levelo://app?vid=0bbc239a-da27-4714-a802-1c546dd89778"},"vehicle_type_id":"4","last_reported":1761567702,"current_range_meters":17200,"station_id":"","pricing_plan_id":"cebpf4jnsgd1na2vs0mg"},{"bike_id":"cb878473-5366-4cb6-bbc7-98917a922c16","system_id":"levelo_inurba_marseille","lat":43.28264,"lon":5.35073,"is_reserved":false,"is_disabled":false,"rental_uris":{"android":"levelo://app?vid=cb878473-5366-4cb6-bbc7-98917a922c16","ios":"levelo://app?vid=cb878473-5366-4cb6-bbc7-98917a922c16"},"vehicle_type_id":"4","last_reported":1761567702,"current_range_meters":17200,"station_id":"ce4bhbp2rcd13ifvqerg","pricing_plan_id":"cebpf4jnsgd1na2vs0mg"},{"bike_id":"42ee5139-61cf-410d-8c27-b54b73c6dff1","system_id":"levelo_inurba_marseille","lat":43.30546,"lon":5.36691,"is_reserved":false,"is_disabled":false,"rental_uris":{"android":"levelo://app?vid=42ee5139-61cf-410d-8c27-b54b73c6dff1","ios":"levelo://app?vid=42ee5139-61cf-410d-8c27-b54b73c6dff1"},"vehicle_type_id":"4","last_reported":1761567702,"current_range_meters":17200,"station_id":"ce4bgrp2rcd13ifvqc9g","pricing_plan_id":"cebpf4jnsgd1na2vs0mg"},{"bike_id":"7d669164-eb8c-4183-b699-6f9fb1bdabef","system_id":"levelo_inurba_marseille","lat":43.24383,"lon":5.37054,"is_reserved":false,"is_disabled":false,"rental_uris":{"android":"levelo://app?vid=7d669164-eb8c-4183-b699-6f9fb1bdabef","ios":"levelo://app?vid=7d669164-eb8c-4183-b699-6f9fb1bdabef"},"vehicle_type_id":"4","last_reported":1761567702,"current_range_meters":17200,"station_id":"ce4bhhh2rcd13ifvqfk0","pricing_plan_id":"cebpf4jnsgd1na2vs0mg"},{"bike_id":"8d2992fb-f4e0-4592-8dd5-3f18a4027db6","system_id":"levelo_inurba_marseille","lat":43.25335,"lon":5.42169,"is_reserved":false,"is_disabled":false,"rental_uris":{"android":"levelo://app?vid=8d2992fb-f4e0-4592-8dd5-3f18a4027db6","ios":"levelo://app?vid=8d2992fb-f4e0-4592-8dd5-3f18a4027db6"},"vehicle_type_id":"4","last_reported":1761567702,"current_range_meters":17200,"station_id":"st_d2m65c5bi1j21697t3ng","pricing_plan_id":"cebpf4jnsgd1na2vs0mg"},{"bike_id":"56bf4c51-2c8c-425c-990e-53cb0ba0a741","system_id":"levelo_inurba_marseille","lat":43.27377,"lon":5.36254,"is_reserved":false,"is_disabled":false,"rental_uris":{"android":"levelo://app?vid=56bf4c51-2c8c-425c-990e-53cb0ba0a741","ios":"levelo://app?vid=56bf4c51-2c8c-425c-990e-53cb0ba0a741"},"vehicle_type_id":"4","last_reported":1761567702,"current_range_meters":17200,"station_id":"ce4bhbh2rcd13ifvqeo0","pricing_plan_id":"cebpf4jnsgd1na2vs0mg"},{"bike_id":"0709da96-3569-4b3f-9bc8-3bb4680af42a","system_id":"levelo_inurba_marseille","lat":43.31524,"lon":5.37321,"is_reserved":false,"is_disabled":false,"rental_uris":{"android":"levelo://app?vid=0709da96-3569-4b3f-9bc8-3bb4680af42a","ios":"levelo://app?vid=0709da96-3569-4b3f-9bc8-3bb4680af42a"},"vehicle_type_id":"4","last_reported":1761567702,"current_range_meters":17600,"station_id":"ce4bgt12rcd13ifvqcd0","pricing_plan_id":"cebpf4jnsgd1na2vs0mg"},{"bike_id":"0c897b7a-fda3-462a-956d-8a7449db89ce","system_id":"levelo_inurba_marseille","lat":43.2669,"lon":5.38246,"is_reserved":false,"is_disabled":false,"rental_uris":{"android":"levelo://app?vid=0c897b7a-fda3-462a-956d-8a7449db89ce","ios":"levelo://app?vid=0c897b7a-fda3-462a-956d-8a7449db89ce"},"vehicle_type_id":"4","last_reported":1761567702,"current_range_meters":17600,"station_id":"ce4bhg92rcd13ifvqf90","pricing_plan_id":"cebpf4jnsgd1na2vs0mg"},{"bike_id":"2e00689e-8316-4ee8-8b81-7a1d940db626","system_id":"levelo_inurba_marseille","lat":43.31226,"lon":5.36856,"is_reserved":false,"is_disabled":false,"rental_uris":{"android":"levelo://app?vid=2e00689e-8316-4ee8-8b81-7a1d940db626","ios":"levelo://app?vid=2e00689e-8316-4ee8-8b81-7a1d940db626"},"vehicle_type_id":"4","last_reported":1761567702,"current_range_meters":17600,"station_id":"ce4bgl92rcd13ifvqbq0","pricing_plan_id":"cebpf4jnsgd1na2vs0mg"},{"bike_id":"d5ca831f-8041-403e-ada8-7b4196c3d5be","system_id":"levelo_inurba_marseille","lat":43.293714,"lon":5.379385,"is_reserved":false,"is_disabled":false,"rental_uris":{"android":"levelo://app?vid=d5ca831f-8041-403e-ada8-7b4196c3d5be","ios":"levelo://app?vid=d5ca831f-8041-403e-ada8-7b4196c3d5be"},"vehicle_type_id":"4","last_reported":1761567702,"current_range_meters":17600,"station_id":"","pricing_plan_id":"cebpf4jnsgd1na2vs0mg"},{"bike_id":"98f1b65c-3caf-4bbf-a53f-d1d11bef0a75","system_id":"levelo_inurba_marseille","lat":43.30151,"lon":5.37414,"is_reserved":false,"is_disabled":false,"rental_uris":{"android":"levelo://app?vid=98f1b65c-3caf-4bbf-a53f-d1d11bef0a75","ios":"levelo://app?vid=98f1b65c-3caf-4bbf-a53f-d1d11bef0a75"},"vehicle_type_id":"4","last_reported":1761567702,"current_range_meters":18000,"station_id":"ce4bgs92rcd13ifvqcc0","pricing_plan_id":"cebpf4jnsgd1na2vs0mg"},{"bike_id":"d7b556e6-ac3d-4fe4-b136-c7cd05c756e3","system_id":"levelo_inurba_marseille","lat":43.21184,"lon":5.35088,"is_reserved":false,"is_disabled":false,"rental_uris":{"android":"levelo://app?vid=d7b556e6-ac3d-4fe4-b136-c7cd05c756e3","ios":"levelo://app?vid=d7b556e6-ac3d-4fe4-b136-c7cd05c756e3"},"vehicle_type_id":"4","last_reported":1761567702,"current_range_meters":18000,"station_id":"st_cvj6sg6p6f1abm77japg","pricing_plan_id":"cebpf4jnsgd1na2vs0mg"},{"bike_id":"e15ad564-54ad-4c87-a5af-db39620a6d74","system_id":"levelo_inurba_marseille","lat":43.28424,"lon":5.34979,"is_reserved":false,"is_disabled":false,"rental_uris":{"android":"levelo://app?vid=e15ad564-54ad-4c87-a5af-db39620a6d74","ios":"levelo://app?vid=e15ad564-54ad-4c87-a5af-db39620a6d74"},"vehicle_type_id":"4","last_reported":1761567702,"current_range_meters":18000,"station_id":"ce4bhbh2rcd13ifvqepg","pricing_plan_id":"cebpf4jnsgd1na2vs0mg"},{"bike_id":"6259f55b-2b03-426c-926a-c8a432bd1482","system_id":"levelo_inurba_marseille","lat":43.21753,"lon":5.34598,"is_reserved":false,"is_disabled":false,"rental_uris":{"android":"levelo://app?vid=6259f55b-2b03-426c-926a-c8a432bd1482","ios":"levelo://app?vid=6259f55b-2b03-426c-926a-c8a432bd1482"},"vehicle_type_id":"4","last_reported":1761567702,"current_range_meters":18000,"station_id":"","pricing_plan_id":"cebpf4jnsgd1na2vs0mg"},{"bike_id":"584373b2-7857-4514-ba1b-a8cbf8f807e7","system_id":"levelo_inurba_marseille","lat":43.29849,"lon":5.36286,"is_reserved":false,"is_disabled":false,"rental_uris":{"android":"levelo://app?vid=584373b2-7857-4514-ba1b-a8cbf8f807e7","ios":"levelo://app?vid=584373b2-7857-4514-ba1b-a8cbf8f807e7"},"vehicle_type_id":"4","last_reported":1761567702,"current_range_meters":18800,"station_id":"ce4bgpp2rcd13ifvqc3g","pricing_plan_id":"cebpf4jnsgd1na2vs0mg"},{"bike_id":"edf5f0fb-0959-44c0-b6b3-9db9d272d2c0","system_id":"levelo_inurba_marseille","lat":43.24176,"lon":5.39732,"is_reserved":false,"is_disabled":false,"rental_uris":{"android":"levelo://app?vid=edf5f0fb-0959-44c0-b6b3-9db9d272d2c0","ios":"levelo://app?vid=edf5f0fb-0959-44c0-b6b3-9db9d272d2c0"},"vehicle_type_id":"4","last_reported":1761567702,"current_range_meters":18800,"station_id":"ce4bhn12rcd13ifvqgpg","pricing_plan_id":"cebpf4jnsgd1na2vs0mg"},{"bike_id":"2484d73d-0ed9-4aeb-b08e-8d8cbd56d7f7","system_id":"levelo_inurba_marseille","lat":43.312379,"lon":5.368484,"is_reserved":false,"is_disabled":false,"rental_uris":{"android":"levelo://app?vid=2484d73d-0ed9-4aeb-b08e-8d8cbd56d7f7","ios":"levelo://app?vid=2484d73d-0ed9-4aeb-b08e-8d8cbd56d7f7"},"vehicle_type_id":"4","last_reported":1761567702,"current_range_meters":18800,"station_id":"ce4bgr92rcd13ifvqc6g","pricing_plan_id":"cebpf4jnsgd1na2vs0mg"},{"bike_id":"34c10aaa-7627-4124-af3d-822f6353dea1","system_id":"levelo_inurba_marseille","lat":43.30534,"lon":5.36702,"is_reserved":false,"is_disabled":false,"rental_uris":{"android":"levelo://app?vid=34c10aaa-7627-4124-af3d-822f6353dea1","ios":"levelo://app?vid=34c10aaa-7627-4124-af3d-822f6353dea1"},"vehicle_type_id":"4","last_reported":1761567702,"current_range_meters":18800,"station_id":"ce4bgrp2rcd13ifvqc9g","pricing_plan_id":"cebpf4jnsgd1na2vs0mg"},{"bike_id":"a630ed88-3f05-4926-bbab-8387ab6b6a28","system_id":"levelo_inurba_marseille","lat":43.23146,"lon":5.4371,"is_reserved":false,"is_disabled":true,"rental_uris":{"android":"levelo://app?vid=a630ed88-3f05-4926-bbab-8387ab6b6a28","ios":"levelo://app?vid=a630ed88-3f05-4926-bbab-8387ab6b6a28"},"vehicle_type_id":"4","last_reported":1761567702,"current_range_meters":18800,"station_id":"ce4bhmp2rcd13ifvqgog","pricing_plan_id":"cebpf4jnsgd1na2vs0mg"},{"bike_id":"c1835713-2275-4568-aaf3-a28cad357e30","system_id":"levelo_inurba_marseille","lat":43.28676,"lon":5.38665,"is_reserved":false,"is_disabled":false,"rental_uris":{"android":"levelo://app?vid=c1835713-2275-4568-aaf3-a28cad357e30","ios":"levelo://app?vid=c1835713-2275-4568-aaf3-a28cad357e30"},"vehicle_type_id":"4","last_reported":1761567702,"current_range_meters":18800,"station_id":"ce4bh492rcd13ifvqdug","pricing_plan_id":"cebpf4jnsgd1na2vs0mg"},{"bike_id":"a581fd41-5ac6-4110-bee2-d2b47c067643","system_id":"levelo_inurba_marseille","lat":43.24943,"lon":5.40491,"is_reserved":false,"is_disabled":false,"rental_uris":{"android":"levelo://app?vid=a581fd41-5ac6-4110-bee2-d2b47c067643","ios":"levelo://app?vid=a581fd41-5ac6-4110-bee2-d2b47c067643"},"vehicle_type_id":"4","last_reported":1761567702,"current_range_meters":18800,"station_id":"st_d2ngiaodas8pm72gd1h0","pricing_plan_id":"cebpf4jnsgd1na2vs0mg"},{"bike_id":"df94896d-c58b-459d-81e3-39f98a9915b5","system_id":"levelo_inurba_marseille","lat":43.28275,"lon":5.35092,"is_reserved":false,"is_disabled":false,"rental_uris":{"android":"levelo://app?vid=df94896d-c58b-459d-81e3-39f98a9915b5","ios":"levelo://app?vid=df94896d-c58b-459d-81e3-39f98a9915b5"},"vehicle_type_id":"4","last_reported":1761567702,"current_range_meters":18800,"station_id":"ce4bhbp2rcd13ifvqerg","pricing_plan_id":"cebpf4jnsgd1na2vs0mg"},{"bike_id":"310e927d-d5b8-4a6f-82be-2d623690659d","system_id":"levelo_inurba_marseille","lat":43.31262,"lon":5.37768,"is_reserved":false,"is_disabled":false,"rental_uris":{"android":"levelo://app?vid=310e927d-d5b8-4a6f-82be-2d623690659d","ios":"levelo://app?vid=310e927d-d5b8-4a6f-82be-2d623690659d"},"vehicle_type_id":"4","last_reported":1761567702,"current_range_meters":19200,"station_id":"","pricing_plan_id":"cebpf4jnsgd1na2vs0mg"},{"bike_id":"16b2586f-072f-49e0-be90-bc6a7f318969","system_id":"levelo_inurba_marseille","lat":43.30193,"lon":5.36608,"is_reserved":false,"is_disabled":false,"rental_uris":{"android":"levelo://app?vid=16b2586f-072f-49e0-be90-bc6a7f318969","ios":"levelo://app?vid=16b2586f-072f-49e0-be90-bc6a7f318969"},"vehicle_type_id":"4","last_reported":1761567702,"current_range_meters":19200,"station_id":"ce4bgrh2rcd13ifvqc8g","pricing_plan_id":"cebpf4jnsgd1na2vs0mg"},{"bike_id":"ed1f6b52-c192-46ff-af97-54e8d35860dd","system_id":"levelo_inurba_marseille","lat":43.24386,"lon":5.37058,"is_reserved":false,"is_disabled":false,"rental_uris":{"android":"levelo://app?vid=ed1f6b52-c192-46ff-af97-54e8d35860dd","ios":"levelo://app?vid=ed1f6b52-c192-46ff-af97-54e8d35860dd"},"vehicle_type_id":"4","last_reported":1761567702,"current_range_meters":19200,"station_id":"ce4bhhh2rcd13ifvqfk0","pricing_plan_id":"cebpf4jnsgd1na2vs0mg"},{"bike_id":"e1ca1064-3ac1-495e-b8d2-df8047d11b2e","system_id":"levelo_inurba_marseille","lat":43.28481,"lon":5.48377,"is_reserved":false,"is_disabled":false,"rental_uris":{"android":"levelo://app?vid=e1ca1064-3ac1-495e-b8d2-df8047d11b2e","ios":"levelo://app?vid=e1ca1064-3ac1-495e-b8d2-df8047d11b2e"},"vehicle_type_id":"4","last_reported":1761567702,"current_range_meters":19200,"station_id":"st_d3svhcjqgbts73a3dn0g","pricing_plan_id":"cebpf4jnsgd1na2vs0mg"},{"bike_id":"73831710-31eb-43ff-a323-f5b815a9af26","system_id":"levelo_inurba_marseille","lat":43.305834,"lon":5.365969,"is_reserved":false,"is_disabled":false,"rental_uris":{"android":"levelo://app?vid=73831710-31eb-43ff-a323-f5b815a9af26","ios":"levelo://app?vid=73831710-31eb-43ff-a323-f5b815a9af26"},"vehicle_type_id":"4","last_reported":1761567702,"current_range_meters":19600,"station_id":"ce4bgs12rcd13ifvqcag","pricing_plan_id":"cebpf4jnsgd1na2vs0mg"},{"bike_id":"50cafbb6-656e-4615-bcdd-5ed96ab80ed1","system_id":"levelo_inurba_marseille","lat":43.271732,"lon":5.409938,"is_reserved":false,"is_disabled":false,"rental_uris":{"android":"levelo://app?vid=50cafbb6-656e-4615-bcdd-5ed96ab80ed1","ios":"levelo://app?vid=50cafbb6-656e-4615-bcdd-5ed96ab80ed1"},"vehicle_type_id":"4","last_reported":1761567702,"current_range_meters":19600,"station_id":"ce4bhl12rcd13ifvqgf0","pricing_plan_id":"cebpf4jnsgd1na2vs0mg"},{"bike_id":"aeb17150-1d30-48c9-86df-11ed41acab57","system_id":"levelo_inurba_marseille","lat":43.30429,"lon":5.38886,"is_reserved":false,"is_disabled":false,"rental_uris":{"android":"levelo://app?vid=aeb17150-1d30-48c9-86df-11ed41acab57","ios":"levelo://app?vid=aeb17150-1d30-48c9-86df-11ed41acab57"},"vehicle_type_id":"4","last_reported":1761567702,"current_range_meters":19600,"station_id":"ce4bgk12rcd13ifvqbi0","pricing_plan_id":"cebpf4jnsgd1na2vs0mg"},{"bike_id":"7d281405-72ae-4fff-9662-d8f59a7e945b","system_id":"levelo_inurba_marseille","lat":43.30467,"lon":5.37899,"is_reserved":false,"is_disabled":false,"rental_uris":{"android":"levelo://app?vid=7d281405-72ae-4fff-9662-d8f59a7e945b","ios":"levelo://app?vid=7d281405-72ae-4fff-9662-d8f59a7e945b"},"vehicle_type_id":"4","last_reported":1761567702,"current_range_meters":19600,"station_id":"ce4bgup2rcd13ifvqcn0","pricing_plan_id":"cebpf4jnsgd1na2vs0mg"},{"bike_id":"2be3bf9b-39f4-4c37-8c01-9e9bcabe1c53","system_id":"levelo_inurba_marseille","lat":43.33741,"lon":5.37444,"is_reserved":false,"is_disabled":false,"rental_uris":{"android":"levelo://app?vid=2be3bf9b-39f4-4c37-8c01-9e9bcabe1c53","ios":"levelo://app?vid=2be3bf9b-39f4-4c37-8c01-9e9bcabe1c53"},"vehicle_type_id":"4","last_reported":1761567702,"current_range_meters":19600,"station_id":"","pricing_plan_id":"cebpf4jnsgd1na2vs0mg"},{"bike_id":"2a667dcd-47ec-49a8-8204-3d19e70b3d65","system_id":"levelo_inurba_marseille","lat":43.30538,"lon":5.36519,"is_reserved":false,"is_disabled":false,"rental_uris":{"android":"levelo://app?vid=2a667dcd-47ec-49a8-8204-3d19e70b3d65","ios":"levelo://app?vid=2a667dcd-47ec-49a8-8204-3d19e70b3d65"},"vehicle_type_id":"4","last_reported":1761567702,"current_range_meters":19600,"station_id":"ce4bgs12rcd13ifvqcag","pricing_plan_id":"cebpf4jnsgd1na2vs0mg"},{"bike_id":"4f221918-84b5-4b9e-a22d-a70ce4456717","system_id":"levelo_inurba_marseille","lat":43.217525,"lon":5.346076,"is_reserved":false,"is_disabled":false,"rental_uris":{"android":"levelo://app?vid=4f221918-84b5-4b9e-a22d-a70ce4456717","ios":"levelo://app?vid=4f221918-84b5-4b9e-a22d-a70ce4456717"},"vehicle_type_id":"4","last_reported":1761567702,"current_range_meters":19600,"station_id":"","pricing_plan_id":"cebpf4jnsgd1na2vs0mg"},{"bike_id":"0636706c-bfab-4556-9018-e60056f69bba","system_id":"levelo_inurba_marseille","lat":43.31074,"lon":5.38356,"is_reserved":false,"is_disabled":false,"rental_uris":{"android":"levelo://app?vid=0636706c-bfab-4556-9018-e60056f69bba","ios":"levelo://app?vid=0636706c-bfab-4556-9018-e60056f69bba"},"vehicle_type_id":"4","last_reported":1761567702,"current_range_meters":19600,"station_id":"ce4bgv92rcd13ifvqcr0","pricing_plan_id":"cebpf4jnsgd1na2vs0mg"},{"bike_id":"0a2be094-c197-42a6-bf83-55d03ed7e0d1","system_id":"levelo_inurba_marseille","lat":43.287869,"lon":5.36021,"is_reserved":false,"is_disabled":false,"rental_uris":{"android":"levelo://app?vid=0a2be094-c197-42a6-bf83-55d03ed7e0d1","ios":"levelo://app?vid=0a2be094-c197-42a6-bf83-55d03ed7e0d1"},"vehicle_type_id":"4","last_reported":1761567702,"current_range_meters":19600,"station_id":"cki0cbj6b192h4jlfktg","pricing_plan_id":"cebpf4jnsgd1na2vs0mg"},{"bike_id":"d80381c1-49ce-405e-9d9b-7afcebd0ca96","system_id":"levelo_inurba_marseille","lat":43.23149,"lon":5.43719,"is_reserved":false,"is_disabled":false,"rental_uris":{"android":"levelo://app?vid=d80381c1-49ce-405e-9d9b-7afcebd0ca96","ios":"levelo://app?vid=d80381c1-49ce-405e-9d9b-7afcebd0ca96"},"vehicle_type_id":"4","last_reported":1761567702,"current_range_meters":19600,"station_id":"ce4bhmp2rcd13ifvqgog","pricing_plan_id":"cebpf4jnsgd1na2vs0mg"},{"bike_id":"053b3474-5a19-477d-8d2b-c243ec94f020","system_id":"levelo_inurba_marseille","lat":43.23182,"lon":5.39988,"is_reserved":false,"is_disabled":false,"rental_uris":{"android":"levelo://app?vid=053b3474-5a19-477d-8d2b-c243ec94f020","ios":"levelo://app?vid=053b3474-5a19-477d-8d2b-c243ec94f020"},"vehicle_type_id":"4","last_reported":1761567702,"current_range_meters":19600,"station_id":"ce4bhn12rcd13ifvqgqg","pricing_plan_id":"cebpf4jnsgd1na2vs0mg"},{"bike_id":"26260dfc-d112-440c-8d6e-be5e858a1357","system_id":"levelo_inurba_marseille","lat":43.266864,"lon":5.382766,"is_reserved":false,"is_disabled":true,"rental_uris":{"android":"levelo://app?vid=26260dfc-d112-440c-8d6e-be5e858a1357","ios":"levelo://app?vid=26260dfc-d112-440c-8d6e-be5e858a1357"},"vehicle_type_id":"4","last_reported":1761567702,"current_range_meters":19600,"station_id":"ce4bhih2rcd13ifvqfs0","pricing_plan_id":"cebpf4jnsgd1na2vs0mg"},{"bike_id":"58c4dbde-6a7d-4645-959d-588177b9dc81","system_id":"levelo_inurba_marseille","lat":43.25912,"lon":5.40925,"is_reserved":false,"is_disabled":false,"rental_uris":{"android":"levelo://app?vid=58c4dbde-6a7d-4645-959d-588177b9dc81","ios":"levelo://app?vid=58c4dbde-6a7d-4645-959d-588177b9dc81"},"vehicle_type_id":"4","last_reported":1761567702,"current_range_meters":20000,"station_id":"ce4bhm92rcd13ifvqglg","pricing_plan_id":"cebpf4jnsgd1na2vs0mg"},{"bike_id":"3a2829b1-0779-4255-844d-b56732d9c9c3","system_id":"levelo_inurba_marseille","lat":43.2827,"lon":5.35062,"is_reserved":false,"is_disabled":false,"rental_uris":{"android":"levelo://app?vid=3a2829b1-0779-4255-844d-b56732d9c9c3","ios":"levelo://app?vid=3a2829b1-0779-4255-844d-b56732d9c9c3"},"vehicle_type_id":"4","last_reported":1761567702,"current_range_meters":20000,"station_id":"ce4bhbp2rcd13ifvqerg","pricing_plan_id":"cebpf4jnsgd1na2vs0mg"},{"bike_id":"dccef0b1-edb3-49b5-866c-43e10e5763cc","system_id":"levelo_inurba_marseille","lat":43.288041,"lon":5.438424,"is_reserved":false,"is_disabled":false,"rental_uris":{"android":"levelo://app?vid=dccef0b1-edb3-49b5-866c-43e10e5763cc","ios":"levelo://app?vid=dccef0b1-edb3-49b5-866c-43e10e5763cc"},"vehicle_type_id":"4","last_reported":1761567702,"current_range_meters":20000,"station_id":"","pricing_plan_id":"cebpf4jnsgd1na2vs0mg"},{"bike_id":"5b695131-e4d3-42de-92db-42fa233a5063","system_id":"levelo_inurba_marseille","lat":43.29376,"lon":5.37861,"is_reserved":false,"is_disabled":true,"rental_uris":{"android":"levelo://app?vid=5b695131-e4d3-42de-92db-42fa233a5063","ios":"levelo://app?vid=5b695131-e4d3-42de-92db-42fa233a5063"},"vehicle_type_id":"4","last_reported":1761567702,"current_range_meters":20000,"station_id":"ce4bgjh2rcd13ifvqbf0","pricing_plan_id":"cebpf4jnsgd1na2vs0mg"},{"bike_id":"dced2bcc-e95f-44ce-b7d8-7bb47def612a","system_id":"levelo_inurba_marseille","lat":43.21193,"lon":5.35073,"is_reserved":false,"is_disabled":false,"rental_uris":{"android":"levelo://app?vid=dced2bcc-e95f-44ce-b7d8-7bb47def612a","ios":"levelo://app?vid=dced2bcc-e95f-44ce-b7d8-7bb47def612a"},"vehicle_type_id":"4","last_reported":1761567702,"current_range_meters":20000,"station_id":"st_cvj6sg6p6f1abm77japg","pricing_plan_id":"cebpf4jnsgd1na2vs0mg"},{"bike_id":"f568391f-b71f-4807-9099-53eb6b0dc22d","system_id":"levelo_inurba_marseille","lat":43.29769,"lon":5.38152,"is_reserved":false,"is_disabled":false,"rental_uris":{"android":"levelo://app?vid=f568391f-b71f-4807-9099-53eb6b0dc22d","ios":"levelo://app?vid=f568391f-b71f-4807-9099-53eb6b0dc22d"},"vehicle_type_id":"4","last_reported":1761567702,"current_range_meters":20000,"station_id":"","pricing_plan_id":"cebpf4jnsgd1na2vs0mg"},{"bike_id":"97d64e7a-40ce-4e0c-adf8-9a823ea518ce","system_id":"levelo_inurba_marseille","lat":43.23131,"lon":5.43718,"is_reserved":false,"is_disabled":false,"rental_uris":{"android":"levelo://app?vid=97d64e7a-40ce-4e0c-adf8-9a823ea518ce","ios":"levelo://app?vid=97d64e7a-40ce-4e0c-adf8-9a823ea518ce"},"vehicle_type_id":"4","last_reported":1761567702,"current_range_meters":20000,"station_id":"ce4bhmp2rcd13ifvqgog","pricing_plan_id":"cebpf4jnsgd1na2vs0mg"},{"bike_id":"ae8ebe94-fc0f-4409-8f77-39eb5c613a67","system_id":"levelo_inurba_marseille","lat":43.337444,"lon":5.374475,"is_reserved":false,"is_disabled":false,"rental_uris":{"android":"levelo://app?vid=ae8ebe94-fc0f-4409-8f77-39eb5c613a67","ios":"levelo://app?vid=ae8ebe94-fc0f-4409-8f77-39eb5c613a67"},"vehicle_type_id":"4","last_reported":1761567702,"current_range_meters":20400,"station_id":"","pricing_plan_id":"cebpf4jnsgd1na2vs0mg"},{"bike_id":"c2323435-b9b1-41fd-8a0e-175e4f465257","system_id":"levelo_inurba_marseille","lat":43.311676,"lon":5.387172,"is_reserved":false,"is_disabled":false,"rental_uris":{"android":"levelo://app?vid=c2323435-b9b1-41fd-8a0e-175e4f465257","ios":"levelo://app?vid=c2323435-b9b1-41fd-8a0e-175e4f465257"},"vehicle_type_id":"4","last_reported":1761567702,"current_range_meters":20400,"station_id":"ce4bgv12rcd13ifvqcp0","pricing_plan_id":"cebpf4jnsgd1na2vs0mg"},{"bike_id":"b36a69af-3c17-4d2e-8325-31b308cf3d6c","system_id":"levelo_inurba_marseille","lat":43.29541,"lon":5.375024,"is_reserved":false,"is_disabled":false,"rental_uris":{"android":"levelo://app?vid=b36a69af-3c17-4d2e-8325-31b308cf3d6c","ios":"levelo://app?vid=b36a69af-3c17-4d2e-8325-31b308cf3d6c"},"vehicle_type_id":"4","last_reported":1761567702,"current_range_meters":20400,"station_id":"ce4bgkp2rcd13ifvqbmg","pricing_plan_id":"cebpf4jnsgd1na2vs0mg"},{"bike_id":"4ffc7064-2dd7-48f1-b63b-df2df6273531","system_id":"levelo_inurba_marseille","lat":43.21191,"lon":5.35066,"is_reserved":false,"is_disabled":false,"rental_uris":{"android":"levelo://app?vid=4ffc7064-2dd7-48f1-b63b-df2df6273531","ios":"levelo://app?vid=4ffc7064-2dd7-48f1-b63b-df2df6273531"},"vehicle_type_id":"4","last_reported":1761567702,"current_range_meters":20400,"station_id":"st_cvj6sg6p6f1abm77japg","pricing_plan_id":"cebpf4jnsgd1na2vs0mg"},{"bike_id":"32d7653e-b033-4183-b4c0-f44169bb9067","system_id":"levelo_inurba_marseille","lat":43.327,"lon":5.39172,"is_reserved":false,"is_disabled":false,"rental_uris":{"android":"levelo://app?vid=32d7653e-b033-4183-b4c0-f44169bb9067","ios":"levelo://app?vid=32d7653e-b033-4183-b4c0-f44169bb9067"},"vehicle_type_id":"4","last_reported":1761567702,"current_range_meters":20400,"station_id":"","pricing_plan_id":"cebpf4jnsgd1na2vs0mg"},{"bike_id":"985cf2a5-6560-4622-9131-59ec4174ede8","system_id":"levelo_inurba_marseille","lat":43.29576,"lon":5.36737,"is_reserved":false,"is_disabled":false,"rental_uris":{"android":"levelo://app?vid=985cf2a5-6560-4622-9131-59ec4174ede8","ios":"levelo://app?vid=985cf2a5-6560-4622-9131-59ec4174ede8"},"vehicle_type_id":"4","last_reported":1761567702,"current_range_meters":20400,"station_id":"ce4bgph2rcd13ifvqc2g","pricing_plan_id":"cebpf4jnsgd1na2vs0mg"},{"bike_id":"8c71c05b-dd29-470b-8b05-4159f459865a","system_id":"levelo_inurba_marseille","lat":43.276648,"lon":5.388905,"is_reserved":false,"is_disabled":false,"rental_uris":{"android":"levelo://app?vid=8c71c05b-dd29-470b-8b05-4159f459865a","ios":"levelo://app?vid=8c71c05b-dd29-470b-8b05-4159f459865a"},"vehicle_type_id":"4","last_reported":1761567702,"current_range_meters":20400,"station_id":"ce4bhi12rcd13ifvqfo0","pricing_plan_id":"cebpf4jnsgd1na2vs0mg"},{"bike_id":"87301e08-7a50-4b21-8716-63de377bc711","system_id":"levelo_inurba_marseille","lat":43.3137,"lon":5.38498,"is_reserved":false,"is_disabled":false,"rental_uris":{"android":"levelo://app?vid=87301e08-7a50-4b21-8716-63de377bc711","ios":"levelo://app?vid=87301e08-7a50-4b21-8716-63de377bc711"},"vehicle_type_id":"4","last_reported":1761567702,"current_range_meters":20400,"station_id":"ce4bgt92rcd13ifvqcf0","pricing_plan_id":"cebpf4jnsgd1na2vs0mg"},{"bike_id":"a9d6f84c-7daf-4c59-adfe-f1faabb86893","system_id":"levelo_inurba_marseille","lat":43.323533,"lon":5.367572,"is_reserved":false,"is_disabled":false,"rental_uris":{"android":"levelo://app?vid=a9d6f84c-7daf-4c59-adfe-f1faabb86893","ios":"levelo://app?vid=a9d6f84c-7daf-4c59-adfe-f1faabb86893"},"vehicle_type_id":"4","last_reported":1761567702,"current_range_meters":20400,"station_id":"ce4bhsh2rcd13ifvqi2g","pricing_plan_id":"cebpf4jnsgd1na2vs0mg"},{"bike_id":"07a4edfe-a09e-4ca8-8c70-04827f5bf9b8","system_id":"levelo_inurba_marseille","lat":43.31711,"lon":5.43709,"is_reserved":false,"is_disabled":false,"rental_uris":{"android":"levelo://app?vid=07a4edfe-a09e-4ca8-8c70-04827f5bf9b8","ios":"levelo://app?vid=07a4edfe-a09e-4ca8-8c70-04827f5bf9b8"},"vehicle_type_id":"4","last_reported":1761567702,"current_range_meters":20400,"station_id":"ce4bhp92rcd13ifvqhcg","pricing_plan_id":"cebpf4jnsgd1na2vs0mg"},{"bike_id":"46292dbd-4a2f-46bb-964b-a4a3d10786f9","system_id":"levelo_inurba_marseille","lat":43.24786,"lon":5.37473,"is_reserved":false,"is_disabled":false,"rental_uris":{"android":"levelo://app?vid=46292dbd-4a2f-46bb-964b-a4a3d10786f9","ios":"levelo://app?vid=46292dbd-4a2f-46bb-964b-a4a3d10786f9"},"vehicle_type_id":"4","last_reported":1761567702,"current_range_meters":20800,"station_id":"ce4bhgh2rcd13ifvqfb0","pricing_plan_id":"cebpf4jnsgd1na2vs0mg"},{"bike_id":"9728e540-e569-48f1-bd08-2f5128ee94a5","system_id":"levelo_inurba_marseille","lat":43.304618,"lon":5.379033,"is_reserved":false,"is_disabled":false,"rental_uris":{"android":"levelo://app?vid=9728e540-e569-48f1-bd08-2f5128ee94a5","ios":"levelo://app?vid=9728e540-e569-48f1-bd08-2f5128ee94a5"},"vehicle_type_id":"4","last_reported":1761567702,"current_range_meters":20800,"station_id":"ce4bgup2rcd13ifvqcn0","pricing_plan_id":"cebpf4jnsgd1na2vs0mg"},{"bike_id":"55ac339c-4813-4fb3-ae9e-0baca28d2223","system_id":"levelo_inurba_marseille","lat":43.26224,"lon":5.40458,"is_reserved":false,"is_disabled":false,"rental_uris":{"android":"levelo://app?vid=55ac339c-4813-4fb3-ae9e-0baca28d2223","ios":"levelo://app?vid=55ac339c-4813-4fb3-ae9e-0baca28d2223"},"vehicle_type_id":"4","last_reported":1761567702,"current_range_meters":20800,"station_id":"ce4bhmh2rcd13ifvqgmg","pricing_plan_id":"cebpf4jnsgd1na2vs0mg"},{"bike_id":"6f60b159-83c5-40f3-a1b0-7b6a6268dfa5","system_id":"levelo_inurba_marseille","lat":43.29192,"lon":5.35617,"is_reserved":false,"is_disabled":false,"rental_uris":{"android":"levelo://app?vid=6f60b159-83c5-40f3-a1b0-7b6a6268dfa5","ios":"levelo://app?vid=6f60b159-83c5-40f3-a1b0-7b6a6268dfa5"},"vehicle_type_id":"4","last_reported":1761567702,"current_range_meters":20800,"station_id":"","pricing_plan_id":"cebpf4jnsgd1na2vs0mg"},{"bike_id":"979822cf-56f6-44e7-8388-b5caf88ac3e5","system_id":"levelo_inurba_marseille","lat":43.29928,"lon":5.36549,"is_reserved":false,"is_disabled":false,"rental_uris":{"android":"levelo://app?vid=979822cf-56f6-44e7-8388-b5caf88ac3e5","ios":"levelo://app?vid=979822cf-56f6-44e7-8388-b5caf88ac3e5"},"vehicle_type_id":"4","last_reported":1761567702,"current_range_meters":20800,"station_id":"ce4bgm92rcd13ifvqbr0","pricing_plan_id":"cebpf4jnsgd1na2vs0mg"},{"bike_id":"bc09f0e2-f291-44d1-ad8e-6a14ca7780e1","system_id":"levelo_inurba_marseille","lat":43.30182,"lon":5.36625,"is_reserved":false,"is_disabled":false,"rental_uris":{"android":"levelo://app?vid=bc09f0e2-f291-44d1-ad8e-6a14ca7780e1","ios":"levelo://app?vid=bc09f0e2-f291-44d1-ad8e-6a14ca7780e1"},"vehicle_type_id":"4","last_reported":1761567702,"current_range_meters":20800,"station_id":"ce4bgrh2rcd13ifvqc8g","pricing_plan_id":"cebpf4jnsgd1na2vs0mg"},{"bike_id":"d5d744bc-1e5d-4657-b38b-3a76833d6d31","system_id":"levelo_inurba_marseille","lat":43.23133,"lon":5.4372,"is_reserved":false,"is_disabled":false,"rental_uris":{"android":"levelo://app?vid=d5d744bc-1e5d-4657-b38b-3a76833d6d31","ios":"levelo://app?vid=d5d744bc-1e5d-4657-b38b-3a76833d6d31"},"vehicle_type_id":"4","last_reported":1761567702,"current_range_meters":20800,"station_id":"ce4bhmp2rcd13ifvqgog","pricing_plan_id":"cebpf4jnsgd1na2vs0mg"},{"bike_id":"6aa9a1ee-9778-4d45-859f-f81494315a8d","system_id":"levelo_inurba_marseille","lat":43.21197,"lon":5.35061,"is_reserved":false,"is_disabled":false,"rental_uris":{"android":"levelo://app?vid=6aa9a1ee-9778-4d45-859f-f81494315a8d","ios":"levelo://app?vid=6aa9a1ee-9778-4d45-859f-f81494315a8d"},"vehicle_type_id":"4","last_reported":1761567702,"current_range_meters":20800,"station_id":"st_cvj6sg6p6f1abm77japg","pricing_plan_id":"cebpf4jnsgd1na2vs0mg"},{"bike_id":"43c741d6-ca90-4043-b7e9-22ad937ff498","system_id":"levelo_inurba_marseille","lat":43.30949,"lon":5.3903,"is_reserved":false,"is_disabled":false,"rental_uris":{"android":"levelo://app?vid=43c741d6-ca90-4043-b7e9-22ad937ff498","ios":"levelo://app?vid=43c741d6-ca90-4043-b7e9-22ad937ff498"},"vehicle_type_id":"4","last_reported":1761567702,"current_range_meters":20800,"station_id":"ce4bgup2rcd13ifvqco0","pricing_plan_id":"cebpf4jnsgd1na2vs0mg"},{"bike_id":"b67e4d89-eb40-4705-8e55-320922c7b91b","system_id":"levelo_inurba_marseille","lat":43.22568,"lon":5.41619,"is_reserved":false,"is_disabled":false,"rental_uris":{"android":"levelo://app?vid=b67e4d89-eb40-4705-8e55-320922c7b91b","ios":"levelo://app?vid=b67e4d89-eb40-4705-8e55-320922c7b91b"},"vehicle_type_id":"4","last_reported":1761567702,"current_range_meters":21600,"station_id":"st_d2o4gvlbi1j2169b742g","pricing_plan_id":"cebpf4jnsgd1na2vs0mg"},{"bike_id":"044f3350-09c4-4c64-8092-7ca6bb6c37e4","system_id":"levelo_inurba_marseille","lat":43.29095,"lon":5.38121,"is_reserved":false,"is_disabled":false,"rental_uris":{"android":"levelo://app?vid=044f3350-09c4-4c64-8092-7ca6bb6c37e4","ios":"levelo://app?vid=044f3350-09c4-4c64-8092-7ca6bb6c37e4"},"vehicle_type_id":"4","last_reported":1761567702,"current_range_meters":21600,"station_id":"ce4bh512rcd13ifvqe2g","pricing_plan_id":"cebpf4jnsgd1na2vs0mg"},{"bike_id":"da9c7b65-b4c6-4531-a18e-2d3584210bc0","system_id":"levelo_inurba_marseille","lat":43.29304,"lon":5.37178,"is_reserved":false,"is_disabled":false,"rental_uris":{"android":"levelo://app?vid=da9c7b65-b4c6-4531-a18e-2d3584210bc0","ios":"levelo://app?vid=da9c7b65-b4c6-4531-a18e-2d3584210bc0"},"vehicle_type_id":"4","last_reported":1761567702,"current_range_meters":21600,"station_id":"ce4bgh92rcd13ifvqb40","pricing_plan_id":"cebpf4jnsgd1na2vs0mg"},{"bike_id":"ad315ea3-1ff1-468a-9a73-8d1005d1707f","system_id":"levelo_inurba_marseille","lat":43.29536,"lon":5.37497,"is_reserved":false,"is_disabled":true,"rental_uris":{"android":"levelo://app?vid=ad315ea3-1ff1-468a-9a73-8d1005d1707f","ios":"levelo://app?vid=ad315ea3-1ff1-468a-9a73-8d1005d1707f"},"vehicle_type_id":"4","last_reported":1761567702,"current_range_meters":21600,"station_id":"ce4bgkp2rcd13ifvqbmg","pricing_plan_id":"cebpf4jnsgd1na2vs0mg"},{"bike_id":"d91cfbe0-118f-4805-9bd2-37014145cfad","system_id":"levelo_inurba_marseille","lat":43.302533,"lon":5.369728,"is_reserved":false,"is_disabled":false,"rental_uris":{"android":"levelo://app?vid=d91cfbe0-118f-4805-9bd2-37014145cfad","ios":"levelo://app?vid=d91cfbe0-118f-4805-9bd2-37014145cfad"},"vehicle_type_id":"4","last_reported":1761567702,"current_range_meters":21600,"station_id":"ce4bgqh2rcd13ifvqc5g","pricing_plan_id":"cebpf4jnsgd1na2vs0mg"},{"bike_id":"9d447215-7097-463a-ab01-ffec67831b86","system_id":"levelo_inurba_marseille","lat":43.3236,"lon":5.36772,"is_reserved":false,"is_disabled":false,"rental_uris":{"android":"levelo://app?vid=9d447215-7097-463a-ab01-ffec67831b86","ios":"levelo://app?vid=9d447215-7097-463a-ab01-ffec67831b86"},"vehicle_type_id":"4","last_reported":1761567702,"current_range_meters":21600,"station_id":"ce4bhsh2rcd13ifvqi2g","pricing_plan_id":"cebpf4jnsgd1na2vs0mg"},{"bike_id":"6742a2c8-ec35-4b90-a373-230c4c291c17","system_id":"levelo_inurba_marseille","lat":43.30468,"lon":5.37915,"is_reserved":false,"is_disabled":false,"rental_uris":{"android":"levelo://app?vid=6742a2c8-ec35-4b90-a373-230c4c291c17","ios":"levelo://app?vid=6742a2c8-ec35-4b90-a373-230c4c291c17"},"vehicle_type_id":"4","last_reported":1761567702,"current_range_meters":21600,"station_id":"ce4bgup2rcd13ifvqcn0","pricing_plan_id":"cebpf4jnsgd1na2vs0mg"},{"bike_id":"4ff6d1af-527a-4a77-b20b-11de41377598","system_id":"levelo_inurba_marseille","lat":43.3026,"lon":5.40084,"is_reserved":false,"is_disabled":false,"rental_uris":{"android":"levelo://app?vid=4ff6d1af-527a-4a77-b20b-11de41377598","ios":"levelo://app?vid=4ff6d1af-527a-4a77-b20b-11de41377598"},"vehicle_type_id":"4","last_reported":1761567702,"current_range_meters":21600,"station_id":"ce4bgvh2rcd13ifvqcs0","pricing_plan_id":"cebpf4jnsgd1na2vs0mg"},{"bike_id":"0b79f1cd-6cf7-4d8e-b061-47d742430920","system_id":"levelo_inurba_marseille","lat":43.28272,"lon":5.3506,"is_reserved":false,"is_disabled":false,"rental_uris":{"android":"levelo://app?vid=0b79f1cd-6cf7-4d8e-b061-47d742430920","ios":"levelo://app?vid=0b79f1cd-6cf7-4d8e-b061-47d742430920"},"vehicle_type_id":"4","last_reported":1761567702,"current_range_meters":22000,"station_id":"ce4bhbp2rcd13ifvqerg","pricing_plan_id":"cebpf4jnsgd1na2vs0mg"},{"bike_id":"5bac8c2a-12e9-4858-a30d-932120e79d9f","system_id":"levelo_inurba_marseille","lat":43.243862,"lon":5.370751,"is_reserved":false,"is_disabled":false,"rental_uris":{"android":"levelo://app?vid=5bac8c2a-12e9-4858-a30d-932120e79d9f","ios":"levelo://app?vid=5bac8c2a-12e9-4858-a30d-932120e79d9f"},"vehicle_type_id":"4","last_reported":1761567702,"current_range_meters":22000,"station_id":"ce4bhhh2rcd13ifvqfk0","pricing_plan_id":"cebpf4jnsgd1na2vs0mg"},{"bike_id":"51a7e268-9562-4b96-8e84-f568b0acc7b7","system_id":"levelo_inurba_marseille","lat":43.247969,"lon":5.37456,"is_reserved":false,"is_disabled":false,"rental_uris":{"android":"levelo://app?vid=51a7e268-9562-4b96-8e84-f568b0acc7b7","ios":"levelo://app?vid=51a7e268-9562-4b96-8e84-f568b0acc7b7"},"vehicle_type_id":"4","last_reported":1761567702,"current_range_meters":22000,"station_id":"","pricing_plan_id":"cebpf4jnsgd1na2vs0mg"},{"bike_id":"7222b07a-e703-4056-ad33-fb35d3ee3b51","system_id":"levelo_inurba_marseille","lat":43.290041,"lon":5.356212,"is_reserved":false,"is_disabled":false,"rental_uris":{"android":"levelo://app?vid=7222b07a-e703-4056-ad33-fb35d3ee3b51","ios":"levelo://app?vid=7222b07a-e703-4056-ad33-fb35d3ee3b51"},"vehicle_type_id":"4","last_reported":1761567702,"current_range_meters":22000,"station_id":"ce4bhb92rcd13ifvqen0","pricing_plan_id":"cebpf4jnsgd1na2vs0mg"},{"bike_id":"5f6c4fea-ada2-453b-9aa3-59bf116cef02","system_id":"levelo_inurba_marseille","lat":43.225341,"lon":5.348319,"is_reserved":false,"is_disabled":false,"rental_uris":{"android":"levelo://app?vid=5f6c4fea-ada2-453b-9aa3-59bf116cef02","ios":"levelo://app?vid=5f6c4fea-ada2-453b-9aa3-59bf116cef02"},"vehicle_type_id":"4","last_reported":1761567702,"current_range_meters":22000,"station_id":"","pricing_plan_id":"cebpf4jnsgd1na2vs0mg"},{"bike_id":"21d9b318-a739-4db8-a6ca-6d780076c7aa","system_id":"levelo_inurba_marseille","lat":43.29933,"lon":5.365536,"is_reserved":false,"is_disabled":false,"rental_uris":{"android":"levelo://app?vid=21d9b318-a739-4db8-a6ca-6d780076c7aa","ios":"levelo://app?vid=21d9b318-a739-4db8-a6ca-6d780076c7aa"},"vehicle_type_id":"4","last_reported":1761567702,"current_range_meters":22000,"station_id":"","pricing_plan_id":"cebpf4jnsgd1na2vs0mg"},{"bike_id":"92eaf39d-1ab7-4bac-9cc0-9ae6867f8bc4","system_id":"levelo_inurba_marseille","lat":43.33736,"lon":5.36266,"is_reserved":false,"is_disabled":false,"rental_uris":{"android":"levelo://app?vid=92eaf39d-1ab7-4bac-9cc0-9ae6867f8bc4","ios":"levelo://app?vid=92eaf39d-1ab7-4bac-9cc0-9ae6867f8bc4"},"vehicle_type_id":"4","last_reported":1761567702,"current_range_meters":22000,"station_id":"","pricing_plan_id":"cebpf4jnsgd1na2vs0mg"},{"bike_id":"8e95e25a-9212-4196-9c7e-97ab4e6b1bd8","system_id":"levelo_inurba_marseille","lat":43.257116,"lon":5.411154,"is_reserved":false,"is_disabled":false,"rental_uris":{"android":"levelo://app?vid=8e95e25a-9212-4196-9c7e-97ab4e6b1bd8","ios":"levelo://app?vid=8e95e25a-9212-4196-9c7e-97ab4e6b1bd8"},"vehicle_type_id":"4","last_reported":1761567702,"current_range_meters":22000,"station_id":"ce4bhkp2rcd13ifvqgd0","pricing_plan_id":"cebpf4jnsgd1na2vs0mg"},{"bike_id":"49ed0d39-51fe-4cd4-8527-50556baa8749","system_id":"levelo_inurba_marseille","lat":43.225318,"lon":5.348308,"is_reserved":false,"is_disabled":false,"rental_uris":{"android":"levelo://app?vid=49ed0d39-51fe-4cd4-8527-50556baa8749","ios":"levelo://app?vid=49ed0d39-51fe-4cd4-8527-50556baa8749"},"vehicle_type_id":"4","last_reported":1761567702,"current_range_meters":22000,"station_id":"","pricing_plan_id":"cebpf4jnsgd1na2vs0mg"},{"bike_id":"562aeba9-6f03-4a1d-97da-dbcfb74c9a4d","system_id":"levelo_inurba_marseille","lat":43.30561,"lon":5.36542,"is_reserved":false,"is_disabled":false,"rental_uris":{"android":"levelo://app?vid=562aeba9-6f03-4a1d-97da-dbcfb74c9a4d","ios":"levelo://app?vid=562aeba9-6f03-4a1d-97da-dbcfb74c9a4d"},"vehicle_type_id":"4","last_reported":1761567702,"current_range_meters":22000,"station_id":"ce4bgs12rcd13ifvqcag","pricing_plan_id":"cebpf4jnsgd1na2vs0mg"},{"bike_id":"fa6e8d1a-2ef2-42be-9b0c-5ef0ea08bcd2","system_id":"levelo_inurba_marseille","lat":43.25583,"lon":5.38227,"is_reserved":false,"is_disabled":false,"rental_uris":{"android":"levelo://app?vid=fa6e8d1a-2ef2-42be-9b0c-5ef0ea08bcd2","ios":"levelo://app?vid=fa6e8d1a-2ef2-42be-9b0c-5ef0ea08bcd2"},"vehicle_type_id":"4","last_reported":1761567702,"current_range_meters":22000,"station_id":"ce4bhih2rcd13ifvqfs0","pricing_plan_id":"cebpf4jnsgd1na2vs0mg"},{"bike_id":"dd3d3c35-bcc1-4a5f-a779-d39715cf3947","system_id":"levelo_inurba_marseille","lat":43.28276,"lon":5.35071,"is_reserved":false,"is_disabled":false,"rental_uris":{"android":"levelo://app?vid=dd3d3c35-bcc1-4a5f-a779-d39715cf3947","ios":"levelo://app?vid=dd3d3c35-bcc1-4a5f-a779-d39715cf3947"},"vehicle_type_id":"4","last_reported":1761567702,"current_range_meters":22400,"station_id":"ce4bhbp2rcd13ifvqerg","pricing_plan_id":"cebpf4jnsgd1na2vs0mg"},{"bike_id":"5c5cf98e-7fa3-4ae7-a298-ae5413831201","system_id":"levelo_inurba_marseille","lat":43.29181,"lon":5.37131,"is_reserved":false,"is_disabled":false,"rental_uris":{"android":"levelo://app?vid=5c5cf98e-7fa3-4ae7-a298-ae5413831201","ios":"levelo://app?vid=5c5cf98e-7fa3-4ae7-a298-ae5413831201"},"vehicle_type_id":"4","last_reported":1761567702,"current_range_meters":22400,"station_id":"ce4bha92rcd13ifvqeh0","pricing_plan_id":"cebpf4jnsgd1na2vs0mg"},{"bike_id":"aa90b5b8-f694-41cf-a6c8-5922fbf4a5cd","system_id":"levelo_inurba_marseille","lat":43.26195,"lon":5.37911,"is_reserved":false,"is_disabled":false,"rental_uris":{"android":"levelo://app?vid=aa90b5b8-f694-41cf-a6c8-5922fbf4a5cd","ios":"levelo://app?vid=aa90b5b8-f694-41cf-a6c8-5922fbf4a5cd"},"vehicle_type_id":"4","last_reported":1761567702,"current_range_meters":22400,"station_id":"ce4bhjp2rcd13ifvqg90","pricing_plan_id":"cebpf4jnsgd1na2vs0mg"},{"bike_id":"7f0043c3-7233-45eb-ac8f-11c4aa3c900e","system_id":"levelo_inurba_marseille","lat":43.32058,"lon":5.41549,"is_reserved":false,"is_disabled":false,"rental_uris":{"android":"levelo://app?vid=7f0043c3-7233-45eb-ac8f-11c4aa3c900e","ios":"levelo://app?vid=7f0043c3-7233-45eb-ac8f-11c4aa3c900e"},"vehicle_type_id":"4","last_reported":1761567702,"current_range_meters":22400,"station_id":"ce4bhq92rcd13ifvqhkg","pricing_plan_id":"cebpf4jnsgd1na2vs0mg"},{"bike_id":"db28e9ca-f3ae-41d6-bd4c-eed3441bd596","system_id":"levelo_inurba_marseille","lat":43.32358,"lon":5.36751,"is_reserved":false,"is_disabled":false,"rental_uris":{"android":"levelo://app?vid=db28e9ca-f3ae-41d6-bd4c-eed3441bd596","ios":"levelo://app?vid=db28e9ca-f3ae-41d6-bd4c-eed3441bd596"},"vehicle_type_id":"4","last_reported":1761567702,"current_range_meters":22400,"station_id":"ce4bhsh2rcd13ifvqi2g","pricing_plan_id":"cebpf4jnsgd1na2vs0mg"},{"bike_id":"57185adc-6152-4762-b3ab-836c5f2dcef3","system_id":"levelo_inurba_marseille","lat":43.23155,"lon":5.43692,"is_reserved":false,"is_disabled":false,"rental_uris":{"android":"levelo://app?vid=57185adc-6152-4762-b3ab-836c5f2dcef3","ios":"levelo://app?vid=57185adc-6152-4762-b3ab-836c5f2dcef3"},"vehicle_type_id":"4","last_reported":1761567702,"current_range_meters":22400,"station_id":"ce4bhmp2rcd13ifvqgog","pricing_plan_id":"cebpf4jnsgd1na2vs0mg"},{"bike_id":"6daca031-efb5-4517-911c-f1bf58b277b7","system_id":"levelo_inurba_marseille","lat":43.21192,"lon":5.35073,"is_reserved":false,"is_disabled":false,"rental_uris":{"android":"levelo://app?vid=6daca031-efb5-4517-911c-f1bf58b277b7","ios":"levelo://app?vid=6daca031-efb5-4517-911c-f1bf58b277b7"},"vehicle_type_id":"4","last_reported":1761567702,"current_range_meters":22800,"station_id":"","pricing_plan_id":"cebpf4jnsgd1na2vs0mg"},{"bike_id":"b1e81361-2b17-4ef1-8a58-6def5753471b","system_id":"levelo_inurba_marseille","lat":43.337474,"lon":5.374712,"is_reserved":false,"is_disabled":false,"rental_uris":{"android":"levelo://app?vid=b1e81361-2b17-4ef1-8a58-6def5753471b","ios":"levelo://app?vid=b1e81361-2b17-4ef1-8a58-6def5753471b"},"vehicle_type_id":"4","last_reported":1761567702,"current_range_meters":22800,"station_id":"","pricing_plan_id":"cebpf4jnsgd1na2vs0mg"},{"bike_id":"ead0e183-2be4-48f8-9004-8518ebe1cf65","system_id":"levelo_inurba_marseille","lat":43.30949,"lon":5.3903,"is_reserved":false,"is_disabled":false,"rental_uris":{"android":"levelo://app?vid=ead0e183-2be4-48f8-9004-8518ebe1cf65","ios":"levelo://app?vid=ead0e183-2be4-48f8-9004-8518ebe1cf65"},"vehicle_type_id":"4","last_reported":1761567702,"current_range_meters":22800,"station_id":"ce4bgup2rcd13ifvqco0","pricing_plan_id":"cebpf4jnsgd1na2vs0mg"},{"bike_id":"ad82af9b-10f6-4438-a1ee-56462092d34a","system_id":"levelo_inurba_marseille","lat":43.28596,"lon":5.38531,"is_reserved":false,"is_disabled":false,"rental_uris":{"android":"levelo://app?vid=ad82af9b-10f6-4438-a1ee-56462092d34a","ios":"levelo://app?vid=ad82af9b-10f6-4438-a1ee-56462092d34a"},"vehicle_type_id":"4","last_reported":1761567702,"current_range_meters":22800,"station_id":"","pricing_plan_id":"cebpf4jnsgd1na2vs0mg"},{"bike_id":"759be848-1e38-4954-92c0-96553cd649bf","system_id":"levelo_inurba_marseille","lat":43.29007,"lon":5.35603,"is_reserved":false,"is_disabled":false,"rental_uris":{"android":"levelo://app?vid=759be848-1e38-4954-92c0-96553cd649bf","ios":"levelo://app?vid=759be848-1e38-4954-92c0-96553cd649bf"},"vehicle_type_id":"4","last_reported":1761567702,"current_range_meters":23200,"station_id":"ce4bhb92rcd13ifvqen0","pricing_plan_id":"cebpf4jnsgd1na2vs0mg"},{"bike_id":"26fb1292-3795-47ce-9dba-5411522bb698","system_id":"levelo_inurba_marseille","lat":43.24064,"lon":5.37729,"is_reserved":false,"is_disabled":false,"rental_uris":{"android":"levelo://app?vid=26fb1292-3795-47ce-9dba-5411522bb698","ios":"levelo://app?vid=26fb1292-3795-47ce-9dba-5411522bb698"},"vehicle_type_id":"4","last_reported":1761567702,"current_range_meters":23200,"station_id":"ce4bhnp2rcd13ifvqgvg","pricing_plan_id":"cebpf4jnsgd1na2vs0mg"},