{"last_updated":1701068839,"ttl":30,"version":"2.2","data":{"bikes":[{"bike_id":"1e80ff6f-214d-452e-a1df-88c480549762","system_id":"levelo_inurba_marseille","lat":43.313391,"lon":5.36706,"is_reserved":false,"is_disabled":false,"rental_uris":{"android":"levelo://app?vid=1e80ff6f-214d-452e-a1df-88c480549762","ios":"levelo://app?vid=1e80ff6f-214d-452e-a1df-88c480549762"},"vehicle_type_id":"4","last_reported":1701068839,"current_range_meters":31600,"station_id":"ce4bgr92rcd13ifvqc6g","pricing_plan_id":"free"},{"bike_id":"6d6fe16b-8fcd-4dda-95b2-f6e72b00fabb","system_id":"levelo_inurba_marseille","lat":43.313391,"lon":5.36706,"is_reserved":false,"is_disabled":false,"rental_uris":{"android":"levelo://app?vid=6d6fe16b-8fcd-4dda-95b2-f6e72b00fabb","ios":"levelo://app?vid=6d6fe16b-8fcd-4dda-95b2-f6e72b00fabb"},"vehicle_type_id":"4","last_reported":1701068839,"current_range_meters":28000,"station_id":"ce4bgr92rcd13ifvqc6g","pricing_plan_id":"free"},{"bike_id":"c522b943-9366-43b2-a10d-aefb790ca509","system_id":"levelo_inurba_marseille","lat":43.313391,"lon":5.36706,"is_reserved":false,"is_disabled":false,"rental_uris":{"android":"levelo://app?vid=c522b943-9366-43b2-a10d-aefb790ca509","ios":"levelo://app?vid=c522b943-9366-43b2-a10d-aefb790ca509"},"vehicle_type_id":"4","last_reported":1701068839,"current_range_meters":22800,"station_id":"ce4bgr92rcd13ifvqc6g","pricing_plan_id":"free"},{"bike_id":"0e07f4dc-f05c-4a47-a7fc-9cf5a2bc7aff","system_id":"levelo_inurba_marseille","lat":43.31341,"lon":5.367098,"is_reserved":false,"is_disabled":false,"rental_uris":{"android":"levelo://app?vid=0e07f4dc-f05c-4a47-a7fc-9cf5a2bc7aff","ios":"levelo://app?vid=0e07f4dc-f05c-4a47-a7fc-9cf5a2bc7aff"},"vehicle_type_id":"4","last_reported":1701068839,"current_range_meters":28000,"station_id":"ce4bgr92rcd13ifvqc6g","pricing_plan_id":"free"},{"bike_id":"8f2f826b-e69e-4be6-bcfc-d43033e593fb","system_id":"levelo_inurba_marseille","lat":43.309076,"lon":5.368465,"is_reserved":false,"is_disabled":false,"rental_uris":{"android":"levelo://app?vid=8f2f826b-e69e-4be6-bcfc-d43033e593fb","ios":"levelo://app?vid=8f2f826b-e69e-4be6-bcfc-d43033e593fb"},"vehicle_type_id":"4","last_reported":1701068839,"current_range_meters":30400,"station_id":"ce4bgn92rcd13ifvqbvg","pricing_plan_id":"free"},{"bike_id":"96ef06c9-6c02-4230-91a4-1607e2fb80a7","system_id":"levelo_inurba_marseille","lat":43.309076,"lon":5.368465,"is_reserved":false,"is_disabled":false,"rental_uris":{"android":"levelo://app?vid=96ef06c9-6c02-4230-91a4-1607e2fb80a7","ios":"levelo://app?vid=96ef06c9-6c02-4230-91a4-1607e2fb80a7"},"vehicle_type_id":"4","last_reported":1701068839,"current_range_meters":31600,"station_id":"ce4bgn92rcd13ifvqbvg","pricing_plan_id":"free"},{"bike_id":"cb3aa146-1178-4713-9669-e94e4a751e20","system_id":"levelo_inurba_marseille","lat":43.314811,"lon":5.373103,"is_reserved":false,"is_disabled":false,"rental_uris":{"android":"levelo://app?vid=cb3aa146-1178-4713-9669-e94e4a751e20","ios":"levelo://app?vid=cb3aa146-1178-4713-9669-e94e4a751e20"},"vehicle_type_id":"4","last_reported":1701068839,"current_range_meters":17600,"station_id":"ce4bgt12rcd13ifvqcd0","pricing_plan_id":"free"},{"bike_id":"fa4c08a8-f79b-4419-8791-02374ece74c7","system_id":"levelo_inurba_marseille","lat":43.31695,"lon":5.37267,"is_reserved":false,"is_disabled":false,"rental_uris":{"android":"levelo://app?vid=fa4c08a8-f79b-4419-8791-02374ece74c7","ios":"levelo://app?vid=fa4c08a8-f79b-4419-8791-02374ece74c7"},"vehicle_type_id":"4","last_reported":1701068839,"current_range_meters":7200,"station_id":"","pricing_plan_id":"free"},{"bike_id":"f8e46a7e-6953-452a-80e1-dd49ee8b550c","system_id":"levelo_inurba_marseille","lat":43.305368,"lon":5.367343,"is_reserved":false,"is_disabled":false,"rental_uris":{"android":"levelo://app?vid=f8e46a7e-6953-452a-80e1-dd49ee8b550c","ios":"levelo://app?vid=f8e46a7e-6953-452a-80e1-dd49ee8b550c"},"vehicle_type_id":"4","last_reported":1701068839,"current_range_meters":28800,"station_id":"ce4bgrp2rcd13ifvqc9g","pricing_plan_id":"free"},{"bike_id":"a178d0dc-f1a4-44e9-a3a5-7b90431c6dd4","system_id":"levelo_inurba_marseille","lat":43.30601,"lon":5.37221,"is_reserved":false,"is_disabled":false,"rental_uris":{"android":"levelo://app?vid=a178d0dc-f1a4-44e9-a3a5-7b90431c6dd4","ios":"levelo://app?vid=a178d0dc-f1a4-44e9-a3a5-7b90431c6dd4"},"vehicle_type_id":"4","last_reported":1701068839,"current_range_meters":0,"station_id":"ce4bgqh2rcd13ifvqc4g","pricing_plan_id":"free"},{"bike_id":"f427a2c3-6e4a-446b-ae2f-9be8aa7f4122","system_id":"levelo_inurba_marseille","lat":43.31719,"lon":5.376813,"is_reserved":false,"is_disabled":false,"rental_uris":{"android":"levelo://app?vid=f427a2c3-6e4a-446b-ae2f-9be8aa7f4122","ios":"levelo://app?vid=f427a2c3-6e4a-446b-ae2f-9be8aa7f4122"},"vehicle_type_id":"4","last_reported":1701068839,"current_range_meters":18000,"station_id":"ce4bgth2rcd13ifvqch0","pricing_plan_id":"free"},{"bike_id":"e913f328-1e31-4c22-bd87-f809ea246de4","system_id":"levelo_inurba_marseille","lat":43.317168,"lon":5.376883,"is_reserved":false,"is_disabled":false,"rental_uris":{"android":"levelo://app?vid=e913f328-1e31-4c22-bd87-f809ea246de4","ios":"levelo://app?vid=e913f328-1e31-4c22-bd87-f809ea246de4"},"vehicle_type_id":"4","last_reported":1701068839,"current_range_meters":20400,"station_id":"ce4bgth2rcd13ifvqch0","pricing_plan_id":"free"},{"bike_id":"a8ab38ff-80fe-4b47-93bd-05e477438724","system_id":"levelo_inurba_marseille","lat":43.317075,"lon":5.377367,"is_reserved":false,"is_disabled":false,"rental_uris":{"android":"levelo://app?vid=a8ab38ff-80fe-4b47-93bd-05e477438724","ios":"levelo://app?vid=a8ab38ff-80fe-4b47-93bd-05e477438724"},"vehicle_type_id":"4","last_reported":1701068839,"current_range_meters":14800,"station_id":"ce4bgth2rcd13ifvqch0","pricing_plan_id":"free"},{"bike_id":"4960cd84-5f51-4fcb-bf4f-043f77c0faa0","system_id":"levelo_inurba_marseille","lat":43.31168,"lon":5.378796,"is_reserved":false,"is_disabled":false,"rental_uris":{"android":"levelo://app?vid=4960cd84-5f51-4fcb-bf4f-043f77c0faa0","ios":"levelo://app?vid=4960cd84-5f51-4fcb-bf4f-043f77c0faa0"},"vehicle_type_id":"4","last_reported":1701068839,"current_range_meters":14800,"station_id":"","pricing_plan_id":"free"},{"bike_id":"bfa44d10-2349-4e3f-b242-25cbd14230cc","system_id":"levelo_inurba_marseille","lat":43.317075,"lon":5.377367,"is_reserved":false,"is_disabled":false,"rental_uris":{"android":"levelo://app?vid=bfa44d10-2349-4e3f-b242-25cbd14230cc","ios":"levelo://app?vid=bfa44d10-2349-4e3f-b242-25cbd14230cc"},"vehicle_type_id":"4","last_reported":1701068839,"current_range_meters":12400,"station_id":"ce4bgth2rcd13ifvqch0","pricing_plan_id":"free"},{"bike_id":"a80f348a-adbe-415b-8175-efc5cebf9a3a","system_id":"levelo_inurba_marseille","lat":43.317075,"lon":5.377367,"is_reserved":false,"is_disabled":false,"rental_uris":{"android":"levelo://app?vid=a80f348a-adbe-415b-8175-efc5cebf9a3a","ios":"levelo://app?vid=a80f348a-adbe-415b-8175-efc5cebf9a3a"},"vehicle_type_id":"4","last_reported":1701068839,"current_range_meters":31600,"station_id":"ce4bgth2rcd13ifvqch0","pricing_plan_id":"free"},{"bike_id":"939bf4f0-ae3a-4692-b0ff-ce5fe384b2fd","system_id":"levelo_inurba_marseille","lat":43.317075,"lon":5.377367,"is_reserved":false,"is_disabled":false,"rental_uris":{"android":"levelo://app?vid=939bf4f0-ae3a-4692-b0ff-ce5fe384b2fd","ios":"levelo://app?vid=939bf4f0-ae3a-4692-b0ff-ce5fe384b2fd"},"vehicle_type_id":"4","last_reported":1701068839,"current_range_meters":28000,"station_id":"ce4bgth2rcd13ifvqch0","pricing_plan_id":"free"},{"bike_id":"0033b656-9eb7-4159-8ba0-f2d9ffe5872c","system_id":"levelo_inurba_marseille","lat":43.317075,"lon":5.377367,"is_reserved":false,"is_disabled":false,"rental_uris":{"android":"levelo://app?vid=0033b656-9eb7-4159-8ba0-f2d9ffe5872c","ios":"levelo://app?vid=0033b656-9eb7-4159-8ba0-f2d9ffe5872c"},"vehicle_type_id":"4","last_reported":1701068839,"current_range_meters":30400,"station_id":"ce4bgth2rcd13ifvqch0","pricing_plan_id":"free"},{"bike_id":"948dad90-f0e7-48ed-8ded-dd809a052f0e","system_id":"levelo_inurba_marseille","lat":43.30438,"lon":5.37164,"is_reserved":false,"is_disabled":false,"rental_uris":{"android":"levelo://app?vid=948dad90-f0e7-48ed-8ded-dd809a052f0e","ios":"levelo://app?vid=948dad90-f0e7-48ed-8ded-dd809a052f0e"},"vehicle_type_id":"4","last_reported":1701068839,"current_range_meters":31200,"station_id":"","pricing_plan_id":"free"},{"bike_id":"423e19d4-bde0-4982-bd4c-371d4e0cf407","system_id":"levelo_inurba_marseille","lat":43.315322,"lon":5.380358,"is_reserved":false,"is_disabled":false,"rental_uris":{"android":"levelo://app?vid=423e19d4-bde0-4982-bd4c-371d4e0cf407","ios":"levelo://app?vid=423e19d4-bde0-4982-bd4c-371d4e0cf407"},"vehicle_type_id":"4","last_reported":1701068839,"current_range_meters":11600,"station_id":"ce4bhsp2rcd13ifvqi50","pricing_plan_id":"free"},{"bike_id":"83c01ea3-1a20-4a6f-944b-833be987b804","system_id":"levelo_inurba_marseille","lat":43.30635,"lon":5.38003,"is_reserved":false,"is_disabled":false,"rental_uris":{"android":"levelo://app?vid=83c01ea3-1a20-4a6f-944b-833be987b804","ios":"levelo://app?vid=83c01ea3-1a20-4a6f-944b-833be987b804"},"vehicle_type_id":"4","last_reported":1701068839,"current_range_meters":7600,"station_id":"","pricing_plan_id":"free"},{"bike_id":"4f92aa56-f024-4e9c-baf8-8c71d21d8d3d","system_id":"levelo_inurba_marseille","lat":43.308012,"lon":5.381511,"is_reserved":false,"is_disabled":false,"rental_uris":{"android":"levelo://app?vid=4f92aa56-f024-4e9c-baf8-8c71d21d8d3d","ios":"levelo://app?vid=4f92aa56-f024-4e9c-baf8-8c71d21d8d3d"},"vehicle_type_id":"4","last_reported":1701068839,"current_range_meters":30000,"station_id":"ce4bgt12rcd13ifvqce0","pricing_plan_id":"free"},{"bike_id":"89b1aa1a-0332-4519-8d67-4cda06264f0d","system_id":"levelo_inurba_marseille","lat":43.304606,"lon":5.379026,"is_reserved":false,"is_disabled":false,"rental_uris":{"android":"levelo://app?vid=89b1aa1a-0332-4519-8d67-4cda06264f0d","ios":"levelo://app?vid=89b1aa1a-0332-4519-8d67-4cda06264f0d"},"vehicle_type_id":"4","last_reported":1701068839,"current_range_meters":25200,"station_id":"ce4bgup2rcd13ifvqcn0","pricing_plan_id":"free"},{"bike_id":"254c12c5-69a9-4723-80d5-f9701745f331","system_id":"levelo_inurba_marseille","lat":43.304606,"lon":5.379026,"is_reserved":false,"is_disabled":false,"rental_uris":{"android":"levelo://app?vid=254c12c5-69a9-4723-80d5-f9701745f331","ios":"levelo://app?vid=254c12c5-69a9-4723-80d5-f9701745f331"},"vehicle_type_id":"4","last_reported":1701068839,"current_range_meters":31600,"station_id":"ce4bgup2rcd13ifvqcn0","pricing_plan_id":"free"},{"bike_id":"2aaeaaef-5380-42a0-857f-ea621ada9d99","system_id":"levelo_inurba_marseille","lat":43.304606,"lon":5.379026,"is_reserved":false,"is_disabled":false,"rental_uris":{"android":"levelo://app?vid=2aaeaaef-5380-42a0-857f-ea621ada9d99","ios":"levelo://app?vid=2aaeaaef-5380-42a0-857f-ea621ada9d99"},"vehicle_type_id":"4","last_reported":1701068839,"current_range_meters":26400,"station_id":"ce4bgup2rcd13ifvqcn0","pricing_plan_id":"free"},{"bike_id":"bfff4da3-b457-4eab-99f3-8e507e2cf593","system_id":"levelo_inurba_marseille","lat":43.304606,"lon":5.379026,"is_reserved":false,"is_disabled":false,"rental_uris":{"android":"levelo://app?vid=bfff4da3-b457-4eab-99f3-8e507e2cf593","ios":"levelo://app?vid=bfff4da3-b457-4eab-99f3-8e507e2cf593"},"vehicle_type_id":"4","last_reported":1701068839,"current_range_meters":22400,"station_id":"ce4bgup2rcd13ifvqcn0","pricing_plan_id":"free"},{"bike_id":"a9005f04-5ae9-41a3-a18c-4d23d3bbb0b6","system_id":"levelo_inurba_marseille","lat":43.304606,"lon":5.379026,"is_reserved":false,"is_disabled":false,"rental_uris":{"android":"levelo://app?vid=a9005f04-5ae9-41a3-a18c-4d23d3bbb0b6","ios":"levelo://app?vid=a9005f04-5ae9-41a3-a18c-4d23d3bbb0b6"},"vehicle_type_id":"4","last_reported":1701068839,"current_range_meters":31600,"station_id":"ce4bgup2rcd13ifvqcn0","pricing_plan_id":"free"},{"bike_id":"33242382-36ae-45eb-884e-476af8b063a1","system_id":"levelo_inurba_marseille","lat":43.304606,"lon":5.379026,"is_reserved":false,"is_disabled":false,"rental_uris":{"android":"levelo://app?vid=33242382-36ae-45eb-884e-476af8b063a1","ios":"levelo://app?vid=33242382-36ae-45eb-884e-476af8b063a1"},"vehicle_type_id":"4","last_reported":1701068839,"current_range_meters":31600,"station_id":"ce4bgup2rcd13ifvqcn0","pricing_plan_id":"free"},{"bike_id":"6b268469-cc96-4f7c-8685-9d4411ff30a0","system_id":"levelo_inurba_marseille","lat":43.304606,"lon":5.379026,"is_reserved":false,"is_disabled":false,"rental_uris":{"android":"levelo://app?vid=6b268469-cc96-4f7c-8685-9d4411ff30a0","ios":"levelo://app?vid=6b268469-cc96-4f7c-8685-9d4411ff30a0"},"vehicle_type_id":"4","last_reported":1701068839,"current_range_meters":18800,"station_id":"ce4bgup2rcd13ifvqcn0","pricing_plan_id":"free"},{"bike_id":"08d2b880-6edf-4416-bf77-e5e0d66c6254","system_id":"levelo_inurba_marseille","lat":43.304606,"lon":5.379026,"is_reserved":false,"is_disabled":false,"rental_uris":{"android":"levelo://app?vid=08d2b880-6edf-4416-bf77-e5e0d66c6254","ios":"levelo://app?vid=08d2b880-6edf-4416-bf77-e5e0d66c6254"},"vehicle_type_id":"4","last_reported":1701068839,"current_range_meters":29200,"station_id":"ce4bgup2rcd13ifvqcn0","pricing_plan_id":"free"},{"bike_id":"249067fe-d308-4dda-8e66-1f7ad5769601","system_id":"levelo_inurba_marseille","lat":43.304606,"lon":5.379026,"is_reserved":false,"is_disabled":false,"rental_uris":{"android":"levelo://app?vid=249067fe-d308-4dda-8e66-1f7ad5769601","ios":"levelo://app?vid=249067fe-d308-4dda-8e66-1f7ad5769601"},"vehicle_type_id":"4","last_reported":1701068839,"current_range_meters":31600,"station_id":"ce4bgup2rcd13ifvqcn0","pricing_plan_id":"free"},{"bike_id":"14b9b5e6-e859-4cae-8b58-bed95599a4a1","system_id":"levelo_inurba_marseille","lat":43.304606,"lon":5.379026,"is_reserved":false,"is_disabled":false,"rental_uris":{"android":"levelo://app?vid=14b9b5e6-e859-4cae-8b58-bed95599a4a1","ios":"levelo://app?vid=14b9b5e6-e859-4cae-8b58-bed95599a4a1"},"vehicle_type_id":"4","last_reported":1701068839,"current_range_meters":31600,"station_id":"ce4bgup2rcd13ifvqcn0","pricing_plan_id":"free"},{"bike_id":"34941b82-9f70-431b-87f4-6499cb3b7729","system_id":"levelo_inurba_marseille","lat":43.304606,"lon":5.379026,"is_reserved":false,"is_disabled":false,"rental_uris":{"android":"levelo://app?vid=34941b82-9f70-431b-87f4-6499cb3b7729","ios":"levelo://app?vid=34941b82-9f70-431b-87f4-6499cb3b7729"},"vehicle_type_id":"4","last_reported":1701068839,"current_range_meters":22800,"station_id":"ce4bgup2rcd13ifvqcn0","pricing_plan_id":"free"},{"bike_id":"192fa008-c249-4ebf-8a2b-cce62651d97a","system_id":"levelo_inurba_marseille","lat":43.304606,"lon":5.379026,"is_reserved":false,"is_disabled":false,"rental_uris":{"android":"levelo://app?vid=192fa008-c249-4ebf-8a2b-cce62651d97a","ios":"levelo://app?vid=192fa008-c249-4ebf-8a2b-cce62651d97a"},"vehicle_type_id":"4","last_reported":1701068839,"current_range_meters":26800,"station_id":"ce4bgup2rcd13ifvqcn0","pricing_plan_id":"free"},{"bike_id":"21c18d3b-a508-46fc-9f49-3cfd95476d23","system_id":"levelo_inurba_marseille","lat":43.302784,"lon":5.377158,"is_reserved":false,"is_disabled":false,"rental_uris":{"android":"levelo://app?vid=21c18d3b-a508-46fc-9f49-3cfd95476d23","ios":"levelo://app?vid=21c18d3b-a508-46fc-9f49-3cfd95476d23"},"vehicle_type_id":"4","last_reported":1701068839,"current_range_meters":28400,"station_id":"ce4bguh2rcd13ifvqcj0","pricing_plan_id":"free"},{"bike_id":"e1c5179b-1edf-4c62-9406-4fcf9e0f97a4","system_id":"levelo_inurba_marseille","lat":43.319942,"lon":5.381459,"is_reserved":false,"is_disabled":false,"rental_uris":{"android":"levelo://app?vid=e1c5179b-1edf-4c62-9406-4fcf9e0f97a4","ios":"levelo://app?vid=e1c5179b-1edf-4c62-9406-4fcf9e0f97a4"},"vehicle_type_id":"4","last_reported":1701068839,"current_range_meters":28000,"station_id":"ce4bhr12rcd13ifvqhpg","pricing_plan_id":"free"},{"bike_id":"978629b7-b471-46eb-a5f1-0e5987324622","system_id":"levelo_inurba_marseille","lat":43.31355,"lon":5.38497,"is_reserved":false,"is_disabled":false,"rental_uris":{"android":"levelo://app?vid=978629b7-b471-46eb-a5f1-0e5987324622","ios":"levelo://app?vid=978629b7-b471-46eb-a5f1-0e5987324622"},"vehicle_type_id":"4","last_reported":1701068839,"current_range_meters":30000,"station_id":"ce4bgt92rcd13ifvqcf0","pricing_plan_id":"free"},{"bike_id":"873fdb60-6fa2-403a-8d34-dc61cac62633","system_id":"levelo_inurba_marseille","lat":43.299453,"lon":5.365383,"is_reserved":false,"is_disabled":false,"rental_uris":{"android":"levelo://app?vid=873fdb60-6fa2-403a-8d34-dc61cac62633","ios":"levelo://app?vid=873fdb60-6fa2-403a-8d34-dc61cac62633"},"vehicle_type_id":"4","last_reported":1701068839,"current_range_meters":28400,"station_id":"ce4bgm92rcd13ifvqbr0","pricing_plan_id":"free"},{"bike_id":"226e9f74-a000-4c0e-921d-92c18c491bc8","system_id":"levelo_inurba_marseille","lat":43.299222,"lon":5.365554,"is_reserved":false,"is_disabled":false,"rental_uris":{"android":"levelo://app?vid=226e9f74-a000-4c0e-921d-92c18c491bc8","ios":"levelo://app?vid=226e9f74-a000-4c0e-921d-92c18c491bc8"},"vehicle_type_id":"4","last_reported":1701068839,"current_range_meters":29600,"station_id":"ce4bgm92rcd13ifvqbr0","pricing_plan_id":"free"},{"bike_id":"f852916f-8890-4fa9-a9b3-e7c61af9734f","system_id":"levelo_inurba_marseille","lat":43.298727,"lon":5.369023,"is_reserved":false,"is_disabled":false,"rental_uris":{"android":"levelo://app?vid=f852916f-8890-4fa9-a9b3-e7c61af9734f","ios":"levelo://app?vid=f852916f-8890-4fa9-a9b3-e7c61af9734f"},"vehicle_type_id":"4","last_reported":1701068839,"current_range_meters":0,"station_id":"","pricing_plan_id":"free"},{"bike_id":"74d8b014-5421-4ee9-b3fc-0e1aa59260ce","system_id":"levelo_inurba_marseille","lat":43.305364,"lon":5.384119,"is_reserved":false,"is_disabled":false,"rental_uris":{"android":"levelo://app?vid=74d8b014-5421-4ee9-b3fc-0e1aa59260ce","ios":"levelo://app?vid=74d8b014-5421-4ee9-b3fc-0e1aa59260ce"},"vehicle_type_id":"4","last_reported":1701068839,"current_range_meters":31200,"station_id":"ce4bgg92rcd13ifvqb30","pricing_plan_id":"free"},{"bike_id":"477235fc-d2e7-4bab-b368-dd78a5c1ebe9","system_id":"levelo_inurba_marseille","lat":43.29852,"lon":5.36278,"is_reserved":false,"is_disabled":false,"rental_uris":{"android":"levelo://app?vid=477235fc-d2e7-4bab-b368-dd78a5c1ebe9","ios":"levelo://app?vid=477235fc-d2e7-4bab-b368-dd78a5c1ebe9"},"vehicle_type_id":"4","last_reported":1701068839,"current_range_meters":20000,"station_id":"ce4bgpp2rcd13ifvqc3g","pricing_plan_id":"free"},{"bike_id":"14275d3f-d286-4db3-acf7-5534eae88e4e","system_id":"levelo_inurba_marseille","lat":43.30537,"lon":5.38423,"is_reserved":false,"is_disabled":false,"rental_uris":{"android":"levelo://app?vid=14275d3f-d286-4db3-acf7-5534eae88e4e","ios":"levelo://app?vid=14275d3f-d286-4db3-acf7-5534eae88e4e"},"vehicle_type_id":"4","last_reported":1701068839,"current_range_meters":10000,"station_id":"","pricing_plan_id":"free"},{"bike_id":"fc603c51-3252-41bf-a2b8-cd94ffdc6951","system_id":"levelo_inurba_marseille","lat":43.305364,"lon":5.384119,"is_reserved":false,"is_disabled":false,"rental_uris":{"android":"levelo://app?vid=fc603c51-3252-41bf-a2b8-cd94ffdc6951","ios":"levelo://app?vid=fc603c51-3252-41bf-a2b8-cd94ffdc6951"},"vehicle_type_id":"4","last_reported":1701068839,"current_range_meters":30800,"station_id":"ce4bgg92rcd13ifvqb30","pricing_plan_id":"free"},{"bike_id":"56815df7-a60d-48ec-9c7d-8227e1e6cf88","system_id":"levelo_inurba_marseille","lat":43.29842,"lon":5.36269,"is_reserved":false,"is_disabled":false,"rental_uris":{"android":"levelo://app?vid=56815df7-a60d-48ec-9c7d-8227e1e6cf88","ios":"levelo://app?vid=56815df7-a60d-48ec-9c7d-8227e1e6cf88"},"vehicle_type_id":"4","last_reported":1701068839,"current_range_meters":800,"station_id":"ce4bgpp2rcd13ifvqc3g","pricing_plan_id":"free"},{"bike_id":"f3538433-86df-4ec3-a69e-7bb5857fffc8","system_id":"levelo_inurba_marseille","lat":43.299243,"lon":5.374807,"is_reserved":false,"is_disabled":false,"rental_uris":{"android":"levelo://app?vid=f3538433-86df-4ec3-a69e-7bb5857fffc8","ios":"levelo://app?vid=f3538433-86df-4ec3-a69e-7bb5857fffc8"},"vehicle_type_id":"4","last_reported":1701068839,"current_range_meters":24400,"station_id":"ce4bgjh2rcd13ifvqbg0","pricing_plan_id":"free"},{"bike_id":"c57375d0-3fc9-4bbc-9de2-2d75c7626d44","system_id":"levelo_inurba_marseille","lat":43.297163,"lon":5.365866,"is_reserved":false,"is_disabled":false,"rental_uris":{"android":"levelo://app?vid=c57375d0-3fc9-4bbc-9de2-2d75c7626d44","ios":"levelo://app?vid=c57375d0-3fc9-4bbc-9de2-2d75c7626d44"},"vehicle_type_id":"4","last_reported":1701068839,"current_range_meters":29600,"station_id":"ce4bgn12rcd13ifvqbt0","pricing_plan_id":"free"},{"bike_id":"d9a1df8e-d218-4412-a6ac-ac5e9e381249","system_id":"levelo_inurba_marseille","lat":43.297163,"lon":5.365866,"is_reserved":false,"is_disabled":false,"rental_uris":{"android":"levelo://app?vid=d9a1df8e-d218-4412-a6ac-ac5e9e381249","ios":"levelo://app?vid=d9a1df8e-d218-4412-a6ac-ac5e9e381249"},"vehicle_type_id":"4","last_reported":1701068839,"current_range_meters":22800,"station_id":"ce4bgn12rcd13ifvqbt0","pricing_plan_id":"free"},{"bike_id":"84e79bc2-f872-4461-b5dc-11392b156935","system_id":"levelo_inurba_marseille","lat":43.32835,"lon":5.3667,"is_reserved":false,"is_disabled":false,"rental_uris":{"android":"levelo://app?vid=84e79bc2-f872-4461-b5dc-11392b156935","ios":"levelo://app?vid=84e79bc2-f872-4461-b5dc-11392b156935"},"vehicle_type_id":"4","last_reported":1701068839,"current_range_meters":16800,"station_id":"ce4bhs92rcd13ifvqi0g","pricing_plan_id":"free"},{"bike_id":"7ab5f7ed-0017-4fc9-a467-fe2d0c256128","system_id":"levelo_inurba_marseille","lat":43.31514,"lon":5.38932,"is_reserved":false,"is_disabled":false,"rental_uris":{"android":"levelo://app?vid=7ab5f7ed-0017-4fc9-a467-fe2d0c256128","ios":"levelo://app?vid=7ab5f7ed-0017-4fc9-a467-fe2d0c256128"},"vehicle_type_id":"4","last_reported":1701068839,"current_range_meters":29200,"station_id":"","pricing_plan_id":"free"},{"bike_id":"a5da601e-e514-4354-a856-ff62a81a8ac8","system_id":"levelo_inurba_marseille","lat":43.29573,"lon":5.367355,"is_reserved":false,"is_disabled":false,"rental_uris":{"android":"levelo://app?vid=a5da601e-e514-4354-a856-ff62a81a8ac8","ios":"levelo://app?vid=a5da601e-e514-4354-a856-ff62a81a8ac8"},"vehicle_type_id":"4","last_reported":1701068839,"current_range_meters":31600,"station_id":"ce4bgph2rcd13ifvqc2g","pricing_plan_id":"free"},{"bike_id":"4a05ac65-f220-41ad-b9bc-20102080b17f","system_id":"levelo_inurba_marseille","lat":43.29573,"lon":5.367355,"is_reserved":false,"is_disabled":false,"rental_uris":{"android":"levelo://app?vid=4a05ac65-f220-41ad-b9bc-20102080b17f","ios":"levelo://app?vid=4a05ac65-f220-41ad-b9bc-20102080b17f"},"vehicle_type_id":"4","last_reported":1701068839,"current_range_meters":31600,"station_id":"ce4bgph2rcd13ifvqc2g","pricing_plan_id":"free"},{"bike_id":"2a3acb06-8222-43d3-99c6-46dd09e64d00","system_id":"levelo_inurba_marseille","lat":43.29573,"lon":5.367355,"is_reserved":false,"is_disabled":false,"rental_uris":{"android":"levelo://app?vid=2a3acb06-8222-43d3-99c6-46dd09e64d00","ios":"levelo://app?vid=2a3acb06-8222-43d3-99c6-46dd09e64d00"},"vehicle_type_id":"4","last_reported":1701068839,"current_range_meters":23600,"station_id":"ce4bgph2rcd13ifvqc2g","pricing_plan_id":"free"},{"bike_id":"91815f0e-280f-4f47-95a0-ea694b142381","system_id":"levelo_inurba_marseille","lat":43.29573,"lon":5.367355,"is_reserved":false,"is_disabled":false,"rental_uris":{"android":"levelo://app?vid=91815f0e-280f-4f47-95a0-ea694b142381","ios":"levelo://app?vid=91815f0e-280f-4f47-95a0-ea694b142381"},"vehicle_type_id":"4","last_reported":1701068839,"current_range_meters":12800,"station_id":"ce4bgph2rcd13ifvqc2g","pricing_plan_id":"free"},{"bike_id":"8eb99f99-b944-4964-96f2-e263cd7c52fc","system_id":"levelo_inurba_marseille","lat":43.29581,"lon":5.3675,"is_reserved":false,"is_disabled":false,"rental_uris":{"android":"levelo://app?vid=8eb99f99-b944-4964-96f2-e263cd7c52fc","ios":"levelo://app?vid=8eb99f99-b944-4964-96f2-e263cd7c52fc"},"vehicle_type_id":"4","last_reported":1701068839,"current_range_meters":24800,"station_id":"ce4bgph2rcd13ifvqc2g","pricing_plan_id":"free"},{"bike_id":"4c2cfcb4-6536-421f-a5c1-5b85a8f464cb","system_id":"levelo_inurba_marseille","lat":43.29573,"lon":5.367355,"is_reserved":false,"is_disabled":false,"rental_uris":{"android":"levelo://app?vid=4c2cfcb4-6536-421f-a5c1-5b85a8f464cb","ios":"levelo://app?vid=4c2cfcb4-6536-421f-a5c1-5b85a8f464cb"},"vehicle_type_id":"4","last_reported":1701068839,"current_range_meters":30800,"station_id":"ce4bgph2rcd13ifvqc2g","pricing_plan_id":"free"},{"bike_id":"91cf2b2a-855f-4734-9188-91ee71d17ca1","system_id":"levelo_inurba_marseille","lat":43.29573,"lon":5.367355,"is_reserved":false,"is_disabled":false,"rental_uris":{"android":"levelo://app?vid=91cf2b2a-855f-4734-9188-91ee71d17ca1","ios":"levelo://app?vid=91cf2b2a-855f-4734-9188-91ee71d17ca1"},"vehicle_type_id":"4","last_reported":1701068839,"current_range_meters":29200,"station_id":"ce4bgph2rcd13ifvqc2g","pricing_plan_id":"free"},{"bike_id":"35364ef1-dae4-40dd-97db-5a72fa7d07a1","system_id":"levelo_inurba_marseille","lat":43.29573,"lon":5.367355,"is_reserved":false,"is_disabled":false,"rental_uris":{"android":"levelo://app?vid=35364ef1-dae4-40dd-97db-5a72fa7d07a1","ios":"levelo://app?vid=35364ef1-dae4-40dd-97db-5a72fa7d07a1"},"vehicle_type_id":"4","last_reported":1701068839,"current_range_meters":16000,"station_id":"ce4bgph2rcd13ifvqc2g","pricing_plan_id":"free"},{"bike_id":"902ec9a4-709e-4f9a-91e7-67b19ebb5622","system_id":"levelo_inurba_marseille","lat":43.317557,"lon":5.390173,"is_reserved":false,"is_disabled":false,"rental_uris":{"android":"levelo://app?vid=902ec9a4-709e-4f9a-91e7-67b19ebb5622","ios":"levelo://app?vid=902ec9a4-709e-4f9a-91e7-67b19ebb5622"},"vehicle_type_id":"4","last_reported":1701068839,"current_range_meters":30400,"station_id":"ce4bhqp2rcd13ifvqhng","pricing_plan_id":"free"},{"bike_id":"b8d062a3-cba3-4231-ad3a-e7331932c195","system_id":"levelo_inurba_marseille","lat":43.298037,"lon":5.381066,"is_reserved":false,"is_disabled":false,"rental_uris":{"android":"levelo://app?vid=b8d062a3-cba3-4231-ad3a-e7331932c195","ios":"levelo://app?vid=b8d062a3-cba3-4231-ad3a-e7331932c195"},"vehicle_type_id":"4","last_reported":1701068839,"current_range_meters":29200,"station_id":"ce4bgip2rcd13ifvqbb0","pricing_plan_id":"free"},{"bike_id":"1c89bbc8-3b65-49fe-b11e-fb1509c442e5","system_id":"levelo_inurba_marseille","lat":43.304274,"lon":5.388873,"is_reserved":false,"is_disabled":false,"rental_uris":{"android":"levelo://app?vid=1c89bbc8-3b65-49fe-b11e-fb1509c442e5","ios":"levelo://app?vid=1c89bbc8-3b65-49fe-b11e-fb1509c442e5"},"vehicle_type_id":"4","last_reported":1701068839,"current_range_meters":25600,"station_id":"ce4bgk12rcd13ifvqbi0","pricing_plan_id":"free"},{"bike_id":"5dd3bf9e-bd45-4675-9000-ba31a3544855","system_id":"levelo_inurba_marseille","lat":43.304274,"lon":5.388873,"is_reserved":false,"is_disabled":false,"rental_uris":{"android":"levelo://app?vid=5dd3bf9e-bd45-4675-9000-ba31a3544855","ios":"levelo://app?vid=5dd3bf9e-bd45-4675-9000-ba31a3544855"},"vehicle_type_id":"4","last_reported":1701068839,"current_range_meters":18400,"station_id":"ce4bgk12rcd13ifvqbi0","pricing_plan_id":"free"},{"bike_id":"4ca2b5ca-c2f1-493c-954f-03557be74c1d","system_id":"levelo_inurba_marseille","lat":43.296263,"lon":5.377094,"is_reserved":false,"is_disabled":false,"rental_uris":{"android":"levelo://app?vid=4ca2b5ca-c2f1-493c-954f-03557be74c1d","ios":"levelo://app?vid=4ca2b5ca-c2f1-493c-954f-03557be74c1d"},"vehicle_type_id":"4","last_reported":1701068839,"current_range_meters":30800,"station_id":"ce4bgi92rcd13ifvqb90","pricing_plan_id":"free"},{"bike_id":"ec3ceb7c-9982-4c7a-963e-1dba99799e2d","system_id":"levelo_inurba_marseille","lat":43.304278,"lon":5.388868,"is_reserved":false,"is_disabled":false,"rental_uris":{"android":"levelo://app?vid=ec3ceb7c-9982-4c7a-963e-1dba99799e2d","ios":"levelo://app?vid=ec3ceb7c-9982-4c7a-963e-1dba99799e2d"},"vehicle_type_id":"4","last_reported":1701068839,"current_range_meters":28400,"station_id":"ce4bgk12rcd13ifvqbi0","pricing_plan_id":"free"},{"bike_id":"6b621983-5e9e-42f7-990d-ad5a093820d2","system_id":"levelo_inurba_marseille","lat":43.293801,"lon":5.363066,"is_reserved":false,"is_disabled":false,"rental_uris":{"android":"levelo://app?vid=6b621983-5e9e-42f7-990d-ad5a093820d2","ios":"levelo://app?vid=6b621983-5e9e-42f7-990d-ad5a093820d2"},"vehicle_type_id":"4","last_reported":1701068839,"current_range_meters":0,"station_id":"","pricing_plan_id":"free"},{"bike_id":"6d50c19a-57c7-49c6-8f58-70e53f03cb53","system_id":"levelo_inurba_marseille","lat":43.29601,"lon":5.381084,"is_reserved":false,"is_disabled":false,"rental_uris":{"android":"levelo://app?vid=6d50c19a-57c7-49c6-8f58-70e53f03cb53","ios":"levelo://app?vid=6d50c19a-57c7-49c6-8f58-70e53f03cb53"},"vehicle_type_id":"4","last_reported":1701068839,"current_range_meters":24400,"station_id":"ce4bgl12rcd13ifvqbo0","pricing_plan_id":"free"},{"bike_id":"c7087ceb-9050-4b98-aa52-89affedd0cf0","system_id":"levelo_inurba_marseille","lat":43.29601,"lon":5.381084,"is_reserved":false,"is_disabled":false,"rental_uris":{"android":"levelo://app?vid=c7087ceb-9050-4b98-aa52-89affedd0cf0","ios":"levelo://app?vid=c7087ceb-9050-4b98-aa52-89affedd0cf0"},"vehicle_type_id":"4","last_reported":1701068839,"current_range_meters":14800,"station_id":"ce4bgl12rcd13ifvqbo0","pricing_plan_id":"free"},{"bike_id":"ddd61bce-03d4-4f1e-8020-8ef45188a057","system_id":"levelo_inurba_marseille","lat":43.299936,"lon":5.387925,"is_reserved":false,"is_disabled":false,"rental_uris":{"android":"levelo://app?vid=ddd61bce-03d4-4f1e-8020-8ef45188a057","ios":"levelo://app?vid=ddd61bce-03d4-4f1e-8020-8ef45188a057"},"vehicle_type_id":"4","last_reported":1701068839,"current_range_meters":17200,"station_id":"","pricing_plan_id":"free"},{"bike_id":"586e681a-9c46-48ea-a123-6c021852d50c","system_id":"levelo_inurba_marseille","lat":43.305994,"lon":5.393687,"is_reserved":false,"is_disabled":false,"rental_uris":{"android":"levelo://app?vid=586e681a-9c46-48ea-a123-6c021852d50c","ios":"levelo://app?vid=586e681a-9c46-48ea-a123-6c021852d50c"},"vehicle_type_id":"4","last_reported":1701068839,"current_range_meters":24800,"station_id":"ce4bh0p2rcd13ifvqd80","pricing_plan_id":"free"},{"bike_id":"f4dfcef8-d10c-45d2-adce-5fc6e38c57a6","system_id":"levelo_inurba_marseille","lat":43.305994,"lon":5.393687,"is_reserved":false,"is_disabled":false,"rental_uris":{"android":"levelo://app?vid=f4dfcef8-d10c-45d2-adce-5fc6e38c57a6","ios":"levelo://app?vid=f4dfcef8-d10c-45d2-adce-5fc6e38c57a6"},"vehicle_type_id":"4","last_reported":1701068839,"current_range_meters":26800,"station_id":"ce4bh0p2rcd13ifvqd80","pricing_plan_id":"free"},{"bike_id":"3fbe0670-f9d6-4941-a6a9-8724479412b1","system_id":"levelo_inurba_marseille","lat":43.305994,"lon":5.393687,"is_reserved":false,"is_disabled":false,"rental_uris":{"android":"levelo://app?vid=3fbe0670-f9d6-4941-a6a9-8724479412b1","ios":"levelo://app?vid=3fbe0670-f9d6-4941-a6a9-8724479412b1"},"vehicle_type_id":"4","last_reported":1701068839,"current_range_meters":19200,"station_id":"ce4bh0p2rcd13ifvqd80","pricing_plan_id":"free"},{"bike_id":"7567cb8b-68c7-4038-b33a-881c46167178","system_id":"levelo_inurba_marseille","lat":43.305994,"lon":5.393687,"is_reserved":false,"is_disabled":false,"rental_uris":{"android":"levelo://app?vid=7567cb8b-68c7-4038-b33a-881c46167178","ios":"levelo://app?vid=7567cb8b-68c7-4038-b33a-881c46167178"},"vehicle_type_id":"4","last_reported":1701068839,"current_range_meters":30000,"station_id":"ce4bh0p2rcd13ifvqd80","pricing_plan_id":"free"},{"bike_id":"0ee1c0a2-a2c4-4d0a-839d-15ced178594d","system_id":"levelo_inurba_marseille","lat":43.305948,"lon":5.393565,"is_reserved":false,"is_disabled":false,"rental_uris":{"android":"levelo://app?vid=0ee1c0a2-a2c4-4d0a-839d-15ced178594d","ios":"levelo://app?vid=0ee1c0a2-a2c4-4d0a-839d-15ced178594d"},"vehicle_type_id":"4","last_reported":1701068839,"current_range_meters":19600,"station_id":"","pricing_plan_id":"free"},{"bike_id":"eb987e45-00dd-4dc0-9c12-8bddabc60857","system_id":"levelo_inurba_marseille","lat":43.30587,"lon":5.39354,"is_reserved":false,"is_disabled":false,"rental_uris":{"android":"levelo://app?vid=eb987e45-00dd-4dc0-9c12-8bddabc60857","ios":"levelo://app?vid=eb987e45-00dd-4dc0-9c12-8bddabc60857"},"vehicle_type_id":"4","last_reported":1701068839,"current_range_meters":25200,"station_id":"ce4bh0p2rcd13ifvqd80","pricing_plan_id":"free"},{"bike_id":"6ff2d642-0a46-4bf3-a925-cc3b1a01090b","system_id":"levelo_inurba_marseille","lat":43.305994,"lon":5.393687,"is_reserved":false,"is_disabled":false,"rental_uris":{"android":"levelo://app?vid=6ff2d642-0a46-4bf3-a925-cc3b1a01090b","ios":"levelo://app?vid=6ff2d642-0a46-4bf3-a925-cc3b1a01090b"},"vehicle_type_id":"4","last_reported":1701068839,"current_range_meters":31600,"station_id":"ce4bh0p2rcd13ifvqd80","pricing_plan_id":"free"},{"bike_id":"e4f751bb-04ac-45bb-9344-6d7b0c6c0655","system_id":"levelo_inurba_marseille","lat":43.305938,"lon":5.393619,"is_reserved":false,"is_disabled":false,"rental_uris":{"android":"levelo://app?vid=e4f751bb-04ac-45bb-9344-6d7b0c6c0655","ios":"levelo://app?vid=e4f751bb-04ac-45bb-9344-6d7b0c6c0655"},"vehicle_type_id":"4","last_reported":1701068839,"current_range_meters":14800,"station_id":"ce4bh0p2rcd13ifvqd80","pricing_plan_id":"free"},{"bike_id":"c1b4bc69-59e6-4e4a-be0f-14443410737f","system_id":"levelo_inurba_marseille","lat":43.30574,"lon":5.39367,"is_reserved":false,"is_disabled":false,"rental_uris":{"android":"levelo://app?vid=c1b4bc69-59e6-4e4a-be0f-14443410737f","ios":"levelo://app?vid=c1b4bc69-59e6-4e4a-be0f-14443410737f"},"vehicle_type_id":"4","last_reported":1701068839,"current_range_meters":21200,"station_id":"ce4bh0p2rcd13ifvqd80","pricing_plan_id":"free"},{"bike_id":"6775dafb-6e55-4b7f-bec1-13bce407912f","system_id":"levelo_inurba_marseille","lat":43.303002,"lon":5.392142,"is_reserved":false,"is_disabled":false,"rental_uris":{"android":"levelo://app?vid=6775dafb-6e55-4b7f-bec1-13bce407912f","ios":"levelo://app?vid=6775dafb-6e55-4b7f-bec1-13bce407912f"},"vehicle_type_id":"4","last_reported":1701068839,"current_range_meters":14800,"station_id":"ce4bgkh2rcd13ifvqbk0","pricing_plan_id":"free"},{"bike_id":"3fc1bb9f-4e00-43dd-9b78-edbd1cce3ede","system_id":"levelo_inurba_marseille","lat":43.2936,"lon":5.37845,"is_reserved":false,"is_disabled":false,"rental_uris":{"android":"levelo://app?vid=3fc1bb9f-4e00-43dd-9b78-edbd1cce3ede","ios":"levelo://app?vid=3fc1bb9f-4e00-43dd-9b78-edbd1cce3ede"},"vehicle_type_id":"4","last_reported":1701068839,"current_range_meters":22000,"station_id":"ce4bgjh2rcd13ifvqbf0","pricing_plan_id":"free"},{"bike_id":"d0843d71-95df-4392-b2a5-8415983cb1b0","system_id":"levelo_inurba_marseille","lat":43.302008,"lon":5.394694,"is_reserved":false,"is_disabled":false,"rental_uris":{"android":"levelo://app?vid=d0843d71-95df-4392-b2a5-8415983cb1b0","ios":"levelo://app?vid=d0843d71-95df-4392-b2a5-8415983cb1b0"},"vehicle_type_id":"4","last_reported":1701068839,"current_range_meters":30400,"station_id":"ce4bh0p2rcd13ifvqd70","pricing_plan_id":"free"},{"bike_id":"a05e02a4-d952-4382-9658-b31aae284c5a","system_id":"levelo_inurba_marseille","lat":43.30209,"lon":5.39462,"is_reserved":false,"is_disabled":false,"rental_uris":{"android":"levelo://app?vid=a05e02a4-d952-4382-9658-b31aae284c5a","ios":"levelo://app?vid=a05e02a4-d952-4382-9658-b31aae284c5a"},"vehicle_type_id":"4","last_reported":1701068839,"current_range_meters":23600,"station_id":"ce4bh0p2rcd13ifvqd70","pricing_plan_id":"free"},{"bike_id":"68c9dc89-c48b-467c-b6a3-0679865eb620","system_id":"levelo_inurba_marseille","lat":43.302008,"lon":5.394694,"is_reserved":false,"is_disabled":false,"rental_uris":{"android":"levelo://app?vid=68c9dc89-c48b-467c-b6a3-0679865eb620","ios":"levelo://app?vid=68c9dc89-c48b-467c-b6a3-0679865eb620"},"vehicle_type_id":"4","last_reported":1701068839,"current_range_meters":30000,"station_id":"ce4bh0p2rcd13ifvqd70","pricing_plan_id":"free"},{"bike_id":"7795b34e-6855-4b35-87fc-5feb758f57f4","system_id":"levelo_inurba_marseille","lat":43.302008,"lon":5.394694,"is_reserved":false,"is_disabled":false,"rental_uris":{"android":"levelo://app?vid=7795b34e-6855-4b35-87fc-5feb758f57f4","ios":"levelo://app?vid=7795b34e-6855-4b35-87fc-5feb758f57f4"},"vehicle_type_id":"4","last_reported":1701068839,"current_range_meters":20400,"station_id":"ce4bh0p2rcd13ifvqd70","pricing_plan_id":"free"},{"bike_id":"b18bade8-7eb1-4190-ada7-afa31e19e52d","system_id":"levelo_inurba_marseille","lat":43.289184,"lon":5.366408,"is_reserved":false,"is_disabled":false,"rental_uris":{"android":"levelo://app?vid=b18bade8-7eb1-4190-ada7-afa31e19e52d","ios":"levelo://app?vid=b18bade8-7eb1-4190-ada7-afa31e19e52d"},"vehicle_type_id":"4","last_reported":1701068839,"current_range_meters":27600,"station_id":"ce4bhap2rcd13ifvqek0","pricing_plan_id":"free"},{"bike_id":"5cea3253-a000-45c4-8f14-ec2142c07f34","system_id":"levelo_inurba_marseille","lat":43.289184,"lon":5.366408,"is_reserved":false,"is_disabled":false,"rental_uris":{"android":"levelo://app?vid=5cea3253-a000-45c4-8f14-ec2142c07f34","ios":"levelo://app?vid=5cea3253-a000-45c4-8f14-ec2142c07f34"},"vehicle_type_id":"4","last_reported":1701068839,"current_range_meters":28400,"station_id":"ce4bhap2rcd13ifvqek0","pricing_plan_id":"free"},{"bike_id":"1566c790-0cad-4502-9d79-ad7add89bd72","system_id":"levelo_inurba_marseille","lat":43.289468,"lon":5.363719,"is_reserved":false,"is_disabled":false,"rental_uris":{"android":"levelo://app?vid=1566c790-0cad-4502-9d79-ad7add89bd72","ios":"levelo://app?vid=1566c790-0cad-4502-9d79-ad7add89bd72"},"vehicle_type_id":"4","last_reported":1701068839,"current_range_meters":28000,"station_id":"ce4bhc92rcd13ifvqetg","pricing_plan_id":"free"},{"bike_id":"03280b0c-baf7-4058-bb27-731b155444b8","system_id":"levelo_inurba_marseille","lat":43.289184,"lon":5.366408,"is_reserved":false,"is_disabled":false,"rental_uris":{"android":"levelo://app?vid=03280b0c-baf7-4058-bb27-731b155444b8","ios":"levelo://app?vid=03280b0c-baf7-4058-bb27-731b155444b8"},"vehicle_type_id":"4","last_reported":1701068839,"current_range_meters":18800,"station_id":"ce4bhap2rcd13ifvqek0","pricing_plan_id":"free"},{"bike_id":"c63a7bf5-03ef-41f0-928e-7b675e3d5818","system_id":"levelo_inurba_marseille","lat":43.289184,"lon":5.366408,"is_reserved":false,"is_disabled":false,"rental_uris":{"android":"levelo://app?vid=c63a7bf5-03ef-41f0-928e-7b675e3d5818","ios":"levelo://app?vid=c63a7bf5-03ef-41f0-928e-7b675e3d5818"},"vehicle_type_id":"4","last_reported":1701068839,"current_range_meters":27200,"station_id":"ce4bhap2rcd13ifvqek0","pricing_plan_id":"free"},{"bike_id":"0c0abb75-d342-4235-87fb-08f4b12dbc7f","system_id":"levelo_inurba_marseille","lat":43.290104,"lon":5.356111,"is_reserved":false,"is_disabled":false,"rental_uris":{"android":"levelo://app?vid=0c0abb75-d342-4235-87fb-08f4b12dbc7f","ios":"levelo://app?vid=0c0abb75-d342-4235-87fb-08f4b12dbc7f"},"vehicle_type_id":"4","last_reported":1701068839,"current_range_meters":24400,"station_id":"ce4bhb92rcd13ifvqen0","pricing_plan_id":"free"},{"bike_id":"b22c429b-b8b0-4622-8ddb-e6f72f459c87","system_id":"levelo_inurba_marseille","lat":43.290995,"lon":5.381361,"is_reserved":false,"is_disabled":false,"rental_uris":{"android":"levelo://app?vid=b22c429b-b8b0-4622-8ddb-e6f72f459c87","ios":"levelo://app?vid=b22c429b-b8b0-4622-8ddb-e6f72f459c87"},"vehicle_type_id":"4","last_reported":1701068839,"current_range_meters":28000,"station_id":"ce4bh512rcd13ifvqe2g","pricing_plan_id":"free"},{"bike_id":"c97aa797-596e-481f-8cb2-ae54f85c35da","system_id":"levelo_inurba_marseille","lat":43.28969,"lon":5.37843,"is_reserved":false,"is_disabled":false,"rental_uris":{"android":"levelo://app?vid=c97aa797-596e-481f-8cb2-ae54f85c35da","ios":"levelo://app?vid=c97aa797-596e-481f-8cb2-ae54f85c35da"},"vehicle_type_id":"4","last_reported":1701068839,"current_range_meters":8400,"station_id":"ce4bh9p2rcd13ifvqed0","pricing_plan_id":"free"},{"bike_id":"ef62ecde-f11b-42b8-8144-54c18cd558bb","system_id":"levelo_inurba_marseille","lat":43.29025,"lon":5.38103,"is_reserved":false,"is_disabled":false,"rental_uris":{"android":"levelo://app?vid=ef62ecde-f11b-42b8-8144-54c18cd558bb","ios":"levelo://app?vid=ef62ecde-f11b-42b8-8144-54c18cd558bb"},"vehicle_type_id":"4","last_reported":1701068839,"current_range_meters":22400,"station_id":"","pricing_plan_id":"free"},{"bike_id":"2bfd9713-c7f5-4453-ab03-4e3588a11324","system_id":"levelo_inurba_marseille","lat":43.2901,"lon":5.381269,"is_reserved":false,"is_disabled":false,"rental_uris":{"android":"levelo://app?vid=2bfd9713-c7f5-4453-ab03-4e3588a11324","ios":"levelo://app?vid=2bfd9713-c7f5-4453-ab03-4e3588a11324"},"vehicle_type_id":"4","last_reported":1701068839,"current_range_meters":27600,"station_id":"ce4bh4p2rcd13ifvqe1g","pricing_plan_id":"free"},{"bike_id":"8ffdbeb5-efd0-4532-8d09-a0c5280afe0f","system_id":"levelo_inurba_marseille","lat":43.29024,"lon":5.381191,"is_reserved":false,"is_disabled":false,"rental_uris":{"android":"levelo://app?vid=8ffdbeb5-efd0-4532-8d09-a0c5280afe0f","ios":"levelo://app?vid=8ffdbeb5-efd0-4532-8d09-a0c5280afe0f"},"vehicle_type_id":"4","last_reported":1701068839,"current_range_meters":26400,"station_id":"ce4bh4p2rcd13ifvqe1g","pricing_plan_id":"free"},{"bike_id":"6ed809a2-17c7-49e3-a577-d7f2de8c5687","system_id":"levelo_inurba_marseille","lat":43.33748,"lon":5.374435,"is_reserved":false,"is_disabled":false,"rental_uris":{"android":"levelo://app?vid=6ed809a2-17c7-49e3-a577-d7f2de8c5687","ios":"levelo://app?vid=6ed809a2-17c7-49e3-a577-d7f2de8c5687"},"vehicle_type_id":"4","last_reported":1701068839,"current_range_meters":30000,"station_id":"","pricing_plan_id":"free"},{"bike_id":"6ad298fa-f49c-461a-b002-e1ed806a452f","system_id":"levelo_inurba_marseille","lat":43.28727,"lon":5.36078,"is_reserved":false,"is_disabled":false,"rental_uris":{"android":"levelo://app?vid=6ad298fa-f49c-461a-b002-e1ed806a452f","ios":"levelo://app?vid=6ad298fa-f49c-461a-b002-e1ed806a452f"},"vehicle_type_id":"4","last_reported":1701068839,"current_range_meters":27200,"station_id":"cki0cbj6b192h4jlfktg","pricing_plan_id":"free"},{"bike_id":"ea53af94-0afa-4f12-8ee6-61d3d7c9e76e","system_id":"levelo_inurba_marseille","lat":43.298703,"lon":5.397297,"is_reserved":false,"is_disabled":false,"rental_uris":{"android":"levelo://app?vid=ea53af94-0afa-4f12-8ee6-61d3d7c9e76e","ios":"levelo://app?vid=ea53af94-0afa-4f12-8ee6-61d3d7c9e76e"},"vehicle_type_id":"4","last_reported":1701068839,"current_range_meters":5600,"station_id":"","pricing_plan_id":"free"},{"bike_id":"5590fecc-8046-4826-af0a-cc482681a15d","system_id":"levelo_inurba_marseille","lat":43.298725,"lon":5.397331,"is_reserved":false,"is_disabled":false,"rental_uris":{"android":"levelo://app?vid=5590fecc-8046-4826-af0a-cc482681a15d","ios":"levelo://app?vid=5590fecc-8046-4826-af0a-cc482681a15d"},"vehicle_type_id":"4","last_reported":1701068839,"current_range_meters":25200,"station_id":"","pricing_plan_id":"free"},{"bike_id":"329a8390-a892-4073-9b8e-85d4895a1c1f","system_id":"levelo_inurba_marseille","lat":43.298681,"lon":5.397225,"is_reserved":false,"is_disabled":false,"rental_uris":{"android":"levelo://app?vid=329a8390-a892-4073-9b8e-85d4895a1c1f","ios":"levelo://app?vid=329a8390-a892-4073-9b8e-85d4895a1c1f"},"vehicle_type_id":"4","last_reported":1701068839,"current_range_meters":23200,"station_id":"ce4bh0h2rcd13ifvqd50","pricing_plan_id":"free"},{"bike_id":"b8da9eed-40ed-4bf9-a89e-29f150132a22","system_id":"levelo_inurba_marseille","lat":43.298681,"lon":5.397225,"is_reserved":false,"is_disabled":false,"rental_uris":{"android":"levelo://app?vid=b8da9eed-40ed-4bf9-a89e-29f150132a22","ios":"levelo://app?vid=b8da9eed-40ed-4bf9-a89e-29f150132a22"},"vehicle_type_id":"4","last_reported":1701068839,"current_range_meters":9600,"station_id":"ce4bh0h2rcd13ifvqd50","pricing_plan_id":"free"},{"bike_id":"f1f66963-ff78-450e-8565-bd4ad8e2f75c","system_id":"levelo_inurba_marseille","lat":43.302759,"lon":5.400793,"is_reserved":false,"is_disabled":false,"rental_uris":{"android":"levelo://app?vid=f1f66963-ff78-450e-8565-bd4ad8e2f75c","ios":"levelo://app?vid=f1f66963-ff78-450e-8565-bd4ad8e2f75c"},"vehicle_type_id":"4","last_reported":1701068839,"current_range_meters":28800,"station_id":"ce4bgvh2rcd13ifvqcs0","pricing_plan_id":"free"},{"bike_id":"828ad9ab-5378-4a88-a34f-a632dc7c51bb","system_id":"levelo_inurba_marseille","lat":43.302759,"lon":5.400793,"is_reserved":false,"is_disabled":false,"rental_uris":{"android":"levelo://app?vid=828ad9ab-5378-4a88-a34f-a632dc7c51bb","ios":"levelo://app?vid=828ad9ab-5378-4a88-a34f-a632dc7c51bb"},"vehicle_type_id":"4","last_reported":1701068839,"current_range_meters":29600,"station_id":"ce4bgvh2rcd13ifvqcs0","pricing_plan_id":"free"},{"bike_id":"d004b813-eca0-425e-8111-6f462c23cb12","system_id":"levelo_inurba_marseille","lat":43.29029,"lon":5.38626,"is_reserved":false,"is_disabled":false,"rental_uris":{"android":"levelo://app?vid=d004b813-eca0-425e-8111-6f462c23cb12","ios":"levelo://app?vid=d004b813-eca0-425e-8111-6f462c23cb12"},"vehicle_type_id":"4","last_reported":1701068839,"current_range_meters":20400,"station_id":"ce4bh4p2rcd13ifvqe0g","pricing_plan_id":"free"},{"bike_id":"4fd384d1-426a-442f-bb4d-5bca9037998b","system_id":"levelo_inurba_marseille","lat":43.2903,"lon":5.38634,"is_reserved":false,"is_disabled":false,"rental_uris":{"android":"levelo://app?vid=4fd384d1-426a-442f-bb4d-5bca9037998b","ios":"levelo://app?vid=4fd384d1-426a-442f-bb4d-5bca9037998b"},"vehicle_type_id":"4","last_reported":1701068839,"current_range_meters":13200,"station_id":"ce4bh4p2rcd13ifvqe0g","pricing_plan_id":"free"},{"bike_id":"8a65a6e0-6c40-4a60-b1fe-3beb52c7377f","system_id":"levelo_inurba_marseille","lat":43.29025,"lon":5.38641,"is_reserved":false,"is_disabled":false,"rental_uris":{"android":"levelo://app?vid=8a65a6e0-6c40-4a60-b1fe-3beb52c7377f","ios":"levelo://app?vid=8a65a6e0-6c40-4a60-b1fe-3beb52c7377f"},"vehicle_type_id":"4","last_reported":1701068839,"current_range_meters":18800,"station_id":"ce4bh4p2rcd13ifvqe0g","pricing_plan_id":"free"},{"bike_id":"18071508-af46-4542-9019-24e847180611","system_id":"levelo_inurba_marseille","lat":43.302759,"lon":5.400793,"is_reserved":false,"is_disabled":false,"rental_uris":{"android":"levelo://app?vid=18071508-af46-4542-9019-24e847180611","ios":"levelo://app?vid=18071508-af46-4542-9019-24e847180611"},"vehicle_type_id":"4","last_reported":1701068839,"current_range_meters":26400,"station_id":"ce4bgvh2rcd13ifvqcs0","pricing_plan_id":"free"},{"bike_id":"c77d3b82-68c4-4a48-890b-ddc33763a814","system_id":"levelo_inurba_marseille","lat":43.286039,"lon":5.370679,"is_reserved":false,"is_disabled":false,"rental_uris":{"android":"levelo://app?vid=c77d3b82-68c4-4a48-890b-ddc33763a814","ios":"levelo://app?vid=c77d3b82-68c4-4a48-890b-ddc33763a814"},"vehicle_type_id":"4","last_reported":1701068839,"current_range_meters":23200,"station_id":"ce4bht12rcd13ifvqi60","pricing_plan_id":"free"},{"bike_id":"42089b03-6411-4d4e-af8b-0bf22e5ae6ee","system_id":"levelo_inurba_marseille","lat":43.28608,"lon":5.37055,"is_reserved":false,"is_disabled":false,"rental_uris":{"android":"levelo://app?vid=42089b03-6411-4d4e-af8b-0bf22e5ae6ee","ios":"levelo://app?vid=42089b03-6411-4d4e-af8b-0bf22e5ae6ee"},"vehicle_type_id":"4","last_reported":1701068839,"current_range_meters":21600,"station_id":"ce4bht12rcd13ifvqi60","pricing_plan_id":"free"},{"bike_id":"b541f17d-9e8e-47f2-861c-404b1ce485a5","system_id":"levelo_inurba_marseille","lat":43.287184,"lon":5.37937,"is_reserved":false,"is_disabled":false,"rental_uris":{"android":"levelo://app?vid=b541f17d-9e8e-47f2-861c-404b1ce485a5","ios":"levelo://app?vid=b541f17d-9e8e-47f2-861c-404b1ce485a5"},"vehicle_type_id":"4","last_reported":1701068839,"current_range_meters":26000,"station_id":"ce4bh9p2rcd13ifvqec0","pricing_plan_id":"free"},{"bike_id":"5e20e009-4f94-444e-958e-d2bb7a3cc884","system_id":"levelo_inurba_marseille","lat":43.287184,"lon":5.37937,"is_reserved":false,"is_disabled":false,"rental_uris":{"android":"levelo://app?vid=5e20e009-4f94-444e-958e-d2bb7a3cc884","ios":"levelo://app?vid=5e20e009-4f94-444e-958e-d2bb7a3cc884"},"vehicle_type_id":"4","last_reported":1701068839,"current_range_meters":31200,"station_id":"ce4bh9p2rcd13ifvqec0","pricing_plan_id":"free"},{"bike_id":"31dfb1bd-d9ac-4df4-963d-6b6e8c5b3e2f","system_id":"levelo_inurba_marseille","lat":43.28712,"lon":5.37928,"is_reserved":false,"is_disabled":false,"rental_uris":{"android":"levelo://app?vid=31dfb1bd-d9ac-4df4-963d-6b6e8c5b3e2f","ios":"levelo://app?vid=31dfb1bd-d9ac-4df4-963d-6b6e8c5b3e2f"},"vehicle_type_id":"4","last_reported":1701068839,"current_range_meters":10400,"station_id":"ce4bh9p2rcd13ifvqec0","pricing_plan_id":"free"},{"bike_id":"79b94b02-860e-49de-a341-62b1de809517","system_id":"levelo_inurba_marseille","lat":43.28698,"lon":5.37911,"is_reserved":false,"is_disabled":false,"rental_uris":{"android":"levelo://app?vid=79b94b02-860e-49de-a341-62b1de809517","ios":"levelo://app?vid=79b94b02-860e-49de-a341-62b1de809517"},"vehicle_type_id":"4","last_reported":1701068839,"current_range_meters":29600,"station_id":"ce4bh9p2rcd13ifvqec0","pricing_plan_id":"free"},{"bike_id":"faf42639-c83d-47d1-ae3c-629c00b98e62","system_id":"levelo_inurba_marseille","lat":43.28703,"lon":5.37935,"is_reserved":false,"is_disabled":false,"rental_uris":{"android":"levelo://app?vid=faf42639-c83d-47d1-ae3c-629c00b98e62","ios":"levelo://app?vid=faf42639-c83d-47d1-ae3c-629c00b98e62"},"vehicle_type_id":"4","last_reported":1701068839,"current_range_meters":22800,"station_id":"ce4bh9p2rcd13ifvqec0","pricing_plan_id":"free"},{"bike_id":"cca47f6e-60f8-436b-adf0-19b7d5d3337a","system_id":"levelo_inurba_marseille","lat":43.284549,"lon":5.358916,"is_reserved":false,"is_disabled":false,"rental_uris":{"android":"levelo://app?vid=cca47f6e-60f8-436b-adf0-19b7d5d3337a","ios":"levelo://app?vid=cca47f6e-60f8-436b-adf0-19b7d5d3337a"},"vehicle_type_id":"4","last_reported":1701068839,"current_range_meters":1200,"station_id":"ce4bhah2rcd13ifvqei0","pricing_plan_id":"free"},{"bike_id":"85a769b1-2c7e-4ac0-8515-a80f30685d03","system_id":"levelo_inurba_marseille","lat":43.285848,"lon":5.350787,"is_reserved":false,"is_disabled":false,"rental_uris":{"android":"levelo://app?vid=85a769b1-2c7e-4ac0-8515-a80f30685d03","ios":"levelo://app?vid=85a769b1-2c7e-4ac0-8515-a80f30685d03"},"vehicle_type_id":"4","last_reported":1701068839,"current_range_meters":21600,"station_id":"ce4bhch2rcd13ifvqeug","pricing_plan_id":"free"},{"bike_id":"4c4477fa-378d-4351-a94f-1697f8f811e9","system_id":"levelo_inurba_marseille","lat":43.295713,"lon":5.399639,"is_reserved":false,"is_disabled":false,"rental_uris":{"android":"levelo://app?vid=4c4477fa-378d-4351-a94f-1697f8f811e9","ios":"levelo://app?vid=4c4477fa-378d-4351-a94f-1697f8f811e9"},"vehicle_type_id":"4","last_reported":1701068839,"current_range_meters":0,"station_id":"ce4bh312rcd13ifvqdj0","pricing_plan_id":"free"},{"bike_id":"bc455356-cede-4572-b6df-aa452de787f5","system_id":"levelo_inurba_marseille","lat":43.283998,"lon":5.375062,"is_reserved":false,"is_disabled":false,"rental_uris":{"android":"levelo://app?vid=bc455356-cede-4572-b6df-aa452de787f5","ios":"levelo://app?vid=bc455356-cede-4572-b6df-aa452de787f5"},"vehicle_type_id":"4","last_reported":1701068839,"current_range_meters":22000,"station_id":"ce4bh412rcd13ifvqds0","pricing_plan_id":"free"},{"bike_id":"aa073316-adaa-4024-907a-9d86ed908f5a","system_id":"levelo_inurba_marseille","lat":43.284787,"lon":5.384116,"is_reserved":false,"is_disabled":false,"rental_uris":{"android":"levelo://app?vid=aa073316-adaa-4024-907a-9d86ed908f5a","ios":"levelo://app?vid=aa073316-adaa-4024-907a-9d86ed908f5a"},"vehicle_type_id":"4","last_reported":1701068839,"current_range_meters":26800,"station_id":"ce4bh512rcd13ifvqe3g","pricing_plan_id":"free"},{"bike_id":"ae218ad2-a2b0-46b7-8830-7568be3a1e72","system_id":"levelo_inurba_marseille","lat":43.2847,"lon":5.38418,"is_reserved":false,"is_disabled":false,"rental_uris":{"android":"levelo://app?vid=ae218ad2-a2b0-46b7-8830-7568be3a1e72","ios":"levelo://app?vid=ae218ad2-a2b0-46b7-8830-7568be3a1e72"},"vehicle_type_id":"4","last_reported":1701068839,"current_range_meters":23200,"station_id":"ce4bh512rcd13ifvqe3g","pricing_plan_id":"free"},{"bike_id":"582b983c-fb3c-4954-9fbe-058ccbec12fb","system_id":"levelo_inurba_marseille","lat":43.288501,"lon":5.393087,"is_reserved":false,"is_disabled":false,"rental_uris":{"android":"levelo://app?vid=582b983c-fb3c-4954-9fbe-058ccbec12fb","ios":"levelo://app?vid=582b983c-fb3c-4954-9fbe-058ccbec12fb"},"vehicle_type_id":"4","last_reported":1701068839,"current_range_meters":27200,"station_id":"ce4bh2p2rcd13ifvqdi0","pricing_plan_id":"free"},{"bike_id":"db4f52ba-add1-43a0-803e-21abc41ee853","system_id":"levelo_inurba_marseille","lat":43.283494,"lon":5.380945,"is_reserved":false,"is_disabled":false,"rental_uris":{"android":"levelo://app?vid=db4f52ba-add1-43a0-803e-21abc41ee853","ios":"levelo://app?vid=db4f52ba-add1-43a0-803e-21abc41ee853"},"vehicle_type_id":"4","last_reported":1701068839,"current_range_meters":23200,"station_id":"ce4bh412rcd13ifvqdr0","pricing_plan_id":"free"},{"bike_id":"d9b8da2a-2127-4abb-9bd8-663c7dd7c0c8","system_id":"levelo_inurba_marseille","lat":43.283498,"lon":5.380948,"is_reserved":false,"is_disabled":false,"rental_uris":{"android":"levelo://app?vid=d9b8da2a-2127-4abb-9bd8-663c7dd7c0c8","ios":"levelo://app?vid=d9b8da2a-2127-4abb-9bd8-663c7dd7c0c8"},"vehicle_type_id":"4","last_reported":1701068839,"current_range_meters":30400,"station_id":"ce4bh412rcd13ifvqdr0","pricing_plan_id":"free"},{"bike_id":"89fdca47-2c1f-4794-b682-ee4029b7699b","system_id":"levelo_inurba_marseille","lat":43.284224,"lon":5.349873,"is_reserved":false,"is_disabled":false,"rental_uris":{"android":"levelo://app?vid=89fdca47-2c1f-4794-b682-ee4029b7699b","ios":"levelo://app?vid=89fdca47-2c1f-4794-b682-ee4029b7699b"},"vehicle_type_id":"4","last_reported":1701068839,"current_range_meters":30800,"station_id":"ce4bhbh2rcd13ifvqepg","pricing_plan_id":"free"},{"bike_id":"0568a955-4dee-4f47-ba19-33bf26697389","system_id":"levelo_inurba_marseille","lat":43.284219,"lon":5.3497,"is_reserved":false,"is_disabled":false,"rental_uris":{"android":"levelo://app?vid=0568a955-4dee-4f47-ba19-33bf26697389","ios":"levelo://app?vid=0568a955-4dee-4f47-ba19-33bf26697389"},"vehicle_type_id":"4","last_reported":1701068839,"current_range_meters":26000,"station_id":"ce4bhbh2rcd13ifvqepg","pricing_plan_id":"free"},{"bike_id":"e408f6d9-1b93-45ed-95a9-3c165e3c4595","system_id":"levelo_inurba_marseille","lat":43.283498,"lon":5.380948,"is_reserved":false,"is_disabled":false,"rental_uris":{"android":"levelo://app?vid=e408f6d9-1b93-45ed-95a9-3c165e3c4595","ios":"levelo://app?vid=e408f6d9-1b93-45ed-95a9-3c165e3c4595"},"vehicle_type_id":"4","last_reported":1701068839,"current_range_meters":20400,"station_id":"ce4bh412rcd13ifvqdr0","pricing_plan_id":"free"},{"bike_id":"e2284003-4e46-4e0a-93e7-73d05c3666d9","system_id":"levelo_inurba_marseille","lat":43.33508,"lon":5.397755,"is_reserved":false,"is_disabled":false,"rental_uris":{"android":"levelo://app?vid=e2284003-4e46-4e0a-93e7-73d05c3666d9","ios":"levelo://app?vid=e2284003-4e46-4e0a-93e7-73d05c3666d9"},"vehicle_type_id":"4","last_reported":1701068839,"current_range_meters":16000,"station_id":"","pricing_plan_id":"free"},{"bike_id":"a93f64ed-6e41-4325-8410-7f35663a61a5","system_id":"levelo_inurba_marseille","lat":43.289363,"lon":5.396322,"is_reserved":false,"is_disabled":false,"rental_uris":{"android":"levelo://app?vid=a93f64ed-6e41-4325-8410-7f35663a61a5","ios":"levelo://app?vid=a93f64ed-6e41-4325-8410-7f35663a61a5"},"vehicle_type_id":"4","last_reported":1701068839,"current_range_meters":28800,"station_id":"ce4bh3h2rcd13ifvqdn0","pricing_plan_id":"free"},{"bike_id":"8aa3c837-6ecd-4356-8e60-4447e8be4bf9","system_id":"levelo_inurba_marseille","lat":43.292724,"lon":5.401131,"is_reserved":false,"is_disabled":false,"rental_uris":{"android":"levelo://app?vid=8aa3c837-6ecd-4356-8e60-4447e8be4bf9","ios":"levelo://app?vid=8aa3c837-6ecd-4356-8e60-4447e8be4bf9"},"vehicle_type_id":"4","last_reported":1701068839,"current_range_meters":30400,"station_id":"ce4bh312rcd13ifvqdk0","pricing_plan_id":"free"},{"bike_id":"00584029-8953-4993-b331-cbca650b790e","system_id":"levelo_inurba_marseille","lat":43.282734,"lon":5.350756,"is_reserved":false,"is_disabled":false,"rental_uris":{"android":"levelo://app?vid=00584029-8953-4993-b331-cbca650b790e","ios":"levelo://app?vid=00584029-8953-4993-b331-cbca650b790e"},"vehicle_type_id":"4","last_reported":1701068839,"current_range_meters":20800,"station_id":"ce4bhbp2rcd13ifvqerg","pricing_plan_id":"free"},{"bike_id":"2b8b4312-9908-4d24-9a48-03f8ae87c750","system_id":"levelo_inurba_marseille","lat":43.282754,"lon":5.350519,"is_reserved":false,"is_disabled":false,"rental_uris":{"android":"levelo://app?vid=2b8b4312-9908-4d24-9a48-03f8ae87c750","ios":"levelo://app?vid=2b8b4312-9908-4d24-9a48-03f8ae87c750"},"vehicle_type_id":"4","last_reported":1701068839,"current_range_meters":31200,"station_id":"ce4bhbp2rcd13ifvqerg","pricing_plan_id":"free"},{"bike_id":"b3f5de32-7144-465c-a23d-20d488dc562d","system_id":"levelo_inurba_marseille","lat":43.282695,"lon":5.3506,"is_reserved":false,"is_disabled":false,"rental_uris":{"android":"levelo://app?vid=b3f5de32-7144-465c-a23d-20d488dc562d","ios":"levelo://app?vid=b3f5de32-7144-465c-a23d-20d488dc562d"},"vehicle_type_id":"4","last_reported":1701068839,"current_range_meters":24800,"station_id":"ce4bhbp2rcd13ifvqerg","pricing_plan_id":"free"},{"bike_id":"77e2e818-f7b1-4cb5-8029-fbcbcafefa21","system_id":"levelo_inurba_marseille","lat":43.282631,"lon":5.350821,"is_reserved":false,"is_disabled":false,"rental_uris":{"android":"levelo://app?vid=77e2e818-f7b1-4cb5-8029-fbcbcafefa21","ios":"levelo://app?vid=77e2e818-f7b1-4cb5-8029-fbcbcafefa21"},"vehicle_type_id":"4","last_reported":1701068839,"current_range_meters":31200,"station_id":"ce4bhbp2rcd13ifvqerg","pricing_plan_id":"free"},{"bike_id":"bac6088f-6bc3-42d3-8bba-42726760c5cd","system_id":"levelo_inurba_marseille","lat":43.282754,"lon":5.350519,"is_reserved":false,"is_disabled":false,"rental_uris":{"android":"levelo://app?vid=bac6088f-6bc3-42d3-8bba-42726760c5cd","ios":"levelo://app?vid=bac6088f-6bc3-42d3-8bba-42726760c5cd"},"vehicle_type_id":"4","last_reported":1701068839,"current_range_meters":31600,"station_id":"ce4bhbp2rcd13ifvqerg","pricing_plan_id":"free"},{"bike_id":"6b0f7bb4-d7c0-4aec-9bc1-3e53a2e8a5bd","system_id":"levelo_inurba_marseille","lat":43.282659,"lon":5.350714,"is_reserved":false,"is_disabled":false,"rental_uris":{"android":"levelo://app?vid=6b0f7bb4-d7c0-4aec-9bc1-3e53a2e8a5bd","ios":"levelo://app?vid=6b0f7bb4-d7c0-4aec-9bc1-3e53a2e8a5bd"},"vehicle_type_id":"4","last_reported":1701068839,"current_range_meters":30800,"station_id":"ce4bhbp2rcd13ifvqerg","pricing_plan_id":"free"},{"bike_id":"0643b355-5c01-4036-a74d-b0bcd1a9f51f","system_id":"levelo_inurba_marseille","lat":43.282754,"lon":5.350519,"is_reserved":false,"is_disabled":false,"rental_uris":{"android":"levelo://app?vid=0643b355-5c01-4036-a74d-b0bcd1a9f51f","ios":"levelo://app?vid=0643b355-5c01-4036-a74d-b0bcd1a9f51f"},"vehicle_type_id":"4","last_reported":1701068839,"current_range_meters":31600,"station_id":"ce4bhbp2rcd13ifvqerg","pricing_plan_id":"free"},{"bike_id":"e58a5998-c3c3-4fab-a316-9731459a4528","system_id":"levelo_inurba_marseille","lat":43.282754,"lon":5.350519,"is_reserved":false,"is_disabled":false,"rental_uris":{"android":"levelo://app?vid=e58a5998-c3c3-4fab-a316-9731459a4528","ios":"levelo://app?vid=e58a5998-c3c3-4fab-a316-9731459a4528"},"vehicle_type_id":"4","last_reported":1701068839,"current_range_meters":22800,"station_id":"ce4bhbp2rcd13ifvqerg","pricing_plan_id":"free"},{"bike_id":"b79fcaa7-c964-4223-9658-a23ecbc4d3b4","system_id":"levelo_inurba_marseille","lat":43.28262,"lon":5.35069,"is_reserved":false,"is_disabled":false,"rental_uris":{"android":"levelo://app?vid=b79fcaa7-c964-4223-9658-a23ecbc4d3b4","ios":"levelo://app?vid=b79fcaa7-c964-4223-9658-a23ecbc4d3b4"},"vehicle_type_id":"4","last_reported":1701068839,"current_range_meters":29600,"station_id":"ce4bhbp2rcd13ifvqerg","pricing_plan_id":"free"},{"bike_id":"3a48d38e-4300-4794-82af-d0a515756b7d","system_id":"levelo_inurba_marseille","lat":43.283502,"lon":5.386471,"is_reserved":false,"is_disabled":false,"rental_uris":{"android":"levelo://app?vid=3a48d38e-4300-4794-82af-d0a515756b7d","ios":"levelo://app?vid=3a48d38e-4300-4794-82af-d0a515756b7d"},"vehicle_type_id":"4","last_reported":1701068839,"current_range_meters":19200,"station_id":"ce4bh492rcd13ifvqdvg","pricing_plan_id":"free"},{"bike_id":"12a5dc61-7f08-4f39-9331-f646ff1205fa","system_id":"levelo_inurba_marseille","lat":43.283575,"lon":5.38639,"is_reserved":false,"is_disabled":false,"rental_uris":{"android":"levelo://app?vid=12a5dc61-7f08-4f39-9331-f646ff1205fa","ios":"levelo://app?vid=12a5dc61-7f08-4f39-9331-f646ff1205fa"},"vehicle_type_id":"4","last_reported":1701068839,"current_range_meters":30400,"station_id":"ce4bh492rcd13ifvqdvg","pricing_plan_id":"free"},{"bike_id":"afaa3978-337d-42bd-ac29-778f821e7594","system_id":"levelo_inurba_marseille","lat":43.29037,"lon":5.399755,"is_reserved":false,"is_disabled":false,"rental_uris":{"android":"levelo://app?vid=afaa3978-337d-42bd-ac29-778f821e7594","ios":"levelo://app?vid=afaa3978-337d-42bd-ac29-778f821e7594"},"vehicle_type_id":"4","last_reported":1701068839,"current_range_meters":0,"station_id":"ce4bh392rcd13ifvqdm0","pricing_plan_id":"free"},{"bike_id":"2add7ed2-793f-4628-9074-ce565b8e677e","system_id":"levelo_inurba_marseille","lat":43.326605,"lon":5.409903,"is_reserved":false,"is_disabled":false,"rental_uris":{"android":"levelo://app?vid=2add7ed2-793f-4628-9074-ce565b8e677e","ios":"levelo://app?vid=2add7ed2-793f-4628-9074-ce565b8e677e"},"vehicle_type_id":"4","last_reported":1701068839,"current_range_meters":29200,"station_id":"ce4bhpp2rcd13ifvqhgg","pricing_plan_id":"free"},{"bike_id":"c103b530-9c6d-4ac7-adf6-4ae019cb5aa9","system_id":"levelo_inurba_marseille","lat":43.299579,"lon":5.413255,"is_reserved":false,"is_disabled":false,"rental_uris":{"android":"levelo://app?vid=c103b530-9c6d-4ac7-adf6-4ae019cb5aa9","ios":"levelo://app?vid=c103b530-9c6d-4ac7-adf6-4ae019cb5aa9"},"vehicle_type_id":"4","last_reported":1701068839,"current_range_meters":31600,"station_id":"ce4bhp12rcd13ifvqh9g","pricing_plan_id":"free"},{"bike_id":"e0f52cb7-f1d1-4b12-88df-77fceba5d6d0","system_id":"levelo_inurba_marseille","lat":43.279742,"lon":5.38744,"is_reserved":false,"is_disabled":false,"rental_uris":{"android":"levelo://app?vid=e0f52cb7-f1d1-4b12-88df-77fceba5d6d0","ios":"levelo://app?vid=e0f52cb7-f1d1-4b12-88df-77fceba5d6d0"},"vehicle_type_id":"4","last_reported":1701068839,"current_range_meters":22400,"station_id":"ce4bhg12rcd13ifvqf80","pricing_plan_id":"free"},{"bike_id":"6526cad1-2f4b-4db1-8d6b-ce04bc407b31","system_id":"levelo_inurba_marseille","lat":43.34883,"lon":5.37501,"is_reserved":false,"is_disabled":false,"rental_uris":{"android":"levelo://app?vid=6526cad1-2f4b-4db1-8d6b-ce04bc407b31","ios":"levelo://app?vid=6526cad1-2f4b-4db1-8d6b-ce04bc407b31"},"vehicle_type_id":"4","last_reported":1701068839,"current_range_meters":0,"station_id":"","pricing_plan_id":"free"},{"bike_id":"6e212cb0-74b1-4ac5-ae8c-9068b0160566","system_id":"levelo_inurba_marseille","lat":43.325233,"lon":5.414318,"is_reserved":false,"is_disabled":false,"rental_uris":{"android":"levelo://app?vid=6e212cb0-74b1-4ac5-ae8c-9068b0160566","ios":"levelo://app?vid=6e212cb0-74b1-4ac5-ae8c-9068b0160566"},"vehicle_type_id":"4","last_reported":1701068839,"current_range_meters":18800,"station_id":"ce4bhq12rcd13ifvqhhg","pricing_plan_id":"free"},{"bike_id":"d7d5ad38-a706-46bf-a9f7-837653392e36","system_id":"levelo_inurba_marseille","lat":43.303486,"lon":5.418728,"is_reserved":false,"is_disabled":false,"rental_uris":{"android":"levelo://app?vid=d7d5ad38-a706-46bf-a9f7-837653392e36","ios":"levelo://app?vid=d7d5ad38-a706-46bf-a9f7-837653392e36"},"vehicle_type_id":"4","last_reported":1701068839,"current_range_meters":13200,"station_id":"ce4bhop2rcd13ifvqh7g","pricing_plan_id":"free"},{"bike_id":"163a3bbf-9841-4611-b5f2-c1cd0264af3a","system_id":"levelo_inurba_marseille","lat":43.2738,"lon":5.36251,"is_reserved":false,"is_disabled":false,"rental_uris":{"android":"levelo://app?vid=163a3bbf-9841-4611-b5f2-c1cd0264af3a","ios":"levelo://app?vid=163a3bbf-9841-4611-b5f2-c1cd0264af3a"},"vehicle_type_id":"4","last_reported":1701068839,"current_range_meters":24000,"station_id":"ce4bhbh2rcd13ifvqeo0","pricing_plan_id":"free"},{"bike_id":"2b1ede14-5147-471f-a1fb-6dac928eeb5e","system_id":"levelo_inurba_marseille","lat":43.336134,"lon":5.410341,"is_reserved":false,"is_disabled":false,"rental_uris":{"android":"levelo://app?vid=2b1ede14-5147-471f-a1fb-6dac928eeb5e","ios":"levelo://app?vid=2b1ede14-5147-471f-a1fb-6dac928eeb5e"},"vehicle_type_id":"4","last_reported":1701068839,"current_range_meters":25200,"station_id":"ce4bhqh2rcd13ifvqhmg","pricing_plan_id":"free"},{"bike_id":"4f77d8aa-8cd2-4738-8736-452d5e520a45","system_id":"levelo_inurba_marseille","lat":43.33612,"lon":5.410321,"is_reserved":false,"is_disabled":false,"rental_uris":{"android":"levelo://app?vid=4f77d8aa-8cd2-4738-8736-452d5e520a45","ios":"levelo://app?vid=4f77d8aa-8cd2-4738-8736-452d5e520a45"},"vehicle_type_id":"4","last_reported":1701068839,"current_range_meters":4800,"station_id":"ce4bhqh2rcd13ifvqhmg","pricing_plan_id":"free"},{"bike_id":"0eeae51c-7855-4686-ba49-5a63463d5444","system_id":"levelo_inurba_marseille","lat":43.33612,"lon":5.410321,"is_reserved":false,"is_disabled":false,"rental_uris":{"android":"levelo://app?vid=0eeae51c-7855-4686-ba49-5a63463d5444","ios":"levelo://app?vid=0eeae51c-7855-4686-ba49-5a63463d5444"},"vehicle_type_id":"4","last_reported":1701068839,"current_range_meters":18800,"station_id":"ce4bhqh2rcd13ifvqhmg","pricing_plan_id":"free"},{"bike_id":"762a2d7a-e8cf-423b-a632-8002c3ad8f77","system_id":"levelo_inurba_marseille","lat":43.33612,"lon":5.410321,"is_reserved":false,"is_disabled":false,"rental_uris":{"android":"levelo://app?vid=762a2d7a-e8cf-423b-a632-8002c3ad8f77","ios":"levelo://app?vid=762a2d7a-e8cf-423b-a632-8002c3ad8f77"},"vehicle_type_id":"4","last_reported":1701068839,"current_range_meters":20000,"station_id":"ce4bhqh2rcd13ifvqhmg","pricing_plan_id":"free"},{"bike_id":"8ed32079-bc23-4023-9aee-d28e31f5cfdd","system_id":"levelo_inurba_marseille","lat":43.336148,"lon":5.410349,"is_reserved":false,"is_disabled":false,"rental_uris":{"android":"levelo://app?vid=8ed32079-bc23-4023-9aee-d28e31f5cfdd","ios":"levelo://app?vid=8ed32079-bc23-4023-9aee-d28e31f5cfdd"},"vehicle_type_id":"4","last_reported":1701068839,"current_range_meters":28800,"station_id":"ce4bhqh2rcd13ifvqhmg","pricing_plan_id":"free"},{"bike_id":"f659c864-2413-409c-96ba-cdee9e0bd23c","system_id":"levelo_inurba_marseille","lat":43.336134,"lon":5.410341,"is_reserved":false,"is_disabled":false,"rental_uris":{"android":"levelo://app?vid=f659c864-2413-409c-96ba-cdee9e0bd23c","ios":"levelo://app?vid=f659c864-2413-409c-96ba-cdee9e0bd23c"},"vehicle_type_id":"4","last_reported":1701068839,"current_range_meters":23200,"station_id":"ce4bhqh2rcd13ifvqhmg","pricing_plan_id":"free"},{"bike_id":"278549ec-ecac-4ec8-897d-623e54fbd67b","system_id":"levelo_inurba_marseille","lat":43.276771,"lon":5.388799,"is_reserved":false,"is_disabled":false,"rental_uris":{"android":"levelo://app?vid=278549ec-ecac-4ec8-897d-623e54fbd67b","ios":"levelo://app?vid=278549ec-ecac-4ec8-897d-623e54fbd67b"},"vehicle_type_id":"4","last_reported":1701068839,"current_range_meters":21600,"station_id":"ce4bhi12rcd13ifvqfo0","pricing_plan_id":"free"},{"bike_id":"8ef87ac3-8a0d-4ac6-80c0-266e2621bf7f","system_id":"levelo_inurba_marseille","lat":43.27605,"lon":5.39488,"is_reserved":false,"is_disabled":false,"rental_uris":{"android":"levelo://app?vid=8ef87ac3-8a0d-4ac6-80c0-266e2621bf7f","ios":"levelo://app?vid=8ef87ac3-8a0d-4ac6-80c0-266e2621bf7f"},"vehicle_type_id":"4","last_reported":1701068839,"current_range_meters":0,"station_id":"","pricing_plan_id":"free"},{"bike_id":"4fae8898-fda1-4fdc-93bf-566c836279a7","system_id":"levelo_inurba_marseille","lat":43.273155,"lon":5.391015,"is_reserved":false,"is_disabled":false,"rental_uris":{"android":"levelo://app?vid=4fae8898-fda1-4fdc-93bf-566c836279a7","ios":"levelo://app?vid=4fae8898-fda1-4fdc-93bf-566c836279a7"},"vehicle_type_id":"4","last_reported":1701068839,"current_range_meters":29600,"station_id":"ce4bhgp2rcd13ifvqfe0","pricing_plan_id":"free"},{"bike_id":"9bc515c1-42f5-4bec-9ddf-83b23379d046","system_id":"levelo_inurba_marseille","lat":43.274099,"lon":5.394019,"is_reserved":false,"is_disabled":false,"rental_uris":{"android":"levelo://app?vid=9bc515c1-42f5-4bec-9ddf-83b23379d046","ios":"levelo://app?vid=9bc515c1-42f5-4bec-9ddf-83b23379d046"},"vehicle_type_id":"4","last_reported":1701068839,"current_range_meters":29200,"station_id":"ce4bhdp2rcd13ifvqf20","pricing_plan_id":"free"},{"bike_id":"a2c6c60a-80ed-4967-934f-bcad1a0577f4","system_id":"levelo_inurba_marseille","lat":43.304096,"lon":5.425385,"is_reserved":false,"is_disabled":false,"rental_uris":{"android":"levelo://app?vid=a2c6c60a-80ed-4967-934f-bcad1a0577f4","ios":"levelo://app?vid=a2c6c60a-80ed-4967-934f-bcad1a0577f4"},"vehicle_type_id":"4","last_reported":1701068839,"current_range_meters":22800,"station_id":"ce4bhoh2rcd13ifvqh6g","pricing_plan_id":"free"},{"bike_id":"487e8935-2222-4e65-8507-6d483307a42a","system_id":"levelo_inurba_marseille","lat":43.295511,"lon":5.422926,"is_reserved":false,"is_disabled":false,"rental_uris":{"android":"levelo://app?vid=487e8935-2222-4e65-8507-6d483307a42a","ios":"levelo://app?vid=487e8935-2222-4e65-8507-6d483307a42a"},"vehicle_type_id":"4","last_reported":1701068839,"current_range_meters":31200,"station_id":"ce4bhph2rcd13ifvqhdg","pricing_plan_id":"free"},{"bike_id":"3029bb9c-a722-4a0b-80d7-eaec226f56af","system_id":"levelo_inurba_marseille","lat":43.295511,"lon":5.422926,"is_reserved":false,"is_disabled":false,"rental_uris":{"android":"levelo://app?vid=3029bb9c-a722-4a0b-80d7-eaec226f56af","ios":"levelo://app?vid=3029bb9c-a722-4a0b-80d7-eaec226f56af"},"vehicle_type_id":"4","last_reported":1701068839,"current_range_meters":23200,"station_id":"ce4bhph2rcd13ifvqhdg","pricing_plan_id":"free"},{"bike_id":"763b6124-53d3-4313-ae93-709b9e0ea7fb","system_id":"levelo_inurba_marseille","lat":43.295511,"lon":5.422926,"is_reserved":false,"is_disabled":false,"rental_uris":{"android":"levelo://app?vid=763b6124-53d3-4313-ae93-709b9e0ea7fb","ios":"levelo://app?vid=763b6124-53d3-4313-ae93-709b9e0ea7fb"},"vehicle_type_id":"4","last_reported":1701068839,"current_range_meters":15200,"station_id":"ce4bhph2rcd13ifvqhdg","pricing_plan_id":"free"},{"bike_id":"c348d04e-ad94-452e-9497-2ee2ffe3c7ba","system_id":"levelo_inurba_marseille","lat":43.272124,"lon":5.391768,"is_reserved":false,"is_disabled":false,"rental_uris":{"android":"levelo://app?vid=c348d04e-ad94-452e-9497-2ee2ffe3c7ba","ios":"levelo://app?vid=c348d04e-ad94-452e-9497-2ee2ffe3c7ba"},"vehicle_type_id":"4","last_reported":1701068839,"current_range_meters":12800,"station_id":"ce4bhhp2rcd13ifvqfm0","pricing_plan_id":"free"},{"bike_id":"11c530ef-3a1e-4341-9786-f43509d01bc1","system_id":"levelo_inurba_marseille","lat":43.29932,"lon":5.42563,"is_reserved":false,"is_disabled":false,"rental_uris":{"android":"levelo://app?vid=11c530ef-3a1e-4341-9786-f43509d01bc1","ios":"levelo://app?vid=11c530ef-3a1e-4341-9786-f43509d01bc1"},"vehicle_type_id":"4","last_reported":1701068839,"current_range_meters":400,"station_id":"","pricing_plan_id":"free"},{"bike_id":"5801651a-1d12-41b3-a14c-b67ae3978071","system_id":"levelo_inurba_marseille","lat":43.269467,"lon":5.386439,"is_reserved":false,"is_disabled":false,"rental_uris":{"android":"levelo://app?vid=5801651a-1d12-41b3-a14c-b67ae3978071","ios":"levelo://app?vid=5801651a-1d12-41b3-a14c-b67ae3978071"},"vehicle_type_id":"4","last_reported":1701068839,"current_range_meters":26800,"station_id":"ce4bhh92rcd13ifvqfh0","pricing_plan_id":"free"},{"bike_id":"0bba11bc-9103-4915-95cc-31d637c9f73e","system_id":"levelo_inurba_marseille","lat":43.278128,"lon":5.407195,"is_reserved":false,"is_disabled":false,"rental_uris":{"android":"levelo://app?vid=0bba11bc-9103-4915-95cc-31d637c9f73e","ios":"levelo://app?vid=0bba11bc-9103-4915-95cc-31d637c9f73e"},"vehicle_type_id":"4","last_reported":1701068839,"current_range_meters":22400,"station_id":"ce4bhnh2rcd13ifvqgtg","pricing_plan_id":"free"},{"bike_id":"81bd952b-d7f3-4851-9bc7-5c9259ea3de7","system_id":"levelo_inurba_marseille","lat":43.269467,"lon":5.386439,"is_reserved":false,"is_disabled":false,"rental_uris":{"android":"levelo://app?vid=81bd952b-d7f3-4851-9bc7-5c9259ea3de7","ios":"levelo://app?vid=81bd952b-d7f3-4851-9bc7-5c9259ea3de7"},"vehicle_type_id":"4","last_reported":1701068839,"current_range_meters":26400,"station_id":"ce4bhh92rcd13ifvqfh0","pricing_plan_id":"free"},{"bike_id":"e2d6e88b-a748-4e7c-a9a7-994582b16cb9","system_id":"levelo_inurba_marseille","lat":43.269467,"lon":5.386439,"is_reserved":false,"is_disabled":false,"rental_uris":{"android":"levelo://app?vid=e2d6e88b-a748-4e7c-a9a7-994582b16cb9","ios":"levelo://app?vid=e2d6e88b-a748-4e7c-a9a7-994582b16cb9"},"vehicle_type_id":"4","last_reported":1701068839,"current_range_meters":12000,"station_id":"ce4bhh92rcd13ifvqfh0","pricing_plan_id":"free"},{"bike_id":"66ba5ddc-e3ab-4fac-8696-0c262ce2a3ed","system_id":"levelo_inurba_marseille","lat":43.269467,"lon":5.386439,"is_reserved":false,"is_disabled":false,"rental_uris":{"android":"levelo://app?vid=66ba5ddc-e3ab-4fac-8696-0c262ce2a3ed","ios":"levelo://app?vid=66ba5ddc-e3ab-4fac-8696-0c262ce2a3ed"},"vehicle_type_id":"4","last_reported":1701068839,"current_range_meters":25200,"station_id":"ce4bhh92rcd13ifvqfh0","pricing_plan_id":"free"},{"bike_id":"a6f0e1d9-5ab9-40bd-8a5d-6142a454a3f8","system_id":"levelo_inurba_marseille","lat":43.269467,"lon":5.386439,"is_reserved":false,"is_disabled":false,"rental_uris":{"android":"levelo://app?vid=a6f0e1d9-5ab9-40bd-8a5d-6142a454a3f8","ios":"levelo://app?vid=a6f0e1d9-5ab9-40bd-8a5d-6142a454a3f8"},"vehicle_type_id":"4","last_reported":1701068839,"current_range_meters":14400,"station_id":"ce4bhh92rcd13ifvqfh0","pricing_plan_id":"free"},{"bike_id":"567cb524-2322-43f1-9900-b48025bc6424","system_id":"levelo_inurba_marseille","lat":43.269467,"lon":5.386439,"is_reserved":false,"is_disabled":false,"rental_uris":{"android":"levelo://app?vid=567cb524-2322-43f1-9900-b48025bc6424","ios":"levelo://app?vid=567cb524-2322-43f1-9900-b48025bc6424"},"vehicle_type_id":"4","last_reported":1701068839,"current_range_meters":28800,"station_id":"ce4bhh92rcd13ifvqfh0","pricing_plan_id":"free"},{"bike_id":"b330d490-7868-4baa-b55a-3602b380ec61","system_id":"levelo_inurba_marseille","lat":43.269467,"lon":5.386439,"is_reserved":false,"is_disabled":false,"rental_uris":{"android":"levelo://app?vid=b330d490-7868-4baa-b55a-3602b380ec61","ios":"levelo://app?vid=b330d490-7868-4baa-b55a-3602b380ec61"},"vehicle_type_id":"4","last_reported":1701068839,"current_range_meters":17600,"station_id":"ce4bhh92rcd13ifvqfh0","pricing_plan_id":"free"},{"bike_id":"767838bd-aa7f-4128-9692-5357a733ac50","system_id":"levelo_inurba_marseille","lat":43.269467,"lon":5.386439,"is_reserved":false,"is_disabled":false,"rental_uris":{"android":"levelo://app?vid=767838bd-aa7f-4128-9692-5357a733ac50","ios":"levelo://app?vid=767838bd-aa7f-4128-9692-5357a733ac50"},"vehicle_type_id":"4","last_reported":1701068839,"current_range_meters":11200,"station_id":"ce4bhh92rcd13ifvqfh0","pricing_plan_id":"free"},{"bike_id":"0885e841-c1a3-4621-8aa2-cb654c22d8a1","system_id":"levelo_inurba_marseille","lat":43.269467,"lon":5.386439,"is_reserved":false,"is_disabled":false,"rental_uris":{"android":"levelo://app?vid=0885e841-c1a3-4621-8aa2-cb654c22d8a1","ios":"levelo://app?vid=0885e841-c1a3-4621-8aa2-cb654c22d8a1"},"vehicle_type_id":"4","last_reported":1701068839,"current_range_meters":27600,"station_id":"ce4bhh92rcd13ifvqfh0","pricing_plan_id":"free"},{"bike_id":"e3d434dc-b6fd-4968-a92d-3d27b0e193b3","system_id":"levelo_inurba_marseille","lat":43.269467,"lon":5.386439,"is_reserved":false,"is_disabled":false,"rental_uris":{"android":"levelo://app?vid=e3d434dc-b6fd-4968-a92d-3d27b0e193b3","ios":"levelo://app?vid=e3d434dc-b6fd-4968-a92d-3d27b0e193b3"},"vehicle_type_id":"4","last_reported":1701068839,"current_range_meters":28400,"station_id":"ce4bhh92rcd13ifvqfh0","pricing_plan_id":"free"},{"bike_id":"0b231224-60f4-4f30-8754-0626d26040eb","system_id":"levelo_inurba_marseille","lat":43.269467,"lon":5.386439,"is_reserved":false,"is_disabled":false,"rental_uris":{"android":"levelo://app?vid=0b231224-60f4-4f30-8754-0626d26040eb","ios":"levelo://app?vid=0b231224-60f4-4f30-8754-0626d26040eb"},"vehicle_type_id":"4","last_reported":1701068839,"current_range_meters":28400,"station_id":"ce4bhh92rcd13ifvqfh0","pricing_plan_id":"free"},{"bike_id":"c4b5f840-54cd-4b74-8f00-741178b7e63a","system_id":"levelo_inurba_marseille","lat":43.279458,"lon":5.410431,"is_reserved":false,"is_disabled":false,"rental_uris":{"android":"levelo://app?vid=c4b5f840-54cd-4b74-8f00-741178b7e63a","ios":"levelo://app?vid=c4b5f840-54cd-4b74-8f00-741178b7e63a"},"vehicle_type_id":"4","last_reported":1701068839,"current_range_meters":30800,"station_id":"ce4bhnp2rcd13ifvqh0g","pricing_plan_id":"free"},{"bike_id":"e4b68f4a-2ca1-49c2-936e-c6a93135be9a","system_id":"levelo_inurba_marseille","lat":43.26681,"lon":5.382694,"is_reserved":false,"is_disabled":false,"rental_uris":{"android":"levelo://app?vid=e4b68f4a-2ca1-49c2-936e-c6a93135be9a","ios":"levelo://app?vid=e4b68f4a-2ca1-49c2-936e-c6a93135be9a"},"vehicle_type_id":"4","last_reported":1701068839,"current_range_meters":29600,"station_id":"ce4bhg92rcd13ifvqf90","pricing_plan_id":"free"},{"bike_id":"4e935c36-90c4-402d-8a48-9c806e8c7f2f","system_id":"levelo_inurba_marseille","lat":43.26681,"lon":5.382694,"is_reserved":false,"is_disabled":false,"rental_uris":{"android":"levelo://app?vid=4e935c36-90c4-402d-8a48-9c806e8c7f2f","ios":"levelo://app?vid=4e935c36-90c4-402d-8a48-9c806e8c7f2f"},"vehicle_type_id":"4","last_reported":1701068839,"current_range_meters":25200,"station_id":"ce4bhg92rcd13ifvqf90","pricing_plan_id":"free"},{"bike_id":"f23d8119-b478-4639-98c5-6883279f9f84","system_id":"levelo_inurba_marseille","lat":43.32592,"lon":5.43067,"is_reserved":false,"is_disabled":false,"rental_uris":{"android":"levelo://app?vid=f23d8119-b478-4639-98c5-6883279f9f84","ios":"levelo://app?vid=f23d8119-b478-4639-98c5-6883279f9f84"},"vehicle_type_id":"4","last_reported":1701068839,"current_range_meters":20000,"station_id":"","pricing_plan_id":"free"},{"bike_id":"ed30d6a1-b23a-49e5-9c83-5546be72a734","system_id":"levelo_inurba_marseille","lat":43.3259,"lon":5.43075,"is_reserved":false,"is_disabled":false,"rental_uris":{"android":"levelo://app?vid=ed30d6a1-b23a-49e5-9c83-5546be72a734","ios":"levelo://app?vid=ed30d6a1-b23a-49e5-9c83-5546be72a734"},"vehicle_type_id":"4","last_reported":1701068839,"current_range_meters":14800,"station_id":"","pricing_plan_id":"free"},{"bike_id":"d67469ee-5362-4610-a163-fe05ae3cf4f7","system_id":"levelo_inurba_marseille","lat":43.32604,"lon":5.430817,"is_reserved":false,"is_disabled":false,"rental_uris":{"android":"levelo://app?vid=d67469ee-5362-4610-a163-fe05ae3cf4f7","ios":"levelo://app?vid=d67469ee-5362-4610-a163-fe05ae3cf4f7"},"vehicle_type_id":"4","last_reported":1701068839,"current_range_meters":3200,"station_id":"","pricing_plan_id":"free"},{"bike_id":"0921b03f-27ff-4fe8-bdad-8bda3f689d07","system_id":"levelo_inurba_marseille","lat":43.28002,"lon":5.4166,"is_reserved":false,"is_disabled":false,"rental_uris":{"android":"levelo://app?vid=0921b03f-27ff-4fe8-bdad-8bda3f689d07","ios":"levelo://app?vid=0921b03f-27ff-4fe8-bdad-8bda3f689d07"},"vehicle_type_id":"4","last_reported":1701068839,"current_range_meters":20400,"station_id":"ce4bho12rcd13ifvqh1g","pricing_plan_id":"free"},{"bike_id":"56fd5872-e3c1-45ef-aa2a-fc8d7c3f59df","system_id":"levelo_inurba_marseille","lat":43.27986,"lon":5.41659,"is_reserved":false,"is_disabled":false,"rental_uris":{"android":"levelo://app?vid=56fd5872-e3c1-45ef-aa2a-fc8d7c3f59df","ios":"levelo://app?vid=56fd5872-e3c1-45ef-aa2a-fc8d7c3f59df"},"vehicle_type_id":"4","last_reported":1701068839,"current_range_meters":29200,"station_id":"ce4bho12rcd13ifvqh1g","pricing_plan_id":"free"},{"bike_id":"a28176a9-38a4-4b8a-9358-f4dc8b0f141b","system_id":"levelo_inurba_marseille","lat":43.265571,"lon":5.390032,"is_reserved":false,"is_disabled":false,"rental_uris":{"android":"levelo://app?vid=a28176a9-38a4-4b8a-9358-f4dc8b0f141b","ios":"levelo://app?vid=a28176a9-38a4-4b8a-9358-f4dc8b0f141b"},"vehicle_type_id":"4","last_reported":1701068839,"current_range_meters":21600,"station_id":"ce4bhe12rcd13ifvqf30","pricing_plan_id":"free"},{"bike_id":"1510ab53-130e-42a5-a2ef-2525f683e230","system_id":"levelo_inurba_marseille","lat":43.265571,"lon":5.390032,"is_reserved":false,"is_disabled":false,"rental_uris":{"android":"levelo://app?vid=1510ab53-130e-42a5-a2ef-2525f683e230","ios":"levelo://app?vid=1510ab53-130e-42a5-a2ef-2525f683e230"},"vehicle_type_id":"4","last_reported":1701068839,"current_range_meters":20400,"station_id":"ce4bhe12rcd13ifvqf30","pricing_plan_id":"free"},{"bike_id":"5a2164cb-2f4a-4ef0-bb4d-841484f5be4e","system_id":"levelo_inurba_marseille","lat":43.26571,"lon":5.39008,"is_reserved":false,"is_disabled":false,"rental_uris":{"android":"levelo://app?vid=5a2164cb-2f4a-4ef0-bb4d-841484f5be4e","ios":"levelo://app?vid=5a2164cb-2f4a-4ef0-bb4d-841484f5be4e"},"vehicle_type_id":"4","last_reported":1701068839,"current_range_meters":2400,"station_id":"ce4bhe12rcd13ifvqf30","pricing_plan_id":"free"},{"bike_id":"95a7a0f8-a8cc-434b-af43-e3e3bc277051","system_id":"levelo_inurba_marseille","lat":43.26567,"lon":5.39011,"is_reserved":false,"is_disabled":false,"rental_uris":{"android":"levelo://app?vid=95a7a0f8-a8cc-434b-af43-e3e3bc277051","ios":"levelo://app?vid=95a7a0f8-a8cc-434b-af43-e3e3bc277051"},"vehicle_type_id":"4","last_reported":1701068839,"current_range_meters":17200,"station_id":"ce4bhe12rcd13ifvqf30","pricing_plan_id":"free"},{"bike_id":"38113c21-611a-455c-aa70-a8bcfa367512","system_id":"levelo_inurba_marseille","lat":43.26186,"lon":5.37442,"is_reserved":false,"is_disabled":false,"rental_uris":{"android":"levelo://app?vid=38113c21-611a-455c-aa70-a8bcfa367512","ios":"levelo://app?vid=38113c21-611a-455c-aa70-a8bcfa367512"},"vehicle_type_id":"4","last_reported":1701068839,"current_range_meters":28000,"station_id":"ce4bhgp2rcd13ifvqfc0","pricing_plan_id":"free"},{"bike_id":"199fc432-c004-47d5-94ed-e7650cf64526","system_id":"levelo_inurba_marseille","lat":43.317083,"lon":5.43703,"is_reserved":false,"is_disabled":false,"rental_uris":{"android":"levelo://app?vid=199fc432-c004-47d5-94ed-e7650cf64526","ios":"levelo://app?vid=199fc432-c004-47d5-94ed-e7650cf64526"},"vehicle_type_id":"4","last_reported":1701068839,"current_range_meters":20000,"station_id":"ce4bhp92rcd13ifvqhcg","pricing_plan_id":"free"},{"bike_id":"cdf2c497-f033-4c0f-80f4-b4e51e4970c2","system_id":"levelo_inurba_marseille","lat":43.271729,"lon":5.409894,"is_reserved":false,"is_disabled":false,"rental_uris":{"android":"levelo://app?vid=cdf2c497-f033-4c0f-80f4-b4e51e4970c2","ios":"levelo://app?vid=cdf2c497-f033-4c0f-80f4-b4e51e4970c2"},"vehicle_type_id":"4","last_reported":1701068839,"current_range_meters":20000,"station_id":"ce4bhl12rcd13ifvqgf0","pricing_plan_id":"free"},{"bike_id":"7c5a83ac-336c-4b91-a5ea-82b3c6d6127d","system_id":"levelo_inurba_marseille","lat":43.298768,"lon":5.43643,"is_reserved":false,"is_disabled":false,"rental_uris":{"android":"levelo://app?vid=7c5a83ac-336c-4b91-a5ea-82b3c6d6127d","ios":"levelo://app?vid=7c5a83ac-336c-4b91-a5ea-82b3c6d6127d"},"vehicle_type_id":"4","last_reported":1701068839,"current_range_meters":31600,"station_id":"ce4bhpp2rcd13ifvqhfg","pricing_plan_id":"free"},{"bike_id":"9a5ca6f0-6f31-4d5e-bf3e-7f028d92f2c5","system_id":"levelo_inurba_marseille","lat":43.298768,"lon":5.43643,"is_reserved":false,"is_disabled":false,"rental_uris":{"android":"levelo://app?vid=9a5ca6f0-6f31-4d5e-bf3e-7f028d92f2c5","ios":"levelo://app?vid=9a5ca6f0-6f31-4d5e-bf3e-7f028d92f2c5"},"vehicle_type_id":"4","last_reported":1701068839,"current_range_meters":28800,"station_id":"ce4bhpp2rcd13ifvqhfg","pricing_plan_id":"free"},{"bike_id":"f4f2e1d5-dafa-412d-9b3a-3611814786ce","system_id":"levelo_inurba_marseille","lat":43.298768,"lon":5.43643,"is_reserved":false,"is_disabled":false,"rental_uris":{"android":"levelo://app?vid=f4f2e1d5-dafa-412d-9b3a-3611814786ce","ios":"levelo://app?vid=f4f2e1d5-dafa-412d-9b3a-3611814786ce"},"vehicle_type_id":"4","last_reported":1701068839,"current_range_meters":31600,"station_id":"ce4bhpp2rcd13ifvqhfg","pricing_plan_id":"free"},{"bike_id":"3e9dd4fa-9528-4f08-81eb-29af05c4e353","system_id":"levelo_inurba_marseille","lat":43.281565,"lon":5.426357,"is_reserved":false,"is_disabled":false,"rental_uris":{"android":"levelo://app?vid=3e9dd4fa-9528-4f08-81eb-29af05c4e353","ios":"levelo://app?vid=3e9dd4fa-9528-4f08-81eb-29af05c4e353"},"vehicle_type_id":"4","last_reported":1701068839,"current_range_meters":29600,"station_id":"ce4bhnh2rcd13ifvqgug","pricing_plan_id":"free"},{"bike_id":"0c05ab08-fccb-4b28-99b5-80370c74c000","system_id":"levelo_inurba_marseille","lat":43.281548,"lon":5.42643,"is_reserved":false,"is_disabled":false,"rental_uris":{"android":"levelo://app?vid=0c05ab08-fccb-4b28-99b5-80370c74c000","ios":"levelo://app?vid=0c05ab08-fccb-4b28-99b5-80370c74c000"},"vehicle_type_id":"4","last_reported":1701068839,"current_range_meters":31200,"station_id":"ce4bhnh2rcd13ifvqgug","pricing_plan_id":"free"},{"bike_id":"3f341b3a-760d-4088-a3d9-99bad999f571","system_id":"levelo_inurba_marseille","lat":43.281548,"lon":5.42643,"is_reserved":false,"is_disabled":false,"rental_uris":{"android":"levelo://app?vid=3f341b3a-760d-4088-a3d9-99bad999f571","ios":"levelo://app?vid=3f341b3a-760d-4088-a3d9-99bad999f571"},"vehicle_type_id":"4","last_reported":1701068839,"current_range_meters":30800,"station_id":"ce4bhnh2rcd13ifvqgug","pricing_plan_id":"free"},{"bike_id":"4bde6c20-2dbd-45f6-bbf4-21e9f766e141","system_id":"levelo_inurba_marseille","lat":43.281548,"lon":5.42643,"is_reserved":false,"is_disabled":false,"rental_uris":{"android":"levelo://app?vid=4bde6c20-2dbd-45f6-bbf4-21e9f766e141","ios":"levelo://app?vid=4bde6c20-2dbd-45f6-bbf4-21e9f766e141"},"vehicle_type_id":"4","last_reported":1701068839,"current_range_meters":31600,"station_id":"ce4bhnh2rcd13ifvqgug","pricing_plan_id":"free"},{"bike_id":"0b2028e1-203e-4516-9904-d1a8ab768044","system_id":"levelo_inurba_marseille","lat":43.281548,"lon":5.42643,"is_reserved":false,"is_disabled":false,"rental_uris":{"android":"levelo://app?vid=0b2028e1-203e-4516-9904-d1a8ab768044","ios":"levelo://app?vid=0b2028e1-203e-4516-9904-d1a8ab768044"},"vehicle_type_id":"4","last_reported":1701068839,"current_range_meters":28800,"station_id":"ce4bhnh2rcd13ifvqgug","pricing_plan_id":"free"},{"bike_id":"308d4f6a-f219-456a-bab2-50b410bff3d3","system_id":"levelo_inurba_marseille","lat":43.275028,"lon":5.424534,"is_reserved":false,"is_disabled":false,"rental_uris":{"android":"levelo://app?vid=308d4f6a-f219-456a-bab2-50b410bff3d3","ios":"levelo://app?vid=308d4f6a-f219-456a-bab2-50b410bff3d3"},"vehicle_type_id":"4","last_reported":1701068839,"current_range_meters":24800,"station_id":"ce4bhn92rcd13ifvqgrg","pricing_plan_id":"free"},{"bike_id":"af2159a7-533c-44b2-9f91-55ad689fd878","system_id":"levelo_inurba_marseille","lat":43.275028,"lon":5.424534,"is_reserved":false,"is_disabled":false,"rental_uris":{"android":"levelo://app?vid=af2159a7-533c-44b2-9f91-55ad689fd878","ios":"levelo://app?vid=af2159a7-533c-44b2-9f91-55ad689fd878"},"vehicle_type_id":"4","last_reported":1701068839,"current_range_meters":26400,"station_id":"ce4bhn92rcd13ifvqgrg","pricing_plan_id":"free"},{"bike_id":"a546cec7-c461-4563-8f9d-9c8f6cf81155","system_id":"levelo_inurba_marseille","lat":43.275028,"lon":5.424534,"is_reserved":false,"is_disabled":false,"rental_uris":{"android":"levelo://app?vid=a546cec7-c461-4563-8f9d-9c8f6cf81155","ios":"levelo://app?vid=a546cec7-c461-4563-8f9d-9c8f6cf81155"},"vehicle_type_id":"4","last_reported":1701068839,"current_range_meters":22400,"station_id":"ce4bhn92rcd13ifvqgrg","pricing_plan_id":"free"},{"bike_id":"155eb1f4-e4ff-4151-870f-9f53e6430e9c","system_id":"levelo_inurba_marseille","lat":43.275028,"lon":5.424534,"is_reserved":false,"is_disabled":false,"rental_uris":{"android":"levelo://app?vid=155eb1f4-e4ff-4151-870f-9f53e6430e9c","ios":"levelo://app?vid=155eb1f4-e4ff-4151-870f-9f53e6430e9c"},"vehicle_type_id":"4","last_reported":1701068839,"current_range_meters":30800,"station_id":"ce4bhn92rcd13ifvqgrg","pricing_plan_id":"free"},{"bike_id":"959cfa62-968d-4525-a72f-0617db6a1c7d","system_id":"levelo_inurba_marseille","lat":43.275028,"lon":5.424534,"is_reserved":false,"is_disabled":false,"rental_uris":{"android":"levelo://app?vid=959cfa62-968d-4525-a72f-0617db6a1c7d","ios":"levelo://app?vid=959cfa62-968d-4525-a72f-0617db6a1c7d"},"vehicle_type_id":"4","last_reported":1701068839,"current_range_meters":29200,"station_id":"ce4bhn92rcd13ifvqgrg","pricing_plan_id":"free"},{"bike_id":"1dad8be2-a25a-4d6a-8d77-523cccd2cf17","system_id":"levelo_inurba_marseille","lat":43.275028,"lon":5.424534,"is_reserved":false,"is_disabled":false,"rental_uris":{"android":"levelo://app?vid=1dad8be2-a25a-4d6a-8d77-523cccd2cf17","ios":"levelo://app?vid=1dad8be2-a25a-4d6a-8d77-523cccd2cf17"},"vehicle_type_id":"4","last_reported":1701068839,"current_range_meters":14000,"station_id":"ce4bhn92rcd13ifvqgrg","pricing_plan_id":"free"},{"bike_id":"5f35bd39-e262-47bd-9e19-83bbf6afce13","system_id":"levelo_inurba_marseille","lat":43.275028,"lon":5.424534,"is_reserved":false,"is_disabled":false,"rental_uris":{"android":"levelo://app?vid=5f35bd39-e262-47bd-9e19-83bbf6afce13","ios":"levelo://app?vid=5f35bd39-e262-47bd-9e19-83bbf6afce13"},"vehicle_type_id":"4","last_reported":1701068839,"current_range_meters":20400,"station_id":"ce4bhn92rcd13ifvqgrg","pricing_plan_id":"free"},{"bike_id":"04e4528d-3dca-4718-a06e-9b9442ef1733","system_id":"levelo_inurba_marseille","lat":43.275028,"lon":5.424534,"is_reserved":false,"is_disabled":false,"rental_uris":{"android":"levelo://app?vid=04e4528d-3dca-4718-a06e-9b9442ef1733","ios":"levelo://app?vid=04e4528d-3dca-4718-a06e-9b9442ef1733"},"vehicle_type_id":"4","last_reported":1701068839,"current_range_meters":18400,"station_id":"ce4bhn92rcd13ifvqgrg","pricing_plan_id":"free"},{"bike_id":"bbe4107a-6aeb-4082-b5e5-07a63c14584c","system_id":"levelo_inurba_marseille","lat":43.275028,"lon":5.424534,"is_reserved":false,"is_disabled":false,"rental_uris":{"android":"levelo://app?vid=bbe4107a-6aeb-4082-b5e5-07a63c14584c","ios":"levelo://app?vid=bbe4107a-6aeb-4082-b5e5-07a63c14584c"},"vehicle_type_id":"4","last_reported":1701068839,"current_range_meters":28000,"station_id":"ce4bhn92rcd13ifvqgrg","pricing_plan_id":"free"},{"bike_id":"951f48e1-1166-4cd7-9e50-4b9463106234","system_id":"levelo_inurba_marseille","lat":43.275028,"lon":5.424534,"is_reserved":false,"is_disabled":false,"rental_uris":{"android":"levelo://app?vid=951f48e1-1166-4cd7-9e50-4b9463106234","ios":"levelo://app?vid=951f48e1-1166-4cd7-9e50-4b9463106234"},"vehicle_type_id":"4","last_reported":1701068839,"current_range_meters":15200,"station_id":"ce4bhn92rcd13ifvqgrg","pricing_plan_id":"free"},{"bike_id":"79c0b3d1-7810-4e03-b6bd-51e9ce2d8f62","system_id":"levelo_inurba_marseille","lat":43.275028,"lon":5.424534,"is_reserved":false,"is_disabled":false,"rental_uris":{"android":"levelo://app?vid=79c0b3d1-7810-4e03-b6bd-51e9ce2d8f62","ios":"levelo://app?vid=79c0b3d1-7810-4e03-b6bd-51e9ce2d8f62"},"vehicle_type_id":"4","last_reported":1701068839,"current_range_meters":21600,"station_id":"ce4bhn92rcd13ifvqgrg","pricing_plan_id":"free"},{"bike_id":"a35210d0-3a66-445a-8c4c-115a005ab7ef","system_id":"levelo_inurba_marseille","lat":43.275028,"lon":5.424534,"is_reserved":false,"is_disabled":false,"rental_uris":{"android":"levelo://app?vid=a35210d0-3a66-445a-8c4c-115a005ab7ef","ios":"levelo://app?vid=a35210d0-3a66-445a-8c4c-115a005ab7ef"},"vehicle_type_id":"4","last_reported":1701068839,"current_range_meters":2800,"station_id":"ce4bhn92rcd13ifvqgrg","pricing_plan_id":"free"},{"bike_id":"0833633d-26ae-4ca8-9da5-0a1ffd3c3484","system_id":"levelo_inurba_marseille","lat":43.275028,"lon":5.424534,"is_reserved":false,"is_disabled":false,"rental_uris":{"android":"levelo://app?vid=0833633d-26ae-4ca8-9da5-0a1ffd3c3484","ios":"levelo://app?vid=0833633d-26ae-4ca8-9da5-0a1ffd3c3484"},"vehicle_type_id":"4","last_reported":1701068839,"current_range_meters":24800,"station_id":"ce4bhn92rcd13ifvqgrg","pricing_plan_id":"free"},{"bike_id":"c85f7616-3a9e-47a4-ae16-28a03e51ab4f","system_id":"levelo_inurba_marseille","lat":43.28929,"lon":5.438754,"is_reserved":false,"is_disabled":false,"rental_uris":{"android":"levelo://app?vid=c85f7616-3a9e-47a4-ae16-28a03e51ab4f","ios":"levelo://app?vid=c85f7616-3a9e-47a4-ae16-28a03e51ab4f"},"vehicle_type_id":"4","last_reported":1701068839,"current_range_meters":8400,"station_id":"","pricing_plan_id":"free"},{"bike_id":"c8444706-48a7-455d-a1a2-aba069840d26","system_id":"levelo_inurba_marseille","lat":43.255876,"lon":5.382365,"is_reserved":false,"is_disabled":false,"rental_uris":{"android":"levelo://app?vid=c8444706-48a7-455d-a1a2-aba069840d26","ios":"levelo://app?vid=c8444706-48a7-455d-a1a2-aba069840d26"},"vehicle_type_id":"4","last_reported":1701068839,"current_range_meters":28400,"station_id":"ce4bhih2rcd13ifvqfs0","pricing_plan_id":"free"},{"bike_id":"fdc8a706-be1e-4d20-9b4b-c23721d9d697","system_id":"levelo_inurba_marseille","lat":43.25578,"lon":5.382214,"is_reserved":false,"is_disabled":false,"rental_uris":{"android":"levelo://app?vid=fdc8a706-be1e-4d20-9b4b-c23721d9d697","ios":"levelo://app?vid=fdc8a706-be1e-4d20-9b4b-c23721d9d697"},"vehicle_type_id":"4","last_reported":1701068839,"current_range_meters":30000,"station_id":"ce4bhih2rcd13ifvqfs0","pricing_plan_id":"free"},{"bike_id":"bb03d128-ef00-4706-a798-f82ccd3fae64","system_id":"levelo_inurba_marseille","lat":43.255796,"lon":5.382346,"is_reserved":false,"is_disabled":false,"rental_uris":{"android":"levelo://app?vid=bb03d128-ef00-4706-a798-f82ccd3fae64","ios":"levelo://app?vid=bb03d128-ef00-4706-a798-f82ccd3fae64"},"vehicle_type_id":"4","last_reported":1701068839,"current_range_meters":0,"station_id":"ce4bhih2rcd13ifvqfs0","pricing_plan_id":"free"},{"bike_id":"e871c6ca-d68c-47cb-a0f7-b529cf62e049","system_id":"levelo_inurba_marseille","lat":43.258224,"lon":5.394369,"is_reserved":false,"is_disabled":false,"rental_uris":{"android":"levelo://app?vid=e871c6ca-d68c-47cb-a0f7-b529cf62e049","ios":"levelo://app?vid=e871c6ca-d68c-47cb-a0f7-b529cf62e049"},"vehicle_type_id":"4","last_reported":1701068839,"current_range_meters":12800,"station_id":"ce4bhip2rcd13ifvqft0","pricing_plan_id":"free"},{"bike_id":"eda1ca8b-2ec8-49cd-a1f8-8a4e4724d065","system_id":"levelo_inurba_marseille","lat":43.255,"lon":5.37643,"is_reserved":false,"is_disabled":false,"rental_uris":{"android":"levelo://app?vid=eda1ca8b-2ec8-49cd-a1f8-8a4e4724d065","ios":"levelo://app?vid=eda1ca8b-2ec8-49cd-a1f8-8a4e4724d065"},"vehicle_type_id":"4","last_reported":1701068839,"current_range_meters":28000,"station_id":"ce4bhh12rcd13ifvqff0","pricing_plan_id":"free"},{"bike_id":"a8f21dbf-064d-4d87-9c0c-ba80a9371b57","system_id":"levelo_inurba_marseille","lat":43.25495,"lon":5.37647,"is_reserved":false,"is_disabled":false,"rental_uris":{"android":"levelo://app?vid=a8f21dbf-064d-4d87-9c0c-ba80a9371b57","ios":"levelo://app?vid=a8f21dbf-064d-4d87-9c0c-ba80a9371b57"},"vehicle_type_id":"4","last_reported":1701068839,"current_range_meters":22000,"station_id":"ce4bhh12rcd13ifvqff0","pricing_plan_id":"free"},{"bike_id":"b480fa59-7130-402b-bd02-042fb602c091","system_id":"levelo_inurba_marseille","lat":43.254947,"lon":5.376454,"is_reserved":false,"is_disabled":false,"rental_uris":{"android":"levelo://app?vid=b480fa59-7130-402b-bd02-042fb602c091","ios":"levelo://app?vid=b480fa59-7130-402b-bd02-042fb602c091"},"vehicle_type_id":"4","last_reported":1701068839,"current_range_meters":28000,"station_id":"ce4bhh12rcd13ifvqff0","pricing_plan_id":"free"},{"bike_id":"3764d48b-8e61-4222-bf2f-e0a7f6536aa8","system_id":"levelo_inurba_marseille","lat":43.27063,"lon":5.42262,"is_reserved":false,"is_disabled":false,"rental_uris":{"android":"levelo://app?vid=3764d48b-8e61-4222-bf2f-e0a7f6536aa8","ios":"levelo://app?vid=3764d48b-8e61-4222-bf2f-e0a7f6536aa8"},"vehicle_type_id":"4","last_reported":1701068839,"current_range_meters":26800,"station_id":"ce4bhk92rcd13ifvqgb0","pricing_plan_id":"free"},{"bike_id":"fa94e1b3-924d-484c-aa3a-070aacbdbbfd","system_id":"levelo_inurba_marseille","lat":43.27064,"lon":5.42268,"is_reserved":false,"is_disabled":false,"rental_uris":{"android":"levelo://app?vid=fa94e1b3-924d-484c-aa3a-070aacbdbbfd","ios":"levelo://app?vid=fa94e1b3-924d-484c-aa3a-070aacbdbbfd"},"vehicle_type_id":"4","last_reported":1701068839,"current_range_meters":25600,"station_id":"ce4bhk92rcd13ifvqgb0","pricing_plan_id":"free"},{"bike_id":"6b7129a8-bf11-43e9-84b5-ec0f7d54b178","system_id":"levelo_inurba_marseille","lat":43.258658,"lon":5.398935,"is_reserved":false,"is_disabled":false,"rental_uris":{"android":"levelo://app?vid=6b7129a8-bf11-43e9-84b5-ec0f7d54b178","ios":"levelo://app?vid=6b7129a8-bf11-43e9-84b5-ec0f7d54b178"},"vehicle_type_id":"4","last_reported":1701068839,"current_range_meters":26000,"station_id":"ce4bhl92rcd13ifvqghg","pricing_plan_id":"free"},{"bike_id":"5e4197b0-6059-429f-8a42-0dea93c6e0fc","system_id":"levelo_inurba_marseille","lat":43.258658,"lon":5.398935,"is_reserved":false,"is_disabled":false,"rental_uris":{"android":"levelo://app?vid=5e4197b0-6059-429f-8a42-0dea93c6e0fc","ios":"levelo://app?vid=5e4197b0-6059-429f-8a42-0dea93c6e0fc"},"vehicle_type_id":"4","last_reported":1701068839,"current_range_meters":30000,"station_id":"ce4bhl92rcd13ifvqghg","pricing_plan_id":"free"},{"bike_id":"91465675-1e5d-439d-9a54-c9ce949abf39","system_id":"levelo_inurba_marseille","lat":43.25934,"lon":5.40916,"is_reserved":false,"is_disabled":false,"rental_uris":{"android":"levelo://app?vid=91465675-1e5d-439d-9a54-c9ce949abf39","ios":"levelo://app?vid=91465675-1e5d-439d-9a54-c9ce949abf39"},"vehicle_type_id":"4","last_reported":1701068839,"current_range_meters":18800,"station_id":"ce4bhm92rcd13ifvqglg","pricing_plan_id":"free"},{"bike_id":"a3db2d3f-7cb8-4611-8b38-01ed171cfc8d","system_id":"levelo_inurba_marseille","lat":43.250009,"lon":5.389195,"is_reserved":false,"is_disabled":false,"rental_uris":{"android":"levelo://app?vid=a3db2d3f-7cb8-4611-8b38-01ed171cfc8d","ios":"levelo://app?vid=a3db2d3f-7cb8-4611-8b38-01ed171cfc8d"},"vehicle_type_id":"4","last_reported":1701068839,"current_range_meters":31600,"station_id":"ce4bhgp2rcd13ifvqfd0","pricing_plan_id":"free"},{"bike_id":"bd48fc0c-1d9f-492a-bce1-06ae8515f233","system_id":"levelo_inurba_marseille","lat":43.250009,"lon":5.389195,"is_reserved":false,"is_disabled":false,"rental_uris":{"android":"levelo://app?vid=bd48fc0c-1d9f-492a-bce1-06ae8515f233","ios":"levelo://app?vid=bd48fc0c-1d9f-492a-bce1-06ae8515f233"},"vehicle_type_id":"4","last_reported":1701068839,"current_range_meters":19200,"station_id":"ce4bhgp2rcd13ifvqfd0","pricing_plan_id":"free"},{"bike_id":"a8dc9dcb-9ecc-447d-813f-081bfb6303ed","system_id":"levelo_inurba_marseille","lat":43.250023,"lon":5.38919,"is_reserved":false,"is_disabled":false,"rental_uris":{"android":"levelo://app?vid=a8dc9dcb-9ecc-447d-813f-081bfb6303ed","ios":"levelo://app?vid=a8dc9dcb-9ecc-447d-813f-081bfb6303ed"},