{"last_updated":1718302222,"ttl":30,"version":"2.2","data":{"bikes":[{"bike_id":"bfd4e5c8-9216-4f63-ad86-b007b963da8d","system_id":"levelo_inurba_marseille","lat":43.312239,"lon":5.368562,"is_reserved":false,"is_disabled":false,"rental_uris":{"android":"levelo://app?vid=bfd4e5c8-9216-4f63-ad86-b007b963da8d","ios":"levelo://app?vid=bfd4e5c8-9216-4f63-ad86-b007b963da8d"},"vehicle_type_id":"4","last_reported":1718302222,"current_range_meters":14000,"station_id":"ce4bgl92rcd13ifvqbq0","pricing_plan_id":"cebpf4jnsgd1na2vs0mg"},{"bike_id":"5adc0d83-f559-4aa6-a1cf-ffe906fd7a4b","system_id":"levelo_inurba_marseille","lat":43.312239,"lon":5.368562,"is_reserved":false,"is_disabled":false,"rental_uris":{"android":"levelo://app?vid=5adc0d83-f559-4aa6-a1cf-ffe906fd7a4b","ios":"levelo://app?vid=5adc0d83-f559-4aa6-a1cf-ffe906fd7a4b"},"vehicle_type_id":"4","last_reported":1718302222,"current_range_meters":0,"station_id":"ce4bgl92rcd13ifvqbq0","pricing_plan_id":"cebpf4jnsgd1na2vs0mg"},{"bike_id":"53c31341-5c23-4154-a1d0-36490b691ee9","system_id":"levelo_inurba_marseille","lat":43.312239,"lon":5.368562,"is_reserved":false,"is_disabled":false,"rental_uris":{"android":"levelo://app?vid=53c31341-5c23-4154-a1d0-36490b691ee9","ios":"levelo://app?vid=53c31341-5c23-4154-a1d0-36490b691ee9"},"vehicle_type_id":"4","last_reported":1718302222,"current_range_meters":4000,"station_id":"ce4bgl92rcd13ifvqbq0","pricing_plan_id":"cebpf4jnsgd1na2vs0mg"},{"bike_id":"54bb31d0-8bee-4ead-a8bd-37edca7df7d4","system_id":"levelo_inurba_marseille","lat":43.31512,"lon":5.37116,"is_reserved":false,"is_disabled":false,"rental_uris":{"android":"levelo://app?vid=54bb31d0-8bee-4ead-a8bd-37edca7df7d4","ios":"levelo://app?vid=54bb31d0-8bee-4ead-a8bd-37edca7df7d4"},"vehicle_type_id":"4","last_reported":1718302222,"current_range_meters":0,"station_id":"","pricing_plan_id":"cebpf4jnsgd1na2vs0mg"},{"bike_id":"b57a8557-38c5-496a-9d99-d918baad2043","system_id":"levelo_inurba_marseille","lat":43.31491,"lon":5.373,"is_reserved":false,"is_disabled":false,"rental_uris":{"android":"levelo://app?vid=b57a8557-38c5-496a-9d99-d918baad2043","ios":"levelo://app?vid=b57a8557-38c5-496a-9d99-d918baad2043"},"vehicle_type_id":"4","last_reported":1718302222,"current_range_meters":0,"station_id":"ce4bgt12rcd13ifvqcd0","pricing_plan_id":"cebpf4jnsgd1na2vs0mg"},{"bike_id":"e7f59020-a1d8-4056-8659-2222cbb53375","system_id":"levelo_inurba_marseille","lat":43.314811,"lon":5.373103,"is_reserved":false,"is_disabled":false,"rental_uris":{"android":"levelo://app?vid=e7f59020-a1d8-4056-8659-2222cbb53375","ios":"levelo://app?vid=e7f59020-a1d8-4056-8659-2222cbb53375"},"vehicle_type_id":"4","last_reported":1718302222,"current_range_meters":1600,"station_id":"ce4bgt12rcd13ifvqcd0","pricing_plan_id":"cebpf4jnsgd1na2vs0mg"},{"bike_id":"b60e277a-2212-4f42-8691-c835633c177c","system_id":"levelo_inurba_marseille","lat":43.30995,"lon":5.37529,"is_reserved":false,"is_disabled":false,"rental_uris":{"android":"levelo://app?vid=b60e277a-2212-4f42-8691-c835633c177c","ios":"levelo://app?vid=b60e277a-2212-4f42-8691-c835633c177c"},"vehicle_type_id":"4","last_reported":1718302222,"current_range_meters":0,"station_id":"","pricing_plan_id":"cebpf4jnsgd1na2vs0mg"},{"bike_id":"9cd4e2aa-a6b4-4b00-87bb-81aa193202fc","system_id":"levelo_inurba_marseille","lat":43.30594,"lon":5.37212,"is_reserved":false,"is_disabled":false,"rental_uris":{"android":"levelo://app?vid=9cd4e2aa-a6b4-4b00-87bb-81aa193202fc","ios":"levelo://app?vid=9cd4e2aa-a6b4-4b00-87bb-81aa193202fc"},"vehicle_type_id":"4","last_reported":1718302222,"current_range_meters":400,"station_id":"ce4bgqh2rcd13ifvqc4g","pricing_plan_id":"cebpf4jnsgd1na2vs0mg"},{"bike_id":"d75acf1f-f316-4da7-9883-85e25c5b98d1","system_id":"levelo_inurba_marseille","lat":43.305989,"lon":5.37225,"is_reserved":false,"is_disabled":false,"rental_uris":{"android":"levelo://app?vid=d75acf1f-f316-4da7-9883-85e25c5b98d1","ios":"levelo://app?vid=d75acf1f-f316-4da7-9883-85e25c5b98d1"},"vehicle_type_id":"4","last_reported":1718302222,"current_range_meters":0,"station_id":"ce4bgqh2rcd13ifvqc4g","pricing_plan_id":"cebpf4jnsgd1na2vs0mg"},{"bike_id":"37c263d8-fd9d-4f79-a4d2-772ec28a351a","system_id":"levelo_inurba_marseille","lat":43.317075,"lon":5.377367,"is_reserved":false,"is_disabled":false,"rental_uris":{"android":"levelo://app?vid=37c263d8-fd9d-4f79-a4d2-772ec28a351a","ios":"levelo://app?vid=37c263d8-fd9d-4f79-a4d2-772ec28a351a"},"vehicle_type_id":"4","last_reported":1718302222,"current_range_meters":13600,"station_id":"ce4bgth2rcd13ifvqch0","pricing_plan_id":"cebpf4jnsgd1na2vs0mg"},{"bike_id":"68a867ae-7c39-4bbe-b34a-5c67ab10e53c","system_id":"levelo_inurba_marseille","lat":43.317075,"lon":5.377367,"is_reserved":false,"is_disabled":false,"rental_uris":{"android":"levelo://app?vid=68a867ae-7c39-4bbe-b34a-5c67ab10e53c","ios":"levelo://app?vid=68a867ae-7c39-4bbe-b34a-5c67ab10e53c"},"vehicle_type_id":"4","last_reported":1718302222,"current_range_meters":1200,"station_id":"ce4bgth2rcd13ifvqch0","pricing_plan_id":"cebpf4jnsgd1na2vs0mg"},{"bike_id":"e6a541b1-da05-4200-8a3c-f9b74a67a783","system_id":"levelo_inurba_marseille","lat":43.317075,"lon":5.377367,"is_reserved":false,"is_disabled":false,"rental_uris":{"android":"levelo://app?vid=e6a541b1-da05-4200-8a3c-f9b74a67a783","ios":"levelo://app?vid=e6a541b1-da05-4200-8a3c-f9b74a67a783"},"vehicle_type_id":"4","last_reported":1718302222,"current_range_meters":8000,"station_id":"ce4bgth2rcd13ifvqch0","pricing_plan_id":"cebpf4jnsgd1na2vs0mg"},{"bike_id":"050a0bc4-69ab-4614-866d-020fb22a1877","system_id":"levelo_inurba_marseille","lat":43.303046,"lon":5.368981,"is_reserved":false,"is_disabled":false,"rental_uris":{"android":"levelo://app?vid=050a0bc4-69ab-4614-866d-020fb22a1877","ios":"levelo://app?vid=050a0bc4-69ab-4614-866d-020fb22a1877"},"vehicle_type_id":"4","last_reported":1718302222,"current_range_meters":26400,"station_id":"ce4bgqh2rcd13ifvqc5g","pricing_plan_id":"cebpf4jnsgd1na2vs0mg"},{"bike_id":"6cd1d5ba-4b10-4a3d-b690-8f2367f11f5b","system_id":"levelo_inurba_marseille","lat":43.31529,"lon":5.38022,"is_reserved":false,"is_disabled":false,"rental_uris":{"android":"levelo://app?vid=6cd1d5ba-4b10-4a3d-b690-8f2367f11f5b","ios":"levelo://app?vid=6cd1d5ba-4b10-4a3d-b690-8f2367f11f5b"},"vehicle_type_id":"4","last_reported":1718302222,"current_range_meters":12400,"station_id":"ce4bhsp2rcd13ifvqi50","pricing_plan_id":"cebpf4jnsgd1na2vs0mg"},{"bike_id":"b37ea607-a588-4ccf-bcb1-0ea95c350f6c","system_id":"levelo_inurba_marseille","lat":43.3153,"lon":5.38036,"is_reserved":false,"is_disabled":false,"rental_uris":{"android":"levelo://app?vid=b37ea607-a588-4ccf-bcb1-0ea95c350f6c","ios":"levelo://app?vid=b37ea607-a588-4ccf-bcb1-0ea95c350f6c"},"vehicle_type_id":"4","last_reported":1718302222,"current_range_meters":5200,"station_id":"ce4bhsp2rcd13ifvqi50","pricing_plan_id":"cebpf4jnsgd1na2vs0mg"},{"bike_id":"1f067e65-d96a-4bf7-b927-8071b57519ea","system_id":"levelo_inurba_marseille","lat":43.315352,"lon":5.380342,"is_reserved":false,"is_disabled":false,"rental_uris":{"android":"levelo://app?vid=1f067e65-d96a-4bf7-b927-8071b57519ea","ios":"levelo://app?vid=1f067e65-d96a-4bf7-b927-8071b57519ea"},"vehicle_type_id":"4","last_reported":1718302222,"current_range_meters":8400,"station_id":"ce4bhsp2rcd13ifvqi50","pricing_plan_id":"cebpf4jnsgd1na2vs0mg"},{"bike_id":"a16d6c3c-1cc7-4cdc-b11a-d7928a227467","system_id":"levelo_inurba_marseille","lat":43.304606,"lon":5.379026,"is_reserved":false,"is_disabled":false,"rental_uris":{"android":"levelo://app?vid=a16d6c3c-1cc7-4cdc-b11a-d7928a227467","ios":"levelo://app?vid=a16d6c3c-1cc7-4cdc-b11a-d7928a227467"},"vehicle_type_id":"4","last_reported":1718302222,"current_range_meters":3600,"station_id":"ce4bgup2rcd13ifvqcn0","pricing_plan_id":"cebpf4jnsgd1na2vs0mg"},{"bike_id":"3c0565aa-231c-4902-8909-d6a8d11f4238","system_id":"levelo_inurba_marseille","lat":43.324771,"lon":5.36557,"is_reserved":false,"is_disabled":false,"rental_uris":{"android":"levelo://app?vid=3c0565aa-231c-4902-8909-d6a8d11f4238","ios":"levelo://app?vid=3c0565aa-231c-4902-8909-d6a8d11f4238"},"vehicle_type_id":"4","last_reported":1718302222,"current_range_meters":15600,"station_id":"ce4bhs12rcd13ifvqhvg","pricing_plan_id":"cebpf4jnsgd1na2vs0mg"},{"bike_id":"dffdf136-9da6-438d-860f-581e5461ab76","system_id":"levelo_inurba_marseille","lat":43.32472,"lon":5.3657,"is_reserved":false,"is_disabled":false,"rental_uris":{"android":"levelo://app?vid=dffdf136-9da6-438d-860f-581e5461ab76","ios":"levelo://app?vid=dffdf136-9da6-438d-860f-581e5461ab76"},"vehicle_type_id":"4","last_reported":1718302222,"current_range_meters":11600,"station_id":"ce4bhs12rcd13ifvqhvg","pricing_plan_id":"cebpf4jnsgd1na2vs0mg"},{"bike_id":"672962e4-937c-4368-8a39-d4e6019ae369","system_id":"levelo_inurba_marseille","lat":43.324771,"lon":5.36557,"is_reserved":false,"is_disabled":false,"rental_uris":{"android":"levelo://app?vid=672962e4-937c-4368-8a39-d4e6019ae369","ios":"levelo://app?vid=672962e4-937c-4368-8a39-d4e6019ae369"},"vehicle_type_id":"4","last_reported":1718302222,"current_range_meters":11600,"station_id":"ce4bhs12rcd13ifvqhvg","pricing_plan_id":"cebpf4jnsgd1na2vs0mg"},{"bike_id":"89c4131e-373e-4a53-9fac-73d213c0c046","system_id":"levelo_inurba_marseille","lat":43.324771,"lon":5.36557,"is_reserved":false,"is_disabled":false,"rental_uris":{"android":"levelo://app?vid=89c4131e-373e-4a53-9fac-73d213c0c046","ios":"levelo://app?vid=89c4131e-373e-4a53-9fac-73d213c0c046"},"vehicle_type_id":"4","last_reported":1718302222,"current_range_meters":14000,"station_id":"ce4bhs12rcd13ifvqhvg","pricing_plan_id":"cebpf4jnsgd1na2vs0mg"},{"bike_id":"5680403e-b360-44fc-b78d-6ae6c0e058c8","system_id":"levelo_inurba_marseille","lat":43.32478,"lon":5.36582,"is_reserved":false,"is_disabled":false,"rental_uris":{"android":"levelo://app?vid=5680403e-b360-44fc-b78d-6ae6c0e058c8","ios":"levelo://app?vid=5680403e-b360-44fc-b78d-6ae6c0e058c8"},"vehicle_type_id":"4","last_reported":1718302222,"current_range_meters":2400,"station_id":"ce4bhs12rcd13ifvqhvg","pricing_plan_id":"cebpf4jnsgd1na2vs0mg"},{"bike_id":"3273d515-b01d-4214-b20a-10459751b171","system_id":"levelo_inurba_marseille","lat":43.324771,"lon":5.36557,"is_reserved":false,"is_disabled":false,"rental_uris":{"android":"levelo://app?vid=3273d515-b01d-4214-b20a-10459751b171","ios":"levelo://app?vid=3273d515-b01d-4214-b20a-10459751b171"},"vehicle_type_id":"4","last_reported":1718302222,"current_range_meters":9600,"station_id":"ce4bhs12rcd13ifvqhvg","pricing_plan_id":"cebpf4jnsgd1na2vs0mg"},{"bike_id":"5be4b990-c8c4-4614-b242-e15f3664177a","system_id":"levelo_inurba_marseille","lat":43.324771,"lon":5.36557,"is_reserved":false,"is_disabled":false,"rental_uris":{"android":"levelo://app?vid=5be4b990-c8c4-4614-b242-e15f3664177a","ios":"levelo://app?vid=5be4b990-c8c4-4614-b242-e15f3664177a"},"vehicle_type_id":"4","last_reported":1718302222,"current_range_meters":12800,"station_id":"ce4bhs12rcd13ifvqhvg","pricing_plan_id":"cebpf4jnsgd1na2vs0mg"},{"bike_id":"feeac2dc-693e-4ae6-8cdb-6f0dcc701dc6","system_id":"levelo_inurba_marseille","lat":43.324771,"lon":5.36557,"is_reserved":false,"is_disabled":false,"rental_uris":{"android":"levelo://app?vid=feeac2dc-693e-4ae6-8cdb-6f0dcc701dc6","ios":"levelo://app?vid=feeac2dc-693e-4ae6-8cdb-6f0dcc701dc6"},"vehicle_type_id":"4","last_reported":1718302222,"current_range_meters":28000,"station_id":"ce4bhs12rcd13ifvqhvg","pricing_plan_id":"cebpf4jnsgd1na2vs0mg"},{"bike_id":"9d8d6f44-38de-44be-8639-c02166f293b3","system_id":"levelo_inurba_marseille","lat":43.32484,"lon":5.36573,"is_reserved":false,"is_disabled":false,"rental_uris":{"android":"levelo://app?vid=9d8d6f44-38de-44be-8639-c02166f293b3","ios":"levelo://app?vid=9d8d6f44-38de-44be-8639-c02166f293b3"},"vehicle_type_id":"4","last_reported":1718302222,"current_range_meters":9600,"station_id":"ce4bhs12rcd13ifvqhvg","pricing_plan_id":"cebpf4jnsgd1na2vs0mg"},{"bike_id":"58419a0f-118d-4f45-9ac7-aae8039e1893","system_id":"levelo_inurba_marseille","lat":43.324771,"lon":5.36557,"is_reserved":false,"is_disabled":false,"rental_uris":{"android":"levelo://app?vid=58419a0f-118d-4f45-9ac7-aae8039e1893","ios":"levelo://app?vid=58419a0f-118d-4f45-9ac7-aae8039e1893"},"vehicle_type_id":"4","last_reported":1718302222,"current_range_meters":23600,"station_id":"ce4bhs12rcd13ifvqhvg","pricing_plan_id":"cebpf4jnsgd1na2vs0mg"},{"bike_id":"3a051da9-d9a5-4529-8456-6ef8a0005043","system_id":"levelo_inurba_marseille","lat":43.32485,"lon":5.36573,"is_reserved":false,"is_disabled":false,"rental_uris":{"android":"levelo://app?vid=3a051da9-d9a5-4529-8456-6ef8a0005043","ios":"levelo://app?vid=3a051da9-d9a5-4529-8456-6ef8a0005043"},"vehicle_type_id":"4","last_reported":1718302222,"current_range_meters":31200,"station_id":"ce4bhs12rcd13ifvqhvg","pricing_plan_id":"cebpf4jnsgd1na2vs0mg"},{"bike_id":"547135e7-814f-4e07-a588-ec0fff678785","system_id":"levelo_inurba_marseille","lat":43.32485,"lon":5.36566,"is_reserved":false,"is_disabled":false,"rental_uris":{"android":"levelo://app?vid=547135e7-814f-4e07-a588-ec0fff678785","ios":"levelo://app?vid=547135e7-814f-4e07-a588-ec0fff678785"},"vehicle_type_id":"4","last_reported":1718302222,"current_range_meters":4800,"station_id":"ce4bhs12rcd13ifvqhvg","pricing_plan_id":"cebpf4jnsgd1na2vs0mg"},{"bike_id":"02f7ce58-e8a0-4068-85c7-b7685229a92f","system_id":"levelo_inurba_marseille","lat":43.324771,"lon":5.36557,"is_reserved":false,"is_disabled":false,"rental_uris":{"android":"levelo://app?vid=02f7ce58-e8a0-4068-85c7-b7685229a92f","ios":"levelo://app?vid=02f7ce58-e8a0-4068-85c7-b7685229a92f"},"vehicle_type_id":"4","last_reported":1718302222,"current_range_meters":11200,"station_id":"ce4bhs12rcd13ifvqhvg","pricing_plan_id":"cebpf4jnsgd1na2vs0mg"},{"bike_id":"511c518a-f6d2-4ffa-b235-90b75af5e615","system_id":"levelo_inurba_marseille","lat":43.324771,"lon":5.36557,"is_reserved":false,"is_disabled":false,"rental_uris":{"android":"levelo://app?vid=511c518a-f6d2-4ffa-b235-90b75af5e615","ios":"levelo://app?vid=511c518a-f6d2-4ffa-b235-90b75af5e615"},"vehicle_type_id":"4","last_reported":1718302222,"current_range_meters":14400,"station_id":"ce4bhs12rcd13ifvqhvg","pricing_plan_id":"cebpf4jnsgd1na2vs0mg"},{"bike_id":"f77f32c6-feb5-4069-ab36-d8bc4fac2213","system_id":"levelo_inurba_marseille","lat":43.324771,"lon":5.36557,"is_reserved":false,"is_disabled":false,"rental_uris":{"android":"levelo://app?vid=f77f32c6-feb5-4069-ab36-d8bc4fac2213","ios":"levelo://app?vid=f77f32c6-feb5-4069-ab36-d8bc4fac2213"},"vehicle_type_id":"4","last_reported":1718302222,"current_range_meters":14800,"station_id":"ce4bhs12rcd13ifvqhvg","pricing_plan_id":"cebpf4jnsgd1na2vs0mg"},{"bike_id":"6d4fbdf9-b77e-40d4-b711-147d26ec3d92","system_id":"levelo_inurba_marseille","lat":43.324771,"lon":5.36557,"is_reserved":false,"is_disabled":false,"rental_uris":{"android":"levelo://app?vid=6d4fbdf9-b77e-40d4-b711-147d26ec3d92","ios":"levelo://app?vid=6d4fbdf9-b77e-40d4-b711-147d26ec3d92"},"vehicle_type_id":"4","last_reported":1718302222,"current_range_meters":6000,"station_id":"ce4bhs12rcd13ifvqhvg","pricing_plan_id":"cebpf4jnsgd1na2vs0mg"},{"bike_id":"76cb65a1-5dd1-4554-9256-579da5c71db9","system_id":"levelo_inurba_marseille","lat":43.310737,"lon":5.383513,"is_reserved":false,"is_disabled":false,"rental_uris":{"android":"levelo://app?vid=76cb65a1-5dd1-4554-9256-579da5c71db9","ios":"levelo://app?vid=76cb65a1-5dd1-4554-9256-579da5c71db9"},"vehicle_type_id":"4","last_reported":1718302222,"current_range_meters":0,"station_id":"ce4bgv92rcd13ifvqcr0","pricing_plan_id":"cebpf4jnsgd1na2vs0mg"},{"bike_id":"97afbfa9-cc3e-47a1-8c81-d1478d93365f","system_id":"levelo_inurba_marseille","lat":43.319935,"lon":5.381699,"is_reserved":false,"is_disabled":false,"rental_uris":{"android":"levelo://app?vid=97afbfa9-cc3e-47a1-8c81-d1478d93365f","ios":"levelo://app?vid=97afbfa9-cc3e-47a1-8c81-d1478d93365f"},"vehicle_type_id":"4","last_reported":1718302222,"current_range_meters":0,"station_id":"ce4bhr12rcd13ifvqhpg","pricing_plan_id":"cebpf4jnsgd1na2vs0mg"},{"bike_id":"ed735c95-77cd-4540-90a1-509382bb81e3","system_id":"levelo_inurba_marseille","lat":43.319935,"lon":5.381699,"is_reserved":false,"is_disabled":false,"rental_uris":{"android":"levelo://app?vid=ed735c95-77cd-4540-90a1-509382bb81e3","ios":"levelo://app?vid=ed735c95-77cd-4540-90a1-509382bb81e3"},"vehicle_type_id":"4","last_reported":1718302222,"current_range_meters":0,"station_id":"ce4bhr12rcd13ifvqhpg","pricing_plan_id":"cebpf4jnsgd1na2vs0mg"},{"bike_id":"c14e2cca-9f82-4dac-8058-a130e9a1a887","system_id":"levelo_inurba_marseille","lat":43.319935,"lon":5.381699,"is_reserved":false,"is_disabled":false,"rental_uris":{"android":"levelo://app?vid=c14e2cca-9f82-4dac-8058-a130e9a1a887","ios":"levelo://app?vid=c14e2cca-9f82-4dac-8058-a130e9a1a887"},"vehicle_type_id":"4","last_reported":1718302222,"current_range_meters":0,"station_id":"ce4bhr12rcd13ifvqhpg","pricing_plan_id":"cebpf4jnsgd1na2vs0mg"},{"bike_id":"95c9f806-42f5-4362-8cc7-0c055c8b34ec","system_id":"levelo_inurba_marseille","lat":43.319935,"lon":5.381699,"is_reserved":false,"is_disabled":false,"rental_uris":{"android":"levelo://app?vid=95c9f806-42f5-4362-8cc7-0c055c8b34ec","ios":"levelo://app?vid=95c9f806-42f5-4362-8cc7-0c055c8b34ec"},"vehicle_type_id":"4","last_reported":1718302222,"current_range_meters":10800,"station_id":"ce4bhr12rcd13ifvqhpg","pricing_plan_id":"cebpf4jnsgd1na2vs0mg"},{"bike_id":"96bf5afd-e86c-425c-b275-3a812a2d43c6","system_id":"levelo_inurba_marseille","lat":43.313571,"lon":5.384829,"is_reserved":false,"is_disabled":false,"rental_uris":{"android":"levelo://app?vid=96bf5afd-e86c-425c-b275-3a812a2d43c6","ios":"levelo://app?vid=96bf5afd-e86c-425c-b275-3a812a2d43c6"},"vehicle_type_id":"4","last_reported":1718302222,"current_range_meters":4000,"station_id":"ce4bgt92rcd13ifvqcf0","pricing_plan_id":"cebpf4jnsgd1na2vs0mg"},{"bike_id":"bfbc86c7-c7e2-4f58-a8c9-b31834e5946d","system_id":"levelo_inurba_marseille","lat":43.313571,"lon":5.384829,"is_reserved":false,"is_disabled":false,"rental_uris":{"android":"levelo://app?vid=bfbc86c7-c7e2-4f58-a8c9-b31834e5946d","ios":"levelo://app?vid=bfbc86c7-c7e2-4f58-a8c9-b31834e5946d"},"vehicle_type_id":"4","last_reported":1718302222,"current_range_meters":5200,"station_id":"ce4bgt92rcd13ifvqcf0","pricing_plan_id":"cebpf4jnsgd1na2vs0mg"},{"bike_id":"c50d4d77-53d7-422f-b37f-05e34b2d0838","system_id":"levelo_inurba_marseille","lat":43.313571,"lon":5.384829,"is_reserved":false,"is_disabled":false,"rental_uris":{"android":"levelo://app?vid=c50d4d77-53d7-422f-b37f-05e34b2d0838","ios":"levelo://app?vid=c50d4d77-53d7-422f-b37f-05e34b2d0838"},"vehicle_type_id":"4","last_reported":1718302222,"current_range_meters":0,"station_id":"ce4bgt92rcd13ifvqcf0","pricing_plan_id":"cebpf4jnsgd1na2vs0mg"},{"bike_id":"dda6db94-c61c-4d9f-bb77-39c5f9802151","system_id":"levelo_inurba_marseille","lat":43.299222,"lon":5.365554,"is_reserved":false,"is_disabled":false,"rental_uris":{"android":"levelo://app?vid=dda6db94-c61c-4d9f-bb77-39c5f9802151","ios":"levelo://app?vid=dda6db94-c61c-4d9f-bb77-39c5f9802151"},"vehicle_type_id":"4","last_reported":1718302222,"current_range_meters":25600,"station_id":"ce4bgm92rcd13ifvqbr0","pricing_plan_id":"cebpf4jnsgd1na2vs0mg"},{"bike_id":"03e164cc-6a73-480f-9007-c511ef631deb","system_id":"levelo_inurba_marseille","lat":43.299222,"lon":5.365554,"is_reserved":false,"is_disabled":false,"rental_uris":{"android":"levelo://app?vid=03e164cc-6a73-480f-9007-c511ef631deb","ios":"levelo://app?vid=03e164cc-6a73-480f-9007-c511ef631deb"},"vehicle_type_id":"4","last_reported":1718302222,"current_range_meters":24400,"station_id":"ce4bgm92rcd13ifvqbr0","pricing_plan_id":"cebpf4jnsgd1na2vs0mg"},{"bike_id":"637eb17c-17c1-4afe-9aba-a13273ff8c8b","system_id":"levelo_inurba_marseille","lat":43.30145,"lon":5.37678,"is_reserved":false,"is_disabled":false,"rental_uris":{"android":"levelo://app?vid=637eb17c-17c1-4afe-9aba-a13273ff8c8b","ios":"levelo://app?vid=637eb17c-17c1-4afe-9aba-a13273ff8c8b"},"vehicle_type_id":"4","last_reported":1718302222,"current_range_meters":11600,"station_id":"","pricing_plan_id":"cebpf4jnsgd1na2vs0mg"},{"bike_id":"3b6b7923-68bc-4552-8330-2992f46e9e39","system_id":"levelo_inurba_marseille","lat":43.299724,"lon":5.371829,"is_reserved":false,"is_disabled":false,"rental_uris":{"android":"levelo://app?vid=3b6b7923-68bc-4552-8330-2992f46e9e39","ios":"levelo://app?vid=3b6b7923-68bc-4552-8330-2992f46e9e39"},"vehicle_type_id":"4","last_reported":1718302222,"current_range_meters":15200,"station_id":"ce4bgr92rcd13ifvqc7g","pricing_plan_id":"cebpf4jnsgd1na2vs0mg"},{"bike_id":"18ca9540-9226-40ef-b3c8-813462fe35b3","system_id":"levelo_inurba_marseille","lat":43.299222,"lon":5.365554,"is_reserved":false,"is_disabled":false,"rental_uris":{"android":"levelo://app?vid=18ca9540-9226-40ef-b3c8-813462fe35b3","ios":"levelo://app?vid=18ca9540-9226-40ef-b3c8-813462fe35b3"},"vehicle_type_id":"4","last_reported":1718302222,"current_range_meters":0,"station_id":"ce4bgm92rcd13ifvqbr0","pricing_plan_id":"cebpf4jnsgd1na2vs0mg"},{"bike_id":"954761cb-5e6c-424f-a2b4-1ab97d6dffa6","system_id":"levelo_inurba_marseille","lat":43.299222,"lon":5.365554,"is_reserved":false,"is_disabled":false,"rental_uris":{"android":"levelo://app?vid=954761cb-5e6c-424f-a2b4-1ab97d6dffa6","ios":"levelo://app?vid=954761cb-5e6c-424f-a2b4-1ab97d6dffa6"},"vehicle_type_id":"4","last_reported":1718302222,"current_range_meters":800,"station_id":"ce4bgm92rcd13ifvqbr0","pricing_plan_id":"cebpf4jnsgd1na2vs0mg"},{"bike_id":"f5431986-3899-4d31-a226-02c21592ab4d","system_id":"levelo_inurba_marseille","lat":43.299222,"lon":5.365554,"is_reserved":false,"is_disabled":false,"rental_uris":{"android":"levelo://app?vid=f5431986-3899-4d31-a226-02c21592ab4d","ios":"levelo://app?vid=f5431986-3899-4d31-a226-02c21592ab4d"},"vehicle_type_id":"4","last_reported":1718302222,"current_range_meters":0,"station_id":"ce4bgm92rcd13ifvqbr0","pricing_plan_id":"cebpf4jnsgd1na2vs0mg"},{"bike_id":"ea8845bb-7b2f-4398-b8e8-4d4eed62049f","system_id":"levelo_inurba_marseille","lat":43.299222,"lon":5.365554,"is_reserved":false,"is_disabled":false,"rental_uris":{"android":"levelo://app?vid=ea8845bb-7b2f-4398-b8e8-4d4eed62049f","ios":"levelo://app?vid=ea8845bb-7b2f-4398-b8e8-4d4eed62049f"},"vehicle_type_id":"4","last_reported":1718302222,"current_range_meters":0,"station_id":"ce4bgm92rcd13ifvqbr0","pricing_plan_id":"cebpf4jnsgd1na2vs0mg"},{"bike_id":"f3f5632b-9802-40de-b855-26d5216bf869","system_id":"levelo_inurba_marseille","lat":43.299724,"lon":5.371829,"is_reserved":false,"is_disabled":false,"rental_uris":{"android":"levelo://app?vid=f3f5632b-9802-40de-b855-26d5216bf869","ios":"levelo://app?vid=f3f5632b-9802-40de-b855-26d5216bf869"},"vehicle_type_id":"4","last_reported":1718302222,"current_range_meters":0,"station_id":"ce4bgr92rcd13ifvqc7g","pricing_plan_id":"cebpf4jnsgd1na2vs0mg"},{"bike_id":"ac88d9f4-66b2-4fc0-b66d-b66d89413566","system_id":"levelo_inurba_marseille","lat":43.305389,"lon":5.383693,"is_reserved":false,"is_disabled":false,"rental_uris":{"android":"levelo://app?vid=ac88d9f4-66b2-4fc0-b66d-b66d89413566","ios":"levelo://app?vid=ac88d9f4-66b2-4fc0-b66d-b66d89413566"},"vehicle_type_id":"4","last_reported":1718302222,"current_range_meters":5600,"station_id":"ce4bgg92rcd13ifvqb30","pricing_plan_id":"cebpf4jnsgd1na2vs0mg"},{"bike_id":"5af6f9ea-3dc8-4a04-b30e-ff624d229344","system_id":"levelo_inurba_marseille","lat":43.298433,"lon":5.362774,"is_reserved":false,"is_disabled":false,"rental_uris":{"android":"levelo://app?vid=5af6f9ea-3dc8-4a04-b30e-ff624d229344","ios":"levelo://app?vid=5af6f9ea-3dc8-4a04-b30e-ff624d229344"},"vehicle_type_id":"4","last_reported":1718302222,"current_range_meters":21200,"station_id":"ce4bgpp2rcd13ifvqc3g","pricing_plan_id":"cebpf4jnsgd1na2vs0mg"},{"bike_id":"a60f1074-b808-4e32-b4f4-8f6a6ef2e49c","system_id":"levelo_inurba_marseille","lat":43.298433,"lon":5.362774,"is_reserved":false,"is_disabled":false,"rental_uris":{"android":"levelo://app?vid=a60f1074-b808-4e32-b4f4-8f6a6ef2e49c","ios":"levelo://app?vid=a60f1074-b808-4e32-b4f4-8f6a6ef2e49c"},"vehicle_type_id":"4","last_reported":1718302222,"current_range_meters":22000,"station_id":"ce4bgpp2rcd13ifvqc3g","pricing_plan_id":"cebpf4jnsgd1na2vs0mg"},{"bike_id":"2bb73be6-8fd7-4ccf-84d8-3fa63773fe35","system_id":"levelo_inurba_marseille","lat":43.298433,"lon":5.362774,"is_reserved":false,"is_disabled":false,"rental_uris":{"android":"levelo://app?vid=2bb73be6-8fd7-4ccf-84d8-3fa63773fe35","ios":"levelo://app?vid=2bb73be6-8fd7-4ccf-84d8-3fa63773fe35"},"vehicle_type_id":"4","last_reported":1718302222,"current_range_meters":24400,"station_id":"ce4bgpp2rcd13ifvqc3g","pricing_plan_id":"cebpf4jnsgd1na2vs0mg"},{"bike_id":"36dcc4b9-5252-482d-a456-5f275fac5dac","system_id":"levelo_inurba_marseille","lat":43.298433,"lon":5.362774,"is_reserved":false,"is_disabled":false,"rental_uris":{"android":"levelo://app?vid=36dcc4b9-5252-482d-a456-5f275fac5dac","ios":"levelo://app?vid=36dcc4b9-5252-482d-a456-5f275fac5dac"},"vehicle_type_id":"4","last_reported":1718302222,"current_range_meters":18800,"station_id":"ce4bgpp2rcd13ifvqc3g","pricing_plan_id":"cebpf4jnsgd1na2vs0mg"},{"bike_id":"a17a9b82-437e-4952-a7e1-973fda88c688","system_id":"levelo_inurba_marseille","lat":43.298433,"lon":5.362774,"is_reserved":false,"is_disabled":false,"rental_uris":{"android":"levelo://app?vid=a17a9b82-437e-4952-a7e1-973fda88c688","ios":"levelo://app?vid=a17a9b82-437e-4952-a7e1-973fda88c688"},"vehicle_type_id":"4","last_reported":1718302222,"current_range_meters":8800,"station_id":"ce4bgpp2rcd13ifvqc3g","pricing_plan_id":"cebpf4jnsgd1na2vs0mg"},{"bike_id":"415e0130-626e-4a42-9e87-aee8b61cd7c6","system_id":"levelo_inurba_marseille","lat":43.298433,"lon":5.362774,"is_reserved":false,"is_disabled":false,"rental_uris":{"android":"levelo://app?vid=415e0130-626e-4a42-9e87-aee8b61cd7c6","ios":"levelo://app?vid=415e0130-626e-4a42-9e87-aee8b61cd7c6"},"vehicle_type_id":"4","last_reported":1718302222,"current_range_meters":2800,"station_id":"ce4bgpp2rcd13ifvqc3g","pricing_plan_id":"cebpf4jnsgd1na2vs0mg"},{"bike_id":"c16ac6e5-6e56-4a38-9581-acf659dbc27f","system_id":"levelo_inurba_marseille","lat":43.298433,"lon":5.362774,"is_reserved":false,"is_disabled":false,"rental_uris":{"android":"levelo://app?vid=c16ac6e5-6e56-4a38-9581-acf659dbc27f","ios":"levelo://app?vid=c16ac6e5-6e56-4a38-9581-acf659dbc27f"},"vehicle_type_id":"4","last_reported":1718302222,"current_range_meters":3600,"station_id":"ce4bgpp2rcd13ifvqc3g","pricing_plan_id":"cebpf4jnsgd1na2vs0mg"},{"bike_id":"c658d308-b276-486e-9434-af9586f9caad","system_id":"levelo_inurba_marseille","lat":43.298433,"lon":5.362774,"is_reserved":false,"is_disabled":false,"rental_uris":{"android":"levelo://app?vid=c658d308-b276-486e-9434-af9586f9caad","ios":"levelo://app?vid=c658d308-b276-486e-9434-af9586f9caad"},"vehicle_type_id":"4","last_reported":1718302222,"current_range_meters":29200,"station_id":"ce4bgpp2rcd13ifvqc3g","pricing_plan_id":"cebpf4jnsgd1na2vs0mg"},{"bike_id":"044adef5-a6e0-4c15-80e7-3810b16eab55","system_id":"levelo_inurba_marseille","lat":43.298433,"lon":5.362774,"is_reserved":false,"is_disabled":false,"rental_uris":{"android":"levelo://app?vid=044adef5-a6e0-4c15-80e7-3810b16eab55","ios":"levelo://app?vid=044adef5-a6e0-4c15-80e7-3810b16eab55"},"vehicle_type_id":"4","last_reported":1718302222,"current_range_meters":0,"station_id":"ce4bgpp2rcd13ifvqc3g","pricing_plan_id":"cebpf4jnsgd1na2vs0mg"},{"bike_id":"e626c191-b433-4a5e-9a50-4fa8333bcd3b","system_id":"levelo_inurba_marseille","lat":43.298433,"lon":5.362774,"is_reserved":false,"is_disabled":false,"rental_uris":{"android":"levelo://app?vid=e626c191-b433-4a5e-9a50-4fa8333bcd3b","ios":"levelo://app?vid=e626c191-b433-4a5e-9a50-4fa8333bcd3b"},"vehicle_type_id":"4","last_reported":1718302222,"current_range_meters":4800,"station_id":"ce4bgpp2rcd13ifvqc3g","pricing_plan_id":"cebpf4jnsgd1na2vs0mg"},{"bike_id":"17fe2c22-5d62-438c-83c2-d18c92267825","system_id":"levelo_inurba_marseille","lat":43.298433,"lon":5.362774,"is_reserved":false,"is_disabled":false,"rental_uris":{"android":"levelo://app?vid=17fe2c22-5d62-438c-83c2-d18c92267825","ios":"levelo://app?vid=17fe2c22-5d62-438c-83c2-d18c92267825"},"vehicle_type_id":"4","last_reported":1718302222,"current_range_meters":22800,"station_id":"ce4bgpp2rcd13ifvqc3g","pricing_plan_id":"cebpf4jnsgd1na2vs0mg"},{"bike_id":"d48ea78d-e066-4669-8f73-395c861407be","system_id":"levelo_inurba_marseille","lat":43.298433,"lon":5.362774,"is_reserved":false,"is_disabled":false,"rental_uris":{"android":"levelo://app?vid=d48ea78d-e066-4669-8f73-395c861407be","ios":"levelo://app?vid=d48ea78d-e066-4669-8f73-395c861407be"},"vehicle_type_id":"4","last_reported":1718302222,"current_range_meters":3200,"station_id":"ce4bgpp2rcd13ifvqc3g","pricing_plan_id":"cebpf4jnsgd1na2vs0mg"},{"bike_id":"c389f15d-1dd2-4d1b-97ca-9113f067dc96","system_id":"levelo_inurba_marseille","lat":43.29844,"lon":5.36268,"is_reserved":false,"is_disabled":false,"rental_uris":{"android":"levelo://app?vid=c389f15d-1dd2-4d1b-97ca-9113f067dc96","ios":"levelo://app?vid=c389f15d-1dd2-4d1b-97ca-9113f067dc96"},"vehicle_type_id":"4","last_reported":1718302222,"current_range_meters":0,"station_id":"","pricing_plan_id":"cebpf4jnsgd1na2vs0mg"},{"bike_id":"9e510892-c82c-493d-a15a-3795509db915","system_id":"levelo_inurba_marseille","lat":43.298433,"lon":5.362774,"is_reserved":false,"is_disabled":false,"rental_uris":{"android":"levelo://app?vid=9e510892-c82c-493d-a15a-3795509db915","ios":"levelo://app?vid=9e510892-c82c-493d-a15a-3795509db915"},"vehicle_type_id":"4","last_reported":1718302222,"current_range_meters":30400,"station_id":"ce4bgpp2rcd13ifvqc3g","pricing_plan_id":"cebpf4jnsgd1na2vs0mg"},{"bike_id":"deee9621-e16c-4f59-9baf-8895f0212a79","system_id":"levelo_inurba_marseille","lat":43.298433,"lon":5.362774,"is_reserved":false,"is_disabled":false,"rental_uris":{"android":"levelo://app?vid=deee9621-e16c-4f59-9baf-8895f0212a79","ios":"levelo://app?vid=deee9621-e16c-4f59-9baf-8895f0212a79"},"vehicle_type_id":"4","last_reported":1718302222,"current_range_meters":22400,"station_id":"ce4bgpp2rcd13ifvqc3g","pricing_plan_id":"cebpf4jnsgd1na2vs0mg"},{"bike_id":"53a37cd7-a1d9-438e-bce9-8e9e4048438e","system_id":"levelo_inurba_marseille","lat":43.298433,"lon":5.362774,"is_reserved":false,"is_disabled":false,"rental_uris":{"android":"levelo://app?vid=53a37cd7-a1d9-438e-bce9-8e9e4048438e","ios":"levelo://app?vid=53a37cd7-a1d9-438e-bce9-8e9e4048438e"},"vehicle_type_id":"4","last_reported":1718302222,"current_range_meters":19600,"station_id":"ce4bgpp2rcd13ifvqc3g","pricing_plan_id":"cebpf4jnsgd1na2vs0mg"},{"bike_id":"ba22d524-a9ab-4003-a8f3-7b83f7f2425f","system_id":"levelo_inurba_marseille","lat":43.311722,"lon":5.387247,"is_reserved":false,"is_disabled":false,"rental_uris":{"android":"levelo://app?vid=ba22d524-a9ab-4003-a8f3-7b83f7f2425f","ios":"levelo://app?vid=ba22d524-a9ab-4003-a8f3-7b83f7f2425f"},"vehicle_type_id":"4","last_reported":1718302222,"current_range_meters":25200,"station_id":"ce4bgv12rcd13ifvqcp0","pricing_plan_id":"cebpf4jnsgd1na2vs0mg"},{"bike_id":"08d2b8af-c71a-4a89-8ed0-694c29693634","system_id":"levelo_inurba_marseille","lat":43.311722,"lon":5.387247,"is_reserved":false,"is_disabled":false,"rental_uris":{"android":"levelo://app?vid=08d2b8af-c71a-4a89-8ed0-694c29693634","ios":"levelo://app?vid=08d2b8af-c71a-4a89-8ed0-694c29693634"},"vehicle_type_id":"4","last_reported":1718302222,"current_range_meters":6000,"station_id":"ce4bgv12rcd13ifvqcp0","pricing_plan_id":"cebpf4jnsgd1na2vs0mg"},{"bike_id":"c64fe936-5579-4639-8523-195b845a2433","system_id":"levelo_inurba_marseille","lat":43.311722,"lon":5.387247,"is_reserved":false,"is_disabled":false,"rental_uris":{"android":"levelo://app?vid=c64fe936-5579-4639-8523-195b845a2433","ios":"levelo://app?vid=c64fe936-5579-4639-8523-195b845a2433"},"vehicle_type_id":"4","last_reported":1718302222,"current_range_meters":6800,"station_id":"ce4bgv12rcd13ifvqcp0","pricing_plan_id":"cebpf4jnsgd1na2vs0mg"},{"bike_id":"1b6979e2-d079-4bc2-b2a3-a96e4bf5ed2b","system_id":"levelo_inurba_marseille","lat":43.311722,"lon":5.387247,"is_reserved":false,"is_disabled":false,"rental_uris":{"android":"levelo://app?vid=1b6979e2-d079-4bc2-b2a3-a96e4bf5ed2b","ios":"levelo://app?vid=1b6979e2-d079-4bc2-b2a3-a96e4bf5ed2b"},"vehicle_type_id":"4","last_reported":1718302222,"current_range_meters":6400,"station_id":"ce4bgv12rcd13ifvqcp0","pricing_plan_id":"cebpf4jnsgd1na2vs0mg"},{"bike_id":"fede0e5e-23c5-4056-8573-83287d50e50c","system_id":"levelo_inurba_marseille","lat":43.298433,"lon":5.362774,"is_reserved":false,"is_disabled":false,"rental_uris":{"android":"levelo://app?vid=fede0e5e-23c5-4056-8573-83287d50e50c","ios":"levelo://app?vid=fede0e5e-23c5-4056-8573-83287d50e50c"},"vehicle_type_id":"4","last_reported":1718302222,"current_range_meters":11200,"station_id":"ce4bgpp2rcd13ifvqc3g","pricing_plan_id":"cebpf4jnsgd1na2vs0mg"},{"bike_id":"f3580f95-1762-4902-98ed-a029b33f6f8d","system_id":"levelo_inurba_marseille","lat":43.299243,"lon":5.374807,"is_reserved":false,"is_disabled":false,"rental_uris":{"android":"levelo://app?vid=f3580f95-1762-4902-98ed-a029b33f6f8d","ios":"levelo://app?vid=f3580f95-1762-4902-98ed-a029b33f6f8d"},"vehicle_type_id":"4","last_reported":1718302222,"current_range_meters":8800,"station_id":"ce4bgjh2rcd13ifvqbg0","pricing_plan_id":"cebpf4jnsgd1na2vs0mg"},{"bike_id":"957ef79f-0ea2-4a12-a5e7-ebc4169ee2f0","system_id":"levelo_inurba_marseille","lat":43.322872,"lon":5.382756,"is_reserved":false,"is_disabled":false,"rental_uris":{"android":"levelo://app?vid=957ef79f-0ea2-4a12-a5e7-ebc4169ee2f0","ios":"levelo://app?vid=957ef79f-0ea2-4a12-a5e7-ebc4169ee2f0"},"vehicle_type_id":"4","last_reported":1718302222,"current_range_meters":18400,"station_id":"ce4bhr12rcd13ifvqhqg","pricing_plan_id":"cebpf4jnsgd1na2vs0mg"},{"bike_id":"9a8bcfde-9ba0-4ca3-a9cd-b55ab07f382e","system_id":"levelo_inurba_marseille","lat":43.322872,"lon":5.382756,"is_reserved":false,"is_disabled":false,"rental_uris":{"android":"levelo://app?vid=9a8bcfde-9ba0-4ca3-a9cd-b55ab07f382e","ios":"levelo://app?vid=9a8bcfde-9ba0-4ca3-a9cd-b55ab07f382e"},"vehicle_type_id":"4","last_reported":1718302222,"current_range_meters":31200,"station_id":"ce4bhr12rcd13ifvqhqg","pricing_plan_id":"cebpf4jnsgd1na2vs0mg"},{"bike_id":"d460f91c-a8b5-4b7a-8a9f-cb05a28a5386","system_id":"levelo_inurba_marseille","lat":43.322872,"lon":5.382756,"is_reserved":false,"is_disabled":false,"rental_uris":{"android":"levelo://app?vid=d460f91c-a8b5-4b7a-8a9f-cb05a28a5386","ios":"levelo://app?vid=d460f91c-a8b5-4b7a-8a9f-cb05a28a5386"},"vehicle_type_id":"4","last_reported":1718302222,"current_range_meters":18400,"station_id":"ce4bhr12rcd13ifvqhqg","pricing_plan_id":"cebpf4jnsgd1na2vs0mg"},{"bike_id":"4b475360-1664-422f-bb6b-8d52e94464e5","system_id":"levelo_inurba_marseille","lat":43.322872,"lon":5.382756,"is_reserved":false,"is_disabled":false,"rental_uris":{"android":"levelo://app?vid=4b475360-1664-422f-bb6b-8d52e94464e5","ios":"levelo://app?vid=4b475360-1664-422f-bb6b-8d52e94464e5"},"vehicle_type_id":"4","last_reported":1718302222,"current_range_meters":12400,"station_id":"ce4bhr12rcd13ifvqhqg","pricing_plan_id":"cebpf4jnsgd1na2vs0mg"},{"bike_id":"55c7ce89-3c79-4cd5-9c5b-80244f47ba3d","system_id":"levelo_inurba_marseille","lat":43.32281,"lon":5.38282,"is_reserved":false,"is_disabled":false,"rental_uris":{"android":"levelo://app?vid=55c7ce89-3c79-4cd5-9c5b-80244f47ba3d","ios":"levelo://app?vid=55c7ce89-3c79-4cd5-9c5b-80244f47ba3d"},"vehicle_type_id":"4","last_reported":1718302222,"current_range_meters":15200,"station_id":"ce4bhr12rcd13ifvqhqg","pricing_plan_id":"cebpf4jnsgd1na2vs0mg"},{"bike_id":"fbaa227e-3983-44cd-a6f5-aa722be2b9ce","system_id":"levelo_inurba_marseille","lat":43.322872,"lon":5.382756,"is_reserved":false,"is_disabled":false,"rental_uris":{"android":"levelo://app?vid=fbaa227e-3983-44cd-a6f5-aa722be2b9ce","ios":"levelo://app?vid=fbaa227e-3983-44cd-a6f5-aa722be2b9ce"},"vehicle_type_id":"4","last_reported":1718302222,"current_range_meters":9200,"station_id":"ce4bhr12rcd13ifvqhqg","pricing_plan_id":"cebpf4jnsgd1na2vs0mg"},{"bike_id":"1d7c1fcd-d215-47d0-b0d6-713052a21b67","system_id":"levelo_inurba_marseille","lat":43.297163,"lon":5.365866,"is_reserved":false,"is_disabled":false,"rental_uris":{"android":"levelo://app?vid=1d7c1fcd-d215-47d0-b0d6-713052a21b67","ios":"levelo://app?vid=1d7c1fcd-d215-47d0-b0d6-713052a21b67"},"vehicle_type_id":"4","last_reported":1718302222,"current_range_meters":19600,"station_id":"ce4bgn12rcd13ifvqbt0","pricing_plan_id":"cebpf4jnsgd1na2vs0mg"},{"bike_id":"27e4fdd6-068b-41d5-9bff-9f5840f9e245","system_id":"levelo_inurba_marseille","lat":43.297163,"lon":5.365866,"is_reserved":false,"is_disabled":false,"rental_uris":{"android":"levelo://app?vid=27e4fdd6-068b-41d5-9bff-9f5840f9e245","ios":"levelo://app?vid=27e4fdd6-068b-41d5-9bff-9f5840f9e245"},"vehicle_type_id":"4","last_reported":1718302222,"current_range_meters":8000,"station_id":"ce4bgn12rcd13ifvqbt0","pricing_plan_id":"cebpf4jnsgd1na2vs0mg"},{"bike_id":"dfa7b674-af0b-4e85-bdc6-59a388429636","system_id":"levelo_inurba_marseille","lat":43.2964,"lon":5.36883,"is_reserved":false,"is_disabled":false,"rental_uris":{"android":"levelo://app?vid=dfa7b674-af0b-4e85-bdc6-59a388429636","ios":"levelo://app?vid=dfa7b674-af0b-4e85-bdc6-59a388429636"},"vehicle_type_id":"4","last_reported":1718302222,"current_range_meters":8400,"station_id":"","pricing_plan_id":"cebpf4jnsgd1na2vs0mg"},{"bike_id":"a25243be-0cdf-4769-b4fb-299312a751ea","system_id":"levelo_inurba_marseille","lat":43.298433,"lon":5.362774,"is_reserved":false,"is_disabled":false,"rental_uris":{"android":"levelo://app?vid=a25243be-0cdf-4769-b4fb-299312a751ea","ios":"levelo://app?vid=a25243be-0cdf-4769-b4fb-299312a751ea"},"vehicle_type_id":"4","last_reported":1718302222,"current_range_meters":9600,"station_id":"ce4bgpp2rcd13ifvqc3g","pricing_plan_id":"cebpf4jnsgd1na2vs0mg"},{"bike_id":"71aad830-7791-4aeb-8a82-6ed8d60fa00c","system_id":"levelo_inurba_marseille","lat":43.296129,"lon":5.370777,"is_reserved":false,"is_disabled":false,"rental_uris":{"android":"levelo://app?vid=71aad830-7791-4aeb-8a82-6ed8d60fa00c","ios":"levelo://app?vid=71aad830-7791-4aeb-8a82-6ed8d60fa00c"},"vehicle_type_id":"4","last_reported":1718302222,"current_range_meters":0,"station_id":"ce4bgnh2rcd13ifvqc0g","pricing_plan_id":"cebpf4jnsgd1na2vs0mg"},{"bike_id":"492e7643-6d00-4f2e-bef0-9752d9971db0","system_id":"levelo_inurba_marseille","lat":43.296184,"lon":5.371499,"is_reserved":false,"is_disabled":false,"rental_uris":{"android":"levelo://app?vid=492e7643-6d00-4f2e-bef0-9752d9971db0","ios":"levelo://app?vid=492e7643-6d00-4f2e-bef0-9752d9971db0"},"vehicle_type_id":"4","last_reported":1718302222,"current_range_meters":5600,"station_id":"ce4bgnh2rcd13ifvqc0g","pricing_plan_id":"cebpf4jnsgd1na2vs0mg"},{"bike_id":"e35ed105-fdcf-4b7f-b7c1-1d94ba6d7ecc","system_id":"levelo_inurba_marseille","lat":43.296131,"lon":5.370791,"is_reserved":false,"is_disabled":false,"rental_uris":{"android":"levelo://app?vid=e35ed105-fdcf-4b7f-b7c1-1d94ba6d7ecc","ios":"levelo://app?vid=e35ed105-fdcf-4b7f-b7c1-1d94ba6d7ecc"},"vehicle_type_id":"4","last_reported":1718302222,"current_range_meters":30800,"station_id":"ce4bgnh2rcd13ifvqc0g","pricing_plan_id":"cebpf4jnsgd1na2vs0mg"},{"bike_id":"89cf9e80-a64b-48d1-9dfb-ec6701f212b3","system_id":"levelo_inurba_marseille","lat":43.29573,"lon":5.367355,"is_reserved":false,"is_disabled":false,"rental_uris":{"android":"levelo://app?vid=89cf9e80-a64b-48d1-9dfb-ec6701f212b3","ios":"levelo://app?vid=89cf9e80-a64b-48d1-9dfb-ec6701f212b3"},"vehicle_type_id":"4","last_reported":1718302222,"current_range_meters":0,"station_id":"ce4bgph2rcd13ifvqc2g","pricing_plan_id":"cebpf4jnsgd1na2vs0mg"},{"bike_id":"852b23e8-e01f-43bf-8600-244f1ecd7312","system_id":"levelo_inurba_marseille","lat":43.309589,"lon":5.390258,"is_reserved":false,"is_disabled":false,"rental_uris":{"android":"levelo://app?vid=852b23e8-e01f-43bf-8600-244f1ecd7312","ios":"levelo://app?vid=852b23e8-e01f-43bf-8600-244f1ecd7312"},"vehicle_type_id":"4","last_reported":1718302222,"current_range_meters":0,"station_id":"ce4bgup2rcd13ifvqco0","pricing_plan_id":"cebpf4jnsgd1na2vs0mg"},{"bike_id":"12d95ce5-bfae-42d0-9c99-d8536d80a571","system_id":"levelo_inurba_marseille","lat":43.309589,"lon":5.390258,"is_reserved":false,"is_disabled":false,"rental_uris":{"android":"levelo://app?vid=12d95ce5-bfae-42d0-9c99-d8536d80a571","ios":"levelo://app?vid=12d95ce5-bfae-42d0-9c99-d8536d80a571"},"vehicle_type_id":"4","last_reported":1718302222,"current_range_meters":0,"station_id":"ce4bgup2rcd13ifvqco0","pricing_plan_id":"cebpf4jnsgd1na2vs0mg"},{"bike_id":"11ae74b9-8ab5-4e07-88bf-8207cec0e7b9","system_id":"levelo_inurba_marseille","lat":43.309589,"lon":5.390258,"is_reserved":false,"is_disabled":false,"rental_uris":{"android":"levelo://app?vid=11ae74b9-8ab5-4e07-88bf-8207cec0e7b9","ios":"levelo://app?vid=11ae74b9-8ab5-4e07-88bf-8207cec0e7b9"},"vehicle_type_id":"4","last_reported":1718302222,"current_range_meters":21600,"station_id":"ce4bgup2rcd13ifvqco0","pricing_plan_id":"cebpf4jnsgd1na2vs0mg"},{"bike_id":"1573a84f-50f1-4f6b-a703-70c0f5aed185","system_id":"levelo_inurba_marseille","lat":43.309589,"lon":5.390258,"is_reserved":false,"is_disabled":false,"rental_uris":{"android":"levelo://app?vid=1573a84f-50f1-4f6b-a703-70c0f5aed185","ios":"levelo://app?vid=1573a84f-50f1-4f6b-a703-70c0f5aed185"},"vehicle_type_id":"4","last_reported":1718302222,"current_range_meters":0,"station_id":"ce4bgup2rcd13ifvqco0","pricing_plan_id":"cebpf4jnsgd1na2vs0mg"},{"bike_id":"39e37c91-d28c-43ca-ae73-b0f0f34b6a34","system_id":"levelo_inurba_marseille","lat":43.309589,"lon":5.390258,"is_reserved":false,"is_disabled":false,"rental_uris":{"android":"levelo://app?vid=39e37c91-d28c-43ca-ae73-b0f0f34b6a34","ios":"levelo://app?vid=39e37c91-d28c-43ca-ae73-b0f0f34b6a34"},"vehicle_type_id":"4","last_reported":1718302222,"current_range_meters":4400,"station_id":"ce4bgup2rcd13ifvqco0","pricing_plan_id":"cebpf4jnsgd1na2vs0mg"},{"bike_id":"bf4f5991-4114-4e5f-8ffe-22c364db7461","system_id":"levelo_inurba_marseille","lat":43.309589,"lon":5.390258,"is_reserved":false,"is_disabled":false,"rental_uris":{"android":"levelo://app?vid=bf4f5991-4114-4e5f-8ffe-22c364db7461","ios":"levelo://app?vid=bf4f5991-4114-4e5f-8ffe-22c364db7461"},"vehicle_type_id":"4","last_reported":1718302222,"current_range_meters":12800,"station_id":"ce4bgup2rcd13ifvqco0","pricing_plan_id":"cebpf4jnsgd1na2vs0mg"},{"bike_id":"32202fa4-1228-4a33-80b4-9c4f071fbca2","system_id":"levelo_inurba_marseille","lat":43.29764,"lon":5.37849,"is_reserved":false,"is_disabled":false,"rental_uris":{"android":"levelo://app?vid=32202fa4-1228-4a33-80b4-9c4f071fbca2","ios":"levelo://app?vid=32202fa4-1228-4a33-80b4-9c4f071fbca2"},"vehicle_type_id":"4","last_reported":1718302222,"current_range_meters":0,"station_id":"","pricing_plan_id":"cebpf4jnsgd1na2vs0mg"},{"bike_id":"28943e81-ea2f-43ed-ba82-543900ee19e0","system_id":"levelo_inurba_marseille","lat":43.309589,"lon":5.390258,"is_reserved":false,"is_disabled":false,"rental_uris":{"android":"levelo://app?vid=28943e81-ea2f-43ed-ba82-543900ee19e0","ios":"levelo://app?vid=28943e81-ea2f-43ed-ba82-543900ee19e0"},"vehicle_type_id":"4","last_reported":1718302222,"current_range_meters":9200,"station_id":"ce4bgup2rcd13ifvqco0","pricing_plan_id":"cebpf4jnsgd1na2vs0mg"},{"bike_id":"976d9624-832a-4721-b3ef-f24b2991c783","system_id":"levelo_inurba_marseille","lat":43.309589,"lon":5.390258,"is_reserved":false,"is_disabled":false,"rental_uris":{"android":"levelo://app?vid=976d9624-832a-4721-b3ef-f24b2991c783","ios":"levelo://app?vid=976d9624-832a-4721-b3ef-f24b2991c783"},"vehicle_type_id":"4","last_reported":1718302222,"current_range_meters":3600,"station_id":"ce4bgup2rcd13ifvqco0","pricing_plan_id":"cebpf4jnsgd1na2vs0mg"},{"bike_id":"2b536b68-3b45-4617-903e-e8e2b621544e","system_id":"levelo_inurba_marseille","lat":43.309589,"lon":5.390258,"is_reserved":false,"is_disabled":false,"rental_uris":{"android":"levelo://app?vid=2b536b68-3b45-4617-903e-e8e2b621544e","ios":"levelo://app?vid=2b536b68-3b45-4617-903e-e8e2b621544e"},"vehicle_type_id":"4","last_reported":1718302222,"current_range_meters":2000,"station_id":"ce4bgup2rcd13ifvqco0","pricing_plan_id":"cebpf4jnsgd1na2vs0mg"},{"bike_id":"68d55d67-4623-4f42-aa1d-577e993ed539","system_id":"levelo_inurba_marseille","lat":43.309589,"lon":5.390258,"is_reserved":false,"is_disabled":false,"rental_uris":{"android":"levelo://app?vid=68d55d67-4623-4f42-aa1d-577e993ed539","ios":"levelo://app?vid=68d55d67-4623-4f42-aa1d-577e993ed539"},"vehicle_type_id":"4","last_reported":1718302222,"current_range_meters":2000,"station_id":"ce4bgup2rcd13ifvqco0","pricing_plan_id":"cebpf4jnsgd1na2vs0mg"},{"bike_id":"bc23e010-ee02-4df9-b6d6-bf93955b6a75","system_id":"levelo_inurba_marseille","lat":43.309589,"lon":5.390258,"is_reserved":false,"is_disabled":false,"rental_uris":{"android":"levelo://app?vid=bc23e010-ee02-4df9-b6d6-bf93955b6a75","ios":"levelo://app?vid=bc23e010-ee02-4df9-b6d6-bf93955b6a75"},"vehicle_type_id":"4","last_reported":1718302222,"current_range_meters":2000,"station_id":"ce4bgup2rcd13ifvqco0","pricing_plan_id":"cebpf4jnsgd1na2vs0mg"},{"bike_id":"5c60c2a1-3178-4174-8c96-0b9bf8f4e6b2","system_id":"levelo_inurba_marseille","lat":43.309589,"lon":5.390258,"is_reserved":false,"is_disabled":false,"rental_uris":{"android":"levelo://app?vid=5c60c2a1-3178-4174-8c96-0b9bf8f4e6b2","ios":"levelo://app?vid=5c60c2a1-3178-4174-8c96-0b9bf8f4e6b2"},"vehicle_type_id":"4","last_reported":1718302222,"current_range_meters":21600,"station_id":"ce4bgup2rcd13ifvqco0","pricing_plan_id":"cebpf4jnsgd1na2vs0mg"},{"bike_id":"f97c4373-4b40-45f6-99e8-abcf5f06c2b5","system_id":"levelo_inurba_marseille","lat":43.317557,"lon":5.390173,"is_reserved":false,"is_disabled":false,"rental_uris":{"android":"levelo://app?vid=f97c4373-4b40-45f6-99e8-abcf5f06c2b5","ios":"levelo://app?vid=f97c4373-4b40-45f6-99e8-abcf5f06c2b5"},"vehicle_type_id":"4","last_reported":1718302222,"current_range_meters":12400,"station_id":"ce4bhqp2rcd13ifvqhng","pricing_plan_id":"cebpf4jnsgd1na2vs0mg"},{"bike_id":"73813caa-0a89-4e24-b92f-791556ee364f","system_id":"levelo_inurba_marseille","lat":43.317557,"lon":5.390173,"is_reserved":false,"is_disabled":false,"rental_uris":{"android":"levelo://app?vid=73813caa-0a89-4e24-b92f-791556ee364f","ios":"levelo://app?vid=73813caa-0a89-4e24-b92f-791556ee364f"},"vehicle_type_id":"4","last_reported":1718302222,"current_range_meters":22000,"station_id":"ce4bhqp2rcd13ifvqhng","pricing_plan_id":"cebpf4jnsgd1na2vs0mg"},{"bike_id":"0963ff29-1207-4795-973b-263a29e198d4","system_id":"levelo_inurba_marseille","lat":43.31765,"lon":5.39014,"is_reserved":false,"is_disabled":false,"rental_uris":{"android":"levelo://app?vid=0963ff29-1207-4795-973b-263a29e198d4","ios":"levelo://app?vid=0963ff29-1207-4795-973b-263a29e198d4"},"vehicle_type_id":"4","last_reported":1718302222,"current_range_meters":0,"station_id":"ce4bhqp2rcd13ifvqhng","pricing_plan_id":"cebpf4jnsgd1na2vs0mg"},{"bike_id":"8f8bd824-ce0a-457c-8463-9d5de42fbd68","system_id":"levelo_inurba_marseille","lat":43.317557,"lon":5.390173,"is_reserved":false,"is_disabled":false,"rental_uris":{"android":"levelo://app?vid=8f8bd824-ce0a-457c-8463-9d5de42fbd68","ios":"levelo://app?vid=8f8bd824-ce0a-457c-8463-9d5de42fbd68"},"vehicle_type_id":"4","last_reported":1718302222,"current_range_meters":5600,"station_id":"ce4bhqp2rcd13ifvqhng","pricing_plan_id":"cebpf4jnsgd1na2vs0mg"},{"bike_id":"4474e6df-7f5b-44fe-813d-cf3a42ffc001","system_id":"levelo_inurba_marseille","lat":43.304474,"lon":5.388796,"is_reserved":false,"is_disabled":false,"rental_uris":{"android":"levelo://app?vid=4474e6df-7f5b-44fe-813d-cf3a42ffc001","ios":"levelo://app?vid=4474e6df-7f5b-44fe-813d-cf3a42ffc001"},"vehicle_type_id":"4","last_reported":1718302222,"current_range_meters":2400,"station_id":"ce4bgk12rcd13ifvqbi0","pricing_plan_id":"cebpf4jnsgd1na2vs0mg"},{"bike_id":"d51789ea-eb04-4e0b-b0d1-a567aa1af80c","system_id":"levelo_inurba_marseille","lat":43.304606,"lon":5.379026,"is_reserved":false,"is_disabled":false,"rental_uris":{"android":"levelo://app?vid=d51789ea-eb04-4e0b-b0d1-a567aa1af80c","ios":"levelo://app?vid=d51789ea-eb04-4e0b-b0d1-a567aa1af80c"},"vehicle_type_id":"4","last_reported":1718302222,"current_range_meters":5200,"station_id":"ce4bgup2rcd13ifvqcn0","pricing_plan_id":"cebpf4jnsgd1na2vs0mg"},{"bike_id":"42befc41-151d-435c-9269-9a794c571876","system_id":"levelo_inurba_marseille","lat":43.30432,"lon":5.38888,"is_reserved":false,"is_disabled":false,"rental_uris":{"android":"levelo://app?vid=42befc41-151d-435c-9269-9a794c571876","ios":"levelo://app?vid=42befc41-151d-435c-9269-9a794c571876"},"vehicle_type_id":"4","last_reported":1718302222,"current_range_meters":29600,"station_id":"ce4bgk12rcd13ifvqbi0","pricing_plan_id":"cebpf4jnsgd1na2vs0mg"},{"bike_id":"19f40296-2966-43ad-ac45-3a1c7ae08a30","system_id":"levelo_inurba_marseille","lat":43.30438,"lon":5.388947,"is_reserved":false,"is_disabled":false,"rental_uris":{"android":"levelo://app?vid=19f40296-2966-43ad-ac45-3a1c7ae08a30","ios":"levelo://app?vid=19f40296-2966-43ad-ac45-3a1c7ae08a30"},"vehicle_type_id":"4","last_reported":1718302222,"current_range_meters":5600,"station_id":"ce4bgk12rcd13ifvqbi0","pricing_plan_id":"cebpf4jnsgd1na2vs0mg"},{"bike_id":"91338d44-8b66-4676-9bef-3cf44817fc0b","system_id":"levelo_inurba_marseille","lat":43.30432,"lon":5.38891,"is_reserved":false,"is_disabled":false,"rental_uris":{"android":"levelo://app?vid=91338d44-8b66-4676-9bef-3cf44817fc0b","ios":"levelo://app?vid=91338d44-8b66-4676-9bef-3cf44817fc0b"},"vehicle_type_id":"4","last_reported":1718302222,"current_range_meters":14000,"station_id":"ce4bgk12rcd13ifvqbi0","pricing_plan_id":"cebpf4jnsgd1na2vs0mg"},{"bike_id":"061994df-b8e3-4065-82c5-f672fc9fe28c","system_id":"levelo_inurba_marseille","lat":43.304289,"lon":5.388889,"is_reserved":false,"is_disabled":false,"rental_uris":{"android":"levelo://app?vid=061994df-b8e3-4065-82c5-f672fc9fe28c","ios":"levelo://app?vid=061994df-b8e3-4065-82c5-f672fc9fe28c"},"vehicle_type_id":"4","last_reported":1718302222,"current_range_meters":23600,"station_id":"ce4bgk12rcd13ifvqbi0","pricing_plan_id":"cebpf4jnsgd1na2vs0mg"},{"bike_id":"64e21ea4-b275-4b2b-bf87-0d5fc406dc79","system_id":"levelo_inurba_marseille","lat":43.30429,"lon":5.38891,"is_reserved":false,"is_disabled":false,"rental_uris":{"android":"levelo://app?vid=64e21ea4-b275-4b2b-bf87-0d5fc406dc79","ios":"levelo://app?vid=64e21ea4-b275-4b2b-bf87-0d5fc406dc79"},"vehicle_type_id":"4","last_reported":1718302222,"current_range_meters":28800,"station_id":"ce4bgk12rcd13ifvqbi0","pricing_plan_id":"cebpf4jnsgd1na2vs0mg"},{"bike_id":"55880183-5f7c-4f47-a297-cb9111a719c3","system_id":"levelo_inurba_marseille","lat":43.30421,"lon":5.38896,"is_reserved":false,"is_disabled":false,"rental_uris":{"android":"levelo://app?vid=55880183-5f7c-4f47-a297-cb9111a719c3","ios":"levelo://app?vid=55880183-5f7c-4f47-a297-cb9111a719c3"},"vehicle_type_id":"4","last_reported":1718302222,"current_range_meters":1200,"station_id":"ce4bgk12rcd13ifvqbi0","pricing_plan_id":"cebpf4jnsgd1na2vs0mg"},{"bike_id":"303d3c8c-3293-49a3-a611-73f19738eb67","system_id":"levelo_inurba_marseille","lat":43.299717,"lon":5.384845,"is_reserved":false,"is_disabled":false,"rental_uris":{"android":"levelo://app?vid=303d3c8c-3293-49a3-a611-73f19738eb67","ios":"levelo://app?vid=303d3c8c-3293-49a3-a611-73f19738eb67"},"vehicle_type_id":"4","last_reported":1718302222,"current_range_meters":0,"station_id":"ce4bgj92rcd13ifvqbd0","pricing_plan_id":"cebpf4jnsgd1na2vs0mg"},{"bike_id":"e6498f30-7841-407e-9b64-36f75a5b14ae","system_id":"levelo_inurba_marseille","lat":43.29602,"lon":5.381084,"is_reserved":false,"is_disabled":false,"rental_uris":{"android":"levelo://app?vid=e6498f30-7841-407e-9b64-36f75a5b14ae","ios":"levelo://app?vid=e6498f30-7841-407e-9b64-36f75a5b14ae"},"vehicle_type_id":"4","last_reported":1718302222,"current_range_meters":1200,"station_id":"ce4bgl12rcd13ifvqbo0","pricing_plan_id":"cebpf4jnsgd1na2vs0mg"},{"bike_id":"bd6cc042-4104-4ea8-9896-8555d9caba74","system_id":"levelo_inurba_marseille","lat":43.29314,"lon":5.37189,"is_reserved":false,"is_disabled":false,"rental_uris":{"android":"levelo://app?vid=bd6cc042-4104-4ea8-9896-8555d9caba74","ios":"levelo://app?vid=bd6cc042-4104-4ea8-9896-8555d9caba74"},"vehicle_type_id":"4","last_reported":1718302222,"current_range_meters":0,"station_id":"ce4bgh92rcd13ifvqb40","pricing_plan_id":"cebpf4jnsgd1na2vs0mg"},{"bike_id":"ebcf5aed-736a-4bd4-b736-1afc2a82485c","system_id":"levelo_inurba_marseille","lat":43.29308,"lon":5.3717,"is_reserved":false,"is_disabled":false,"rental_uris":{"android":"levelo://app?vid=ebcf5aed-736a-4bd4-b736-1afc2a82485c","ios":"levelo://app?vid=ebcf5aed-736a-4bd4-b736-1afc2a82485c"},"vehicle_type_id":"4","last_reported":1718302222,"current_range_meters":0,"station_id":"ce4bgh92rcd13ifvqb40","pricing_plan_id":"cebpf4jnsgd1na2vs0mg"},{"bike_id":"091c0318-4401-41f6-9d2a-742203ee965b","system_id":"levelo_inurba_marseille","lat":43.293259,"lon":5.371586,"is_reserved":false,"is_disabled":false,"rental_uris":{"android":"levelo://app?vid=091c0318-4401-41f6-9d2a-742203ee965b","ios":"levelo://app?vid=091c0318-4401-41f6-9d2a-742203ee965b"},"vehicle_type_id":"4","last_reported":1718302222,"current_range_meters":6400,"station_id":"ce4bgh92rcd13ifvqb40","pricing_plan_id":"cebpf4jnsgd1na2vs0mg"},{"bike_id":"b0590e4c-69c9-416b-b1f6-8c5b047c2224","system_id":"levelo_inurba_marseille","lat":43.293259,"lon":5.371586,"is_reserved":false,"is_disabled":false,"rental_uris":{"android":"levelo://app?vid=b0590e4c-69c9-416b-b1f6-8c5b047c2224","ios":"levelo://app?vid=b0590e4c-69c9-416b-b1f6-8c5b047c2224"},"vehicle_type_id":"4","last_reported":1718302222,"current_range_meters":800,"station_id":"ce4bgh92rcd13ifvqb40","pricing_plan_id":"cebpf4jnsgd1na2vs0mg"},{"bike_id":"be462b9d-76a7-489b-9e25-b885599561d3","system_id":"levelo_inurba_marseille","lat":43.29269,"lon":5.36844,"is_reserved":false,"is_disabled":false,"rental_uris":{"android":"levelo://app?vid=be462b9d-76a7-489b-9e25-b885599561d3","ios":"levelo://app?vid=be462b9d-76a7-489b-9e25-b885599561d3"},"vehicle_type_id":"4","last_reported":1718302222,"current_range_meters":28400,"station_id":"ce4bhbp2rcd13ifvqesg","pricing_plan_id":"cebpf4jnsgd1na2vs0mg"},{"bike_id":"754bc3b6-ad59-44cc-ab94-90d8cefc3c45","system_id":"levelo_inurba_marseille","lat":43.305994,"lon":5.393687,"is_reserved":false,"is_disabled":false,"rental_uris":{"android":"levelo://app?vid=754bc3b6-ad59-44cc-ab94-90d8cefc3c45","ios":"levelo://app?vid=754bc3b6-ad59-44cc-ab94-90d8cefc3c45"},"vehicle_type_id":"4","last_reported":1718302222,"current_range_meters":29200,"station_id":"ce4bh0p2rcd13ifvqd80","pricing_plan_id":"cebpf4jnsgd1na2vs0mg"},{"bike_id":"48a0ee48-2402-4560-8816-73aa545886c7","system_id":"levelo_inurba_marseille","lat":43.305994,"lon":5.393687,"is_reserved":false,"is_disabled":false,"rental_uris":{"android":"levelo://app?vid=48a0ee48-2402-4560-8816-73aa545886c7","ios":"levelo://app?vid=48a0ee48-2402-4560-8816-73aa545886c7"},"vehicle_type_id":"4","last_reported":1718302222,"current_range_meters":21600,"station_id":"ce4bh0p2rcd13ifvqd80","pricing_plan_id":"cebpf4jnsgd1na2vs0mg"},{"bike_id":"4245248a-8f15-4bfa-9c57-89d07445418a","system_id":"levelo_inurba_marseille","lat":43.293009,"lon":5.374584,"is_reserved":false,"is_disabled":false,"rental_uris":{"android":"levelo://app?vid=4245248a-8f15-4bfa-9c57-89d07445418a","ios":"levelo://app?vid=4245248a-8f15-4bfa-9c57-89d07445418a"},"vehicle_type_id":"4","last_reported":1718302222,"current_range_meters":10000,"station_id":"ce4bgi12rcd13ifvqb70","pricing_plan_id":"cebpf4jnsgd1na2vs0mg"},{"bike_id":"53567f23-c75c-456c-af2a-ca367bab74f4","system_id":"levelo_inurba_marseille","lat":43.292935,"lon":5.37447,"is_reserved":false,"is_disabled":false,"rental_uris":{"android":"levelo://app?vid=53567f23-c75c-456c-af2a-ca367bab74f4","ios":"levelo://app?vid=53567f23-c75c-456c-af2a-ca367bab74f4"},"vehicle_type_id":"4","last_reported":1718302222,"current_range_meters":0,"station_id":"ce4bgi12rcd13ifvqb70","pricing_plan_id":"cebpf4jnsgd1na2vs0mg"},{"bike_id":"81a27020-9644-4225-8189-9f7de2b441a1","system_id":"levelo_inurba_marseille","lat":43.293009,"lon":5.374584,"is_reserved":false,"is_disabled":false,"rental_uris":{"android":"levelo://app?vid=81a27020-9644-4225-8189-9f7de2b441a1","ios":"levelo://app?vid=81a27020-9644-4225-8189-9f7de2b441a1"},"vehicle_type_id":"4","last_reported":1718302222,"current_range_meters":0,"station_id":"ce4bgi12rcd13ifvqb70","pricing_plan_id":"cebpf4jnsgd1na2vs0mg"},{"bike_id":"c4854dc9-674a-4e48-871f-6cfb58e6c3dc","system_id":"levelo_inurba_marseille","lat":43.30297,"lon":5.39207,"is_reserved":false,"is_disabled":false,"rental_uris":{"android":"levelo://app?vid=c4854dc9-674a-4e48-871f-6cfb58e6c3dc","ios":"levelo://app?vid=c4854dc9-674a-4e48-871f-6cfb58e6c3dc"},"vehicle_type_id":"4","last_reported":1718302222,"current_range_meters":8000,"station_id":"ce4bgkh2rcd13ifvqbk0","pricing_plan_id":"cebpf4jnsgd1na2vs0mg"},{"bike_id":"d2f3b22a-b248-4368-add3-bd8261a44147","system_id":"levelo_inurba_marseille","lat":43.30298,"lon":5.39213,"is_reserved":false,"is_disabled":false,"rental_uris":{"android":"levelo://app?vid=d2f3b22a-b248-4368-add3-bd8261a44147","ios":"levelo://app?vid=d2f3b22a-b248-4368-add3-bd8261a44147"},"vehicle_type_id":"4","last_reported":1718302222,"current_range_meters":31200,"station_id":"ce4bgkh2rcd13ifvqbk0","pricing_plan_id":"cebpf4jnsgd1na2vs0mg"},{"bike_id":"c7c0b099-0673-4540-ae9c-d6b0f34ee25e","system_id":"levelo_inurba_marseille","lat":43.3029,"lon":5.39209,"is_reserved":false,"is_disabled":false,"rental_uris":{"android":"levelo://app?vid=c7c0b099-0673-4540-ae9c-d6b0f34ee25e","ios":"levelo://app?vid=c7c0b099-0673-4540-ae9c-d6b0f34ee25e"},"vehicle_type_id":"4","last_reported":1718302222,"current_range_meters":24000,"station_id":"ce4bgkh2rcd13ifvqbk0","pricing_plan_id":"cebpf4jnsgd1na2vs0mg"},{"bike_id":"98351332-c5c6-486a-89cf-e42271e8409e","system_id":"levelo_inurba_marseille","lat":43.292311,"lon":5.360731,"is_reserved":false,"is_disabled":false,"rental_uris":{"android":"levelo://app?vid=98351332-c5c6-486a-89cf-e42271e8409e","ios":"levelo://app?vid=98351332-c5c6-486a-89cf-e42271e8409e"},"vehicle_type_id":"4","last_reported":1718302222,"current_range_meters":19600,"station_id":"ce4bhbh2rcd13ifvqeqg","pricing_plan_id":"cebpf4jnsgd1na2vs0mg"},{"bike_id":"8a158e84-ca6b-42a2-9de4-4f2c1caafed0","system_id":"levelo_inurba_marseille","lat":43.29224,"lon":5.360673,"is_reserved":false,"is_disabled":false,"rental_uris":{"android":"levelo://app?vid=8a158e84-ca6b-42a2-9de4-4f2c1caafed0","ios":"levelo://app?vid=8a158e84-ca6b-42a2-9de4-4f2c1caafed0"},"vehicle_type_id":"4","last_reported":1718302222,"current_range_meters":26800,"station_id":"ce4bhbh2rcd13ifvqeqg","pricing_plan_id":"cebpf4jnsgd1na2vs0mg"},{"bike_id":"78c8d5ab-7d2a-4ad1-ae55-58c9fcb88f07","system_id":"levelo_inurba_marseille","lat":43.30085,"lon":5.390856,"is_reserved":false,"is_disabled":false,"rental_uris":{"android":"levelo://app?vid=78c8d5ab-7d2a-4ad1-ae55-58c9fcb88f07","ios":"levelo://app?vid=78c8d5ab-7d2a-4ad1-ae55-58c9fcb88f07"},"vehicle_type_id":"4","last_reported":1718302222,"current_range_meters":0,"station_id":"ce4bh192rcd13ifvqdb0","pricing_plan_id":"cebpf4jnsgd1na2vs0mg"},{"bike_id":"662de68a-8ee4-4fb0-ab5e-00354a41be30","system_id":"levelo_inurba_marseille","lat":43.30085,"lon":5.390856,"is_reserved":false,"is_disabled":false,"rental_uris":{"android":"levelo://app?vid=662de68a-8ee4-4fb0-ab5e-00354a41be30","ios":"levelo://app?vid=662de68a-8ee4-4fb0-ab5e-00354a41be30"},"vehicle_type_id":"4","last_reported":1718302222,"current_range_meters":20800,"station_id":"ce4bh192rcd13ifvqdb0","pricing_plan_id":"cebpf4jnsgd1na2vs0mg"},{"bike_id":"08d17e73-cebf-43e9-a534-820164fcea93","system_id":"levelo_inurba_marseille","lat":43.29217,"lon":5.360606,"is_reserved":false,"is_disabled":false,"rental_uris":{"android":"levelo://app?vid=08d17e73-cebf-43e9-a534-820164fcea93","ios":"levelo://app?vid=08d17e73-cebf-43e9-a534-820164fcea93"},"vehicle_type_id":"4","last_reported":1718302222,"current_range_meters":26400,"station_id":"ce4bhbh2rcd13ifvqeqg","pricing_plan_id":"cebpf4jnsgd1na2vs0mg"},{"bike_id":"cc4b05ff-5fd5-4934-874b-9e7d5a011c2f","system_id":"levelo_inurba_marseille","lat":43.291675,"lon":5.371583,"is_reserved":false,"is_disabled":false,"rental_uris":{"android":"levelo://app?vid=cc4b05ff-5fd5-4934-874b-9e7d5a011c2f","ios":"levelo://app?vid=cc4b05ff-5fd5-4934-874b-9e7d5a011c2f"},"vehicle_type_id":"4","last_reported":1718302222,"current_range_meters":28800,"station_id":"ce4bha92rcd13ifvqeh0","pricing_plan_id":"cebpf4jnsgd1na2vs0mg"},{"bike_id":"b4d93cf9-2fa0-4f08-9b3e-b1fce273dfbf","system_id":"levelo_inurba_marseille","lat":43.309047,"lon":5.396551,"is_reserved":false,"is_disabled":false,"rental_uris":{"android":"levelo://app?vid=b4d93cf9-2fa0-4f08-9b3e-b1fce273dfbf","ios":"levelo://app?vid=b4d93cf9-2fa0-4f08-9b3e-b1fce273dfbf"},"vehicle_type_id":"4","last_reported":1718302222,"current_range_meters":2000,"station_id":"ce4bh012rcd13ifvqcv0","pricing_plan_id":"cebpf4jnsgd1na2vs0mg"},{"bike_id":"e623c071-ce36-47ab-9bca-899cee8c954e","system_id":"levelo_inurba_marseille","lat":43.292005,"lon":5.357875,"is_reserved":false,"is_disabled":false,"rental_uris":{"android":"levelo://app?vid=e623c071-ce36-47ab-9bca-899cee8c954e","ios":"levelo://app?vid=e623c071-ce36-47ab-9bca-899cee8c954e"},"vehicle_type_id":"4","last_reported":1718302222,"current_range_meters":4400,"station_id":"ce4bhb12rcd13ifvqel0","pricing_plan_id":"cebpf4jnsgd1na2vs0mg"},{"bike_id":"5030098a-8fb3-4336-96d8-22b5e344a8c4","system_id":"levelo_inurba_marseille","lat":43.292005,"lon":5.357875,"is_reserved":false,"is_disabled":false,"rental_uris":{"android":"levelo://app?vid=5030098a-8fb3-4336-96d8-22b5e344a8c4","ios":"levelo://app?vid=5030098a-8fb3-4336-96d8-22b5e344a8c4"},"vehicle_type_id":"4","last_reported":1718302222,"current_range_meters":18000,"station_id":"ce4bhb12rcd13ifvqel0","pricing_plan_id":"cebpf4jnsgd1na2vs0mg"},{"bike_id":"9a66afb5-5c8c-4056-9056-342a9a1dc0b3","system_id":"levelo_inurba_marseille","lat":43.291994,"lon":5.357886,"is_reserved":false,"is_disabled":false,"rental_uris":{"android":"levelo://app?vid=9a66afb5-5c8c-4056-9056-342a9a1dc0b3","ios":"levelo://app?vid=9a66afb5-5c8c-4056-9056-342a9a1dc0b3"},"vehicle_type_id":"4","last_reported":1718302222,"current_range_meters":5200,"station_id":"ce4bhb12rcd13ifvqel0","pricing_plan_id":"cebpf4jnsgd1na2vs0mg"},{"bike_id":"df6c28bb-ae97-4932-b1af-3f8bdaee8bda","system_id":"levelo_inurba_marseille","lat":43.292005,"lon":5.357875,"is_reserved":false,"is_disabled":false,"rental_uris":{"android":"levelo://app?vid=df6c28bb-ae97-4932-b1af-3f8bdaee8bda","ios":"levelo://app?vid=df6c28bb-ae97-4932-b1af-3f8bdaee8bda"},"vehicle_type_id":"4","last_reported":1718302222,"current_range_meters":19600,"station_id":"ce4bhb12rcd13ifvqel0","pricing_plan_id":"cebpf4jnsgd1na2vs0mg"},{"bike_id":"179f3ebb-6ff1-4688-b31b-b1a7049a8632","system_id":"levelo_inurba_marseille","lat":43.291994,"lon":5.357886,"is_reserved":false,"is_disabled":false,"rental_uris":{"android":"levelo://app?vid=179f3ebb-6ff1-4688-b31b-b1a7049a8632","ios":"levelo://app?vid=179f3ebb-6ff1-4688-b31b-b1a7049a8632"},"vehicle_type_id":"4","last_reported":1718302222,"current_range_meters":2000,"station_id":"ce4bhb12rcd13ifvqel0","pricing_plan_id":"cebpf4jnsgd1na2vs0mg"},{"bike_id":"d1d53271-578c-4339-a545-b00a3382481b","system_id":"levelo_inurba_marseille","lat":43.309038,"lon":5.396546,"is_reserved":false,"is_disabled":false,"rental_uris":{"android":"levelo://app?vid=d1d53271-578c-4339-a545-b00a3382481b","ios":"levelo://app?vid=d1d53271-578c-4339-a545-b00a3382481b"},"vehicle_type_id":"4","last_reported":1718302222,"current_range_meters":4800,"station_id":"ce4bh012rcd13ifvqcv0","pricing_plan_id":"cebpf4jnsgd1na2vs0mg"},{"bike_id":"39ee94c0-cf51-4a77-87a4-1c7b1fa10592","system_id":"levelo_inurba_marseille","lat":43.309038,"lon":5.396546,"is_reserved":false,"is_disabled":false,"rental_uris":{"android":"levelo://app?vid=39ee94c0-cf51-4a77-87a4-1c7b1fa10592","ios":"levelo://app?vid=39ee94c0-cf51-4a77-87a4-1c7b1fa10592"},"vehicle_type_id":"4","last_reported":1718302222,"current_range_meters":1200,"station_id":"ce4bh012rcd13ifvqcv0","pricing_plan_id":"cebpf4jnsgd1na2vs0mg"},{"bike_id":"7b30cccf-32de-4f97-9263-064ca266f940","system_id":"levelo_inurba_marseille","lat":43.309038,"lon":5.396546,"is_reserved":false,"is_disabled":false,"rental_uris":{"android":"levelo://app?vid=7b30cccf-32de-4f97-9263-064ca266f940","ios":"levelo://app?vid=7b30cccf-32de-4f97-9263-064ca266f940"},"vehicle_type_id":"4","last_reported":1718302222,"current_range_meters":11200,"station_id":"ce4bh012rcd13ifvqcv0","pricing_plan_id":"cebpf4jnsgd1na2vs0mg"},{"bike_id":"5d355822-7556-4544-b52c-c64dc6a97dc2","system_id":"levelo_inurba_marseille","lat":43.309047,"lon":5.396551,"is_reserved":false,"is_disabled":false,"rental_uris":{"android":"levelo://app?vid=5d355822-7556-4544-b52c-c64dc6a97dc2","ios":"levelo://app?vid=5d355822-7556-4544-b52c-c64dc6a97dc2"},"vehicle_type_id":"4","last_reported":1718302222,"current_range_meters":31600,"station_id":"ce4bh012rcd13ifvqcv0","pricing_plan_id":"cebpf4jnsgd1na2vs0mg"},{"bike_id":"0551f637-78a3-4b8f-b2a0-0a233d7f708f","system_id":"levelo_inurba_marseille","lat":43.309038,"lon":5.396546,"is_reserved":false,"is_disabled":false,"rental_uris":{"android":"levelo://app?vid=0551f637-78a3-4b8f-b2a0-0a233d7f708f","ios":"levelo://app?vid=0551f637-78a3-4b8f-b2a0-0a233d7f708f"},"vehicle_type_id":"4","last_reported":1718302222,"current_range_meters":25200,"station_id":"ce4bh012rcd13ifvqcv0","pricing_plan_id":"cebpf4jnsgd1na2vs0mg"},{"bike_id":"6afae193-e2c6-450a-b134-eb11d8de9188","system_id":"levelo_inurba_marseille","lat":43.29529,"lon":5.385581,"is_reserved":false,"is_disabled":false,"rental_uris":{"android":"levelo://app?vid=6afae193-e2c6-450a-b134-eb11d8de9188","ios":"levelo://app?vid=6afae193-e2c6-450a-b134-eb11d8de9188"},"vehicle_type_id":"4","last_reported":1718302222,"current_range_meters":19600,"station_id":"ce4bgih2rcd13ifvqba0","pricing_plan_id":"cebpf4jnsgd1na2vs0mg"},{"bike_id":"d9b94b00-17c0-4194-89d7-f34d35b8eeb1","system_id":"levelo_inurba_marseille","lat":43.309038,"lon":5.396546,"is_reserved":false,"is_disabled":false,"rental_uris":{"android":"levelo://app?vid=d9b94b00-17c0-4194-89d7-f34d35b8eeb1","ios":"levelo://app?vid=d9b94b00-17c0-4194-89d7-f34d35b8eeb1"},"vehicle_type_id":"4","last_reported":1718302222,"current_range_meters":2400,"station_id":"ce4bh012rcd13ifvqcv0","pricing_plan_id":"cebpf4jnsgd1na2vs0mg"},{"bike_id":"2c7392e6-14d5-47a6-9d7d-85d7335e3360","system_id":"levelo_inurba_marseille","lat":43.29529,"lon":5.385581,"is_reserved":false,"is_disabled":false,"rental_uris":{"android":"levelo://app?vid=2c7392e6-14d5-47a6-9d7d-85d7335e3360","ios":"levelo://app?vid=2c7392e6-14d5-47a6-9d7d-85d7335e3360"},"vehicle_type_id":"4","last_reported":1718302222,"current_range_meters":31200,"station_id":"ce4bgih2rcd13ifvqba0","pricing_plan_id":"cebpf4jnsgd1na2vs0mg"},{"bike_id":"140bd4ed-d968-40dd-82a1-ddffb65e95af","system_id":"levelo_inurba_marseille","lat":43.29529,"lon":5.385581,"is_reserved":false,"is_disabled":false,"rental_uris":{"android":"levelo://app?vid=140bd4ed-d968-40dd-82a1-ddffb65e95af","ios":"levelo://app?vid=140bd4ed-d968-40dd-82a1-ddffb65e95af"},"vehicle_type_id":"4","last_reported":1718302222,"current_range_meters":23200,"station_id":"ce4bgih2rcd13ifvqba0","pricing_plan_id":"cebpf4jnsgd1na2vs0mg"},{"bike_id":"8efcc7dd-55e0-4d2a-90b2-810a2d8bfd9d","system_id":"levelo_inurba_marseille","lat":43.29529,"lon":5.385581,"is_reserved":false,"is_disabled":false,"rental_uris":{"android":"levelo://app?vid=8efcc7dd-55e0-4d2a-90b2-810a2d8bfd9d","ios":"levelo://app?vid=8efcc7dd-55e0-4d2a-90b2-810a2d8bfd9d"},"vehicle_type_id":"4","last_reported":1718302222,"current_range_meters":27200,"station_id":"ce4bgih2rcd13ifvqba0","pricing_plan_id":"cebpf4jnsgd1na2vs0mg"},{"bike_id":"596df7e1-b1e7-422c-a268-34dcfd74dcd7","system_id":"levelo_inurba_marseille","lat":43.290722,"lon":5.371686,"is_reserved":false,"is_disabled":false,"rental_uris":{"android":"levelo://app?vid=596df7e1-b1e7-422c-a268-34dcfd74dcd7","ios":"levelo://app?vid=596df7e1-b1e7-422c-a268-34dcfd74dcd7"},"vehicle_type_id":"4","last_reported":1718302222,"current_range_meters":0,"station_id":"ce4bh5p2rcd13ifvqe4g","pricing_plan_id":"cebpf4jnsgd1na2vs0mg"},{"bike_id":"76da925b-13bf-4919-b1d5-145217e518a4","system_id":"levelo_inurba_marseille","lat":43.290624,"lon":5.359245,"is_reserved":false,"is_disabled":false,"rental_uris":{"android":"levelo://app?vid=76da925b-13bf-4919-b1d5-145217e518a4","ios":"levelo://app?vid=76da925b-13bf-4919-b1d5-145217e518a4"},"vehicle_type_id":"4","last_reported":1718302222,"current_range_meters":0,"station_id":"ce4bha92rcd13ifvqeg0","pricing_plan_id":"cebpf4jnsgd1na2vs0mg"},{"bike_id":"5bd39e4f-925f-4ea9-9564-3b157db6b647","system_id":"levelo_inurba_marseille","lat":43.290319,"lon":5.375732,"is_reserved":false,"is_disabled":false,"rental_uris":{"android":"levelo://app?vid=5bd39e4f-925f-4ea9-9564-3b157db6b647","ios":"levelo://app?vid=5bd39e4f-925f-4ea9-9564-3b157db6b647"},"vehicle_type_id":"4","last_reported":1718302222,"current_range_meters":0,"station_id":"ce4bh692rcd13ifvqe90","pricing_plan_id":"cebpf4jnsgd1na2vs0mg"},{"bike_id":"b5469643-4ef6-407f-86a3-f42727c60459","system_id":"levelo_inurba_marseille","lat":43.294181,"lon":5.386207,"is_reserved":false,"is_disabled":false,"rental_uris":{"android":"levelo://app?vid=b5469643-4ef6-407f-86a3-f42727c60459","ios":"levelo://app?vid=b5469643-4ef6-407f-86a3-f42727c60459"},"vehicle_type_id":"4","last_reported":1718302222,"current_range_meters":400,"station_id":"ce4bh2h2rcd13ifvqdh0","pricing_plan_id":"cebpf4jnsgd1na2vs0mg"},{"bike_id":"ffaa9942-7cc8-45e8-9d2c-e3bdff2a0d84","system_id":"levelo_inurba_marseille","lat":43.29417,"lon":5.38619,"is_reserved":false,"is_disabled":false,"rental_uris":{"android":"levelo://app?vid=ffaa9942-7cc8-45e8-9d2c-e3bdff2a0d84","ios":"levelo://app?vid=ffaa9942-7cc8-45e8-9d2c-e3bdff2a0d84"},"vehicle_type_id":"4","last_reported":1718302222,"current_range_meters":2400,"station_id":"ce4bh2h2rcd13ifvqdh0","pricing_plan_id":"cebpf4jnsgd1na2vs0mg"},{"bike_id":"c992db3f-65de-4a7e-be30-dbc92386be3b","system_id":"levelo_inurba_marseille","lat":43.309076,"lon":5.368465,"is_reserved":false,"is_disabled":false,"rental_uris":{"android":"levelo://app?vid=c992db3f-65de-4a7e-be30-dbc92386be3b","ios":"levelo://app?vid=c992db3f-65de-4a7e-be30-dbc92386be3b"},"vehicle_type_id":"4","last_reported":1718302222,"current_range_meters":10400,"station_id":"ce4bgn92rcd13ifvqbvg","pricing_plan_id":"cebpf4jnsgd1na2vs0mg"},{"bike_id":"eb6be534-1821-4855-a246-1f972bddb90b","system_id":"levelo_inurba_marseille","lat":43.29418,"lon":5.38623,"is_reserved":false,"is_disabled":false,"rental_uris":{"android":"levelo://app?vid=eb6be534-1821-4855-a246-1f972bddb90b","ios":"levelo://app?vid=eb6be534-1821-4855-a246-1f972bddb90b"},"vehicle_type_id":"4","last_reported":1718302222,"current_range_meters":0,"station_id":"ce4bh2h2rcd13ifvqdh0","pricing_plan_id":"cebpf4jnsgd1na2vs0mg"},{"bike_id":"420cd010-e7c7-4b9c-acce-07c04284db5d","system_id":"levelo_inurba_marseille","lat":43.29417,"lon":5.38623,"is_reserved":false,"is_disabled":false,"rental_uris":{"android":"levelo://app?vid=420cd010-e7c7-4b9c-acce-07c04284db5d","ios":"levelo://app?vid=420cd010-e7c7-4b9c-acce-07c04284db5d"},"vehicle_type_id":"4","last_reported":1718302222,"current_range_meters":0,"station_id":"ce4bh2h2rcd13ifvqdh0","pricing_plan_id":"cebpf4jnsgd1na2vs0mg"},{"bike_id":"0fd4142e-cd2b-41a8-ac74-58376c3de181","system_id":"levelo_inurba_marseille","lat":43.294162,"lon":5.386292,"is_reserved":false,"is_disabled":false,"rental_uris":{"android":"levelo://app?vid=0fd4142e-cd2b-41a8-ac74-58376c3de181","ios":"levelo://app?vid=0fd4142e-cd2b-41a8-ac74-58376c3de181"},"vehicle_type_id":"4","last_reported":1718302222,"current_range_meters":9200,"station_id":"ce4bh2h2rcd13ifvqdh0","pricing_plan_id":"cebpf4jnsgd1na2vs0mg"},{"bike_id":"94954e4b-c667-4fb0-aa25-b4c7c1b3d390","system_id":"levelo_inurba_marseille","lat":43.289184,"lon":5.366408,"is_reserved":false,"is_disabled":false,"rental_uris":{"android":"levelo://app?vid=94954e4b-c667-4fb0-aa25-b4c7c1b3d390","ios":"levelo://app?vid=94954e4b-c667-4fb0-aa25-b4c7c1b3d390"},"vehicle_type_id":"4","last_reported":1718302222,"current_range_meters":17600,"station_id":"ce4bhap2rcd13ifvqek0","pricing_plan_id":"cebpf4jnsgd1na2vs0mg"},{"bike_id":"7f1dae15-66a7-471d-bc2d-01bcf8f8003e","system_id":"levelo_inurba_marseille","lat":43.289184,"lon":5.366408,"is_reserved":false,"is_disabled":false,"rental_uris":{"android":"levelo://app?vid=7f1dae15-66a7-471d-bc2d-01bcf8f8003e","ios":"levelo://app?vid=7f1dae15-66a7-471d-bc2d-01bcf8f8003e"},"vehicle_type_id":"4","last_reported":1718302222,"current_range_meters":8800,"station_id":"ce4bhap2rcd13ifvqek0","pricing_plan_id":"cebpf4jnsgd1na2vs0mg"},{"bike_id":"9f78aa9c-d9f9-460f-9603-f85075da8ef8","system_id":"levelo_inurba_marseille","lat":43.289184,"lon":5.366408,"is_reserved":false,"is_disabled":false,"rental_uris":{"android":"levelo://app?vid=9f78aa9c-d9f9-460f-9603-f85075da8ef8","ios":"levelo://app?vid=9f78aa9c-d9f9-460f-9603-f85075da8ef8"},"vehicle_type_id":"4","last_reported":1718302222,"current_range_meters":19200,"station_id":"ce4bhap2rcd13ifvqek0","pricing_plan_id":"cebpf4jnsgd1na2vs0mg"},{"bike_id":"7c673703-baad-48e8-a58d-831a4f50b6a4","system_id":"levelo_inurba_marseille","lat":43.292644,"lon":5.384257,"is_reserved":false,"is_disabled":false,"rental_uris":{"android":"levelo://app?vid=7c673703-baad-48e8-a58d-831a4f50b6a4","ios":"levelo://app?vid=7c673703-baad-48e8-a58d-831a4f50b6a4"},"vehicle_type_id":"4","last_reported":1718302222,"current_range_meters":0,"station_id":"ce4bh692rcd13ifvqea0","pricing_plan_id":"cebpf4jnsgd1na2vs0mg"},{"bike_id":"72dfaa69-7001-4f66-b03c-324fba96fbd3","system_id":"levelo_inurba_marseille","lat":43.304274,"lon":5.397513,"is_reserved":false,"is_disabled":false,"rental_uris":{"android":"levelo://app?vid=72dfaa69-7001-4f66-b03c-324fba96fbd3","ios":"levelo://app?vid=72dfaa69-7001-4f66-b03c-324fba96fbd3"},"vehicle_type_id":"4","last_reported":1718302222,"current_range_meters":3600,"station_id":"ce4bh092rcd13ifvqd20","pricing_plan_id":"cebpf4jnsgd1na2vs0mg"},{"bike_id":"3a4b0cd5-844c-4e26-9407-bec2576b733c","system_id":"levelo_inurba_marseille","lat":43.292644,"lon":5.384257,"is_reserved":false,"is_disabled":false,"rental_uris":{"android":"levelo://app?vid=3a4b0cd5-844c-4e26-9407-bec2576b733c","ios":"levelo://app?vid=3a4b0cd5-844c-4e26-9407-bec2576b733c"},"vehicle_type_id":"4","last_reported":1718302222,"current_range_meters":10400,"station_id":"ce4bh692rcd13ifvqea0","pricing_plan_id":"cebpf4jnsgd1na2vs0mg"},{"bike_id":"d731361b-79c5-4817-9432-6c39fc92b29b","system_id":"levelo_inurba_marseille","lat":43.30267,"lon":5.39651,"is_reserved":false,"is_disabled":false,"rental_uris":{"android":"levelo://app?vid=d731361b-79c5-4817-9432-6c39fc92b29b","ios":"levelo://app?vid=d731361b-79c5-4817-9432-6c39fc92b29b"},"vehicle_type_id":"4","last_reported":1718302222,"current_range_meters":0,"station_id":"","pricing_plan_id":"cebpf4jnsgd1na2vs0mg"},{"bike_id":"2c4980f1-3791-44bf-9279-16554084d2e6","system_id":"levelo_inurba_marseille","lat":43.29258,"lon":5.38446,"is_reserved":false,"is_disabled":false,"rental_uris":{"android":"levelo://app?vid=2c4980f1-3791-44bf-9279-16554084d2e6","ios":"levelo://app?vid=2c4980f1-3791-44bf-9279-16554084d2e6"},"vehicle_type_id":"4","last_reported":1718302222,"current_range_meters":0,"station_id":"ce4bh692rcd13ifvqea0","pricing_plan_id":"cebpf4jnsgd1na2vs0mg"},{"bike_id":"af6a7298-a6ec-4a9d-be67-cd5e3fa008e6","system_id":"levelo_inurba_marseille","lat":43.290104,"lon":5.356111,"is_reserved":false,"is_disabled":false,"rental_uris":{"android":"levelo://app?vid=af6a7298-a6ec-4a9d-be67-cd5e3fa008e6","ios":"levelo://app?vid=af6a7298-a6ec-4a9d-be67-cd5e3fa008e6"},"vehicle_type_id":"4","last_reported":1718302222,"current_range_meters":400,"station_id":"ce4bhb92rcd13ifvqen0","pricing_plan_id":"cebpf4jnsgd1na2vs0mg"},{"bike_id":"fd1e6b99-24b9-46b3-9be1-17dd809824e6","system_id":"levelo_inurba_marseille","lat":43.29241,"lon":5.38443,"is_reserved":false,"is_disabled":false,"rental_uris":{"android":"levelo://app?vid=fd1e6b99-24b9-46b3-9be1-17dd809824e6","ios":"levelo://app?vid=fd1e6b99-24b9-46b3-9be1-17dd809824e6"},"vehicle_type_id":"4","last_reported":1718302222,"current_range_meters":0,"station_id":"ce4bh692rcd13ifvqea0","pricing_plan_id":"cebpf4jnsgd1na2vs0mg"},{"bike_id":"233f5018-55aa-4cd8-9079-e42f3f86ef57","system_id":"levelo_inurba_marseille","lat":43.29001,"lon":5.35616,"is_reserved":false,"is_disabled":false,"rental_uris":{"android":"levelo://app?vid=233f5018-55aa-4cd8-9079-e42f3f86ef57","ios":"levelo://app?vid=233f5018-55aa-4cd8-9079-e42f3f86ef57"},"vehicle_type_id":"4","last_reported":1718302222,"current_range_meters":0,"station_id":"ce4bhb92rcd13ifvqen0","pricing_plan_id":"cebpf4jnsgd1na2vs0mg"},{"bike_id":"b22ed2de-cc84-4918-9f1d-5256364fc396","system_id":"levelo_inurba_marseille","lat":43.290995,"lon":5.381361,"is_reserved":false,"is_disabled":false,"rental_uris":{"android":"levelo://app?vid=b22ed2de-cc84-4918-9f1d-5256364fc396","ios":"levelo://app?vid=b22ed2de-cc84-4918-9f1d-5256364fc396"},"vehicle_type_id":"4","last_reported":1718302222,"current_range_meters":0,"station_id":"ce4bh512rcd13ifvqe2g","pricing_plan_id":"cebpf4jnsgd1na2vs0mg"},{"bike_id":"72137997-938f-42d3-992b-9e2886eb35c0","system_id":"levelo_inurba_marseille","lat":43.295169,"lon":5.390426,"is_reserved":false,"is_disabled":false,"rental_uris":{"android":"levelo://app?vid=72137997-938f-42d3-992b-9e2886eb35c0","ios":"levelo://app?vid=72137997-938f-42d3-992b-9e2886eb35c0"},"vehicle_type_id":"4","last_reported":1718302222,"current_range_meters":0,"station_id":"ce4bh3p2rcd13ifvqdp0","pricing_plan_id":"cebpf4jnsgd1na2vs0mg"},{"bike_id":"c7b59939-733b-40b6-a4f9-f807411e9d08","system_id":"levelo_inurba_marseille","lat":43.289743,"lon":5.378304,"is_reserved":false,"is_disabled":false,"rental_uris":{"android":"levelo://app?vid=c7b59939-733b-40b6-a4f9-f807411e9d08","ios":"levelo://app?vid=c7b59939-733b-40b6-a4f9-f807411e9d08"},"vehicle_type_id":"4","last_reported":1718302222,"current_range_meters":800,"station_id":"ce4bh9p2rcd13ifvqed0","pricing_plan_id":"cebpf4jnsgd1na2vs0mg"},{"bike_id":"30aab9a0-efba-4c26-90b2-23360f5fe589","system_id":"levelo_inurba_marseille","lat":43.33022,"lon":5.39036,"is_reserved":false,"is_disabled":false,"rental_uris":{"android":"levelo://app?vid=30aab9a0-efba-4c26-90b2-23360f5fe589","ios":"levelo://app?vid=30aab9a0-efba-4c26-90b2-23360f5fe589"},"vehicle_type_id":"4","last_reported":1718302222,"current_range_meters":2800,"station_id":"ce4bhr92rcd13ifvqhrg","pricing_plan_id":"cebpf4jnsgd1na2vs0mg"},{"bike_id":"21edbda5-a7d7-4a23-89e3-604dd70d0d54","system_id":"levelo_inurba_marseille","lat":43.289743,"lon":5.378304,"is_reserved":false,"is_disabled":false,"rental_uris":{"android":"levelo://app?vid=21edbda5-a7d7-4a23-89e3-604dd70d0d54","ios":"levelo://app?vid=21edbda5-a7d7-4a23-89e3-604dd70d0d54"},"vehicle_type_id":"4","last_reported":1718302222,"current_range_meters":800,"station_id":"ce4bh9p2rcd13ifvqed0","pricing_plan_id":"cebpf4jnsgd1na2vs0mg"},{"bike_id":"599f6c66-7b19-463e-88f6-63de91c76709","system_id":"levelo_inurba_marseille","lat":43.330442,"lon":5.389148,"is_reserved":false,"is_disabled":false,"rental_uris":{"android":"levelo://app?vid=599f6c66-7b19-463e-88f6-63de91c76709","ios":"levelo://app?vid=599f6c66-7b19-463e-88f6-63de91c76709"},"vehicle_type_id":"4","last_reported":1718302222,"current_range_meters":5600,"station_id":"ce4bhr92rcd13ifvqhrg","pricing_plan_id":"cebpf4jnsgd1na2vs0mg"},{"bike_id":"0b4c20c0-786c-4b52-8016-3951733cc440","system_id":"levelo_inurba_marseille","lat":43.330442,"lon":5.389148,"is_reserved":false,"is_disabled":false,"rental_uris":{"android":"levelo://app?vid=0b4c20c0-786c-4b52-8016-3951733cc440","ios":"levelo://app?vid=0b4c20c0-786c-4b52-8016-3951733cc440"},"vehicle_type_id":"4","last_reported":1718302222,"current_range_meters":3600,"station_id":"ce4bhr92rcd13ifvqhrg","pricing_plan_id":"cebpf4jnsgd1na2vs0mg"},{"bike_id":"0a32f60a-9cb5-410c-936f-421371c731e2","system_id":"levelo_inurba_marseille","lat":43.29514,"lon":5.39031,"is_reserved":false,"is_disabled":false,"rental_uris":{"android":"levelo://app?vid=0a32f60a-9cb5-410c-936f-421371c731e2","ios":"levelo://app?vid=0a32f60a-9cb5-410c-936f-421371c731e2"},"vehicle_type_id":"4","last_reported":1718302222,"current_range_meters":0,"station_id":"ce4bh3p2rcd13ifvqdp0","pricing_plan_id":"cebpf4jnsgd1na2vs0mg"},{"bike_id":"2ae77a95-a993-46e5-8e84-81ee3184f964","system_id":"levelo_inurba_marseille","lat":43.295169,"lon":5.390426,"is_reserved":false,"is_disabled":false,"rental_uris":{"android":"levelo://app?vid=2ae77a95-a993-46e5-8e84-81ee3184f964","ios":"levelo://app?vid=2ae77a95-a993-46e5-8e84-81ee3184f964"},"vehicle_type_id":"4","last_reported":1718302222,"current_range_meters":2000,"station_id":"ce4bh3p2rcd13ifvqdp0","pricing_plan_id":"cebpf4jnsgd1na2vs0mg"},{"bike_id":"d6930c59-4a59-4dd6-a2f0-358996322f32","system_id":"levelo_inurba_marseille","lat":43.28856,"lon":5.358371,"is_reserved":false,"is_disabled":false,"rental_uris":{"android":"levelo://app?vid=d6930c59-4a59-4dd6-a2f0-358996322f32","ios":"levelo://app?vid=d6930c59-4a59-4dd6-a2f0-358996322f32"},"vehicle_type_id":"4","last_reported":1718302222,"current_range_meters":5600,"station_id":"ce4bhb12rcd13ifvqem0","pricing_plan_id":"cebpf4jnsgd1na2vs0mg"},{"bike_id":"df91c142-9b21-43c2-951f-3f8535b22658","system_id":"levelo_inurba_marseille","lat":43.2901,"lon":5.381269,"is_reserved":false,"is_disabled":false,"rental_uris":{"android":"levelo://app?vid=df91c142-9b21-43c2-951f-3f8535b22658","ios":"levelo://app?vid=df91c142-9b21-43c2-951f-3f8535b22658"},"vehicle_type_id":"4","last_reported":1718302222,"current_range_meters":10000,"station_id":"ce4bh4p2rcd13ifvqe1g","pricing_plan_id":"cebpf4jnsgd1na2vs0mg"},{"bike_id":"8985f59c-5c43-4f1d-99ef-751ce4a9e15a","system_id":"levelo_inurba_marseille","lat":43.28856,"lon":5.358371,"is_reserved":false,"is_disabled":false,"rental_uris":{"android":"levelo://app?vid=8985f59c-5c43-4f1d-99ef-751ce4a9e15a","ios":"levelo://app?vid=8985f59c-5c43-4f1d-99ef-751ce4a9e15a"},"vehicle_type_id":"4","last_reported":1718302222,"current_range_meters":10400,"station_id":"ce4bhb12rcd13ifvqem0","pricing_plan_id":"cebpf4jnsgd1na2vs0mg"},{"bike_id":"19d2c2a1-0417-482c-9452-221f401c01f7","system_id":"levelo_inurba_marseille","lat":43.28856,"lon":5.358371,"is_reserved":false,"is_disabled":false,"rental_uris":{"android":"levelo://app?vid=19d2c2a1-0417-482c-9452-221f401c01f7","ios":"levelo://app?vid=19d2c2a1-0417-482c-9452-221f401c01f7"},"vehicle_type_id":"4","last_reported":1718302222,"current_range_meters":22400,"station_id":"ce4bhb12rcd13ifvqem0","pricing_plan_id":"cebpf4jnsgd1na2vs0mg"},{"bike_id":"37c1a64a-f631-4767-88a9-9bf9c1a69237","system_id":"levelo_inurba_marseille","lat":43.28856,"lon":5.358371,"is_reserved":false,"is_disabled":false,"rental_uris":{"android":"levelo://app?vid=37c1a64a-f631-4767-88a9-9bf9c1a69237","ios":"levelo://app?vid=37c1a64a-f631-4767-88a9-9bf9c1a69237"},"vehicle_type_id":"4","last_reported":1718302222,"current_range_meters":1200,"station_id":"ce4bhb12rcd13ifvqem0","pricing_plan_id":"cebpf4jnsgd1na2vs0mg"},{"bike_id":"ec713958-d9a5-48a5-a898-2f30ed2a2a8b","system_id":"levelo_inurba_marseille","lat":43.28856,"lon":5.358371,"is_reserved":false,"is_disabled":false,"rental_uris":{"android":"levelo://app?vid=ec713958-d9a5-48a5-a898-2f30ed2a2a8b","ios":"levelo://app?vid=ec713958-d9a5-48a5-a898-2f30ed2a2a8b"},"vehicle_type_id":"4","last_reported":1718302222,"current_range_meters":12800,"station_id":"ce4bhb12rcd13ifvqem0","pricing_plan_id":"cebpf4jnsgd1na2vs0mg"},{"bike_id":"8972098e-28d8-4021-ba8e-96f53588fe01","system_id":"levelo_inurba_marseille","lat":43.312609,"lon":5.401662,"is_reserved":false,"is_disabled":false,"rental_uris":{"android":"levelo://app?vid=8972098e-28d8-4021-ba8e-96f53588fe01","ios":"levelo://app?vid=8972098e-28d8-4021-ba8e-96f53588fe01"},"vehicle_type_id":"4","last_reported":1718302222,"current_range_meters":12400,"station_id":"ce4bh092rcd13ifvqd30","pricing_plan_id":"cebpf4jnsgd1na2vs0mg"},{"bike_id":"08b2e526-6312-47f9-a8c6-72d81daa11fb","system_id":"levelo_inurba_marseille","lat":43.312609,"lon":5.401662,"is_reserved":false,"is_disabled":false,"rental_uris":{"android":"levelo://app?vid=08b2e526-6312-47f9-a8c6-72d81daa11fb","ios":"levelo://app?vid=08b2e526-6312-47f9-a8c6-72d81daa11fb"},"vehicle_type_id":"4","last_reported":1718302222,"current_range_meters":28800,"station_id":"ce4bh092rcd13ifvqd30","pricing_plan_id":"cebpf4jnsgd1na2vs0mg"},{"bike_id":"45db4ef9-a9aa-417f-81b3-4ae12e32a5ab","system_id":"levelo_inurba_marseille","lat":43.30921,"lon":5.40144,"is_reserved":false,"is_disabled":false,"rental_uris":{"android":"levelo://app?vid=45db4ef9-a9aa-417f-81b3-4ae12e32a5ab","ios":"levelo://app?vid=45db4ef9-a9aa-417f-81b3-4ae12e32a5ab"},"vehicle_type_id":"4","last_reported":1718302222,"current_range_meters":0,"station_id":"ce4bgvp2rcd13ifvqct0","pricing_plan_id":"cebpf4jnsgd1na2vs0mg"},{"bike_id":"112e4146-d50e-47c5-b1a0-83bf11f118dd","system_id":"levelo_inurba_marseille","lat":43.306412,"lon":5.401035,"is_reserved":false,"is_disabled":false,"rental_uris":{"android":"levelo://app?vid=112e4146-d50e-47c5-b1a0-83bf11f118dd","ios":"levelo://app?vid=112e4146-d50e-47c5-b1a0-83bf11f118dd"},"vehicle_type_id":"4","last_reported":1718302222,"current_range_meters":1200,"station_id":"ce4bh112rcd13ifvqda0","pricing_plan_id":"cebpf4jnsgd1na2vs0mg"},{"bike_id":"ba57655a-e344-43e8-8412-1340629db7be","system_id":"levelo_inurba_marseille","lat":43.30649,"lon":5.40095,"is_reserved":false,"is_disabled":false,"rental_uris":{"android":"levelo://app?vid=ba57655a-e344-43e8-8412-1340629db7be","ios":"levelo://app?vid=ba57655a-e344-43e8-8412-1340629db7be"},"vehicle_type_id":"4","last_reported":1718302222,"current_range_meters":0,"station_id":"ce4bh112rcd13ifvqda0","pricing_plan_id":"cebpf4jnsgd1na2vs0mg"},{"bike_id":"e4b5ee09-9ba6-4bc6-886a-188841461d80","system_id":"levelo_inurba_marseille","lat":43.28727,"lon":5.36078,"is_reserved":false,"is_disabled":false,"rental_uris":{"android":"levelo://app?vid=e4b5ee09-9ba6-4bc6-886a-188841461d80","ios":"levelo://app?vid=e4b5ee09-9ba6-4bc6-886a-188841461d80"},"vehicle_type_id":"4","last_reported":1718302222,"current_range_meters":18400,"station_id":"cki0cbj6b192h4jlfktg","pricing_plan_id":"cebpf4jnsgd1na2vs0mg"},{"bike_id":"8790d59d-0243-4f56-819d-40777c8b3118","system_id":"levelo_inurba_marseille","lat":43.28727,"lon":5.36078,"is_reserved":false,"is_disabled":false,"rental_uris":{"android":"levelo://app?vid=8790d59d-0243-4f56-819d-40777c8b3118","ios":"levelo://app?vid=8790d59d-0243-4f56-819d-40777c8b3118"},"vehicle_type_id":"4","last_reported":1718302222,"current_range_meters":4400,"station_id":"cki0cbj6b192h4jlfktg","pricing_plan_id":"cebpf4jnsgd1na2vs0mg"},{"bike_id":"7d913b0c-0eb6-4be8-9ee8-90b936f75080","system_id":"levelo_inurba_marseille","lat":43.298681,"lon":5.397225,"is_reserved":false,"is_disabled":false,"rental_uris":{"android":"levelo://app?vid=7d913b0c-0eb6-4be8-9ee8-90b936f75080","ios":"levelo://app?vid=7d913b0c-0eb6-4be8-9ee8-90b936f75080"},"vehicle_type_id":"4","last_reported":1718302222,"current_range_meters":1600,"station_id":"ce4bh0h2rcd13ifvqd50","pricing_plan_id":"cebpf4jnsgd1na2vs0mg"},{"bike_id":"0e1cb5ac-256e-476d-bd25-afd329d52ac1","system_id":"levelo_inurba_marseille","lat":43.286591,"lon":5.363346,"is_reserved":false,"is_disabled":false,"rental_uris":{"android":"levelo://app?vid=0e1cb5ac-256e-476d-bd25-afd329d52ac1","ios":"levelo://app?vid=0e1cb5ac-256e-476d-bd25-afd329d52ac1"},"vehicle_type_id":"4","last_reported":1718302222,"current_range_meters":3200,"station_id":"ce4bhah2rcd13ifvqej0","pricing_plan_id":"cebpf4jnsgd1na2vs0mg"},{"bike_id":"9e6815b0-3a76-4024-a4a6-04d3993576b0","system_id":"levelo_inurba_marseille","lat":43.2951,"lon":5.39397,"is_reserved":false,"is_disabled":false,"rental_uris":{"android":"levelo://app?vid=9e6815b0-3a76-4024-a4a6-04d3993576b0","ios":"levelo://app?vid=9e6815b0-3a76-4024-a4a6-04d3993576b0"},"vehicle_type_id":"4","last_reported":1718302222,"current_range_meters":0,"station_id":"ce4bh292rcd13ifvqdf0","pricing_plan_id":"cebpf4jnsgd1na2vs0mg"},{"bike_id":"9ce6de5e-afe4-46a9-8ce3-0a9f4ba97978","system_id":"levelo_inurba_marseille","lat":43.302759,"lon":5.400793,"is_reserved":false,"is_disabled":false,"rental_uris":{"android":"levelo://app?vid=9ce6de5e-afe4-46a9-8ce3-0a9f4ba97978","ios":"levelo://app?vid=9ce6de5e-afe4-46a9-8ce3-0a9f4ba97978"},"vehicle_type_id":"4","last_reported":1718302222,"current_range_meters":0,"station_id":"ce4bgvh2rcd13ifvqcs0","pricing_plan_id":"cebpf4jnsgd1na2vs0mg"},{"bike_id":"5b803d76-3f2f-4af0-aeba-dd7099b9f5ef","system_id":"levelo_inurba_marseille","lat":43.29504,"lon":5.39402,"is_reserved":false,"is_disabled":false,"rental_uris":{"android":"levelo://app?vid=5b803d76-3f2f-4af0-aeba-dd7099b9f5ef","ios":"levelo://app?vid=5b803d76-3f2f-4af0-aeba-dd7099b9f5ef"},"vehicle_type_id":"4","last_reported":1718302222,"current_range_meters":0,"station_id":"ce4bh292rcd13ifvqdf0","pricing_plan_id":"cebpf4jnsgd1na2vs0mg"},{"bike_id":"ac38e0d7-1802-4f81-97c1-4cb3e5f06324","system_id":"levelo_inurba_marseille","lat":43.29028,"lon":5.38626,"is_reserved":false,"is_disabled":false,"rental_uris":{"android":"levelo://app?vid=ac38e0d7-1802-4f81-97c1-4cb3e5f06324","ios":"levelo://app?vid=ac38e0d7-1802-4f81-97c1-4cb3e5f06324"},"vehicle_type_id":"4","last_reported":1718302222,"current_range_meters":0,"station_id":"ce4bh4p2rcd13ifvqe0g","pricing_plan_id":"cebpf4jnsgd1na2vs0mg"},{"bike_id":"4a6a7769-b85e-4fb6-aeba-9d06d8cd5dd1","system_id":"levelo_inurba_marseille","lat":43.289307,"lon":5.38406,"is_reserved":false,"is_disabled":false,"rental_uris":{"android":"levelo://app?vid=4a6a7769-b85e-4fb6-aeba-9d06d8cd5dd1","ios":"levelo://app?vid=4a6a7769-b85e-4fb6-aeba-9d06d8cd5dd1"},"vehicle_type_id":"4","last_reported":1718302222,"current_range_meters":25600,"station_id":"ce4bh612rcd13ifvqe6g","pricing_plan_id":"cebpf4jnsgd1na2vs0mg"},{"bike_id":"32e28216-f2ba-4efa-b041-5751d638c211","system_id":"levelo_inurba_marseille","lat":43.28921,"lon":5.38393,"is_reserved":false,"is_disabled":false,"rental_uris":{"android":"levelo://app?vid=32e28216-f2ba-4efa-b041-5751d638c211","ios":"levelo://app?vid=32e28216-f2ba-4efa-b041-5751d638c211"},"vehicle_type_id":"4","last_reported":1718302222,"current_range_meters":0,"station_id":"","pricing_plan_id":"cebpf4jnsgd1na2vs0mg"},{"bike_id":"82d9b1ce-806e-45eb-b103-bec7489e1633","system_id":"levelo_inurba_marseille","lat":43.2902,"lon":5.38631,"is_reserved":false,"is_disabled":false,"rental_uris":{"android":"levelo://app?vid=82d9b1ce-806e-45eb-b103-bec7489e1633","ios":"levelo://app?vid=82d9b1ce-806e-45eb-b103-bec7489e1633"},"vehicle_type_id":"4","last_reported":1718302222,"current_range_meters":0,"station_id":"ce4bh4p2rcd13ifvqe0g","pricing_plan_id":"cebpf4jnsgd1na2vs0mg"},{"bike_id":"539dcb85-f972-4b9b-975f-13e21954e7a4","system_id":"levelo_inurba_marseille","lat":43.290345,"lon":5.38646,"is_reserved":false,"is_disabled":false,"rental_uris":{"android":"levelo://app?vid=539dcb85-f972-4b9b-975f-13e21954e7a4","ios":"levelo://app?vid=539dcb85-f972-4b9b-975f-13e21954e7a4"},"vehicle_type_id":"4","last_reported":1718302222,"current_range_meters":0,"station_id":"ce4bh4p2rcd13ifvqe0g","pricing_plan_id":"cebpf4jnsgd1na2vs0mg"},{"bike_id":"2648b0be-8697-479f-ae0b-8a54681f8b07","system_id":"levelo_inurba_marseille","lat":43.289307,"lon":5.38406,"is_reserved":false,"is_disabled":false,"rental_uris":{"android":"levelo://app?vid=2648b0be-8697-479f-ae0b-8a54681f8b07","ios":"levelo://app?vid=2648b0be-8697-479f-ae0b-8a54681f8b07"},"vehicle_type_id":"4","last_reported":1718302222,"current_range_meters":0,"station_id":"ce4bh612rcd13ifvqe6g","pricing_plan_id":"cebpf4jnsgd1na2vs0mg"},{"bike_id":"d4346ea7-9403-4f7f-a1b6-ff3323131efd","system_id":"levelo_inurba_marseille","lat":43.28615,"lon":5.37056,"is_reserved":false,"is_disabled":false,"rental_uris":{"android":"levelo://app?vid=d4346ea7-9403-4f7f-a1b6-ff3323131efd","ios":"levelo://app?vid=d4346ea7-9403-4f7f-a1b6-ff3323131efd"},"vehicle_type_id":"4","last_reported":1718302222,"current_range_meters":0,"station_id":"ce4bht12rcd13ifvqi60","pricing_plan_id":"cebpf4jnsgd1na2vs0mg"},{"bike_id":"bef091c3-9f13-478d-a847-49c2d5f47505","system_id":"levelo_inurba_marseille","lat":43.286039,"lon":5.370681,"is_reserved":false,"is_disabled":false,"rental_uris":{"android":"levelo://app?vid=bef091c3-9f13-478d-a847-49c2d5f47505","ios":"levelo://app?vid=bef091c3-9f13-478d-a847-49c2d5f47505"},"vehicle_type_id":"4","last_reported":1718302222,"current_range_meters":9200,"station_id":"ce4bht12rcd13ifvqi60","pricing_plan_id":"cebpf4jnsgd1na2vs0mg"},{"bike_id":"419bd32b-c217-464c-a488-79e436f845d7","system_id":"levelo_inurba_marseille","lat":43.286039,"lon":5.370679,"is_reserved":false,"is_disabled":false,"rental_uris":{"android":"levelo://app?vid=419bd32b-c217-464c-a488-79e436f845d7","ios":"levelo://app?vid=419bd32b-c217-464c-a488-79e436f845d7"},"vehicle_type_id":"4","last_reported":1718302222,"current_range_meters":800,"station_id":"ce4bht12rcd13ifvqi60","pricing_plan_id":"cebpf4jnsgd1na2vs0mg"},{"bike_id":"a407e4e6-cc0b-4517-a571-bec439162417","system_id":"levelo_inurba_marseille","lat":43.286039,"lon":5.370679,"is_reserved":false,"is_disabled":false,"rental_uris":{"android":"levelo://app?vid=a407e4e6-cc0b-4517-a571-bec439162417","ios":"levelo://app?vid=a407e4e6-cc0b-4517-a571-bec439162417"},"vehicle_type_id":"4","last_reported":1718302222,"current_range_meters":30000,"station_id":"ce4bht12rcd13ifvqi60","pricing_plan_id":"cebpf4jnsgd1na2vs0mg"},{"bike_id":"36c17418-01d0-459f-ac31-7603ed36a065","system_id":"levelo_inurba_marseille","lat":43.286039,"lon":5.370679,"is_reserved":false,"is_disabled":false,"rental_uris":{"android":"levelo://app?vid=36c17418-01d0-459f-ac31-7603ed36a065","ios":"levelo://app?vid=36c17418-01d0-459f-ac31-7603ed36a065"},"vehicle_type_id":"4","last_reported":1718302222,"current_range_meters":10000,"station_id":"ce4bht12rcd13ifvqi60","pricing_plan_id":"cebpf4jnsgd1na2vs0mg"},{"bike_id":"5f62ead2-13dd-4b70-b645-53bb0a3021e3","system_id":"levelo_inurba_marseille","lat":43.286039,"lon":5.370679,"is_reserved":false,"is_disabled":false,"rental_uris":{"android":"levelo://app?vid=5f62ead2-13dd-4b70-b645-53bb0a3021e3","ios":"levelo://app?vid=5f62ead2-13dd-4b70-b645-53bb0a3021e3"},"vehicle_type_id":"4","last_reported":1718302222,"current_range_meters":3600,"station_id":"ce4bht12rcd13ifvqi60","pricing_plan_id":"cebpf4jnsgd1na2vs0mg"},{"bike_id":"dbeb1f13-035d-4335-aaf2-1b45507cedcf","system_id":"levelo_inurba_marseille","lat":43.286039,"lon":5.370681,"is_reserved":false,"is_disabled":false,"rental_uris":{"android":"levelo://app?vid=dbeb1f13-035d-4335-aaf2-1b45507cedcf","ios":"levelo://app?vid=dbeb1f13-035d-4335-aaf2-1b45507cedcf"},"vehicle_type_id":"4","last_reported":1718302222,"current_range_meters":20800,"station_id":"ce4bht12rcd13ifvqi60","pricing_plan_id":"cebpf4jnsgd1na2vs0mg"},{"bike_id":"d778e197-2633-4e70-928f-303d9915c1c9","system_id":"levelo_inurba_marseille","lat":43.286039,"lon":5.370681,"is_reserved":false,"is_disabled":false,"rental_uris":{"android":"levelo://app?vid=d778e197-2633-4e70-928f-303d9915c1c9","ios":"levelo://app?vid=d778e197-2633-4e70-928f-303d9915c1c9"},"vehicle_type_id":"4","last_reported":1718302222,"current_range_meters":2000,"station_id":"ce4bht12rcd13ifvqi60","pricing_plan_id":"cebpf4jnsgd1na2vs0mg"},{"bike_id":"96609834-5bd4-4be4-877b-276e876bb30a","system_id":"levelo_inurba_marseille","lat":43.286039,"lon":5.370681,"is_reserved":false,"is_disabled":false,"rental_uris":{"android":"levelo://app?vid=96609834-5bd4-4be4-877b-276e876bb30a","ios":"levelo://app?vid=96609834-5bd4-4be4-877b-276e876bb30a"},"vehicle_type_id":"4","last_reported":1718302222,"current_range_meters":0,"station_id":"ce4bht12rcd13ifvqi60","pricing_plan_id":"cebpf4jnsgd1na2vs0mg"},{"bike_id":"fefe9a7f-646f-4360-aa8a-d9d0425cac6b","system_id":"levelo_inurba_marseille","lat":43.286039,"lon":5.370679,"is_reserved":false,"is_disabled":false,"rental_uris":{"android":"levelo://app?vid=fefe9a7f-646f-4360-aa8a-d9d0425cac6b","ios":"levelo://app?vid=fefe9a7f-646f-4360-aa8a-d9d0425cac6b"},"vehicle_type_id":"4","last_reported":1718302222,"current_range_meters":20800,"station_id":"ce4bht12rcd13ifvqi60","pricing_plan_id":"cebpf4jnsgd1na2vs0mg"},{"bike_id":"b4541cc9-e39e-4ab4-ba1c-726eb441d577","system_id":"levelo_inurba_marseille","lat":43.286039,"lon":5.370681,"is_reserved":false,"is_disabled":false,"rental_uris":{"android":"levelo://app?vid=b4541cc9-e39e-4ab4-ba1c-726eb441d577","ios":"levelo://app?vid=b4541cc9-e39e-4ab4-ba1c-726eb441d577"},"vehicle_type_id":"4","last_reported":1718302222,"current_range_meters":12000,"station_id":"ce4bht12rcd13ifvqi60","pricing_plan_id":"cebpf4jnsgd1na2vs0mg"},{"bike_id":"2f193842-31cc-44ce-9c4f-c7b66ea7912d","system_id":"levelo_inurba_marseille","lat":43.286039,"lon":5.370681,"is_reserved":false,"is_disabled":false,"rental_uris":{"android":"levelo://app?vid=2f193842-31cc-44ce-9c4f-c7b66ea7912d","ios":"levelo://app?vid=2f193842-31cc-44ce-9c4f-c7b66ea7912d"},"vehicle_type_id":"4","last_reported":1718302222,"current_range_meters":16800,"station_id":"ce4bht12rcd13ifvqi60","pricing_plan_id":"cebpf4jnsgd1na2vs0mg"},{"bike_id":"8927a442-76a9-436e-a043-6ac9136a9507","system_id":"levelo_inurba_marseille","lat":43.286039,"lon":5.370681,"is_reserved":false,"is_disabled":false,"rental_uris":{"android":"levelo://app?vid=8927a442-76a9-436e-a043-6ac9136a9507","ios":"levelo://app?vid=8927a442-76a9-436e-a043-6ac9136a9507"},"vehicle_type_id":"4","last_reported":1718302222,"current_range_meters":10000,"station_id":"ce4bht12rcd13ifvqi60","pricing_plan_id":"cebpf4jnsgd1na2vs0mg"},{"bike_id":"37900605-ede0-4b74-a3bd-6569701cfff3","system_id":"levelo_inurba_marseille","lat":43.286039,"lon":5.370681,"is_reserved":false,"is_disabled":false,"rental_uris":{"android":"levelo://app?vid=37900605-ede0-4b74-a3bd-6569701cfff3","ios":"levelo://app?vid=37900605-ede0-4b74-a3bd-6569701cfff3"},"vehicle_type_id":"4","last_reported":1718302222,"current_range_meters":0,"station_id":"ce4bht12rcd13ifvqi60","pricing_plan_id":"cebpf4jnsgd1na2vs0mg"},{"bike_id":"8333e0f4-312e-4bdd-858a-560eb8d97dd2","system_id":"levelo_inurba_marseille","lat":43.286039,"lon":5.370681,"is_reserved":false,"is_disabled":false,"rental_uris":{"android":"levelo://app?vid=8333e0f4-312e-4bdd-858a-560eb8d97dd2","ios":"levelo://app?vid=8333e0f4-312e-4bdd-858a-560eb8d97dd2"},"vehicle_type_id":"4","last_reported":1718302222,"current_range_meters":17600,"station_id":"ce4bht12rcd13ifvqi60","pricing_plan_id":"cebpf4jnsgd1na2vs0mg"},{"bike_id":"5ede6497-2911-4e84-be22-f8649e28b00d","system_id":"levelo_inurba_marseille","lat":43.300063,"lon":5.400907,"is_reserved":false,"is_disabled":false,"rental_uris":{"android":"levelo://app?vid=5ede6497-2911-4e84-be22-f8649e28b00d","ios":"levelo://app?vid=5ede6497-2911-4e84-be22-f8649e28b00d"},"vehicle_type_id":"4","last_reported":1718302222,"current_range_meters":0,"station_id":"","pricing_plan_id":"cebpf4jnsgd1na2vs0mg"},{"bike_id":"e3019639-308e-4731-bf98-76d0ba8aaa14","system_id":"levelo_inurba_marseille","lat":43.316828,"lon":5.404723,"is_reserved":false,"is_disabled":false,"rental_uris":{"android":"levelo://app?vid=e3019639-308e-4731-bf98-76d0ba8aaa14","ios":"levelo://app?vid=e3019639-308e-4731-bf98-76d0ba8aaa14"},"vehicle_type_id":"4","last_reported":1718302222,"current_range_meters":1600,"station_id":"ce4bh012rcd13ifvqd00","pricing_plan_id":"cebpf4jnsgd1na2vs0mg"},