{"last_updated":1770592834,"ttl":60,"version":"2.2","data":{"bikes":[{"bike_id":"5cdd27df-1aa5-4830-b5fc-91672ce179d3","system_id":"levelo_inurba_marseille","lat":43.27942,"lon":5.41039,"is_reserved":false,"is_disabled":true,"rental_uris":{"android":"levelo://app?vid=5cdd27df-1aa5-4830-b5fc-91672ce179d3","ios":"levelo://app?vid=5cdd27df-1aa5-4830-b5fc-91672ce179d3"},"vehicle_type_id":"4","last_reported":1770592834,"current_range_meters":2800,"station_id":"ce4bhnp2rcd13ifvqh0g","pricing_plan_id":"cebpf4jnsgd1na2vs0mg"},{"bike_id":"32641f13-9d93-4f9b-b623-ce0c373ebef8","system_id":"levelo_inurba_marseille","lat":43.28501,"lon":5.38434,"is_reserved":false,"is_disabled":false,"rental_uris":{"android":"levelo://app?vid=32641f13-9d93-4f9b-b623-ce0c373ebef8","ios":"levelo://app?vid=32641f13-9d93-4f9b-b623-ce0c373ebef8"},"vehicle_type_id":"4","last_reported":1770592834,"current_range_meters":2800,"station_id":"ce4bh512rcd13ifvqe3g","pricing_plan_id":"cebpf4jnsgd1na2vs0mg"},{"bike_id":"6a33da45-77ca-4fe9-986d-2ca1e064b34b","system_id":"levelo_inurba_marseille","lat":43.24551,"lon":5.39517,"is_reserved":false,"is_disabled":false,"rental_uris":{"android":"levelo://app?vid=6a33da45-77ca-4fe9-986d-2ca1e064b34b","ios":"levelo://app?vid=6a33da45-77ca-4fe9-986d-2ca1e064b34b"},"vehicle_type_id":"4","last_reported":1770592834,"current_range_meters":2800,"station_id":"ce4bhlp2rcd13ifvqgjg","pricing_plan_id":"cebpf4jnsgd1na2vs0mg"},{"bike_id":"6d4d7125-f230-40ff-9866-8a80f2da0b0b","system_id":"levelo_inurba_marseille","lat":43.2293,"lon":5.35384,"is_reserved":false,"is_disabled":false,"rental_uris":{"android":"levelo://app?vid=6d4d7125-f230-40ff-9866-8a80f2da0b0b","ios":"levelo://app?vid=6d4d7125-f230-40ff-9866-8a80f2da0b0b"},"vehicle_type_id":"4","last_reported":1770592834,"current_range_meters":2800,"station_id":"cpo3532slgdg3j2ikp40","pricing_plan_id":"cebpf4jnsgd1na2vs0mg"},{"bike_id":"0c0f8a2f-9a4d-41d4-989d-0153bebb1c3c","system_id":"levelo_inurba_marseille","lat":43.24633,"lon":5.3891,"is_reserved":false,"is_disabled":false,"rental_uris":{"android":"levelo://app?vid=0c0f8a2f-9a4d-41d4-989d-0153bebb1c3c","ios":"levelo://app?vid=0c0f8a2f-9a4d-41d4-989d-0153bebb1c3c"},"vehicle_type_id":"4","last_reported":1770592834,"current_range_meters":2800,"station_id":"ce4bhg12rcd13ifvqf60","pricing_plan_id":"cebpf4jnsgd1na2vs0mg"},{"bike_id":"b81423d6-22f7-408c-80d0-02a073ab6fb1","system_id":"levelo_inurba_marseille","lat":43.31538,"lon":5.38034,"is_reserved":false,"is_disabled":false,"rental_uris":{"android":"levelo://app?vid=b81423d6-22f7-408c-80d0-02a073ab6fb1","ios":"levelo://app?vid=b81423d6-22f7-408c-80d0-02a073ab6fb1"},"vehicle_type_id":"4","last_reported":1770592834,"current_range_meters":2800,"station_id":"ce4bhsp2rcd13ifvqi50","pricing_plan_id":"cebpf4jnsgd1na2vs0mg"},{"bike_id":"09986119-327c-45bf-b6a8-e15c339167ea","system_id":"levelo_inurba_marseille","lat":43.28496,"lon":5.43965,"is_reserved":false,"is_disabled":false,"rental_uris":{"android":"levelo://app?vid=09986119-327c-45bf-b6a8-e15c339167ea","ios":"levelo://app?vid=09986119-327c-45bf-b6a8-e15c339167ea"},"vehicle_type_id":"4","last_reported":1770592834,"current_range_meters":2800,"station_id":"","pricing_plan_id":"cebpf4jnsgd1na2vs0mg"},{"bike_id":"7b7a3393-6f3d-4b62-8d44-fdc36bb6da78","system_id":"levelo_inurba_marseille","lat":43.30773,"lon":5.3766,"is_reserved":false,"is_disabled":false,"rental_uris":{"android":"levelo://app?vid=7b7a3393-6f3d-4b62-8d44-fdc36bb6da78","ios":"levelo://app?vid=7b7a3393-6f3d-4b62-8d44-fdc36bb6da78"},"vehicle_type_id":"4","last_reported":1770592834,"current_range_meters":2800,"station_id":"ce4bgv92rcd13ifvqcq0","pricing_plan_id":"cebpf4jnsgd1na2vs0mg"},{"bike_id":"90154499-7a4e-4deb-a403-154052f8c6cd","system_id":"levelo_inurba_marseille","lat":43.2844,"lon":5.36042,"is_reserved":false,"is_disabled":false,"rental_uris":{"android":"levelo://app?vid=90154499-7a4e-4deb-a403-154052f8c6cd","ios":"levelo://app?vid=90154499-7a4e-4deb-a403-154052f8c6cd"},"vehicle_type_id":"4","last_reported":1770592834,"current_range_meters":2800,"station_id":"","pricing_plan_id":"cebpf4jnsgd1na2vs0mg"},{"bike_id":"6a7de265-bacb-4bf2-b062-6debd1e1eda2","system_id":"levelo_inurba_marseille","lat":43.29515,"lon":5.39039,"is_reserved":false,"is_disabled":false,"rental_uris":{"android":"levelo://app?vid=6a7de265-bacb-4bf2-b062-6debd1e1eda2","ios":"levelo://app?vid=6a7de265-bacb-4bf2-b062-6debd1e1eda2"},"vehicle_type_id":"4","last_reported":1770592834,"current_range_meters":2800,"station_id":"ce4bh3p2rcd13ifvqdp0","pricing_plan_id":"cebpf4jnsgd1na2vs0mg"},{"bike_id":"8b3be9c3-9004-4049-910b-09fae9aa7d59","system_id":"levelo_inurba_marseille","lat":43.2463,"lon":5.43127,"is_reserved":false,"is_disabled":false,"rental_uris":{"android":"levelo://app?vid=8b3be9c3-9004-4049-910b-09fae9aa7d59","ios":"levelo://app?vid=8b3be9c3-9004-4049-910b-09fae9aa7d59"},"vehicle_type_id":"4","last_reported":1770592834,"current_range_meters":3200,"station_id":"st_d2m6c4gdas8pm72e190g","pricing_plan_id":"cebpf4jnsgd1na2vs0mg"},{"bike_id":"048f9740-2e0d-4660-8e8c-c3db33925834","system_id":"levelo_inurba_marseille","lat":43.29273,"lon":5.40124,"is_reserved":false,"is_disabled":false,"rental_uris":{"android":"levelo://app?vid=048f9740-2e0d-4660-8e8c-c3db33925834","ios":"levelo://app?vid=048f9740-2e0d-4660-8e8c-c3db33925834"},"vehicle_type_id":"4","last_reported":1770592834,"current_range_meters":3200,"station_id":"ce4bh312rcd13ifvqdk0","pricing_plan_id":"cebpf4jnsgd1na2vs0mg"},{"bike_id":"4940192c-cd9e-43b0-a8dd-fd4c04e7805e","system_id":"levelo_inurba_marseille","lat":43.22558,"lon":5.41632,"is_reserved":false,"is_disabled":false,"rental_uris":{"android":"levelo://app?vid=4940192c-cd9e-43b0-a8dd-fd4c04e7805e","ios":"levelo://app?vid=4940192c-cd9e-43b0-a8dd-fd4c04e7805e"},"vehicle_type_id":"4","last_reported":1770592834,"current_range_meters":3200,"station_id":"st_d2o4gvlbi1j2169b742g","pricing_plan_id":"cebpf4jnsgd1na2vs0mg"},{"bike_id":"62e4c22c-ba08-4e76-83ca-cbbe5a97d8d7","system_id":"levelo_inurba_marseille","lat":43.23198,"lon":5.35549,"is_reserved":false,"is_disabled":false,"rental_uris":{"android":"levelo://app?vid=62e4c22c-ba08-4e76-83ca-cbbe5a97d8d7","ios":"levelo://app?vid=62e4c22c-ba08-4e76-83ca-cbbe5a97d8d7"},"vehicle_type_id":"4","last_reported":1770592834,"current_range_meters":3200,"station_id":"ce4bhu92rcd13ifvqi70","pricing_plan_id":"cebpf4jnsgd1na2vs0mg"},{"bike_id":"7d133632-afa7-496a-89cf-31f9337d1c83","system_id":"levelo_inurba_marseille","lat":43.29063,"lon":5.37156,"is_reserved":false,"is_disabled":true,"rental_uris":{"android":"levelo://app?vid=7d133632-afa7-496a-89cf-31f9337d1c83","ios":"levelo://app?vid=7d133632-afa7-496a-89cf-31f9337d1c83"},"vehicle_type_id":"4","last_reported":1770592834,"current_range_meters":3200,"station_id":"ce4bh5p2rcd13ifvqe4g","pricing_plan_id":"cebpf4jnsgd1na2vs0mg"},{"bike_id":"6216461a-536b-4362-ac08-815386365ad7","system_id":"levelo_inurba_marseille","lat":43.30063,"lon":5.43133,"is_reserved":false,"is_disabled":false,"rental_uris":{"android":"levelo://app?vid=6216461a-536b-4362-ac08-815386365ad7","ios":"levelo://app?vid=6216461a-536b-4362-ac08-815386365ad7"},"vehicle_type_id":"4","last_reported":1770592834,"current_range_meters":3200,"station_id":"st_d3js3co5814s73ftftug","pricing_plan_id":"cebpf4jnsgd1na2vs0mg"},{"bike_id":"44df0d6d-61a2-46ab-9bf9-ae3cec90cb8f","system_id":"levelo_inurba_marseille","lat":43.25037,"lon":5.38945,"is_reserved":false,"is_disabled":true,"rental_uris":{"android":"levelo://app?vid=44df0d6d-61a2-46ab-9bf9-ae3cec90cb8f","ios":"levelo://app?vid=44df0d6d-61a2-46ab-9bf9-ae3cec90cb8f"},"vehicle_type_id":"4","last_reported":1770592834,"current_range_meters":3200,"station_id":"ce4bhgp2rcd13ifvqfd0","pricing_plan_id":"cebpf4jnsgd1na2vs0mg"},{"bike_id":"fd3f6ee2-b573-44cd-b12f-ecb3ca6ae4d0","system_id":"levelo_inurba_marseille","lat":43.27995,"lon":5.41661,"is_reserved":false,"is_disabled":false,"rental_uris":{"android":"levelo://app?vid=fd3f6ee2-b573-44cd-b12f-ecb3ca6ae4d0","ios":"levelo://app?vid=fd3f6ee2-b573-44cd-b12f-ecb3ca6ae4d0"},"vehicle_type_id":"4","last_reported":1770592834,"current_range_meters":3200,"station_id":"ce4bho12rcd13ifvqh1g","pricing_plan_id":"cebpf4jnsgd1na2vs0mg"},{"bike_id":"2cb5a43b-e623-4a02-b02d-84a79ff3e02e","system_id":"levelo_inurba_marseille","lat":43.22554,"lon":5.41622,"is_reserved":false,"is_disabled":false,"rental_uris":{"android":"levelo://app?vid=2cb5a43b-e623-4a02-b02d-84a79ff3e02e","ios":"levelo://app?vid=2cb5a43b-e623-4a02-b02d-84a79ff3e02e"},"vehicle_type_id":"4","last_reported":1770592834,"current_range_meters":3600,"station_id":"st_d2o4gvlbi1j2169b742g","pricing_plan_id":"cebpf4jnsgd1na2vs0mg"},{"bike_id":"e6d03073-11a9-495e-8d13-201bb403d1fc","system_id":"levelo_inurba_marseille","lat":43.21189,"lon":5.35078,"is_reserved":false,"is_disabled":false,"rental_uris":{"android":"levelo://app?vid=e6d03073-11a9-495e-8d13-201bb403d1fc","ios":"levelo://app?vid=e6d03073-11a9-495e-8d13-201bb403d1fc"},"vehicle_type_id":"4","last_reported":1770592834,"current_range_meters":3600,"station_id":"st_cvj6sg6p6f1abm77japg","pricing_plan_id":"cebpf4jnsgd1na2vs0mg"},{"bike_id":"508fb8b9-4cee-4799-8b3b-fa3d800ff13e","system_id":"levelo_inurba_marseille","lat":43.33546,"lon":5.37476,"is_reserved":false,"is_disabled":false,"rental_uris":{"android":"levelo://app?vid=508fb8b9-4cee-4799-8b3b-fa3d800ff13e","ios":"levelo://app?vid=508fb8b9-4cee-4799-8b3b-fa3d800ff13e"},"vehicle_type_id":"4","last_reported":1770592834,"current_range_meters":3600,"station_id":"st_d46tts09ee8s73dlu43g","pricing_plan_id":"cebpf4jnsgd1na2vs0mg"},{"bike_id":"ea8c0580-dee3-43f3-bf01-1aa8969bd163","system_id":"levelo_inurba_marseille","lat":43.24161,"lon":5.36381,"is_reserved":false,"is_disabled":false,"rental_uris":{"android":"levelo://app?vid=ea8c0580-dee3-43f3-bf01-1aa8969bd163","ios":"levelo://app?vid=ea8c0580-dee3-43f3-bf01-1aa8969bd163"},"vehicle_type_id":"4","last_reported":1770592834,"current_range_meters":3600,"station_id":"cpo36qri1sfpv3e86is0","pricing_plan_id":"cebpf4jnsgd1na2vs0mg"},{"bike_id":"9c27da16-0b95-483f-acc9-aaafd261f73e","system_id":"levelo_inurba_marseille","lat":43.30914,"lon":5.36842,"is_reserved":false,"is_disabled":false,"rental_uris":{"android":"levelo://app?vid=9c27da16-0b95-483f-acc9-aaafd261f73e","ios":"levelo://app?vid=9c27da16-0b95-483f-acc9-aaafd261f73e"},"vehicle_type_id":"4","last_reported":1770592834,"current_range_meters":3600,"station_id":"ce4bgn92rcd13ifvqbvg","pricing_plan_id":"cebpf4jnsgd1na2vs0mg"},{"bike_id":"6a144693-7691-4af0-a94f-86308d14d8c0","system_id":"levelo_inurba_marseille","lat":43.25918,"lon":5.40882,"is_reserved":false,"is_disabled":false,"rental_uris":{"android":"levelo://app?vid=6a144693-7691-4af0-a94f-86308d14d8c0","ios":"levelo://app?vid=6a144693-7691-4af0-a94f-86308d14d8c0"},"vehicle_type_id":"4","last_reported":1770592834,"current_range_meters":3600,"station_id":"ce4bhm92rcd13ifvqglg","pricing_plan_id":"cebpf4jnsgd1na2vs0mg"},{"bike_id":"d9d493c8-2229-4bda-a958-4c19d5464801","system_id":"levelo_inurba_marseille","lat":43.25867,"lon":5.399,"is_reserved":false,"is_disabled":false,"rental_uris":{"android":"levelo://app?vid=d9d493c8-2229-4bda-a958-4c19d5464801","ios":"levelo://app?vid=d9d493c8-2229-4bda-a958-4c19d5464801"},"vehicle_type_id":"4","last_reported":1770592834,"current_range_meters":3600,"station_id":"ce4bhl92rcd13ifvqghg","pricing_plan_id":"cebpf4jnsgd1na2vs0mg"},{"bike_id":"4edb59d1-6054-4703-b9fd-621955e7cc61","system_id":"levelo_inurba_marseille","lat":43.30556,"lon":5.36716,"is_reserved":false,"is_disabled":false,"rental_uris":{"android":"levelo://app?vid=4edb59d1-6054-4703-b9fd-621955e7cc61","ios":"levelo://app?vid=4edb59d1-6054-4703-b9fd-621955e7cc61"},"vehicle_type_id":"4","last_reported":1770592834,"current_range_meters":4000,"station_id":"ce4bgrp2rcd13ifvqc9g","pricing_plan_id":"cebpf4jnsgd1na2vs0mg"},{"bike_id":"a15bbded-05ca-465f-844e-c505328d58c9","system_id":"levelo_inurba_marseille","lat":43.26535,"lon":5.3731,"is_reserved":false,"is_disabled":false,"rental_uris":{"android":"levelo://app?vid=a15bbded-05ca-465f-844e-c505328d58c9","ios":"levelo://app?vid=a15bbded-05ca-465f-844e-c505328d58c9"},"vehicle_type_id":"4","last_reported":1770592834,"current_range_meters":4000,"station_id":"ce4bhg12rcd13ifvqf70","pricing_plan_id":"cebpf4jnsgd1na2vs0mg"},{"bike_id":"5e1c107b-6624-40f0-998c-ef84f3d71a9b","system_id":"levelo_inurba_marseille","lat":43.27321,"lon":5.39109,"is_reserved":false,"is_disabled":true,"rental_uris":{"android":"levelo://app?vid=5e1c107b-6624-40f0-998c-ef84f3d71a9b","ios":"levelo://app?vid=5e1c107b-6624-40f0-998c-ef84f3d71a9b"},"vehicle_type_id":"4","last_reported":1770592834,"current_range_meters":4000,"station_id":"ce4bhgp2rcd13ifvqfe0","pricing_plan_id":"cebpf4jnsgd1na2vs0mg"},{"bike_id":"f5da9401-db7e-426f-9a0f-2330a30b8658","system_id":"levelo_inurba_marseille","lat":43.243921,"lon":5.370715,"is_reserved":false,"is_disabled":true,"rental_uris":{"android":"levelo://app?vid=f5da9401-db7e-426f-9a0f-2330a30b8658","ios":"levelo://app?vid=f5da9401-db7e-426f-9a0f-2330a30b8658"},"vehicle_type_id":"4","last_reported":1770592834,"current_range_meters":4000,"station_id":"ce4bhhh2rcd13ifvqfk0","pricing_plan_id":"cebpf4jnsgd1na2vs0mg"},{"bike_id":"9c9db9d5-0e0c-47a3-a905-8fcf5962983e","system_id":"levelo_inurba_marseille","lat":43.23199,"lon":5.35552,"is_reserved":false,"is_disabled":false,"rental_uris":{"android":"levelo://app?vid=9c9db9d5-0e0c-47a3-a905-8fcf5962983e","ios":"levelo://app?vid=9c9db9d5-0e0c-47a3-a905-8fcf5962983e"},"vehicle_type_id":"4","last_reported":1770592834,"current_range_meters":4000,"station_id":"ce4bhu92rcd13ifvqi70","pricing_plan_id":"cebpf4jnsgd1na2vs0mg"},{"bike_id":"e55da058-5f2f-4502-8e5f-50303f92e92a","system_id":"levelo_inurba_marseille","lat":43.265611,"lon":5.37301,"is_reserved":false,"is_disabled":false,"rental_uris":{"android":"levelo://app?vid=e55da058-5f2f-4502-8e5f-50303f92e92a","ios":"levelo://app?vid=e55da058-5f2f-4502-8e5f-50303f92e92a"},"vehicle_type_id":"4","last_reported":1770592834,"current_range_meters":4000,"station_id":"ce4bhg12rcd13ifvqf70","pricing_plan_id":"cebpf4jnsgd1na2vs0mg"},{"bike_id":"4c1d817c-2311-4829-b074-c35d06d3a077","system_id":"levelo_inurba_marseille","lat":43.2293,"lon":5.35373,"is_reserved":false,"is_disabled":false,"rental_uris":{"android":"levelo://app?vid=4c1d817c-2311-4829-b074-c35d06d3a077","ios":"levelo://app?vid=4c1d817c-2311-4829-b074-c35d06d3a077"},"vehicle_type_id":"4","last_reported":1770592834,"current_range_meters":4000,"station_id":"cpo3532slgdg3j2ikp40","pricing_plan_id":"cebpf4jnsgd1na2vs0mg"},{"bike_id":"0f9398e4-1c51-403f-8553-7aa3b9b52ae1","system_id":"levelo_inurba_marseille","lat":43.2849,"lon":5.3842,"is_reserved":false,"is_disabled":false,"rental_uris":{"android":"levelo://app?vid=0f9398e4-1c51-403f-8553-7aa3b9b52ae1","ios":"levelo://app?vid=0f9398e4-1c51-403f-8553-7aa3b9b52ae1"},"vehicle_type_id":"4","last_reported":1770592834,"current_range_meters":4400,"station_id":"ce4bh512rcd13ifvqe3g","pricing_plan_id":"cebpf4jnsgd1na2vs0mg"},{"bike_id":"beda68ef-f369-4f32-832a-0322245f271f","system_id":"levelo_inurba_marseille","lat":43.286174,"lon":5.35102,"is_reserved":false,"is_disabled":false,"rental_uris":{"android":"levelo://app?vid=beda68ef-f369-4f32-832a-0322245f271f","ios":"levelo://app?vid=beda68ef-f369-4f32-832a-0322245f271f"},"vehicle_type_id":"4","last_reported":1770592834,"current_range_meters":4400,"station_id":"ce4bhch2rcd13ifvqeug","pricing_plan_id":"cebpf4jnsgd1na2vs0mg"},{"bike_id":"6b6b3044-dd0e-4787-8945-aab93fdd08a2","system_id":"levelo_inurba_marseille","lat":43.29766,"lon":5.37378,"is_reserved":false,"is_disabled":false,"rental_uris":{"android":"levelo://app?vid=6b6b3044-dd0e-4787-8945-aab93fdd08a2","ios":"levelo://app?vid=6b6b3044-dd0e-4787-8945-aab93fdd08a2"},"vehicle_type_id":"4","last_reported":1770592834,"current_range_meters":4400,"station_id":"","pricing_plan_id":"cebpf4jnsgd1na2vs0mg"},{"bike_id":"9c7b49e3-2672-465f-9113-79b2777ffeb5","system_id":"levelo_inurba_marseille","lat":43.25085,"lon":5.3951,"is_reserved":false,"is_disabled":false,"rental_uris":{"android":"levelo://app?vid=9c7b49e3-2672-465f-9113-79b2777ffeb5","ios":"levelo://app?vid=9c7b49e3-2672-465f-9113-79b2777ffeb5"},"vehicle_type_id":"4","last_reported":1770592834,"current_range_meters":4400,"station_id":"ce4bhm12rcd13ifvqgkg","pricing_plan_id":"cebpf4jnsgd1na2vs0mg"},{"bike_id":"ae12ad40-d776-4c8c-a1b5-593d194154e8","system_id":"levelo_inurba_marseille","lat":43.32104,"lon":5.36767,"is_reserved":false,"is_disabled":false,"rental_uris":{"android":"levelo://app?vid=ae12ad40-d776-4c8c-a1b5-593d194154e8","ios":"levelo://app?vid=ae12ad40-d776-4c8c-a1b5-593d194154e8"},"vehicle_type_id":"4","last_reported":1770592834,"current_range_meters":4400,"station_id":"ce4bhrh2rcd13ifvqhug","pricing_plan_id":"cebpf4jnsgd1na2vs0mg"},{"bike_id":"8138c7ab-272e-47d5-82e8-142e12d30a9b","system_id":"levelo_inurba_marseille","lat":43.32109,"lon":5.36768,"is_reserved":false,"is_disabled":false,"rental_uris":{"android":"levelo://app?vid=8138c7ab-272e-47d5-82e8-142e12d30a9b","ios":"levelo://app?vid=8138c7ab-272e-47d5-82e8-142e12d30a9b"},"vehicle_type_id":"4","last_reported":1770592834,"current_range_meters":4400,"station_id":"ce4bhrh2rcd13ifvqhug","pricing_plan_id":"cebpf4jnsgd1na2vs0mg"},{"bike_id":"968f210a-55fc-4510-bcd2-d3ede65fbe45","system_id":"levelo_inurba_marseille","lat":43.32478,"lon":5.36572,"is_reserved":false,"is_disabled":false,"rental_uris":{"android":"levelo://app?vid=968f210a-55fc-4510-bcd2-d3ede65fbe45","ios":"levelo://app?vid=968f210a-55fc-4510-bcd2-d3ede65fbe45"},"vehicle_type_id":"4","last_reported":1770592834,"current_range_meters":4400,"station_id":"ce4bhs12rcd13ifvqhvg","pricing_plan_id":"cebpf4jnsgd1na2vs0mg"},{"bike_id":"f96d08c7-a51c-4fe9-b875-9864ef944b5c","system_id":"levelo_inurba_marseille","lat":43.31063,"lon":5.38345,"is_reserved":false,"is_disabled":false,"rental_uris":{"android":"levelo://app?vid=f96d08c7-a51c-4fe9-b875-9864ef944b5c","ios":"levelo://app?vid=f96d08c7-a51c-4fe9-b875-9864ef944b5c"},"vehicle_type_id":"4","last_reported":1770592834,"current_range_meters":4800,"station_id":"ce4bgv92rcd13ifvqcr0","pricing_plan_id":"cebpf4jnsgd1na2vs0mg"},{"bike_id":"bc52dfa3-e272-4fc9-96b0-e6451d582049","system_id":"levelo_inurba_marseille","lat":43.2493,"lon":5.40281,"is_reserved":false,"is_disabled":false,"rental_uris":{"android":"levelo://app?vid=bc52dfa3-e272-4fc9-96b0-e6451d582049","ios":"levelo://app?vid=bc52dfa3-e272-4fc9-96b0-e6451d582049"},"vehicle_type_id":"4","last_reported":1770592834,"current_range_meters":4800,"station_id":"","pricing_plan_id":"cebpf4jnsgd1na2vs0mg"},{"bike_id":"a93a3f3a-fc89-4e32-a1fb-c7685626cbdd","system_id":"levelo_inurba_marseille","lat":43.31154,"lon":5.38578,"is_reserved":false,"is_disabled":false,"rental_uris":{"android":"levelo://app?vid=a93a3f3a-fc89-4e32-a1fb-c7685626cbdd","ios":"levelo://app?vid=a93a3f3a-fc89-4e32-a1fb-c7685626cbdd"},"vehicle_type_id":"4","last_reported":1770592834,"current_range_meters":4800,"station_id":"","pricing_plan_id":"cebpf4jnsgd1na2vs0mg"},{"bike_id":"d14bc58f-d52a-42e4-befd-2606c2492ac1","system_id":"levelo_inurba_marseille","lat":43.25111,"lon":5.40334,"is_reserved":false,"is_disabled":true,"rental_uris":{"android":"levelo://app?vid=d14bc58f-d52a-42e4-befd-2606c2492ac1","ios":"levelo://app?vid=d14bc58f-d52a-42e4-befd-2606c2492ac1"},"vehicle_type_id":"4","last_reported":1770592834,"current_range_meters":4800,"station_id":"ce4bhlh2rcd13ifvqgig","pricing_plan_id":"cebpf4jnsgd1na2vs0mg"},{"bike_id":"8c1d327c-0aef-40f2-9c1e-c8f679c30716","system_id":"levelo_inurba_marseille","lat":43.303158,"lon":5.369074,"is_reserved":false,"is_disabled":false,"rental_uris":{"android":"levelo://app?vid=8c1d327c-0aef-40f2-9c1e-c8f679c30716","ios":"levelo://app?vid=8c1d327c-0aef-40f2-9c1e-c8f679c30716"},"vehicle_type_id":"4","last_reported":1770592834,"current_range_meters":4800,"station_id":"ce4bgqh2rcd13ifvqc5g","pricing_plan_id":"cebpf4jnsgd1na2vs0mg"},{"bike_id":"e8457bb3-f99d-40e0-aa19-6d3fdf1a5998","system_id":"levelo_inurba_marseille","lat":43.28106,"lon":5.42649,"is_reserved":false,"is_disabled":false,"rental_uris":{"android":"levelo://app?vid=e8457bb3-f99d-40e0-aa19-6d3fdf1a5998","ios":"levelo://app?vid=e8457bb3-f99d-40e0-aa19-6d3fdf1a5998"},"vehicle_type_id":"4","last_reported":1770592834,"current_range_meters":4800,"station_id":"","pricing_plan_id":"cebpf4jnsgd1na2vs0mg"},{"bike_id":"a03713b9-bb1f-4cd8-9a75-37ef2a7948ba","system_id":"levelo_inurba_marseille","lat":43.262216,"lon":5.379221,"is_reserved":false,"is_disabled":false,"rental_uris":{"android":"levelo://app?vid=a03713b9-bb1f-4cd8-9a75-37ef2a7948ba","ios":"levelo://app?vid=a03713b9-bb1f-4cd8-9a75-37ef2a7948ba"},"vehicle_type_id":"4","last_reported":1770592834,"current_range_meters":4800,"station_id":"ce4bhjp2rcd13ifvqg90","pricing_plan_id":"cebpf4jnsgd1na2vs0mg"},{"bike_id":"6b9ad2f0-0d88-40ff-a88f-7ddf87de7fb0","system_id":"levelo_inurba_marseille","lat":43.2989,"lon":5.43675,"is_reserved":false,"is_disabled":false,"rental_uris":{"android":"levelo://app?vid=6b9ad2f0-0d88-40ff-a88f-7ddf87de7fb0","ios":"levelo://app?vid=6b9ad2f0-0d88-40ff-a88f-7ddf87de7fb0"},"vehicle_type_id":"4","last_reported":1770592834,"current_range_meters":5600,"station_id":"ce4bhpp2rcd13ifvqhfg","pricing_plan_id":"cebpf4jnsgd1na2vs0mg"},{"bike_id":"fc7e4b88-1656-4ea3-ac70-db935a568e8d","system_id":"levelo_inurba_marseille","lat":43.33162,"lon":5.37689,"is_reserved":false,"is_disabled":false,"rental_uris":{"android":"levelo://app?vid=fc7e4b88-1656-4ea3-ac70-db935a568e8d","ios":"levelo://app?vid=fc7e4b88-1656-4ea3-ac70-db935a568e8d"},"vehicle_type_id":"4","last_reported":1770592834,"current_range_meters":5600,"station_id":"st_d46cu089ee8s73dldbu0","pricing_plan_id":"cebpf4jnsgd1na2vs0mg"},{"bike_id":"058f88c5-b6a2-4480-90bf-75f3f4077964","system_id":"levelo_inurba_marseille","lat":43.29169,"lon":5.3715,"is_reserved":false,"is_disabled":false,"rental_uris":{"android":"levelo://app?vid=058f88c5-b6a2-4480-90bf-75f3f4077964","ios":"levelo://app?vid=058f88c5-b6a2-4480-90bf-75f3f4077964"},"vehicle_type_id":"4","last_reported":1770592834,"current_range_meters":5600,"station_id":"ce4bha92rcd13ifvqeh0","pricing_plan_id":"cebpf4jnsgd1na2vs0mg"},{"bike_id":"f957ccc7-2bd4-4806-8d87-912204afeaf8","system_id":"levelo_inurba_marseille","lat":43.27903,"lon":5.38246,"is_reserved":false,"is_disabled":false,"rental_uris":{"android":"levelo://app?vid=f957ccc7-2bd4-4806-8d87-912204afeaf8","ios":"levelo://app?vid=f957ccc7-2bd4-4806-8d87-912204afeaf8"},"vehicle_type_id":"4","last_reported":1770592834,"current_range_meters":5600,"station_id":"","pricing_plan_id":"cebpf4jnsgd1na2vs0mg"},{"bike_id":"66f61838-99ce-449f-9957-4eada4297346","system_id":"levelo_inurba_marseille","lat":43.28335,"lon":5.38104,"is_reserved":false,"is_disabled":true,"rental_uris":{"android":"levelo://app?vid=66f61838-99ce-449f-9957-4eada4297346","ios":"levelo://app?vid=66f61838-99ce-449f-9957-4eada4297346"},"vehicle_type_id":"4","last_reported":1770592834,"current_range_meters":5600,"station_id":"ce4bh412rcd13ifvqdr0","pricing_plan_id":"cebpf4jnsgd1na2vs0mg"},{"bike_id":"daa95b08-336d-4059-814b-510ef6019d78","system_id":"levelo_inurba_marseille","lat":43.30889,"lon":5.37213,"is_reserved":false,"is_disabled":false,"rental_uris":{"android":"levelo://app?vid=daa95b08-336d-4059-814b-510ef6019d78","ios":"levelo://app?vid=daa95b08-336d-4059-814b-510ef6019d78"},"vehicle_type_id":"4","last_reported":1770592834,"current_range_meters":5600,"station_id":"ce4bguh2rcd13ifvqckg","pricing_plan_id":"cebpf4jnsgd1na2vs0mg"},{"bike_id":"7e432d56-4167-484a-a6d0-1b8a4f18fe1c","system_id":"levelo_inurba_marseille","lat":43.229297,"lon":5.353766,"is_reserved":false,"is_disabled":false,"rental_uris":{"android":"levelo://app?vid=7e432d56-4167-484a-a6d0-1b8a4f18fe1c","ios":"levelo://app?vid=7e432d56-4167-484a-a6d0-1b8a4f18fe1c"},"vehicle_type_id":"4","last_reported":1770592834,"current_range_meters":5600,"station_id":"cpo3532slgdg3j2ikp40","pricing_plan_id":"cebpf4jnsgd1na2vs0mg"},{"bike_id":"28ea6fbe-b592-43e0-b4f1-22356d5bc8f9","system_id":"levelo_inurba_marseille","lat":43.3354,"lon":5.37461,"is_reserved":false,"is_disabled":false,"rental_uris":{"android":"levelo://app?vid=28ea6fbe-b592-43e0-b4f1-22356d5bc8f9","ios":"levelo://app?vid=28ea6fbe-b592-43e0-b4f1-22356d5bc8f9"},"vehicle_type_id":"4","last_reported":1770592834,"current_range_meters":5600,"station_id":"st_d46tts09ee8s73dlu43g","pricing_plan_id":"cebpf4jnsgd1na2vs0mg"},{"bike_id":"bca568ff-38c7-43df-af7f-69e9c70c5b42","system_id":"levelo_inurba_marseille","lat":43.23776,"lon":5.36631,"is_reserved":false,"is_disabled":false,"rental_uris":{"android":"levelo://app?vid=bca568ff-38c7-43df-af7f-69e9c70c5b42","ios":"levelo://app?vid=bca568ff-38c7-43df-af7f-69e9c70c5b42"},"vehicle_type_id":"4","last_reported":1770592834,"current_range_meters":6000,"station_id":"st_d3nk18o9ro0c73en2l3g","pricing_plan_id":"cebpf4jnsgd1na2vs0mg"},{"bike_id":"5a7b28b4-6140-44a2-b79d-f94fde4134f7","system_id":"levelo_inurba_marseille","lat":43.31058,"lon":5.38343,"is_reserved":false,"is_disabled":false,"rental_uris":{"android":"levelo://app?vid=5a7b28b4-6140-44a2-b79d-f94fde4134f7","ios":"levelo://app?vid=5a7b28b4-6140-44a2-b79d-f94fde4134f7"},"vehicle_type_id":"4","last_reported":1770592834,"current_range_meters":6000,"station_id":"ce4bgt12rcd13ifvqce0","pricing_plan_id":"cebpf4jnsgd1na2vs0mg"},{"bike_id":"ec530521-2795-4ff9-af45-352d2124398c","system_id":"levelo_inurba_marseille","lat":43.31334,"lon":5.36721,"is_reserved":false,"is_disabled":true,"rental_uris":{"android":"levelo://app?vid=ec530521-2795-4ff9-af45-352d2124398c","ios":"levelo://app?vid=ec530521-2795-4ff9-af45-352d2124398c"},"vehicle_type_id":"4","last_reported":1770592834,"current_range_meters":6000,"station_id":"ce4bgr92rcd13ifvqc6g","pricing_plan_id":"cebpf4jnsgd1na2vs0mg"},{"bike_id":"b0e7feeb-1416-4406-b174-1e7f94d3553f","system_id":"levelo_inurba_marseille","lat":43.335483,"lon":5.374735,"is_reserved":false,"is_disabled":false,"rental_uris":{"android":"levelo://app?vid=b0e7feeb-1416-4406-b174-1e7f94d3553f","ios":"levelo://app?vid=b0e7feeb-1416-4406-b174-1e7f94d3553f"},"vehicle_type_id":"4","last_reported":1770592834,"current_range_meters":6000,"station_id":"","pricing_plan_id":"cebpf4jnsgd1na2vs0mg"},{"bike_id":"db155ad0-9e9f-40a1-acf3-6e95506d403d","system_id":"levelo_inurba_marseille","lat":43.31487,"lon":5.37313,"is_reserved":false,"is_disabled":false,"rental_uris":{"android":"levelo://app?vid=db155ad0-9e9f-40a1-acf3-6e95506d403d","ios":"levelo://app?vid=db155ad0-9e9f-40a1-acf3-6e95506d403d"},"vehicle_type_id":"4","last_reported":1770592834,"current_range_meters":6000,"station_id":"ce4bgt12rcd13ifvqcd0","pricing_plan_id":"cebpf4jnsgd1na2vs0mg"},{"bike_id":"155a788c-3210-4e6a-b211-01617931334a","system_id":"levelo_inurba_marseille","lat":43.337444,"lon":5.374475,"is_reserved":false,"is_disabled":false,"rental_uris":{"android":"levelo://app?vid=155a788c-3210-4e6a-b211-01617931334a","ios":"levelo://app?vid=155a788c-3210-4e6a-b211-01617931334a"},"vehicle_type_id":"4","last_reported":1770592834,"current_range_meters":6000,"station_id":"","pricing_plan_id":"cebpf4jnsgd1na2vs0mg"},{"bike_id":"2ec8dfc1-6364-4f8d-b3dd-d63bc7efaa91","system_id":"levelo_inurba_marseille","lat":43.32052,"lon":5.36767,"is_reserved":false,"is_disabled":false,"rental_uris":{"android":"levelo://app?vid=2ec8dfc1-6364-4f8d-b3dd-d63bc7efaa91","ios":"levelo://app?vid=2ec8dfc1-6364-4f8d-b3dd-d63bc7efaa91"},"vehicle_type_id":"4","last_reported":1770592834,"current_range_meters":6000,"station_id":"ce4bhrh2rcd13ifvqhug","pricing_plan_id":"cebpf4jnsgd1na2vs0mg"},{"bike_id":"f46014af-a80e-4832-8fb8-fcc006daae6a","system_id":"levelo_inurba_marseille","lat":43.30537,"lon":5.36566,"is_reserved":false,"is_disabled":false,"rental_uris":{"android":"levelo://app?vid=f46014af-a80e-4832-8fb8-fcc006daae6a","ios":"levelo://app?vid=f46014af-a80e-4832-8fb8-fcc006daae6a"},"vehicle_type_id":"4","last_reported":1770592834,"current_range_meters":6000,"station_id":"ce4bgs12rcd13ifvqcag","pricing_plan_id":"cebpf4jnsgd1na2vs0mg"},{"bike_id":"fbd8c4f9-3856-46a2-b291-e190e6907420","system_id":"levelo_inurba_marseille","lat":43.25003,"lon":5.38928,"is_reserved":false,"is_disabled":false,"rental_uris":{"android":"levelo://app?vid=fbd8c4f9-3856-46a2-b291-e190e6907420","ios":"levelo://app?vid=fbd8c4f9-3856-46a2-b291-e190e6907420"},"vehicle_type_id":"4","last_reported":1770592834,"current_range_meters":6000,"station_id":"ce4bhgp2rcd13ifvqfd0","pricing_plan_id":"cebpf4jnsgd1na2vs0mg"},{"bike_id":"1a1d969f-bada-4aaa-a461-ec3f4a01601c","system_id":"levelo_inurba_marseille","lat":43.33375,"lon":5.37287,"is_reserved":false,"is_disabled":false,"rental_uris":{"android":"levelo://app?vid=1a1d969f-bada-4aaa-a461-ec3f4a01601c","ios":"levelo://app?vid=1a1d969f-bada-4aaa-a461-ec3f4a01601c"},"vehicle_type_id":"4","last_reported":1770592834,"current_range_meters":6000,"station_id":"st_d46tts09ee8s73dlu43g","pricing_plan_id":"cebpf4jnsgd1na2vs0mg"},{"bike_id":"7a2c796a-2c27-403d-a799-411424496833","system_id":"levelo_inurba_marseille","lat":43.26571,"lon":5.40329,"is_reserved":false,"is_disabled":false,"rental_uris":{"android":"levelo://app?vid=7a2c796a-2c27-403d-a799-411424496833","ios":"levelo://app?vid=7a2c796a-2c27-403d-a799-411424496833"},"vehicle_type_id":"4","last_reported":1770592834,"current_range_meters":6400,"station_id":"ce4bhmp2rcd13ifvqgng","pricing_plan_id":"cebpf4jnsgd1na2vs0mg"},{"bike_id":"2cdb8556-4ff7-49ce-ba76-5a513779a7d3","system_id":"levelo_inurba_marseille","lat":43.31067,"lon":5.38347,"is_reserved":false,"is_disabled":false,"rental_uris":{"android":"levelo://app?vid=2cdb8556-4ff7-49ce-ba76-5a513779a7d3","ios":"levelo://app?vid=2cdb8556-4ff7-49ce-ba76-5a513779a7d3"},"vehicle_type_id":"4","last_reported":1770592834,"current_range_meters":6400,"station_id":"ce4bgv92rcd13ifvqcr0","pricing_plan_id":"cebpf4jnsgd1na2vs0mg"},{"bike_id":"867458d9-c09f-4165-b1af-e2013b3a197e","system_id":"levelo_inurba_marseille","lat":43.24638,"lon":5.38885,"is_reserved":false,"is_disabled":false,"rental_uris":{"android":"levelo://app?vid=867458d9-c09f-4165-b1af-e2013b3a197e","ios":"levelo://app?vid=867458d9-c09f-4165-b1af-e2013b3a197e"},"vehicle_type_id":"4","last_reported":1770592834,"current_range_meters":6400,"station_id":"ce4bhg12rcd13ifvqf60","pricing_plan_id":"cebpf4jnsgd1na2vs0mg"},{"bike_id":"150fa605-1342-42d0-b038-c87938e3cafd","system_id":"levelo_inurba_marseille","lat":43.26214,"lon":5.37924,"is_reserved":false,"is_disabled":false,"rental_uris":{"android":"levelo://app?vid=150fa605-1342-42d0-b038-c87938e3cafd","ios":"levelo://app?vid=150fa605-1342-42d0-b038-c87938e3cafd"},"vehicle_type_id":"4","last_reported":1770592834,"current_range_meters":6400,"station_id":"ce4bhjp2rcd13ifvqg90","pricing_plan_id":"cebpf4jnsgd1na2vs0mg"},{"bike_id":"c1c15dd8-d5f4-419a-b7d9-76b9cd0f2968","system_id":"levelo_inurba_marseille","lat":43.28276,"lon":5.35081,"is_reserved":false,"is_disabled":false,"rental_uris":{"android":"levelo://app?vid=c1c15dd8-d5f4-419a-b7d9-76b9cd0f2968","ios":"levelo://app?vid=c1c15dd8-d5f4-419a-b7d9-76b9cd0f2968"},"vehicle_type_id":"4","last_reported":1770592834,"current_range_meters":6400,"station_id":"ce4bhbp2rcd13ifvqerg","pricing_plan_id":"cebpf4jnsgd1na2vs0mg"},{"bike_id":"16ac9c64-e365-4645-8b05-04ee2f4337e9","system_id":"levelo_inurba_marseille","lat":43.23954,"lon":5.36652,"is_reserved":false,"is_disabled":false,"rental_uris":{"android":"levelo://app?vid=16ac9c64-e365-4645-8b05-04ee2f4337e9","ios":"levelo://app?vid=16ac9c64-e365-4645-8b05-04ee2f4337e9"},"vehicle_type_id":"4","last_reported":1770592834,"current_range_meters":6400,"station_id":"ce4bhi12rcd13ifvqfp0","pricing_plan_id":"cebpf4jnsgd1na2vs0mg"},{"bike_id":"cf7abb30-91b4-4fa2-abfb-7d7173b59b2c","system_id":"levelo_inurba_marseille","lat":43.25335,"lon":5.42182,"is_reserved":false,"is_disabled":false,"rental_uris":{"android":"levelo://app?vid=cf7abb30-91b4-4fa2-abfb-7d7173b59b2c","ios":"levelo://app?vid=cf7abb30-91b4-4fa2-abfb-7d7173b59b2c"},"vehicle_type_id":"4","last_reported":1770592834,"current_range_meters":6400,"station_id":"st_d2m65c5bi1j21697t3ng","pricing_plan_id":"cebpf4jnsgd1na2vs0mg"},{"bike_id":"5f9bd2ca-91e3-4fbe-a1bb-af05a97d2ea2","system_id":"levelo_inurba_marseille","lat":43.31462,"lon":5.4537,"is_reserved":false,"is_disabled":false,"rental_uris":{"android":"levelo://app?vid=5f9bd2ca-91e3-4fbe-a1bb-af05a97d2ea2","ios":"levelo://app?vid=5f9bd2ca-91e3-4fbe-a1bb-af05a97d2ea2"},"vehicle_type_id":"4","last_reported":1770592834,"current_range_meters":6400,"station_id":"","pricing_plan_id":"cebpf4jnsgd1na2vs0mg"},{"bike_id":"4414a71f-328e-433c-ae9b-b1fe012b70ff","system_id":"levelo_inurba_marseille","lat":43.30281,"lon":5.37695,"is_reserved":false,"is_disabled":false,"rental_uris":{"android":"levelo://app?vid=4414a71f-328e-433c-ae9b-b1fe012b70ff","ios":"levelo://app?vid=4414a71f-328e-433c-ae9b-b1fe012b70ff"},"vehicle_type_id":"4","last_reported":1770592834,"current_range_meters":6400,"station_id":"ce4bguh2rcd13ifvqcj0","pricing_plan_id":"cebpf4jnsgd1na2vs0mg"},{"bike_id":"cfb9f90a-8bba-4df6-b769-b6924ddbf8e2","system_id":"levelo_inurba_marseille","lat":43.2621,"lon":5.37908,"is_reserved":false,"is_disabled":false,"rental_uris":{"android":"levelo://app?vid=cfb9f90a-8bba-4df6-b769-b6924ddbf8e2","ios":"levelo://app?vid=cfb9f90a-8bba-4df6-b769-b6924ddbf8e2"},"vehicle_type_id":"4","last_reported":1770592834,"current_range_meters":6400,"station_id":"ce4bhjp2rcd13ifvqg90","pricing_plan_id":"cebpf4jnsgd1na2vs0mg"},{"bike_id":"779ab762-12c7-4e4f-a5f9-1cd4487c21c9","system_id":"levelo_inurba_marseille","lat":43.32123,"lon":5.36747,"is_reserved":false,"is_disabled":false,"rental_uris":{"android":"levelo://app?vid=779ab762-12c7-4e4f-a5f9-1cd4487c21c9","ios":"levelo://app?vid=779ab762-12c7-4e4f-a5f9-1cd4487c21c9"},"vehicle_type_id":"4","last_reported":1770592834,"current_range_meters":6800,"station_id":"ce4bhrh2rcd13ifvqhug","pricing_plan_id":"cebpf4jnsgd1na2vs0mg"},{"bike_id":"32577ebd-ed06-4347-93dc-05d682fb3828","system_id":"levelo_inurba_marseille","lat":43.24472,"lon":5.42535,"is_reserved":false,"is_disabled":false,"rental_uris":{"android":"levelo://app?vid=32577ebd-ed06-4347-93dc-05d682fb3828","ios":"levelo://app?vid=32577ebd-ed06-4347-93dc-05d682fb3828"},"vehicle_type_id":"4","last_reported":1770592834,"current_range_meters":6800,"station_id":"st_d4a3vfp97mjs738cd8kg","pricing_plan_id":"cebpf4jnsgd1na2vs0mg"},{"bike_id":"0b84e61d-62ba-4706-80f1-3a72823c8089","system_id":"levelo_inurba_marseille","lat":43.25928,"lon":5.40904,"is_reserved":false,"is_disabled":false,"rental_uris":{"android":"levelo://app?vid=0b84e61d-62ba-4706-80f1-3a72823c8089","ios":"levelo://app?vid=0b84e61d-62ba-4706-80f1-3a72823c8089"},"vehicle_type_id":"4","last_reported":1770592834,"current_range_meters":6800,"station_id":"ce4bhm92rcd13ifvqglg","pricing_plan_id":"cebpf4jnsgd1na2vs0mg"},{"bike_id":"d71fd997-724b-4700-8f71-84b37168fbd9","system_id":"levelo_inurba_marseille","lat":43.25726,"lon":5.41107,"is_reserved":false,"is_disabled":false,"rental_uris":{"android":"levelo://app?vid=d71fd997-724b-4700-8f71-84b37168fbd9","ios":"levelo://app?vid=d71fd997-724b-4700-8f71-84b37168fbd9"},"vehicle_type_id":"4","last_reported":1770592834,"current_range_meters":6800,"station_id":"ce4bhkp2rcd13ifvqgd0","pricing_plan_id":"cebpf4jnsgd1na2vs0mg"},{"bike_id":"0c2c272e-d223-43a8-9f2f-3e8aef87ad89","system_id":"levelo_inurba_marseille","lat":43.275629,"lon":5.384192,"is_reserved":false,"is_disabled":false,"rental_uris":{"android":"levelo://app?vid=0c2c272e-d223-43a8-9f2f-3e8aef87ad89","ios":"levelo://app?vid=0c2c272e-d223-43a8-9f2f-3e8aef87ad89"},"vehicle_type_id":"4","last_reported":1770592834,"current_range_meters":6800,"station_id":"ce4bh0h2rcd13ifvqd60","pricing_plan_id":"cebpf4jnsgd1na2vs0mg"},{"bike_id":"980d551f-b403-42e0-8029-a54379d3099a","system_id":"levelo_inurba_marseille","lat":43.2767,"lon":5.38882,"is_reserved":false,"is_disabled":false,"rental_uris":{"android":"levelo://app?vid=980d551f-b403-42e0-8029-a54379d3099a","ios":"levelo://app?vid=980d551f-b403-42e0-8029-a54379d3099a"},"vehicle_type_id":"4","last_reported":1770592834,"current_range_meters":6800,"station_id":"ce4bhi12rcd13ifvqfo0","pricing_plan_id":"cebpf4jnsgd1na2vs0mg"},{"bike_id":"ec908c82-ae98-4888-ba59-a2ca791a7c60","system_id":"levelo_inurba_marseille","lat":43.29307,"lon":5.37167,"is_reserved":false,"is_disabled":false,"rental_uris":{"android":"levelo://app?vid=ec908c82-ae98-4888-ba59-a2ca791a7c60","ios":"levelo://app?vid=ec908c82-ae98-4888-ba59-a2ca791a7c60"},"vehicle_type_id":"4","last_reported":1770592834,"current_range_meters":6800,"station_id":"ce4bgh92rcd13ifvqb40","pricing_plan_id":"cebpf4jnsgd1na2vs0mg"},{"bike_id":"364ea28f-7e20-4ad8-9bf1-69b2e8dad65e","system_id":"levelo_inurba_marseille","lat":43.28611,"lon":5.44344,"is_reserved":false,"is_disabled":false,"rental_uris":{"android":"levelo://app?vid=364ea28f-7e20-4ad8-9bf1-69b2e8dad65e","ios":"levelo://app?vid=364ea28f-7e20-4ad8-9bf1-69b2e8dad65e"},"vehicle_type_id":"4","last_reported":1770592834,"current_range_meters":6800,"station_id":"","pricing_plan_id":"cebpf4jnsgd1na2vs0mg"},{"bike_id":"317dad32-e91b-4bc3-9480-60cfd5be8e82","system_id":"levelo_inurba_marseille","lat":43.24661,"lon":5.38152,"is_reserved":false,"is_disabled":false,"rental_uris":{"android":"levelo://app?vid=317dad32-e91b-4bc3-9480-60cfd5be8e82","ios":"levelo://app?vid=317dad32-e91b-4bc3-9480-60cfd5be8e82"},"vehicle_type_id":"4","last_reported":1770592834,"current_range_meters":6800,"station_id":"ce4bhih2rcd13ifvqfr0","pricing_plan_id":"cebpf4jnsgd1na2vs0mg"},{"bike_id":"dd24189e-0ca5-42b2-a25c-59b99b80cd71","system_id":"levelo_inurba_marseille","lat":43.24771,"lon":5.37424,"is_reserved":false,"is_disabled":false,"rental_uris":{"android":"levelo://app?vid=dd24189e-0ca5-42b2-a25c-59b99b80cd71","ios":"levelo://app?vid=dd24189e-0ca5-42b2-a25c-59b99b80cd71"},"vehicle_type_id":"4","last_reported":1770592834,"current_range_meters":6800,"station_id":"ce4bhgh2rcd13ifvqfb0","pricing_plan_id":"cebpf4jnsgd1na2vs0mg"},{"bike_id":"75498cc1-bc7b-4283-a164-ce3118e847b8","system_id":"levelo_inurba_marseille","lat":43.25945,"lon":5.40906,"is_reserved":false,"is_disabled":false,"rental_uris":{"android":"levelo://app?vid=75498cc1-bc7b-4283-a164-ce3118e847b8","ios":"levelo://app?vid=75498cc1-bc7b-4283-a164-ce3118e847b8"},"vehicle_type_id":"4","last_reported":1770592834,"current_range_meters":7200,"station_id":"ce4bhm92rcd13ifvqglg","pricing_plan_id":"cebpf4jnsgd1na2vs0mg"},{"bike_id":"4b9bbde0-30cc-4c3d-973e-6947c0246c0b","system_id":"levelo_inurba_marseille","lat":43.26553,"lon":5.37281,"is_reserved":false,"is_disabled":false,"rental_uris":{"android":"levelo://app?vid=4b9bbde0-30cc-4c3d-973e-6947c0246c0b","ios":"levelo://app?vid=4b9bbde0-30cc-4c3d-973e-6947c0246c0b"},"vehicle_type_id":"4","last_reported":1770592834,"current_range_meters":7200,"station_id":"ce4bhg12rcd13ifvqf70","pricing_plan_id":"cebpf4jnsgd1na2vs0mg"},{"bike_id":"f8354ddb-017a-4bf2-8668-a39598178e17","system_id":"levelo_inurba_marseille","lat":43.30736,"lon":5.42433,"is_reserved":false,"is_disabled":false,"rental_uris":{"android":"levelo://app?vid=f8354ddb-017a-4bf2-8668-a39598178e17","ios":"levelo://app?vid=f8354ddb-017a-4bf2-8668-a39598178e17"},"vehicle_type_id":"4","last_reported":1770592834,"current_range_meters":7200,"station_id":"st_cvj6ca6bvosntc0bfgr0","pricing_plan_id":"cebpf4jnsgd1na2vs0mg"},{"bike_id":"a5fe7b14-3ced-4d6c-aab3-f34baaf11509","system_id":"levelo_inurba_marseille","lat":43.29906,"lon":5.38902,"is_reserved":false,"is_disabled":true,"rental_uris":{"android":"levelo://app?vid=a5fe7b14-3ced-4d6c-aab3-f34baaf11509","ios":"levelo://app?vid=a5fe7b14-3ced-4d6c-aab3-f34baaf11509"},"vehicle_type_id":"4","last_reported":1770592834,"current_range_meters":7200,"station_id":"ce4bh392rcd13ifvqdl0","pricing_plan_id":"cebpf4jnsgd1na2vs0mg"},{"bike_id":"fe378c8a-af6f-4a60-a77b-ec7632678b42","system_id":"levelo_inurba_marseille","lat":43.29276,"lon":5.36831,"is_reserved":false,"is_disabled":false,"rental_uris":{"android":"levelo://app?vid=fe378c8a-af6f-4a60-a77b-ec7632678b42","ios":"levelo://app?vid=fe378c8a-af6f-4a60-a77b-ec7632678b42"},"vehicle_type_id":"4","last_reported":1770592834,"current_range_meters":7200,"station_id":"ce4bhbp2rcd13ifvqesg","pricing_plan_id":"cebpf4jnsgd1na2vs0mg"},{"bike_id":"e02d2b38-58ae-453d-9693-7a6a850a6521","system_id":"levelo_inurba_marseille","lat":43.26221,"lon":5.37436,"is_reserved":false,"is_disabled":false,"rental_uris":{"android":"levelo://app?vid=e02d2b38-58ae-453d-9693-7a6a850a6521","ios":"levelo://app?vid=e02d2b38-58ae-453d-9693-7a6a850a6521"},"vehicle_type_id":"4","last_reported":1770592834,"current_range_meters":7200,"station_id":"ce4bhgp2rcd13ifvqfc0","pricing_plan_id":"cebpf4jnsgd1na2vs0mg"},{"bike_id":"98e61b74-3ca5-466f-b460-5e4ff3753470","system_id":"levelo_inurba_marseille","lat":43.28845,"lon":5.35832,"is_reserved":false,"is_disabled":false,"rental_uris":{"android":"levelo://app?vid=98e61b74-3ca5-466f-b460-5e4ff3753470","ios":"levelo://app?vid=98e61b74-3ca5-466f-b460-5e4ff3753470"},"vehicle_type_id":"4","last_reported":1770592834,"current_range_meters":7200,"station_id":"ce4bhb12rcd13ifvqem0","pricing_plan_id":"cebpf4jnsgd1na2vs0mg"},{"bike_id":"93d2f206-3fcb-4c57-9f72-142295498e9f","system_id":"levelo_inurba_marseille","lat":43.30891,"lon":5.37207,"is_reserved":false,"is_disabled":false,"rental_uris":{"android":"levelo://app?vid=93d2f206-3fcb-4c57-9f72-142295498e9f","ios":"levelo://app?vid=93d2f206-3fcb-4c57-9f72-142295498e9f"},"vehicle_type_id":"4","last_reported":1770592834,"current_range_meters":7200,"station_id":"ce4bguh2rcd13ifvqckg","pricing_plan_id":"cebpf4jnsgd1na2vs0mg"},{"bike_id":"79271155-1aff-4de8-a753-6006b8197aa8","system_id":"levelo_inurba_marseille","lat":43.24071,"lon":5.37771,"is_reserved":false,"is_disabled":false,"rental_uris":{"android":"levelo://app?vid=79271155-1aff-4de8-a753-6006b8197aa8","ios":"levelo://app?vid=79271155-1aff-4de8-a753-6006b8197aa8"},"vehicle_type_id":"4","last_reported":1770592834,"current_range_meters":7200,"station_id":"ce4bhnp2rcd13ifvqgvg","pricing_plan_id":"cebpf4jnsgd1na2vs0mg"},{"bike_id":"0f697d4a-cc0c-4feb-a89b-8d49871eb355","system_id":"levelo_inurba_marseille","lat":43.30882,"lon":5.37237,"is_reserved":false,"is_disabled":false,"rental_uris":{"android":"levelo://app?vid=0f697d4a-cc0c-4feb-a89b-8d49871eb355","ios":"levelo://app?vid=0f697d4a-cc0c-4feb-a89b-8d49871eb355"},"vehicle_type_id":"4","last_reported":1770592834,"current_range_meters":7200,"station_id":"","pricing_plan_id":"cebpf4jnsgd1na2vs0mg"},{"bike_id":"be5ee9c8-83a0-47f1-aa70-8349319881b3","system_id":"levelo_inurba_marseille","lat":43.29812,"lon":5.44063,"is_reserved":false,"is_disabled":false,"rental_uris":{"android":"levelo://app?vid=be5ee9c8-83a0-47f1-aa70-8349319881b3","ios":"levelo://app?vid=be5ee9c8-83a0-47f1-aa70-8349319881b3"},"vehicle_type_id":"4","last_reported":1770592834,"current_range_meters":7200,"station_id":"st_d3jp68qikq2c7381ktn0","pricing_plan_id":"cebpf4jnsgd1na2vs0mg"},{"bike_id":"131c8bc6-588e-4f5d-851b-303b7978f745","system_id":"levelo_inurba_marseille","lat":43.25939,"lon":5.409,"is_reserved":false,"is_disabled":false,"rental_uris":{"android":"levelo://app?vid=131c8bc6-588e-4f5d-851b-303b7978f745","ios":"levelo://app?vid=131c8bc6-588e-4f5d-851b-303b7978f745"},"vehicle_type_id":"4","last_reported":1770592834,"current_range_meters":7200,"station_id":"ce4bhm92rcd13ifvqglg","pricing_plan_id":"cebpf4jnsgd1na2vs0mg"},{"bike_id":"55afc012-7d9e-494f-8ec6-1fffacfb0da4","system_id":"levelo_inurba_marseille","lat":43.26556,"lon":5.40325,"is_reserved":false,"is_disabled":false,"rental_uris":{"android":"levelo://app?vid=55afc012-7d9e-494f-8ec6-1fffacfb0da4","ios":"levelo://app?vid=55afc012-7d9e-494f-8ec6-1fffacfb0da4"},"vehicle_type_id":"4","last_reported":1770592834,"current_range_meters":7200,"station_id":"ce4bhmp2rcd13ifvqgng","pricing_plan_id":"cebpf4jnsgd1na2vs0mg"},{"bike_id":"aa491c89-57cc-4f20-8776-a2df30b3f75d","system_id":"levelo_inurba_marseille","lat":43.23188,"lon":5.39984,"is_reserved":false,"is_disabled":false,"rental_uris":{"android":"levelo://app?vid=aa491c89-57cc-4f20-8776-a2df30b3f75d","ios":"levelo://app?vid=aa491c89-57cc-4f20-8776-a2df30b3f75d"},"vehicle_type_id":"4","last_reported":1770592834,"current_range_meters":7200,"station_id":"ce4bhn12rcd13ifvqgqg","pricing_plan_id":"cebpf4jnsgd1na2vs0mg"},{"bike_id":"b9b10dd2-189e-4392-a822-941c774215c4","system_id":"levelo_inurba_marseille","lat":43.27566,"lon":5.38421,"is_reserved":false,"is_disabled":false,"rental_uris":{"android":"levelo://app?vid=b9b10dd2-189e-4392-a822-941c774215c4","ios":"levelo://app?vid=b9b10dd2-189e-4392-a822-941c774215c4"},"vehicle_type_id":"4","last_reported":1770592834,"current_range_meters":7200,"station_id":"ce4bhh92rcd13ifvqfi0","pricing_plan_id":"cebpf4jnsgd1na2vs0mg"},{"bike_id":"edc9c679-e0d1-4084-a3db-3f6b1a28aa12","system_id":"levelo_inurba_marseille","lat":43.28522,"lon":5.44095,"is_reserved":false,"is_disabled":false,"rental_uris":{"android":"levelo://app?vid=edc9c679-e0d1-4084-a3db-3f6b1a28aa12","ios":"levelo://app?vid=edc9c679-e0d1-4084-a3db-3f6b1a28aa12"},"vehicle_type_id":"4","last_reported":1770592834,"current_range_meters":7200,"station_id":"st_d3j3df2ikq2c7380ej80","pricing_plan_id":"cebpf4jnsgd1na2vs0mg"},{"bike_id":"6c572dc3-59b5-4477-8364-014f92953c24","system_id":"levelo_inurba_marseille","lat":43.24944,"lon":5.40476,"is_reserved":false,"is_disabled":false,"rental_uris":{"android":"levelo://app?vid=6c572dc3-59b5-4477-8364-014f92953c24","ios":"levelo://app?vid=6c572dc3-59b5-4477-8364-014f92953c24"},"vehicle_type_id":"4","last_reported":1770592834,"current_range_meters":7200,"station_id":"st_d2ngiaodas8pm72gd1h0","pricing_plan_id":"cebpf4jnsgd1na2vs0mg"},{"bike_id":"34b1fdc5-9e7b-469b-a733-d7bf7e9fb0c3","system_id":"levelo_inurba_marseille","lat":43.28335,"lon":5.38728,"is_reserved":false,"is_disabled":false,"rental_uris":{"android":"levelo://app?vid=34b1fdc5-9e7b-469b-a733-d7bf7e9fb0c3","ios":"levelo://app?vid=34b1fdc5-9e7b-469b-a733-d7bf7e9fb0c3"},"vehicle_type_id":"4","last_reported":1770592834,"current_range_meters":7200,"station_id":"","pricing_plan_id":"cebpf4jnsgd1na2vs0mg"},{"bike_id":"f66f77ca-8e30-4250-91f1-d5277ae6b4a1","system_id":"levelo_inurba_marseille","lat":43.2465,"lon":5.38894,"is_reserved":false,"is_disabled":false,"rental_uris":{"android":"levelo://app?vid=f66f77ca-8e30-4250-91f1-d5277ae6b4a1","ios":"levelo://app?vid=f66f77ca-8e30-4250-91f1-d5277ae6b4a1"},"vehicle_type_id":"4","last_reported":1770592834,"current_range_meters":7200,"station_id":"ce4bhg12rcd13ifvqf60","pricing_plan_id":"cebpf4jnsgd1na2vs0mg"},{"bike_id":"b98629f8-ee0a-40bb-86a1-ad6537ba67bf","system_id":"levelo_inurba_marseille","lat":43.32479,"lon":5.36567,"is_reserved":false,"is_disabled":false,"rental_uris":{"android":"levelo://app?vid=b98629f8-ee0a-40bb-86a1-ad6537ba67bf","ios":"levelo://app?vid=b98629f8-ee0a-40bb-86a1-ad6537ba67bf"},"vehicle_type_id":"4","last_reported":1770592834,"current_range_meters":7200,"station_id":"ce4bhs12rcd13ifvqhvg","pricing_plan_id":"cebpf4jnsgd1na2vs0mg"},{"bike_id":"1ea60dc0-7a32-4323-9458-3ce0044e2a51","system_id":"levelo_inurba_marseille","lat":43.33507,"lon":5.3753,"is_reserved":false,"is_disabled":false,"rental_uris":{"android":"levelo://app?vid=1ea60dc0-7a32-4323-9458-3ce0044e2a51","ios":"levelo://app?vid=1ea60dc0-7a32-4323-9458-3ce0044e2a51"},"vehicle_type_id":"4","last_reported":1770592834,"current_range_meters":7200,"station_id":"","pricing_plan_id":"cebpf4jnsgd1na2vs0mg"},{"bike_id":"a88f250a-dbe8-46cb-a963-a1e497142b80","system_id":"levelo_inurba_marseille","lat":43.26193,"lon":5.37447,"is_reserved":false,"is_disabled":false,"rental_uris":{"android":"levelo://app?vid=a88f250a-dbe8-46cb-a963-a1e497142b80","ios":"levelo://app?vid=a88f250a-dbe8-46cb-a963-a1e497142b80"},"vehicle_type_id":"4","last_reported":1770592834,"current_range_meters":7200,"station_id":"ce4bhgp2rcd13ifvqfc0","pricing_plan_id":"cebpf4jnsgd1na2vs0mg"},{"bike_id":"043ad4af-ef67-47b5-8a56-8e398eb4da8e","system_id":"levelo_inurba_marseille","lat":43.2979,"lon":5.38088,"is_reserved":false,"is_disabled":true,"rental_uris":{"android":"levelo://app?vid=043ad4af-ef67-47b5-8a56-8e398eb4da8e","ios":"levelo://app?vid=043ad4af-ef67-47b5-8a56-8e398eb4da8e"},"vehicle_type_id":"4","last_reported":1770592834,"current_range_meters":8000,"station_id":"ce4bgip2rcd13ifvqbb0","pricing_plan_id":"cebpf4jnsgd1na2vs0mg"},{"bike_id":"fcd7ffdf-e260-4375-9d23-653f14663ff7","system_id":"levelo_inurba_marseille","lat":43.29192,"lon":5.35798,"is_reserved":false,"is_disabled":false,"rental_uris":{"android":"levelo://app?vid=fcd7ffdf-e260-4375-9d23-653f14663ff7","ios":"levelo://app?vid=fcd7ffdf-e260-4375-9d23-653f14663ff7"},"vehicle_type_id":"4","last_reported":1770592834,"current_range_meters":8000,"station_id":"ce4bhb12rcd13ifvqel0","pricing_plan_id":"cebpf4jnsgd1na2vs0mg"},{"bike_id":"a69c6d46-0f4b-4ef5-9649-768f405cc714","system_id":"levelo_inurba_marseille","lat":43.27062,"lon":5.38304,"is_reserved":false,"is_disabled":false,"rental_uris":{"android":"levelo://app?vid=a69c6d46-0f4b-4ef5-9649-768f405cc714","ios":"levelo://app?vid=a69c6d46-0f4b-4ef5-9649-768f405cc714"},"vehicle_type_id":"4","last_reported":1770592834,"current_range_meters":8000,"station_id":"st_d3n2fo6cfp8s73cte1j0","pricing_plan_id":"cebpf4jnsgd1na2vs0mg"},{"bike_id":"8132a45b-6e07-43bd-bcfa-94b9411ef35b","system_id":"levelo_inurba_marseille","lat":43.32364,"lon":5.36735,"is_reserved":false,"is_disabled":false,"rental_uris":{"android":"levelo://app?vid=8132a45b-6e07-43bd-bcfa-94b9411ef35b","ios":"levelo://app?vid=8132a45b-6e07-43bd-bcfa-94b9411ef35b"},"vehicle_type_id":"4","last_reported":1770592834,"current_range_meters":8000,"station_id":"ce4bhsh2rcd13ifvqi2g","pricing_plan_id":"cebpf4jnsgd1na2vs0mg"},{"bike_id":"18193969-f4a0-4413-8fe1-fadaf0e35a4a","system_id":"levelo_inurba_marseille","lat":43.33543,"lon":5.37466,"is_reserved":false,"is_disabled":false,"rental_uris":{"android":"levelo://app?vid=18193969-f4a0-4413-8fe1-fadaf0e35a4a","ios":"levelo://app?vid=18193969-f4a0-4413-8fe1-fadaf0e35a4a"},"vehicle_type_id":"4","last_reported":1770592834,"current_range_meters":8000,"station_id":"st_d46tts09ee8s73dlu43g","pricing_plan_id":"cebpf4jnsgd1na2vs0mg"},{"bike_id":"bbf851d3-26de-42f6-8410-9814f4dc9ec8","system_id":"levelo_inurba_marseille","lat":43.25076,"lon":5.40374,"is_reserved":false,"is_disabled":false,"rental_uris":{"android":"levelo://app?vid=bbf851d3-26de-42f6-8410-9814f4dc9ec8","ios":"levelo://app?vid=bbf851d3-26de-42f6-8410-9814f4dc9ec8"},"vehicle_type_id":"4","last_reported":1770592834,"current_range_meters":8000,"station_id":"","pricing_plan_id":"cebpf4jnsgd1na2vs0mg"},{"bike_id":"e78275eb-3967-43e3-847b-4f8f52237aae","system_id":"levelo_inurba_marseille","lat":43.30431,"lon":5.38875,"is_reserved":false,"is_disabled":true,"rental_uris":{"android":"levelo://app?vid=e78275eb-3967-43e3-847b-4f8f52237aae","ios":"levelo://app?vid=e78275eb-3967-43e3-847b-4f8f52237aae"},"vehicle_type_id":"4","last_reported":1770592834,"current_range_meters":8000,"station_id":"ce4bgk12rcd13ifvqbi0","pricing_plan_id":"cebpf4jnsgd1na2vs0mg"},{"bike_id":"20152737-ca9c-422b-93cc-437b68dda976","system_id":"levelo_inurba_marseille","lat":43.31366,"lon":5.38487,"is_reserved":false,"is_disabled":false,"rental_uris":{"android":"levelo://app?vid=20152737-ca9c-422b-93cc-437b68dda976","ios":"levelo://app?vid=20152737-ca9c-422b-93cc-437b68dda976"},"vehicle_type_id":"4","last_reported":1770592834,"current_range_meters":8000,"station_id":"ce4bgt92rcd13ifvqcf0","pricing_plan_id":"cebpf4jnsgd1na2vs0mg"},{"bike_id":"315cf66a-d85d-4420-b0f7-0067dbd4c398","system_id":"levelo_inurba_marseille","lat":43.26195,"lon":5.37933,"is_reserved":false,"is_disabled":false,"rental_uris":{"android":"levelo://app?vid=315cf66a-d85d-4420-b0f7-0067dbd4c398","ios":"levelo://app?vid=315cf66a-d85d-4420-b0f7-0067dbd4c398"},"vehicle_type_id":"4","last_reported":1770592834,"current_range_meters":8000,"station_id":"ce4bhjp2rcd13ifvqg90","pricing_plan_id":"cebpf4jnsgd1na2vs0mg"},{"bike_id":"d8ba07be-4909-4867-9013-61baab37ba2e","system_id":"levelo_inurba_marseille","lat":43.22559,"lon":5.41643,"is_reserved":false,"is_disabled":false,"rental_uris":{"android":"levelo://app?vid=d8ba07be-4909-4867-9013-61baab37ba2e","ios":"levelo://app?vid=d8ba07be-4909-4867-9013-61baab37ba2e"},"vehicle_type_id":"4","last_reported":1770592834,"current_range_meters":8000,"station_id":"st_d2o4gvlbi1j2169b742g","pricing_plan_id":"cebpf4jnsgd1na2vs0mg"},{"bike_id":"53ffd820-7dfe-4416-9f1c-41399f6d763d","system_id":"levelo_inurba_marseille","lat":43.26546,"lon":5.37332,"is_reserved":false,"is_disabled":false,"rental_uris":{"android":"levelo://app?vid=53ffd820-7dfe-4416-9f1c-41399f6d763d","ios":"levelo://app?vid=53ffd820-7dfe-4416-9f1c-41399f6d763d"},"vehicle_type_id":"4","last_reported":1770592834,"current_range_meters":8000,"station_id":"ce4bhg12rcd13ifvqf70","pricing_plan_id":"cebpf4jnsgd1na2vs0mg"},{"bike_id":"3045fa36-8af2-484c-8446-799c7e150898","system_id":"levelo_inurba_marseille","lat":43.21227,"lon":5.3493,"is_reserved":false,"is_disabled":false,"rental_uris":{"android":"levelo://app?vid=3045fa36-8af2-484c-8446-799c7e150898","ios":"levelo://app?vid=3045fa36-8af2-484c-8446-799c7e150898"},"vehicle_type_id":"4","last_reported":1770592834,"current_range_meters":8000,"station_id":"","pricing_plan_id":"cebpf4jnsgd1na2vs0mg"},{"bike_id":"3fb3ea93-d419-4990-b625-2c5285382b4d","system_id":"levelo_inurba_marseille","lat":43.26025,"lon":5.41742,"is_reserved":false,"is_disabled":false,"rental_uris":{"android":"levelo://app?vid=3fb3ea93-d419-4990-b625-2c5285382b4d","ios":"levelo://app?vid=3fb3ea93-d419-4990-b625-2c5285382b4d"},"vehicle_type_id":"4","last_reported":1770592834,"current_range_meters":8000,"station_id":"","pricing_plan_id":"cebpf4jnsgd1na2vs0mg"},{"bike_id":"d96fa321-cc43-4d28-a99e-b49794bf7b3a","system_id":"levelo_inurba_marseille","lat":43.25945,"lon":5.40908,"is_reserved":false,"is_disabled":false,"rental_uris":{"android":"levelo://app?vid=d96fa321-cc43-4d28-a99e-b49794bf7b3a","ios":"levelo://app?vid=d96fa321-cc43-4d28-a99e-b49794bf7b3a"},"vehicle_type_id":"4","last_reported":1770592834,"current_range_meters":8000,"station_id":"ce4bhm92rcd13ifvqglg","pricing_plan_id":"cebpf4jnsgd1na2vs0mg"},{"bike_id":"4cb41873-94b3-45a8-943f-68b155989d6d","system_id":"levelo_inurba_marseille","lat":43.29846,"lon":5.36285,"is_reserved":false,"is_disabled":false,"rental_uris":{"android":"levelo://app?vid=4cb41873-94b3-45a8-943f-68b155989d6d","ios":"levelo://app?vid=4cb41873-94b3-45a8-943f-68b155989d6d"},"vehicle_type_id":"4","last_reported":1770592834,"current_range_meters":8400,"station_id":"ce4bgpp2rcd13ifvqc3g","pricing_plan_id":"cebpf4jnsgd1na2vs0mg"},{"bike_id":"996a510f-70dd-4518-939f-228af375066f","system_id":"levelo_inurba_marseille","lat":43.29815,"lon":5.44069,"is_reserved":false,"is_disabled":false,"rental_uris":{"android":"levelo://app?vid=996a510f-70dd-4518-939f-228af375066f","ios":"levelo://app?vid=996a510f-70dd-4518-939f-228af375066f"},"vehicle_type_id":"4","last_reported":1770592834,"current_range_meters":8400,"station_id":"st_d3jp68qikq2c7381ktn0","pricing_plan_id":"cebpf4jnsgd1na2vs0mg"},{"bike_id":"d5cf5cdb-1430-48fc-8824-bc44ed778c7b","system_id":"levelo_inurba_marseille","lat":43.32253,"lon":5.38682,"is_reserved":false,"is_disabled":false,"rental_uris":{"android":"levelo://app?vid=d5cf5cdb-1430-48fc-8824-bc44ed778c7b","ios":"levelo://app?vid=d5cf5cdb-1430-48fc-8824-bc44ed778c7b"},"vehicle_type_id":"4","last_reported":1770592834,"current_range_meters":8400,"station_id":"","pricing_plan_id":"cebpf4jnsgd1na2vs0mg"},{"bike_id":"510d0bdd-9dcd-4aba-b9dc-dc1ba86c3ffe","system_id":"levelo_inurba_marseille","lat":43.29255,"lon":5.40903,"is_reserved":false,"is_disabled":false,"rental_uris":{"android":"levelo://app?vid=510d0bdd-9dcd-4aba-b9dc-dc1ba86c3ffe","ios":"levelo://app?vid=510d0bdd-9dcd-4aba-b9dc-dc1ba86c3ffe"},"vehicle_type_id":"4","last_reported":1770592834,"current_range_meters":8400,"station_id":"ce4bh192rcd13ifvqdc0","pricing_plan_id":"cebpf4jnsgd1na2vs0mg"},{"bike_id":"15d3ef54-e724-40dc-bb1e-d53e1a785c94","system_id":"levelo_inurba_marseille","lat":43.286066,"lon":5.398666,"is_reserved":false,"is_disabled":false,"rental_uris":{"android":"levelo://app?vid=15d3ef54-e724-40dc-bb1e-d53e1a785c94","ios":"levelo://app?vid=15d3ef54-e724-40dc-bb1e-d53e1a785c94"},"vehicle_type_id":"4","last_reported":1770592834,"current_range_meters":8400,"station_id":"st_d4a7ka997mjs738ck50g","pricing_plan_id":"cebpf4jnsgd1na2vs0mg"},{"bike_id":"5ef6ce00-1da8-4f35-b102-c6f89b410d36","system_id":"levelo_inurba_marseille","lat":43.26805,"lon":5.40257,"is_reserved":false,"is_disabled":false,"rental_uris":{"android":"levelo://app?vid=5ef6ce00-1da8-4f35-b102-c6f89b410d36","ios":"levelo://app?vid=5ef6ce00-1da8-4f35-b102-c6f89b410d36"},"vehicle_type_id":"4","last_reported":1770592834,"current_range_meters":8400,"station_id":"ce501612rcd8frsf0b60","pricing_plan_id":"cebpf4jnsgd1na2vs0mg"},{"bike_id":"5d1de9d4-2e99-430a-8dcb-f579bf7e4cec","system_id":"levelo_inurba_marseille","lat":43.33567,"lon":5.37476,"is_reserved":false,"is_disabled":false,"rental_uris":{"android":"levelo://app?vid=5d1de9d4-2e99-430a-8dcb-f579bf7e4cec","ios":"levelo://app?vid=5d1de9d4-2e99-430a-8dcb-f579bf7e4cec"},"vehicle_type_id":"4","last_reported":1770592834,"current_range_meters":8400,"station_id":"st_d46tts09ee8s73dlu43g","pricing_plan_id":"cebpf4jnsgd1na2vs0mg"},{"bike_id":"a69d3aee-77c1-410d-a5bd-9dbc56f9521b","system_id":"levelo_inurba_marseille","lat":43.323514,"lon":5.367475,"is_reserved":false,"is_disabled":false,"rental_uris":{"android":"levelo://app?vid=a69d3aee-77c1-410d-a5bd-9dbc56f9521b","ios":"levelo://app?vid=a69d3aee-77c1-410d-a5bd-9dbc56f9521b"},"vehicle_type_id":"4","last_reported":1770592834,"current_range_meters":8400,"station_id":"ce4bhsh2rcd13ifvqi2g","pricing_plan_id":"cebpf4jnsgd1na2vs0mg"},{"bike_id":"d79b2dec-5572-40cc-8119-47c5fad33cc5","system_id":"levelo_inurba_marseille","lat":43.30314,"lon":5.36901,"is_reserved":false,"is_disabled":false,"rental_uris":{"android":"levelo://app?vid=d79b2dec-5572-40cc-8119-47c5fad33cc5","ios":"levelo://app?vid=d79b2dec-5572-40cc-8119-47c5fad33cc5"},"vehicle_type_id":"4","last_reported":1770592834,"current_range_meters":8400,"station_id":"ce4bgqh2rcd13ifvqc5g","pricing_plan_id":"cebpf4jnsgd1na2vs0mg"},{"bike_id":"9178f6df-bb81-4058-94bf-6761a78c6bae","system_id":"levelo_inurba_marseille","lat":43.25121,"lon":5.40318,"is_reserved":false,"is_disabled":false,"rental_uris":{"android":"levelo://app?vid=9178f6df-bb81-4058-94bf-6761a78c6bae","ios":"levelo://app?vid=9178f6df-bb81-4058-94bf-6761a78c6bae"},"vehicle_type_id":"4","last_reported":1770592834,"current_range_meters":8400,"station_id":"ce4bhlh2rcd13ifvqgig","pricing_plan_id":"cebpf4jnsgd1na2vs0mg"},{"bike_id":"9bff89e9-7588-4604-a07f-a672662ed44e","system_id":"levelo_inurba_marseille","lat":43.28673,"lon":5.38654,"is_reserved":false,"is_disabled":false,"rental_uris":{"android":"levelo://app?vid=9bff89e9-7588-4604-a07f-a672662ed44e","ios":"levelo://app?vid=9bff89e9-7588-4604-a07f-a672662ed44e"},"vehicle_type_id":"4","last_reported":1770592834,"current_range_meters":8400,"station_id":"ce4bh492rcd13ifvqdug","pricing_plan_id":"cebpf4jnsgd1na2vs0mg"},{"bike_id":"47f289b7-ae25-4402-9f33-06df0ff8137d","system_id":"levelo_inurba_marseille","lat":43.28468,"lon":5.38432,"is_reserved":false,"is_disabled":false,"rental_uris":{"android":"levelo://app?vid=47f289b7-ae25-4402-9f33-06df0ff8137d","ios":"levelo://app?vid=47f289b7-ae25-4402-9f33-06df0ff8137d"},"vehicle_type_id":"4","last_reported":1770592834,"current_range_meters":8400,"station_id":"ce4bh512rcd13ifvqe3g","pricing_plan_id":"cebpf4jnsgd1na2vs0mg"},{"bike_id":"5f0b2116-3b49-4d83-b373-fa4282b8ba05","system_id":"levelo_inurba_marseille","lat":43.28611,"lon":5.35118,"is_reserved":false,"is_disabled":false,"rental_uris":{"android":"levelo://app?vid=5f0b2116-3b49-4d83-b373-fa4282b8ba05","ios":"levelo://app?vid=5f0b2116-3b49-4d83-b373-fa4282b8ba05"},"vehicle_type_id":"4","last_reported":1770592834,"current_range_meters":8800,"station_id":"ce4bhch2rcd13ifvqeug","pricing_plan_id":"cebpf4jnsgd1na2vs0mg"},{"bike_id":"5db8210b-fea5-4e7d-8212-139d2c0358d5","system_id":"levelo_inurba_marseille","lat":43.2986,"lon":5.36293,"is_reserved":false,"is_disabled":true,"rental_uris":{"android":"levelo://app?vid=5db8210b-fea5-4e7d-8212-139d2c0358d5","ios":"levelo://app?vid=5db8210b-fea5-4e7d-8212-139d2c0358d5"},"vehicle_type_id":"4","last_reported":1770592834,"current_range_meters":8800,"station_id":"ce4bgpp2rcd13ifvqc3g","pricing_plan_id":"cebpf4jnsgd1na2vs0mg"},{"bike_id":"21c74027-26d0-4521-8bcf-ad285a8653f3","system_id":"levelo_inurba_marseille","lat":43.29793,"lon":5.37676,"is_reserved":false,"is_disabled":false,"rental_uris":{"android":"levelo://app?vid=21c74027-26d0-4521-8bcf-ad285a8653f3","ios":"levelo://app?vid=21c74027-26d0-4521-8bcf-ad285a8653f3"},"vehicle_type_id":"4","last_reported":1770592834,"current_range_meters":8800,"station_id":"","pricing_plan_id":"cebpf4jnsgd1na2vs0mg"},{"bike_id":"e3a5bbfb-7bad-4e7e-a65a-271523aaabc5","system_id":"levelo_inurba_marseille","lat":43.29048,"lon":5.37159,"is_reserved":false,"is_disabled":false,"rental_uris":{"android":"levelo://app?vid=e3a5bbfb-7bad-4e7e-a65a-271523aaabc5","ios":"levelo://app?vid=e3a5bbfb-7bad-4e7e-a65a-271523aaabc5"},"vehicle_type_id":"4","last_reported":1770592834,"current_range_meters":8800,"station_id":"ce4bh5p2rcd13ifvqe4g","pricing_plan_id":"cebpf4jnsgd1na2vs0mg"},{"bike_id":"2a2e7824-3cdf-4155-b2b9-cd5c94f8108e","system_id":"levelo_inurba_marseille","lat":43.27573,"lon":5.38407,"is_reserved":false,"is_disabled":false,"rental_uris":{"android":"levelo://app?vid=2a2e7824-3cdf-4155-b2b9-cd5c94f8108e","ios":"levelo://app?vid=2a2e7824-3cdf-4155-b2b9-cd5c94f8108e"},"vehicle_type_id":"4","last_reported":1770592834,"current_range_meters":8800,"station_id":"ce4bhh92rcd13ifvqfi0","pricing_plan_id":"cebpf4jnsgd1na2vs0mg"},{"bike_id":"6718c760-57b4-4f5f-9c07-cadeec237be7","system_id":"levelo_inurba_marseille","lat":43.28174,"lon":5.42627,"is_reserved":false,"is_disabled":true,"rental_uris":{"android":"levelo://app?vid=6718c760-57b4-4f5f-9c07-cadeec237be7","ios":"levelo://app?vid=6718c760-57b4-4f5f-9c07-cadeec237be7"},"vehicle_type_id":"4","last_reported":1770592834,"current_range_meters":8800,"station_id":"ce4bhnh2rcd13ifvqgug","pricing_plan_id":"cebpf4jnsgd1na2vs0mg"},{"bike_id":"361e0368-9a7b-47ee-8c32-60223a5ff5f4","system_id":"levelo_inurba_marseille","lat":43.286787,"lon":5.386681,"is_reserved":false,"is_disabled":false,"rental_uris":{"android":"levelo://app?vid=361e0368-9a7b-47ee-8c32-60223a5ff5f4","ios":"levelo://app?vid=361e0368-9a7b-47ee-8c32-60223a5ff5f4"},"vehicle_type_id":"4","last_reported":1770592834,"current_range_meters":8800,"station_id":"ce4bh492rcd13ifvqdug","pricing_plan_id":"cebpf4jnsgd1na2vs0mg"},{"bike_id":"3bfbcaa6-9cc7-4f78-9525-559218f7d29d","system_id":"levelo_inurba_marseille","lat":43.248114,"lon":5.374613,"is_reserved":false,"is_disabled":false,"rental_uris":{"android":"levelo://app?vid=3bfbcaa6-9cc7-4f78-9525-559218f7d29d","ios":"levelo://app?vid=3bfbcaa6-9cc7-4f78-9525-559218f7d29d"},"vehicle_type_id":"4","last_reported":1770592834,"current_range_meters":8800,"station_id":"ce4bhgh2rcd13ifvqfb0","pricing_plan_id":"cebpf4jnsgd1na2vs0mg"},{"bike_id":"3b2f9b19-5c55-42a4-bbe9-548002b32179","system_id":"levelo_inurba_marseille","lat":43.29778,"lon":5.37108,"is_reserved":false,"is_disabled":false,"rental_uris":{"android":"levelo://app?vid=3b2f9b19-5c55-42a4-bbe9-548002b32179","ios":"levelo://app?vid=3b2f9b19-5c55-42a4-bbe9-548002b32179"},"vehicle_type_id":"4","last_reported":1770592834,"current_range_meters":8800,"station_id":"ce4bgop2rcd13ifvqc1g","pricing_plan_id":"cebpf4jnsgd1na2vs0mg"},{"bike_id":"d4c60cfc-6569-475a-a999-90023dab6245","system_id":"levelo_inurba_marseille","lat":43.33545,"lon":5.37472,"is_reserved":false,"is_disabled":false,"rental_uris":{"android":"levelo://app?vid=d4c60cfc-6569-475a-a999-90023dab6245","ios":"levelo://app?vid=d4c60cfc-6569-475a-a999-90023dab6245"},"vehicle_type_id":"4","last_reported":1770592834,"current_range_meters":8800,"station_id":"","pricing_plan_id":"cebpf4jnsgd1na2vs0mg"},{"bike_id":"9cae2485-0afe-41f4-82ed-b4c440c27f3e","system_id":"levelo_inurba_marseille","lat":43.28567,"lon":5.39501,"is_reserved":false,"is_disabled":true,"rental_uris":{"android":"levelo://app?vid=9cae2485-0afe-41f4-82ed-b4c440c27f3e","ios":"levelo://app?vid=9cae2485-0afe-41f4-82ed-b4c440c27f3e"},"vehicle_type_id":"4","last_reported":1770592834,"current_range_meters":8800,"station_id":"ce4bh292rcd13ifvqdg0","pricing_plan_id":"cebpf4jnsgd1na2vs0mg"},{"bike_id":"2089e1d9-314f-4676-8364-32b5760ca1a1","system_id":"levelo_inurba_marseille","lat":43.28461,"lon":5.48409,"is_reserved":false,"is_disabled":false,"rental_uris":{"android":"levelo://app?vid=2089e1d9-314f-4676-8364-32b5760ca1a1","ios":"levelo://app?vid=2089e1d9-314f-4676-8364-32b5760ca1a1"},"vehicle_type_id":"4","last_reported":1770592834,"current_range_meters":8800,"station_id":"st_d3svhcjqgbts73a3dn0g","pricing_plan_id":"cebpf4jnsgd1na2vs0mg"},{"bike_id":"397e4117-c8c6-4338-b1b9-2f2a88f81c1e","system_id":"levelo_inurba_marseille","lat":43.25575,"lon":5.38236,"is_reserved":false,"is_disabled":false,"rental_uris":{"android":"levelo://app?vid=397e4117-c8c6-4338-b1b9-2f2a88f81c1e","ios":"levelo://app?vid=397e4117-c8c6-4338-b1b9-2f2a88f81c1e"},"vehicle_type_id":"4","last_reported":1770592834,"current_range_meters":8800,"station_id":"ce4bhih2rcd13ifvqfs0","pricing_plan_id":"cebpf4jnsgd1na2vs0mg"},{"bike_id":"ebe66944-9212-4cde-990d-8456e0e7f094","system_id":"levelo_inurba_marseille","lat":43.26071,"lon":5.39384,"is_reserved":false,"is_disabled":false,"rental_uris":{"android":"levelo://app?vid=ebe66944-9212-4cde-990d-8456e0e7f094","ios":"levelo://app?vid=ebe66944-9212-4cde-990d-8456e0e7f094"},"vehicle_type_id":"4","last_reported":1770592834,"current_range_meters":8800,"station_id":"ce4bhh92rcd13ifvqfj0","pricing_plan_id":"cebpf4jnsgd1na2vs0mg"},{"bike_id":"1a9850e1-5d2c-4438-9e2f-49d6634f0424","system_id":"levelo_inurba_marseille","lat":43.26556,"lon":5.40336,"is_reserved":false,"is_disabled":false,"rental_uris":{"android":"levelo://app?vid=1a9850e1-5d2c-4438-9e2f-49d6634f0424","ios":"levelo://app?vid=1a9850e1-5d2c-4438-9e2f-49d6634f0424"},"vehicle_type_id":"4","last_reported":1770592834,"current_range_meters":8800,"station_id":"ce4bhmp2rcd13ifvqgng","pricing_plan_id":"cebpf4jnsgd1na2vs0mg"},{"bike_id":"801ad909-18b3-4ab0-977b-525cc98af4a6","system_id":"levelo_inurba_marseille","lat":43.25859,"lon":5.39914,"is_reserved":false,"is_disabled":false,"rental_uris":{"android":"levelo://app?vid=801ad909-18b3-4ab0-977b-525cc98af4a6","ios":"levelo://app?vid=801ad909-18b3-4ab0-977b-525cc98af4a6"},"vehicle_type_id":"4","last_reported":1770592834,"current_range_meters":9200,"station_id":"ce4bhl92rcd13ifvqghg","pricing_plan_id":"cebpf4jnsgd1na2vs0mg"},{"bike_id":"cc2e70b1-9418-450c-8618-294ac8da0925","system_id":"levelo_inurba_marseille","lat":43.299485,"lon":5.385045,"is_reserved":false,"is_disabled":false,"rental_uris":{"android":"levelo://app?vid=cc2e70b1-9418-450c-8618-294ac8da0925","ios":"levelo://app?vid=cc2e70b1-9418-450c-8618-294ac8da0925"},"vehicle_type_id":"4","last_reported":1770592834,"current_range_meters":9200,"station_id":"ce4bgj92rcd13ifvqbd0","pricing_plan_id":"cebpf4jnsgd1na2vs0mg"},{"bike_id":"cf60a1e7-4444-43d6-b2c1-199a230bd3c8","system_id":"levelo_inurba_marseille","lat":43.28446,"lon":5.38465,"is_reserved":false,"is_disabled":false,"rental_uris":{"android":"levelo://app?vid=cf60a1e7-4444-43d6-b2c1-199a230bd3c8","ios":"levelo://app?vid=cf60a1e7-4444-43d6-b2c1-199a230bd3c8"},"vehicle_type_id":"4","last_reported":1770592834,"current_range_meters":9200,"station_id":"ce4bh512rcd13ifvqe3g","pricing_plan_id":"cebpf4jnsgd1na2vs0mg"},{"bike_id":"64112395-b990-4ad8-96fc-86b5ccd142a6","system_id":"levelo_inurba_marseille","lat":43.27939,"lon":5.4112,"is_reserved":false,"is_disabled":false,"rental_uris":{"android":"levelo://app?vid=64112395-b990-4ad8-96fc-86b5ccd142a6","ios":"levelo://app?vid=64112395-b990-4ad8-96fc-86b5ccd142a6"},"vehicle_type_id":"4","last_reported":1770592834,"current_range_meters":9200,"station_id":"","pricing_plan_id":"cebpf4jnsgd1na2vs0mg"},{"bike_id":"2d638d0d-0bf8-4f12-ab5a-3bdc482d5e52","system_id":"levelo_inurba_marseille","lat":43.30132,"lon":5.39862,"is_reserved":false,"is_disabled":false,"rental_uris":{"android":"levelo://app?vid=2d638d0d-0bf8-4f12-ab5a-3bdc482d5e52","ios":"levelo://app?vid=2d638d0d-0bf8-4f12-ab5a-3bdc482d5e52"},"vehicle_type_id":"4","last_reported":1770592834,"current_range_meters":9200,"station_id":"ce4bh0h2rcd13ifvqd40","pricing_plan_id":"cebpf4jnsgd1na2vs0mg"},{"bike_id":"0ad4aa39-9721-4fe9-a562-c167ca4eb377","system_id":"levelo_inurba_marseille","lat":43.28432,"lon":5.39201,"is_reserved":false,"is_disabled":false,"rental_uris":{"android":"levelo://app?vid=0ad4aa39-9721-4fe9-a562-c167ca4eb377","ios":"levelo://app?vid=0ad4aa39-9721-4fe9-a562-c167ca4eb377"},"vehicle_type_id":"4","last_reported":1770592834,"current_range_meters":9200,"station_id":"ce4bhoh2rcd13ifvqh5g","pricing_plan_id":"cebpf4jnsgd1na2vs0mg"},{"bike_id":"505c0388-808a-43fc-b871-774655d1eeb8","system_id":"levelo_inurba_marseille","lat":43.22562,"lon":5.41634,"is_reserved":false,"is_disabled":false,"rental_uris":{"android":"levelo://app?vid=505c0388-808a-43fc-b871-774655d1eeb8","ios":"levelo://app?vid=505c0388-808a-43fc-b871-774655d1eeb8"},"vehicle_type_id":"4","last_reported":1770592834,"current_range_meters":9200,"station_id":"st_d2o4gvlbi1j2169b742g","pricing_plan_id":"cebpf4jnsgd1na2vs0mg"},{"bike_id":"bca86a1c-1fc3-45f1-8c70-0ae6c3920830","system_id":"levelo_inurba_marseille","lat":43.29912,"lon":5.43655,"is_reserved":false,"is_disabled":false,"rental_uris":{"android":"levelo://app?vid=bca86a1c-1fc3-45f1-8c70-0ae6c3920830","ios":"levelo://app?vid=bca86a1c-1fc3-45f1-8c70-0ae6c3920830"},"vehicle_type_id":"4","last_reported":1770592834,"current_range_meters":9200,"station_id":"ce4bhpp2rcd13ifvqhfg","pricing_plan_id":"cebpf4jnsgd1na2vs0mg"},{"bike_id":"f1aff942-1bee-44e9-89a3-7c96054e76e7","system_id":"levelo_inurba_marseille","lat":43.28086,"lon":5.37854,"is_reserved":false,"is_disabled":true,"rental_uris":{"android":"levelo://app?vid=f1aff942-1bee-44e9-89a3-7c96054e76e7","ios":"levelo://app?vid=f1aff942-1bee-44e9-89a3-7c96054e76e7"},"vehicle_type_id":"4","last_reported":1770592834,"current_range_meters":9200,"station_id":"ce4bha12rcd13ifvqee0","pricing_plan_id":"cebpf4jnsgd1na2vs0mg"},{"bike_id":"d9881866-8d8d-40b9-953d-bed8d3c31af8","system_id":"levelo_inurba_marseille","lat":43.24954,"lon":5.40489,"is_reserved":false,"is_disabled":false,"rental_uris":{"android":"levelo://app?vid=d9881866-8d8d-40b9-953d-bed8d3c31af8","ios":"levelo://app?vid=d9881866-8d8d-40b9-953d-bed8d3c31af8"},"vehicle_type_id":"4","last_reported":1770592834,"current_range_meters":9200,"station_id":"st_d2ngiaodas8pm72gd1h0","pricing_plan_id":"cebpf4jnsgd1na2vs0mg"},{"bike_id":"87a03171-e274-42c9-8301-2123e9d6174f","system_id":"levelo_inurba_marseille","lat":43.24623,"lon":5.43153,"is_reserved":false,"is_disabled":false,"rental_uris":{"android":"levelo://app?vid=87a03171-e274-42c9-8301-2123e9d6174f","ios":"levelo://app?vid=87a03171-e274-42c9-8301-2123e9d6174f"},"vehicle_type_id":"4","last_reported":1770592834,"current_range_meters":9200,"station_id":"st_d2m6c4gdas8pm72e190g","pricing_plan_id":"cebpf4jnsgd1na2vs0mg"},{"bike_id":"029ba993-6e5b-462a-a880-cdb083ac545c","system_id":"levelo_inurba_marseille","lat":43.28947,"lon":5.39617,"is_reserved":false,"is_disabled":false,"rental_uris":{"android":"levelo://app?vid=029ba993-6e5b-462a-a880-cdb083ac545c","ios":"levelo://app?vid=029ba993-6e5b-462a-a880-cdb083ac545c"},"vehicle_type_id":"4","last_reported":1770592834,"current_range_meters":9200,"station_id":"ce4bh3h2rcd13ifvqdn0","pricing_plan_id":"cebpf4jnsgd1na2vs0mg"},{"bike_id":"e57def88-bd31-4a22-8984-178400b968d2","system_id":"levelo_inurba_marseille","lat":43.29268,"lon":5.40907,"is_reserved":false,"is_disabled":true,"rental_uris":{"android":"levelo://app?vid=e57def88-bd31-4a22-8984-178400b968d2","ios":"levelo://app?vid=e57def88-bd31-4a22-8984-178400b968d2"},"vehicle_type_id":"4","last_reported":1770592834,"current_range_meters":9200,"station_id":"ce4bh192rcd13ifvqdc0","pricing_plan_id":"cebpf4jnsgd1na2vs0mg"},{"bike_id":"0ca68caf-483c-4550-8eb5-d3a09a286462","system_id":"levelo_inurba_marseille","lat":43.3018,"lon":5.3948,"is_reserved":false,"is_disabled":false,"rental_uris":{"android":"levelo://app?vid=0ca68caf-483c-4550-8eb5-d3a09a286462","ios":"levelo://app?vid=0ca68caf-483c-4550-8eb5-d3a09a286462"},"vehicle_type_id":"4","last_reported":1770592834,"current_range_meters":9200,"station_id":"ce4bh0p2rcd13ifvqd70","pricing_plan_id":"cebpf4jnsgd1na2vs0mg"},{"bike_id":"21f8036e-d89b-4cdd-a5b0-14ca51e41d7d","system_id":"levelo_inurba_marseille","lat":43.27073,"lon":5.38312,"is_reserved":false,"is_disabled":false,"rental_uris":{"android":"levelo://app?vid=21f8036e-d89b-4cdd-a5b0-14ca51e41d7d","ios":"levelo://app?vid=21f8036e-d89b-4cdd-a5b0-14ca51e41d7d"},"vehicle_type_id":"4","last_reported":1770592834,"current_range_meters":9200,"station_id":"st_d3n2fo6cfp8s73cte1j0","pricing_plan_id":"cebpf4jnsgd1na2vs0mg"},{"bike_id":"7fb77262-90b3-4d6c-938e-9eda296ba1ff","system_id":"levelo_inurba_marseille","lat":43.2339,"lon":5.41217,"is_reserved":false,"is_disabled":false,"rental_uris":{"android":"levelo://app?vid=7fb77262-90b3-4d6c-938e-9eda296ba1ff","ios":"levelo://app?vid=7fb77262-90b3-4d6c-938e-9eda296ba1ff"},"vehicle_type_id":"4","last_reported":1770592834,"current_range_meters":9200,"station_id":"","pricing_plan_id":"cebpf4jnsgd1na2vs0mg"},{"bike_id":"c383832c-f801-4ea2-afff-0353b46aa87e","system_id":"levelo_inurba_marseille","lat":43.25006,"lon":5.38915,"is_reserved":false,"is_disabled":false,"rental_uris":{"android":"levelo://app?vid=c383832c-f801-4ea2-afff-0353b46aa87e","ios":"levelo://app?vid=c383832c-f801-4ea2-afff-0353b46aa87e"},"vehicle_type_id":"4","last_reported":1770592834,"current_range_meters":9200,"station_id":"ce4bhgp2rcd13ifvqfd0","pricing_plan_id":"cebpf4jnsgd1na2vs0mg"},{"bike_id":"c89fc745-e314-444c-b63e-8a25d581c03c","system_id":"levelo_inurba_marseille","lat":43.2699,"lon":5.39888,"is_reserved":false,"is_disabled":false,"rental_uris":{"android":"levelo://app?vid=c89fc745-e314-444c-b63e-8a25d581c03c","ios":"levelo://app?vid=c89fc745-e314-444c-b63e-8a25d581c03c"},"vehicle_type_id":"4","last_reported":1770592834,"current_range_meters":9200,"station_id":"","pricing_plan_id":"cebpf4jnsgd1na2vs0mg"},{"bike_id":"f31f04b3-629f-491f-bdbf-eae45d2ff772","system_id":"levelo_inurba_marseille","lat":43.27803,"lon":5.40723,"is_reserved":false,"is_disabled":false,"rental_uris":{"android":"levelo://app?vid=f31f04b3-629f-491f-bdbf-eae45d2ff772","ios":"levelo://app?vid=f31f04b3-629f-491f-bdbf-eae45d2ff772"},"vehicle_type_id":"4","last_reported":1770592834,"current_range_meters":9600,"station_id":"ce4bhnh2rcd13ifvqgtg","pricing_plan_id":"cebpf4jnsgd1na2vs0mg"},{"bike_id":"a234b1e8-aa48-4506-a47a-890ecb54626b","system_id":"levelo_inurba_marseille","lat":43.24396,"lon":5.37078,"is_reserved":false,"is_disabled":false,"rental_uris":{"android":"levelo://app?vid=a234b1e8-aa48-4506-a47a-890ecb54626b","ios":"levelo://app?vid=a234b1e8-aa48-4506-a47a-890ecb54626b"},"vehicle_type_id":"4","last_reported":1770592834,"current_range_meters":9600,"station_id":"ce4bhhh2rcd13ifvqfk0","pricing_plan_id":"cebpf4jnsgd1na2vs0mg"},{"bike_id":"0a5d4d8a-103a-492e-b353-0f425bae7db9","system_id":"levelo_inurba_marseille","lat":43.2884,"lon":5.35842,"is_reserved":false,"is_disabled":false,"rental_uris":{"android":"levelo://app?vid=0a5d4d8a-103a-492e-b353-0f425bae7db9","ios":"levelo://app?vid=0a5d4d8a-103a-492e-b353-0f425bae7db9"},"vehicle_type_id":"4","last_reported":1770592834,"current_range_meters":9600,"station_id":"ce4bhb12rcd13ifvqem0","pricing_plan_id":"cebpf4jnsgd1na2vs0mg"},{"bike_id":"b9464422-8ab5-422c-ba54-ee08288c8d45","system_id":"levelo_inurba_marseille","lat":43.311729,"lon":5.387159,"is_reserved":false,"is_disabled":false,"rental_uris":{"android":"levelo://app?vid=b9464422-8ab5-422c-ba54-ee08288c8d45","ios":"levelo://app?vid=b9464422-8ab5-422c-ba54-ee08288c8d45"},"vehicle_type_id":"4","last_reported":1770592834,"current_range_meters":9600,"station_id":"ce4bgv12rcd13ifvqcp0","pricing_plan_id":"cebpf4jnsgd1na2vs0mg"},{"bike_id":"d75d181c-97ed-4a21-95f7-f78c66ae671f","system_id":"levelo_inurba_marseille","lat":43.2407,"lon":5.37739,"is_reserved":false,"is_disabled":false,"rental_uris":{"android":"levelo://app?vid=d75d181c-97ed-4a21-95f7-f78c66ae671f","ios":"levelo://app?vid=d75d181c-97ed-4a21-95f7-f78c66ae671f"},"vehicle_type_id":"4","last_reported":1770592834,"current_range_meters":9600,"station_id":"ce4bhnp2rcd13ifvqgvg","pricing_plan_id":"cebpf4jnsgd1na2vs0mg"},{"bike_id":"a71868ac-a6dc-4811-8e48-04e50c8cb490","system_id":"levelo_inurba_marseille","lat":43.22563,"lon":5.4163,"is_reserved":false,"is_disabled":false,"rental_uris":{"android":"levelo://app?vid=a71868ac-a6dc-4811-8e48-04e50c8cb490","ios":"levelo://app?vid=a71868ac-a6dc-4811-8e48-04e50c8cb490"},"vehicle_type_id":"4","last_reported":1770592834,"current_range_meters":9600,"station_id":"st_d2o4gvlbi1j2169b742g","pricing_plan_id":"cebpf4jnsgd1na2vs0mg"},{"bike_id":"2f0911a3-9f69-468d-8fd3-8b4cd50fbb9b","system_id":"levelo_inurba_marseille","lat":43.25328,"lon":5.42171,"is_reserved":false,"is_disabled":false,"rental_uris":{"android":"levelo://app?vid=2f0911a3-9f69-468d-8fd3-8b4cd50fbb9b","ios":"levelo://app?vid=2f0911a3-9f69-468d-8fd3-8b4cd50fbb9b"},"vehicle_type_id":"4","last_reported":1770592834,"current_range_meters":9600,"station_id":"st_d2m65c5bi1j21697t3ng","pricing_plan_id":"cebpf4jnsgd1na2vs0mg"},{"bike_id":"118efdfa-fcd1-4aa4-b836-b300d0519548","system_id":"levelo_inurba_marseille","lat":43.29595,"lon":5.37727,"is_reserved":false,"is_disabled":true,"rental_uris":{"android":"levelo://app?vid=118efdfa-fcd1-4aa4-b836-b300d0519548","ios":"levelo://app?vid=118efdfa-fcd1-4aa4-b836-b300d0519548"},"vehicle_type_id":"4","last_reported":1770592834,"current_range_meters":9600,"station_id":"ce4bgi92rcd13ifvqb90","pricing_plan_id":"cebpf4jnsgd1na2vs0mg"},{"bike_id":"734b1314-2dd8-4f0d-bae3-329f7d396370","system_id":"levelo_inurba_marseille","lat":43.28668,"lon":5.38649,"is_reserved":false,"is_disabled":false,"rental_uris":{"android":"levelo://app?vid=734b1314-2dd8-4f0d-bae3-329f7d396370","ios":"levelo://app?vid=734b1314-2dd8-4f0d-bae3-329f7d396370"},"vehicle_type_id":"4","last_reported":1770592834,"current_range_meters":9600,"station_id":"ce4bh492rcd13ifvqdug","pricing_plan_id":"cebpf4jnsgd1na2vs0mg"},{"bike_id":"538c7e0d-dc0f-4815-a686-bd305e7c22f3","system_id":"levelo_inurba_marseille","lat":43.25348,"lon":5.42202,"is_reserved":false,"is_disabled":false,"rental_uris":{"android":"levelo://app?vid=538c7e0d-dc0f-4815-a686-bd305e7c22f3","ios":"levelo://app?vid=538c7e0d-dc0f-4815-a686-bd305e7c22f3"},"vehicle_type_id":"4","last_reported":1770592834,"current_range_meters":9600,"station_id":"st_d2m65c5bi1j21697t3ng","pricing_plan_id":"cebpf4jnsgd1na2vs0mg"},{"bike_id":"d9d882bd-1a28-48fd-b84c-a86e8f84ab0c","system_id":"levelo_inurba_marseille","lat":43.24614,"lon":5.43167,"is_reserved":false,"is_disabled":false,"rental_uris":{"android":"levelo://app?vid=d9d882bd-1a28-48fd-b84c-a86e8f84ab0c","ios":"levelo://app?vid=d9d882bd-1a28-48fd-b84c-a86e8f84ab0c"},"vehicle_type_id":"4","last_reported":1770592834,"current_range_meters":9600,"station_id":"st_d2m6c4gdas8pm72e190g","pricing_plan_id":"cebpf4jnsgd1na2vs0mg"},{"bike_id":"c5fe4207-93eb-4828-b184-1c6452346618","system_id":"levelo_inurba_marseille","lat":43.25324,"lon":5.42157,"is_reserved":false,"is_disabled":false,"rental_uris":{"android":"levelo://app?vid=c5fe4207-93eb-4828-b184-1c6452346618","ios":"levelo://app?vid=c5fe4207-93eb-4828-b184-1c6452346618"},"vehicle_type_id":"4","last_reported":1770592834,"current_range_meters":9600,"station_id":"st_d2m65c5bi1j21697t3ng","pricing_plan_id":"cebpf4jnsgd1na2vs0mg"},{"bike_id":"4c9a1947-c399-4f0d-a2a5-3c1b34eab4cb","system_id":"levelo_inurba_marseille","lat":43.2861,"lon":5.37066,"is_reserved":false,"is_disabled":false,"rental_uris":{"android":"levelo://app?vid=4c9a1947-c399-4f0d-a2a5-3c1b34eab4cb","ios":"levelo://app?vid=4c9a1947-c399-4f0d-a2a5-3c1b34eab4cb"},"vehicle_type_id":"4","last_reported":1770592834,"current_range_meters":9600,"station_id":"ce4bht12rcd13ifvqi60","pricing_plan_id":"cebpf4jnsgd1na2vs0mg"},{"bike_id":"9b9f6127-b0b2-4e5d-88d2-e7c7ad333831","system_id":"levelo_inurba_marseille","lat":43.28441,"lon":5.41019,"is_reserved":false,"is_disabled":false,"rental_uris":{"android":"levelo://app?vid=9b9f6127-b0b2-4e5d-88d2-e7c7ad333831","ios":"levelo://app?vid=9b9f6127-b0b2-4e5d-88d2-e7c7ad333831"},"vehicle_type_id":"4","last_reported":1770592834,"current_range_meters":9600,"station_id":"","pricing_plan_id":"cebpf4jnsgd1na2vs0mg"},{"bike_id":"68344a54-110b-4619-938e-db8d4af619b3","system_id":"levelo_inurba_marseille","lat":43.32497,"lon":5.3829,"is_reserved":false,"is_disabled":false,"rental_uris":{"android":"levelo://app?vid=68344a54-110b-4619-938e-db8d4af619b3","ios":"levelo://app?vid=68344a54-110b-4619-938e-db8d4af619b3"},"vehicle_type_id":"4","last_reported":1770592834,"current_range_meters":9600,"station_id":"st_d4asgbiv49dc73anf9m0","pricing_plan_id":"cebpf4jnsgd1na2vs0mg"},{"bike_id":"ee0a6677-5059-4e6b-9cc8-a58f1076531a","system_id":"levelo_inurba_marseille","lat":43.27989,"lon":5.40027,"is_reserved":false,"is_disabled":false,"rental_uris":{"android":"levelo://app?vid=ee0a6677-5059-4e6b-9cc8-a58f1076531a","ios":"levelo://app?vid=ee0a6677-5059-4e6b-9cc8-a58f1076531a"},"vehicle_type_id":"4","last_reported":1770592834,"current_range_meters":10000,"station_id":"ce4bho92rcd13ifvqh4g","pricing_plan_id":"cebpf4jnsgd1na2vs0mg"},{"bike_id":"bdb7011c-1855-4ca2-b703-fed3083b275f","system_id":"levelo_inurba_marseille","lat":43.25932,"lon":5.40912,"is_reserved":false,"is_disabled":false,"rental_uris":{"android":"levelo://app?vid=bdb7011c-1855-4ca2-b703-fed3083b275f","ios":"levelo://app?vid=bdb7011c-1855-4ca2-b703-fed3083b275f"},"vehicle_type_id":"4","last_reported":1770592834,"current_range_meters":10000,"station_id":"ce4bhm92rcd13ifvqglg","pricing_plan_id":"cebpf4jnsgd1na2vs0mg"},{"bike_id":"7f771b33-345b-4b9a-ac23-c288cc23ea98","system_id":"levelo_inurba_marseille","lat":43.24799,"lon":5.37446,"is_reserved":false,"is_disabled":false,"rental_uris":{"android":"levelo://app?vid=7f771b33-345b-4b9a-ac23-c288cc23ea98","ios":"levelo://app?vid=7f771b33-345b-4b9a-ac23-c288cc23ea98"},"vehicle_type_id":"4","last_reported":1770592834,"current_range_meters":10000,"station_id":"ce4bhgh2rcd13ifvqfb0","pricing_plan_id":"cebpf4jnsgd1na2vs0mg"},{"bike_id":"2dadb8d4-e2d3-44c8-9b85-15536fc18601","system_id":"levelo_inurba_marseille","lat":43.26236,"lon":5.40458,"is_reserved":false,"is_disabled":true,"rental_uris":{"android":"levelo://app?vid=2dadb8d4-e2d3-44c8-9b85-15536fc18601","ios":"levelo://app?vid=2dadb8d4-e2d3-44c8-9b85-15536fc18601"},"vehicle_type_id":"4","last_reported":1770592834,"current_range_meters":10000,"station_id":"ce4bhmh2rcd13ifvqgmg","pricing_plan_id":"cebpf4jnsgd1na2vs0mg"},{"bike_id":"ee720f7a-4a58-4267-bbe7-8c569fb0b7a3","system_id":"levelo_inurba_marseille","lat":43.24681,"lon":5.38146,"is_reserved":false,"is_disabled":false,"rental_uris":{"android":"levelo://app?vid=ee720f7a-4a58-4267-bbe7-8c569fb0b7a3","ios":"levelo://app?vid=ee720f7a-4a58-4267-bbe7-8c569fb0b7a3"},"vehicle_type_id":"4","last_reported":1770592834,"current_range_meters":10000,"station_id":"ce4bhih2rcd13ifvqfr0","pricing_plan_id":"cebpf4jnsgd1na2vs0mg"},{"bike_id":"39871b1f-3657-4d13-b576-77b55dd18f6b","system_id":"levelo_inurba_marseille","lat":43.30319,"lon":5.36924,"is_reserved":false,"is_disabled":true,"rental_uris":{"android":"levelo://app?vid=39871b1f-3657-4d13-b576-77b55dd18f6b","ios":"levelo://app?vid=39871b1f-3657-4d13-b576-77b55dd18f6b"},"vehicle_type_id":"4","last_reported":1770592834,"current_range_meters":10000,"station_id":"ce4bgqh2rcd13ifvqc5g","pricing_plan_id":"cebpf4jnsgd1na2vs0mg"},{"bike_id":"fc3694e5-e803-4991-9e2c-a6cb041eccdd","system_id":"levelo_inurba_marseille","lat":43.29293,"lon":5.40148,"is_reserved":false,"is_disabled":false,"rental_uris":{"android":"levelo://app?vid=fc3694e5-e803-4991-9e2c-a6cb041eccdd","ios":"levelo://app?vid=fc3694e5-e803-4991-9e2c-a6cb041eccdd"},"vehicle_type_id":"4","last_reported":1770592834,"current_range_meters":10000,"station_id":"ce4bh312rcd13ifvqdk0","pricing_plan_id":"cebpf4jnsgd1na2vs0mg"},{"bike_id":"e8fc607c-781d-4737-9795-21676c8ca4f7","system_id":"levelo_inurba_marseille","lat":43.33174,"lon":5.37702,"is_reserved":false,"is_disabled":false,"rental_uris":{"android":"levelo://app?vid=e8fc607c-781d-4737-9795-21676c8ca4f7","ios":"levelo://app?vid=e8fc607c-781d-4737-9795-21676c8ca4f7"},"vehicle_type_id":"4","last_reported":1770592834,"current_range_meters":10000,"station_id":"st_d46cu089ee8s73dldbu0","pricing_plan_id":"cebpf4jnsgd1na2vs0mg"},{"bike_id":"1c03502f-9baa-431d-9b01-3d3630fef06d","system_id":"levelo_inurba_marseille","lat":43.30299,"lon":5.36907,"is_reserved":false,"is_disabled":false,"rental_uris":{"android":"levelo://app?vid=1c03502f-9baa-431d-9b01-3d3630fef06d","ios":"levelo://app?vid=1c03502f-9baa-431d-9b01-3d3630fef06d"},"vehicle_type_id":"4","last_reported":1770592834,"current_range_meters":10000,"station_id":"ce4bgqh2rcd13ifvqc5g","pricing_plan_id":"cebpf4jnsgd1na2vs0mg"},{"bike_id":"c4bb5843-fcf2-4576-8596-9632335ee395","system_id":"levelo_inurba_marseille","lat":43.28492,"lon":5.38419,"is_reserved":false,"is_disabled":false,"rental_uris":{"android":"levelo://app?vid=c4bb5843-fcf2-4576-8596-9632335ee395","ios":"levelo://app?vid=c4bb5843-fcf2-4576-8596-9632335ee395"},"vehicle_type_id":"4","last_reported":1770592834,"current_range_meters":10000,"station_id":"ce4bh512rcd13ifvqe3g","pricing_plan_id":"cebpf4jnsgd1na2vs0mg"},{"bike_id":"0d9b6434-00b3-40ca-afe7-bf9c7e7ea73d","system_id":"levelo_inurba_marseille","lat":43.2447,"lon":5.4254,"is_reserved":false,"is_disabled":false,"rental_uris":{"android":"levelo://app?vid=0d9b6434-00b3-40ca-afe7-bf9c7e7ea73d","ios":"levelo://app?vid=0d9b6434-00b3-40ca-afe7-bf9c7e7ea73d"},"vehicle_type_id":"4","last_reported":1770592834,"current_range_meters":10000,"station_id":"st_d4a3vfp97mjs738cd8kg","pricing_plan_id":"cebpf4jnsgd1na2vs0mg"},{"bike_id":"cb1a37bb-f72b-4d0f-8322-c67bce751582","system_id":"levelo_inurba_marseille","lat":43.32116,"lon":5.36755,"is_reserved":false,"is_disabled":false,"rental_uris":{"android":"levelo://app?vid=cb1a37bb-f72b-4d0f-8322-c67bce751582","ios":"levelo://app?vid=cb1a37bb-f72b-4d0f-8322-c67bce751582"},"vehicle_type_id":"4","last_reported":1770592834,"current_range_meters":10000,"station_id":"ce4bhrh2rcd13ifvqhug","pricing_plan_id":"cebpf4jnsgd1na2vs0mg"},{"bike_id":"59ee5f7d-ad97-4c4d-bf47-920683c932a5","system_id":"levelo_inurba_marseille","lat":43.259403,"lon":5.409115,"is_reserved":false,"is_disabled":false,"rental_uris":{"android":"levelo://app?vid=59ee5f7d-ad97-4c4d-bf47-920683c932a5","ios":"levelo://app?vid=59ee5f7d-ad97-4c4d-bf47-920683c932a5"},"vehicle_type_id":"4","last_reported":1770592834,"current_range_meters":10000,"station_id":"ce4bhm92rcd13ifvqglg","pricing_plan_id":"cebpf4jnsgd1na2vs0mg"},{"bike_id":"52299037-2a91-4297-b010-d62c6df7ed2c","system_id":"levelo_inurba_marseille","lat":43.26197,"lon":5.40453,"is_reserved":false,"is_disabled":false,"rental_uris":{"android":"levelo://app?vid=52299037-2a91-4297-b010-d62c6df7ed2c","ios":"levelo://app?vid=52299037-2a91-4297-b010-d62c6df7ed2c"},"vehicle_type_id":"4","last_reported":1770592834,"current_range_meters":10000,"station_id":"ce4bhmh2rcd13ifvqgmg","pricing_plan_id":"cebpf4jnsgd1na2vs0mg"},{"bike_id":"a33cc23b-014e-40da-a16c-5044c0b99664","system_id":"levelo_inurba_marseille","lat":43.28151,"lon":5.42636,"is_reserved":false,"is_disabled":false,"rental_uris":{"android":"levelo://app?vid=a33cc23b-014e-40da-a16c-5044c0b99664","ios":"levelo://app?vid=a33cc23b-014e-40da-a16c-5044c0b99664"},"vehicle_type_id":"4","last_reported":1770592834,"current_range_meters":10000,"station_id":"ce4bhnh2rcd13ifvqgug","pricing_plan_id":"cebpf4jnsgd1na2vs0mg"},{"bike_id":"58382d36-7cb5-4d9a-81cf-d54827ddd44f","system_id":"levelo_inurba_marseille","lat":43.25579,"lon":5.3823,"is_reserved":false,"is_disabled":false,"rental_uris":{"android":"levelo://app?vid=58382d36-7cb5-4d9a-81cf-d54827ddd44f","ios":"levelo://app?vid=58382d36-7cb5-4d9a-81cf-d54827ddd44f"},"vehicle_type_id":"4","last_reported":1770592834,"current_range_meters":10000,"station_id":"ce4bhih2rcd13ifvqfs0","pricing_plan_id":"cebpf4jnsgd1na2vs0mg"},{"bike_id":"d653ed3a-f8af-441f-ad2d-cdc633785da3","system_id":"levelo_inurba_marseille","lat":43.25578,"lon":5.38228,"is_reserved":false,"is_disabled":false,"rental_uris":{"android":"levelo://app?vid=d653ed3a-f8af-441f-ad2d-cdc633785da3","ios":"levelo://app?vid=d653ed3a-f8af-441f-ad2d-cdc633785da3"},"vehicle_type_id":"4","last_reported":1770592834,"current_range_meters":10000,"station_id":"ce4bhih2rcd13ifvqfs0","pricing_plan_id":"cebpf4jnsgd1na2vs0mg"},{"bike_id":"0a9d1a2d-2992-4473-980a-18b97962fa5b","system_id":"levelo_inurba_marseille","lat":43.28599,"lon":5.39884,"is_reserved":false,"is_disabled":false,"rental_uris":{"android":"levelo://app?vid=0a9d1a2d-2992-4473-980a-18b97962fa5b","ios":"levelo://app?vid=0a9d1a2d-2992-4473-980a-18b97962fa5b"},"vehicle_type_id":"4","last_reported":1770592834,"current_range_meters":10000,"station_id":"st_d4a7ka997mjs738ck50g","pricing_plan_id":"cebpf4jnsgd1na2vs0mg"},{"bike_id":"8a18d61b-7f0b-45c9-9f14-74e2d4d73759","system_id":"levelo_inurba_marseille","lat":43.298063,"lon":5.381151,"is_reserved":false,"is_disabled":false,"rental_uris":{"android":"levelo://app?vid=8a18d61b-7f0b-45c9-9f14-74e2d4d73759","ios":"levelo://app?vid=8a18d61b-7f0b-45c9-9f14-74e2d4d73759"},"vehicle_type_id":"4","last_reported":1770592834,"current_range_meters":10000,"station_id":"ce4bgip2rcd13ifvqbb0","pricing_plan_id":"cebpf4jnsgd1na2vs0mg"},{"bike_id":"28ef975c-b7f8-42cd-9f30-4c091e511cf0","system_id":"levelo_inurba_marseille","lat":43.28457,"lon":5.3589,"is_reserved":false,"is_disabled":false,"rental_uris":{"android":"levelo://app?vid=28ef975c-b7f8-42cd-9f30-4c091e511cf0","ios":"levelo://app?vid=28ef975c-b7f8-42cd-9f30-4c091e511cf0"},"vehicle_type_id":"4","last_reported":1770592834,"current_range_meters":10000,"station_id":"ce4bhah2rcd13ifvqei0","pricing_plan_id":"cebpf4jnsgd1na2vs0mg"},{"bike_id":"2670674c-f818-4de0-8996-ccd0d21a64a7","system_id":"levelo_inurba_marseille","lat":43.30832,"lon":5.37393,"is_reserved":false,"is_disabled":false,"rental_uris":{"android":"levelo://app?vid=2670674c-f818-4de0-8996-ccd0d21a64a7","ios":"levelo://app?vid=2670674c-f818-4de0-8996-ccd0d21a64a7"},"vehicle_type_id":"4","last_reported":1770592834,"current_range_meters":10000,"station_id":"","pricing_plan_id":"cebpf4jnsgd1na2vs0mg"},{"bike_id":"94b0330b-018e-419b-aee1-434310fca707","system_id":"levelo_inurba_marseille","lat":43.29903,"lon":5.43685,"is_reserved":false,"is_disabled":false,"rental_uris":{"android":"levelo://app?vid=94b0330b-018e-419b-aee1-434310fca707","ios":"levelo://app?vid=94b0330b-018e-419b-aee1-434310fca707"},"vehicle_type_id":"4","last_reported":1770592834,"current_range_meters":10000,"station_id":"ce4bhpp2rcd13ifvqhfg","pricing_plan_id":"cebpf4jnsgd1na2vs0mg"},{"bike_id":"5b572cb8-b75a-4cf5-9aa0-92e0a5c8d598","system_id":"levelo_inurba_marseille","lat":43.29922,"lon":5.43666,"is_reserved":false,"is_disabled":false,"rental_uris":{"android":"levelo://app?vid=5b572cb8-b75a-4cf5-9aa0-92e0a5c8d598","ios":"levelo://app?vid=5b572cb8-b75a-4cf5-9aa0-92e0a5c8d598"},"vehicle_type_id":"4","last_reported":1770592834,"current_range_meters":10000,"station_id":"","pricing_plan_id":"cebpf4jnsgd1na2vs0mg"},{"bike_id":"9122abc4-5cbb-4ad9-8770-8000e00647ef","system_id":"levelo_inurba_marseille","lat":43.25561,"lon":5.38264,"is_reserved":false,"is_disabled":false,"rental_uris":{"android":"levelo://app?vid=9122abc4-5cbb-4ad9-8770-8000e00647ef","ios":"levelo://app?vid=9122abc4-5cbb-4ad9-8770-8000e00647ef"},"vehicle_type_id":"4","last_reported":1770592834,"current_range_meters":10800,"station_id":"ce4bhih2rcd13ifvqfs0","pricing_plan_id":"cebpf4jnsgd1na2vs0mg"},{"bike_id":"2096e8df-596d-4407-9a52-54d23701e5d2","system_id":"levelo_inurba_marseille","lat":43.22566,"lon":5.41636,"is_reserved":false,"is_disabled":false,"rental_uris":{"android":"levelo://app?vid=2096e8df-596d-4407-9a52-54d23701e5d2","ios":"levelo://app?vid=2096e8df-596d-4407-9a52-54d23701e5d2"},"vehicle_type_id":"4","last_reported":1770592834,"current_range_meters":10800,"station_id":"st_d2o4gvlbi1j2169b742g","pricing_plan_id":"cebpf4jnsgd1na2vs0mg"},{"bike_id":"6a0ec98e-c5c3-4b20-b087-a56827653381","system_id":"levelo_inurba_marseille","lat":43.2962,"lon":5.37712,"is_reserved":false,"is_disabled":false,"rental_uris":{"android":"levelo://app?vid=6a0ec98e-c5c3-4b20-b087-a56827653381","ios":"levelo://app?vid=6a0ec98e-c5c3-4b20-b087-a56827653381"},"vehicle_type_id":"4","last_reported":1770592834,"current_range_meters":10800,"station_id":"ce4bgi92rcd13ifvqb90","pricing_plan_id":"cebpf4jnsgd1na2vs0mg"},{"bike_id":"d5addb83-4219-438b-b60b-764fcc4ac895","system_id":"levelo_inurba_marseille","lat":43.29588,"lon":5.36738,"is_reserved":false,"is_disabled":false,"rental_uris":{"android":"levelo://app?vid=d5addb83-4219-438b-b60b-764fcc4ac895","ios":"levelo://app?vid=d5addb83-4219-438b-b60b-764fcc4ac895"},"vehicle_type_id":"4","last_reported":1770592834,"current_range_meters":10800,"station_id":"ce4bgph2rcd13ifvqc2g","pricing_plan_id":"cebpf4jnsgd1na2vs0mg"},{"bike_id":"c502c37d-235d-43c0-9a17-5eede4eadde3","system_id":"levelo_inurba_marseille","lat":43.24385,"lon":5.37062,"is_reserved":false,"is_disabled":false,"rental_uris":{"android":"levelo://app?vid=c502c37d-235d-43c0-9a17-5eede4eadde3","ios":"levelo://app?vid=c502c37d-235d-43c0-9a17-5eede4eadde3"},"vehicle_type_id":"4","last_reported":1770592834,"current_range_meters":10800,"station_id":"ce4bhhh2rcd13ifvqfk0","pricing_plan_id":"cebpf4jnsgd1na2vs0mg"},{"bike_id":"d7258967-f209-43e3-821d-4faa391a0e12","system_id":"levelo_inurba_marseille","lat":43.22559,"lon":5.41628,"is_reserved":false,"is_disabled":false,"rental_uris":{"android":"levelo://app?vid=d7258967-f209-43e3-821d-4faa391a0e12","ios":"levelo://app?vid=d7258967-f209-43e3-821d-4faa391a0e12"},"vehicle_type_id":"4","last_reported":1770592834,"current_range_meters":10800,"station_id":"st_d2o4gvlbi1j2169b742g","pricing_plan_id":"cebpf4jnsgd1na2vs0mg"},{"bike_id":"a3f3d23b-b749-43c5-b8d7-98db54eb9ca1","system_id":"levelo_inurba_marseille","lat":43.31116,"lon":5.37772,"is_reserved":false,"is_disabled":false,"rental_uris":{"android":"levelo://app?vid=a3f3d23b-b749-43c5-b8d7-98db54eb9ca1","ios":"levelo://app?vid=a3f3d23b-b749-43c5-b8d7-98db54eb9ca1"},"vehicle_type_id":"4","last_reported":1770592834,"current_range_meters":10800,"station_id":"ce4bgt92rcd13ifvqcg0","pricing_plan_id":"cebpf4jnsgd1na2vs0mg"},{"bike_id":"6b6f481e-9e38-4a39-b4ba-c4b74caa5e0d","system_id":"levelo_inurba_marseille","lat":43.29592,"lon":5.37513,"is_reserved":false,"is_disabled":false,"rental_uris":{"android":"levelo://app?vid=6b6f481e-9e38-4a39-b4ba-c4b74caa5e0d","ios":"levelo://app?vid=6b6f481e-9e38-4a39-b4ba-c4b74caa5e0d"},"vehicle_type_id":"4","last_reported":1770592834,"current_range_meters":10800,"station_id":"ce4bgh92rcd13ifvqb50","pricing_plan_id":"cebpf4jnsgd1na2vs0mg"},{"bike_id":"8af83060-d5f5-4126-864d-225cf17c5f66","system_id":"levelo_inurba_marseille","lat":43.30558,"lon":5.36534,"is_reserved":false,"is_disabled":false,"rental_uris":{"android":"levelo://app?vid=8af83060-d5f5-4126-864d-225cf17c5f66","ios":"levelo://app?vid=8af83060-d5f5-4126-864d-225cf17c5f66"},"vehicle_type_id":"4","last_reported":1770592834,"current_range_meters":10800,"station_id":"ce4bgs12rcd13ifvqcag","pricing_plan_id":"cebpf4jnsgd1na2vs0mg"},{"bike_id":"83d1047a-ee1e-4e47-bf91-830b3821b837","system_id":"levelo_inurba_marseille","lat":43.320555,"lon":5.431461,"is_reserved":false,"is_disabled":false,"rental_uris":{"android":"levelo://app?vid=83d1047a-ee1e-4e47-bf91-830b3821b837","ios":"levelo://app?vid=83d1047a-ee1e-4e47-bf91-830b3821b837"},"vehicle_type_id":"4","last_reported":1770592834,"current_range_meters":10800,"station_id":"","pricing_plan_id":"cebpf4jnsgd1na2vs0mg"},{"bike_id":"11ec20d9-49ba-4e2a-9313-2a8f19f8adbf","system_id":"levelo_inurba_marseille","lat":43.24653,"lon":5.3816,"is_reserved":false,"is_disabled":false,"rental_uris":{"android":"levelo://app?vid=11ec20d9-49ba-4e2a-9313-2a8f19f8adbf","ios":"levelo://app?vid=11ec20d9-49ba-4e2a-9313-2a8f19f8adbf"},"vehicle_type_id":"4","last_reported":1770592834,"current_range_meters":10800,"station_id":"ce4bhih2rcd13ifvqfr0","pricing_plan_id":"cebpf4jnsgd1na2vs0mg"},{"bike_id":"41166160-6d84-4b59-b9a6-a65e6c8174c4","system_id":"levelo_inurba_marseille","lat":43.284771,"lon":5.483994,"is_reserved":false,"is_disabled":false,"rental_uris":{"android":"levelo://app?vid=41166160-6d84-4b59-b9a6-a65e6c8174c4","ios":"levelo://app?vid=41166160-6d84-4b59-b9a6-a65e6c8174c4"},"vehicle_type_id":"4","last_reported":1770592834,"current_range_meters":10800,"station_id":"st_d3svhcjqgbts73a3dn0g","pricing_plan_id":"cebpf4jnsgd1na2vs0mg"},{"bike_id":"85924ffa-0eaf-4dcf-82fc-60f45d35d5cd","system_id":"levelo_inurba_marseille","lat":43.28198,"lon":5.40962,"is_reserved":false,"is_disabled":false,"rental_uris":{"android":"levelo://app?vid=85924ffa-0eaf-4dcf-82fc-60f45d35d5cd","ios":"levelo://app?vid=85924ffa-0eaf-4dcf-82fc-60f45d35d5cd"},"vehicle_type_id":"4","last_reported":1770592834,"current_range_meters":10800,"station_id":"","pricing_plan_id":"cebpf4jnsgd1na2vs0mg"},{"bike_id":"ba6b089d-9a00-4d48-83fe-09b47e84bc29","system_id":"levelo_inurba_marseille","lat":43.28488,"lon":5.48427,"is_reserved":false,"is_disabled":false,"rental_uris":{"android":"levelo://app?vid=ba6b089d-9a00-4d48-83fe-09b47e84bc29","ios":"levelo://app?vid=ba6b089d-9a00-4d48-83fe-09b47e84bc29"},"vehicle_type_id":"4","last_reported":1770592834,"current_range_meters":11200,"station_id":"st_d3svhcjqgbts73a3dn0g","pricing_plan_id":"cebpf4jnsgd1na2vs0mg"},{"bike_id":"63334bdf-5730-41aa-8ba6-777933f4f522","system_id":"levelo_inurba_marseille","lat":43.241703,"lon":5.363984,"is_reserved":false,"is_disabled":false,"rental_uris":{"android":"levelo://app?vid=63334bdf-5730-41aa-8ba6-777933f4f522","ios":"levelo://app?vid=63334bdf-5730-41aa-8ba6-777933f4f522"},"vehicle_type_id":"4","last_reported":1770592834,"current_range_meters":11200,"station_id":"cpo36qri1sfpv3e86is0","pricing_plan_id":"cebpf4jnsgd1na2vs0mg"},{"bike_id":"5a3b12cc-54ea-4021-9f92-7314e7e6c3ae","system_id":"levelo_inurba_marseille","lat":43.32077,"lon":5.41551,"is_reserved":false,"is_disabled":false,"rental_uris":{"android":"levelo://app?vid=5a3b12cc-54ea-4021-9f92-7314e7e6c3ae","ios":"levelo://app?vid=5a3b12cc-54ea-4021-9f92-7314e7e6c3ae"},"vehicle_type_id":"4","last_reported":1770592834,"current_range_meters":11200,"station_id":"ce4bhq92rcd13ifvqhkg","pricing_plan_id":"cebpf4jnsgd1na2vs0mg"},{"bike_id":"d16a7a13-7da2-49a5-a319-af5a11696340","system_id":"levelo_inurba_marseille","lat":43.26461,"lon":5.40413,"is_reserved":false,"is_disabled":false,"rental_uris":{"android":"levelo://app?vid=d16a7a13-7da2-49a5-a319-af5a11696340","ios":"levelo://app?vid=d16a7a13-7da2-49a5-a319-af5a11696340"},"vehicle_type_id":"4","last_reported":1770592834,"current_range_meters":11200,"station_id":"ce4bhmp2rcd13ifvqgng","pricing_plan_id":"cebpf4jnsgd1na2vs0mg"},