{"last_updated":1729091348,"ttl":60,"version":"2.2","data":{"bikes":[{"bike_id":"62bf1a5e-4781-451a-897d-4ecd9373c644","system_id":"levelo_inurba_marseille","lat":43.25014,"lon":5.38921,"is_reserved":false,"is_disabled":false,"rental_uris":{"android":"levelo://app?vid=62bf1a5e-4781-451a-897d-4ecd9373c644","ios":"levelo://app?vid=62bf1a5e-4781-451a-897d-4ecd9373c644"},"vehicle_type_id":"4","last_reported":1729091348,"current_range_meters":18800,"station_id":"ce4bhgp2rcd13ifvqfd0","pricing_plan_id":"cebpf4jnsgd1na2vs0mg"},{"bike_id":"a128e7c8-387c-4f83-b736-33005fa12c10","system_id":"levelo_inurba_marseille","lat":43.30806,"lon":5.40114,"is_reserved":false,"is_disabled":false,"rental_uris":{"android":"levelo://app?vid=a128e7c8-387c-4f83-b736-33005fa12c10","ios":"levelo://app?vid=a128e7c8-387c-4f83-b736-33005fa12c10"},"vehicle_type_id":"4","last_reported":1729091348,"current_range_meters":9200,"station_id":"ce4bh192rcd13ifvqdb0","pricing_plan_id":"cebpf4jnsgd1na2vs0mg"},{"bike_id":"b4066a84-11e2-4186-8d3a-57c27e87db57","system_id":"levelo_inurba_marseille","lat":43.27813,"lon":5.40719,"is_reserved":false,"is_disabled":false,"rental_uris":{"android":"levelo://app?vid=b4066a84-11e2-4186-8d3a-57c27e87db57","ios":"levelo://app?vid=b4066a84-11e2-4186-8d3a-57c27e87db57"},"vehicle_type_id":"4","last_reported":1729091348,"current_range_meters":28000,"station_id":"ce4bhnh2rcd13ifvqgtg","pricing_plan_id":"cebpf4jnsgd1na2vs0mg"},{"bike_id":"676ec6c4-6b42-43e0-81fe-327782965da5","system_id":"levelo_inurba_marseille","lat":43.337444,"lon":5.374475,"is_reserved":false,"is_disabled":false,"rental_uris":{"android":"levelo://app?vid=676ec6c4-6b42-43e0-81fe-327782965da5","ios":"levelo://app?vid=676ec6c4-6b42-43e0-81fe-327782965da5"},"vehicle_type_id":"4","last_reported":1729091348,"current_range_meters":20400,"station_id":"","pricing_plan_id":"cebpf4jnsgd1na2vs0mg"},{"bike_id":"5fa0bee8-5cbe-49ec-b070-04714fdfafde","system_id":"levelo_inurba_marseille","lat":43.26934,"lon":5.38917,"is_reserved":false,"is_disabled":false,"rental_uris":{"android":"levelo://app?vid=5fa0bee8-5cbe-49ec-b070-04714fdfafde","ios":"levelo://app?vid=5fa0bee8-5cbe-49ec-b070-04714fdfafde"},"vehicle_type_id":"4","last_reported":1729091348,"current_range_meters":33600,"station_id":"ce4bhhh2rcd13ifvqfl0","pricing_plan_id":"cebpf4jnsgd1na2vs0mg"},{"bike_id":"979638f0-5c67-408f-bbfd-0de28da1b117","system_id":"levelo_inurba_marseille","lat":43.29729,"lon":5.37687,"is_reserved":false,"is_disabled":false,"rental_uris":{"android":"levelo://app?vid=979638f0-5c67-408f-bbfd-0de28da1b117","ios":"levelo://app?vid=979638f0-5c67-408f-bbfd-0de28da1b117"},"vehicle_type_id":"4","last_reported":1729091348,"current_range_meters":38000,"station_id":"ce4bgkh2rcd13ifvqbl0","pricing_plan_id":"cebpf4jnsgd1na2vs0mg"},{"bike_id":"a6c9b109-0fb7-4a21-8f17-7bd55cbcba08","system_id":"levelo_inurba_marseille","lat":43.27917,"lon":5.39591,"is_reserved":false,"is_disabled":false,"rental_uris":{"android":"levelo://app?vid=a6c9b109-0fb7-4a21-8f17-7bd55cbcba08","ios":"levelo://app?vid=a6c9b109-0fb7-4a21-8f17-7bd55cbcba08"},"vehicle_type_id":"4","last_reported":1729091348,"current_range_meters":3600,"station_id":"ce4bhf92rcd13ifvqf40","pricing_plan_id":"cebpf4jnsgd1na2vs0mg"},{"bike_id":"168b18be-c278-4bfa-9e7e-a66dcdd1ebfc","system_id":"levelo_inurba_marseille","lat":43.290385,"lon":5.399626,"is_reserved":false,"is_disabled":false,"rental_uris":{"android":"levelo://app?vid=168b18be-c278-4bfa-9e7e-a66dcdd1ebfc","ios":"levelo://app?vid=168b18be-c278-4bfa-9e7e-a66dcdd1ebfc"},"vehicle_type_id":"4","last_reported":1729091348,"current_range_meters":21600,"station_id":"ce4bh392rcd13ifvqdm0","pricing_plan_id":"cebpf4jnsgd1na2vs0mg"},{"bike_id":"f753014a-e02a-4cf3-9817-33330c7ddf67","system_id":"levelo_inurba_marseille","lat":43.27813,"lon":5.40707,"is_reserved":false,"is_disabled":false,"rental_uris":{"android":"levelo://app?vid=f753014a-e02a-4cf3-9817-33330c7ddf67","ios":"levelo://app?vid=f753014a-e02a-4cf3-9817-33330c7ddf67"},"vehicle_type_id":"4","last_reported":1729091348,"current_range_meters":38000,"station_id":"ce4bhnh2rcd13ifvqgtg","pricing_plan_id":"cebpf4jnsgd1na2vs0mg"},{"bike_id":"fd7324bc-994b-40cb-b823-ca8aef416d13","system_id":"levelo_inurba_marseille","lat":43.27117,"lon":5.40268,"is_reserved":false,"is_disabled":false,"rental_uris":{"android":"levelo://app?vid=fd7324bc-994b-40cb-b823-ca8aef416d13","ios":"levelo://app?vid=fd7324bc-994b-40cb-b823-ca8aef416d13"},"vehicle_type_id":"4","last_reported":1729091348,"current_range_meters":12400,"station_id":"ce4bhnh2rcd13ifvqgtg","pricing_plan_id":"cebpf4jnsgd1na2vs0mg"},{"bike_id":"042e5b40-9e97-45f4-843e-ff54af18e3a3","system_id":"levelo_inurba_marseille","lat":43.337444,"lon":5.374475,"is_reserved":false,"is_disabled":false,"rental_uris":{"android":"levelo://app?vid=042e5b40-9e97-45f4-843e-ff54af18e3a3","ios":"levelo://app?vid=042e5b40-9e97-45f4-843e-ff54af18e3a3"},"vehicle_type_id":"4","last_reported":1729091348,"current_range_meters":35600,"station_id":"","pricing_plan_id":"cebpf4jnsgd1na2vs0mg"},{"bike_id":"e40ecf43-661b-4835-a1f9-79d981dcc8d2","system_id":"levelo_inurba_marseille","lat":43.23198,"lon":5.39986,"is_reserved":false,"is_disabled":false,"rental_uris":{"android":"levelo://app?vid=e40ecf43-661b-4835-a1f9-79d981dcc8d2","ios":"levelo://app?vid=e40ecf43-661b-4835-a1f9-79d981dcc8d2"},"vehicle_type_id":"4","last_reported":1729091348,"current_range_meters":6800,"station_id":"ce4bhn12rcd13ifvqgqg","pricing_plan_id":"cebpf4jnsgd1na2vs0mg"},{"bike_id":"31524d1e-e21c-4bf2-8ba1-fdac1439ab0e","system_id":"levelo_inurba_marseille","lat":43.32292,"lon":5.3827,"is_reserved":false,"is_disabled":false,"rental_uris":{"android":"levelo://app?vid=31524d1e-e21c-4bf2-8ba1-fdac1439ab0e","ios":"levelo://app?vid=31524d1e-e21c-4bf2-8ba1-fdac1439ab0e"},"vehicle_type_id":"4","last_reported":1729091348,"current_range_meters":38800,"station_id":"ce4bhr12rcd13ifvqhqg","pricing_plan_id":"cebpf4jnsgd1na2vs0mg"},{"bike_id":"8bc37b02-26f7-4159-9abd-810480094a3d","system_id":"levelo_inurba_marseille","lat":43.33027,"lon":5.39044,"is_reserved":false,"is_disabled":false,"rental_uris":{"android":"levelo://app?vid=8bc37b02-26f7-4159-9abd-810480094a3d","ios":"levelo://app?vid=8bc37b02-26f7-4159-9abd-810480094a3d"},"vehicle_type_id":"4","last_reported":1729091348,"current_range_meters":35200,"station_id":"ce4bhr92rcd13ifvqhrg","pricing_plan_id":"cebpf4jnsgd1na2vs0mg"},{"bike_id":"cc00c11f-4f03-4f3c-9348-41c2032015c8","system_id":"levelo_inurba_marseille","lat":43.29851,"lon":5.36289,"is_reserved":false,"is_disabled":false,"rental_uris":{"android":"levelo://app?vid=cc00c11f-4f03-4f3c-9348-41c2032015c8","ios":"levelo://app?vid=cc00c11f-4f03-4f3c-9348-41c2032015c8"},"vehicle_type_id":"4","last_reported":1729091348,"current_range_meters":38000,"station_id":"ce4bgpp2rcd13ifvqc3g","pricing_plan_id":"cebpf4jnsgd1na2vs0mg"},{"bike_id":"1c729c27-eac4-4e15-a4c1-807f0c9771bd","system_id":"levelo_inurba_marseille","lat":43.30728,"lon":5.38684,"is_reserved":false,"is_disabled":false,"rental_uris":{"android":"levelo://app?vid=1c729c27-eac4-4e15-a4c1-807f0c9771bd","ios":"levelo://app?vid=1c729c27-eac4-4e15-a4c1-807f0c9771bd"},"vehicle_type_id":"4","last_reported":1729091348,"current_range_meters":20400,"station_id":"","pricing_plan_id":"cebpf4jnsgd1na2vs0mg"},{"bike_id":"c8fdfee4-d3ac-4742-a5aa-435dec59b7fb","system_id":"levelo_inurba_marseille","lat":43.24524,"lon":5.42839,"is_reserved":false,"is_disabled":false,"rental_uris":{"android":"levelo://app?vid=c8fdfee4-d3ac-4742-a5aa-435dec59b7fb","ios":"levelo://app?vid=c8fdfee4-d3ac-4742-a5aa-435dec59b7fb"},"vehicle_type_id":"4","last_reported":1729091348,"current_range_meters":39200,"station_id":"","pricing_plan_id":"cebpf4jnsgd1na2vs0mg"},{"bike_id":"7841fea7-8392-4da0-ad8a-554a8cf7bb26","system_id":"levelo_inurba_marseille","lat":43.30543,"lon":5.36552,"is_reserved":false,"is_disabled":false,"rental_uris":{"android":"levelo://app?vid=7841fea7-8392-4da0-ad8a-554a8cf7bb26","ios":"levelo://app?vid=7841fea7-8392-4da0-ad8a-554a8cf7bb26"},"vehicle_type_id":"4","last_reported":1729091348,"current_range_meters":9600,"station_id":"ce4bgs12rcd13ifvqcag","pricing_plan_id":"cebpf4jnsgd1na2vs0mg"},{"bike_id":"e7e3c31c-1de7-4b0c-8c5c-ececc4e1c158","system_id":"levelo_inurba_marseille","lat":43.32371,"lon":5.3888,"is_reserved":false,"is_disabled":false,"rental_uris":{"android":"levelo://app?vid=e7e3c31c-1de7-4b0c-8c5c-ececc4e1c158","ios":"levelo://app?vid=e7e3c31c-1de7-4b0c-8c5c-ececc4e1c158"},"vehicle_type_id":"4","last_reported":1729091348,"current_range_meters":32400,"station_id":"ce4bhqp2rcd13ifvqhog","pricing_plan_id":"cebpf4jnsgd1na2vs0mg"},{"bike_id":"4d926ecb-8a42-4d6f-acaf-84fd6b2f66e4","system_id":"levelo_inurba_marseille","lat":43.30091,"lon":5.39069,"is_reserved":false,"is_disabled":false,"rental_uris":{"android":"levelo://app?vid=4d926ecb-8a42-4d6f-acaf-84fd6b2f66e4","ios":"levelo://app?vid=4d926ecb-8a42-4d6f-acaf-84fd6b2f66e4"},"vehicle_type_id":"4","last_reported":1729091348,"current_range_meters":33200,"station_id":"ce4bh192rcd13ifvqdb0","pricing_plan_id":"cebpf4jnsgd1na2vs0mg"},{"bike_id":"89f8225b-c5f3-4f4c-9fb4-00ba771c6c7d","system_id":"levelo_inurba_marseille","lat":43.28274,"lon":5.35074,"is_reserved":false,"is_disabled":false,"rental_uris":{"android":"levelo://app?vid=89f8225b-c5f3-4f4c-9fb4-00ba771c6c7d","ios":"levelo://app?vid=89f8225b-c5f3-4f4c-9fb4-00ba771c6c7d"},"vehicle_type_id":"4","last_reported":1729091348,"current_range_meters":38800,"station_id":"ce4bhbp2rcd13ifvqerg","pricing_plan_id":"cebpf4jnsgd1na2vs0mg"},{"bike_id":"c6eadb06-02e0-4dfe-a83e-14e4a9ed658b","system_id":"levelo_inurba_marseille","lat":43.28008,"lon":5.40021,"is_reserved":false,"is_disabled":false,"rental_uris":{"android":"levelo://app?vid=c6eadb06-02e0-4dfe-a83e-14e4a9ed658b","ios":"levelo://app?vid=c6eadb06-02e0-4dfe-a83e-14e4a9ed658b"},"vehicle_type_id":"4","last_reported":1729091348,"current_range_meters":3200,"station_id":"ce4bho92rcd13ifvqh4g","pricing_plan_id":"cebpf4jnsgd1na2vs0mg"},{"bike_id":"776cbaed-1d11-4391-a2e0-c1cdff4afa0e","system_id":"levelo_inurba_marseille","lat":43.29902,"lon":5.43671,"is_reserved":false,"is_disabled":false,"rental_uris":{"android":"levelo://app?vid=776cbaed-1d11-4391-a2e0-c1cdff4afa0e","ios":"levelo://app?vid=776cbaed-1d11-4391-a2e0-c1cdff4afa0e"},"vehicle_type_id":"4","last_reported":1729091348,"current_range_meters":2000,"station_id":"ce4bhpp2rcd13ifvqhfg","pricing_plan_id":"cebpf4jnsgd1na2vs0mg"},{"bike_id":"099a192e-0f58-4b33-b31d-082de3ceed6a","system_id":"levelo_inurba_marseille","lat":43.31885,"lon":5.40736,"is_reserved":false,"is_disabled":false,"rental_uris":{"android":"levelo://app?vid=099a192e-0f58-4b33-b31d-082de3ceed6a","ios":"levelo://app?vid=099a192e-0f58-4b33-b31d-082de3ceed6a"},"vehicle_type_id":"4","last_reported":1729091348,"current_range_meters":7200,"station_id":"ce4bhq12rcd13ifvqhig","pricing_plan_id":"cebpf4jnsgd1na2vs0mg"},{"bike_id":"35499b06-246c-44df-b2d5-8750c9b2e03b","system_id":"levelo_inurba_marseille","lat":43.31491,"lon":5.37309,"is_reserved":false,"is_disabled":false,"rental_uris":{"android":"levelo://app?vid=35499b06-246c-44df-b2d5-8750c9b2e03b","ios":"levelo://app?vid=35499b06-246c-44df-b2d5-8750c9b2e03b"},"vehicle_type_id":"4","last_reported":1729091348,"current_range_meters":2800,"station_id":"ce4bgt12rcd13ifvqcd0","pricing_plan_id":"cebpf4jnsgd1na2vs0mg"},{"bike_id":"479e8cd1-1c58-4504-b1e0-95a377430426","system_id":"levelo_inurba_marseille","lat":43.25992,"lon":5.40815,"is_reserved":false,"is_disabled":false,"rental_uris":{"android":"levelo://app?vid=479e8cd1-1c58-4504-b1e0-95a377430426","ios":"levelo://app?vid=479e8cd1-1c58-4504-b1e0-95a377430426"},"vehicle_type_id":"4","last_reported":1729091348,"current_range_meters":36400,"station_id":"ce4bhm92rcd13ifvqglg","pricing_plan_id":"cebpf4jnsgd1na2vs0mg"},{"bike_id":"de9d6d32-3b7c-477e-9cdd-f9226ae7bd72","system_id":"levelo_inurba_marseille","lat":43.30311,"lon":5.36906,"is_reserved":false,"is_disabled":false,"rental_uris":{"android":"levelo://app?vid=de9d6d32-3b7c-477e-9cdd-f9226ae7bd72","ios":"levelo://app?vid=de9d6d32-3b7c-477e-9cdd-f9226ae7bd72"},"vehicle_type_id":"4","last_reported":1729091348,"current_range_meters":36400,"station_id":"ce4bgqh2rcd13ifvqc5g","pricing_plan_id":"cebpf4jnsgd1na2vs0mg"},{"bike_id":"48200233-4e27-45f4-a462-767a617ca4c8","system_id":"levelo_inurba_marseille","lat":43.29367,"lon":5.37851,"is_reserved":false,"is_disabled":false,"rental_uris":{"android":"levelo://app?vid=48200233-4e27-45f4-a462-767a617ca4c8","ios":"levelo://app?vid=48200233-4e27-45f4-a462-767a617ca4c8"},"vehicle_type_id":"4","last_reported":1729091348,"current_range_meters":30800,"station_id":"ce4bgjh2rcd13ifvqbg0","pricing_plan_id":"cebpf4jnsgd1na2vs0mg"},{"bike_id":"72b45628-b38b-4079-a480-5d71829c0d9c","system_id":"levelo_inurba_marseille","lat":43.32368,"lon":5.38884,"is_reserved":false,"is_disabled":false,"rental_uris":{"android":"levelo://app?vid=72b45628-b38b-4079-a480-5d71829c0d9c","ios":"levelo://app?vid=72b45628-b38b-4079-a480-5d71829c0d9c"},"vehicle_type_id":"4","last_reported":1729091348,"current_range_meters":7200,"station_id":"ce4bhqp2rcd13ifvqhog","pricing_plan_id":"cebpf4jnsgd1na2vs0mg"},{"bike_id":"b2fdf094-42f9-4f49-b569-9ecd62aad6fd","system_id":"levelo_inurba_marseille","lat":43.2893,"lon":5.39618,"is_reserved":false,"is_disabled":false,"rental_uris":{"android":"levelo://app?vid=b2fdf094-42f9-4f49-b569-9ecd62aad6fd","ios":"levelo://app?vid=b2fdf094-42f9-4f49-b569-9ecd62aad6fd"},"vehicle_type_id":"4","last_reported":1729091348,"current_range_meters":35200,"station_id":"ce4bh3h2rcd13ifvqdn0","pricing_plan_id":"cebpf4jnsgd1na2vs0mg"},{"bike_id":"55890980-992c-439d-88ce-8b6016f7d107","system_id":"levelo_inurba_marseille","lat":43.25113,"lon":5.40323,"is_reserved":false,"is_disabled":false,"rental_uris":{"android":"levelo://app?vid=55890980-992c-439d-88ce-8b6016f7d107","ios":"levelo://app?vid=55890980-992c-439d-88ce-8b6016f7d107"},"vehicle_type_id":"4","last_reported":1729091348,"current_range_meters":36400,"station_id":"ce4bhlh2rcd13ifvqgig","pricing_plan_id":"cebpf4jnsgd1na2vs0mg"},{"bike_id":"586475b9-c298-4551-88e4-a95ac3352090","system_id":"levelo_inurba_marseille","lat":43.29729,"lon":5.37683,"is_reserved":false,"is_disabled":false,"rental_uris":{"android":"levelo://app?vid=586475b9-c298-4551-88e4-a95ac3352090","ios":"levelo://app?vid=586475b9-c298-4551-88e4-a95ac3352090"},"vehicle_type_id":"4","last_reported":1729091348,"current_range_meters":28000,"station_id":"ce4bgkh2rcd13ifvqbl0","pricing_plan_id":"cebpf4jnsgd1na2vs0mg"},{"bike_id":"c3d5f7af-2f94-4b26-91e1-198e7f0ebc2b","system_id":"levelo_inurba_marseille","lat":43.25855,"lon":5.39908,"is_reserved":false,"is_disabled":false,"rental_uris":{"android":"levelo://app?vid=c3d5f7af-2f94-4b26-91e1-198e7f0ebc2b","ios":"levelo://app?vid=c3d5f7af-2f94-4b26-91e1-198e7f0ebc2b"},"vehicle_type_id":"4","last_reported":1729091348,"current_range_meters":27600,"station_id":"ce4bhl92rcd13ifvqghg","pricing_plan_id":"cebpf4jnsgd1na2vs0mg"},{"bike_id":"41e749e4-a549-4989-b6d2-74a02c96c5c7","system_id":"levelo_inurba_marseille","lat":43.30274,"lon":5.37724,"is_reserved":false,"is_disabled":false,"rental_uris":{"android":"levelo://app?vid=41e749e4-a549-4989-b6d2-74a02c96c5c7","ios":"levelo://app?vid=41e749e4-a549-4989-b6d2-74a02c96c5c7"},"vehicle_type_id":"4","last_reported":1729091348,"current_range_meters":36000,"station_id":"ce4bguh2rcd13ifvqcj0","pricing_plan_id":"cebpf4jnsgd1na2vs0mg"},{"bike_id":"e1be12ae-9a9d-4b9c-8b9b-7a5876688ded","system_id":"levelo_inurba_marseille","lat":43.30613,"lon":5.37218,"is_reserved":false,"is_disabled":false,"rental_uris":{"android":"levelo://app?vid=e1be12ae-9a9d-4b9c-8b9b-7a5876688ded","ios":"levelo://app?vid=e1be12ae-9a9d-4b9c-8b9b-7a5876688ded"},"vehicle_type_id":"4","last_reported":1729091348,"current_range_meters":8400,"station_id":"ce4bgqh2rcd13ifvqc4g","pricing_plan_id":"cebpf4jnsgd1na2vs0mg"},{"bike_id":"1e397f33-1502-4c93-9679-5df10386778d","system_id":"levelo_inurba_marseille","lat":43.28935,"lon":5.36645,"is_reserved":false,"is_disabled":false,"rental_uris":{"android":"levelo://app?vid=1e397f33-1502-4c93-9679-5df10386778d","ios":"levelo://app?vid=1e397f33-1502-4c93-9679-5df10386778d"},"vehicle_type_id":"4","last_reported":1729091348,"current_range_meters":4400,"station_id":"ce4bhap2rcd13ifvqek0","pricing_plan_id":"cebpf4jnsgd1na2vs0mg"},{"bike_id":"510e3023-d190-4812-8c4b-a068f7a1ffc5","system_id":"levelo_inurba_marseille","lat":43.27567,"lon":5.38422,"is_reserved":false,"is_disabled":false,"rental_uris":{"android":"levelo://app?vid=510e3023-d190-4812-8c4b-a068f7a1ffc5","ios":"levelo://app?vid=510e3023-d190-4812-8c4b-a068f7a1ffc5"},"vehicle_type_id":"4","last_reported":1729091348,"current_range_meters":17200,"station_id":"ce4bhh92rcd13ifvqfi0","pricing_plan_id":"cebpf4jnsgd1na2vs0mg"},{"bike_id":"dbb39f6e-74c1-4a97-a68f-73f782d27e33","system_id":"levelo_inurba_marseille","lat":43.29711,"lon":5.37701,"is_reserved":false,"is_disabled":false,"rental_uris":{"android":"levelo://app?vid=dbb39f6e-74c1-4a97-a68f-73f782d27e33","ios":"levelo://app?vid=dbb39f6e-74c1-4a97-a68f-73f782d27e33"},"vehicle_type_id":"4","last_reported":1729091348,"current_range_meters":24400,"station_id":"ce4bgkh2rcd13ifvqbl0","pricing_plan_id":"cebpf4jnsgd1na2vs0mg"},{"bike_id":"fa7bbdc9-afbe-404d-8676-647037cc76a9","system_id":"levelo_inurba_marseille","lat":43.23202,"lon":5.35552,"is_reserved":false,"is_disabled":false,"rental_uris":{"android":"levelo://app?vid=fa7bbdc9-afbe-404d-8676-647037cc76a9","ios":"levelo://app?vid=fa7bbdc9-afbe-404d-8676-647037cc76a9"},"vehicle_type_id":"4","last_reported":1729091348,"current_range_meters":37600,"station_id":"ce4bhu92rcd13ifvqi70","pricing_plan_id":"cebpf4jnsgd1na2vs0mg"},{"bike_id":"097a0683-31fa-4037-89d0-4a4e7b2556a3","system_id":"levelo_inurba_marseille","lat":43.29616,"lon":5.37718,"is_reserved":false,"is_disabled":false,"rental_uris":{"android":"levelo://app?vid=097a0683-31fa-4037-89d0-4a4e7b2556a3","ios":"levelo://app?vid=097a0683-31fa-4037-89d0-4a4e7b2556a3"},"vehicle_type_id":"4","last_reported":1729091348,"current_range_meters":39200,"station_id":"ce4bgi92rcd13ifvqb90","pricing_plan_id":"cebpf4jnsgd1na2vs0mg"},{"bike_id":"931ad2f4-35ea-42b5-bc1a-1fdec477398a","system_id":"levelo_inurba_marseille","lat":43.337444,"lon":5.374475,"is_reserved":false,"is_disabled":false,"rental_uris":{"android":"levelo://app?vid=931ad2f4-35ea-42b5-bc1a-1fdec477398a","ios":"levelo://app?vid=931ad2f4-35ea-42b5-bc1a-1fdec477398a"},"vehicle_type_id":"4","last_reported":1729091348,"current_range_meters":38000,"station_id":"","pricing_plan_id":"cebpf4jnsgd1na2vs0mg"},{"bike_id":"ead989bf-bd8c-4aee-85d8-527278ae0cfb","system_id":"levelo_inurba_marseille","lat":43.29728,"lon":5.37691,"is_reserved":false,"is_disabled":false,"rental_uris":{"android":"levelo://app?vid=ead989bf-bd8c-4aee-85d8-527278ae0cfb","ios":"levelo://app?vid=ead989bf-bd8c-4aee-85d8-527278ae0cfb"},"vehicle_type_id":"4","last_reported":1729091348,"current_range_meters":38800,"station_id":"ce4bgkh2rcd13ifvqbl0","pricing_plan_id":"cebpf4jnsgd1na2vs0mg"},{"bike_id":"5d0ae026-9bf6-4309-b469-647ccbeb9fb1","system_id":"levelo_inurba_marseille","lat":43.29046,"lon":5.35922,"is_reserved":false,"is_disabled":false,"rental_uris":{"android":"levelo://app?vid=5d0ae026-9bf6-4309-b469-647ccbeb9fb1","ios":"levelo://app?vid=5d0ae026-9bf6-4309-b469-647ccbeb9fb1"},"vehicle_type_id":"4","last_reported":1729091348,"current_range_meters":26800,"station_id":"ce4bha92rcd13ifvqeg0","pricing_plan_id":"cebpf4jnsgd1na2vs0mg"},{"bike_id":"7f73d721-727c-4706-9a3c-291d763824dd","system_id":"levelo_inurba_marseille","lat":43.29233,"lon":5.3606,"is_reserved":false,"is_disabled":false,"rental_uris":{"android":"levelo://app?vid=7f73d721-727c-4706-9a3c-291d763824dd","ios":"levelo://app?vid=7f73d721-727c-4706-9a3c-291d763824dd"},"vehicle_type_id":"4","last_reported":1729091348,"current_range_meters":2800,"station_id":"ce4bhbh2rcd13ifvqeqg","pricing_plan_id":"cebpf4jnsgd1na2vs0mg"},{"bike_id":"8001948e-9634-418b-a801-000037361ff8","system_id":"levelo_inurba_marseille","lat":43.29965,"lon":5.41322,"is_reserved":false,"is_disabled":false,"rental_uris":{"android":"levelo://app?vid=8001948e-9634-418b-a801-000037361ff8","ios":"levelo://app?vid=8001948e-9634-418b-a801-000037361ff8"},"vehicle_type_id":"4","last_reported":1729091348,"current_range_meters":39200,"station_id":"ce4bhp12rcd13ifvqh9g","pricing_plan_id":"cebpf4jnsgd1na2vs0mg"},{"bike_id":"81e32d4e-df25-4349-90c7-1831752870c9","system_id":"levelo_inurba_marseille","lat":43.2794,"lon":5.4104,"is_reserved":false,"is_disabled":false,"rental_uris":{"android":"levelo://app?vid=81e32d4e-df25-4349-90c7-1831752870c9","ios":"levelo://app?vid=81e32d4e-df25-4349-90c7-1831752870c9"},"vehicle_type_id":"4","last_reported":1729091348,"current_range_meters":34800,"station_id":"ce4bhnp2rcd13ifvqh0g","pricing_plan_id":"cebpf4jnsgd1na2vs0mg"},{"bike_id":"56f39f8f-693c-48d6-9145-3f53050b6142","system_id":"levelo_inurba_marseille","lat":43.28714,"lon":5.37947,"is_reserved":false,"is_disabled":false,"rental_uris":{"android":"levelo://app?vid=56f39f8f-693c-48d6-9145-3f53050b6142","ios":"levelo://app?vid=56f39f8f-693c-48d6-9145-3f53050b6142"},"vehicle_type_id":"4","last_reported":1729091348,"current_range_meters":24000,"station_id":"ce4bh9p2rcd13ifvqec0","pricing_plan_id":"cebpf4jnsgd1na2vs0mg"},{"bike_id":"3478e617-795a-4626-9df0-83f74f9eea06","system_id":"levelo_inurba_marseille","lat":43.26062,"lon":5.39395,"is_reserved":false,"is_disabled":false,"rental_uris":{"android":"levelo://app?vid=3478e617-795a-4626-9df0-83f74f9eea06","ios":"levelo://app?vid=3478e617-795a-4626-9df0-83f74f9eea06"},"vehicle_type_id":"4","last_reported":1729091348,"current_range_meters":12400,"station_id":"ce4bhh92rcd13ifvqfj0","pricing_plan_id":"cebpf4jnsgd1na2vs0mg"},{"bike_id":"01308c0c-4960-4164-be56-8f191e3c88c9","system_id":"levelo_inurba_marseille","lat":43.280885,"lon":5.396663,"is_reserved":false,"is_disabled":false,"rental_uris":{"android":"levelo://app?vid=01308c0c-4960-4164-be56-8f191e3c88c9","ios":"levelo://app?vid=01308c0c-4960-4164-be56-8f191e3c88c9"},"vehicle_type_id":"4","last_reported":1729091348,"current_range_meters":11200,"station_id":"ce4bho12rcd13ifvqh2g","pricing_plan_id":"cebpf4jnsgd1na2vs0mg"},{"bike_id":"22e97e60-ef6f-46ef-94a1-311efe288064","system_id":"levelo_inurba_marseille","lat":43.292,"lon":5.35812,"is_reserved":false,"is_disabled":false,"rental_uris":{"android":"levelo://app?vid=22e97e60-ef6f-46ef-94a1-311efe288064","ios":"levelo://app?vid=22e97e60-ef6f-46ef-94a1-311efe288064"},"vehicle_type_id":"4","last_reported":1729091348,"current_range_meters":21600,"station_id":"ce4bhb12rcd13ifvqel0","pricing_plan_id":"cebpf4jnsgd1na2vs0mg"},{"bike_id":"f23c50ce-346e-44ef-834a-981ed8b1d4c3","system_id":"levelo_inurba_marseille","lat":43.29263,"lon":5.37121,"is_reserved":false,"is_disabled":false,"rental_uris":{"android":"levelo://app?vid=f23c50ce-346e-44ef-834a-981ed8b1d4c3","ios":"levelo://app?vid=f23c50ce-346e-44ef-834a-981ed8b1d4c3"},"vehicle_type_id":"4","last_reported":1729091348,"current_range_meters":14000,"station_id":"ce4bgqh2rcd13ifvqc4g","pricing_plan_id":"cebpf4jnsgd1na2vs0mg"},{"bike_id":"7574a901-0eed-4a28-a35d-9f7834b3975e","system_id":"levelo_inurba_marseille","lat":43.26931,"lon":5.38917,"is_reserved":false,"is_disabled":false,"rental_uris":{"android":"levelo://app?vid=7574a901-0eed-4a28-a35d-9f7834b3975e","ios":"levelo://app?vid=7574a901-0eed-4a28-a35d-9f7834b3975e"},"vehicle_type_id":"4","last_reported":1729091348,"current_range_meters":32000,"station_id":"ce4bhhh2rcd13ifvqfl0","pricing_plan_id":"cebpf4jnsgd1na2vs0mg"},{"bike_id":"32fcc60e-367e-419f-b4f5-bfb154fa51d1","system_id":"levelo_inurba_marseille","lat":43.26793,"lon":5.39417,"is_reserved":false,"is_disabled":false,"rental_uris":{"android":"levelo://app?vid=32fcc60e-367e-419f-b4f5-bfb154fa51d1","ios":"levelo://app?vid=32fcc60e-367e-419f-b4f5-bfb154fa51d1"},"vehicle_type_id":"4","last_reported":1729091348,"current_range_meters":24400,"station_id":"ce4bhh12rcd13ifvqfg0","pricing_plan_id":"cebpf4jnsgd1na2vs0mg"},{"bike_id":"03b52a53-4015-42f1-a46b-0d68e4ef1cf1","system_id":"levelo_inurba_marseille","lat":43.30539,"lon":5.36699,"is_reserved":false,"is_disabled":false,"rental_uris":{"android":"levelo://app?vid=03b52a53-4015-42f1-a46b-0d68e4ef1cf1","ios":"levelo://app?vid=03b52a53-4015-42f1-a46b-0d68e4ef1cf1"},"vehicle_type_id":"4","last_reported":1729091348,"current_range_meters":39200,"station_id":"ce4bgrp2rcd13ifvqc9g","pricing_plan_id":"cebpf4jnsgd1na2vs0mg"},{"bike_id":"230796ff-db1b-4afd-92a4-4f4a19b339f7","system_id":"levelo_inurba_marseille","lat":43.27989,"lon":5.40016,"is_reserved":false,"is_disabled":false,"rental_uris":{"android":"levelo://app?vid=230796ff-db1b-4afd-92a4-4f4a19b339f7","ios":"levelo://app?vid=230796ff-db1b-4afd-92a4-4f4a19b339f7"},"vehicle_type_id":"4","last_reported":1729091348,"current_range_meters":8800,"station_id":"ce4bho92rcd13ifvqh4g","pricing_plan_id":"cebpf4jnsgd1na2vs0mg"},{"bike_id":"85d70bc7-a693-4e9a-8b91-709d878d62cc","system_id":"levelo_inurba_marseille","lat":43.27812,"lon":5.40713,"is_reserved":false,"is_disabled":false,"rental_uris":{"android":"levelo://app?vid=85d70bc7-a693-4e9a-8b91-709d878d62cc","ios":"levelo://app?vid=85d70bc7-a693-4e9a-8b91-709d878d62cc"},"vehicle_type_id":"4","last_reported":1729091348,"current_range_meters":25600,"station_id":"ce4bhnh2rcd13ifvqgtg","pricing_plan_id":"cebpf4jnsgd1na2vs0mg"},{"bike_id":"db0f7f46-40de-41ed-89c2-de13ac3f8d1f","system_id":"levelo_inurba_marseille","lat":43.29578,"lon":5.36733,"is_reserved":false,"is_disabled":false,"rental_uris":{"android":"levelo://app?vid=db0f7f46-40de-41ed-89c2-de13ac3f8d1f","ios":"levelo://app?vid=db0f7f46-40de-41ed-89c2-de13ac3f8d1f"},"vehicle_type_id":"4","last_reported":1729091348,"current_range_meters":30000,"station_id":"ce4bgph2rcd13ifvqc2g","pricing_plan_id":"cebpf4jnsgd1na2vs0mg"},{"bike_id":"c8229813-5ea4-40de-a97b-4b0c94c3a861","system_id":"levelo_inurba_marseille","lat":43.29847,"lon":5.36278,"is_reserved":false,"is_disabled":false,"rental_uris":{"android":"levelo://app?vid=c8229813-5ea4-40de-a97b-4b0c94c3a861","ios":"levelo://app?vid=c8229813-5ea4-40de-a97b-4b0c94c3a861"},"vehicle_type_id":"4","last_reported":1729091348,"current_range_meters":22000,"station_id":"ce4bgpp2rcd13ifvqc3g","pricing_plan_id":"cebpf4jnsgd1na2vs0mg"},{"bike_id":"1592d70d-c862-411a-b934-fa8979566cb9","system_id":"levelo_inurba_marseille","lat":43.2926,"lon":5.4091,"is_reserved":false,"is_disabled":false,"rental_uris":{"android":"levelo://app?vid=1592d70d-c862-411a-b934-fa8979566cb9","ios":"levelo://app?vid=1592d70d-c862-411a-b934-fa8979566cb9"},"vehicle_type_id":"4","last_reported":1729091348,"current_range_meters":24800,"station_id":"ce4bh192rcd13ifvqdc0","pricing_plan_id":"cebpf4jnsgd1na2vs0mg"},{"bike_id":"fd61a416-4cba-47ef-b954-1fe3259d984b","system_id":"levelo_inurba_marseille","lat":43.27781,"lon":5.39928,"is_reserved":false,"is_disabled":false,"rental_uris":{"android":"levelo://app?vid=fd61a416-4cba-47ef-b954-1fe3259d984b","ios":"levelo://app?vid=fd61a416-4cba-47ef-b954-1fe3259d984b"},"vehicle_type_id":"4","last_reported":1729091348,"current_range_meters":27200,"station_id":"ce4bhh12rcd13ifvqfg0","pricing_plan_id":"cebpf4jnsgd1na2vs0mg"},{"bike_id":"36242960-33bb-4907-b484-1466c1d56af9","system_id":"levelo_inurba_marseille","lat":43.2465,"lon":5.38888,"is_reserved":false,"is_disabled":false,"rental_uris":{"android":"levelo://app?vid=36242960-33bb-4907-b484-1466c1d56af9","ios":"levelo://app?vid=36242960-33bb-4907-b484-1466c1d56af9"},"vehicle_type_id":"4","last_reported":1729091348,"current_range_meters":9200,"station_id":"ce4bhg12rcd13ifvqf60","pricing_plan_id":"cebpf4jnsgd1na2vs0mg"},{"bike_id":"0994d7f0-fa2e-480f-b967-2b1e1b476b78","system_id":"levelo_inurba_marseille","lat":43.23198,"lon":5.35554,"is_reserved":false,"is_disabled":false,"rental_uris":{"android":"levelo://app?vid=0994d7f0-fa2e-480f-b967-2b1e1b476b78","ios":"levelo://app?vid=0994d7f0-fa2e-480f-b967-2b1e1b476b78"},"vehicle_type_id":"4","last_reported":1729091348,"current_range_meters":20000,"station_id":"ce4bhu92rcd13ifvqi70","pricing_plan_id":"cebpf4jnsgd1na2vs0mg"},{"bike_id":"f6af6a6e-0c43-43ba-9e4a-2a70b3681fbb","system_id":"levelo_inurba_marseille","lat":43.31425,"lon":5.39363,"is_reserved":false,"is_disabled":false,"rental_uris":{"android":"levelo://app?vid=f6af6a6e-0c43-43ba-9e4a-2a70b3681fbb","ios":"levelo://app?vid=f6af6a6e-0c43-43ba-9e4a-2a70b3681fbb"},"vehicle_type_id":"4","last_reported":1729091348,"current_range_meters":22800,"station_id":"","pricing_plan_id":"cebpf4jnsgd1na2vs0mg"},{"bike_id":"66ccc46d-618e-4760-b09c-27382152bdab","system_id":"levelo_inurba_marseille","lat":43.23208,"lon":5.35549,"is_reserved":false,"is_disabled":false,"rental_uris":{"android":"levelo://app?vid=66ccc46d-618e-4760-b09c-27382152bdab","ios":"levelo://app?vid=66ccc46d-618e-4760-b09c-27382152bdab"},"vehicle_type_id":"4","last_reported":1729091348,"current_range_meters":38000,"station_id":"ce4bhu92rcd13ifvqi70","pricing_plan_id":"cebpf4jnsgd1na2vs0mg"},{"bike_id":"d3260c39-347d-44b4-9352-04fc0f926331","system_id":"levelo_inurba_marseille","lat":43.29924,"lon":5.36546,"is_reserved":false,"is_disabled":false,"rental_uris":{"android":"levelo://app?vid=d3260c39-347d-44b4-9352-04fc0f926331","ios":"levelo://app?vid=d3260c39-347d-44b4-9352-04fc0f926331"},"vehicle_type_id":"4","last_reported":1729091348,"current_range_meters":24000,"station_id":"ce4bgm92rcd13ifvqbr0","pricing_plan_id":"cebpf4jnsgd1na2vs0mg"},{"bike_id":"8a331acc-70d9-496a-b0bc-87f49792f9b4","system_id":"levelo_inurba_marseille","lat":43.24168,"lon":5.36391,"is_reserved":false,"is_disabled":false,"rental_uris":{"android":"levelo://app?vid=8a331acc-70d9-496a-b0bc-87f49792f9b4","ios":"levelo://app?vid=8a331acc-70d9-496a-b0bc-87f49792f9b4"},"vehicle_type_id":"4","last_reported":1729091348,"current_range_meters":22800,"station_id":"cpo36qri1sfpv3e86is0","pricing_plan_id":"cebpf4jnsgd1na2vs0mg"},{"bike_id":"8747400d-d1eb-4dcd-a4e4-09d9a9dea7fb","system_id":"levelo_inurba_marseille","lat":43.30632,"lon":5.40093,"is_reserved":false,"is_disabled":false,"rental_uris":{"android":"levelo://app?vid=8747400d-d1eb-4dcd-a4e4-09d9a9dea7fb","ios":"levelo://app?vid=8747400d-d1eb-4dcd-a4e4-09d9a9dea7fb"},"vehicle_type_id":"4","last_reported":1729091348,"current_range_meters":26000,"station_id":"ce4bh112rcd13ifvqda0","pricing_plan_id":"cebpf4jnsgd1na2vs0mg"},{"bike_id":"1b587dbe-0e93-4d09-98e2-c3c185d13ca5","system_id":"levelo_inurba_marseille","lat":43.29007,"lon":5.35613,"is_reserved":false,"is_disabled":false,"rental_uris":{"android":"levelo://app?vid=1b587dbe-0e93-4d09-98e2-c3c185d13ca5","ios":"levelo://app?vid=1b587dbe-0e93-4d09-98e2-c3c185d13ca5"},"vehicle_type_id":"4","last_reported":1729091348,"current_range_meters":30400,"station_id":"ce4bhb92rcd13ifvqen0","pricing_plan_id":"cebpf4jnsgd1na2vs0mg"},{"bike_id":"e97b160e-b884-4951-9e32-8388517117aa","system_id":"levelo_inurba_marseille","lat":43.288666,"lon":5.358516,"is_reserved":false,"is_disabled":false,"rental_uris":{"android":"levelo://app?vid=e97b160e-b884-4951-9e32-8388517117aa","ios":"levelo://app?vid=e97b160e-b884-4951-9e32-8388517117aa"},"vehicle_type_id":"4","last_reported":1729091348,"current_range_meters":4800,"station_id":"ce4bhb12rcd13ifvqem0","pricing_plan_id":"cebpf4jnsgd1na2vs0mg"},{"bike_id":"ce0672c0-b389-46ca-9ed1-56c6721e359b","system_id":"levelo_inurba_marseille","lat":43.32297,"lon":5.3826,"is_reserved":false,"is_disabled":false,"rental_uris":{"android":"levelo://app?vid=ce0672c0-b389-46ca-9ed1-56c6721e359b","ios":"levelo://app?vid=ce0672c0-b389-46ca-9ed1-56c6721e359b"},"vehicle_type_id":"4","last_reported":1729091348,"current_range_meters":9200,"station_id":"ce4bhr12rcd13ifvqhqg","pricing_plan_id":"cebpf4jnsgd1na2vs0mg"},{"bike_id":"27c6928e-42d9-49cf-8536-ca9746470f4f","system_id":"levelo_inurba_marseille","lat":43.29269,"lon":5.40912,"is_reserved":false,"is_disabled":false,"rental_uris":{"android":"levelo://app?vid=27c6928e-42d9-49cf-8536-ca9746470f4f","ios":"levelo://app?vid=27c6928e-42d9-49cf-8536-ca9746470f4f"},"vehicle_type_id":"4","last_reported":1729091348,"current_range_meters":9600,"station_id":"ce4bh192rcd13ifvqdc0","pricing_plan_id":"cebpf4jnsgd1na2vs0mg"},{"bike_id":"41081a59-d0a8-442c-ba3c-29859d4ccec6","system_id":"levelo_inurba_marseille","lat":43.26561,"lon":5.37292,"is_reserved":false,"is_disabled":false,"rental_uris":{"android":"levelo://app?vid=41081a59-d0a8-442c-ba3c-29859d4ccec6","ios":"levelo://app?vid=41081a59-d0a8-442c-ba3c-29859d4ccec6"},"vehicle_type_id":"4","last_reported":1729091348,"current_range_meters":19600,"station_id":"ce4bhg12rcd13ifvqf70","pricing_plan_id":"cebpf4jnsgd1na2vs0mg"},{"bike_id":"f5c0cf8c-b0fd-4e27-a93c-2ff03d68eff7","system_id":"levelo_inurba_marseille","lat":43.31272,"lon":5.40174,"is_reserved":false,"is_disabled":false,"rental_uris":{"android":"levelo://app?vid=f5c0cf8c-b0fd-4e27-a93c-2ff03d68eff7","ios":"levelo://app?vid=f5c0cf8c-b0fd-4e27-a93c-2ff03d68eff7"},"vehicle_type_id":"4","last_reported":1729091348,"current_range_meters":37600,"station_id":"ce4bh092rcd13ifvqd30","pricing_plan_id":"cebpf4jnsgd1na2vs0mg"},{"bike_id":"6300df2c-b9fe-4275-916d-dd75e59140c9","system_id":"levelo_inurba_marseille","lat":43.23197,"lon":5.35548,"is_reserved":false,"is_disabled":false,"rental_uris":{"android":"levelo://app?vid=6300df2c-b9fe-4275-916d-dd75e59140c9","ios":"levelo://app?vid=6300df2c-b9fe-4275-916d-dd75e59140c9"},"vehicle_type_id":"4","last_reported":1729091348,"current_range_meters":37600,"station_id":"ce4bhu92rcd13ifvqi70","pricing_plan_id":"cebpf4jnsgd1na2vs0mg"},{"bike_id":"9e5b27c9-3509-48d2-8a05-9010e3bd11e1","system_id":"levelo_inurba_marseille","lat":43.33023,"lon":5.39044,"is_reserved":false,"is_disabled":false,"rental_uris":{"android":"levelo://app?vid=9e5b27c9-3509-48d2-8a05-9010e3bd11e1","ios":"levelo://app?vid=9e5b27c9-3509-48d2-8a05-9010e3bd11e1"},"vehicle_type_id":"4","last_reported":1729091348,"current_range_meters":38800,"station_id":"ce4bhr92rcd13ifvqhrg","pricing_plan_id":"cebpf4jnsgd1na2vs0mg"},{"bike_id":"6d56330f-5e73-42d5-b4b2-2b0523e4e635","system_id":"levelo_inurba_marseille","lat":43.27942,"lon":5.4104,"is_reserved":false,"is_disabled":false,"rental_uris":{"android":"levelo://app?vid=6d56330f-5e73-42d5-b4b2-2b0523e4e635","ios":"levelo://app?vid=6d56330f-5e73-42d5-b4b2-2b0523e4e635"},"vehicle_type_id":"4","last_reported":1729091348,"current_range_meters":22800,"station_id":"ce4bhnp2rcd13ifvqh0g","pricing_plan_id":"cebpf4jnsgd1na2vs0mg"},{"bike_id":"faf9b073-eeb9-49f2-9e73-3f8a7f4f2502","system_id":"levelo_inurba_marseille","lat":43.26506,"lon":5.39539,"is_reserved":false,"is_disabled":false,"rental_uris":{"android":"levelo://app?vid=faf9b073-eeb9-49f2-9e73-3f8a7f4f2502","ios":"levelo://app?vid=faf9b073-eeb9-49f2-9e73-3f8a7f4f2502"},"vehicle_type_id":"4","last_reported":1729091348,"current_range_meters":25200,"station_id":"ce4bhi12rcd13ifvqfq0","pricing_plan_id":"cebpf4jnsgd1na2vs0mg"},{"bike_id":"3075c614-cd48-47f7-b3a8-832079f498a2","system_id":"levelo_inurba_marseille","lat":43.32362,"lon":5.38892,"is_reserved":false,"is_disabled":false,"rental_uris":{"android":"levelo://app?vid=3075c614-cd48-47f7-b3a8-832079f498a2","ios":"levelo://app?vid=3075c614-cd48-47f7-b3a8-832079f498a2"},"vehicle_type_id":"4","last_reported":1729091348,"current_range_meters":7200,"station_id":"ce4bhqp2rcd13ifvqhog","pricing_plan_id":"cebpf4jnsgd1na2vs0mg"},{"bike_id":"fda33e13-de7f-4dd2-89af-74361db8066f","system_id":"levelo_inurba_marseille","lat":43.28005,"lon":5.40023,"is_reserved":false,"is_disabled":false,"rental_uris":{"android":"levelo://app?vid=fda33e13-de7f-4dd2-89af-74361db8066f","ios":"levelo://app?vid=fda33e13-de7f-4dd2-89af-74361db8066f"},"vehicle_type_id":"4","last_reported":1729091348,"current_range_meters":39200,"station_id":"ce4bho92rcd13ifvqh4g","pricing_plan_id":"cebpf4jnsgd1na2vs0mg"},{"bike_id":"2140b6a3-5118-4150-823e-9225aeb56201","system_id":"levelo_inurba_marseille","lat":43.231984,"lon":5.355486,"is_reserved":false,"is_disabled":false,"rental_uris":{"android":"levelo://app?vid=2140b6a3-5118-4150-823e-9225aeb56201","ios":"levelo://app?vid=2140b6a3-5118-4150-823e-9225aeb56201"},"vehicle_type_id":"4","last_reported":1729091348,"current_range_meters":4000,"station_id":"ce4bhu92rcd13ifvqi70","pricing_plan_id":"cebpf4jnsgd1na2vs0mg"},{"bike_id":"db1083ad-6fd0-4c47-b913-9d2e689c2e10","system_id":"levelo_inurba_marseille","lat":43.24809,"lon":5.3746,"is_reserved":false,"is_disabled":false,"rental_uris":{"android":"levelo://app?vid=db1083ad-6fd0-4c47-b913-9d2e689c2e10","ios":"levelo://app?vid=db1083ad-6fd0-4c47-b913-9d2e689c2e10"},"vehicle_type_id":"4","last_reported":1729091348,"current_range_meters":30000,"station_id":"ce4bhgh2rcd13ifvqfb0","pricing_plan_id":"cebpf4jnsgd1na2vs0mg"},{"bike_id":"2ad2279f-cd95-48dc-a14b-5590159ac5fe","system_id":"levelo_inurba_marseille","lat":43.306035,"lon":5.372265,"is_reserved":false,"is_disabled":false,"rental_uris":{"android":"levelo://app?vid=2ad2279f-cd95-48dc-a14b-5590159ac5fe","ios":"levelo://app?vid=2ad2279f-cd95-48dc-a14b-5590159ac5fe"},"vehicle_type_id":"4","last_reported":1729091348,"current_range_meters":2800,"station_id":"ce4bgqh2rcd13ifvqc4g","pricing_plan_id":"cebpf4jnsgd1na2vs0mg"},{"bike_id":"ee81de78-eac7-4709-af30-874fee4a33ef","system_id":"levelo_inurba_marseille","lat":43.27073,"lon":5.42281,"is_reserved":false,"is_disabled":false,"rental_uris":{"android":"levelo://app?vid=ee81de78-eac7-4709-af30-874fee4a33ef","ios":"levelo://app?vid=ee81de78-eac7-4709-af30-874fee4a33ef"},"vehicle_type_id":"4","last_reported":1729091348,"current_range_meters":20400,"station_id":"ce4bhk92rcd13ifvqgb0","pricing_plan_id":"cebpf4jnsgd1na2vs0mg"},{"bike_id":"b842a70e-0509-42de-a52f-c5480dde411d","system_id":"levelo_inurba_marseille","lat":43.28856,"lon":5.35852,"is_reserved":false,"is_disabled":false,"rental_uris":{"android":"levelo://app?vid=b842a70e-0509-42de-a52f-c5480dde411d","ios":"levelo://app?vid=b842a70e-0509-42de-a52f-c5480dde411d"},"vehicle_type_id":"4","last_reported":1729091348,"current_range_meters":28400,"station_id":"ce4bhb12rcd13ifvqem0","pricing_plan_id":"cebpf4jnsgd1na2vs0mg"},{"bike_id":"da793d0c-5f55-440a-8d7a-63e6553784bf","system_id":"levelo_inurba_marseille","lat":43.30606,"lon":5.37217,"is_reserved":false,"is_disabled":false,"rental_uris":{"android":"levelo://app?vid=da793d0c-5f55-440a-8d7a-63e6553784bf","ios":"levelo://app?vid=da793d0c-5f55-440a-8d7a-63e6553784bf"},"vehicle_type_id":"4","last_reported":1729091348,"current_range_meters":19200,"station_id":"ce4bgqh2rcd13ifvqc4g","pricing_plan_id":"cebpf4jnsgd1na2vs0mg"},{"bike_id":"847f3765-0522-4f02-a56f-1e46116b7c8c","system_id":"levelo_inurba_marseille","lat":43.27074,"lon":5.42281,"is_reserved":false,"is_disabled":false,"rental_uris":{"android":"levelo://app?vid=847f3765-0522-4f02-a56f-1e46116b7c8c","ios":"levelo://app?vid=847f3765-0522-4f02-a56f-1e46116b7c8c"},"vehicle_type_id":"4","last_reported":1729091348,"current_range_meters":7200,"station_id":"ce4bhk92rcd13ifvqgb0","pricing_plan_id":"cebpf4jnsgd1na2vs0mg"},{"bike_id":"4557c4e6-4ece-4376-92d5-339dc8cfdf3c","system_id":"levelo_inurba_marseille","lat":43.2707,"lon":5.42283,"is_reserved":false,"is_disabled":false,"rental_uris":{"android":"levelo://app?vid=4557c4e6-4ece-4376-92d5-339dc8cfdf3c","ios":"levelo://app?vid=4557c4e6-4ece-4376-92d5-339dc8cfdf3c"},"vehicle_type_id":"4","last_reported":1729091348,"current_range_meters":16800,"station_id":"ce4bhk92rcd13ifvqgb0","pricing_plan_id":"cebpf4jnsgd1na2vs0mg"},{"bike_id":"2f199fb7-f8a1-4a71-b88f-e230af50a96a","system_id":"levelo_inurba_marseille","lat":43.29628,"lon":5.37719,"is_reserved":false,"is_disabled":false,"rental_uris":{"android":"levelo://app?vid=2f199fb7-f8a1-4a71-b88f-e230af50a96a","ios":"levelo://app?vid=2f199fb7-f8a1-4a71-b88f-e230af50a96a"},"vehicle_type_id":"4","last_reported":1729091348,"current_range_meters":33600,"station_id":"ce4bgi92rcd13ifvqb90","pricing_plan_id":"cebpf4jnsgd1na2vs0mg"},{"bike_id":"eefe1331-9d38-43a2-8db3-1888ab39e607","system_id":"levelo_inurba_marseille","lat":43.28445,"lon":5.39207,"is_reserved":false,"is_disabled":false,"rental_uris":{"android":"levelo://app?vid=eefe1331-9d38-43a2-8db3-1888ab39e607","ios":"levelo://app?vid=eefe1331-9d38-43a2-8db3-1888ab39e607"},"vehicle_type_id":"4","last_reported":1729091348,"current_range_meters":17200,"station_id":"ce4bhoh2rcd13ifvqh5g","pricing_plan_id":"cebpf4jnsgd1na2vs0mg"},{"bike_id":"3213665e-989c-4d22-9f5a-31c8522597dd","system_id":"levelo_inurba_marseille","lat":43.296,"lon":5.36142,"is_reserved":false,"is_disabled":false,"rental_uris":{"android":"levelo://app?vid=3213665e-989c-4d22-9f5a-31c8522597dd","ios":"levelo://app?vid=3213665e-989c-4d22-9f5a-31c8522597dd"},"vehicle_type_id":"4","last_reported":1729091348,"current_range_meters":32800,"station_id":"","pricing_plan_id":"cebpf4jnsgd1na2vs0mg"},{"bike_id":"5f2d5ccb-af6a-40ec-bebd-9f33bdeac60c","system_id":"levelo_inurba_marseille","lat":43.29265,"lon":5.40902,"is_reserved":false,"is_disabled":false,"rental_uris":{"android":"levelo://app?vid=5f2d5ccb-af6a-40ec-bebd-9f33bdeac60c","ios":"levelo://app?vid=5f2d5ccb-af6a-40ec-bebd-9f33bdeac60c"},"vehicle_type_id":"4","last_reported":1729091348,"current_range_meters":2000,"station_id":"ce4bh192rcd13ifvqdc0","pricing_plan_id":"cebpf4jnsgd1na2vs0mg"},{"bike_id":"8fd455a8-c67f-4778-a9f3-82819770d68b","system_id":"levelo_inurba_marseille","lat":43.31759,"lon":5.39016,"is_reserved":false,"is_disabled":false,"rental_uris":{"android":"levelo://app?vid=8fd455a8-c67f-4778-a9f3-82819770d68b","ios":"levelo://app?vid=8fd455a8-c67f-4778-a9f3-82819770d68b"},"vehicle_type_id":"4","last_reported":1729091348,"current_range_meters":36800,"station_id":"ce4bhqp2rcd13ifvqhng","pricing_plan_id":"cebpf4jnsgd1na2vs0mg"},{"bike_id":"9750c4d3-3937-4b8d-a72b-91ac5fc67cde","system_id":"levelo_inurba_marseille","lat":43.30604,"lon":5.37233,"is_reserved":false,"is_disabled":false,"rental_uris":{"android":"levelo://app?vid=9750c4d3-3937-4b8d-a72b-91ac5fc67cde","ios":"levelo://app?vid=9750c4d3-3937-4b8d-a72b-91ac5fc67cde"},"vehicle_type_id":"4","last_reported":1729091348,"current_range_meters":14400,"station_id":"ce4bgqh2rcd13ifvqc4g","pricing_plan_id":"cebpf4jnsgd1na2vs0mg"},{"bike_id":"1641b826-604a-4181-8231-dca386f637a6","system_id":"levelo_inurba_marseille","lat":43.23195,"lon":5.35559,"is_reserved":false,"is_disabled":false,"rental_uris":{"android":"levelo://app?vid=1641b826-604a-4181-8231-dca386f637a6","ios":"levelo://app?vid=1641b826-604a-4181-8231-dca386f637a6"},"vehicle_type_id":"4","last_reported":1729091348,"current_range_meters":37600,"station_id":"ce4bhu92rcd13ifvqi70","pricing_plan_id":"cebpf4jnsgd1na2vs0mg"},{"bike_id":"89211ee2-076f-4df3-92bd-cd8885f2e76d","system_id":"levelo_inurba_marseille","lat":43.23193,"lon":5.35556,"is_reserved":false,"is_disabled":false,"rental_uris":{"android":"levelo://app?vid=89211ee2-076f-4df3-92bd-cd8885f2e76d","ios":"levelo://app?vid=89211ee2-076f-4df3-92bd-cd8885f2e76d"},"vehicle_type_id":"4","last_reported":1729091348,"current_range_meters":37600,"station_id":"ce4bhu92rcd13ifvqi70","pricing_plan_id":"cebpf4jnsgd1na2vs0mg"},{"bike_id":"daa976cb-551e-4996-a8a1-00e6817a6c60","system_id":"levelo_inurba_marseille","lat":43.2927,"lon":5.40906,"is_reserved":false,"is_disabled":false,"rental_uris":{"android":"levelo://app?vid=daa976cb-551e-4996-a8a1-00e6817a6c60","ios":"levelo://app?vid=daa976cb-551e-4996-a8a1-00e6817a6c60"},"vehicle_type_id":"4","last_reported":1729091348,"current_range_meters":24800,"station_id":"ce4bh192rcd13ifvqdc0","pricing_plan_id":"cebpf4jnsgd1na2vs0mg"},{"bike_id":"94dcac77-d102-4975-85a3-b972f19477a7","system_id":"levelo_inurba_marseille","lat":43.25492,"lon":5.37649,"is_reserved":false,"is_disabled":false,"rental_uris":{"android":"levelo://app?vid=94dcac77-d102-4975-85a3-b972f19477a7","ios":"levelo://app?vid=94dcac77-d102-4975-85a3-b972f19477a7"},"vehicle_type_id":"4","last_reported":1729091348,"current_range_meters":9600,"station_id":"ce4bhh12rcd13ifvqff0","pricing_plan_id":"cebpf4jnsgd1na2vs0mg"},{"bike_id":"975adece-daeb-433e-b5fe-8997a00f0604","system_id":"levelo_inurba_marseille","lat":43.33025,"lon":5.39039,"is_reserved":false,"is_disabled":false,"rental_uris":{"android":"levelo://app?vid=975adece-daeb-433e-b5fe-8997a00f0604","ios":"levelo://app?vid=975adece-daeb-433e-b5fe-8997a00f0604"},"vehicle_type_id":"4","last_reported":1729091348,"current_range_meters":30800,"station_id":"ce4bhr92rcd13ifvqhrg","pricing_plan_id":"cebpf4jnsgd1na2vs0mg"},{"bike_id":"02af67c6-7c68-4559-a056-7404a067af01","system_id":"levelo_inurba_marseille","lat":43.33027,"lon":5.39042,"is_reserved":false,"is_disabled":false,"rental_uris":{"android":"levelo://app?vid=02af67c6-7c68-4559-a056-7404a067af01","ios":"levelo://app?vid=02af67c6-7c68-4559-a056-7404a067af01"},"vehicle_type_id":"4","last_reported":1729091348,"current_range_meters":39200,"station_id":"ce4bhr92rcd13ifvqhrg","pricing_plan_id":"cebpf4jnsgd1na2vs0mg"},{"bike_id":"080f7871-70ae-46f6-8993-6486cf214083","system_id":"levelo_inurba_marseille","lat":43.26944,"lon":5.38934,"is_reserved":false,"is_disabled":false,"rental_uris":{"android":"levelo://app?vid=080f7871-70ae-46f6-8993-6486cf214083","ios":"levelo://app?vid=080f7871-70ae-46f6-8993-6486cf214083"},"vehicle_type_id":"4","last_reported":1729091348,"current_range_meters":27200,"station_id":"ce4bhhh2rcd13ifvqfl0","pricing_plan_id":"cebpf4jnsgd1na2vs0mg"},{"bike_id":"9aef495d-5900-40d1-b3b2-902da9379bde","system_id":"levelo_inurba_marseille","lat":43.32296,"lon":5.38268,"is_reserved":false,"is_disabled":false,"rental_uris":{"android":"levelo://app?vid=9aef495d-5900-40d1-b3b2-902da9379bde","ios":"levelo://app?vid=9aef495d-5900-40d1-b3b2-902da9379bde"},"vehicle_type_id":"4","last_reported":1729091348,"current_range_meters":26000,"station_id":"ce4bhr12rcd13ifvqhqg","pricing_plan_id":"cebpf4jnsgd1na2vs0mg"},{"bike_id":"8e3963b6-8131-4c1e-b4d2-add46d4dfbf9","system_id":"levelo_inurba_marseille","lat":43.303123,"lon":5.36896,"is_reserved":false,"is_disabled":false,"rental_uris":{"android":"levelo://app?vid=8e3963b6-8131-4c1e-b4d2-add46d4dfbf9","ios":"levelo://app?vid=8e3963b6-8131-4c1e-b4d2-add46d4dfbf9"},"vehicle_type_id":"4","last_reported":1729091348,"current_range_meters":18000,"station_id":"ce4bgqh2rcd13ifvqc5g","pricing_plan_id":"cebpf4jnsgd1na2vs0mg"},{"bike_id":"2b0a7b83-91f5-40bf-a831-8680c1dcf19d","system_id":"levelo_inurba_marseille","lat":43.2574,"lon":5.41109,"is_reserved":false,"is_disabled":false,"rental_uris":{"android":"levelo://app?vid=2b0a7b83-91f5-40bf-a831-8680c1dcf19d","ios":"levelo://app?vid=2b0a7b83-91f5-40bf-a831-8680c1dcf19d"},"vehicle_type_id":"4","last_reported":1729091348,"current_range_meters":38000,"station_id":"ce4bhkp2rcd13ifvqgd0","pricing_plan_id":"cebpf4jnsgd1na2vs0mg"},{"bike_id":"16e50bec-cd4e-487c-81c7-7e81cb5c48da","system_id":"levelo_inurba_marseille","lat":43.30309,"lon":5.36906,"is_reserved":false,"is_disabled":false,"rental_uris":{"android":"levelo://app?vid=16e50bec-cd4e-487c-81c7-7e81cb5c48da","ios":"levelo://app?vid=16e50bec-cd4e-487c-81c7-7e81cb5c48da"},"vehicle_type_id":"4","last_reported":1729091348,"current_range_meters":9600,"station_id":"ce4bgqh2rcd13ifvqc5g","pricing_plan_id":"cebpf4jnsgd1na2vs0mg"},{"bike_id":"24f85f72-dee6-41bb-bdb8-974ca7c83215","system_id":"levelo_inurba_marseille","lat":43.33024,"lon":5.39039,"is_reserved":false,"is_disabled":false,"rental_uris":{"android":"levelo://app?vid=24f85f72-dee6-41bb-bdb8-974ca7c83215","ios":"levelo://app?vid=24f85f72-dee6-41bb-bdb8-974ca7c83215"},"vehicle_type_id":"4","last_reported":1729091348,"current_range_meters":23200,"station_id":"ce4bhr92rcd13ifvqhrg","pricing_plan_id":"cebpf4jnsgd1na2vs0mg"},{"bike_id":"d52af5c0-66bb-4e06-9c25-cafcc4e9131f","system_id":"levelo_inurba_marseille","lat":43.29229,"lon":5.36065,"is_reserved":false,"is_disabled":false,"rental_uris":{"android":"levelo://app?vid=d52af5c0-66bb-4e06-9c25-cafcc4e9131f","ios":"levelo://app?vid=d52af5c0-66bb-4e06-9c25-cafcc4e9131f"},"vehicle_type_id":"4","last_reported":1729091348,"current_range_meters":27600,"station_id":"ce4bhbh2rcd13ifvqeqg","pricing_plan_id":"cebpf4jnsgd1na2vs0mg"},{"bike_id":"7f0b5597-f798-4e5a-9215-e10a252c4992","system_id":"levelo_inurba_marseille","lat":43.30192,"lon":5.36607,"is_reserved":false,"is_disabled":false,"rental_uris":{"android":"levelo://app?vid=7f0b5597-f798-4e5a-9215-e10a252c4992","ios":"levelo://app?vid=7f0b5597-f798-4e5a-9215-e10a252c4992"},"vehicle_type_id":"4","last_reported":1729091348,"current_range_meters":39200,"station_id":"ce4bgrh2rcd13ifvqc8g","pricing_plan_id":"cebpf4jnsgd1na2vs0mg"},{"bike_id":"87440bd7-4730-412f-b52f-03b263c3d6ba","system_id":"levelo_inurba_marseille","lat":43.23193,"lon":5.35553,"is_reserved":false,"is_disabled":false,"rental_uris":{"android":"levelo://app?vid=87440bd7-4730-412f-b52f-03b263c3d6ba","ios":"levelo://app?vid=87440bd7-4730-412f-b52f-03b263c3d6ba"},"vehicle_type_id":"4","last_reported":1729091348,"current_range_meters":24400,"station_id":"ce4bhu92rcd13ifvqi70","pricing_plan_id":"cebpf4jnsgd1na2vs0mg"},{"bike_id":"e49d9a1b-b2ec-4548-8173-1c97cd6ff3ea","system_id":"levelo_inurba_marseille","lat":43.25695,"lon":5.39413,"is_reserved":false,"is_disabled":false,"rental_uris":{"android":"levelo://app?vid=e49d9a1b-b2ec-4548-8173-1c97cd6ff3ea","ios":"levelo://app?vid=e49d9a1b-b2ec-4548-8173-1c97cd6ff3ea"},"vehicle_type_id":"4","last_reported":1729091348,"current_range_meters":10800,"station_id":"ce4bhdp2rcd13ifvqf20","pricing_plan_id":"cebpf4jnsgd1na2vs0mg"},{"bike_id":"cdae481f-9aa1-4014-97de-af082fcf5979","system_id":"levelo_inurba_marseille","lat":43.25866,"lon":5.39902,"is_reserved":false,"is_disabled":false,"rental_uris":{"android":"levelo://app?vid=cdae481f-9aa1-4014-97de-af082fcf5979","ios":"levelo://app?vid=cdae481f-9aa1-4014-97de-af082fcf5979"},"vehicle_type_id":"4","last_reported":1729091348,"current_range_meters":4400,"station_id":"ce4bhl92rcd13ifvqghg","pricing_plan_id":"cebpf4jnsgd1na2vs0mg"},{"bike_id":"a2742504-ff51-4197-bea8-4f3b5db3e3d5","system_id":"levelo_inurba_marseille","lat":43.26997,"lon":5.39118,"is_reserved":false,"is_disabled":false,"rental_uris":{"android":"levelo://app?vid=a2742504-ff51-4197-bea8-4f3b5db3e3d5","ios":"levelo://app?vid=a2742504-ff51-4197-bea8-4f3b5db3e3d5"},"vehicle_type_id":"4","last_reported":1729091348,"current_range_meters":25200,"station_id":"","pricing_plan_id":"cebpf4jnsgd1na2vs0mg"},{"bike_id":"ff96eee3-1ac8-4888-9ae7-e4b6cc8154af","system_id":"levelo_inurba_marseille","lat":43.33739,"lon":5.3746,"is_reserved":false,"is_disabled":false,"rental_uris":{"android":"levelo://app?vid=ff96eee3-1ac8-4888-9ae7-e4b6cc8154af","ios":"levelo://app?vid=ff96eee3-1ac8-4888-9ae7-e4b6cc8154af"},"vehicle_type_id":"4","last_reported":1729091348,"current_range_meters":28800,"station_id":"","pricing_plan_id":"cebpf4jnsgd1na2vs0mg"},{"bike_id":"215bb2e8-246a-4881-b6f1-9d257ef5be32","system_id":"levelo_inurba_marseille","lat":43.29229,"lon":5.36058,"is_reserved":false,"is_disabled":false,"rental_uris":{"android":"levelo://app?vid=215bb2e8-246a-4881-b6f1-9d257ef5be32","ios":"levelo://app?vid=215bb2e8-246a-4881-b6f1-9d257ef5be32"},"vehicle_type_id":"4","last_reported":1729091348,"current_range_meters":5600,"station_id":"ce4bhbh2rcd13ifvqeqg","pricing_plan_id":"cebpf4jnsgd1na2vs0mg"},{"bike_id":"1f5d6817-da92-4702-9da2-1fc138e604d5","system_id":"levelo_inurba_marseille","lat":43.32115,"lon":5.36769,"is_reserved":false,"is_disabled":false,"rental_uris":{"android":"levelo://app?vid=1f5d6817-da92-4702-9da2-1fc138e604d5","ios":"levelo://app?vid=1f5d6817-da92-4702-9da2-1fc138e604d5"},"vehicle_type_id":"4","last_reported":1729091348,"current_range_meters":38800,"station_id":"ce4bhrh2rcd13ifvqhug","pricing_plan_id":"cebpf4jnsgd1na2vs0mg"},{"bike_id":"36bde36c-212c-4262-a0b9-9111d960d0d4","system_id":"levelo_inurba_marseille","lat":43.29601,"lon":5.38097,"is_reserved":false,"is_disabled":false,"rental_uris":{"android":"levelo://app?vid=36bde36c-212c-4262-a0b9-9111d960d0d4","ios":"levelo://app?vid=36bde36c-212c-4262-a0b9-9111d960d0d4"},"vehicle_type_id":"4","last_reported":1729091348,"current_range_meters":9600,"station_id":"ce4bgl12rcd13ifvqbo0","pricing_plan_id":"cebpf4jnsgd1na2vs0mg"},{"bike_id":"8b771fa1-8204-4c18-92f0-a29faf40de92","system_id":"levelo_inurba_marseille","lat":43.28725,"lon":5.36097,"is_reserved":false,"is_disabled":false,"rental_uris":{"android":"levelo://app?vid=8b771fa1-8204-4c18-92f0-a29faf40de92","ios":"levelo://app?vid=8b771fa1-8204-4c18-92f0-a29faf40de92"},"vehicle_type_id":"4","last_reported":1729091348,"current_range_meters":12000,"station_id":"cki0cbj6b192h4jlfktg","pricing_plan_id":"cebpf4jnsgd1na2vs0mg"},{"bike_id":"c75fdd13-06a6-4635-adc1-f8972daf3850","system_id":"levelo_inurba_marseille","lat":43.33024,"lon":5.39041,"is_reserved":false,"is_disabled":false,"rental_uris":{"android":"levelo://app?vid=c75fdd13-06a6-4635-adc1-f8972daf3850","ios":"levelo://app?vid=c75fdd13-06a6-4635-adc1-f8972daf3850"},"vehicle_type_id":"4","last_reported":1729091348,"current_range_meters":16400,"station_id":"ce4bhr92rcd13ifvqhrg","pricing_plan_id":"cebpf4jnsgd1na2vs0mg"},{"bike_id":"f9a049af-b95f-4db0-8693-24b93ef1cccf","system_id":"levelo_inurba_marseille","lat":43.29049,"lon":5.35913,"is_reserved":false,"is_disabled":false,"rental_uris":{"android":"levelo://app?vid=f9a049af-b95f-4db0-8693-24b93ef1cccf","ios":"levelo://app?vid=f9a049af-b95f-4db0-8693-24b93ef1cccf"},"vehicle_type_id":"4","last_reported":1729091348,"current_range_meters":30800,"station_id":"ce4bha92rcd13ifvqeg0","pricing_plan_id":"cebpf4jnsgd1na2vs0mg"},{"bike_id":"94a681c9-4b10-4178-bbba-a7b7226b4f7f","system_id":"levelo_inurba_marseille","lat":43.29007,"lon":5.35616,"is_reserved":false,"is_disabled":false,"rental_uris":{"android":"levelo://app?vid=94a681c9-4b10-4178-bbba-a7b7226b4f7f","ios":"levelo://app?vid=94a681c9-4b10-4178-bbba-a7b7226b4f7f"},"vehicle_type_id":"4","last_reported":1729091348,"current_range_meters":22800,"station_id":"ce4bhb92rcd13ifvqen0","pricing_plan_id":"cebpf4jnsgd1na2vs0mg"},{"bike_id":"292b9425-1372-40d4-bf0a-fe57aa779a41","system_id":"levelo_inurba_marseille","lat":43.23061,"lon":5.35499,"is_reserved":false,"is_disabled":false,"rental_uris":{"android":"levelo://app?vid=292b9425-1372-40d4-bf0a-fe57aa779a41","ios":"levelo://app?vid=292b9425-1372-40d4-bf0a-fe57aa779a41"},"vehicle_type_id":"4","last_reported":1729091348,"current_range_meters":28000,"station_id":"cpo3342slgdg3j2ifvpg","pricing_plan_id":"cebpf4jnsgd1na2vs0mg"},{"bike_id":"49b954e1-fac0-4142-bc55-a272b87a9685","system_id":"levelo_inurba_marseille","lat":43.25585,"lon":5.38239,"is_reserved":false,"is_disabled":false,"rental_uris":{"android":"levelo://app?vid=49b954e1-fac0-4142-bc55-a272b87a9685","ios":"levelo://app?vid=49b954e1-fac0-4142-bc55-a272b87a9685"},"vehicle_type_id":"4","last_reported":1729091348,"current_range_meters":18000,"station_id":"ce4bhih2rcd13ifvqfs0","pricing_plan_id":"cebpf4jnsgd1na2vs0mg"},{"bike_id":"92f9f9d7-845d-4ac5-9ea5-7f0caf17ff66","system_id":"levelo_inurba_marseille","lat":43.30314,"lon":5.36894,"is_reserved":false,"is_disabled":false,"rental_uris":{"android":"levelo://app?vid=92f9f9d7-845d-4ac5-9ea5-7f0caf17ff66","ios":"levelo://app?vid=92f9f9d7-845d-4ac5-9ea5-7f0caf17ff66"},"vehicle_type_id":"4","last_reported":1729091348,"current_range_meters":38800,"station_id":"ce4bgqh2rcd13ifvqc5g","pricing_plan_id":"cebpf4jnsgd1na2vs0mg"},{"bike_id":"bbaaa628-6cad-408f-9edb-5e6bee3ffac0","system_id":"levelo_inurba_marseille","lat":43.25133,"lon":5.40312,"is_reserved":false,"is_disabled":false,"rental_uris":{"android":"levelo://app?vid=bbaaa628-6cad-408f-9edb-5e6bee3ffac0","ios":"levelo://app?vid=bbaaa628-6cad-408f-9edb-5e6bee3ffac0"},"vehicle_type_id":"4","last_reported":1729091348,"current_range_meters":16400,"station_id":"ce4bhlh2rcd13ifvqgig","pricing_plan_id":"cebpf4jnsgd1na2vs0mg"},{"bike_id":"733404bd-77b5-4ff6-ad43-3e363a6eae56","system_id":"levelo_inurba_marseille","lat":43.30539,"lon":5.3656,"is_reserved":false,"is_disabled":false,"rental_uris":{"android":"levelo://app?vid=733404bd-77b5-4ff6-ad43-3e363a6eae56","ios":"levelo://app?vid=733404bd-77b5-4ff6-ad43-3e363a6eae56"},"vehicle_type_id":"4","last_reported":1729091348,"current_range_meters":22800,"station_id":"ce4bgs12rcd13ifvqcag","pricing_plan_id":"cebpf4jnsgd1na2vs0mg"},{"bike_id":"2647be70-4b3f-4439-a073-bd21c450429c","system_id":"levelo_inurba_marseille","lat":43.2681,"lon":5.40274,"is_reserved":false,"is_disabled":false,"rental_uris":{"android":"levelo://app?vid=2647be70-4b3f-4439-a073-bd21c450429c","ios":"levelo://app?vid=2647be70-4b3f-4439-a073-bd21c450429c"},"vehicle_type_id":"4","last_reported":1729091348,"current_range_meters":38400,"station_id":"ce501612rcd8frsf0b60","pricing_plan_id":"cebpf4jnsgd1na2vs0mg"},{"bike_id":"a20dab00-eeb4-443e-902e-6e30eadec171","system_id":"levelo_inurba_marseille","lat":43.28263,"lon":5.35068,"is_reserved":false,"is_disabled":false,"rental_uris":{"android":"levelo://app?vid=a20dab00-eeb4-443e-902e-6e30eadec171","ios":"levelo://app?vid=a20dab00-eeb4-443e-902e-6e30eadec171"},"vehicle_type_id":"4","last_reported":1729091348,"current_range_meters":14800,"station_id":"ce4bhbp2rcd13ifvqerg","pricing_plan_id":"cebpf4jnsgd1na2vs0mg"},{"bike_id":"d29ee8d4-9431-4534-aca7-f9d42678e8ed","system_id":"levelo_inurba_marseille","lat":43.3009,"lon":5.39064,"is_reserved":false,"is_disabled":false,"rental_uris":{"android":"levelo://app?vid=d29ee8d4-9431-4534-aca7-f9d42678e8ed","ios":"levelo://app?vid=d29ee8d4-9431-4534-aca7-f9d42678e8ed"},"vehicle_type_id":"4","last_reported":1729091348,"current_range_meters":35600,"station_id":"ce4bh192rcd13ifvqdb0","pricing_plan_id":"cebpf4jnsgd1na2vs0mg"},{"bike_id":"65406e49-8594-4cfa-8223-dde29203d51c","system_id":"levelo_inurba_marseille","lat":43.27377,"lon":5.36244,"is_reserved":false,"is_disabled":false,"rental_uris":{"android":"levelo://app?vid=65406e49-8594-4cfa-8223-dde29203d51c","ios":"levelo://app?vid=65406e49-8594-4cfa-8223-dde29203d51c"},"vehicle_type_id":"4","last_reported":1729091348,"current_range_meters":8400,"station_id":"ce4bhbh2rcd13ifvqeo0","pricing_plan_id":"cebpf4jnsgd1na2vs0mg"},{"bike_id":"d380c6cb-c62e-4a4c-b78e-ca7330542f7b","system_id":"levelo_inurba_marseille","lat":43.30937,"lon":5.40151,"is_reserved":false,"is_disabled":false,"rental_uris":{"android":"levelo://app?vid=d380c6cb-c62e-4a4c-b78e-ca7330542f7b","ios":"levelo://app?vid=d380c6cb-c62e-4a4c-b78e-ca7330542f7b"},"vehicle_type_id":"4","last_reported":1729091348,"current_range_meters":22000,"station_id":"ce4bgvp2rcd13ifvqct0","pricing_plan_id":"cebpf4jnsgd1na2vs0mg"},{"bike_id":"455b5ed3-aaa3-48f5-ab9d-f513ff2b4983","system_id":"levelo_inurba_marseille","lat":43.29336,"lon":5.3712,"is_reserved":false,"is_disabled":false,"rental_uris":{"android":"levelo://app?vid=455b5ed3-aaa3-48f5-ab9d-f513ff2b4983","ios":"levelo://app?vid=455b5ed3-aaa3-48f5-ab9d-f513ff2b4983"},"vehicle_type_id":"4","last_reported":1729091348,"current_range_meters":36400,"station_id":"ce4bgkp2rcd13ifvqbmg","pricing_plan_id":"cebpf4jnsgd1na2vs0mg"},{"bike_id":"e02b60b7-04a1-452d-a7e0-1574b4e28dc3","system_id":"levelo_inurba_marseille","lat":43.29577,"lon":5.39977,"is_reserved":false,"is_disabled":false,"rental_uris":{"android":"levelo://app?vid=e02b60b7-04a1-452d-a7e0-1574b4e28dc3","ios":"levelo://app?vid=e02b60b7-04a1-452d-a7e0-1574b4e28dc3"},"vehicle_type_id":"4","last_reported":1729091348,"current_range_meters":33200,"station_id":"ce4bh312rcd13ifvqdj0","pricing_plan_id":"cebpf4jnsgd1na2vs0mg"},{"bike_id":"4b39118f-bb62-406b-9203-0b8ddf9c99cc","system_id":"levelo_inurba_marseille","lat":43.22934,"lon":5.35378,"is_reserved":false,"is_disabled":false,"rental_uris":{"android":"levelo://app?vid=4b39118f-bb62-406b-9203-0b8ddf9c99cc","ios":"levelo://app?vid=4b39118f-bb62-406b-9203-0b8ddf9c99cc"},"vehicle_type_id":"4","last_reported":1729091348,"current_range_meters":17200,"station_id":"cpo3532slgdg3j2ikp40","pricing_plan_id":"cebpf4jnsgd1na2vs0mg"},{"bike_id":"b0661774-f1c0-448d-b5f0-db267dedb5a2","system_id":"levelo_inurba_marseille","lat":43.32294,"lon":5.38265,"is_reserved":false,"is_disabled":false,"rental_uris":{"android":"levelo://app?vid=b0661774-f1c0-448d-b5f0-db267dedb5a2","ios":"levelo://app?vid=b0661774-f1c0-448d-b5f0-db267dedb5a2"},"vehicle_type_id":"4","last_reported":1729091348,"current_range_meters":16800,"station_id":"ce4bhr12rcd13ifvqhqg","pricing_plan_id":"cebpf4jnsgd1na2vs0mg"},{"bike_id":"eae18083-f85f-4c3f-8a44-5ee1409b3355","system_id":"levelo_inurba_marseille","lat":43.3042,"lon":5.41282,"is_reserved":false,"is_disabled":false,"rental_uris":{"android":"levelo://app?vid=eae18083-f85f-4c3f-8a44-5ee1409b3355","ios":"levelo://app?vid=eae18083-f85f-4c3f-8a44-5ee1409b3355"},"vehicle_type_id":"4","last_reported":1729091348,"current_range_meters":28000,"station_id":"ce4bhop2rcd13ifvqh8g","pricing_plan_id":"cebpf4jnsgd1na2vs0mg"},{"bike_id":"80499f6a-81f8-4709-93f1-f18288e86618","system_id":"levelo_inurba_marseille","lat":43.30151,"lon":5.3742,"is_reserved":false,"is_disabled":false,"rental_uris":{"android":"levelo://app?vid=80499f6a-81f8-4709-93f1-f18288e86618","ios":"levelo://app?vid=80499f6a-81f8-4709-93f1-f18288e86618"},"vehicle_type_id":"4","last_reported":1729091348,"current_range_meters":37600,"station_id":"ce4bgs92rcd13ifvqcc0","pricing_plan_id":"cebpf4jnsgd1na2vs0mg"},{"bike_id":"a9d80141-cb04-4f88-bcc5-9763572e3517","system_id":"levelo_inurba_marseille","lat":43.23203,"lon":5.35549,"is_reserved":false,"is_disabled":false,"rental_uris":{"android":"levelo://app?vid=a9d80141-cb04-4f88-bcc5-9763572e3517","ios":"levelo://app?vid=a9d80141-cb04-4f88-bcc5-9763572e3517"},"vehicle_type_id":"4","last_reported":1729091348,"current_range_meters":37600,"station_id":"ce4bhu92rcd13ifvqi70","pricing_plan_id":"cebpf4jnsgd1na2vs0mg"},{"bike_id":"d06f24f3-1961-4c39-8b26-c72733863fe9","system_id":"levelo_inurba_marseille","lat":43.33749,"lon":5.37485,"is_reserved":false,"is_disabled":false,"rental_uris":{"android":"levelo://app?vid=d06f24f3-1961-4c39-8b26-c72733863fe9","ios":"levelo://app?vid=d06f24f3-1961-4c39-8b26-c72733863fe9"},"vehicle_type_id":"4","last_reported":1729091348,"current_range_meters":36400,"station_id":"","pricing_plan_id":"cebpf4jnsgd1na2vs0mg"},{"bike_id":"4f00c2b5-5278-421c-be9b-8b7ab009d1bf","system_id":"levelo_inurba_marseille","lat":43.287933,"lon":5.378372,"is_reserved":false,"is_disabled":false,"rental_uris":{"android":"levelo://app?vid=4f00c2b5-5278-421c-be9b-8b7ab009d1bf","ios":"levelo://app?vid=4f00c2b5-5278-421c-be9b-8b7ab009d1bf"},"vehicle_type_id":"4","last_reported":1729091348,"current_range_meters":4800,"station_id":"","pricing_plan_id":"cebpf4jnsgd1na2vs0mg"},{"bike_id":"530f8e1e-ee17-43cd-bb66-48cbe98d24a4","system_id":"levelo_inurba_marseille","lat":43.27562,"lon":5.38435,"is_reserved":false,"is_disabled":false,"rental_uris":{"android":"levelo://app?vid=530f8e1e-ee17-43cd-bb66-48cbe98d24a4","ios":"levelo://app?vid=530f8e1e-ee17-43cd-bb66-48cbe98d24a4"},"vehicle_type_id":"4","last_reported":1729091348,"current_range_meters":9200,"station_id":"ce4bhh92rcd13ifvqfi0","pricing_plan_id":"cebpf4jnsgd1na2vs0mg"},{"bike_id":"c834d31d-df46-4136-b00f-2788b617c81e","system_id":"levelo_inurba_marseille","lat":43.29357,"lon":5.37214,"is_reserved":false,"is_disabled":false,"rental_uris":{"android":"levelo://app?vid=c834d31d-df46-4136-b00f-2788b617c81e","ios":"levelo://app?vid=c834d31d-df46-4136-b00f-2788b617c81e"},"vehicle_type_id":"4","last_reported":1729091348,"current_range_meters":18000,"station_id":"","pricing_plan_id":"cebpf4jnsgd1na2vs0mg"},{"bike_id":"dab69e03-b8e2-41ec-9f95-85793ebfe1ec","system_id":"levelo_inurba_marseille","lat":43.29035,"lon":5.37564,"is_reserved":false,"is_disabled":false,"rental_uris":{"android":"levelo://app?vid=dab69e03-b8e2-41ec-9f95-85793ebfe1ec","ios":"levelo://app?vid=dab69e03-b8e2-41ec-9f95-85793ebfe1ec"},"vehicle_type_id":"4","last_reported":1729091348,"current_range_meters":36000,"station_id":"ce4bh692rcd13ifvqe90","pricing_plan_id":"cebpf4jnsgd1na2vs0mg"},{"bike_id":"ba6e0248-93cb-4a1c-9bee-4d5f62a33d03","system_id":"levelo_inurba_marseille","lat":43.29787,"lon":5.37103,"is_reserved":false,"is_disabled":false,"rental_uris":{"android":"levelo://app?vid=ba6e0248-93cb-4a1c-9bee-4d5f62a33d03","ios":"levelo://app?vid=ba6e0248-93cb-4a1c-9bee-4d5f62a33d03"},"vehicle_type_id":"4","last_reported":1729091348,"current_range_meters":26800,"station_id":"ce4bgop2rcd13ifvqc1g","pricing_plan_id":"cebpf4jnsgd1na2vs0mg"},{"bike_id":"b33661e4-f2a6-4689-a581-bd24128ece84","system_id":"levelo_inurba_marseille","lat":43.30535,"lon":5.38427,"is_reserved":false,"is_disabled":false,"rental_uris":{"android":"levelo://app?vid=b33661e4-f2a6-4689-a581-bd24128ece84","ios":"levelo://app?vid=b33661e4-f2a6-4689-a581-bd24128ece84"},"vehicle_type_id":"4","last_reported":1729091348,"current_range_meters":18000,"station_id":"ce4bgg92rcd13ifvqb30","pricing_plan_id":"cebpf4jnsgd1na2vs0mg"},{"bike_id":"d41309ab-1a1f-4395-acaa-455483c3f8e1","system_id":"levelo_inurba_marseille","lat":43.23193,"lon":5.3556,"is_reserved":false,"is_disabled":false,"rental_uris":{"android":"levelo://app?vid=d41309ab-1a1f-4395-acaa-455483c3f8e1","ios":"levelo://app?vid=d41309ab-1a1f-4395-acaa-455483c3f8e1"},"vehicle_type_id":"4","last_reported":1729091348,"current_range_meters":27600,"station_id":"ce4bhu92rcd13ifvqi70","pricing_plan_id":"cebpf4jnsgd1na2vs0mg"},{"bike_id":"94902fb1-a766-4d90-8978-e732725ca583","system_id":"levelo_inurba_marseille","lat":43.23184,"lon":5.39984,"is_reserved":false,"is_disabled":false,"rental_uris":{"android":"levelo://app?vid=94902fb1-a766-4d90-8978-e732725ca583","ios":"levelo://app?vid=94902fb1-a766-4d90-8978-e732725ca583"},"vehicle_type_id":"4","last_reported":1729091348,"current_range_meters":40000,"station_id":"ce4bhn12rcd13ifvqgqg","pricing_plan_id":"cebpf4jnsgd1na2vs0mg"},{"bike_id":"b6ba18ac-f9f7-47ce-97ee-a57309932db4","system_id":"levelo_inurba_marseille","lat":43.2781,"lon":5.40709,"is_reserved":false,"is_disabled":false,"rental_uris":{"android":"levelo://app?vid=b6ba18ac-f9f7-47ce-97ee-a57309932db4","ios":"levelo://app?vid=b6ba18ac-f9f7-47ce-97ee-a57309932db4"},"vehicle_type_id":"4","last_reported":1729091348,"current_range_meters":38400,"station_id":"ce4bhnh2rcd13ifvqgtg","pricing_plan_id":"cebpf4jnsgd1na2vs0mg"},{"bike_id":"533f4e31-d77c-4fcc-8133-c2b25cf11614","system_id":"levelo_inurba_marseille","lat":43.29287,"lon":5.40128,"is_reserved":false,"is_disabled":false,"rental_uris":{"android":"levelo://app?vid=533f4e31-d77c-4fcc-8133-c2b25cf11614","ios":"levelo://app?vid=533f4e31-d77c-4fcc-8133-c2b25cf11614"},"vehicle_type_id":"4","last_reported":1729091348,"current_range_meters":33600,"station_id":"ce4bh312rcd13ifvqdk0","pricing_plan_id":"cebpf4jnsgd1na2vs0mg"},{"bike_id":"665c3f8e-8be5-4d80-a8dc-dbb11d59399c","system_id":"levelo_inurba_marseille","lat":43.33027,"lon":5.39035,"is_reserved":false,"is_disabled":false,"rental_uris":{"android":"levelo://app?vid=665c3f8e-8be5-4d80-a8dc-dbb11d59399c","ios":"levelo://app?vid=665c3f8e-8be5-4d80-a8dc-dbb11d59399c"},"vehicle_type_id":"4","last_reported":1729091348,"current_range_meters":39200,"station_id":"ce4bhr92rcd13ifvqhrg","pricing_plan_id":"cebpf4jnsgd1na2vs0mg"},{"bike_id":"033a7f68-f273-426e-84a9-8a3b2c56f6f5","system_id":"levelo_inurba_marseille","lat":43.35096,"lon":5.36807,"is_reserved":false,"is_disabled":false,"rental_uris":{"android":"levelo://app?vid=033a7f68-f273-426e-84a9-8a3b2c56f6f5","ios":"levelo://app?vid=033a7f68-f273-426e-84a9-8a3b2c56f6f5"},"vehicle_type_id":"4","last_reported":1729091348,"current_range_meters":11200,"station_id":"","pricing_plan_id":"cebpf4jnsgd1na2vs0mg"},{"bike_id":"c8174287-5486-46a4-9860-68b388b89737","system_id":"levelo_inurba_marseille","lat":43.30543,"lon":5.36687,"is_reserved":false,"is_disabled":false,"rental_uris":{"android":"levelo://app?vid=c8174287-5486-46a4-9860-68b388b89737","ios":"levelo://app?vid=c8174287-5486-46a4-9860-68b388b89737"},"vehicle_type_id":"4","last_reported":1729091348,"current_range_meters":12000,"station_id":"ce4bgrp2rcd13ifvqc9g","pricing_plan_id":"cebpf4jnsgd1na2vs0mg"},{"bike_id":"1af2813b-98a0-4b62-aaf8-89652b30f639","system_id":"levelo_inurba_marseille","lat":43.22941,"lon":5.35383,"is_reserved":false,"is_disabled":false,"rental_uris":{"android":"levelo://app?vid=1af2813b-98a0-4b62-aaf8-89652b30f639","ios":"levelo://app?vid=1af2813b-98a0-4b62-aaf8-89652b30f639"},"vehicle_type_id":"4","last_reported":1729091348,"current_range_meters":24800,"station_id":"cpo3532slgdg3j2ikp40","pricing_plan_id":"cebpf4jnsgd1na2vs0mg"},{"bike_id":"0dec8542-df94-47aa-a02a-9b9af08609c2","system_id":"levelo_inurba_marseille","lat":43.29422,"lon":5.38627,"is_reserved":false,"is_disabled":false,"rental_uris":{"android":"levelo://app?vid=0dec8542-df94-47aa-a02a-9b9af08609c2","ios":"levelo://app?vid=0dec8542-df94-47aa-a02a-9b9af08609c2"},"vehicle_type_id":"4","last_reported":1729091348,"current_range_meters":25600,"station_id":"ce4bh2h2rcd13ifvqdh0","pricing_plan_id":"cebpf4jnsgd1na2vs0mg"},{"bike_id":"b11c021e-0bd7-41fa-9d15-894ebd691016","system_id":"levelo_inurba_marseille","lat":43.280002,"lon":5.400094,"is_reserved":false,"is_disabled":false,"rental_uris":{"android":"levelo://app?vid=b11c021e-0bd7-41fa-9d15-894ebd691016","ios":"levelo://app?vid=b11c021e-0bd7-41fa-9d15-894ebd691016"},"vehicle_type_id":"4","last_reported":1729091348,"current_range_meters":8000,"station_id":"ce4bho92rcd13ifvqh4g","pricing_plan_id":"cebpf4jnsgd1na2vs0mg"},{"bike_id":"f93454e1-a669-4c63-a4ca-b572042c7971","system_id":"levelo_inurba_marseille","lat":43.23195,"lon":5.35552,"is_reserved":false,"is_disabled":false,"rental_uris":{"android":"levelo://app?vid=f93454e1-a669-4c63-a4ca-b572042c7971","ios":"levelo://app?vid=f93454e1-a669-4c63-a4ca-b572042c7971"},"vehicle_type_id":"4","last_reported":1729091348,"current_range_meters":19200,"station_id":"ce4bhu92rcd13ifvqi70","pricing_plan_id":"cebpf4jnsgd1na2vs0mg"},{"bike_id":"c31052ed-b696-4a32-b7a8-f914bc14eb63","system_id":"levelo_inurba_marseille","lat":43.30804,"lon":5.43524,"is_reserved":false,"is_disabled":false,"rental_uris":{"android":"levelo://app?vid=c31052ed-b696-4a32-b7a8-f914bc14eb63","ios":"levelo://app?vid=c31052ed-b696-4a32-b7a8-f914bc14eb63"},"vehicle_type_id":"4","last_reported":1729091348,"current_range_meters":16800,"station_id":"ce4bhph2rcd13ifvqheg","pricing_plan_id":"cebpf4jnsgd1na2vs0mg"},{"bike_id":"754100a9-6b76-4392-86d8-2c5abf4a6a95","system_id":"levelo_inurba_marseille","lat":43.29226,"lon":5.36065,"is_reserved":false,"is_disabled":false,"rental_uris":{"android":"levelo://app?vid=754100a9-6b76-4392-86d8-2c5abf4a6a95","ios":"levelo://app?vid=754100a9-6b76-4392-86d8-2c5abf4a6a95"},"vehicle_type_id":"4","last_reported":1729091348,"current_range_meters":28400,"station_id":"ce4bhbh2rcd13ifvqeqg","pricing_plan_id":"cebpf4jnsgd1na2vs0mg"},{"bike_id":"2b43ba77-65a0-4518-8886-2e24500744f0","system_id":"levelo_inurba_marseille","lat":43.32368,"lon":5.38891,"is_reserved":false,"is_disabled":false,"rental_uris":{"android":"levelo://app?vid=2b43ba77-65a0-4518-8886-2e24500744f0","ios":"levelo://app?vid=2b43ba77-65a0-4518-8886-2e24500744f0"},"vehicle_type_id":"4","last_reported":1729091348,"current_range_meters":28800,"station_id":"ce4bhqp2rcd13ifvqhog","pricing_plan_id":"cebpf4jnsgd1na2vs0mg"},{"bike_id":"3ece4d15-37c4-4363-af1b-a68532930905","system_id":"levelo_inurba_marseille","lat":43.23182,"lon":5.39986,"is_reserved":false,"is_disabled":false,"rental_uris":{"android":"levelo://app?vid=3ece4d15-37c4-4363-af1b-a68532930905","ios":"levelo://app?vid=3ece4d15-37c4-4363-af1b-a68532930905"},"vehicle_type_id":"4","last_reported":1729091348,"current_range_meters":12400,"station_id":"ce4bhn12rcd13ifvqgqg","pricing_plan_id":"cebpf4jnsgd1na2vs0mg"},{"bike_id":"a30d7a2a-831a-444f-8524-9f95901ef7ca","system_id":"levelo_inurba_marseille","lat":43.31121,"lon":5.37762,"is_reserved":false,"is_disabled":false,"rental_uris":{"android":"levelo://app?vid=a30d7a2a-831a-444f-8524-9f95901ef7ca","ios":"levelo://app?vid=a30d7a2a-831a-444f-8524-9f95901ef7ca"},"vehicle_type_id":"4","last_reported":1729091348,"current_range_meters":3600,"station_id":"ce4bgt92rcd13ifvqcg0","pricing_plan_id":"cebpf4jnsgd1na2vs0mg"},{"bike_id":"ebe76b72-2cf3-4ca6-9cf9-d4fac3ac0995","system_id":"levelo_inurba_marseille","lat":43.25088,"lon":5.39514,"is_reserved":false,"is_disabled":false,"rental_uris":{"android":"levelo://app?vid=ebe76b72-2cf3-4ca6-9cf9-d4fac3ac0995","ios":"levelo://app?vid=ebe76b72-2cf3-4ca6-9cf9-d4fac3ac0995"},"vehicle_type_id":"4","last_reported":1729091348,"current_range_meters":32400,"station_id":"ce4bhm12rcd13ifvqgkg","pricing_plan_id":"cebpf4jnsgd1na2vs0mg"},{"bike_id":"fb0ca74f-0734-41a8-b473-91b84e74d295","system_id":"levelo_inurba_marseille","lat":43.23186,"lon":5.3999,"is_reserved":false,"is_disabled":false,"rental_uris":{"android":"levelo://app?vid=fb0ca74f-0734-41a8-b473-91b84e74d295","ios":"levelo://app?vid=fb0ca74f-0734-41a8-b473-91b84e74d295"},"vehicle_type_id":"4","last_reported":1729091348,"current_range_meters":20400,"station_id":"ce4bhn12rcd13ifvqgqg","pricing_plan_id":"cebpf4jnsgd1na2vs0mg"},{"bike_id":"fca886cb-b3ec-46a2-8154-47ae8d53154c","system_id":"levelo_inurba_marseille","lat":43.24804,"lon":5.37456,"is_reserved":false,"is_disabled":false,"rental_uris":{"android":"levelo://app?vid=fca886cb-b3ec-46a2-8154-47ae8d53154c","ios":"levelo://app?vid=fca886cb-b3ec-46a2-8154-47ae8d53154c"},"vehicle_type_id":"4","last_reported":1729091348,"current_range_meters":7200,"station_id":"ce4bhgh2rcd13ifvqfb0","pricing_plan_id":"cebpf4jnsgd1na2vs0mg"},{"bike_id":"7b73520e-d621-4ffa-b6e4-acbace2432e0","system_id":"levelo_inurba_marseille","lat":43.31075,"lon":5.40077,"is_reserved":false,"is_disabled":false,"rental_uris":{"android":"levelo://app?vid=7b73520e-d621-4ffa-b6e4-acbace2432e0","ios":"levelo://app?vid=7b73520e-d621-4ffa-b6e4-acbace2432e0"},"vehicle_type_id":"4","last_reported":1729091348,"current_range_meters":26800,"station_id":"","pricing_plan_id":"cebpf4jnsgd1na2vs0mg"},{"bike_id":"1743ee9b-44d8-4d45-b016-55524a45421e","system_id":"levelo_inurba_marseille","lat":43.30309,"lon":5.36885,"is_reserved":false,"is_disabled":false,"rental_uris":{"android":"levelo://app?vid=1743ee9b-44d8-4d45-b016-55524a45421e","ios":"levelo://app?vid=1743ee9b-44d8-4d45-b016-55524a45421e"},"vehicle_type_id":"4","last_reported":1729091348,"current_range_meters":16000,"station_id":"ce4bgqh2rcd13ifvqc5g","pricing_plan_id":"cebpf4jnsgd1na2vs0mg"},{"bike_id":"66ec76d7-a5b0-4bfb-a2e8-bc4780c9d82c","system_id":"levelo_inurba_marseille","lat":43.3237,"lon":5.3889,"is_reserved":false,"is_disabled":false,"rental_uris":{"android":"levelo://app?vid=66ec76d7-a5b0-4bfb-a2e8-bc4780c9d82c","ios":"levelo://app?vid=66ec76d7-a5b0-4bfb-a2e8-bc4780c9d82c"},"vehicle_type_id":"4","last_reported":1729091348,"current_range_meters":16000,"station_id":"ce4bhqp2rcd13ifvqhog","pricing_plan_id":"cebpf4jnsgd1na2vs0mg"},{"bike_id":"c1d86f49-8774-4439-b5e2-0912985649d3","system_id":"levelo_inurba_marseille","lat":43.25008,"lon":5.38913,"is_reserved":false,"is_disabled":false,"rental_uris":{"android":"levelo://app?vid=c1d86f49-8774-4439-b5e2-0912985649d3","ios":"levelo://app?vid=c1d86f49-8774-4439-b5e2-0912985649d3"},"vehicle_type_id":"4","last_reported":1729091348,"current_range_meters":30000,"station_id":"ce4bhgp2rcd13ifvqfd0","pricing_plan_id":"cebpf4jnsgd1na2vs0mg"},{"bike_id":"9606a084-08b9-44be-b96e-dd63006bb009","system_id":"levelo_inurba_marseille","lat":43.2843,"lon":5.34987,"is_reserved":false,"is_disabled":false,"rental_uris":{"android":"levelo://app?vid=9606a084-08b9-44be-b96e-dd63006bb009","ios":"levelo://app?vid=9606a084-08b9-44be-b96e-dd63006bb009"},"vehicle_type_id":"4","last_reported":1729091348,"current_range_meters":38000,"station_id":"ce4bhbh2rcd13ifvqepg","pricing_plan_id":"cebpf4jnsgd1na2vs0mg"},{"bike_id":"5e8adf94-b944-4773-9ae3-c8bb9c0ce131","system_id":"levelo_inurba_marseille","lat":43.3117,"lon":5.38709,"is_reserved":false,"is_disabled":false,"rental_uris":{"android":"levelo://app?vid=5e8adf94-b944-4773-9ae3-c8bb9c0ce131","ios":"levelo://app?vid=5e8adf94-b944-4773-9ae3-c8bb9c0ce131"},"vehicle_type_id":"4","last_reported":1729091348,"current_range_meters":38800,"station_id":"ce4bgv12rcd13ifvqcp0","pricing_plan_id":"cebpf4jnsgd1na2vs0mg"},{"bike_id":"e5c53085-18b0-4068-a705-5ab89baff5fa","system_id":"levelo_inurba_marseille","lat":43.30181,"lon":5.36607,"is_reserved":false,"is_disabled":false,"rental_uris":{"android":"levelo://app?vid=e5c53085-18b0-4068-a705-5ab89baff5fa","ios":"levelo://app?vid=e5c53085-18b0-4068-a705-5ab89baff5fa"},"vehicle_type_id":"4","last_reported":1729091348,"current_range_meters":38400,"station_id":"ce4bgrh2rcd13ifvqc8g","pricing_plan_id":"cebpf4jnsgd1na2vs0mg"},{"bike_id":"fd0ee0e1-68a3-474a-885e-f3860c97ad93","system_id":"levelo_inurba_marseille","lat":43.24546,"lon":5.39524,"is_reserved":false,"is_disabled":false,"rental_uris":{"android":"levelo://app?vid=fd0ee0e1-68a3-474a-885e-f3860c97ad93","ios":"levelo://app?vid=fd0ee0e1-68a3-474a-885e-f3860c97ad93"},"vehicle_type_id":"4","last_reported":1729091348,"current_range_meters":11200,"station_id":"ce4bhlp2rcd13ifvqgjg","pricing_plan_id":"cebpf4jnsgd1na2vs0mg"},{"bike_id":"f94da947-b1a0-40ed-8143-ed5ebffc5c44","system_id":"levelo_inurba_marseille","lat":43.27954,"lon":5.41056,"is_reserved":false,"is_disabled":false,"rental_uris":{"android":"levelo://app?vid=f94da947-b1a0-40ed-8143-ed5ebffc5c44","ios":"levelo://app?vid=f94da947-b1a0-40ed-8143-ed5ebffc5c44"},"vehicle_type_id":"4","last_reported":1729091348,"current_range_meters":35200,"station_id":"ce4bhnp2rcd13ifvqh0g","pricing_plan_id":"cebpf4jnsgd1na2vs0mg"},{"bike_id":"2327bb8d-be62-4ff4-b038-4546f8e21a23","system_id":"levelo_inurba_marseille","lat":43.28268,"lon":5.3507,"is_reserved":false,"is_disabled":false,"rental_uris":{"android":"levelo://app?vid=2327bb8d-be62-4ff4-b038-4546f8e21a23","ios":"levelo://app?vid=2327bb8d-be62-4ff4-b038-4546f8e21a23"},"vehicle_type_id":"4","last_reported":1729091348,"current_range_meters":26800,"station_id":"ce4bhbp2rcd13ifvqerg","pricing_plan_id":"cebpf4jnsgd1na2vs0mg"},{"bike_id":"f5829e40-b211-4dbc-9caa-24e03bb5a117","system_id":"levelo_inurba_marseille","lat":43.25124,"lon":5.40326,"is_reserved":false,"is_disabled":false,"rental_uris":{"android":"levelo://app?vid=f5829e40-b211-4dbc-9caa-24e03bb5a117","ios":"levelo://app?vid=f5829e40-b211-4dbc-9caa-24e03bb5a117"},"vehicle_type_id":"4","last_reported":1729091348,"current_range_meters":19200,"station_id":"ce4bhlh2rcd13ifvqgig","pricing_plan_id":"cebpf4jnsgd1na2vs0mg"},{"bike_id":"bf36a38c-b4a2-435a-9a29-0acfd1feabd6","system_id":"levelo_inurba_marseille","lat":43.30543,"lon":5.36542,"is_reserved":false,"is_disabled":false,"rental_uris":{"android":"levelo://app?vid=bf36a38c-b4a2-435a-9a29-0acfd1feabd6","ios":"levelo://app?vid=bf36a38c-b4a2-435a-9a29-0acfd1feabd6"},"vehicle_type_id":"4","last_reported":1729091348,"current_range_meters":34800,"station_id":"ce4bgs12rcd13ifvqcag","pricing_plan_id":"cebpf4jnsgd1na2vs0mg"},{"bike_id":"a0219771-57d4-4f82-aabd-616fb6d46920","system_id":"levelo_inurba_marseille","lat":43.29225,"lon":5.36066,"is_reserved":false,"is_disabled":false,"rental_uris":{"android":"levelo://app?vid=a0219771-57d4-4f82-aabd-616fb6d46920","ios":"levelo://app?vid=a0219771-57d4-4f82-aabd-616fb6d46920"},"vehicle_type_id":"4","last_reported":1729091348,"current_range_meters":36800,"station_id":"ce4bhbh2rcd13ifvqeqg","pricing_plan_id":"cebpf4jnsgd1na2vs0mg"},{"bike_id":"9aee57aa-4a2c-4ba1-8b0b-3dbf10d502a0","system_id":"levelo_inurba_marseille","lat":43.24167,"lon":5.36393,"is_reserved":false,"is_disabled":false,"rental_uris":{"android":"levelo://app?vid=9aee57aa-4a2c-4ba1-8b0b-3dbf10d502a0","ios":"levelo://app?vid=9aee57aa-4a2c-4ba1-8b0b-3dbf10d502a0"},"vehicle_type_id":"4","last_reported":1729091348,"current_range_meters":2800,"station_id":"cpo36qri1sfpv3e86is0","pricing_plan_id":"cebpf4jnsgd1na2vs0mg"},{"bike_id":"95cf7d5e-c016-484e-968d-618ef24921cc","system_id":"levelo_inurba_marseille","lat":43.31084,"lon":5.42435,"is_reserved":false,"is_disabled":false,"rental_uris":{"android":"levelo://app?vid=95cf7d5e-c016-484e-968d-618ef24921cc","ios":"levelo://app?vid=95cf7d5e-c016-484e-968d-618ef24921cc"},"vehicle_type_id":"4","last_reported":1729091348,"current_range_meters":11200,"station_id":"ce4bhp92rcd13ifvqhag","pricing_plan_id":"cebpf4jnsgd1na2vs0mg"},{"bike_id":"6d1c13b5-425d-4bf2-bcaa-a778bd536a0b","system_id":"levelo_inurba_marseille","lat":43.28456,"lon":5.35882,"is_reserved":false,"is_disabled":false,"rental_uris":{"android":"levelo://app?vid=6d1c13b5-425d-4bf2-bcaa-a778bd536a0b","ios":"levelo://app?vid=6d1c13b5-425d-4bf2-bcaa-a778bd536a0b"},"vehicle_type_id":"4","last_reported":1729091348,"current_range_meters":14800,"station_id":"ce4bhah2rcd13ifvqei0","pricing_plan_id":"cebpf4jnsgd1na2vs0mg"},{"bike_id":"740f649a-b3ef-4cd4-8f50-ab74d97d571c","system_id":"levelo_inurba_marseille","lat":43.29712,"lon":5.37697,"is_reserved":false,"is_disabled":false,"rental_uris":{"android":"levelo://app?vid=740f649a-b3ef-4cd4-8f50-ab74d97d571c","ios":"levelo://app?vid=740f649a-b3ef-4cd4-8f50-ab74d97d571c"},"vehicle_type_id":"4","last_reported":1729091348,"current_range_meters":37600,"station_id":"ce4bgkh2rcd13ifvqbl0","pricing_plan_id":"cebpf4jnsgd1na2vs0mg"},{"bike_id":"8f83b6a2-5a54-48a1-8c37-9f535629674d","system_id":"levelo_inurba_marseille","lat":43.28684,"lon":5.38986,"is_reserved":false,"is_disabled":false,"rental_uris":{"android":"levelo://app?vid=8f83b6a2-5a54-48a1-8c37-9f535629674d","ios":"levelo://app?vid=8f83b6a2-5a54-48a1-8c37-9f535629674d"},"vehicle_type_id":"4","last_reported":1729091348,"current_range_meters":24400,"station_id":"","pricing_plan_id":"cebpf4jnsgd1na2vs0mg"},{"bike_id":"f269126c-1b0b-4a1a-a1d6-f8c3716f5336","system_id":"levelo_inurba_marseille","lat":43.232015,"lon":5.355538,"is_reserved":false,"is_disabled":false,"rental_uris":{"android":"levelo://app?vid=f269126c-1b0b-4a1a-a1d6-f8c3716f5336","ios":"levelo://app?vid=f269126c-1b0b-4a1a-a1d6-f8c3716f5336"},"vehicle_type_id":"4","last_reported":1729091348,"current_range_meters":27600,"station_id":"ce4bhu92rcd13ifvqi70","pricing_plan_id":"cebpf4jnsgd1na2vs0mg"},{"bike_id":"85109d7a-ef98-4eec-9600-00f580894505","system_id":"levelo_inurba_marseille","lat":43.308723,"lon":5.400403,"is_reserved":false,"is_disabled":false,"rental_uris":{"android":"levelo://app?vid=85109d7a-ef98-4eec-9600-00f580894505","ios":"levelo://app?vid=85109d7a-ef98-4eec-9600-00f580894505"},"vehicle_type_id":"4","last_reported":1729091348,"current_range_meters":3200,"station_id":"ce4bh112rcd13ifvqda0","pricing_plan_id":"cebpf4jnsgd1na2vs0mg"},{"bike_id":"11bb8d2b-c4c2-4634-9caa-28a0bda8ce71","system_id":"levelo_inurba_marseille","lat":43.33727,"lon":5.39184,"is_reserved":false,"is_disabled":false,"rental_uris":{"android":"levelo://app?vid=11bb8d2b-c4c2-4634-9caa-28a0bda8ce71","ios":"levelo://app?vid=11bb8d2b-c4c2-4634-9caa-28a0bda8ce71"},"vehicle_type_id":"4","last_reported":1729091348,"current_range_meters":20400,"station_id":"ce4bhr92rcd13ifvqhsg","pricing_plan_id":"cebpf4jnsgd1na2vs0mg"},{"bike_id":"3c9ba927-e0b9-46b6-9062-cb9726357723","system_id":"levelo_inurba_marseille","lat":43.23968,"lon":5.36638,"is_reserved":false,"is_disabled":false,"rental_uris":{"android":"levelo://app?vid=3c9ba927-e0b9-46b6-9062-cb9726357723","ios":"levelo://app?vid=3c9ba927-e0b9-46b6-9062-cb9726357723"},"vehicle_type_id":"4","last_reported":1729091348,"current_range_meters":39200,"station_id":"ce4bhi12rcd13ifvqfp0","pricing_plan_id":"cebpf4jnsgd1na2vs0mg"},{"bike_id":"586f1d28-e06b-418e-8e78-5cba8d99facc","system_id":"levelo_inurba_marseille","lat":43.30791,"lon":5.3765,"is_reserved":false,"is_disabled":false,"rental_uris":{"android":"levelo://app?vid=586f1d28-e06b-418e-8e78-5cba8d99facc","ios":"levelo://app?vid=586f1d28-e06b-418e-8e78-5cba8d99facc"},"vehicle_type_id":"4","last_reported":1729091348,"current_range_meters":28800,"station_id":"ce4bgv92rcd13ifvqcq0","pricing_plan_id":"cebpf4jnsgd1na2vs0mg"},{"bike_id":"2b4080b0-68e1-41a4-a09f-ed9a424251f5","system_id":"levelo_inurba_marseille","lat":43.2959,"lon":5.38108,"is_reserved":false,"is_disabled":false,"rental_uris":{"android":"levelo://app?vid=2b4080b0-68e1-41a4-a09f-ed9a424251f5","ios":"levelo://app?vid=2b4080b0-68e1-41a4-a09f-ed9a424251f5"},"vehicle_type_id":"4","last_reported":1729091348,"current_range_meters":36400,"station_id":"ce4bgl12rcd13ifvqbo0","pricing_plan_id":"cebpf4jnsgd1na2vs0mg"},{"bike_id":"5c33ae46-36fd-4469-b5fd-e34462c7640e","system_id":"levelo_inurba_marseille","lat":43.2731,"lon":5.39092,"is_reserved":false,"is_disabled":false,"rental_uris":{"android":"levelo://app?vid=5c33ae46-36fd-4469-b5fd-e34462c7640e","ios":"levelo://app?vid=5c33ae46-36fd-4469-b5fd-e34462c7640e"},"vehicle_type_id":"4","last_reported":1729091348,"current_range_meters":3200,"station_id":"ce4bhgp2rcd13ifvqfe0","pricing_plan_id":"cebpf4jnsgd1na2vs0mg"},{"bike_id":"e81c94df-0a3a-4cb1-ac38-6d0a9163168c","system_id":"levelo_inurba_marseille","lat":43.29005,"lon":5.39057,"is_reserved":false,"is_disabled":false,"rental_uris":{"android":"levelo://app?vid=e81c94df-0a3a-4cb1-ac38-6d0a9163168c","ios":"levelo://app?vid=e81c94df-0a3a-4cb1-ac38-6d0a9163168c"},"vehicle_type_id":"4","last_reported":1729091348,"current_range_meters":18000,"station_id":"","pricing_plan_id":"cebpf4jnsgd1na2vs0mg"},{"bike_id":"94d48054-be54-488d-a425-2deb433f452c","system_id":"levelo_inurba_marseille","lat":43.29813,"lon":5.36438,"is_reserved":false,"is_disabled":false,"rental_uris":{"android":"levelo://app?vid=94d48054-be54-488d-a425-2deb433f452c","ios":"levelo://app?vid=94d48054-be54-488d-a425-2deb433f452c"},"vehicle_type_id":"4","last_reported":1729091348,"current_range_meters":18000,"station_id":"ce4bgnh2rcd13ifvqc0g","pricing_plan_id":"cebpf4jnsgd1na2vs0mg"},{"bike_id":"4f9d18dc-1cf4-4656-b81c-774e559624ac","system_id":"levelo_inurba_marseille","lat":43.2953,"lon":5.3941,"is_reserved":false,"is_disabled":false,"rental_uris":{"android":"levelo://app?vid=4f9d18dc-1cf4-4656-b81c-774e559624ac","ios":"levelo://app?vid=4f9d18dc-1cf4-4656-b81c-774e559624ac"},"vehicle_type_id":"4","last_reported":1729091348,"current_range_meters":27200,"station_id":"ce4bh292rcd13ifvqdf0","pricing_plan_id":"cebpf4jnsgd1na2vs0mg"},{"bike_id":"0b3b6650-ac74-42e2-adb5-59319966dddd","system_id":"levelo_inurba_marseille","lat":43.29572,"lon":5.37534,"is_reserved":false,"is_disabled":false,"rental_uris":{"android":"levelo://app?vid=0b3b6650-ac74-42e2-adb5-59319966dddd","ios":"levelo://app?vid=0b3b6650-ac74-42e2-adb5-59319966dddd"},"vehicle_type_id":"4","last_reported":1729091348,"current_range_meters":36000,"station_id":"ce4bgh92rcd13ifvqb50","pricing_plan_id":"cebpf4jnsgd1na2vs0mg"},{"bike_id":"9ec45172-530c-411d-9d55-9b6b84ee7d3d","system_id":"levelo_inurba_marseille","lat":43.23072,"lon":5.4009,"is_reserved":false,"is_disabled":false,"rental_uris":{"android":"levelo://app?vid=9ec45172-530c-411d-9d55-9b6b84ee7d3d","ios":"levelo://app?vid=9ec45172-530c-411d-9d55-9b6b84ee7d3d"},"vehicle_type_id":"4","last_reported":1729091348,"current_range_meters":20400,"station_id":"ce4bhn12rcd13ifvqgqg","pricing_plan_id":"cebpf4jnsgd1na2vs0mg"},{"bike_id":"ff4850d4-1089-4f79-8651-9c36968f9a24","system_id":"levelo_inurba_marseille","lat":43.25722,"lon":5.41114,"is_reserved":false,"is_disabled":false,"rental_uris":{"android":"levelo://app?vid=ff4850d4-1089-4f79-8651-9c36968f9a24","ios":"levelo://app?vid=ff4850d4-1089-4f79-8651-9c36968f9a24"},"vehicle_type_id":"4","last_reported":1729091348,"current_range_meters":7200,"station_id":"ce4bhkp2rcd13ifvqgd0","pricing_plan_id":"cebpf4jnsgd1na2vs0mg"},{"bike_id":"0ca3703f-3984-4aa1-bdcf-6180a403320d","system_id":"levelo_inurba_marseille","lat":43.287465,"lon":5.379327,"is_reserved":false,"is_disabled":false,"rental_uris":{"android":"levelo://app?vid=0ca3703f-3984-4aa1-bdcf-6180a403320d","ios":"levelo://app?vid=0ca3703f-3984-4aa1-bdcf-6180a403320d"},"vehicle_type_id":"4","last_reported":1729091348,"current_range_meters":33200,"station_id":"ce4bh9p2rcd13ifvqec0","pricing_plan_id":"cebpf4jnsgd1na2vs0mg"},{"bike_id":"d3e74852-5000-479b-8506-614392b8068c","system_id":"levelo_inurba_marseille","lat":43.23195,"lon":5.35549,"is_reserved":false,"is_disabled":false,"rental_uris":{"android":"levelo://app?vid=d3e74852-5000-479b-8506-614392b8068c","ios":"levelo://app?vid=d3e74852-5000-479b-8506-614392b8068c"},"vehicle_type_id":"4","last_reported":1729091348,"current_range_meters":19600,"station_id":"ce4bhu92rcd13ifvqi70","pricing_plan_id":"cebpf4jnsgd1na2vs0mg"},{"bike_id":"93fb4634-051c-43e4-a54a-653a01b6edcd","system_id":"levelo_inurba_marseille","lat":43.23064,"lon":5.35492,"is_reserved":false,"is_disabled":false,"rental_uris":{"android":"levelo://app?vid=93fb4634-051c-43e4-a54a-653a01b6edcd","ios":"levelo://app?vid=93fb4634-051c-43e4-a54a-653a01b6edcd"},"vehicle_type_id":"4","last_reported":1729091348,"current_range_meters":28000,"station_id":"cpo3342slgdg3j2ifvpg","pricing_plan_id":"cebpf4jnsgd1na2vs0mg"},{"bike_id":"48cc0950-5f27-4e26-8278-f55c69222185","system_id":"levelo_inurba_marseille","lat":43.25868,"lon":5.39896,"is_reserved":false,"is_disabled":false,"rental_uris":{"android":"levelo://app?vid=48cc0950-5f27-4e26-8278-f55c69222185","ios":"levelo://app?vid=48cc0950-5f27-4e26-8278-f55c69222185"},"vehicle_type_id":"4","last_reported":1729091348,"current_range_meters":9600,"station_id":"ce4bhl92rcd13ifvqghg","pricing_plan_id":"cebpf4jnsgd1na2vs0mg"},{"bike_id":"8ff59e8d-3c9b-4d05-a82f-ef4953acf818","system_id":"levelo_inurba_marseille","lat":43.27074,"lon":5.42282,"is_reserved":false,"is_disabled":false,"rental_uris":{"android":"levelo://app?vid=8ff59e8d-3c9b-4d05-a82f-ef4953acf818","ios":"levelo://app?vid=8ff59e8d-3c9b-4d05-a82f-ef4953acf818"},"vehicle_type_id":"4","last_reported":1729091348,"current_range_meters":32000,"station_id":"ce4bhk92rcd13ifvqgb0","pricing_plan_id":"cebpf4jnsgd1na2vs0mg"},{"bike_id":"d95cf918-80b7-4758-9252-de2942983fe9","system_id":"levelo_inurba_marseille","lat":43.25828,"lon":5.39426,"is_reserved":false,"is_disabled":false,"rental_uris":{"android":"levelo://app?vid=d95cf918-80b7-4758-9252-de2942983fe9","ios":"levelo://app?vid=d95cf918-80b7-4758-9252-de2942983fe9"},"vehicle_type_id":"4","last_reported":1729091348,"current_range_meters":23200,"station_id":"ce4bhip2rcd13ifvqft0","pricing_plan_id":"cebpf4jnsgd1na2vs0mg"},{"bike_id":"bab246f7-d1ae-4ffc-8df2-0cc24cd3923c","system_id":"levelo_inurba_marseille","lat":43.23208,"lon":5.35553,"is_reserved":false,"is_disabled":false,"rental_uris":{"android":"levelo://app?vid=bab246f7-d1ae-4ffc-8df2-0cc24cd3923c","ios":"levelo://app?vid=bab246f7-d1ae-4ffc-8df2-0cc24cd3923c"},"vehicle_type_id":"4","last_reported":1729091348,"current_range_meters":35600,"station_id":"ce4bhu92rcd13ifvqi70","pricing_plan_id":"cebpf4jnsgd1na2vs0mg"},{"bike_id":"c7d93c11-0ee4-431b-b74d-71765c44b40e","system_id":"levelo_inurba_marseille","lat":43.27809,"lon":5.4072,"is_reserved":false,"is_disabled":false,"rental_uris":{"android":"levelo://app?vid=c7d93c11-0ee4-431b-b74d-71765c44b40e","ios":"levelo://app?vid=c7d93c11-0ee4-431b-b74d-71765c44b40e"},"vehicle_type_id":"4","last_reported":1729091348,"current_range_meters":34000,"station_id":"ce4bhnh2rcd13ifvqgtg","pricing_plan_id":"cebpf4jnsgd1na2vs0mg"},{"bike_id":"ee4f0d33-7998-46dc-8167-fa577cf2b9e7","system_id":"levelo_inurba_marseille","lat":43.28005,"lon":5.40004,"is_reserved":false,"is_disabled":false,"rental_uris":{"android":"levelo://app?vid=ee4f0d33-7998-46dc-8167-fa577cf2b9e7","ios":"levelo://app?vid=ee4f0d33-7998-46dc-8167-fa577cf2b9e7"},"vehicle_type_id":"4","last_reported":1729091348,"current_range_meters":29600,"station_id":"ce4bho92rcd13ifvqh4g","pricing_plan_id":"cebpf4jnsgd1na2vs0mg"},{"bike_id":"7f929815-ea04-4b68-bc4f-7efe14ee05ab","system_id":"levelo_inurba_marseille","lat":43.26573,"lon":5.39002,"is_reserved":false,"is_disabled":false,"rental_uris":{"android":"levelo://app?vid=7f929815-ea04-4b68-bc4f-7efe14ee05ab","ios":"levelo://app?vid=7f929815-ea04-4b68-bc4f-7efe14ee05ab"},"vehicle_type_id":"4","last_reported":1729091348,"current_range_meters":35600,"station_id":"ce4bhe12rcd13ifvqf30","pricing_plan_id":"cebpf4jnsgd1na2vs0mg"},{"bike_id":"6c05e50b-4b3e-4bff-a350-2ddf1e4b23e9","system_id":"levelo_inurba_marseille","lat":43.26198,"lon":5.37452,"is_reserved":false,"is_disabled":false,"rental_uris":{"android":"levelo://app?vid=6c05e50b-4b3e-4bff-a350-2ddf1e4b23e9","ios":"levelo://app?vid=6c05e50b-4b3e-4bff-a350-2ddf1e4b23e9"},"vehicle_type_id":"4","last_reported":1729091348,"current_range_meters":800,"station_id":"ce4bhgp2rcd13ifvqfc0","pricing_plan_id":"cebpf4jnsgd1na2vs0mg"},{"bike_id":"e9b9f3c3-222e-4ae2-b543-eadd90b53e3f","system_id":"levelo_inurba_marseille","lat":43.2842,"lon":5.34978,"is_reserved":false,"is_disabled":false,"rental_uris":{"android":"levelo://app?vid=e9b9f3c3-222e-4ae2-b543-eadd90b53e3f","ios":"levelo://app?vid=e9b9f3c3-222e-4ae2-b543-eadd90b53e3f"},"vehicle_type_id":"4","last_reported":1729091348,"current_range_meters":28800,"station_id":"ce4bhbh2rcd13ifvqepg","pricing_plan_id":"cebpf4jnsgd1na2vs0mg"},{"bike_id":"f33a983d-03f7-4d7d-87a9-014c4472b3bc","system_id":"levelo_inurba_marseille","lat":43.295214,"lon":5.374969,"is_reserved":false,"is_disabled":false,"rental_uris":{"android":"levelo://app?vid=f33a983d-03f7-4d7d-87a9-014c4472b3bc","ios":"levelo://app?vid=f33a983d-03f7-4d7d-87a9-014c4472b3bc"},"vehicle_type_id":"4","last_reported":1729091348,"current_range_meters":25600,"station_id":"ce4bgkp2rcd13ifvqbmg","pricing_plan_id":"cebpf4jnsgd1na2vs0mg"},{"bike_id":"68d4c5b1-9dd7-40b8-95ce-ccda46c890bb","system_id":"levelo_inurba_marseille","lat":43.30803,"lon":5.43521,"is_reserved":false,"is_disabled":false,"rental_uris":{"android":"levelo://app?vid=68d4c5b1-9dd7-40b8-95ce-ccda46c890bb","ios":"levelo://app?vid=68d4c5b1-9dd7-40b8-95ce-ccda46c890bb"},"vehicle_type_id":"4","last_reported":1729091348,"current_range_meters":30400,"station_id":"ce4bhph2rcd13ifvqheg","pricing_plan_id":"cebpf4jnsgd1na2vs0mg"},{"bike_id":"10829442-0001-4de0-8dde-7bfab0bfcb11","system_id":"levelo_inurba_marseille","lat":43.27428,"lon":5.39423,"is_reserved":false,"is_disabled":false,"rental_uris":{"android":"levelo://app?vid=10829442-0001-4de0-8dde-7bfab0bfcb11","ios":"levelo://app?vid=10829442-0001-4de0-8dde-7bfab0bfcb11"},"vehicle_type_id":"4","last_reported":1729091348,"current_range_meters":26000,"station_id":"ce4bhdp2rcd13ifvqf20","pricing_plan_id":"cebpf4jnsgd1na2vs0mg"},{"bike_id":"c2f7d42c-aa04-4730-a414-1c5788b3dba9","system_id":"levelo_inurba_marseille","lat":43.31769,"lon":5.39021,"is_reserved":false,"is_disabled":false,"rental_uris":{"android":"levelo://app?vid=c2f7d42c-aa04-4730-a414-1c5788b3dba9","ios":"levelo://app?vid=c2f7d42c-aa04-4730-a414-1c5788b3dba9"},"vehicle_type_id":"4","last_reported":1729091348,"current_range_meters":29600,"station_id":"ce4bhqp2rcd13ifvqhng","pricing_plan_id":"cebpf4jnsgd1na2vs0mg"},{"bike_id":"004db0ff-c984-4df0-9093-6f94fbf80d88","system_id":"levelo_inurba_marseille","lat":43.25872,"lon":5.39899,"is_reserved":false,"is_disabled":false,"rental_uris":{"android":"levelo://app?vid=004db0ff-c984-4df0-9093-6f94fbf80d88","ios":"levelo://app?vid=004db0ff-c984-4df0-9093-6f94fbf80d88"},"vehicle_type_id":"4","last_reported":1729091348,"current_range_meters":38800,"station_id":"ce4bhl92rcd13ifvqghg","pricing_plan_id":"cebpf4jnsgd1na2vs0mg"},{"bike_id":"a8edc4bb-2c73-45f9-9636-b6b624c8514c","system_id":"levelo_inurba_marseille","lat":43.25008,"lon":5.38911,"is_reserved":false,"is_disabled":false,"rental_uris":{"android":"levelo://app?vid=a8edc4bb-2c73-45f9-9636-b6b624c8514c","ios":"levelo://app?vid=a8edc4bb-2c73-45f9-9636-b6b624c8514c"},"vehicle_type_id":"4","last_reported":1729091348,"current_range_meters":28800,"station_id":"ce4bhgp2rcd13ifvqfd0","pricing_plan_id":"cebpf4jnsgd1na2vs0mg"},{"bike_id":"15bc277a-8193-4600-95cf-965fdfadcc75","system_id":"levelo_inurba_marseille","lat":43.2782,"lon":5.4071,"is_reserved":false,"is_disabled":false,"rental_uris":{"android":"levelo://app?vid=15bc277a-8193-4600-95cf-965fdfadcc75","ios":"levelo://app?vid=15bc277a-8193-4600-95cf-965fdfadcc75"},"vehicle_type_id":"4","last_reported":1729091348,"current_range_meters":19200,"station_id":"ce4bhnh2rcd13ifvqgtg","pricing_plan_id":"cebpf4jnsgd1na2vs0mg"},{"bike_id":"44abcb2a-df27-414d-ba71-74d14c9b5985","system_id":"levelo_inurba_marseille","lat":43.30802,"lon":5.43527,"is_reserved":false,"is_disabled":false,"rental_uris":{"android":"levelo://app?vid=44abcb2a-df27-414d-ba71-74d14c9b5985","ios":"levelo://app?vid=44abcb2a-df27-414d-ba71-74d14c9b5985"},"vehicle_type_id":"4","last_reported":1729091348,"current_range_meters":11200,"station_id":"ce4bhph2rcd13ifvqheg","pricing_plan_id":"cebpf4jnsgd1na2vs0mg"},{"bike_id":"ecdf19f3-8415-4c34-b34e-b52588dc6131","system_id":"levelo_inurba_marseille","lat":43.30308,"lon":5.39211,"is_reserved":false,"is_disabled":false,"rental_uris":{"android":"levelo://app?vid=ecdf19f3-8415-4c34-b34e-b52588dc6131","ios":"levelo://app?vid=ecdf19f3-8415-4c34-b34e-b52588dc6131"},"vehicle_type_id":"4","last_reported":1729091348,"current_range_meters":24000,"station_id":"ce4bgkh2rcd13ifvqbk0","pricing_plan_id":"cebpf4jnsgd1na2vs0mg"},{"bike_id":"7c55e531-9da1-4ffe-816f-a8a371b72ac6","system_id":"levelo_inurba_marseille","lat":43.29585,"lon":5.40017,"is_reserved":false,"is_disabled":false,"rental_uris":{"android":"levelo://app?vid=7c55e531-9da1-4ffe-816f-a8a371b72ac6","ios":"levelo://app?vid=7c55e531-9da1-4ffe-816f-a8a371b72ac6"},"vehicle_type_id":"4","last_reported":1729091348,"current_range_meters":22000,"station_id":"ce4bh312rcd13ifvqdj0","pricing_plan_id":"cebpf4jnsgd1na2vs0mg"},{"bike_id":"ac85bd1a-c363-474f-b16d-a823655c1c69","system_id":"levelo_inurba_marseille","lat":43.26199,"lon":5.37937,"is_reserved":false,"is_disabled":false,"rental_uris":{"android":"levelo://app?vid=ac85bd1a-c363-474f-b16d-a823655c1c69","ios":"levelo://app?vid=ac85bd1a-c363-474f-b16d-a823655c1c69"},"vehicle_type_id":"4","last_reported":1729091348,"current_range_meters":28800,"station_id":"ce4bhjp2rcd13ifvqg90","pricing_plan_id":"cebpf4jnsgd1na2vs0mg"},{"bike_id":"a1e0278e-920e-4eea-a381-891331e8e403","system_id":"levelo_inurba_marseille","lat":43.23195,"lon":5.35546,"is_reserved":false,"is_disabled":false,"rental_uris":{"android":"levelo://app?vid=a1e0278e-920e-4eea-a381-891331e8e403","ios":"levelo://app?vid=a1e0278e-920e-4eea-a381-891331e8e403"},"vehicle_type_id":"4","last_reported":1729091348,"current_range_meters":36800,"station_id":"ce4bhu92rcd13ifvqi70","pricing_plan_id":"cebpf4jnsgd1na2vs0mg"},{"bike_id":"a177d67a-c931-440e-8b10-00ba576c74ec","system_id":"levelo_inurba_marseille","lat":43.3054,"lon":5.36561,"is_reserved":false,"is_disabled":false,"rental_uris":{"android":"levelo://app?vid=a177d67a-c931-440e-8b10-00ba576c74ec","ios":"levelo://app?vid=a177d67a-c931-440e-8b10-00ba576c74ec"},"vehicle_type_id":"4","last_reported":1729091348,"current_range_meters":22800,"station_id":"ce4bgs12rcd13ifvqcag","pricing_plan_id":"cebpf4jnsgd1na2vs0mg"},{"bike_id":"5f234519-d5aa-470c-8026-befa87af7ea0","system_id":"levelo_inurba_marseille","lat":43.27619,"lon":5.36108,"is_reserved":false,"is_disabled":false,"rental_uris":{"android":"levelo://app?vid=5f234519-d5aa-470c-8026-befa87af7ea0","ios":"levelo://app?vid=5f234519-d5aa-470c-8026-befa87af7ea0"},"vehicle_type_id":"4","last_reported":1729091348,"current_range_meters":38800,"station_id":"ce4bgj92rcd13ifvqbe0","pricing_plan_id":"cebpf4jnsgd1na2vs0mg"},