{"last_updated":1722964098,"ttl":30,"version":"2.2","data":{"bikes":[{"bike_id":"6dcdfd70-997d-48dd-8821-1ec7284dc6d4","system_id":"levelo_inurba_marseille","lat":43.309076,"lon":5.368465,"is_reserved":false,"is_disabled":false,"rental_uris":{"android":"levelo://app?vid=6dcdfd70-997d-48dd-8821-1ec7284dc6d4","ios":"levelo://app?vid=6dcdfd70-997d-48dd-8821-1ec7284dc6d4"},"vehicle_type_id":"4","last_reported":1722964098,"current_range_meters":2400,"station_id":"ce4bgn92rcd13ifvqbvg","pricing_plan_id":"cebpf4jnsgd1na2vs0mg"},{"bike_id":"75a77881-7151-4ce9-a5ce-d3cb34cd4dba","system_id":"levelo_inurba_marseille","lat":43.314811,"lon":5.373103,"is_reserved":false,"is_disabled":false,"rental_uris":{"android":"levelo://app?vid=75a77881-7151-4ce9-a5ce-d3cb34cd4dba","ios":"levelo://app?vid=75a77881-7151-4ce9-a5ce-d3cb34cd4dba"},"vehicle_type_id":"4","last_reported":1722964098,"current_range_meters":7200,"station_id":"ce4bgt12rcd13ifvqcd0","pricing_plan_id":"cebpf4jnsgd1na2vs0mg"},{"bike_id":"9ed54f9c-373a-4172-8c3b-dd905af22061","system_id":"levelo_inurba_marseille","lat":43.309034,"lon":5.371783,"is_reserved":false,"is_disabled":false,"rental_uris":{"android":"levelo://app?vid=9ed54f9c-373a-4172-8c3b-dd905af22061","ios":"levelo://app?vid=9ed54f9c-373a-4172-8c3b-dd905af22061"},"vehicle_type_id":"4","last_reported":1722964098,"current_range_meters":0,"station_id":"ce4bguh2rcd13ifvqckg","pricing_plan_id":"cebpf4jnsgd1na2vs0mg"},{"bike_id":"6e5555ea-ef83-4a7e-8986-3d7857cf921b","system_id":"levelo_inurba_marseille","lat":43.309034,"lon":5.371783,"is_reserved":false,"is_disabled":false,"rental_uris":{"android":"levelo://app?vid=6e5555ea-ef83-4a7e-8986-3d7857cf921b","ios":"levelo://app?vid=6e5555ea-ef83-4a7e-8986-3d7857cf921b"},"vehicle_type_id":"4","last_reported":1722964098,"current_range_meters":0,"station_id":"ce4bguh2rcd13ifvqckg","pricing_plan_id":"cebpf4jnsgd1na2vs0mg"},{"bike_id":"641ce839-8bad-4618-a44a-bc7448041f46","system_id":"levelo_inurba_marseille","lat":43.30537,"lon":5.367345,"is_reserved":false,"is_disabled":false,"rental_uris":{"android":"levelo://app?vid=641ce839-8bad-4618-a44a-bc7448041f46","ios":"levelo://app?vid=641ce839-8bad-4618-a44a-bc7448041f46"},"vehicle_type_id":"4","last_reported":1722964098,"current_range_meters":0,"station_id":"ce4bgrp2rcd13ifvqc9g","pricing_plan_id":"cebpf4jnsgd1na2vs0mg"},{"bike_id":"d09b62ea-0166-41ee-9955-5cd97f063bcf","system_id":"levelo_inurba_marseille","lat":43.31596,"lon":5.37609,"is_reserved":false,"is_disabled":false,"rental_uris":{"android":"levelo://app?vid=d09b62ea-0166-41ee-9955-5cd97f063bcf","ios":"levelo://app?vid=d09b62ea-0166-41ee-9955-5cd97f063bcf"},"vehicle_type_id":"4","last_reported":1722964098,"current_range_meters":30000,"station_id":"","pricing_plan_id":"cebpf4jnsgd1na2vs0mg"},{"bike_id":"6b0dae99-3cbb-45e9-a87f-f1da4b440c37","system_id":"levelo_inurba_marseille","lat":43.305706,"lon":5.365654,"is_reserved":false,"is_disabled":false,"rental_uris":{"android":"levelo://app?vid=6b0dae99-3cbb-45e9-a87f-f1da4b440c37","ios":"levelo://app?vid=6b0dae99-3cbb-45e9-a87f-f1da4b440c37"},"vehicle_type_id":"4","last_reported":1722964098,"current_range_meters":0,"station_id":"ce4bgs12rcd13ifvqcag","pricing_plan_id":"cebpf4jnsgd1na2vs0mg"},{"bike_id":"29752e75-7b0e-4512-a73c-8451050f46fa","system_id":"levelo_inurba_marseille","lat":43.3053,"lon":5.37064,"is_reserved":false,"is_disabled":false,"rental_uris":{"android":"levelo://app?vid=29752e75-7b0e-4512-a73c-8451050f46fa","ios":"levelo://app?vid=29752e75-7b0e-4512-a73c-8451050f46fa"},"vehicle_type_id":"4","last_reported":1722964098,"current_range_meters":8800,"station_id":"","pricing_plan_id":"cebpf4jnsgd1na2vs0mg"},{"bike_id":"dbcb35b6-d5f0-40af-86cf-1d310d6ed2dc","system_id":"levelo_inurba_marseille","lat":43.31121,"lon":5.37761,"is_reserved":false,"is_disabled":false,"rental_uris":{"android":"levelo://app?vid=dbcb35b6-d5f0-40af-86cf-1d310d6ed2dc","ios":"levelo://app?vid=dbcb35b6-d5f0-40af-86cf-1d310d6ed2dc"},"vehicle_type_id":"4","last_reported":1722964098,"current_range_meters":30000,"station_id":"ce4bgt92rcd13ifvqcg0","pricing_plan_id":"cebpf4jnsgd1na2vs0mg"},{"bike_id":"cb275924-a46c-4e3c-9d46-30033980d82c","system_id":"levelo_inurba_marseille","lat":43.311125,"lon":5.377624,"is_reserved":false,"is_disabled":false,"rental_uris":{"android":"levelo://app?vid=cb275924-a46c-4e3c-9d46-30033980d82c","ios":"levelo://app?vid=cb275924-a46c-4e3c-9d46-30033980d82c"},"vehicle_type_id":"4","last_reported":1722964098,"current_range_meters":31200,"station_id":"ce4bgt92rcd13ifvqcg0","pricing_plan_id":"cebpf4jnsgd1na2vs0mg"},{"bike_id":"77da7f28-9a05-43a0-ae82-14da4889f5aa","system_id":"levelo_inurba_marseille","lat":43.317075,"lon":5.377367,"is_reserved":false,"is_disabled":false,"rental_uris":{"android":"levelo://app?vid=77da7f28-9a05-43a0-ae82-14da4889f5aa","ios":"levelo://app?vid=77da7f28-9a05-43a0-ae82-14da4889f5aa"},"vehicle_type_id":"4","last_reported":1722964098,"current_range_meters":10800,"station_id":"ce4bgth2rcd13ifvqch0","pricing_plan_id":"cebpf4jnsgd1na2vs0mg"},{"bike_id":"55b40a0d-610b-45ae-acca-689e31c65508","system_id":"levelo_inurba_marseille","lat":43.31888,"lon":5.37715,"is_reserved":false,"is_disabled":false,"rental_uris":{"android":"levelo://app?vid=55b40a0d-610b-45ae-acca-689e31c65508","ios":"levelo://app?vid=55b40a0d-610b-45ae-acca-689e31c65508"},"vehicle_type_id":"4","last_reported":1722964098,"current_range_meters":0,"station_id":"","pricing_plan_id":"cebpf4jnsgd1na2vs0mg"},{"bike_id":"4486194b-1671-4361-8305-b1a3823af060","system_id":"levelo_inurba_marseille","lat":43.315323,"lon":5.38019,"is_reserved":false,"is_disabled":false,"rental_uris":{"android":"levelo://app?vid=4486194b-1671-4361-8305-b1a3823af060","ios":"levelo://app?vid=4486194b-1671-4361-8305-b1a3823af060"},"vehicle_type_id":"4","last_reported":1722964098,"current_range_meters":0,"station_id":"ce4bhsp2rcd13ifvqi50","pricing_plan_id":"cebpf4jnsgd1na2vs0mg"},{"bike_id":"7b382c00-3116-4b58-9577-b01916cf9016","system_id":"levelo_inurba_marseille","lat":43.30793,"lon":5.38163,"is_reserved":false,"is_disabled":false,"rental_uris":{"android":"levelo://app?vid=7b382c00-3116-4b58-9577-b01916cf9016","ios":"levelo://app?vid=7b382c00-3116-4b58-9577-b01916cf9016"},"vehicle_type_id":"4","last_reported":1722964098,"current_range_meters":0,"station_id":"ce4bgt12rcd13ifvqce0","pricing_plan_id":"cebpf4jnsgd1na2vs0mg"},{"bike_id":"4ef4d889-34fc-416d-bcde-747380a069e7","system_id":"levelo_inurba_marseille","lat":43.324771,"lon":5.36557,"is_reserved":false,"is_disabled":false,"rental_uris":{"android":"levelo://app?vid=4ef4d889-34fc-416d-bcde-747380a069e7","ios":"levelo://app?vid=4ef4d889-34fc-416d-bcde-747380a069e7"},"vehicle_type_id":"4","last_reported":1722964098,"current_range_meters":24000,"station_id":"ce4bhs12rcd13ifvqhvg","pricing_plan_id":"cebpf4jnsgd1na2vs0mg"},{"bike_id":"8c4daa72-9c24-496e-8ea5-456936fb71a6","system_id":"levelo_inurba_marseille","lat":43.324771,"lon":5.36557,"is_reserved":false,"is_disabled":false,"rental_uris":{"android":"levelo://app?vid=8c4daa72-9c24-496e-8ea5-456936fb71a6","ios":"levelo://app?vid=8c4daa72-9c24-496e-8ea5-456936fb71a6"},"vehicle_type_id":"4","last_reported":1722964098,"current_range_meters":17600,"station_id":"ce4bhs12rcd13ifvqhvg","pricing_plan_id":"cebpf4jnsgd1na2vs0mg"},{"bike_id":"cda4b2db-23d0-4243-89fb-040b4bd89a88","system_id":"levelo_inurba_marseille","lat":43.324818,"lon":5.365845,"is_reserved":false,"is_disabled":false,"rental_uris":{"android":"levelo://app?vid=cda4b2db-23d0-4243-89fb-040b4bd89a88","ios":"levelo://app?vid=cda4b2db-23d0-4243-89fb-040b4bd89a88"},"vehicle_type_id":"4","last_reported":1722964098,"current_range_meters":12000,"station_id":"ce4bhs12rcd13ifvqhvg","pricing_plan_id":"cebpf4jnsgd1na2vs0mg"},{"bike_id":"0fa3bca1-936c-4735-ac76-eea62a1b2047","system_id":"levelo_inurba_marseille","lat":43.324771,"lon":5.36557,"is_reserved":false,"is_disabled":false,"rental_uris":{"android":"levelo://app?vid=0fa3bca1-936c-4735-ac76-eea62a1b2047","ios":"levelo://app?vid=0fa3bca1-936c-4735-ac76-eea62a1b2047"},"vehicle_type_id":"4","last_reported":1722964098,"current_range_meters":16400,"station_id":"ce4bhs12rcd13ifvqhvg","pricing_plan_id":"cebpf4jnsgd1na2vs0mg"},{"bike_id":"e59842e6-65ae-4bcd-ae87-db816f11b6c5","system_id":"levelo_inurba_marseille","lat":43.324771,"lon":5.36557,"is_reserved":false,"is_disabled":false,"rental_uris":{"android":"levelo://app?vid=e59842e6-65ae-4bcd-ae87-db816f11b6c5","ios":"levelo://app?vid=e59842e6-65ae-4bcd-ae87-db816f11b6c5"},"vehicle_type_id":"4","last_reported":1722964098,"current_range_meters":31600,"station_id":"ce4bhs12rcd13ifvqhvg","pricing_plan_id":"cebpf4jnsgd1na2vs0mg"},{"bike_id":"e62181f5-6e0e-4bac-a8bf-c7f38669b3ef","system_id":"levelo_inurba_marseille","lat":43.32483,"lon":5.36573,"is_reserved":false,"is_disabled":false,"rental_uris":{"android":"levelo://app?vid=e62181f5-6e0e-4bac-a8bf-c7f38669b3ef","ios":"levelo://app?vid=e62181f5-6e0e-4bac-a8bf-c7f38669b3ef"},"vehicle_type_id":"4","last_reported":1722964098,"current_range_meters":9200,"station_id":"ce4bhs12rcd13ifvqhvg","pricing_plan_id":"cebpf4jnsgd1na2vs0mg"},{"bike_id":"ec4810b9-099c-4e7d-a0c2-34bd5fc15777","system_id":"levelo_inurba_marseille","lat":43.324833,"lon":5.365577,"is_reserved":false,"is_disabled":false,"rental_uris":{"android":"levelo://app?vid=ec4810b9-099c-4e7d-a0c2-34bd5fc15777","ios":"levelo://app?vid=ec4810b9-099c-4e7d-a0c2-34bd5fc15777"},"vehicle_type_id":"4","last_reported":1722964098,"current_range_meters":6800,"station_id":"ce4bhs12rcd13ifvqhvg","pricing_plan_id":"cebpf4jnsgd1na2vs0mg"},{"bike_id":"6c2a97c4-c472-418e-a8c2-c3aeebcb4250","system_id":"levelo_inurba_marseille","lat":43.324848,"lon":5.365707,"is_reserved":false,"is_disabled":false,"rental_uris":{"android":"levelo://app?vid=6c2a97c4-c472-418e-a8c2-c3aeebcb4250","ios":"levelo://app?vid=6c2a97c4-c472-418e-a8c2-c3aeebcb4250"},"vehicle_type_id":"4","last_reported":1722964098,"current_range_meters":2000,"station_id":"ce4bhs12rcd13ifvqhvg","pricing_plan_id":"cebpf4jnsgd1na2vs0mg"},{"bike_id":"67236220-b290-4733-96c4-a8c424b17241","system_id":"levelo_inurba_marseille","lat":43.32487,"lon":5.36572,"is_reserved":false,"is_disabled":false,"rental_uris":{"android":"levelo://app?vid=67236220-b290-4733-96c4-a8c424b17241","ios":"levelo://app?vid=67236220-b290-4733-96c4-a8c424b17241"},"vehicle_type_id":"4","last_reported":1722964098,"current_range_meters":4800,"station_id":"ce4bhs12rcd13ifvqhvg","pricing_plan_id":"cebpf4jnsgd1na2vs0mg"},{"bike_id":"644f6f9b-dd0f-42c0-805a-fc285185fe20","system_id":"levelo_inurba_marseille","lat":43.324869,"lon":5.365684,"is_reserved":false,"is_disabled":false,"rental_uris":{"android":"levelo://app?vid=644f6f9b-dd0f-42c0-805a-fc285185fe20","ios":"levelo://app?vid=644f6f9b-dd0f-42c0-805a-fc285185fe20"},"vehicle_type_id":"4","last_reported":1722964098,"current_range_meters":2000,"station_id":"ce4bhs12rcd13ifvqhvg","pricing_plan_id":"cebpf4jnsgd1na2vs0mg"},{"bike_id":"80a11af2-2565-4da6-94a7-0515d8ef8693","system_id":"levelo_inurba_marseille","lat":43.324877,"lon":5.3656,"is_reserved":false,"is_disabled":false,"rental_uris":{"android":"levelo://app?vid=80a11af2-2565-4da6-94a7-0515d8ef8693","ios":"levelo://app?vid=80a11af2-2565-4da6-94a7-0515d8ef8693"},"vehicle_type_id":"4","last_reported":1722964098,"current_range_meters":2000,"station_id":"ce4bhs12rcd13ifvqhvg","pricing_plan_id":"cebpf4jnsgd1na2vs0mg"},{"bike_id":"9bd0b47e-daaf-4f8e-8125-88c7315b1137","system_id":"levelo_inurba_marseille","lat":43.32489,"lon":5.36582,"is_reserved":false,"is_disabled":false,"rental_uris":{"android":"levelo://app?vid=9bd0b47e-daaf-4f8e-8125-88c7315b1137","ios":"levelo://app?vid=9bd0b47e-daaf-4f8e-8125-88c7315b1137"},"vehicle_type_id":"4","last_reported":1722964098,"current_range_meters":17200,"station_id":"ce4bhs12rcd13ifvqhvg","pricing_plan_id":"cebpf4jnsgd1na2vs0mg"},{"bike_id":"7318a218-d1c4-45e8-9229-aebf083ed7d5","system_id":"levelo_inurba_marseille","lat":43.310804,"lon":5.38359,"is_reserved":false,"is_disabled":false,"rental_uris":{"android":"levelo://app?vid=7318a218-d1c4-45e8-9229-aebf083ed7d5","ios":"levelo://app?vid=7318a218-d1c4-45e8-9229-aebf083ed7d5"},"vehicle_type_id":"4","last_reported":1722964098,"current_range_meters":14400,"station_id":"ce4bgv92rcd13ifvqcr0","pricing_plan_id":"cebpf4jnsgd1na2vs0mg"},{"bike_id":"762028b4-9035-433b-a442-993ec22cffcd","system_id":"levelo_inurba_marseille","lat":43.310804,"lon":5.38359,"is_reserved":false,"is_disabled":false,"rental_uris":{"android":"levelo://app?vid=762028b4-9035-433b-a442-993ec22cffcd","ios":"levelo://app?vid=762028b4-9035-433b-a442-993ec22cffcd"},"vehicle_type_id":"4","last_reported":1722964098,"current_range_meters":4800,"station_id":"ce4bgv92rcd13ifvqcr0","pricing_plan_id":"cebpf4jnsgd1na2vs0mg"},{"bike_id":"6ece644f-2183-47d8-a6ad-111b65d1770b","system_id":"levelo_inurba_marseille","lat":43.30257,"lon":5.3774,"is_reserved":false,"is_disabled":false,"rental_uris":{"android":"levelo://app?vid=6ece644f-2183-47d8-a6ad-111b65d1770b","ios":"levelo://app?vid=6ece644f-2183-47d8-a6ad-111b65d1770b"},"vehicle_type_id":"4","last_reported":1722964098,"current_range_meters":28000,"station_id":"","pricing_plan_id":"cebpf4jnsgd1na2vs0mg"},{"bike_id":"1085f984-4bd6-4dd3-8320-4eb14ce03c77","system_id":"levelo_inurba_marseille","lat":43.30526,"lon":5.38231,"is_reserved":false,"is_disabled":false,"rental_uris":{"android":"levelo://app?vid=1085f984-4bd6-4dd3-8320-4eb14ce03c77","ios":"levelo://app?vid=1085f984-4bd6-4dd3-8320-4eb14ce03c77"},"vehicle_type_id":"4","last_reported":1722964098,"current_range_meters":19200,"station_id":"","pricing_plan_id":"cebpf4jnsgd1na2vs0mg"},{"bike_id":"9b0cc5fe-8e1b-479d-8768-a8d3d6c1d354","system_id":"levelo_inurba_marseille","lat":43.299724,"lon":5.371829,"is_reserved":false,"is_disabled":false,"rental_uris":{"android":"levelo://app?vid=9b0cc5fe-8e1b-479d-8768-a8d3d6c1d354","ios":"levelo://app?vid=9b0cc5fe-8e1b-479d-8768-a8d3d6c1d354"},"vehicle_type_id":"4","last_reported":1722964098,"current_range_meters":0,"station_id":"ce4bgr92rcd13ifvqc7g","pricing_plan_id":"cebpf4jnsgd1na2vs0mg"},{"bike_id":"1f168c90-5ead-4590-a8d8-90b06c09034f","system_id":"levelo_inurba_marseille","lat":43.319935,"lon":5.381699,"is_reserved":false,"is_disabled":false,"rental_uris":{"android":"levelo://app?vid=1f168c90-5ead-4590-a8d8-90b06c09034f","ios":"levelo://app?vid=1f168c90-5ead-4590-a8d8-90b06c09034f"},"vehicle_type_id":"4","last_reported":1722964098,"current_range_meters":12000,"station_id":"ce4bhr12rcd13ifvqhpg","pricing_plan_id":"cebpf4jnsgd1na2vs0mg"},{"bike_id":"a322836a-9645-41aa-a950-a23baf42494c","system_id":"levelo_inurba_marseille","lat":43.299209,"lon":5.365547,"is_reserved":false,"is_disabled":false,"rental_uris":{"android":"levelo://app?vid=a322836a-9645-41aa-a950-a23baf42494c","ios":"levelo://app?vid=a322836a-9645-41aa-a950-a23baf42494c"},"vehicle_type_id":"4","last_reported":1722964098,"current_range_meters":15200,"station_id":"ce4bgm92rcd13ifvqbr0","pricing_plan_id":"cebpf4jnsgd1na2vs0mg"},{"bike_id":"29b1140a-0490-4938-b12b-c3304dac61e2","system_id":"levelo_inurba_marseille","lat":43.298433,"lon":5.362774,"is_reserved":false,"is_disabled":false,"rental_uris":{"android":"levelo://app?vid=29b1140a-0490-4938-b12b-c3304dac61e2","ios":"levelo://app?vid=29b1140a-0490-4938-b12b-c3304dac61e2"},"vehicle_type_id":"4","last_reported":1722964098,"current_range_meters":8400,"station_id":"ce4bgpp2rcd13ifvqc3g","pricing_plan_id":"cebpf4jnsgd1na2vs0mg"},{"bike_id":"4fe4b85d-449c-4f0f-a22a-67476c433261","system_id":"levelo_inurba_marseille","lat":43.298433,"lon":5.362774,"is_reserved":false,"is_disabled":false,"rental_uris":{"android":"levelo://app?vid=4fe4b85d-449c-4f0f-a22a-67476c433261","ios":"levelo://app?vid=4fe4b85d-449c-4f0f-a22a-67476c433261"},"vehicle_type_id":"4","last_reported":1722964098,"current_range_meters":0,"station_id":"ce4bgpp2rcd13ifvqc3g","pricing_plan_id":"cebpf4jnsgd1na2vs0mg"},{"bike_id":"c1083af9-88b0-491d-8c57-3a9f171dcbd2","system_id":"levelo_inurba_marseille","lat":43.29929,"lon":5.37454,"is_reserved":false,"is_disabled":false,"rental_uris":{"android":"levelo://app?vid=c1083af9-88b0-491d-8c57-3a9f171dcbd2","ios":"levelo://app?vid=c1083af9-88b0-491d-8c57-3a9f171dcbd2"},"vehicle_type_id":"4","last_reported":1722964098,"current_range_meters":0,"station_id":"ce4bgjh2rcd13ifvqbg0","pricing_plan_id":"cebpf4jnsgd1na2vs0mg"},{"bike_id":"a8474a30-2970-4890-8c18-fcc8dd82f6da","system_id":"levelo_inurba_marseille","lat":43.298433,"lon":5.362774,"is_reserved":false,"is_disabled":false,"rental_uris":{"android":"levelo://app?vid=a8474a30-2970-4890-8c18-fcc8dd82f6da","ios":"levelo://app?vid=a8474a30-2970-4890-8c18-fcc8dd82f6da"},"vehicle_type_id":"4","last_reported":1722964098,"current_range_meters":30000,"station_id":"ce4bgpp2rcd13ifvqc3g","pricing_plan_id":"cebpf4jnsgd1na2vs0mg"},{"bike_id":"606ad198-cef3-4f9b-95ca-bf11df396869","system_id":"levelo_inurba_marseille","lat":43.311722,"lon":5.387247,"is_reserved":false,"is_disabled":false,"rental_uris":{"android":"levelo://app?vid=606ad198-cef3-4f9b-95ca-bf11df396869","ios":"levelo://app?vid=606ad198-cef3-4f9b-95ca-bf11df396869"},"vehicle_type_id":"4","last_reported":1722964098,"current_range_meters":12400,"station_id":"ce4bgv12rcd13ifvqcp0","pricing_plan_id":"cebpf4jnsgd1na2vs0mg"},{"bike_id":"6a54cd55-a85d-4178-8e98-25ebce86fdc5","system_id":"levelo_inurba_marseille","lat":43.311722,"lon":5.387247,"is_reserved":false,"is_disabled":false,"rental_uris":{"android":"levelo://app?vid=6a54cd55-a85d-4178-8e98-25ebce86fdc5","ios":"levelo://app?vid=6a54cd55-a85d-4178-8e98-25ebce86fdc5"},"vehicle_type_id":"4","last_reported":1722964098,"current_range_meters":21200,"station_id":"ce4bgv12rcd13ifvqcp0","pricing_plan_id":"cebpf4jnsgd1na2vs0mg"},{"bike_id":"02d2635a-ae62-4058-ab03-2b7f6204671a","system_id":"levelo_inurba_marseille","lat":43.311722,"lon":5.387247,"is_reserved":false,"is_disabled":false,"rental_uris":{"android":"levelo://app?vid=02d2635a-ae62-4058-ab03-2b7f6204671a","ios":"levelo://app?vid=02d2635a-ae62-4058-ab03-2b7f6204671a"},"vehicle_type_id":"4","last_reported":1722964098,"current_range_meters":6800,"station_id":"ce4bgv12rcd13ifvqcp0","pricing_plan_id":"cebpf4jnsgd1na2vs0mg"},{"bike_id":"8740c3da-7416-4b89-bbb5-4ff83c2c4192","system_id":"levelo_inurba_marseille","lat":43.297163,"lon":5.365866,"is_reserved":false,"is_disabled":false,"rental_uris":{"android":"levelo://app?vid=8740c3da-7416-4b89-bbb5-4ff83c2c4192","ios":"levelo://app?vid=8740c3da-7416-4b89-bbb5-4ff83c2c4192"},"vehicle_type_id":"4","last_reported":1722964098,"current_range_meters":5200,"station_id":"ce4bgn12rcd13ifvqbt0","pricing_plan_id":"cebpf4jnsgd1na2vs0mg"},{"bike_id":"713354d5-a884-4f42-97a6-39bde7abac74","system_id":"levelo_inurba_marseille","lat":43.297163,"lon":5.365866,"is_reserved":false,"is_disabled":false,"rental_uris":{"android":"levelo://app?vid=713354d5-a884-4f42-97a6-39bde7abac74","ios":"levelo://app?vid=713354d5-a884-4f42-97a6-39bde7abac74"},"vehicle_type_id":"4","last_reported":1722964098,"current_range_meters":9200,"station_id":"ce4bgn12rcd13ifvqbt0","pricing_plan_id":"cebpf4jnsgd1na2vs0mg"},{"bike_id":"e104ae70-54a9-468e-98f9-c1863975610f","system_id":"levelo_inurba_marseille","lat":43.3214,"lon":5.38671,"is_reserved":false,"is_disabled":false,"rental_uris":{"android":"levelo://app?vid=e104ae70-54a9-468e-98f9-c1863975610f","ios":"levelo://app?vid=e104ae70-54a9-468e-98f9-c1863975610f"},"vehicle_type_id":"4","last_reported":1722964098,"current_range_meters":2400,"station_id":"","pricing_plan_id":"cebpf4jnsgd1na2vs0mg"},{"bike_id":"216240ef-238f-48ba-bd26-5d1c9cf540df","system_id":"levelo_inurba_marseille","lat":43.32143,"lon":5.38669,"is_reserved":false,"is_disabled":false,"rental_uris":{"android":"levelo://app?vid=216240ef-238f-48ba-bd26-5d1c9cf540df","ios":"levelo://app?vid=216240ef-238f-48ba-bd26-5d1c9cf540df"},"vehicle_type_id":"4","last_reported":1722964098,"current_range_meters":6400,"station_id":"","pricing_plan_id":"cebpf4jnsgd1na2vs0mg"},{"bike_id":"287328ce-3414-440f-8256-568cebb5278d","system_id":"levelo_inurba_marseille","lat":43.29573,"lon":5.367355,"is_reserved":false,"is_disabled":false,"rental_uris":{"android":"levelo://app?vid=287328ce-3414-440f-8256-568cebb5278d","ios":"levelo://app?vid=287328ce-3414-440f-8256-568cebb5278d"},"vehicle_type_id":"4","last_reported":1722964098,"current_range_meters":400,"station_id":"ce4bgph2rcd13ifvqc2g","pricing_plan_id":"cebpf4jnsgd1na2vs0mg"},{"bike_id":"a87234ad-67ce-4f39-92fb-e91f8a43bb95","system_id":"levelo_inurba_marseille","lat":43.29573,"lon":5.367355,"is_reserved":false,"is_disabled":false,"rental_uris":{"android":"levelo://app?vid=a87234ad-67ce-4f39-92fb-e91f8a43bb95","ios":"levelo://app?vid=a87234ad-67ce-4f39-92fb-e91f8a43bb95"},"vehicle_type_id":"4","last_reported":1722964098,"current_range_meters":0,"station_id":"ce4bgph2rcd13ifvqc2g","pricing_plan_id":"cebpf4jnsgd1na2vs0mg"},{"bike_id":"8d5c60ff-7191-4beb-8dac-8645d29fd698","system_id":"levelo_inurba_marseille","lat":43.309589,"lon":5.390258,"is_reserved":false,"is_disabled":false,"rental_uris":{"android":"levelo://app?vid=8d5c60ff-7191-4beb-8dac-8645d29fd698","ios":"levelo://app?vid=8d5c60ff-7191-4beb-8dac-8645d29fd698"},"vehicle_type_id":"4","last_reported":1722964098,"current_range_meters":1600,"station_id":"ce4bgup2rcd13ifvqco0","pricing_plan_id":"cebpf4jnsgd1na2vs0mg"},{"bike_id":"3d68700e-65c5-4304-b23a-d2d640763b16","system_id":"levelo_inurba_marseille","lat":43.3234,"lon":5.38567,"is_reserved":false,"is_disabled":false,"rental_uris":{"android":"levelo://app?vid=3d68700e-65c5-4304-b23a-d2d640763b16","ios":"levelo://app?vid=3d68700e-65c5-4304-b23a-d2d640763b16"},"vehicle_type_id":"4","last_reported":1722964098,"current_range_meters":20400,"station_id":"","pricing_plan_id":"cebpf4jnsgd1na2vs0mg"},{"bike_id":"2eb021d6-4c2b-442a-ad22-31f0675cbd83","system_id":"levelo_inurba_marseille","lat":43.323381,"lon":5.386151,"is_reserved":false,"is_disabled":false,"rental_uris":{"android":"levelo://app?vid=2eb021d6-4c2b-442a-ad22-31f0675cbd83","ios":"levelo://app?vid=2eb021d6-4c2b-442a-ad22-31f0675cbd83"},"vehicle_type_id":"4","last_reported":1722964098,"current_range_meters":4000,"station_id":"","pricing_plan_id":"cebpf4jnsgd1na2vs0mg"},{"bike_id":"6ea67285-8461-4246-8872-33dee1384921","system_id":"levelo_inurba_marseille","lat":43.317557,"lon":5.390173,"is_reserved":false,"is_disabled":false,"rental_uris":{"android":"levelo://app?vid=6ea67285-8461-4246-8872-33dee1384921","ios":"levelo://app?vid=6ea67285-8461-4246-8872-33dee1384921"},"vehicle_type_id":"4","last_reported":1722964098,"current_range_meters":31200,"station_id":"ce4bhqp2rcd13ifvqhng","pricing_plan_id":"cebpf4jnsgd1na2vs0mg"},{"bike_id":"4135400c-effb-4920-8806-27f5c62d53ec","system_id":"levelo_inurba_marseille","lat":43.3234,"lon":5.38628,"is_reserved":false,"is_disabled":false,"rental_uris":{"android":"levelo://app?vid=4135400c-effb-4920-8806-27f5c62d53ec","ios":"levelo://app?vid=4135400c-effb-4920-8806-27f5c62d53ec"},"vehicle_type_id":"4","last_reported":1722964098,"current_range_meters":12800,"station_id":"","pricing_plan_id":"cebpf4jnsgd1na2vs0mg"},{"bike_id":"509692e4-17a2-42bb-a121-31360ee7cfa9","system_id":"levelo_inurba_marseille","lat":43.295748,"lon":5.37522,"is_reserved":false,"is_disabled":false,"rental_uris":{"android":"levelo://app?vid=509692e4-17a2-42bb-a121-31360ee7cfa9","ios":"levelo://app?vid=509692e4-17a2-42bb-a121-31360ee7cfa9"},"vehicle_type_id":"4","last_reported":1722964098,"current_range_meters":5600,"station_id":"ce4bgh92rcd13ifvqb50","pricing_plan_id":"cebpf4jnsgd1na2vs0mg"},{"bike_id":"8bbb2c7a-83a4-4dee-bae0-71d1664d008d","system_id":"levelo_inurba_marseille","lat":43.29573,"lon":5.37518,"is_reserved":false,"is_disabled":false,"rental_uris":{"android":"levelo://app?vid=8bbb2c7a-83a4-4dee-bae0-71d1664d008d","ios":"levelo://app?vid=8bbb2c7a-83a4-4dee-bae0-71d1664d008d"},"vehicle_type_id":"4","last_reported":1722964098,"current_range_meters":0,"station_id":"ce4bgh92rcd13ifvqb50","pricing_plan_id":"cebpf4jnsgd1na2vs0mg"},{"bike_id":"33373ce7-4293-4733-90b0-becf8cc57e3f","system_id":"levelo_inurba_marseille","lat":43.2957,"lon":5.37521,"is_reserved":false,"is_disabled":false,"rental_uris":{"android":"levelo://app?vid=33373ce7-4293-4733-90b0-becf8cc57e3f","ios":"levelo://app?vid=33373ce7-4293-4733-90b0-becf8cc57e3f"},"vehicle_type_id":"4","last_reported":1722964098,"current_range_meters":20800,"station_id":"ce4bgh92rcd13ifvqb50","pricing_plan_id":"cebpf4jnsgd1na2vs0mg"},{"bike_id":"95398609-6bdc-4149-8108-3b6c87b6f5c4","system_id":"levelo_inurba_marseille","lat":43.299707,"lon":5.384859,"is_reserved":false,"is_disabled":false,"rental_uris":{"android":"levelo://app?vid=95398609-6bdc-4149-8108-3b6c87b6f5c4","ios":"levelo://app?vid=95398609-6bdc-4149-8108-3b6c87b6f5c4"},"vehicle_type_id":"4","last_reported":1722964098,"current_range_meters":18400,"station_id":"ce4bgj92rcd13ifvqbd0","pricing_plan_id":"cebpf4jnsgd1na2vs0mg"},{"bike_id":"18bf678d-2eed-40f9-ad55-df5d550760e0","system_id":"levelo_inurba_marseille","lat":43.314609,"lon":5.392121,"is_reserved":false,"is_disabled":false,"rental_uris":{"android":"levelo://app?vid=18bf678d-2eed-40f9-ad55-df5d550760e0","ios":"levelo://app?vid=18bf678d-2eed-40f9-ad55-df5d550760e0"},"vehicle_type_id":"4","last_reported":1722964098,"current_range_meters":20400,"station_id":"","pricing_plan_id":"cebpf4jnsgd1na2vs0mg"},{"bike_id":"4e48d164-4a88-4c6b-a2bb-669743b92587","system_id":"levelo_inurba_marseille","lat":43.299724,"lon":5.384848,"is_reserved":false,"is_disabled":false,"rental_uris":{"android":"levelo://app?vid=4e48d164-4a88-4c6b-a2bb-669743b92587","ios":"levelo://app?vid=4e48d164-4a88-4c6b-a2bb-669743b92587"},"vehicle_type_id":"4","last_reported":1722964098,"current_range_meters":0,"station_id":"ce4bgj92rcd13ifvqbd0","pricing_plan_id":"cebpf4jnsgd1na2vs0mg"},{"bike_id":"5c139007-202a-49f2-a839-f9bf9b3b5299","system_id":"levelo_inurba_marseille","lat":43.30393,"lon":5.38921,"is_reserved":false,"is_disabled":false,"rental_uris":{"android":"levelo://app?vid=5c139007-202a-49f2-a839-f9bf9b3b5299","ios":"levelo://app?vid=5c139007-202a-49f2-a839-f9bf9b3b5299"},"vehicle_type_id":"4","last_reported":1722964098,"current_range_meters":0,"station_id":"ce4bgk12rcd13ifvqbi0","pricing_plan_id":"cebpf4jnsgd1na2vs0mg"},{"bike_id":"ea3d474e-10a9-47b4-bca0-b6491961a14d","system_id":"levelo_inurba_marseille","lat":43.299717,"lon":5.384845,"is_reserved":false,"is_disabled":false,"rental_uris":{"android":"levelo://app?vid=ea3d474e-10a9-47b4-bca0-b6491961a14d","ios":"levelo://app?vid=ea3d474e-10a9-47b4-bca0-b6491961a14d"},"vehicle_type_id":"4","last_reported":1722964098,"current_range_meters":1200,"station_id":"ce4bgj92rcd13ifvqbd0","pricing_plan_id":"cebpf4jnsgd1na2vs0mg"},{"bike_id":"53f696b3-6eee-4eb7-9c93-171bf86dd1e0","system_id":"levelo_inurba_marseille","lat":43.32367,"lon":5.388836,"is_reserved":false,"is_disabled":false,"rental_uris":{"android":"levelo://app?vid=53f696b3-6eee-4eb7-9c93-171bf86dd1e0","ios":"levelo://app?vid=53f696b3-6eee-4eb7-9c93-171bf86dd1e0"},"vehicle_type_id":"4","last_reported":1722964098,"current_range_meters":0,"station_id":"ce4bhqp2rcd13ifvqhog","pricing_plan_id":"cebpf4jnsgd1na2vs0mg"},{"bike_id":"45e150b7-f1b8-4978-9f4a-c84bafa165c1","system_id":"levelo_inurba_marseille","lat":43.32367,"lon":5.388836,"is_reserved":false,"is_disabled":false,"rental_uris":{"android":"levelo://app?vid=45e150b7-f1b8-4978-9f4a-c84bafa165c1","ios":"levelo://app?vid=45e150b7-f1b8-4978-9f4a-c84bafa165c1"},"vehicle_type_id":"4","last_reported":1722964098,"current_range_meters":26400,"station_id":"ce4bhqp2rcd13ifvqhog","pricing_plan_id":"cebpf4jnsgd1na2vs0mg"},{"bike_id":"004d3877-1fe1-436b-be4d-cac50d6d793d","system_id":"levelo_inurba_marseille","lat":43.294953,"lon":5.37757,"is_reserved":false,"is_disabled":false,"rental_uris":{"android":"levelo://app?vid=004d3877-1fe1-436b-be4d-cac50d6d793d","ios":"levelo://app?vid=004d3877-1fe1-436b-be4d-cac50d6d793d"},"vehicle_type_id":"4","last_reported":1722964098,"current_range_meters":0,"station_id":"","pricing_plan_id":"cebpf4jnsgd1na2vs0mg"},{"bike_id":"b272b5e6-c9f5-45f3-ac5d-2f54be9ab78b","system_id":"levelo_inurba_marseille","lat":43.29602,"lon":5.381084,"is_reserved":false,"is_disabled":false,"rental_uris":{"android":"levelo://app?vid=b272b5e6-c9f5-45f3-ac5d-2f54be9ab78b","ios":"levelo://app?vid=b272b5e6-c9f5-45f3-ac5d-2f54be9ab78b"},"vehicle_type_id":"4","last_reported":1722964098,"current_range_meters":0,"station_id":"ce4bgl12rcd13ifvqbo0","pricing_plan_id":"cebpf4jnsgd1na2vs0mg"},{"bike_id":"7690542b-f91e-4ce3-9d72-40ae437dad58","system_id":"levelo_inurba_marseille","lat":43.292749,"lon":5.368398,"is_reserved":false,"is_disabled":false,"rental_uris":{"android":"levelo://app?vid=7690542b-f91e-4ce3-9d72-40ae437dad58","ios":"levelo://app?vid=7690542b-f91e-4ce3-9d72-40ae437dad58"},"vehicle_type_id":"4","last_reported":1722964098,"current_range_meters":0,"station_id":"ce4bhbp2rcd13ifvqesg","pricing_plan_id":"cebpf4jnsgd1na2vs0mg"},{"bike_id":"03238030-f2a8-43f2-b081-3513637dc7b6","system_id":"levelo_inurba_marseille","lat":43.29279,"lon":5.36839,"is_reserved":false,"is_disabled":false,"rental_uris":{"android":"levelo://app?vid=03238030-f2a8-43f2-b081-3513637dc7b6","ios":"levelo://app?vid=03238030-f2a8-43f2-b081-3513637dc7b6"},"vehicle_type_id":"4","last_reported":1722964098,"current_range_meters":30400,"station_id":"ce4bhbp2rcd13ifvqesg","pricing_plan_id":"cebpf4jnsgd1na2vs0mg"},{"bike_id":"a8984a3b-f2e4-4787-bb60-b4eb88e68534","system_id":"levelo_inurba_marseille","lat":43.292749,"lon":5.368398,"is_reserved":false,"is_disabled":false,"rental_uris":{"android":"levelo://app?vid=a8984a3b-f2e4-4787-bb60-b4eb88e68534","ios":"levelo://app?vid=a8984a3b-f2e4-4787-bb60-b4eb88e68534"},"vehicle_type_id":"4","last_reported":1722964098,"current_range_meters":0,"station_id":"ce4bhbp2rcd13ifvqesg","pricing_plan_id":"cebpf4jnsgd1na2vs0mg"},{"bike_id":"18881c67-3c79-413b-bba1-95bdb6124059","system_id":"levelo_inurba_marseille","lat":43.292749,"lon":5.368402,"is_reserved":false,"is_disabled":false,"rental_uris":{"android":"levelo://app?vid=18881c67-3c79-413b-bba1-95bdb6124059","ios":"levelo://app?vid=18881c67-3c79-413b-bba1-95bdb6124059"},"vehicle_type_id":"4","last_reported":1722964098,"current_range_meters":0,"station_id":"ce4bhbp2rcd13ifvqesg","pricing_plan_id":"cebpf4jnsgd1na2vs0mg"},{"bike_id":"d8929c53-ee66-48ea-8573-be315e126b17","system_id":"levelo_inurba_marseille","lat":43.292749,"lon":5.368402,"is_reserved":false,"is_disabled":false,"rental_uris":{"android":"levelo://app?vid=d8929c53-ee66-48ea-8573-be315e126b17","ios":"levelo://app?vid=d8929c53-ee66-48ea-8573-be315e126b17"},"vehicle_type_id":"4","last_reported":1722964098,"current_range_meters":0,"station_id":"ce4bhbp2rcd13ifvqesg","pricing_plan_id":"cebpf4jnsgd1na2vs0mg"},{"bike_id":"1e5bd011-11c5-4355-a9ef-f5be1fad0e7b","system_id":"levelo_inurba_marseille","lat":43.29272,"lon":5.36843,"is_reserved":false,"is_disabled":false,"rental_uris":{"android":"levelo://app?vid=1e5bd011-11c5-4355-a9ef-f5be1fad0e7b","ios":"levelo://app?vid=1e5bd011-11c5-4355-a9ef-f5be1fad0e7b"},"vehicle_type_id":"4","last_reported":1722964098,"current_range_meters":0,"station_id":"ce4bhbp2rcd13ifvqesg","pricing_plan_id":"cebpf4jnsgd1na2vs0mg"},{"bike_id":"e0008da1-7ccd-492a-9dbf-01df30ef3108","system_id":"levelo_inurba_marseille","lat":43.305994,"lon":5.393687,"is_reserved":false,"is_disabled":false,"rental_uris":{"android":"levelo://app?vid=e0008da1-7ccd-492a-9dbf-01df30ef3108","ios":"levelo://app?vid=e0008da1-7ccd-492a-9dbf-01df30ef3108"},"vehicle_type_id":"4","last_reported":1722964098,"current_range_meters":0,"station_id":"ce4bh0p2rcd13ifvqd80","pricing_plan_id":"cebpf4jnsgd1na2vs0mg"},{"bike_id":"08867aac-977a-456e-8c57-bff10b120b3f","system_id":"levelo_inurba_marseille","lat":43.30589,"lon":5.3936,"is_reserved":false,"is_disabled":false,"rental_uris":{"android":"levelo://app?vid=08867aac-977a-456e-8c57-bff10b120b3f","ios":"levelo://app?vid=08867aac-977a-456e-8c57-bff10b120b3f"},"vehicle_type_id":"4","last_reported":1722964098,"current_range_meters":0,"station_id":"ce4bh0p2rcd13ifvqd80","pricing_plan_id":"cebpf4jnsgd1na2vs0mg"},{"bike_id":"281e1536-eac4-4dca-b984-980c69ea54f0","system_id":"levelo_inurba_marseille","lat":43.303002,"lon":5.392142,"is_reserved":false,"is_disabled":false,"rental_uris":{"android":"levelo://app?vid=281e1536-eac4-4dca-b984-980c69ea54f0","ios":"levelo://app?vid=281e1536-eac4-4dca-b984-980c69ea54f0"},"vehicle_type_id":"4","last_reported":1722964098,"current_range_meters":0,"station_id":"ce4bgkh2rcd13ifvqbk0","pricing_plan_id":"cebpf4jnsgd1na2vs0mg"},{"bike_id":"726d7e61-dcfe-49ca-9d1a-46ab0e9d1b9c","system_id":"levelo_inurba_marseille","lat":43.302992,"lon":5.392136,"is_reserved":false,"is_disabled":false,"rental_uris":{"android":"levelo://app?vid=726d7e61-dcfe-49ca-9d1a-46ab0e9d1b9c","ios":"levelo://app?vid=726d7e61-dcfe-49ca-9d1a-46ab0e9d1b9c"},"vehicle_type_id":"4","last_reported":1722964098,"current_range_meters":9200,"station_id":"ce4bgkh2rcd13ifvqbk0","pricing_plan_id":"cebpf4jnsgd1na2vs0mg"},{"bike_id":"8d1e8053-d356-4af8-8299-7fb2ca516fcb","system_id":"levelo_inurba_marseille","lat":43.29222,"lon":5.36054,"is_reserved":false,"is_disabled":false,"rental_uris":{"android":"levelo://app?vid=8d1e8053-d356-4af8-8299-7fb2ca516fcb","ios":"levelo://app?vid=8d1e8053-d356-4af8-8299-7fb2ca516fcb"},"vehicle_type_id":"4","last_reported":1722964098,"current_range_meters":16400,"station_id":"ce4bhbh2rcd13ifvqeqg","pricing_plan_id":"cebpf4jnsgd1na2vs0mg"},{"bike_id":"90c9ec7a-7a80-4086-acd6-10629e296267","system_id":"levelo_inurba_marseille","lat":43.291671,"lon":5.371575,"is_reserved":false,"is_disabled":false,"rental_uris":{"android":"levelo://app?vid=90c9ec7a-7a80-4086-acd6-10629e296267","ios":"levelo://app?vid=90c9ec7a-7a80-4086-acd6-10629e296267"},"vehicle_type_id":"4","last_reported":1722964098,"current_range_meters":0,"station_id":"ce4bha92rcd13ifvqeh0","pricing_plan_id":"cebpf4jnsgd1na2vs0mg"},{"bike_id":"ad7c2a07-d14f-404d-94e7-2a12432a84fb","system_id":"levelo_inurba_marseille","lat":43.33239,"lon":5.37844,"is_reserved":false,"is_disabled":false,"rental_uris":{"android":"levelo://app?vid=ad7c2a07-d14f-404d-94e7-2a12432a84fb","ios":"levelo://app?vid=ad7c2a07-d14f-404d-94e7-2a12432a84fb"},"vehicle_type_id":"4","last_reported":1722964098,"current_range_meters":0,"station_id":"","pricing_plan_id":"cebpf4jnsgd1na2vs0mg"},{"bike_id":"6b109629-a764-4414-9caa-a91ff6d68c80","system_id":"levelo_inurba_marseille","lat":43.291994,"lon":5.357886,"is_reserved":false,"is_disabled":false,"rental_uris":{"android":"levelo://app?vid=6b109629-a764-4414-9caa-a91ff6d68c80","ios":"levelo://app?vid=6b109629-a764-4414-9caa-a91ff6d68c80"},"vehicle_type_id":"4","last_reported":1722964098,"current_range_meters":26400,"station_id":"ce4bhb12rcd13ifvqel0","pricing_plan_id":"cebpf4jnsgd1na2vs0mg"},{"bike_id":"f4dd75c8-b419-4241-bdcf-1d625ebb3a81","system_id":"levelo_inurba_marseille","lat":43.29196,"lon":5.35795,"is_reserved":false,"is_disabled":false,"rental_uris":{"android":"levelo://app?vid=f4dd75c8-b419-4241-bdcf-1d625ebb3a81","ios":"levelo://app?vid=f4dd75c8-b419-4241-bdcf-1d625ebb3a81"},"vehicle_type_id":"4","last_reported":1722964098,"current_range_meters":18000,"station_id":"ce4bhb12rcd13ifvqel0","pricing_plan_id":"cebpf4jnsgd1na2vs0mg"},{"bike_id":"fbbe3c47-26d9-44d8-8a0c-dc70b257254b","system_id":"levelo_inurba_marseille","lat":43.29193,"lon":5.35803,"is_reserved":false,"is_disabled":false,"rental_uris":{"android":"levelo://app?vid=fbbe3c47-26d9-44d8-8a0c-dc70b257254b","ios":"levelo://app?vid=fbbe3c47-26d9-44d8-8a0c-dc70b257254b"},"vehicle_type_id":"4","last_reported":1722964098,"current_range_meters":9200,"station_id":"ce4bhb12rcd13ifvqel0","pricing_plan_id":"cebpf4jnsgd1na2vs0mg"},{"bike_id":"1ed71b76-c9cb-49f9-a306-7b5f7676aefa","system_id":"levelo_inurba_marseille","lat":43.29187,"lon":5.35807,"is_reserved":false,"is_disabled":false,"rental_uris":{"android":"levelo://app?vid=1ed71b76-c9cb-49f9-a306-7b5f7676aefa","ios":"levelo://app?vid=1ed71b76-c9cb-49f9-a306-7b5f7676aefa"},"vehicle_type_id":"4","last_reported":1722964098,"current_range_meters":0,"station_id":"ce4bhb12rcd13ifvqel0","pricing_plan_id":"cebpf4jnsgd1na2vs0mg"},{"bike_id":"36da50d7-e45b-46bb-9950-cf947c88e8e1","system_id":"levelo_inurba_marseille","lat":43.290779,"lon":5.371482,"is_reserved":false,"is_disabled":false,"rental_uris":{"android":"levelo://app?vid=36da50d7-e45b-46bb-9950-cf947c88e8e1","ios":"levelo://app?vid=36da50d7-e45b-46bb-9950-cf947c88e8e1"},"vehicle_type_id":"4","last_reported":1722964098,"current_range_meters":400,"station_id":"ce4bh5p2rcd13ifvqe4g","pricing_plan_id":"cebpf4jnsgd1na2vs0mg"},{"bike_id":"b67c9c0b-a51b-48d6-9306-3576e7df8a0f","system_id":"levelo_inurba_marseille","lat":43.29075,"lon":5.37177,"is_reserved":false,"is_disabled":false,"rental_uris":{"android":"levelo://app?vid=b67c9c0b-a51b-48d6-9306-3576e7df8a0f","ios":"levelo://app?vid=b67c9c0b-a51b-48d6-9306-3576e7df8a0f"},"vehicle_type_id":"4","last_reported":1722964098,"current_range_meters":2400,"station_id":"ce4bh5p2rcd13ifvqe4g","pricing_plan_id":"cebpf4jnsgd1na2vs0mg"},{"bike_id":"50016350-e250-4bd0-bdaa-d6e0734dbb7f","system_id":"levelo_inurba_marseille","lat":43.29065,"lon":5.37159,"is_reserved":false,"is_disabled":false,"rental_uris":{"android":"levelo://app?vid=50016350-e250-4bd0-bdaa-d6e0734dbb7f","ios":"levelo://app?vid=50016350-e250-4bd0-bdaa-d6e0734dbb7f"},"vehicle_type_id":"4","last_reported":1722964098,"current_range_meters":31200,"station_id":"ce4bh5p2rcd13ifvqe4g","pricing_plan_id":"cebpf4jnsgd1na2vs0mg"},{"bike_id":"11fdddaa-ee66-46b3-a618-0059d7c1d91a","system_id":"levelo_inurba_marseille","lat":43.29064,"lon":5.37154,"is_reserved":false,"is_disabled":false,"rental_uris":{"android":"levelo://app?vid=11fdddaa-ee66-46b3-a618-0059d7c1d91a","ios":"levelo://app?vid=11fdddaa-ee66-46b3-a618-0059d7c1d91a"},"vehicle_type_id":"4","last_reported":1722964098,"current_range_meters":0,"station_id":"ce4bh5p2rcd13ifvqe4g","pricing_plan_id":"cebpf4jnsgd1na2vs0mg"},{"bike_id":"30dce9d1-8e5a-4bdf-ae9c-66d077aec795","system_id":"levelo_inurba_marseille","lat":43.302008,"lon":5.394694,"is_reserved":false,"is_disabled":false,"rental_uris":{"android":"levelo://app?vid=30dce9d1-8e5a-4bdf-ae9c-66d077aec795","ios":"levelo://app?vid=30dce9d1-8e5a-4bdf-ae9c-66d077aec795"},"vehicle_type_id":"4","last_reported":1722964098,"current_range_meters":11600,"station_id":"ce4bh0p2rcd13ifvqd70","pricing_plan_id":"cebpf4jnsgd1na2vs0mg"},{"bike_id":"3cb6ce2b-70a8-4fae-b30b-47440ca71464","system_id":"levelo_inurba_marseille","lat":43.290624,"lon":5.359245,"is_reserved":false,"is_disabled":false,"rental_uris":{"android":"levelo://app?vid=3cb6ce2b-70a8-4fae-b30b-47440ca71464","ios":"levelo://app?vid=3cb6ce2b-70a8-4fae-b30b-47440ca71464"},"vehicle_type_id":"4","last_reported":1722964098,"current_range_meters":6000,"station_id":"ce4bha92rcd13ifvqeg0","pricing_plan_id":"cebpf4jnsgd1na2vs0mg"},{"bike_id":"1ed8d875-2d01-44ab-b344-7438a2169c59","system_id":"levelo_inurba_marseille","lat":43.290624,"lon":5.359245,"is_reserved":false,"is_disabled":false,"rental_uris":{"android":"levelo://app?vid=1ed8d875-2d01-44ab-b344-7438a2169c59","ios":"levelo://app?vid=1ed8d875-2d01-44ab-b344-7438a2169c59"},"vehicle_type_id":"4","last_reported":1722964098,"current_range_meters":12000,"station_id":"ce4bha92rcd13ifvqeg0","pricing_plan_id":"cebpf4jnsgd1na2vs0mg"},{"bike_id":"25d7031c-700d-4bae-b4e3-8159dc534875","system_id":"levelo_inurba_marseille","lat":43.294153,"lon":5.386305,"is_reserved":false,"is_disabled":false,"rental_uris":{"android":"levelo://app?vid=25d7031c-700d-4bae-b4e3-8159dc534875","ios":"levelo://app?vid=25d7031c-700d-4bae-b4e3-8159dc534875"},"vehicle_type_id":"4","last_reported":1722964098,"current_range_meters":0,"station_id":"ce4bh2h2rcd13ifvqdh0","pricing_plan_id":"cebpf4jnsgd1na2vs0mg"},{"bike_id":"6befa7d3-5454-4e2c-a853-45c5c737ae1e","system_id":"levelo_inurba_marseille","lat":43.294153,"lon":5.386305,"is_reserved":false,"is_disabled":false,"rental_uris":{"android":"levelo://app?vid=6befa7d3-5454-4e2c-a853-45c5c737ae1e","ios":"levelo://app?vid=6befa7d3-5454-4e2c-a853-45c5c737ae1e"},"vehicle_type_id":"4","last_reported":1722964098,"current_range_meters":0,"station_id":"ce4bh2h2rcd13ifvqdh0","pricing_plan_id":"cebpf4jnsgd1na2vs0mg"},{"bike_id":"28e5ce00-1be8-4396-8fc2-3168a038bb70","system_id":"levelo_inurba_marseille","lat":43.294162,"lon":5.386292,"is_reserved":false,"is_disabled":false,"rental_uris":{"android":"levelo://app?vid=28e5ce00-1be8-4396-8fc2-3168a038bb70","ios":"levelo://app?vid=28e5ce00-1be8-4396-8fc2-3168a038bb70"},"vehicle_type_id":"4","last_reported":1722964098,"current_range_meters":0,"station_id":"ce4bh2h2rcd13ifvqdh0","pricing_plan_id":"cebpf4jnsgd1na2vs0mg"},{"bike_id":"fd96ed0a-6f53-44ab-a243-22b9534d8ca2","system_id":"levelo_inurba_marseille","lat":43.289333,"lon":5.366343,"is_reserved":false,"is_disabled":false,"rental_uris":{"android":"levelo://app?vid=fd96ed0a-6f53-44ab-a243-22b9534d8ca2","ios":"levelo://app?vid=fd96ed0a-6f53-44ab-a243-22b9534d8ca2"},"vehicle_type_id":"4","last_reported":1722964098,"current_range_meters":27200,"station_id":"ce4bhap2rcd13ifvqek0","pricing_plan_id":"cebpf4jnsgd1na2vs0mg"},{"bike_id":"19b09e44-91c2-44d1-b6ef-0b2f46e6ccfc","system_id":"levelo_inurba_marseille","lat":43.289468,"lon":5.363719,"is_reserved":false,"is_disabled":false,"rental_uris":{"android":"levelo://app?vid=19b09e44-91c2-44d1-b6ef-0b2f46e6ccfc","ios":"levelo://app?vid=19b09e44-91c2-44d1-b6ef-0b2f46e6ccfc"},"vehicle_type_id":"4","last_reported":1722964098,"current_range_meters":26800,"station_id":"ce4bhc92rcd13ifvqetg","pricing_plan_id":"cebpf4jnsgd1na2vs0mg"},{"bike_id":"1f0d90a6-f73c-4ddf-867e-fb8c78fee3c1","system_id":"levelo_inurba_marseille","lat":43.289343,"lon":5.363973,"is_reserved":false,"is_disabled":false,"rental_uris":{"android":"levelo://app?vid=1f0d90a6-f73c-4ddf-867e-fb8c78fee3c1","ios":"levelo://app?vid=1f0d90a6-f73c-4ddf-867e-fb8c78fee3c1"},"vehicle_type_id":"4","last_reported":1722964098,"current_range_meters":18000,"station_id":"ce4bhc92rcd13ifvqetg","pricing_plan_id":"cebpf4jnsgd1na2vs0mg"},{"bike_id":"83523441-9924-42f0-82e1-2cfca337be81","system_id":"levelo_inurba_marseille","lat":43.292644,"lon":5.384257,"is_reserved":false,"is_disabled":false,"rental_uris":{"android":"levelo://app?vid=83523441-9924-42f0-82e1-2cfca337be81","ios":"levelo://app?vid=83523441-9924-42f0-82e1-2cfca337be81"},"vehicle_type_id":"4","last_reported":1722964098,"current_range_meters":13600,"station_id":"ce4bh692rcd13ifvqea0","pricing_plan_id":"cebpf4jnsgd1na2vs0mg"},{"bike_id":"a8729358-9b42-4171-afcb-c8efec84e26c","system_id":"levelo_inurba_marseille","lat":43.292644,"lon":5.384257,"is_reserved":false,"is_disabled":false,"rental_uris":{"android":"levelo://app?vid=a8729358-9b42-4171-afcb-c8efec84e26c","ios":"levelo://app?vid=a8729358-9b42-4171-afcb-c8efec84e26c"},"vehicle_type_id":"4","last_reported":1722964098,"current_range_meters":24000,"station_id":"ce4bh692rcd13ifvqea0","pricing_plan_id":"cebpf4jnsgd1na2vs0mg"},{"bike_id":"8f1e4d6c-44b9-4681-b2e0-95164a5e653e","system_id":"levelo_inurba_marseille","lat":43.284219,"lon":5.3497,"is_reserved":false,"is_disabled":false,"rental_uris":{"android":"levelo://app?vid=8f1e4d6c-44b9-4681-b2e0-95164a5e653e","ios":"levelo://app?vid=8f1e4d6c-44b9-4681-b2e0-95164a5e653e"},"vehicle_type_id":"4","last_reported":1722964098,"current_range_meters":19200,"station_id":"ce4bhbh2rcd13ifvqepg","pricing_plan_id":"cebpf4jnsgd1na2vs0mg"},{"bike_id":"17081d56-70b6-494f-aeb5-93de6545e6d9","system_id":"levelo_inurba_marseille","lat":43.290104,"lon":5.356111,"is_reserved":false,"is_disabled":false,"rental_uris":{"android":"levelo://app?vid=17081d56-70b6-494f-aeb5-93de6545e6d9","ios":"levelo://app?vid=17081d56-70b6-494f-aeb5-93de6545e6d9"},"vehicle_type_id":"4","last_reported":1722964098,"current_range_meters":0,"station_id":"ce4bhb92rcd13ifvqen0","pricing_plan_id":"cebpf4jnsgd1na2vs0mg"},{"bike_id":"ef3104fd-1646-47b0-b27a-fa1a3cb2025d","system_id":"levelo_inurba_marseille","lat":43.290017,"lon":5.356201,"is_reserved":false,"is_disabled":false,"rental_uris":{"android":"levelo://app?vid=ef3104fd-1646-47b0-b27a-fa1a3cb2025d","ios":"levelo://app?vid=ef3104fd-1646-47b0-b27a-fa1a3cb2025d"},"vehicle_type_id":"4","last_reported":1722964098,"current_range_meters":24400,"station_id":"","pricing_plan_id":"cebpf4jnsgd1na2vs0mg"},{"bike_id":"afb80065-f5e6-46cf-acc7-5332b1819ed5","system_id":"levelo_inurba_marseille","lat":43.28999,"lon":5.35606,"is_reserved":false,"is_disabled":false,"rental_uris":{"android":"levelo://app?vid=afb80065-f5e6-46cf-acc7-5332b1819ed5","ios":"levelo://app?vid=afb80065-f5e6-46cf-acc7-5332b1819ed5"},"vehicle_type_id":"4","last_reported":1722964098,"current_range_meters":9200,"station_id":"ce4bhb92rcd13ifvqen0","pricing_plan_id":"cebpf4jnsgd1na2vs0mg"},{"bike_id":"1366f0e5-9f92-4d18-95af-bda1def33300","system_id":"levelo_inurba_marseille","lat":43.290995,"lon":5.381361,"is_reserved":false,"is_disabled":false,"rental_uris":{"android":"levelo://app?vid=1366f0e5-9f92-4d18-95af-bda1def33300","ios":"levelo://app?vid=1366f0e5-9f92-4d18-95af-bda1def33300"},"vehicle_type_id":"4","last_reported":1722964098,"current_range_meters":2000,"station_id":"ce4bh512rcd13ifvqe2g","pricing_plan_id":"cebpf4jnsgd1na2vs0mg"},{"bike_id":"1b261aec-beb2-4857-8609-b95ff2291839","system_id":"levelo_inurba_marseille","lat":43.28858,"lon":5.368668,"is_reserved":false,"is_disabled":false,"rental_uris":{"android":"levelo://app?vid=1b261aec-beb2-4857-8609-b95ff2291839","ios":"levelo://app?vid=1b261aec-beb2-4857-8609-b95ff2291839"},"vehicle_type_id":"4","last_reported":1722964098,"current_range_meters":14400,"station_id":"ce4bhc92rcd13ifvqetg","pricing_plan_id":"cebpf4jnsgd1na2vs0mg"},{"bike_id":"d2044407-0772-43d3-b60d-1c81ddff0783","system_id":"levelo_inurba_marseille","lat":43.297815,"lon":5.393548,"is_reserved":false,"is_disabled":false,"rental_uris":{"android":"levelo://app?vid=d2044407-0772-43d3-b60d-1c81ddff0783","ios":"levelo://app?vid=d2044407-0772-43d3-b60d-1c81ddff0783"},"vehicle_type_id":"4","last_reported":1722964098,"current_range_meters":0,"station_id":"chh1huq6cuj3fo74tm60","pricing_plan_id":"cebpf4jnsgd1na2vs0mg"},{"bike_id":"e7107531-6e96-4862-a9e3-8927910ec62e","system_id":"levelo_inurba_marseille","lat":43.297807,"lon":5.393533,"is_reserved":false,"is_disabled":false,"rental_uris":{"android":"levelo://app?vid=e7107531-6e96-4862-a9e3-8927910ec62e","ios":"levelo://app?vid=e7107531-6e96-4862-a9e3-8927910ec62e"},"vehicle_type_id":"4","last_reported":1722964098,"current_range_meters":14000,"station_id":"chh1huq6cuj3fo74tm60","pricing_plan_id":"cebpf4jnsgd1na2vs0mg"},{"bike_id":"ab5cd4a9-3968-4994-afd8-bace2daa9af2","system_id":"levelo_inurba_marseille","lat":43.297815,"lon":5.393548,"is_reserved":false,"is_disabled":false,"rental_uris":{"android":"levelo://app?vid=ab5cd4a9-3968-4994-afd8-bace2daa9af2","ios":"levelo://app?vid=ab5cd4a9-3968-4994-afd8-bace2daa9af2"},"vehicle_type_id":"4","last_reported":1722964098,"current_range_meters":2800,"station_id":"chh1huq6cuj3fo74tm60","pricing_plan_id":"cebpf4jnsgd1na2vs0mg"},{"bike_id":"1477ad33-c1bf-4eb1-a381-bc9d97a4aec7","system_id":"levelo_inurba_marseille","lat":43.29534,"lon":5.39031,"is_reserved":false,"is_disabled":false,"rental_uris":{"android":"levelo://app?vid=1477ad33-c1bf-4eb1-a381-bc9d97a4aec7","ios":"levelo://app?vid=1477ad33-c1bf-4eb1-a381-bc9d97a4aec7"},"vehicle_type_id":"4","last_reported":1722964098,"current_range_meters":0,"station_id":"ce4bh3p2rcd13ifvqdp0","pricing_plan_id":"cebpf4jnsgd1na2vs0mg"},{"bike_id":"12251cc2-5358-4728-a083-b3dde322bef3","system_id":"levelo_inurba_marseille","lat":43.295169,"lon":5.390426,"is_reserved":false,"is_disabled":false,"rental_uris":{"android":"levelo://app?vid=12251cc2-5358-4728-a083-b3dde322bef3","ios":"levelo://app?vid=12251cc2-5358-4728-a083-b3dde322bef3"},"vehicle_type_id":"4","last_reported":1722964098,"current_range_meters":4800,"station_id":"ce4bh3p2rcd13ifvqdp0","pricing_plan_id":"cebpf4jnsgd1na2vs0mg"},{"bike_id":"87768db0-f16f-4d63-9aa2-40b9348ff549","system_id":"levelo_inurba_marseille","lat":43.295169,"lon":5.390426,"is_reserved":false,"is_disabled":false,"rental_uris":{"android":"levelo://app?vid=87768db0-f16f-4d63-9aa2-40b9348ff549","ios":"levelo://app?vid=87768db0-f16f-4d63-9aa2-40b9348ff549"},"vehicle_type_id":"4","last_reported":1722964098,"current_range_meters":2000,"station_id":"ce4bh3p2rcd13ifvqdp0","pricing_plan_id":"cebpf4jnsgd1na2vs0mg"},{"bike_id":"132a16d1-4ceb-4ed5-82c3-bc0125455e88","system_id":"levelo_inurba_marseille","lat":43.295169,"lon":5.390426,"is_reserved":false,"is_disabled":false,"rental_uris":{"android":"levelo://app?vid=132a16d1-4ceb-4ed5-82c3-bc0125455e88","ios":"levelo://app?vid=132a16d1-4ceb-4ed5-82c3-bc0125455e88"},"vehicle_type_id":"4","last_reported":1722964098,"current_range_meters":6000,"station_id":"ce4bh3p2rcd13ifvqdp0","pricing_plan_id":"cebpf4jnsgd1na2vs0mg"},{"bike_id":"3ce24ad4-e870-4633-84f8-0329d9cae5db","system_id":"levelo_inurba_marseille","lat":43.330442,"lon":5.389148,"is_reserved":false,"is_disabled":false,"rental_uris":{"android":"levelo://app?vid=3ce24ad4-e870-4633-84f8-0329d9cae5db","ios":"levelo://app?vid=3ce24ad4-e870-4633-84f8-0329d9cae5db"},"vehicle_type_id":"4","last_reported":1722964098,"current_range_meters":7200,"station_id":"ce4bhr92rcd13ifvqhrg","pricing_plan_id":"cebpf4jnsgd1na2vs0mg"},{"bike_id":"e8833872-158d-4c81-b7fb-f3143a66b6b5","system_id":"levelo_inurba_marseille","lat":43.289741,"lon":5.378306,"is_reserved":false,"is_disabled":false,"rental_uris":{"android":"levelo://app?vid=e8833872-158d-4c81-b7fb-f3143a66b6b5","ios":"levelo://app?vid=e8833872-158d-4c81-b7fb-f3143a66b6b5"},"vehicle_type_id":"4","last_reported":1722964098,"current_range_meters":10400,"station_id":"ce4bh9p2rcd13ifvqed0","pricing_plan_id":"cebpf4jnsgd1na2vs0mg"},{"bike_id":"30a2b9da-83c8-45ab-b5d9-3ac45f0e5f26","system_id":"levelo_inurba_marseille","lat":43.289741,"lon":5.378306,"is_reserved":false,"is_disabled":false,"rental_uris":{"android":"levelo://app?vid=30a2b9da-83c8-45ab-b5d9-3ac45f0e5f26","ios":"levelo://app?vid=30a2b9da-83c8-45ab-b5d9-3ac45f0e5f26"},"vehicle_type_id":"4","last_reported":1722964098,"current_range_meters":18400,"station_id":"ce4bh9p2rcd13ifvqed0","pricing_plan_id":"cebpf4jnsgd1na2vs0mg"},{"bike_id":"0cd8e5d4-5ce1-40e1-84bd-71931ef2980d","system_id":"levelo_inurba_marseille","lat":43.295169,"lon":5.390426,"is_reserved":false,"is_disabled":false,"rental_uris":{"android":"levelo://app?vid=0cd8e5d4-5ce1-40e1-84bd-71931ef2980d","ios":"levelo://app?vid=0cd8e5d4-5ce1-40e1-84bd-71931ef2980d"},"vehicle_type_id":"4","last_reported":1722964098,"current_range_meters":0,"station_id":"ce4bh3p2rcd13ifvqdp0","pricing_plan_id":"cebpf4jnsgd1na2vs0mg"},{"bike_id":"fdfebfc3-3d6b-4726-aac0-ab932962aa97","system_id":"levelo_inurba_marseille","lat":43.31064,"lon":5.40083,"is_reserved":false,"is_disabled":false,"rental_uris":{"android":"levelo://app?vid=fdfebfc3-3d6b-4726-aac0-ab932962aa97","ios":"levelo://app?vid=fdfebfc3-3d6b-4726-aac0-ab932962aa97"},"vehicle_type_id":"4","last_reported":1722964098,"current_range_meters":30400,"station_id":"","pricing_plan_id":"cebpf4jnsgd1na2vs0mg"},{"bike_id":"d7394cc4-1568-4ec2-a77c-b31c3f81a021","system_id":"levelo_inurba_marseille","lat":43.310672,"lon":5.400901,"is_reserved":false,"is_disabled":false,"rental_uris":{"android":"levelo://app?vid=d7394cc4-1568-4ec2-a77c-b31c3f81a021","ios":"levelo://app?vid=d7394cc4-1568-4ec2-a77c-b31c3f81a021"},"vehicle_type_id":"4","last_reported":1722964098,"current_range_meters":3200,"station_id":"","pricing_plan_id":"cebpf4jnsgd1na2vs0mg"},{"bike_id":"6106f179-7d72-4257-b6a7-9d64af08838a","system_id":"levelo_inurba_marseille","lat":43.2901,"lon":5.381269,"is_reserved":false,"is_disabled":false,"rental_uris":{"android":"levelo://app?vid=6106f179-7d72-4257-b6a7-9d64af08838a","ios":"levelo://app?vid=6106f179-7d72-4257-b6a7-9d64af08838a"},"vehicle_type_id":"4","last_reported":1722964098,"current_range_meters":0,"station_id":"ce4bh4p2rcd13ifvqe1g","pricing_plan_id":"cebpf4jnsgd1na2vs0mg"},{"bike_id":"de420f65-b43d-4f9b-9eeb-c4b9d02f2599","system_id":"levelo_inurba_marseille","lat":43.28952,"lon":5.35478,"is_reserved":false,"is_disabled":false,"rental_uris":{"android":"levelo://app?vid=de420f65-b43d-4f9b-9eeb-c4b9d02f2599","ios":"levelo://app?vid=de420f65-b43d-4f9b-9eeb-c4b9d02f2599"},"vehicle_type_id":"4","last_reported":1722964098,"current_range_meters":21600,"station_id":"","pricing_plan_id":"cebpf4jnsgd1na2vs0mg"},{"bike_id":"431c2c86-2c9b-4718-a98d-13a15652e966","system_id":"levelo_inurba_marseille","lat":43.28856,"lon":5.358371,"is_reserved":false,"is_disabled":false,"rental_uris":{"android":"levelo://app?vid=431c2c86-2c9b-4718-a98d-13a15652e966","ios":"levelo://app?vid=431c2c86-2c9b-4718-a98d-13a15652e966"},"vehicle_type_id":"4","last_reported":1722964098,"current_range_meters":6000,"station_id":"ce4bhb12rcd13ifvqem0","pricing_plan_id":"cebpf4jnsgd1na2vs0mg"},{"bike_id":"14b924b1-6869-44b5-acfa-d2c55673d957","system_id":"levelo_inurba_marseille","lat":43.288562,"lon":5.358487,"is_reserved":false,"is_disabled":false,"rental_uris":{"android":"levelo://app?vid=14b924b1-6869-44b5-acfa-d2c55673d957","ios":"levelo://app?vid=14b924b1-6869-44b5-acfa-d2c55673d957"},"vehicle_type_id":"4","last_reported":1722964098,"current_range_meters":6400,"station_id":"ce4bhb12rcd13ifvqem0","pricing_plan_id":"cebpf4jnsgd1na2vs0mg"},{"bike_id":"2954a274-e5b2-405a-9ef8-40eff287821e","system_id":"levelo_inurba_marseille","lat":43.28856,"lon":5.358371,"is_reserved":false,"is_disabled":false,"rental_uris":{"android":"levelo://app?vid=2954a274-e5b2-405a-9ef8-40eff287821e","ios":"levelo://app?vid=2954a274-e5b2-405a-9ef8-40eff287821e"},"vehicle_type_id":"4","last_reported":1722964098,"current_range_meters":31600,"station_id":"ce4bhb12rcd13ifvqem0","pricing_plan_id":"cebpf4jnsgd1na2vs0mg"},{"bike_id":"bab8e37e-276f-4316-ae94-5c62b8d9f460","system_id":"levelo_inurba_marseille","lat":43.28856,"lon":5.358371,"is_reserved":false,"is_disabled":false,"rental_uris":{"android":"levelo://app?vid=bab8e37e-276f-4316-ae94-5c62b8d9f460","ios":"levelo://app?vid=bab8e37e-276f-4316-ae94-5c62b8d9f460"},"vehicle_type_id":"4","last_reported":1722964098,"current_range_meters":800,"station_id":"ce4bhb12rcd13ifvqem0","pricing_plan_id":"cebpf4jnsgd1na2vs0mg"},{"bike_id":"1977a909-3001-4bf6-b59a-b3760c6ec42e","system_id":"levelo_inurba_marseille","lat":43.28856,"lon":5.358371,"is_reserved":false,"is_disabled":false,"rental_uris":{"android":"levelo://app?vid=1977a909-3001-4bf6-b59a-b3760c6ec42e","ios":"levelo://app?vid=1977a909-3001-4bf6-b59a-b3760c6ec42e"},"vehicle_type_id":"4","last_reported":1722964098,"current_range_meters":15200,"station_id":"ce4bhb12rcd13ifvqem0","pricing_plan_id":"cebpf4jnsgd1na2vs0mg"},{"bike_id":"be36d243-dc55-45d5-95f6-7a766ad16194","system_id":"levelo_inurba_marseille","lat":43.28856,"lon":5.358371,"is_reserved":false,"is_disabled":false,"rental_uris":{"android":"levelo://app?vid=be36d243-dc55-45d5-95f6-7a766ad16194","ios":"levelo://app?vid=be36d243-dc55-45d5-95f6-7a766ad16194"},"vehicle_type_id":"4","last_reported":1722964098,"current_range_meters":14400,"station_id":"ce4bhb12rcd13ifvqem0","pricing_plan_id":"cebpf4jnsgd1na2vs0mg"},{"bike_id":"7b6f7ba1-ebf9-435f-b87b-da8b6caebd34","system_id":"levelo_inurba_marseille","lat":43.28854,"lon":5.35838,"is_reserved":false,"is_disabled":false,"rental_uris":{"android":"levelo://app?vid=7b6f7ba1-ebf9-435f-b87b-da8b6caebd34","ios":"levelo://app?vid=7b6f7ba1-ebf9-435f-b87b-da8b6caebd34"},"vehicle_type_id":"4","last_reported":1722964098,"current_range_meters":31200,"station_id":"ce4bhb12rcd13ifvqem0","pricing_plan_id":"cebpf4jnsgd1na2vs0mg"},{"bike_id":"c23e6af4-9d1a-4768-b951-31dae32e92a3","system_id":"levelo_inurba_marseille","lat":43.28856,"lon":5.358371,"is_reserved":false,"is_disabled":false,"rental_uris":{"android":"levelo://app?vid=c23e6af4-9d1a-4768-b951-31dae32e92a3","ios":"levelo://app?vid=c23e6af4-9d1a-4768-b951-31dae32e92a3"},"vehicle_type_id":"4","last_reported":1722964098,"current_range_meters":6000,"station_id":"ce4bhb12rcd13ifvqem0","pricing_plan_id":"cebpf4jnsgd1na2vs0mg"},{"bike_id":"fc41d8b3-40a7-436f-a20f-6ca35822c24c","system_id":"levelo_inurba_marseille","lat":43.28856,"lon":5.358371,"is_reserved":false,"is_disabled":false,"rental_uris":{"android":"levelo://app?vid=fc41d8b3-40a7-436f-a20f-6ca35822c24c","ios":"levelo://app?vid=fc41d8b3-40a7-436f-a20f-6ca35822c24c"},"vehicle_type_id":"4","last_reported":1722964098,"current_range_meters":17200,"station_id":"ce4bhb12rcd13ifvqem0","pricing_plan_id":"cebpf4jnsgd1na2vs0mg"},{"bike_id":"226a7839-1412-4eab-ad41-da08849a00c6","system_id":"levelo_inurba_marseille","lat":43.28856,"lon":5.358371,"is_reserved":false,"is_disabled":false,"rental_uris":{"android":"levelo://app?vid=226a7839-1412-4eab-ad41-da08849a00c6","ios":"levelo://app?vid=226a7839-1412-4eab-ad41-da08849a00c6"},"vehicle_type_id":"4","last_reported":1722964098,"current_range_meters":31200,"station_id":"ce4bhb12rcd13ifvqem0","pricing_plan_id":"cebpf4jnsgd1na2vs0mg"},{"bike_id":"d750bcce-438c-435d-9137-6ae2629a9eb0","system_id":"levelo_inurba_marseille","lat":43.28856,"lon":5.358371,"is_reserved":false,"is_disabled":false,"rental_uris":{"android":"levelo://app?vid=d750bcce-438c-435d-9137-6ae2629a9eb0","ios":"levelo://app?vid=d750bcce-438c-435d-9137-6ae2629a9eb0"},"vehicle_type_id":"4","last_reported":1722964098,"current_range_meters":0,"station_id":"ce4bhb12rcd13ifvqem0","pricing_plan_id":"cebpf4jnsgd1na2vs0mg"},{"bike_id":"8ae58062-8b07-411f-9cf5-375885dc586d","system_id":"levelo_inurba_marseille","lat":43.312609,"lon":5.401662,"is_reserved":false,"is_disabled":false,"rental_uris":{"android":"levelo://app?vid=8ae58062-8b07-411f-9cf5-375885dc586d","ios":"levelo://app?vid=8ae58062-8b07-411f-9cf5-375885dc586d"},"vehicle_type_id":"4","last_reported":1722964098,"current_range_meters":12000,"station_id":"ce4bh092rcd13ifvqd30","pricing_plan_id":"cebpf4jnsgd1na2vs0mg"},{"bike_id":"ec5efdaf-d607-483c-a19f-d602e49bf5b4","system_id":"levelo_inurba_marseille","lat":43.30937,"lon":5.40134,"is_reserved":false,"is_disabled":false,"rental_uris":{"android":"levelo://app?vid=ec5efdaf-d607-483c-a19f-d602e49bf5b4","ios":"levelo://app?vid=ec5efdaf-d607-483c-a19f-d602e49bf5b4"},"vehicle_type_id":"4","last_reported":1722964098,"current_range_meters":0,"station_id":"ce4bgvp2rcd13ifvqct0","pricing_plan_id":"cebpf4jnsgd1na2vs0mg"},{"bike_id":"56b7a1e3-2761-424b-b354-cf8badd99956","system_id":"levelo_inurba_marseille","lat":43.309371,"lon":5.401449,"is_reserved":false,"is_disabled":false,"rental_uris":{"android":"levelo://app?vid=56b7a1e3-2761-424b-b354-cf8badd99956","ios":"levelo://app?vid=56b7a1e3-2761-424b-b354-cf8badd99956"},"vehicle_type_id":"4","last_reported":1722964098,"current_range_meters":0,"station_id":"ce4bgvp2rcd13ifvqct0","pricing_plan_id":"cebpf4jnsgd1na2vs0mg"},{"bike_id":"ac75d8e5-5139-4e43-a64e-51e7994c2517","system_id":"levelo_inurba_marseille","lat":43.337444,"lon":5.374475,"is_reserved":false,"is_disabled":false,"rental_uris":{"android":"levelo://app?vid=ac75d8e5-5139-4e43-a64e-51e7994c2517","ios":"levelo://app?vid=ac75d8e5-5139-4e43-a64e-51e7994c2517"},"vehicle_type_id":"3","last_reported":1722964098,"current_range_meters":24800,"station_id":"","pricing_plan_id":"cebpf4jnsgd1na2vs0mg"},{"bike_id":"0c81b3c3-f342-4cec-be4b-42cd32773f29","system_id":"levelo_inurba_marseille","lat":43.337574,"lon":5.374593,"is_reserved":false,"is_disabled":false,"rental_uris":{"android":"levelo://app?vid=0c81b3c3-f342-4cec-be4b-42cd32773f29","ios":"levelo://app?vid=0c81b3c3-f342-4cec-be4b-42cd32773f29"},"vehicle_type_id":"4","last_reported":1722964098,"current_range_meters":25600,"station_id":"","pricing_plan_id":"cebpf4jnsgd1na2vs0mg"},{"bike_id":"f19eda0f-35ea-4543-8d56-a804a9dd3323","system_id":"levelo_inurba_marseille","lat":43.301117,"lon":5.398795,"is_reserved":false,"is_disabled":false,"rental_uris":{"android":"levelo://app?vid=f19eda0f-35ea-4543-8d56-a804a9dd3323","ios":"levelo://app?vid=f19eda0f-35ea-4543-8d56-a804a9dd3323"},"vehicle_type_id":"4","last_reported":1722964098,"current_range_meters":2400,"station_id":"ce4bh0h2rcd13ifvqd40","pricing_plan_id":"cebpf4jnsgd1na2vs0mg"},{"bike_id":"36f85ddb-9f8b-4c64-bc9a-0f807e73c357","system_id":"levelo_inurba_marseille","lat":43.301117,"lon":5.398795,"is_reserved":false,"is_disabled":false,"rental_uris":{"android":"levelo://app?vid=36f85ddb-9f8b-4c64-bc9a-0f807e73c357","ios":"levelo://app?vid=36f85ddb-9f8b-4c64-bc9a-0f807e73c357"},"vehicle_type_id":"4","last_reported":1722964098,"current_range_meters":3200,"station_id":"ce4bh0h2rcd13ifvqd40","pricing_plan_id":"cebpf4jnsgd1na2vs0mg"},{"bike_id":"71239cc7-b8bd-4e18-ab78-f253fd2b621f","system_id":"levelo_inurba_marseille","lat":43.315801,"lon":5.402511,"is_reserved":false,"is_disabled":false,"rental_uris":{"android":"levelo://app?vid=71239cc7-b8bd-4e18-ab78-f253fd2b621f","ios":"levelo://app?vid=71239cc7-b8bd-4e18-ab78-f253fd2b621f"},"vehicle_type_id":"4","last_reported":1722964098,"current_range_meters":31200,"station_id":"","pricing_plan_id":"cebpf4jnsgd1na2vs0mg"},{"bike_id":"e9198f8d-cb82-4528-8367-7739e37b37f4","system_id":"levelo_inurba_marseille","lat":43.286593,"lon":5.363346,"is_reserved":false,"is_disabled":false,"rental_uris":{"android":"levelo://app?vid=e9198f8d-cb82-4528-8367-7739e37b37f4","ios":"levelo://app?vid=e9198f8d-cb82-4528-8367-7739e37b37f4"},"vehicle_type_id":"4","last_reported":1722964098,"current_range_meters":16400,"station_id":"ce4bhah2rcd13ifvqej0","pricing_plan_id":"cebpf4jnsgd1na2vs0mg"},{"bike_id":"79123c81-211b-46e8-9aa1-e6dbafd76cb4","system_id":"levelo_inurba_marseille","lat":43.298681,"lon":5.397225,"is_reserved":false,"is_disabled":false,"rental_uris":{"android":"levelo://app?vid=79123c81-211b-46e8-9aa1-e6dbafd76cb4","ios":"levelo://app?vid=79123c81-211b-46e8-9aa1-e6dbafd76cb4"},"vehicle_type_id":"4","last_reported":1722964098,"current_range_meters":11600,"station_id":"ce4bh0h2rcd13ifvqd50","pricing_plan_id":"cebpf4jnsgd1na2vs0mg"},{"bike_id":"602e354d-594f-49a9-ac52-429edaa8796a","system_id":"levelo_inurba_marseille","lat":43.315861,"lon":5.402611,"is_reserved":false,"is_disabled":false,"rental_uris":{"android":"levelo://app?vid=602e354d-594f-49a9-ac52-429edaa8796a","ios":"levelo://app?vid=602e354d-594f-49a9-ac52-429edaa8796a"},"vehicle_type_id":"4","last_reported":1722964098,"current_range_meters":16800,"station_id":"","pricing_plan_id":"cebpf4jnsgd1na2vs0mg"},{"bike_id":"d18c4885-45b9-4bcf-b85a-34481d0023ca","system_id":"levelo_inurba_marseille","lat":43.286961,"lon":5.373785,"is_reserved":false,"is_disabled":false,"rental_uris":{"android":"levelo://app?vid=d18c4885-45b9-4bcf-b85a-34481d0023ca","ios":"levelo://app?vid=d18c4885-45b9-4bcf-b85a-34481d0023ca"},"vehicle_type_id":"4","last_reported":1722964098,"current_range_meters":29600,"station_id":"ce4bh3p2rcd13ifvqdq0","pricing_plan_id":"cebpf4jnsgd1na2vs0mg"},{"bike_id":"1e9ab1bd-bd43-474e-bca1-d710fddee9b4","system_id":"levelo_inurba_marseille","lat":43.286591,"lon":5.363346,"is_reserved":false,"is_disabled":false,"rental_uris":{"android":"levelo://app?vid=1e9ab1bd-bd43-474e-bca1-d710fddee9b4","ios":"levelo://app?vid=1e9ab1bd-bd43-474e-bca1-d710fddee9b4"},"vehicle_type_id":"4","last_reported":1722964098,"current_range_meters":6400,"station_id":"ce4bhah2rcd13ifvqej0","pricing_plan_id":"cebpf4jnsgd1na2vs0mg"},{"bike_id":"ba5a9614-0cb1-48dc-b004-287dc595a5b4","system_id":"levelo_inurba_marseille","lat":43.286591,"lon":5.363346,"is_reserved":false,"is_disabled":false,"rental_uris":{"android":"levelo://app?vid=ba5a9614-0cb1-48dc-b004-287dc595a5b4","ios":"levelo://app?vid=ba5a9614-0cb1-48dc-b004-287dc595a5b4"},"vehicle_type_id":"4","last_reported":1722964098,"current_range_meters":0,"station_id":"ce4bhah2rcd13ifvqej0","pricing_plan_id":"cebpf4jnsgd1na2vs0mg"},{"bike_id":"7e28a165-3ba7-4d7e-998b-ddb8e7d768b2","system_id":"levelo_inurba_marseille","lat":43.286593,"lon":5.363346,"is_reserved":false,"is_disabled":false,"rental_uris":{"android":"levelo://app?vid=7e28a165-3ba7-4d7e-998b-ddb8e7d768b2","ios":"levelo://app?vid=7e28a165-3ba7-4d7e-998b-ddb8e7d768b2"},"vehicle_type_id":"4","last_reported":1722964098,"current_range_meters":0,"station_id":"ce4bhah2rcd13ifvqej0","pricing_plan_id":"cebpf4jnsgd1na2vs0mg"},{"bike_id":"6d2228d7-7181-4347-9e8d-9db2c1b862b4","system_id":"levelo_inurba_marseille","lat":43.286593,"lon":5.363346,"is_reserved":false,"is_disabled":false,"rental_uris":{"android":"levelo://app?vid=6d2228d7-7181-4347-9e8d-9db2c1b862b4","ios":"levelo://app?vid=6d2228d7-7181-4347-9e8d-9db2c1b862b4"},"vehicle_type_id":"4","last_reported":1722964098,"current_range_meters":25200,"station_id":"ce4bhah2rcd13ifvqej0","pricing_plan_id":"cebpf4jnsgd1na2vs0mg"},{"bike_id":"c51d7703-5d0c-434e-b4d2-60acd7b3d69f","system_id":"levelo_inurba_marseille","lat":43.286593,"lon":5.363346,"is_reserved":false,"is_disabled":false,"rental_uris":{"android":"levelo://app?vid=c51d7703-5d0c-434e-b4d2-60acd7b3d69f","ios":"levelo://app?vid=c51d7703-5d0c-434e-b4d2-60acd7b3d69f"},"vehicle_type_id":"4","last_reported":1722964098,"current_range_meters":3600,"station_id":"ce4bhah2rcd13ifvqej0","pricing_plan_id":"cebpf4jnsgd1na2vs0mg"},{"bike_id":"e77036d1-7c8e-4a51-8660-8526c3afe785","system_id":"levelo_inurba_marseille","lat":43.302759,"lon":5.400793,"is_reserved":false,"is_disabled":false,"rental_uris":{"android":"levelo://app?vid=e77036d1-7c8e-4a51-8660-8526c3afe785","ios":"levelo://app?vid=e77036d1-7c8e-4a51-8660-8526c3afe785"},"vehicle_type_id":"4","last_reported":1722964098,"current_range_meters":800,"station_id":"ce4bgvh2rcd13ifvqcs0","pricing_plan_id":"cebpf4jnsgd1na2vs0mg"},{"bike_id":"2483fb62-654e-461e-8615-e94f37f6c563","system_id":"levelo_inurba_marseille","lat":43.302759,"lon":5.400793,"is_reserved":false,"is_disabled":false,"rental_uris":{"android":"levelo://app?vid=2483fb62-654e-461e-8615-e94f37f6c563","ios":"levelo://app?vid=2483fb62-654e-461e-8615-e94f37f6c563"},"vehicle_type_id":"4","last_reported":1722964098,"current_range_meters":6000,"station_id":"ce4bgvh2rcd13ifvqcs0","pricing_plan_id":"cebpf4jnsgd1na2vs0mg"},{"bike_id":"92193056-6dd2-4876-ac99-a418d51cbab7","system_id":"levelo_inurba_marseille","lat":43.289307,"lon":5.38406,"is_reserved":false,"is_disabled":false,"rental_uris":{"android":"levelo://app?vid=92193056-6dd2-4876-ac99-a418d51cbab7","ios":"levelo://app?vid=92193056-6dd2-4876-ac99-a418d51cbab7"},"vehicle_type_id":"4","last_reported":1722964098,"current_range_meters":0,"station_id":"ce4bh612rcd13ifvqe6g","pricing_plan_id":"cebpf4jnsgd1na2vs0mg"},{"bike_id":"f35170b4-fd7f-48e7-a8b8-41611ca975b6","system_id":"levelo_inurba_marseille","lat":43.302759,"lon":5.400793,"is_reserved":false,"is_disabled":false,"rental_uris":{"android":"levelo://app?vid=f35170b4-fd7f-48e7-a8b8-41611ca975b6","ios":"levelo://app?vid=f35170b4-fd7f-48e7-a8b8-41611ca975b6"},"vehicle_type_id":"4","last_reported":1722964098,"current_range_meters":15600,"station_id":"ce4bgvh2rcd13ifvqcs0","pricing_plan_id":"cebpf4jnsgd1na2vs0mg"},{"bike_id":"e0ed3740-92fa-402a-a9e8-72b7af88bdd4","system_id":"levelo_inurba_marseille","lat":43.302759,"lon":5.400793,"is_reserved":false,"is_disabled":false,"rental_uris":{"android":"levelo://app?vid=e0ed3740-92fa-402a-a9e8-72b7af88bdd4","ios":"levelo://app?vid=e0ed3740-92fa-402a-a9e8-72b7af88bdd4"},"vehicle_type_id":"4","last_reported":1722964098,"current_range_meters":5600,"station_id":"ce4bgvh2rcd13ifvqcs0","pricing_plan_id":"cebpf4jnsgd1na2vs0mg"},{"bike_id":"3e31232d-1029-4e58-bdbc-df4d6a9fae6a","system_id":"levelo_inurba_marseille","lat":43.286039,"lon":5.370679,"is_reserved":false,"is_disabled":false,"rental_uris":{"android":"levelo://app?vid=3e31232d-1029-4e58-bdbc-df4d6a9fae6a","ios":"levelo://app?vid=3e31232d-1029-4e58-bdbc-df4d6a9fae6a"},"vehicle_type_id":"4","last_reported":1722964098,"current_range_meters":5600,"station_id":"ce4bht12rcd13ifvqi60","pricing_plan_id":"cebpf4jnsgd1na2vs0mg"},{"bike_id":"b7cc6d4f-2a16-402c-acb8-b2a07320b252","system_id":"levelo_inurba_marseille","lat":43.28614,"lon":5.37057,"is_reserved":false,"is_disabled":false,"rental_uris":{"android":"levelo://app?vid=b7cc6d4f-2a16-402c-acb8-b2a07320b252","ios":"levelo://app?vid=b7cc6d4f-2a16-402c-acb8-b2a07320b252"},"vehicle_type_id":"4","last_reported":1722964098,"current_range_meters":10000,"station_id":"ce4bht12rcd13ifvqi60","pricing_plan_id":"cebpf4jnsgd1na2vs0mg"},{"bike_id":"a48c8d4b-d029-465b-aee3-8429f0c114ba","system_id":"levelo_inurba_marseille","lat":43.286039,"lon":5.370679,"is_reserved":false,"is_disabled":false,"rental_uris":{"android":"levelo://app?vid=a48c8d4b-d029-465b-aee3-8429f0c114ba","ios":"levelo://app?vid=a48c8d4b-d029-465b-aee3-8429f0c114ba"},"vehicle_type_id":"4","last_reported":1722964098,"current_range_meters":0,"station_id":"ce4bht12rcd13ifvqi60","pricing_plan_id":"cebpf4jnsgd1na2vs0mg"},{"bike_id":"12cac797-a664-4b5e-a6c8-f5c74e01a63f","system_id":"levelo_inurba_marseille","lat":43.2861,"lon":5.37049,"is_reserved":false,"is_disabled":false,"rental_uris":{"android":"levelo://app?vid=12cac797-a664-4b5e-a6c8-f5c74e01a63f","ios":"levelo://app?vid=12cac797-a664-4b5e-a6c8-f5c74e01a63f"},"vehicle_type_id":"4","last_reported":1722964098,"current_range_meters":0,"station_id":"ce4bht12rcd13ifvqi60","pricing_plan_id":"cebpf4jnsgd1na2vs0mg"},{"bike_id":"90a7d07c-b0b2-4791-a6f3-66a2d7c1e077","system_id":"levelo_inurba_marseille","lat":43.2861,"lon":5.37058,"is_reserved":false,"is_disabled":false,"rental_uris":{"android":"levelo://app?vid=90a7d07c-b0b2-4791-a6f3-66a2d7c1e077","ios":"levelo://app?vid=90a7d07c-b0b2-4791-a6f3-66a2d7c1e077"},"vehicle_type_id":"4","last_reported":1722964098,"current_range_meters":0,"station_id":"ce4bht12rcd13ifvqi60","pricing_plan_id":"cebpf4jnsgd1na2vs0mg"},{"bike_id":"fd004cbe-2c99-4ea2-9b55-19fae3bbca84","system_id":"levelo_inurba_marseille","lat":43.2861,"lon":5.37059,"is_reserved":false,"is_disabled":false,"rental_uris":{"android":"levelo://app?vid=fd004cbe-2c99-4ea2-9b55-19fae3bbca84","ios":"levelo://app?vid=fd004cbe-2c99-4ea2-9b55-19fae3bbca84"},"vehicle_type_id":"4","last_reported":1722964098,"current_range_meters":0,"station_id":"ce4bht12rcd13ifvqi60","pricing_plan_id":"cebpf4jnsgd1na2vs0mg"},{"bike_id":"3f5c7fba-cdd7-4456-b485-b7494a9fe1e5","system_id":"levelo_inurba_marseille","lat":43.28609,"lon":5.37068,"is_reserved":false,"is_disabled":false,"rental_uris":{"android":"levelo://app?vid=3f5c7fba-cdd7-4456-b485-b7494a9fe1e5","ios":"levelo://app?vid=3f5c7fba-cdd7-4456-b485-b7494a9fe1e5"},"vehicle_type_id":"4","last_reported":1722964098,"current_range_meters":17600,"station_id":"ce4bht12rcd13ifvqi60","pricing_plan_id":"cebpf4jnsgd1na2vs0mg"},{"bike_id":"87e12663-3741-4d71-8cc0-1de28bea5f84","system_id":"levelo_inurba_marseille","lat":43.31164,"lon":5.40391,"is_reserved":false,"is_disabled":false,"rental_uris":{"android":"levelo://app?vid=87e12663-3741-4d71-8cc0-1de28bea5f84","ios":"levelo://app?vid=87e12663-3741-4d71-8cc0-1de28bea5f84"},"vehicle_type_id":"4","last_reported":1722964098,"current_range_meters":30800,"station_id":"","pricing_plan_id":"cebpf4jnsgd1na2vs0mg"},{"bike_id":"74adc0a6-ec47-4dc1-bcd9-a354bf63c60b","system_id":"levelo_inurba_marseille","lat":43.284538,"lon":5.358657,"is_reserved":false,"is_disabled":false,"rental_uris":{"android":"levelo://app?vid=74adc0a6-ec47-4dc1-bcd9-a354bf63c60b","ios":"levelo://app?vid=74adc0a6-ec47-4dc1-bcd9-a354bf63c60b"},"vehicle_type_id":"4","last_reported":1722964098,"current_range_meters":21200,"station_id":"ce4bhah2rcd13ifvqei0","pricing_plan_id":"cebpf4jnsgd1na2vs0mg"},{"bike_id":"ff1b2f92-0769-41fd-96c0-892e2917f295","system_id":"levelo_inurba_marseille","lat":43.28461,"lon":5.35899,"is_reserved":false,"is_disabled":false,"rental_uris":{"android":"levelo://app?vid=ff1b2f92-0769-41fd-96c0-892e2917f295","ios":"levelo://app?vid=ff1b2f92-0769-41fd-96c0-892e2917f295"},"vehicle_type_id":"4","last_reported":1722964098,"current_range_meters":16400,"station_id":"ce4bhah2rcd13ifvqei0","pricing_plan_id":"cebpf4jnsgd1na2vs0mg"},{"bike_id":"c2e17e92-795b-416e-bb0d-40d6189c5885","system_id":"levelo_inurba_marseille","lat":43.294314,"lon":5.397498,"is_reserved":false,"is_disabled":false,"rental_uris":{"android":"levelo://app?vid=c2e17e92-795b-416e-bb0d-40d6189c5885","ios":"levelo://app?vid=c2e17e92-795b-416e-bb0d-40d6189c5885"},"vehicle_type_id":"4","last_reported":1722964098,"current_range_meters":400,"station_id":"ce4bh3h2rcd13ifvqdo0","pricing_plan_id":"cebpf4jnsgd1na2vs0mg"},{"bike_id":"84d4f698-e70b-4622-854f-2cd3c5b982aa","system_id":"levelo_inurba_marseille","lat":43.28453,"lon":5.35881,"is_reserved":false,"is_disabled":false,"rental_uris":{"android":"levelo://app?vid=84d4f698-e70b-4622-854f-2cd3c5b982aa","ios":"levelo://app?vid=84d4f698-e70b-4622-854f-2cd3c5b982aa"},"vehicle_type_id":"4","last_reported":1722964098,"current_range_meters":0,"station_id":"ce4bhah2rcd13ifvqei0","pricing_plan_id":"cebpf4jnsgd1na2vs0mg"},{"bike_id":"8ac41bd2-1454-474e-830e-473eabca64d2","system_id":"levelo_inurba_marseille","lat":43.28619,"lon":5.35106,"is_reserved":false,"is_disabled":false,"rental_uris":{"android":"levelo://app?vid=8ac41bd2-1454-474e-830e-473eabca64d2","ios":"levelo://app?vid=8ac41bd2-1454-474e-830e-473eabca64d2"},"vehicle_type_id":"4","last_reported":1722964098,"current_range_meters":27200,"station_id":"ce4bhch2rcd13ifvqeug","pricing_plan_id":"cebpf4jnsgd1na2vs0mg"},{"bike_id":"92439637-8cc3-414f-9b0f-b9ea2540bcc1","system_id":"levelo_inurba_marseille","lat":43.28619,"lon":5.35103,"is_reserved":false,"is_disabled":false,"rental_uris":{"android":"levelo://app?vid=92439637-8cc3-414f-9b0f-b9ea2540bcc1","ios":"levelo://app?vid=92439637-8cc3-414f-9b0f-b9ea2540bcc1"},"vehicle_type_id":"4","last_reported":1722964098,"current_range_meters":10400,"station_id":"ce4bhch2rcd13ifvqeug","pricing_plan_id":"cebpf4jnsgd1na2vs0mg"},{"bike_id":"fc896676-37a4-44fc-8fcc-4f5278fcb492","system_id":"levelo_inurba_marseille","lat":43.33208,"lon":5.39656,"is_reserved":false,"is_disabled":false,"rental_uris":{"android":"levelo://app?vid=fc896676-37a4-44fc-8fcc-4f5278fcb492","ios":"levelo://app?vid=fc896676-37a4-44fc-8fcc-4f5278fcb492"},"vehicle_type_id":"4","last_reported":1722964098,"current_range_meters":11200,"station_id":"","pricing_plan_id":"cebpf4jnsgd1na2vs0mg"},{"bike_id":"ffd7dea4-bba5-4799-a0cc-f85d59cc57fb","system_id":"levelo_inurba_marseille","lat":43.28617,"lon":5.35105,"is_reserved":false,"is_disabled":false,"rental_uris":{"android":"levelo://app?vid=ffd7dea4-bba5-4799-a0cc-f85d59cc57fb","ios":"levelo://app?vid=ffd7dea4-bba5-4799-a0cc-f85d59cc57fb"},"vehicle_type_id":"4","last_reported":1722964098,"current_range_meters":11200,"station_id":"ce4bhch2rcd13ifvqeug","pricing_plan_id":"cebpf4jnsgd1na2vs0mg"},{"bike_id":"b9e64fa7-5a6d-4500-9a72-ec95c463e8f0","system_id":"levelo_inurba_marseille","lat":43.28616,"lon":5.35101,"is_reserved":false,"is_disabled":false,"rental_uris":{"android":"levelo://app?vid=b9e64fa7-5a6d-4500-9a72-ec95c463e8f0","ios":"levelo://app?vid=b9e64fa7-5a6d-4500-9a72-ec95c463e8f0"},"vehicle_type_id":"4","last_reported":1722964098,"current_range_meters":4400,"station_id":"ce4bhch2rcd13ifvqeug","pricing_plan_id":"cebpf4jnsgd1na2vs0mg"},{"bike_id":"cb642482-dd3e-4a4b-969f-80724b24f1f4","system_id":"levelo_inurba_marseille","lat":43.28615,"lon":5.35103,"is_reserved":false,"is_disabled":false,"rental_uris":{"android":"levelo://app?vid=cb642482-dd3e-4a4b-969f-80724b24f1f4","ios":"levelo://app?vid=cb642482-dd3e-4a4b-969f-80724b24f1f4"},"vehicle_type_id":"4","last_reported":1722964098,"current_range_meters":10800,"station_id":"ce4bhch2rcd13ifvqeug","pricing_plan_id":"cebpf4jnsgd1na2vs0mg"},{"bike_id":"53823d2d-c713-459b-b019-b943355e5612","system_id":"levelo_inurba_marseille","lat":43.28616,"lon":5.35099,"is_reserved":false,"is_disabled":false,"rental_uris":{"android":"levelo://app?vid=53823d2d-c713-459b-b019-b943355e5612","ios":"levelo://app?vid=53823d2d-c713-459b-b019-b943355e5612"},"vehicle_type_id":"4","last_reported":1722964098,"current_range_meters":12000,"station_id":"ce4bhch2rcd13ifvqeug","pricing_plan_id":"cebpf4jnsgd1na2vs0mg"},{"bike_id":"409d36b7-aa50-48ba-906e-dc7a06e51a06","system_id":"levelo_inurba_marseille","lat":43.28615,"lon":5.35099,"is_reserved":false,"is_disabled":false,"rental_uris":{"android":"levelo://app?vid=409d36b7-aa50-48ba-906e-dc7a06e51a06","ios":"levelo://app?vid=409d36b7-aa50-48ba-906e-dc7a06e51a06"},"vehicle_type_id":"4","last_reported":1722964098,"current_range_meters":20000,"station_id":"ce4bhch2rcd13ifvqeug","pricing_plan_id":"cebpf4jnsgd1na2vs0mg"},{"bike_id":"d3a7067b-296e-4b16-a2f4-e8fc84dca61c","system_id":"levelo_inurba_marseille","lat":43.28615,"lon":5.35098,"is_reserved":false,"is_disabled":false,"rental_uris":{"android":"levelo://app?vid=d3a7067b-296e-4b16-a2f4-e8fc84dca61c","ios":"levelo://app?vid=d3a7067b-296e-4b16-a2f4-e8fc84dca61c"},"vehicle_type_id":"4","last_reported":1722964098,"current_range_meters":31200,"station_id":"ce4bhch2rcd13ifvqeug","pricing_plan_id":"cebpf4jnsgd1na2vs0mg"},{"bike_id":"84f3b33e-0114-4864-aa1c-d1a992775a00","system_id":"levelo_inurba_marseille","lat":43.285856,"lon":5.350771,"is_reserved":false,"is_disabled":false,"rental_uris":{"android":"levelo://app?vid=84f3b33e-0114-4864-aa1c-d1a992775a00","ios":"levelo://app?vid=84f3b33e-0114-4864-aa1c-d1a992775a00"},"vehicle_type_id":"4","last_reported":1722964098,"current_range_meters":31200,"station_id":"ce4bhch2rcd13ifvqeug","pricing_plan_id":"cebpf4jnsgd1na2vs0mg"},{"bike_id":"53615b6d-a308-4713-a339-76900105a6f0","system_id":"levelo_inurba_marseille","lat":43.28614,"lon":5.351,"is_reserved":false,"is_disabled":false,"rental_uris":{"android":"levelo://app?vid=53615b6d-a308-4713-a339-76900105a6f0","ios":"levelo://app?vid=53615b6d-a308-4713-a339-76900105a6f0"},"vehicle_type_id":"4","last_reported":1722964098,"current_range_meters":13200,"station_id":"ce4bhch2rcd13ifvqeug","pricing_plan_id":"cebpf4jnsgd1na2vs0mg"},{"bike_id":"9367a086-3681-45ff-a129-db1fa9c74c5f","system_id":"levelo_inurba_marseille","lat":43.28614,"lon":5.35099,"is_reserved":false,"is_disabled":false,"rental_uris":{"android":"levelo://app?vid=9367a086-3681-45ff-a129-db1fa9c74c5f","ios":"levelo://app?vid=9367a086-3681-45ff-a129-db1fa9c74c5f"},"vehicle_type_id":"4","last_reported":1722964098,"current_range_meters":4800,"station_id":"ce4bhch2rcd13ifvqeug","pricing_plan_id":"cebpf4jnsgd1na2vs0mg"},{"bike_id":"6e9eb80f-516f-4aa2-8546-06da39987b30","system_id":"levelo_inurba_marseille","lat":43.28613,"lon":5.351,"is_reserved":false,"is_disabled":false,"rental_uris":{"android":"levelo://app?vid=6e9eb80f-516f-4aa2-8546-06da39987b30","ios":"levelo://app?vid=6e9eb80f-516f-4aa2-8546-06da39987b30"},"vehicle_type_id":"4","last_reported":1722964098,"current_range_meters":0,"station_id":"ce4bhch2rcd13ifvqeug","pricing_plan_id":"cebpf4jnsgd1na2vs0mg"},{"bike_id":"78623947-215a-4eab-a45b-2f4dc12d64bc","system_id":"levelo_inurba_marseille","lat":43.28613,"lon":5.35097,"is_reserved":false,"is_disabled":false,"rental_uris":{"android":"levelo://app?vid=78623947-215a-4eab-a45b-2f4dc12d64bc","ios":"levelo://app?vid=78623947-215a-4eab-a45b-2f4dc12d64bc"},"vehicle_type_id":"4","last_reported":1722964098,"current_range_meters":31200,"station_id":"ce4bhch2rcd13ifvqeug","pricing_plan_id":"cebpf4jnsgd1na2vs0mg"},{"bike_id":"65f67af9-fc29-431d-bcde-5c0e752c6c7a","system_id":"levelo_inurba_marseille","lat":43.285856,"lon":5.350771,"is_reserved":false,"is_disabled":false,"rental_uris":{"android":"levelo://app?vid=65f67af9-fc29-431d-bcde-5c0e752c6c7a","ios":"levelo://app?vid=65f67af9-fc29-431d-bcde-5c0e752c6c7a"},"vehicle_type_id":"4","last_reported":1722964098,"current_range_meters":3600,"station_id":"ce4bhch2rcd13ifvqeug","pricing_plan_id":"cebpf4jnsgd1na2vs0mg"},{"bike_id":"df117e61-cc11-44dc-a97d-d7897260de96","system_id":"levelo_inurba_marseille","lat":43.283998,"lon":5.375062,"is_reserved":false,"is_disabled":false,"rental_uris":{"android":"levelo://app?vid=df117e61-cc11-44dc-a97d-d7897260de96","ios":"levelo://app?vid=df117e61-cc11-44dc-a97d-d7897260de96"},"vehicle_type_id":"4","last_reported":1722964098,"current_range_meters":14400,"station_id":"ce4bh412rcd13ifvqds0","pricing_plan_id":"cebpf4jnsgd1na2vs0mg"},{"bike_id":"bda34a36-41eb-40c9-b0da-15b7a2af0e7f","system_id":"levelo_inurba_marseille","lat":43.283998,"lon":5.375062,"is_reserved":false,"is_disabled":false,"rental_uris":{"android":"levelo://app?vid=bda34a36-41eb-40c9-b0da-15b7a2af0e7f","ios":"levelo://app?vid=bda34a36-41eb-40c9-b0da-15b7a2af0e7f"},"vehicle_type_id":"4","last_reported":1722964098,"current_range_meters":26400,"station_id":"ce4bh412rcd13ifvqds0","pricing_plan_id":"cebpf4jnsgd1na2vs0mg"},{"bike_id":"d0b6a547-f205-4553-83a7-e0a38a6fe23d","system_id":"levelo_inurba_marseille","lat":43.28406,"lon":5.37511,"is_reserved":false,"is_disabled":false,"rental_uris":{"android":"levelo://app?vid=d0b6a547-f205-4553-83a7-e0a38a6fe23d","ios":"levelo://app?vid=d0b6a547-f205-4553-83a7-e0a38a6fe23d"},"vehicle_type_id":"4","last_reported":1722964098,"current_range_meters":31200,"station_id":"ce4bh412rcd13ifvqds0","pricing_plan_id":"cebpf4jnsgd1na2vs0mg"},{"bike_id":"6d8644bf-d051-4270-b788-43a4d614c24c","system_id":"levelo_inurba_marseille","lat":43.295713,"lon":5.399639,"is_reserved":false,"is_disabled":false,"rental_uris":{"android":"levelo://app?vid=6d8644bf-d051-4270-b788-43a4d614c24c","ios":"levelo://app?vid=6d8644bf-d051-4270-b788-43a4d614c24c"},"vehicle_type_id":"4","last_reported":1722964098,"current_range_meters":23600,"station_id":"ce4bh312rcd13ifvqdj0","pricing_plan_id":"cebpf4jnsgd1na2vs0mg"},{"bike_id":"7adb59b5-6de8-4cfc-a527-7b5d51b0cf14","system_id":"levelo_inurba_marseille","lat":43.28517,"lon":5.35295,"is_reserved":false,"is_disabled":false,"rental_uris":{"android":"levelo://app?vid=7adb59b5-6de8-4cfc-a527-7b5d51b0cf14","ios":"levelo://app?vid=7adb59b5-6de8-4cfc-a527-7b5d51b0cf14"},"vehicle_type_id":"4","last_reported":1722964098,"current_range_meters":7200,"station_id":"","pricing_plan_id":"cebpf4jnsgd1na2vs0mg"},{"bike_id":"973c5d15-7929-4fb9-b64f-31b9aae76b9c","system_id":"levelo_inurba_marseille","lat":43.283998,"lon":5.375062,"is_reserved":false,"is_disabled":false,"rental_uris":{"android":"levelo://app?vid=973c5d15-7929-4fb9-b64f-31b9aae76b9c","ios":"levelo://app?vid=973c5d15-7929-4fb9-b64f-31b9aae76b9c"},"vehicle_type_id":"4","last_reported":1722964098,"current_range_meters":13600,"station_id":"ce4bh412rcd13ifvqds0","pricing_plan_id":"cebpf4jnsgd1na2vs0mg"},{"bike_id":"e467e28e-be66-4e42-871b-455235afa72d","system_id":"levelo_inurba_marseille","lat":43.31035,"lon":5.40746,"is_reserved":false,"is_disabled":false,"rental_uris":{"android":"levelo://app?vid=e467e28e-be66-4e42-871b-455235afa72d","ios":"levelo://app?vid=e467e28e-be66-4e42-871b-455235afa72d"},"vehicle_type_id":"4","last_reported":1722964098,"current_range_meters":30800,"station_id":"","pricing_plan_id":"cebpf4jnsgd1na2vs0mg"},{"bike_id":"710d42fd-fe6a-4953-9648-67f2a2b117e3","system_id":"levelo_inurba_marseille","lat":43.28675,"lon":5.38654,"is_reserved":false,"is_disabled":false,"rental_uris":{"android":"levelo://app?vid=710d42fd-fe6a-4953-9648-67f2a2b117e3","ios":"levelo://app?vid=710d42fd-fe6a-4953-9648-67f2a2b117e3"},"vehicle_type_id":"4","last_reported":1722964098,"current_range_meters":0,"station_id":"ce4bh492rcd13ifvqdug","pricing_plan_id":"cebpf4jnsgd1na2vs0mg"},{"bike_id":"c5b8ef68-5748-4cb6-a4c3-c539e18c61fc","system_id":"levelo_inurba_marseille","lat":43.28678,"lon":5.3867,"is_reserved":false,"is_disabled":false,"rental_uris":{"android":"levelo://app?vid=c5b8ef68-5748-4cb6-a4c3-c539e18c61fc","ios":"levelo://app?vid=c5b8ef68-5748-4cb6-a4c3-c539e18c61fc"},"vehicle_type_id":"4","last_reported":1722964098,"current_range_meters":3600,"station_id":"ce4bh492rcd13ifvqdug","pricing_plan_id":"cebpf4jnsgd1na2vs0mg"},{"bike_id":"d642ab05-ea66-47c4-a8bf-8eeb6f492b21","system_id":"levelo_inurba_marseille","lat":43.28661,"lon":5.38653,"is_reserved":false,"is_disabled":false,"rental_uris":{"android":"levelo://app?vid=d642ab05-ea66-47c4-a8bf-8eeb6f492b21","ios":"levelo://app?vid=d642ab05-ea66-47c4-a8bf-8eeb6f492b21"},"vehicle_type_id":"4","last_reported":1722964098,"current_range_meters":0,"station_id":"ce4bh492rcd13ifvqdug","pricing_plan_id":"cebpf4jnsgd1na2vs0mg"},{"bike_id":"1ccfe97f-b47d-40d2-92ba-72a9e39f9c09","system_id":"levelo_inurba_marseille","lat":43.33717,"lon":5.391857,"is_reserved":false,"is_disabled":false,"rental_uris":{"android":"levelo://app?vid=1ccfe97f-b47d-40d2-92ba-72a9e39f9c09","ios":"levelo://app?vid=1ccfe97f-b47d-40d2-92ba-72a9e39f9c09"},"vehicle_type_id":"4","last_reported":1722964098,"current_range_meters":12000,"station_id":"ce4bhr92rcd13ifvqhsg","pricing_plan_id":"cebpf4jnsgd1na2vs0mg"},{"bike_id":"425136c1-ea88-43ea-a1a2-aa55823d88ec","system_id":"levelo_inurba_marseille","lat":43.33717,"lon":5.391857,"is_reserved":false,"is_disabled":false,"rental_uris":{"android":"levelo://app?vid=425136c1-ea88-43ea-a1a2-aa55823d88ec","ios":"levelo://app?vid=425136c1-ea88-43ea-a1a2-aa55823d88ec"},"vehicle_type_id":"4","last_reported":1722964098,"current_range_meters":29200,"station_id":"ce4bhr92rcd13ifvqhsg","pricing_plan_id":"cebpf4jnsgd1na2vs0mg"},{"bike_id":"56fb168f-83da-456a-bad4-50cbca6f978f","system_id":"levelo_inurba_marseille","lat":43.323464,"lon":5.406297,"is_reserved":false,"is_disabled":false,"rental_uris":{"android":"levelo://app?vid=56fb168f-83da-456a-bad4-50cbca6f978f","ios":"levelo://app?vid=56fb168f-83da-456a-bad4-50cbca6f978f"},"vehicle_type_id":"4","last_reported":1722964098,"current_range_meters":2800,"station_id":"ce4bhq92rcd13ifvqhjg","pricing_plan_id":"cebpf4jnsgd1na2vs0mg"},{"bike_id":"b9a31c21-0a1a-49af-b5aa-fab3108a2e21","system_id":"levelo_inurba_marseille","lat":43.33717,"lon":5.391857,"is_reserved":false,"is_disabled":false,"rental_uris":{"android":"levelo://app?vid=b9a31c21-0a1a-49af-b5aa-fab3108a2e21","ios":"levelo://app?vid=b9a31c21-0a1a-49af-b5aa-fab3108a2e21"},"vehicle_type_id":"4","last_reported":1722964098,"current_range_meters":15200,"station_id":"ce4bhr92rcd13ifvqhsg","pricing_plan_id":"cebpf4jnsgd1na2vs0mg"},{"bike_id":"c66d0f49-a418-4b91-8596-0e4ee7eefdd7","system_id":"levelo_inurba_marseille","lat":43.33717,"lon":5.391857,"is_reserved":false,"is_disabled":false,"rental_uris":{"android":"levelo://app?vid=c66d0f49-a418-4b91-8596-0e4ee7eefdd7","ios":"levelo://app?vid=c66d0f49-a418-4b91-8596-0e4ee7eefdd7"},"vehicle_type_id":"4","last_reported":1722964098,"current_range_meters":4000,"station_id":"ce4bhr92rcd13ifvqhsg","pricing_plan_id":"cebpf4jnsgd1na2vs0mg"},{"bike_id":"9935bc3b-2e46-4271-8e02-68ab3c02f22b","system_id":"levelo_inurba_marseille","lat":43.28478,"lon":5.38415,"is_reserved":false,"is_disabled":false,"rental_uris":{"android":"levelo://app?vid=9935bc3b-2e46-4271-8e02-68ab3c02f22b","ios":"levelo://app?vid=9935bc3b-2e46-4271-8e02-68ab3c02f22b"},"vehicle_type_id":"4","last_reported":1722964098,"current_range_meters":0,"station_id":"ce4bh512rcd13ifvqe3g","pricing_plan_id":"cebpf4jnsgd1na2vs0mg"},{"bike_id":"4eef312f-7d2d-40f7-87c2-c1d587b8e0ea","system_id":"levelo_inurba_marseille","lat":43.297946,"lon":5.404063,"is_reserved":false,"is_disabled":false,"rental_uris":{"android":"levelo://app?vid=4eef312f-7d2d-40f7-87c2-c1d587b8e0ea","ios":"levelo://app?vid=4eef312f-7d2d-40f7-87c2-c1d587b8e0ea"},"vehicle_type_id":"4","last_reported":1722964098,"current_range_meters":8800,"station_id":"ce4bh112rcd13ifvqd90","pricing_plan_id":"cebpf4jnsgd1na2vs0mg"},{"bike_id":"cc8f7882-4138-4854-a55f-77675feafab3","system_id":"levelo_inurba_marseille","lat":43.28855,"lon":5.3931,"is_reserved":false,"is_disabled":false,"rental_uris":{"android":"levelo://app?vid=cc8f7882-4138-4854-a55f-77675feafab3","ios":"levelo://app?vid=cc8f7882-4138-4854-a55f-77675feafab3"},"vehicle_type_id":"4","last_reported":1722964098,"current_range_meters":0,"station_id":"ce4bh2p2rcd13ifvqdi0","pricing_plan_id":"cebpf4jnsgd1na2vs0mg"},{"bike_id":"9fba18ef-7db6-44ac-b13e-4214d39e484c","system_id":"levelo_inurba_marseille","lat":43.284776,"lon":5.385603,"is_reserved":false,"is_disabled":false,"rental_uris":{"android":"levelo://app?vid=9fba18ef-7db6-44ac-b13e-4214d39e484c","ios":"levelo://app?vid=9fba18ef-7db6-44ac-b13e-4214d39e484c"},"vehicle_type_id":"4","last_reported":1722964098,"current_range_meters":2400,"station_id":"ce4bh8p2rcd13ifvqeb0","pricing_plan_id":"cebpf4jnsgd1na2vs0mg"},{"bike_id":"68dbf0dc-4c02-4494-a175-3bc5cda72d55","system_id":"levelo_inurba_marseille","lat":43.28358,"lon":5.38097,"is_reserved":false,"is_disabled":false,"rental_uris":{"android":"levelo://app?vid=68dbf0dc-4c02-4494-a175-3bc5cda72d55","ios":"levelo://app?vid=68dbf0dc-4c02-4494-a175-3bc5cda72d55"},"vehicle_type_id":"4","last_reported":1722964098,"current_range_meters":0,"station_id":"ce4bh412rcd13ifvqdr0","pricing_plan_id":"cebpf4jnsgd1na2vs0mg"},{"bike_id":"5cc742dc-f646-427f-bc2c-583d9a171e1c","system_id":"levelo_inurba_marseille","lat":43.28428,"lon":5.34984,"is_reserved":false,"is_disabled":false,"rental_uris":{"android":"levelo://app?vid=5cc742dc-f646-427f-bc2c-583d9a171e1c","ios":"levelo://app?vid=5cc742dc-f646-427f-bc2c-583d9a171e1c"},"vehicle_type_id":"4","last_reported":1722964098,"current_range_meters":17200,"station_id":"ce4bhbh2rcd13ifvqepg","pricing_plan_id":"cebpf4jnsgd1na2vs0mg"},{"bike_id":"69870a3a-9a78-42a4-a80e-fb3639073b26","system_id":"levelo_inurba_marseille","lat":43.28425,"lon":5.34989,"is_reserved":false,"is_disabled":false,"rental_uris":{"android":"levelo://app?vid=69870a3a-9a78-42a4-a80e-fb3639073b26","ios":"levelo://app?vid=69870a3a-9a78-42a4-a80e-fb3639073b26"},"vehicle_type_id":"4","last_reported":1722964098,"current_range_meters":18000,"station_id":"ce4bhbh2rcd13ifvqepg","pricing_plan_id":"cebpf4jnsgd1na2vs0mg"},{"bike_id":"f83381da-5d3e-4de5-9b44-eaa623d72bb6","system_id":"levelo_inurba_marseille","lat":43.28425,"lon":5.34985,"is_reserved":false,"is_disabled":false,"rental_uris":{"android":"levelo://app?vid=f83381da-5d3e-4de5-9b44-eaa623d72bb6","ios":"levelo://app?vid=f83381da-5d3e-4de5-9b44-eaa623d72bb6"},"vehicle_type_id":"4","last_reported":1722964098,"current_range_meters":21600,"station_id":"ce4bhbh2rcd13ifvqepg","pricing_plan_id":"cebpf4jnsgd1na2vs0mg"},{"bike_id":"146ad963-ce14-4c9a-8982-773c62840225","system_id":"levelo_inurba_marseille","lat":43.2834,"lon":5.38103,"is_reserved":false,"is_disabled":false,"rental_uris":{"android":"levelo://app?vid=146ad963-ce14-4c9a-8982-773c62840225","ios":"levelo://app?vid=146ad963-ce14-4c9a-8982-773c62840225"},"vehicle_type_id":"4","last_reported":1722964098,"current_range_meters":0,"station_id":"ce4bh412rcd13ifvqdr0","pricing_plan_id":"cebpf4jnsgd1na2vs0mg"},{"bike_id":"54614480-c817-42d8-ace2-0f53930da78a","system_id":"levelo_inurba_marseille","lat":43.284217,"lon":5.349697,"is_reserved":false,"is_disabled":false,"rental_uris":{"android":"levelo://app?vid=54614480-c817-42d8-ace2-0f53930da78a","ios":"levelo://app?vid=54614480-c817-42d8-ace2-0f53930da78a"},"vehicle_type_id":"4","last_reported":1722964098,"current_range_meters":17600,"station_id":"ce4bhbh2rcd13ifvqepg","pricing_plan_id":"cebpf4jnsgd1na2vs0mg"},{"bike_id":"32be0cd6-cf04-4600-880f-919b265cb08b","system_id":"levelo_inurba_marseille","lat":43.28421,"lon":5.349959,"is_reserved":false,"is_disabled":false,"rental_uris":{"android":"levelo://app?vid=32be0cd6-cf04-4600-880f-919b265cb08b","ios":"levelo://app?vid=32be0cd6-cf04-4600-880f-919b265cb08b"},"vehicle_type_id":"4","last_reported":1722964098,"current_range_meters":31200,"station_id":"ce4bhbh2rcd13ifvqepg","pricing_plan_id":"cebpf4jnsgd1na2vs0mg"},{"bike_id":"9be8b778-6880-4e54-b7e4-bd24a27f4ab2","system_id":"levelo_inurba_marseille","lat":43.28423,"lon":5.34989,"is_reserved":false,"is_disabled":false,"rental_uris":{"android":"levelo://app?vid=9be8b778-6880-4e54-b7e4-bd24a27f4ab2","ios":"levelo://app?vid=9be8b778-6880-4e54-b7e4-bd24a27f4ab2"},"vehicle_type_id":"4","last_reported":1722964098,"current_range_meters":15200,"station_id":"ce4bhbh2rcd13ifvqepg","pricing_plan_id":"cebpf4jnsgd1na2vs0mg"},{"bike_id":"d15c64f5-c3dd-44af-98b5-1e40cc981087","system_id":"levelo_inurba_marseille","lat":43.284214,"lon":5.349706,"is_reserved":false,"is_disabled":false,"rental_uris":{"android":"levelo://app?vid=d15c64f5-c3dd-44af-98b5-1e40cc981087","ios":"levelo://app?vid=d15c64f5-c3dd-44af-98b5-1e40cc981087"},"vehicle_type_id":"4","last_reported":1722964098,"current_range_meters":30800,"station_id":"ce4bhbh2rcd13ifvqepg","pricing_plan_id":"cebpf4jnsgd1na2vs0mg"},{"bike_id":"3593452e-1cc3-48ef-b014-f2761c9916fb","system_id":"levelo_inurba_marseille","lat":43.28423,"lon":5.34987,"is_reserved":false,"is_disabled":false,"rental_uris":{"android":"levelo://app?vid=3593452e-1cc3-48ef-b014-f2761c9916fb","ios":"levelo://app?vid=3593452e-1cc3-48ef-b014-f2761c9916fb"},"vehicle_type_id":"4","last_reported":1722964098,"current_range_meters":400,"station_id":"ce4bhbh2rcd13ifvqepg","pricing_plan_id":"cebpf4jnsgd1na2vs0mg"},{"bike_id":"dcf09cb9-f160-410c-ac6f-eab61123bd83","system_id":"levelo_inurba_marseille","lat":43.28425,"lon":5.34977,"is_reserved":false,"is_disabled":false,"rental_uris":{"android":"levelo://app?vid=dcf09cb9-f160-410c-ac6f-eab61123bd83","ios":"levelo://app?vid=dcf09cb9-f160-410c-ac6f-eab61123bd83"},"vehicle_type_id":"4","last_reported":1722964098,"current_range_meters":14000,"station_id":"ce4bhbh2rcd13ifvqepg","pricing_plan_id":"cebpf4jnsgd1na2vs0mg"},{"bike_id":"c6e1bc24-f9dd-47c2-a6fa-3ff56787341e","system_id":"levelo_inurba_marseille","lat":43.284214,"lon":5.349706,"is_reserved":false,"is_disabled":false,"rental_uris":{"android":"levelo://app?vid=c6e1bc24-f9dd-47c2-a6fa-3ff56787341e","ios":"levelo://app?vid=c6e1bc24-f9dd-47c2-a6fa-3ff56787341e"},"vehicle_type_id":"4","last_reported":1722964098,"current_range_meters":11600,"station_id":"ce4bhbh2rcd13ifvqepg","pricing_plan_id":"cebpf4jnsgd1na2vs0mg"},{"bike_id":"9c0ea5b4-d329-4cff-9c0b-2a8b0c1d0867","system_id":"levelo_inurba_marseille","lat":43.28421,"lon":5.34984,"is_reserved":false,"is_disabled":false,"rental_uris":{"android":"levelo://app?vid=9c0ea5b4-d329-4cff-9c0b-2a8b0c1d0867","ios":"levelo://app?vid=9c0ea5b4-d329-4cff-9c0b-2a8b0c1d0867"},"vehicle_type_id":"4","last_reported":1722964098,"current_range_meters":11200,"station_id":"ce4bhbh2rcd13ifvqepg","pricing_plan_id":"cebpf4jnsgd1na2vs0mg"},{"bike_id":"34411e9f-c3e5-441f-aae4-3cef1d7f1435","system_id":"levelo_inurba_marseille","lat":43.284217,"lon":5.349697,"is_reserved":false,"is_disabled":false,"rental_uris":{"android":"levelo://app?vid=34411e9f-c3e5-441f-aae4-3cef1d7f1435","ios":"levelo://app?vid=34411e9f-c3e5-441f-aae4-3cef1d7f1435"},"vehicle_type_id":"4","last_reported":1722964098,"current_range_meters":31200,"station_id":"ce4bhbh2rcd13ifvqepg","pricing_plan_id":"cebpf4jnsgd1na2vs0mg"},{"bike_id":"cd1bc9d9-6cf6-4eb5-b12c-cecd92ee3e82","system_id":"levelo_inurba_marseille","lat":43.2842,"lon":5.34985,"is_reserved":false,"is_disabled":false,"rental_uris":{"android":"levelo://app?vid=cd1bc9d9-6cf6-4eb5-b12c-cecd92ee3e82","ios":"levelo://app?vid=cd1bc9d9-6cf6-4eb5-b12c-cecd92ee3e82"},"vehicle_type_id":"4","last_reported":1722964098,"current_range_meters":22400,"station_id":"ce4bhbh2rcd13ifvqepg","pricing_plan_id":"cebpf4jnsgd1na2vs0mg"},{"bike_id":"dbb7df48-f1a6-4255-8299-df134c09fc77","system_id":"levelo_inurba_marseille","lat":43.284214,"lon":5.349706,"is_reserved":false,"is_disabled":false,"rental_uris":{"android":"levelo://app?vid=dbb7df48-f1a6-4255-8299-df134c09fc77","ios":"levelo://app?vid=dbb7df48-f1a6-4255-8299-df134c09fc77"},"vehicle_type_id":"4","last_reported":1722964098,"current_range_meters":23200,"station_id":"ce4bhbh2rcd13ifvqepg","pricing_plan_id":"cebpf4jnsgd1na2vs0mg"},{"bike_id":"154b2488-0b87-4f33-b073-a5f89c77c00c","system_id":"levelo_inurba_marseille","lat":43.284214,"lon":5.349706,"is_reserved":false,"is_disabled":false,"rental_uris":{"android":"levelo://app?vid=154b2488-0b87-4f33-b073-a5f89c77c00c","ios":"levelo://app?vid=154b2488-0b87-4f33-b073-a5f89c77c00c"},"vehicle_type_id":"4","last_reported":1722964098,"current_range_meters":24000,"station_id":"ce4bhbh2rcd13ifvqepg","pricing_plan_id":"cebpf4jnsgd1na2vs0mg"},{"bike_id":"18b085c5-75f2-4d8a-b01f-9f0287e83acf","system_id":"levelo_inurba_marseille","lat":43.28413,"lon":5.35003,"is_reserved":false,"is_disabled":false,"rental_uris":{"android":"levelo://app?vid=18b085c5-75f2-4d8a-b01f-9f0287e83acf","ios":"levelo://app?vid=18b085c5-75f2-4d8a-b01f-9f0287e83acf"},"vehicle_type_id":"4","last_reported":1722964098,"current_range_meters":0,"station_id":"ce4bhbh2rcd13ifvqepg","pricing_plan_id":"cebpf4jnsgd1na2vs0mg"},{"bike_id":"52bea674-e2f2-459b-bb71-4d60f6f6d9b7","system_id":"levelo_inurba_marseille","lat":43.28418,"lon":5.34983,"is_reserved":false,"is_disabled":false,"rental_uris":{"android":"levelo://app?vid=52bea674-e2f2-459b-bb71-4d60f6f6d9b7","ios":"levelo://app?vid=52bea674-e2f2-459b-bb71-4d60f6f6d9b7"},"vehicle_type_id":"4","last_reported":1722964098,"current_range_meters":12000,"station_id":"ce4bhbh2rcd13ifvqepg","pricing_plan_id":"cebpf4jnsgd1na2vs0mg"},{"bike_id":"e8d0120a-1cdd-4c3d-8bde-de891a32c34c","system_id":"levelo_inurba_marseille","lat":43.28419,"lon":5.34979,"is_reserved":false,"is_disabled":false,"rental_uris":{"android":"levelo://app?vid=e8d0120a-1cdd-4c3d-8bde-de891a32c34c","ios":"levelo://app?vid=e8d0120a-1cdd-4c3d-8bde-de891a32c34c"},"vehicle_type_id":"4","last_reported":1722964098,"current_range_meters":0,"station_id":"ce4bhbh2rcd13ifvqepg","pricing_plan_id":"cebpf4jnsgd1na2vs0mg"},{"bike_id":"6db65de2-5b48-41b2-bed5-cf25cf9e1784","system_id":"levelo_inurba_marseille","lat":43.284159,"lon":5.349869,"is_reserved":false,"is_disabled":false,"rental_uris":{"android":"levelo://app?vid=6db65de2-5b48-41b2-bed5-cf25cf9e1784","ios":"levelo://app?vid=6db65de2-5b48-41b2-bed5-cf25cf9e1784"},"vehicle_type_id":"4","last_reported":1722964098,"current_range_meters":17600,"station_id":"ce4bhbh2rcd13ifvqepg","pricing_plan_id":"cebpf4jnsgd1na2vs0mg"},{"bike_id":"e3ec4fd0-bf63-44e9-953b-670d755f64d9","system_id":"levelo_inurba_marseille","lat":43.28418,"lon":5.3498,"is_reserved":false,"is_disabled":false,"rental_uris":{"android":"levelo://app?vid=e3ec4fd0-bf63-44e9-953b-670d755f64d9","ios":"levelo://app?vid=e3ec4fd0-bf63-44e9-953b-670d755f64d9"},"vehicle_type_id":"4","last_reported":1722964098,"current_range_meters":9200,"station_id":"ce4bhbh2rcd13ifvqepg","pricing_plan_id":"cebpf4jnsgd1na2vs0mg"},{"bike_id":"c555697f-36a5-4996-8689-cf78cc7b64fd","system_id":"levelo_inurba_marseille","lat":43.28418,"lon":5.34979,"is_reserved":false,"is_disabled":false,"rental_uris":{"android":"levelo://app?vid=c555697f-36a5-4996-8689-cf78cc7b64fd","ios":"levelo://app?vid=c555697f-36a5-4996-8689-cf78cc7b64fd"},"vehicle_type_id":"4","last_reported":1722964098,"current_range_meters":7600,"station_id":"ce4bhbh2rcd13ifvqepg","pricing_plan_id":"cebpf4jnsgd1na2vs0mg"},{"bike_id":"f2eb6a16-556d-462c-8c95-6e46fd963027","system_id":"levelo_inurba_marseille","lat":43.28417,"lon":5.3498,"is_reserved":false,"is_disabled":false,"rental_uris":{"android":"levelo://app?vid=f2eb6a16-556d-462c-8c95-6e46fd963027","ios":"levelo://app?vid=f2eb6a16-556d-462c-8c95-6e46fd963027"},"vehicle_type_id":"4","last_reported":1722964098,"current_range_meters":28000,"station_id":"ce4bhbh2rcd13ifvqepg","pricing_plan_id":"cebpf4jnsgd1na2vs0mg"},{"bike_id":"9847baaa-ec5c-461e-8d3f-97774de4c8bd","system_id":"levelo_inurba_marseille","lat":43.28415,"lon":5.34986,"is_reserved":false,"is_disabled":false,"rental_uris":{"android":"levelo://app?vid=9847baaa-ec5c-461e-8d3f-97774de4c8bd","ios":"levelo://app?vid=9847baaa-ec5c-461e-8d3f-97774de4c8bd"},