{"last_updated":1747858283,"ttl":60,"version":"2.2","data":{"bikes":[{"bike_id":"c0b9fd4f-e181-46ce-b0bf-f5119973334f","system_id":"levelo_inurba_marseille","lat":43.33771,"lon":5.37424,"is_reserved":false,"is_disabled":true,"rental_uris":{"android":"levelo://app?vid=c0b9fd4f-e181-46ce-b0bf-f5119973334f","ios":"levelo://app?vid=c0b9fd4f-e181-46ce-b0bf-f5119973334f"},"vehicle_type_id":"4","last_reported":1747858283,"current_range_meters":0,"station_id":"","pricing_plan_id":"cebpf4jnsgd1na2vs0mg"},{"bike_id":"1dec17c8-cbde-4354-8b6c-219f98c89710","system_id":"levelo_inurba_marseille","lat":43.291827,"lon":5.422652,"is_reserved":false,"is_disabled":true,"rental_uris":{"android":"levelo://app?vid=1dec17c8-cbde-4354-8b6c-219f98c89710","ios":"levelo://app?vid=1dec17c8-cbde-4354-8b6c-219f98c89710"},"vehicle_type_id":"4","last_reported":1747858283,"current_range_meters":0,"station_id":"","pricing_plan_id":"cebpf4jnsgd1na2vs0mg"},{"bike_id":"4d4b63f8-c892-4cd8-b099-d41c0ed58ced","system_id":"levelo_inurba_marseille","lat":43.30294,"lon":5.41916,"is_reserved":false,"is_disabled":true,"rental_uris":{"android":"levelo://app?vid=4d4b63f8-c892-4cd8-b099-d41c0ed58ced","ios":"levelo://app?vid=4d4b63f8-c892-4cd8-b099-d41c0ed58ced"},"vehicle_type_id":"4","last_reported":1747858283,"current_range_meters":0,"station_id":"","pricing_plan_id":"cebpf4jnsgd1na2vs0mg"},{"bike_id":"39879a3b-6d91-4e21-aac7-2ff5bb892855","system_id":"levelo_inurba_marseille","lat":43.29127,"lon":5.38066,"is_reserved":false,"is_disabled":true,"rental_uris":{"android":"levelo://app?vid=39879a3b-6d91-4e21-aac7-2ff5bb892855","ios":"levelo://app?vid=39879a3b-6d91-4e21-aac7-2ff5bb892855"},"vehicle_type_id":"4","last_reported":1747858283,"current_range_meters":0,"station_id":"","pricing_plan_id":"cebpf4jnsgd1na2vs0mg"},{"bike_id":"5f708b2e-3b70-4aef-b125-8a06804bfed6","system_id":"levelo_inurba_marseille","lat":43.254457,"lon":5.376614,"is_reserved":false,"is_disabled":true,"rental_uris":{"android":"levelo://app?vid=5f708b2e-3b70-4aef-b125-8a06804bfed6","ios":"levelo://app?vid=5f708b2e-3b70-4aef-b125-8a06804bfed6"},"vehicle_type_id":"4","last_reported":1747858283,"current_range_meters":0,"station_id":"","pricing_plan_id":"cebpf4jnsgd1na2vs0mg"},{"bike_id":"79c4b0e6-719b-4903-ac96-107b5995b617","system_id":"levelo_inurba_marseille","lat":43.23381,"lon":5.35985,"is_reserved":false,"is_disabled":true,"rental_uris":{"android":"levelo://app?vid=79c4b0e6-719b-4903-ac96-107b5995b617","ios":"levelo://app?vid=79c4b0e6-719b-4903-ac96-107b5995b617"},"vehicle_type_id":"4","last_reported":1747858283,"current_range_meters":0,"station_id":"","pricing_plan_id":"cebpf4jnsgd1na2vs0mg"},{"bike_id":"20bee342-4a3f-4f34-940d-bb6cf00d52ae","system_id":"levelo_inurba_marseille","lat":43.26669,"lon":5.38602,"is_reserved":false,"is_disabled":true,"rental_uris":{"android":"levelo://app?vid=20bee342-4a3f-4f34-940d-bb6cf00d52ae","ios":"levelo://app?vid=20bee342-4a3f-4f34-940d-bb6cf00d52ae"},"vehicle_type_id":"4","last_reported":1747858283,"current_range_meters":0,"station_id":"","pricing_plan_id":"cebpf4jnsgd1na2vs0mg"},{"bike_id":"5b8d81d3-7afe-402e-96a9-06fcbc75320a","system_id":"levelo_inurba_marseille","lat":43.30347,"lon":5.39655,"is_reserved":false,"is_disabled":true,"rental_uris":{"android":"levelo://app?vid=5b8d81d3-7afe-402e-96a9-06fcbc75320a","ios":"levelo://app?vid=5b8d81d3-7afe-402e-96a9-06fcbc75320a"},"vehicle_type_id":"4","last_reported":1747858283,"current_range_meters":0,"station_id":"","pricing_plan_id":"cebpf4jnsgd1na2vs0mg"},{"bike_id":"e708d8c7-3873-4087-90d2-542ef8995ec8","system_id":"levelo_inurba_marseille","lat":43.27013,"lon":5.38786,"is_reserved":false,"is_disabled":true,"rental_uris":{"android":"levelo://app?vid=e708d8c7-3873-4087-90d2-542ef8995ec8","ios":"levelo://app?vid=e708d8c7-3873-4087-90d2-542ef8995ec8"},"vehicle_type_id":"4","last_reported":1747858283,"current_range_meters":0,"station_id":"","pricing_plan_id":"cebpf4jnsgd1na2vs0mg"},{"bike_id":"e9dd3aa4-b5e7-4480-926d-d7f537719bfa","system_id":"levelo_inurba_marseille","lat":43.230331,"lon":5.401847,"is_reserved":false,"is_disabled":true,"rental_uris":{"android":"levelo://app?vid=e9dd3aa4-b5e7-4480-926d-d7f537719bfa","ios":"levelo://app?vid=e9dd3aa4-b5e7-4480-926d-d7f537719bfa"},"vehicle_type_id":"4","last_reported":1747858283,"current_range_meters":0,"station_id":"","pricing_plan_id":"cebpf4jnsgd1na2vs0mg"},{"bike_id":"14603e41-b2dd-4757-a53c-2e366aa4f983","system_id":"levelo_inurba_marseille","lat":43.27009,"lon":5.42828,"is_reserved":false,"is_disabled":true,"rental_uris":{"android":"levelo://app?vid=14603e41-b2dd-4757-a53c-2e366aa4f983","ios":"levelo://app?vid=14603e41-b2dd-4757-a53c-2e366aa4f983"},"vehicle_type_id":"4","last_reported":1747858283,"current_range_meters":0,"station_id":"","pricing_plan_id":"cebpf4jnsgd1na2vs0mg"},{"bike_id":"84aadccc-756a-4d43-91c4-0dbc6f1bc818","system_id":"levelo_inurba_marseille","lat":43.28941,"lon":5.36623,"is_reserved":false,"is_disabled":true,"rental_uris":{"android":"levelo://app?vid=84aadccc-756a-4d43-91c4-0dbc6f1bc818","ios":"levelo://app?vid=84aadccc-756a-4d43-91c4-0dbc6f1bc818"},"vehicle_type_id":"4","last_reported":1747858283,"current_range_meters":0,"station_id":"ce4bhap2rcd13ifvqek0","pricing_plan_id":"cebpf4jnsgd1na2vs0mg"},{"bike_id":"cd386592-7dd4-42b1-a865-34001b62e8f7","system_id":"levelo_inurba_marseille","lat":43.26574,"lon":5.38994,"is_reserved":false,"is_disabled":true,"rental_uris":{"android":"levelo://app?vid=cd386592-7dd4-42b1-a865-34001b62e8f7","ios":"levelo://app?vid=cd386592-7dd4-42b1-a865-34001b62e8f7"},"vehicle_type_id":"4","last_reported":1747858283,"current_range_meters":0,"station_id":"ce4bhe12rcd13ifvqf30","pricing_plan_id":"cebpf4jnsgd1na2vs0mg"},{"bike_id":"45f8987e-9672-4727-babf-0671b1690521","system_id":"levelo_inurba_marseille","lat":43.25498,"lon":5.37648,"is_reserved":false,"is_disabled":true,"rental_uris":{"android":"levelo://app?vid=45f8987e-9672-4727-babf-0671b1690521","ios":"levelo://app?vid=45f8987e-9672-4727-babf-0671b1690521"},"vehicle_type_id":"4","last_reported":1747858283,"current_range_meters":0,"station_id":"ce4bhh12rcd13ifvqff0","pricing_plan_id":"cebpf4jnsgd1na2vs0mg"},{"bike_id":"1658e06d-d881-4ee1-ab28-8c996028c1fa","system_id":"levelo_inurba_marseille","lat":43.27814,"lon":5.40717,"is_reserved":false,"is_disabled":true,"rental_uris":{"android":"levelo://app?vid=1658e06d-d881-4ee1-ab28-8c996028c1fa","ios":"levelo://app?vid=1658e06d-d881-4ee1-ab28-8c996028c1fa"},"vehicle_type_id":"4","last_reported":1747858283,"current_range_meters":0,"station_id":"ce4bhnh2rcd13ifvqgtg","pricing_plan_id":"cebpf4jnsgd1na2vs0mg"},{"bike_id":"a9672778-069e-4e15-8ad6-66b694742a2b","system_id":"levelo_inurba_marseille","lat":43.27942,"lon":5.41044,"is_reserved":false,"is_disabled":true,"rental_uris":{"android":"levelo://app?vid=a9672778-069e-4e15-8ad6-66b694742a2b","ios":"levelo://app?vid=a9672778-069e-4e15-8ad6-66b694742a2b"},"vehicle_type_id":"4","last_reported":1747858283,"current_range_meters":0,"station_id":"ce4bhnp2rcd13ifvqh0g","pricing_plan_id":"cebpf4jnsgd1na2vs0mg"},{"bike_id":"8b0c2371-0aee-4e98-be54-62bd224e98f7","system_id":"levelo_inurba_marseille","lat":43.27922,"lon":5.41044,"is_reserved":false,"is_disabled":true,"rental_uris":{"android":"levelo://app?vid=8b0c2371-0aee-4e98-be54-62bd224e98f7","ios":"levelo://app?vid=8b0c2371-0aee-4e98-be54-62bd224e98f7"},"vehicle_type_id":"4","last_reported":1747858283,"current_range_meters":0,"station_id":"ce4bhnp2rcd13ifvqh0g","pricing_plan_id":"cebpf4jnsgd1na2vs0mg"},{"bike_id":"b4725d0a-fb43-4dae-8768-5910d1dfbbe0","system_id":"levelo_inurba_marseille","lat":43.32295,"lon":5.38264,"is_reserved":false,"is_disabled":true,"rental_uris":{"android":"levelo://app?vid=b4725d0a-fb43-4dae-8768-5910d1dfbbe0","ios":"levelo://app?vid=b4725d0a-fb43-4dae-8768-5910d1dfbbe0"},"vehicle_type_id":"4","last_reported":1747858283,"current_range_meters":400,"station_id":"ce4bhr12rcd13ifvqhqg","pricing_plan_id":"cebpf4jnsgd1na2vs0mg"},{"bike_id":"c306fa7d-481e-4ae3-9585-ff4c1f5ddcb9","system_id":"levelo_inurba_marseille","lat":43.34993,"lon":5.37938,"is_reserved":false,"is_disabled":true,"rental_uris":{"android":"levelo://app?vid=c306fa7d-481e-4ae3-9585-ff4c1f5ddcb9","ios":"levelo://app?vid=c306fa7d-481e-4ae3-9585-ff4c1f5ddcb9"},"vehicle_type_id":"4","last_reported":1747858283,"current_range_meters":800,"station_id":"","pricing_plan_id":"cebpf4jnsgd1na2vs0mg"},{"bike_id":"ba59102a-6c47-4600-bcb9-76e5920c2815","system_id":"levelo_inurba_marseille","lat":43.31343,"lon":5.37192,"is_reserved":false,"is_disabled":true,"rental_uris":{"android":"levelo://app?vid=ba59102a-6c47-4600-bcb9-76e5920c2815","ios":"levelo://app?vid=ba59102a-6c47-4600-bcb9-76e5920c2815"},"vehicle_type_id":"4","last_reported":1747858283,"current_range_meters":800,"station_id":"","pricing_plan_id":"cebpf4jnsgd1na2vs0mg"},{"bike_id":"5b7b42cd-40a3-4c9d-8709-02fff95875dd","system_id":"levelo_inurba_marseille","lat":43.27436,"lon":5.39425,"is_reserved":false,"is_disabled":true,"rental_uris":{"android":"levelo://app?vid=5b7b42cd-40a3-4c9d-8709-02fff95875dd","ios":"levelo://app?vid=5b7b42cd-40a3-4c9d-8709-02fff95875dd"},"vehicle_type_id":"4","last_reported":1747858283,"current_range_meters":800,"station_id":"","pricing_plan_id":"cebpf4jnsgd1na2vs0mg"},{"bike_id":"8f0f531d-6a65-4647-8a6f-baa3d982f42f","system_id":"levelo_inurba_marseille","lat":43.28125,"lon":5.42594,"is_reserved":false,"is_disabled":true,"rental_uris":{"android":"levelo://app?vid=8f0f531d-6a65-4647-8a6f-baa3d982f42f","ios":"levelo://app?vid=8f0f531d-6a65-4647-8a6f-baa3d982f42f"},"vehicle_type_id":"4","last_reported":1747858283,"current_range_meters":1200,"station_id":"","pricing_plan_id":"cebpf4jnsgd1na2vs0mg"},{"bike_id":"a5bcf3ab-5daa-4dec-898b-27b2e944e103","system_id":"levelo_inurba_marseille","lat":43.27298,"lon":5.41042,"is_reserved":false,"is_disabled":true,"rental_uris":{"android":"levelo://app?vid=a5bcf3ab-5daa-4dec-898b-27b2e944e103","ios":"levelo://app?vid=a5bcf3ab-5daa-4dec-898b-27b2e944e103"},"vehicle_type_id":"4","last_reported":1747858283,"current_range_meters":1200,"station_id":"","pricing_plan_id":"cebpf4jnsgd1na2vs0mg"},{"bike_id":"72243ea0-90df-4741-ba29-c0afbba02c6b","system_id":"levelo_inurba_marseille","lat":43.301239,"lon":5.39854,"is_reserved":false,"is_disabled":true,"rental_uris":{"android":"levelo://app?vid=72243ea0-90df-4741-ba29-c0afbba02c6b","ios":"levelo://app?vid=72243ea0-90df-4741-ba29-c0afbba02c6b"},"vehicle_type_id":"4","last_reported":1747858283,"current_range_meters":1200,"station_id":"ce4bh0h2rcd13ifvqd40","pricing_plan_id":"cebpf4jnsgd1na2vs0mg"},{"bike_id":"2e7382eb-5298-49ec-998d-5d9e09c9c846","system_id":"levelo_inurba_marseille","lat":43.29542,"lon":5.39032,"is_reserved":false,"is_disabled":true,"rental_uris":{"android":"levelo://app?vid=2e7382eb-5298-49ec-998d-5d9e09c9c846","ios":"levelo://app?vid=2e7382eb-5298-49ec-998d-5d9e09c9c846"},"vehicle_type_id":"4","last_reported":1747858283,"current_range_meters":1200,"station_id":"ce4bh3p2rcd13ifvqdp0","pricing_plan_id":"cebpf4jnsgd1na2vs0mg"},{"bike_id":"8a84799d-bb37-49fd-b23f-142cde9c500b","system_id":"levelo_inurba_marseille","lat":43.26559,"lon":5.37284,"is_reserved":false,"is_disabled":true,"rental_uris":{"android":"levelo://app?vid=8a84799d-bb37-49fd-b23f-142cde9c500b","ios":"levelo://app?vid=8a84799d-bb37-49fd-b23f-142cde9c500b"},"vehicle_type_id":"4","last_reported":1747858283,"current_range_meters":1200,"station_id":"ce4bhg12rcd13ifvqf70","pricing_plan_id":"cebpf4jnsgd1na2vs0mg"},{"bike_id":"d7e232af-6ecf-450f-8df7-a300d80d8bbf","system_id":"levelo_inurba_marseille","lat":43.27955,"lon":5.41031,"is_reserved":false,"is_disabled":true,"rental_uris":{"android":"levelo://app?vid=d7e232af-6ecf-450f-8df7-a300d80d8bbf","ios":"levelo://app?vid=d7e232af-6ecf-450f-8df7-a300d80d8bbf"},"vehicle_type_id":"4","last_reported":1747858283,"current_range_meters":1200,"station_id":"ce4bhnp2rcd13ifvqh0g","pricing_plan_id":"cebpf4jnsgd1na2vs0mg"},{"bike_id":"01b136ea-4cc7-4444-8329-6b48cf83b778","system_id":"levelo_inurba_marseille","lat":43.280004,"lon":5.400128,"is_reserved":false,"is_disabled":true,"rental_uris":{"android":"levelo://app?vid=01b136ea-4cc7-4444-8329-6b48cf83b778","ios":"levelo://app?vid=01b136ea-4cc7-4444-8329-6b48cf83b778"},"vehicle_type_id":"4","last_reported":1747858283,"current_range_meters":1200,"station_id":"ce4bho92rcd13ifvqh4g","pricing_plan_id":"cebpf4jnsgd1na2vs0mg"},{"bike_id":"0603dfc5-1cfc-41a2-949e-a931b4c4c963","system_id":"levelo_inurba_marseille","lat":43.31363,"lon":5.38489,"is_reserved":false,"is_disabled":true,"rental_uris":{"android":"levelo://app?vid=0603dfc5-1cfc-41a2-949e-a931b4c4c963","ios":"levelo://app?vid=0603dfc5-1cfc-41a2-949e-a931b4c4c963"},"vehicle_type_id":"4","last_reported":1747858283,"current_range_meters":1600,"station_id":"ce4bgt92rcd13ifvqcf0","pricing_plan_id":"cebpf4jnsgd1na2vs0mg"},{"bike_id":"382d856e-819e-4815-81bf-28e2251359be","system_id":"levelo_inurba_marseille","lat":43.30249,"lon":5.40068,"is_reserved":false,"is_disabled":true,"rental_uris":{"android":"levelo://app?vid=382d856e-819e-4815-81bf-28e2251359be","ios":"levelo://app?vid=382d856e-819e-4815-81bf-28e2251359be"},"vehicle_type_id":"4","last_reported":1747858283,"current_range_meters":1600,"station_id":"ce4bgvh2rcd13ifvqcs0","pricing_plan_id":"cebpf4jnsgd1na2vs0mg"},{"bike_id":"ae701f12-2104-4ab1-a14c-c64091f62438","system_id":"levelo_inurba_marseille","lat":43.24665,"lon":5.38166,"is_reserved":false,"is_disabled":true,"rental_uris":{"android":"levelo://app?vid=ae701f12-2104-4ab1-a14c-c64091f62438","ios":"levelo://app?vid=ae701f12-2104-4ab1-a14c-c64091f62438"},"vehicle_type_id":"4","last_reported":1747858283,"current_range_meters":1600,"station_id":"ce4bhih2rcd13ifvqfr0","pricing_plan_id":"cebpf4jnsgd1na2vs0mg"},{"bike_id":"9b3deee6-aa1d-44d2-891e-e70350785efd","system_id":"levelo_inurba_marseille","lat":43.2509,"lon":5.39517,"is_reserved":false,"is_disabled":true,"rental_uris":{"android":"levelo://app?vid=9b3deee6-aa1d-44d2-891e-e70350785efd","ios":"levelo://app?vid=9b3deee6-aa1d-44d2-891e-e70350785efd"},"vehicle_type_id":"4","last_reported":1747858283,"current_range_meters":1600,"station_id":"ce4bhm12rcd13ifvqgkg","pricing_plan_id":"cebpf4jnsgd1na2vs0mg"},{"bike_id":"dda96eb3-a43c-4e5d-ac72-0dc762202e90","system_id":"levelo_inurba_marseille","lat":43.29624,"lon":5.37148,"is_reserved":false,"is_disabled":true,"rental_uris":{"android":"levelo://app?vid=dda96eb3-a43c-4e5d-ac72-0dc762202e90","ios":"levelo://app?vid=dda96eb3-a43c-4e5d-ac72-0dc762202e90"},"vehicle_type_id":"4","last_reported":1747858283,"current_range_meters":2000,"station_id":"ce4bgnh2rcd13ifvqc0g","pricing_plan_id":"cebpf4jnsgd1na2vs0mg"},{"bike_id":"726e5a59-aee5-4c9c-ba17-b8c54dc1dd51","system_id":"levelo_inurba_marseille","lat":43.301331,"lon":5.398722,"is_reserved":false,"is_disabled":true,"rental_uris":{"android":"levelo://app?vid=726e5a59-aee5-4c9c-ba17-b8c54dc1dd51","ios":"levelo://app?vid=726e5a59-aee5-4c9c-ba17-b8c54dc1dd51"},"vehicle_type_id":"4","last_reported":1747858283,"current_range_meters":2000,"station_id":"ce4bh0h2rcd13ifvqd40","pricing_plan_id":"cebpf4jnsgd1na2vs0mg"},{"bike_id":"5f8192ff-53ce-465c-a4c1-095dc72f9ab5","system_id":"levelo_inurba_marseille","lat":43.295523,"lon":5.422817,"is_reserved":false,"is_disabled":true,"rental_uris":{"android":"levelo://app?vid=5f8192ff-53ce-465c-a4c1-095dc72f9ab5","ios":"levelo://app?vid=5f8192ff-53ce-465c-a4c1-095dc72f9ab5"},"vehicle_type_id":"4","last_reported":1747858283,"current_range_meters":2000,"station_id":"ce4bhph2rcd13ifvqhdg","pricing_plan_id":"cebpf4jnsgd1na2vs0mg"},{"bike_id":"85eaca89-9437-48d0-9bca-a254337b88db","system_id":"levelo_inurba_marseille","lat":43.2746,"lon":5.40976,"is_reserved":false,"is_disabled":false,"rental_uris":{"android":"levelo://app?vid=85eaca89-9437-48d0-9bca-a254337b88db","ios":"levelo://app?vid=85eaca89-9437-48d0-9bca-a254337b88db"},"vehicle_type_id":"4","last_reported":1747858283,"current_range_meters":2800,"station_id":"","pricing_plan_id":"cebpf4jnsgd1na2vs0mg"},{"bike_id":"6649b51c-18ac-4f67-9e1f-c87b176fd651","system_id":"levelo_inurba_marseille","lat":43.31066,"lon":5.38359,"is_reserved":false,"is_disabled":false,"rental_uris":{"android":"levelo://app?vid=6649b51c-18ac-4f67-9e1f-c87b176fd651","ios":"levelo://app?vid=6649b51c-18ac-4f67-9e1f-c87b176fd651"},"vehicle_type_id":"4","last_reported":1747858283,"current_range_meters":2800,"station_id":"ce4bgv92rcd13ifvqcr0","pricing_plan_id":"cebpf4jnsgd1na2vs0mg"},{"bike_id":"c1fc2ae3-46ee-45ab-b93e-cc2379c236a1","system_id":"levelo_inurba_marseille","lat":43.28942,"lon":5.36405,"is_reserved":false,"is_disabled":false,"rental_uris":{"android":"levelo://app?vid=c1fc2ae3-46ee-45ab-b93e-cc2379c236a1","ios":"levelo://app?vid=c1fc2ae3-46ee-45ab-b93e-cc2379c236a1"},"vehicle_type_id":"4","last_reported":1747858283,"current_range_meters":2800,"station_id":"ce4bhc92rcd13ifvqetg","pricing_plan_id":"cebpf4jnsgd1na2vs0mg"},{"bike_id":"97af16e6-03ee-42c5-aba5-0270383c800c","system_id":"levelo_inurba_marseille","lat":43.2931,"lon":5.3717,"is_reserved":false,"is_disabled":false,"rental_uris":{"android":"levelo://app?vid=97af16e6-03ee-42c5-aba5-0270383c800c","ios":"levelo://app?vid=97af16e6-03ee-42c5-aba5-0270383c800c"},"vehicle_type_id":"4","last_reported":1747858283,"current_range_meters":3200,"station_id":"ce4bgh92rcd13ifvqb40","pricing_plan_id":"cebpf4jnsgd1na2vs0mg"},{"bike_id":"c13d9b11-2e28-4a3e-a8be-b431a30388c4","system_id":"levelo_inurba_marseille","lat":43.2515,"lon":5.40293,"is_reserved":false,"is_disabled":false,"rental_uris":{"android":"levelo://app?vid=c13d9b11-2e28-4a3e-a8be-b431a30388c4","ios":"levelo://app?vid=c13d9b11-2e28-4a3e-a8be-b431a30388c4"},"vehicle_type_id":"4","last_reported":1747858283,"current_range_meters":3600,"station_id":"","pricing_plan_id":"cebpf4jnsgd1na2vs0mg"},{"bike_id":"7d9ef5d2-4d27-46f9-a8f6-37a9add75389","system_id":"levelo_inurba_marseille","lat":43.24069,"lon":5.37768,"is_reserved":false,"is_disabled":false,"rental_uris":{"android":"levelo://app?vid=7d9ef5d2-4d27-46f9-a8f6-37a9add75389","ios":"levelo://app?vid=7d9ef5d2-4d27-46f9-a8f6-37a9add75389"},"vehicle_type_id":"4","last_reported":1747858283,"current_range_meters":3600,"station_id":"ce4bhnp2rcd13ifvqgvg","pricing_plan_id":"cebpf4jnsgd1na2vs0mg"},{"bike_id":"3491e2d1-10d6-4eaf-9467-4ee762672182","system_id":"levelo_inurba_marseille","lat":43.2807,"lon":5.39636,"is_reserved":false,"is_disabled":false,"rental_uris":{"android":"levelo://app?vid=3491e2d1-10d6-4eaf-9467-4ee762672182","ios":"levelo://app?vid=3491e2d1-10d6-4eaf-9467-4ee762672182"},"vehicle_type_id":"4","last_reported":1747858283,"current_range_meters":3600,"station_id":"ce4bho12rcd13ifvqh2g","pricing_plan_id":"cebpf4jnsgd1na2vs0mg"},{"bike_id":"44e9c151-aea2-4df4-bf9b-66de6599fbc9","system_id":"levelo_inurba_marseille","lat":43.29309,"lon":5.37175,"is_reserved":false,"is_disabled":false,"rental_uris":{"android":"levelo://app?vid=44e9c151-aea2-4df4-bf9b-66de6599fbc9","ios":"levelo://app?vid=44e9c151-aea2-4df4-bf9b-66de6599fbc9"},"vehicle_type_id":"4","last_reported":1747858283,"current_range_meters":4000,"station_id":"ce4bgh92rcd13ifvqb40","pricing_plan_id":"cebpf4jnsgd1na2vs0mg"},{"bike_id":"b52ff5d2-0168-42db-ba59-850c2b5d1922","system_id":"levelo_inurba_marseille","lat":43.24994,"lon":5.39612,"is_reserved":false,"is_disabled":false,"rental_uris":{"android":"levelo://app?vid=b52ff5d2-0168-42db-ba59-850c2b5d1922","ios":"levelo://app?vid=b52ff5d2-0168-42db-ba59-850c2b5d1922"},"vehicle_type_id":"4","last_reported":1747858283,"current_range_meters":4400,"station_id":"","pricing_plan_id":"cebpf4jnsgd1na2vs0mg"},{"bike_id":"908e3afc-6888-4911-9c90-68efcdc39b82","system_id":"levelo_inurba_marseille","lat":43.29095,"lon":5.38146,"is_reserved":false,"is_disabled":false,"rental_uris":{"android":"levelo://app?vid=908e3afc-6888-4911-9c90-68efcdc39b82","ios":"levelo://app?vid=908e3afc-6888-4911-9c90-68efcdc39b82"},"vehicle_type_id":"4","last_reported":1747858283,"current_range_meters":4400,"station_id":"ce4bh512rcd13ifvqe2g","pricing_plan_id":"cebpf4jnsgd1na2vs0mg"},{"bike_id":"b06e1ca8-a7a3-4e47-ba85-815e199d0d97","system_id":"levelo_inurba_marseille","lat":43.26213,"lon":5.4048,"is_reserved":false,"is_disabled":false,"rental_uris":{"android":"levelo://app?vid=b06e1ca8-a7a3-4e47-ba85-815e199d0d97","ios":"levelo://app?vid=b06e1ca8-a7a3-4e47-ba85-815e199d0d97"},"vehicle_type_id":"4","last_reported":1747858283,"current_range_meters":4400,"station_id":"ce4bhmh2rcd13ifvqgmg","pricing_plan_id":"cebpf4jnsgd1na2vs0mg"},{"bike_id":"82d9224e-c124-406b-bd49-1d2e39a4165e","system_id":"levelo_inurba_marseille","lat":43.231782,"lon":5.399836,"is_reserved":false,"is_disabled":false,"rental_uris":{"android":"levelo://app?vid=82d9224e-c124-406b-bd49-1d2e39a4165e","ios":"levelo://app?vid=82d9224e-c124-406b-bd49-1d2e39a4165e"},"vehicle_type_id":"4","last_reported":1747858283,"current_range_meters":4400,"station_id":"ce4bhn12rcd13ifvqgqg","pricing_plan_id":"cebpf4jnsgd1na2vs0mg"},{"bike_id":"facd851b-a0dd-4931-913d-2719efd2c117","system_id":"levelo_inurba_marseille","lat":43.279883,"lon":5.400258,"is_reserved":false,"is_disabled":false,"rental_uris":{"android":"levelo://app?vid=facd851b-a0dd-4931-913d-2719efd2c117","ios":"levelo://app?vid=facd851b-a0dd-4931-913d-2719efd2c117"},"vehicle_type_id":"4","last_reported":1747858283,"current_range_meters":4400,"station_id":"ce4bho92rcd13ifvqh4g","pricing_plan_id":"cebpf4jnsgd1na2vs0mg"},{"bike_id":"120d2ee9-9eef-4de6-a2f0-bdba292d21e6","system_id":"levelo_inurba_marseille","lat":43.284453,"lon":5.391996,"is_reserved":false,"is_disabled":false,"rental_uris":{"android":"levelo://app?vid=120d2ee9-9eef-4de6-a2f0-bdba292d21e6","ios":"levelo://app?vid=120d2ee9-9eef-4de6-a2f0-bdba292d21e6"},"vehicle_type_id":"4","last_reported":1747858283,"current_range_meters":4400,"station_id":"ce4bhoh2rcd13ifvqh5g","pricing_plan_id":"cebpf4jnsgd1na2vs0mg"},{"bike_id":"8821936a-ed67-4225-8458-b8d62cad46ab","system_id":"levelo_inurba_marseille","lat":43.23189,"lon":5.35548,"is_reserved":false,"is_disabled":false,"rental_uris":{"android":"levelo://app?vid=8821936a-ed67-4225-8458-b8d62cad46ab","ios":"levelo://app?vid=8821936a-ed67-4225-8458-b8d62cad46ab"},"vehicle_type_id":"4","last_reported":1747858283,"current_range_meters":4400,"station_id":"ce4bhu92rcd13ifvqi70","pricing_plan_id":"cebpf4jnsgd1na2vs0mg"},{"bike_id":"bffbaf88-357a-4e87-a68c-a9a27a6e01e6","system_id":"levelo_inurba_marseille","lat":43.26225,"lon":5.42126,"is_reserved":false,"is_disabled":false,"rental_uris":{"android":"levelo://app?vid=bffbaf88-357a-4e87-a68c-a9a27a6e01e6","ios":"levelo://app?vid=bffbaf88-357a-4e87-a68c-a9a27a6e01e6"},"vehicle_type_id":"4","last_reported":1747858283,"current_range_meters":4800,"station_id":"","pricing_plan_id":"cebpf4jnsgd1na2vs0mg"},{"bike_id":"d143c7c1-519d-4b48-a1fa-113612b10da1","system_id":"levelo_inurba_marseille","lat":43.29968,"lon":5.38493,"is_reserved":false,"is_disabled":false,"rental_uris":{"android":"levelo://app?vid=d143c7c1-519d-4b48-a1fa-113612b10da1","ios":"levelo://app?vid=d143c7c1-519d-4b48-a1fa-113612b10da1"},"vehicle_type_id":"4","last_reported":1747858283,"current_range_meters":4800,"station_id":"ce4bgj92rcd13ifvqbd0","pricing_plan_id":"cebpf4jnsgd1na2vs0mg"},{"bike_id":"283e1cce-be37-490d-8408-473239484cfd","system_id":"levelo_inurba_marseille","lat":43.29027,"lon":5.38641,"is_reserved":false,"is_disabled":false,"rental_uris":{"android":"levelo://app?vid=283e1cce-be37-490d-8408-473239484cfd","ios":"levelo://app?vid=283e1cce-be37-490d-8408-473239484cfd"},"vehicle_type_id":"4","last_reported":1747858283,"current_range_meters":4800,"station_id":"ce4bh4p2rcd13ifvqe0g","pricing_plan_id":"cebpf4jnsgd1na2vs0mg"},{"bike_id":"489fb53a-37d6-4591-9b59-ef2fd8c29c56","system_id":"levelo_inurba_marseille","lat":43.29264,"lon":5.38434,"is_reserved":false,"is_disabled":false,"rental_uris":{"android":"levelo://app?vid=489fb53a-37d6-4591-9b59-ef2fd8c29c56","ios":"levelo://app?vid=489fb53a-37d6-4591-9b59-ef2fd8c29c56"},"vehicle_type_id":"4","last_reported":1747858283,"current_range_meters":4800,"station_id":"ce4bh692rcd13ifvqea0","pricing_plan_id":"cebpf4jnsgd1na2vs0mg"},{"bike_id":"19725071-7101-49bc-8fd2-a657fe1b9e1d","system_id":"levelo_inurba_marseille","lat":43.27835,"lon":5.39203,"is_reserved":false,"is_disabled":false,"rental_uris":{"android":"levelo://app?vid=19725071-7101-49bc-8fd2-a657fe1b9e1d","ios":"levelo://app?vid=19725071-7101-49bc-8fd2-a657fe1b9e1d"},"vehicle_type_id":"4","last_reported":1747858283,"current_range_meters":4800,"station_id":"ce4bhjp2rcd13ifvqga0","pricing_plan_id":"cebpf4jnsgd1na2vs0mg"},{"bike_id":"3cceb80d-622b-4ad7-bff8-e5ce3b6e9f81","system_id":"levelo_inurba_marseille","lat":43.27992,"lon":5.40009,"is_reserved":false,"is_disabled":false,"rental_uris":{"android":"levelo://app?vid=3cceb80d-622b-4ad7-bff8-e5ce3b6e9f81","ios":"levelo://app?vid=3cceb80d-622b-4ad7-bff8-e5ce3b6e9f81"},"vehicle_type_id":"4","last_reported":1747858283,"current_range_meters":4800,"station_id":"ce4bho92rcd13ifvqh4g","pricing_plan_id":"cebpf4jnsgd1na2vs0mg"},{"bike_id":"8c49333a-4d73-42d6-866d-43001ed64431","system_id":"levelo_inurba_marseille","lat":43.217462,"lon":5.346039,"is_reserved":false,"is_disabled":false,"rental_uris":{"android":"levelo://app?vid=8c49333a-4d73-42d6-866d-43001ed64431","ios":"levelo://app?vid=8c49333a-4d73-42d6-866d-43001ed64431"},"vehicle_type_id":"4","last_reported":1747858283,"current_range_meters":4800,"station_id":"st_cvj6r9ubvosntc0bgbag","pricing_plan_id":"cebpf4jnsgd1na2vs0mg"},{"bike_id":"15dcdbbd-a41e-43eb-9ed6-26ec15ce7a50","system_id":"levelo_inurba_marseille","lat":43.21409,"lon":5.3411,"is_reserved":false,"is_disabled":false,"rental_uris":{"android":"levelo://app?vid=15dcdbbd-a41e-43eb-9ed6-26ec15ce7a50","ios":"levelo://app?vid=15dcdbbd-a41e-43eb-9ed6-26ec15ce7a50"},"vehicle_type_id":"4","last_reported":1747858283,"current_range_meters":5600,"station_id":"","pricing_plan_id":"cebpf4jnsgd1na2vs0mg"},{"bike_id":"348511e0-a66f-4844-8bde-0a5add92e6f9","system_id":"levelo_inurba_marseille","lat":43.29262,"lon":5.37606,"is_reserved":false,"is_disabled":false,"rental_uris":{"android":"levelo://app?vid=348511e0-a66f-4844-8bde-0a5add92e6f9","ios":"levelo://app?vid=348511e0-a66f-4844-8bde-0a5add92e6f9"},"vehicle_type_id":"4","last_reported":1747858283,"current_range_meters":5600,"station_id":"ce4bgi12rcd13ifvqb80","pricing_plan_id":"cebpf4jnsgd1na2vs0mg"},{"bike_id":"73e6fc32-6dbe-48f3-bec4-ac19f86adf46","system_id":"levelo_inurba_marseille","lat":43.2979,"lon":5.39342,"is_reserved":false,"is_disabled":false,"rental_uris":{"android":"levelo://app?vid=73e6fc32-6dbe-48f3-bec4-ac19f86adf46","ios":"levelo://app?vid=73e6fc32-6dbe-48f3-bec4-ac19f86adf46"},"vehicle_type_id":"4","last_reported":1747858283,"current_range_meters":5600,"station_id":"chh1huq6cuj3fo74tm60","pricing_plan_id":"cebpf4jnsgd1na2vs0mg"},{"bike_id":"409b0ad6-74ae-4323-9262-8e5f4e45b0aa","system_id":"levelo_inurba_marseille","lat":43.29781,"lon":5.39343,"is_reserved":false,"is_disabled":false,"rental_uris":{"android":"levelo://app?vid=409b0ad6-74ae-4323-9262-8e5f4e45b0aa","ios":"levelo://app?vid=409b0ad6-74ae-4323-9262-8e5f4e45b0aa"},"vehicle_type_id":"4","last_reported":1747858283,"current_range_meters":5600,"station_id":"chh1huq6cuj3fo74tm60","pricing_plan_id":"cebpf4jnsgd1na2vs0mg"},{"bike_id":"b3a488c2-6890-4489-b1eb-4df8835d5378","system_id":"levelo_inurba_marseille","lat":43.28722,"lon":5.361,"is_reserved":false,"is_disabled":false,"rental_uris":{"android":"levelo://app?vid=b3a488c2-6890-4489-b1eb-4df8835d5378","ios":"levelo://app?vid=b3a488c2-6890-4489-b1eb-4df8835d5378"},"vehicle_type_id":"4","last_reported":1747858283,"current_range_meters":5600,"station_id":"cki0cbj6b192h4jlfktg","pricing_plan_id":"cebpf4jnsgd1na2vs0mg"},{"bike_id":"c0bf97c4-a0fe-474e-aa6e-f4044f543fac","system_id":"levelo_inurba_marseille","lat":43.30887,"lon":5.39645,"is_reserved":false,"is_disabled":false,"rental_uris":{"android":"levelo://app?vid=c0bf97c4-a0fe-474e-aa6e-f4044f543fac","ios":"levelo://app?vid=c0bf97c4-a0fe-474e-aa6e-f4044f543fac"},"vehicle_type_id":"4","last_reported":1747858283,"current_range_meters":6000,"station_id":"ce4bh012rcd13ifvqcv0","pricing_plan_id":"cebpf4jnsgd1na2vs0mg"},{"bike_id":"d9927bf4-e4e5-4010-9382-75c41a3213ff","system_id":"levelo_inurba_marseille","lat":43.28424,"lon":5.37505,"is_reserved":false,"is_disabled":false,"rental_uris":{"android":"levelo://app?vid=d9927bf4-e4e5-4010-9382-75c41a3213ff","ios":"levelo://app?vid=d9927bf4-e4e5-4010-9382-75c41a3213ff"},"vehicle_type_id":"4","last_reported":1747858283,"current_range_meters":6000,"station_id":"ce4bh412rcd13ifvqds0","pricing_plan_id":"cebpf4jnsgd1na2vs0mg"},{"bike_id":"9a342657-1c11-48e9-8699-138b4f0da621","system_id":"levelo_inurba_marseille","lat":43.29271,"lon":5.38456,"is_reserved":false,"is_disabled":false,"rental_uris":{"android":"levelo://app?vid=9a342657-1c11-48e9-8699-138b4f0da621","ios":"levelo://app?vid=9a342657-1c11-48e9-8699-138b4f0da621"},"vehicle_type_id":"4","last_reported":1747858283,"current_range_meters":6000,"station_id":"ce4bh692rcd13ifvqea0","pricing_plan_id":"cebpf4jnsgd1na2vs0mg"},{"bike_id":"1c709862-e456-401f-9f03-e0ba27c24bd5","system_id":"levelo_inurba_marseille","lat":43.29051,"lon":5.38095,"is_reserved":false,"is_disabled":false,"rental_uris":{"android":"levelo://app?vid=1c709862-e456-401f-9f03-e0ba27c24bd5","ios":"levelo://app?vid=1c709862-e456-401f-9f03-e0ba27c24bd5"},"vehicle_type_id":"4","last_reported":1747858283,"current_range_meters":6400,"station_id":"","pricing_plan_id":"cebpf4jnsgd1na2vs0mg"},{"bike_id":"49c965f0-d3ad-4307-99b2-8ea882cae1ca","system_id":"levelo_inurba_marseille","lat":43.284467,"lon":5.391925,"is_reserved":false,"is_disabled":false,"rental_uris":{"android":"levelo://app?vid=49c965f0-d3ad-4307-99b2-8ea882cae1ca","ios":"levelo://app?vid=49c965f0-d3ad-4307-99b2-8ea882cae1ca"},"vehicle_type_id":"4","last_reported":1747858283,"current_range_meters":6400,"station_id":"","pricing_plan_id":"cebpf4jnsgd1na2vs0mg"},{"bike_id":"6bf1b2a1-4f49-4bd2-ad2d-888585ebe386","system_id":"levelo_inurba_marseille","lat":43.29498,"lon":5.37765,"is_reserved":false,"is_disabled":false,"rental_uris":{"android":"levelo://app?vid=6bf1b2a1-4f49-4bd2-ad2d-888585ebe386","ios":"levelo://app?vid=6bf1b2a1-4f49-4bd2-ad2d-888585ebe386"},"vehicle_type_id":"4","last_reported":1747858283,"current_range_meters":6400,"station_id":"","pricing_plan_id":"cebpf4jnsgd1na2vs0mg"},{"bike_id":"0e62badc-dc87-460f-9b5e-afafbd9daf99","system_id":"levelo_inurba_marseille","lat":43.31377,"lon":5.37428,"is_reserved":false,"is_disabled":false,"rental_uris":{"android":"levelo://app?vid=0e62badc-dc87-460f-9b5e-afafbd9daf99","ios":"levelo://app?vid=0e62badc-dc87-460f-9b5e-afafbd9daf99"},"vehicle_type_id":"4","last_reported":1747858283,"current_range_meters":6400,"station_id":"","pricing_plan_id":"cebpf4jnsgd1na2vs0mg"},{"bike_id":"36a94c12-90f4-4eef-ac23-d2824ac9deb3","system_id":"levelo_inurba_marseille","lat":43.30543,"lon":5.36541,"is_reserved":false,"is_disabled":false,"rental_uris":{"android":"levelo://app?vid=36a94c12-90f4-4eef-ac23-d2824ac9deb3","ios":"levelo://app?vid=36a94c12-90f4-4eef-ac23-d2824ac9deb3"},"vehicle_type_id":"4","last_reported":1747858283,"current_range_meters":6400,"station_id":"ce4bgs12rcd13ifvqcag","pricing_plan_id":"cebpf4jnsgd1na2vs0mg"},{"bike_id":"6c86386b-3fbf-4d8e-bbc5-c7266dca5ac0","system_id":"levelo_inurba_marseille","lat":43.30878,"lon":5.39631,"is_reserved":false,"is_disabled":false,"rental_uris":{"android":"levelo://app?vid=6c86386b-3fbf-4d8e-bbc5-c7266dca5ac0","ios":"levelo://app?vid=6c86386b-3fbf-4d8e-bbc5-c7266dca5ac0"},"vehicle_type_id":"4","last_reported":1747858283,"current_range_meters":6400,"station_id":"ce4bh012rcd13ifvqcv0","pricing_plan_id":"cebpf4jnsgd1na2vs0mg"},{"bike_id":"9e0c8126-05d5-4dc7-9369-bdfac1fc405d","system_id":"levelo_inurba_marseille","lat":43.30089,"lon":5.39073,"is_reserved":false,"is_disabled":false,"rental_uris":{"android":"levelo://app?vid=9e0c8126-05d5-4dc7-9369-bdfac1fc405d","ios":"levelo://app?vid=9e0c8126-05d5-4dc7-9369-bdfac1fc405d"},"vehicle_type_id":"4","last_reported":1747858283,"current_range_meters":6400,"station_id":"ce4bh192rcd13ifvqdb0","pricing_plan_id":"cebpf4jnsgd1na2vs0mg"},{"bike_id":"b557d378-56e0-4b13-9111-7e1632171dc1","system_id":"levelo_inurba_marseille","lat":43.29042,"lon":5.37565,"is_reserved":false,"is_disabled":false,"rental_uris":{"android":"levelo://app?vid=b557d378-56e0-4b13-9111-7e1632171dc1","ios":"levelo://app?vid=b557d378-56e0-4b13-9111-7e1632171dc1"},"vehicle_type_id":"4","last_reported":1747858283,"current_range_meters":6400,"station_id":"ce4bh692rcd13ifvqe90","pricing_plan_id":"cebpf4jnsgd1na2vs0mg"},{"bike_id":"b28d5a42-d9b9-4408-a163-f7b8cf56f036","system_id":"levelo_inurba_marseille","lat":43.28081,"lon":5.39645,"is_reserved":false,"is_disabled":false,"rental_uris":{"android":"levelo://app?vid=b28d5a42-d9b9-4408-a163-f7b8cf56f036","ios":"levelo://app?vid=b28d5a42-d9b9-4408-a163-f7b8cf56f036"},"vehicle_type_id":"4","last_reported":1747858283,"current_range_meters":6400,"station_id":"ce4bho12rcd13ifvqh2g","pricing_plan_id":"cebpf4jnsgd1na2vs0mg"},{"bike_id":"b8b511c7-6f48-45be-97af-1e0036b54cc5","system_id":"levelo_inurba_marseille","lat":43.27355,"lon":5.42412,"is_reserved":false,"is_disabled":false,"rental_uris":{"android":"levelo://app?vid=b8b511c7-6f48-45be-97af-1e0036b54cc5","ios":"levelo://app?vid=b8b511c7-6f48-45be-97af-1e0036b54cc5"},"vehicle_type_id":"4","last_reported":1747858283,"current_range_meters":6800,"station_id":"","pricing_plan_id":"cebpf4jnsgd1na2vs0mg"},{"bike_id":"95e6add2-227f-42f0-bbd6-5a7cc45f83d3","system_id":"levelo_inurba_marseille","lat":43.26233,"lon":5.40452,"is_reserved":false,"is_disabled":false,"rental_uris":{"android":"levelo://app?vid=95e6add2-227f-42f0-bbd6-5a7cc45f83d3","ios":"levelo://app?vid=95e6add2-227f-42f0-bbd6-5a7cc45f83d3"},"vehicle_type_id":"4","last_reported":1747858283,"current_range_meters":6800,"station_id":"ce4bhmh2rcd13ifvqgmg","pricing_plan_id":"cebpf4jnsgd1na2vs0mg"},{"bike_id":"0c4b6638-f1ec-460e-8063-7863c3cfd732","system_id":"levelo_inurba_marseille","lat":43.21751,"lon":5.34599,"is_reserved":false,"is_disabled":false,"rental_uris":{"android":"levelo://app?vid=0c4b6638-f1ec-460e-8063-7863c3cfd732","ios":"levelo://app?vid=0c4b6638-f1ec-460e-8063-7863c3cfd732"},"vehicle_type_id":"4","last_reported":1747858283,"current_range_meters":6800,"station_id":"st_cvj6r9ubvosntc0bgbag","pricing_plan_id":"cebpf4jnsgd1na2vs0mg"},{"bike_id":"99f73d8c-ff21-451c-8082-80384eaeabfc","system_id":"levelo_inurba_marseille","lat":43.3053,"lon":5.36721,"is_reserved":false,"is_disabled":false,"rental_uris":{"android":"levelo://app?vid=99f73d8c-ff21-451c-8082-80384eaeabfc","ios":"levelo://app?vid=99f73d8c-ff21-451c-8082-80384eaeabfc"},"vehicle_type_id":"4","last_reported":1747858283,"current_range_meters":7200,"station_id":"","pricing_plan_id":"cebpf4jnsgd1na2vs0mg"},{"bike_id":"e8162579-a5ad-485f-ad83-fec8a2ebe7e1","system_id":"levelo_inurba_marseille","lat":43.26826,"lon":5.39099,"is_reserved":false,"is_disabled":false,"rental_uris":{"android":"levelo://app?vid=e8162579-a5ad-485f-ad83-fec8a2ebe7e1","ios":"levelo://app?vid=e8162579-a5ad-485f-ad83-fec8a2ebe7e1"},"vehicle_type_id":"4","last_reported":1747858283,"current_range_meters":7200,"station_id":"","pricing_plan_id":"cebpf4jnsgd1na2vs0mg"},{"bike_id":"3552fbf2-b43a-446f-93f5-d695fc251b73","system_id":"levelo_inurba_marseille","lat":43.25246,"lon":5.37484,"is_reserved":false,"is_disabled":false,"rental_uris":{"android":"levelo://app?vid=3552fbf2-b43a-446f-93f5-d695fc251b73","ios":"levelo://app?vid=3552fbf2-b43a-446f-93f5-d695fc251b73"},"vehicle_type_id":"4","last_reported":1747858283,"current_range_meters":7200,"station_id":"","pricing_plan_id":"cebpf4jnsgd1na2vs0mg"},{"bike_id":"04c50b9a-9650-40d2-b2d5-743fe343ceab","system_id":"levelo_inurba_marseille","lat":43.29313,"lon":5.37173,"is_reserved":false,"is_disabled":false,"rental_uris":{"android":"levelo://app?vid=04c50b9a-9650-40d2-b2d5-743fe343ceab","ios":"levelo://app?vid=04c50b9a-9650-40d2-b2d5-743fe343ceab"},"vehicle_type_id":"4","last_reported":1747858283,"current_range_meters":7200,"station_id":"ce4bgh92rcd13ifvqb40","pricing_plan_id":"cebpf4jnsgd1na2vs0mg"},{"bike_id":"0cfc7bf4-d005-4632-bc32-0e9d42465197","system_id":"levelo_inurba_marseille","lat":43.28719,"lon":5.37936,"is_reserved":false,"is_disabled":false,"rental_uris":{"android":"levelo://app?vid=0cfc7bf4-d005-4632-bc32-0e9d42465197","ios":"levelo://app?vid=0cfc7bf4-d005-4632-bc32-0e9d42465197"},"vehicle_type_id":"4","last_reported":1747858283,"current_range_meters":7200,"station_id":"ce4bh9p2rcd13ifvqec0","pricing_plan_id":"cebpf4jnsgd1na2vs0mg"},{"bike_id":"71352ec2-1166-4e93-88a5-744bab74f102","system_id":"levelo_inurba_marseille","lat":43.29277,"lon":5.36839,"is_reserved":false,"is_disabled":false,"rental_uris":{"android":"levelo://app?vid=71352ec2-1166-4e93-88a5-744bab74f102","ios":"levelo://app?vid=71352ec2-1166-4e93-88a5-744bab74f102"},"vehicle_type_id":"4","last_reported":1747858283,"current_range_meters":7200,"station_id":"ce4bhbp2rcd13ifvqesg","pricing_plan_id":"cebpf4jnsgd1na2vs0mg"},{"bike_id":"4ca9d041-568d-4778-8409-e1400fd47ab9","system_id":"levelo_inurba_marseille","lat":43.31999,"lon":5.38163,"is_reserved":false,"is_disabled":false,"rental_uris":{"android":"levelo://app?vid=4ca9d041-568d-4778-8409-e1400fd47ab9","ios":"levelo://app?vid=4ca9d041-568d-4778-8409-e1400fd47ab9"},"vehicle_type_id":"4","last_reported":1747858283,"current_range_meters":7200,"station_id":"ce4bhr12rcd13ifvqhpg","pricing_plan_id":"cebpf4jnsgd1na2vs0mg"},{"bike_id":"c1a1f9ac-5fdb-48ff-b634-f6f1768bf009","system_id":"levelo_inurba_marseille","lat":43.30889,"lon":5.39597,"is_reserved":false,"is_disabled":false,"rental_uris":{"android":"levelo://app?vid=c1a1f9ac-5fdb-48ff-b634-f6f1768bf009","ios":"levelo://app?vid=c1a1f9ac-5fdb-48ff-b634-f6f1768bf009"},"vehicle_type_id":"4","last_reported":1747858283,"current_range_meters":8000,"station_id":"","pricing_plan_id":"cebpf4jnsgd1na2vs0mg"},{"bike_id":"b8dc7552-1816-4aa1-a561-64ff8d248912","system_id":"levelo_inurba_marseille","lat":43.29595,"lon":5.38103,"is_reserved":false,"is_disabled":false,"rental_uris":{"android":"levelo://app?vid=b8dc7552-1816-4aa1-a561-64ff8d248912","ios":"levelo://app?vid=b8dc7552-1816-4aa1-a561-64ff8d248912"},"vehicle_type_id":"4","last_reported":1747858283,"current_range_meters":8000,"station_id":"ce4bgl12rcd13ifvqbo0","pricing_plan_id":"cebpf4jnsgd1na2vs0mg"},{"bike_id":"badf7446-eba7-4e16-a9fe-db1ac0d3ae55","system_id":"levelo_inurba_marseille","lat":43.28403,"lon":5.37511,"is_reserved":false,"is_disabled":false,"rental_uris":{"android":"levelo://app?vid=badf7446-eba7-4e16-a9fe-db1ac0d3ae55","ios":"levelo://app?vid=badf7446-eba7-4e16-a9fe-db1ac0d3ae55"},"vehicle_type_id":"4","last_reported":1747858283,"current_range_meters":8000,"station_id":"ce4bh412rcd13ifvqds0","pricing_plan_id":"cebpf4jnsgd1na2vs0mg"},{"bike_id":"1696e7c5-75c0-4bac-b016-18b18e3f1864","system_id":"levelo_inurba_marseille","lat":43.29031,"lon":5.38128,"is_reserved":false,"is_disabled":false,"rental_uris":{"android":"levelo://app?vid=1696e7c5-75c0-4bac-b016-18b18e3f1864","ios":"levelo://app?vid=1696e7c5-75c0-4bac-b016-18b18e3f1864"},"vehicle_type_id":"4","last_reported":1747858283,"current_range_meters":8000,"station_id":"ce4bh4p2rcd13ifvqe1g","pricing_plan_id":"cebpf4jnsgd1na2vs0mg"},{"bike_id":"cc699311-6a6a-4b35-88a6-27d0fe740b67","system_id":"levelo_inurba_marseille","lat":43.29096,"lon":5.38128,"is_reserved":false,"is_disabled":false,"rental_uris":{"android":"levelo://app?vid=cc699311-6a6a-4b35-88a6-27d0fe740b67","ios":"levelo://app?vid=cc699311-6a6a-4b35-88a6-27d0fe740b67"},"vehicle_type_id":"4","last_reported":1747858283,"current_range_meters":8000,"station_id":"ce4bh512rcd13ifvqe2g","pricing_plan_id":"cebpf4jnsgd1na2vs0mg"},{"bike_id":"23aedf87-0764-4522-a0dc-6515d1b10b43","system_id":"levelo_inurba_marseille","lat":43.27904,"lon":5.38019,"is_reserved":false,"is_disabled":false,"rental_uris":{"android":"levelo://app?vid=23aedf87-0764-4522-a0dc-6515d1b10b43","ios":"levelo://app?vid=23aedf87-0764-4522-a0dc-6515d1b10b43"},"vehicle_type_id":"4","last_reported":1747858283,"current_range_meters":8000,"station_id":"ce4bhf92rcd13ifvqf50","pricing_plan_id":"cebpf4jnsgd1na2vs0mg"},{"bike_id":"66804db3-3a6b-44b9-a492-f6965493222f","system_id":"levelo_inurba_marseille","lat":43.25125,"lon":5.40319,"is_reserved":false,"is_disabled":false,"rental_uris":{"android":"levelo://app?vid=66804db3-3a6b-44b9-a492-f6965493222f","ios":"levelo://app?vid=66804db3-3a6b-44b9-a492-f6965493222f"},"vehicle_type_id":"4","last_reported":1747858283,"current_range_meters":8000,"station_id":"ce4bhlh2rcd13ifvqgig","pricing_plan_id":"cebpf4jnsgd1na2vs0mg"},{"bike_id":"7b19ae3d-375f-484a-ac22-3d52f30e632f","system_id":"levelo_inurba_marseille","lat":43.23184,"lon":5.39976,"is_reserved":false,"is_disabled":false,"rental_uris":{"android":"levelo://app?vid=7b19ae3d-375f-484a-ac22-3d52f30e632f","ios":"levelo://app?vid=7b19ae3d-375f-484a-ac22-3d52f30e632f"},"vehicle_type_id":"4","last_reported":1747858283,"current_range_meters":8000,"station_id":"ce4bhn12rcd13ifvqgqg","pricing_plan_id":"cebpf4jnsgd1na2vs0mg"},{"bike_id":"523c51a0-4f9e-4594-9a7b-b8d370f02cd8","system_id":"levelo_inurba_marseille","lat":43.24071,"lon":5.37755,"is_reserved":false,"is_disabled":false,"rental_uris":{"android":"levelo://app?vid=523c51a0-4f9e-4594-9a7b-b8d370f02cd8","ios":"levelo://app?vid=523c51a0-4f9e-4594-9a7b-b8d370f02cd8"},"vehicle_type_id":"4","last_reported":1747858283,"current_range_meters":8000,"station_id":"ce4bhnp2rcd13ifvqgvg","pricing_plan_id":"cebpf4jnsgd1na2vs0mg"},{"bike_id":"1ff4dd87-bf56-4ab1-8365-aad71fcb827c","system_id":"levelo_inurba_marseille","lat":43.316076,"lon":5.423906,"is_reserved":false,"is_disabled":false,"rental_uris":{"android":"levelo://app?vid=1ff4dd87-bf56-4ab1-8365-aad71fcb827c","ios":"levelo://app?vid=1ff4dd87-bf56-4ab1-8365-aad71fcb827c"},"vehicle_type_id":"4","last_reported":1747858283,"current_range_meters":8000,"station_id":"ce4bhp92rcd13ifvqhbg","pricing_plan_id":"cebpf4jnsgd1na2vs0mg"},{"bike_id":"4c935f85-4440-4a38-ba89-3c06fe79b1b3","system_id":"levelo_inurba_marseille","lat":43.30601,"lon":5.37234,"is_reserved":false,"is_disabled":false,"rental_uris":{"android":"levelo://app?vid=4c935f85-4440-4a38-ba89-3c06fe79b1b3","ios":"levelo://app?vid=4c935f85-4440-4a38-ba89-3c06fe79b1b3"},"vehicle_type_id":"4","last_reported":1747858283,"current_range_meters":8400,"station_id":"","pricing_plan_id":"cebpf4jnsgd1na2vs0mg"},{"bike_id":"103450c0-eff4-42bc-bcce-ed42d8883806","system_id":"levelo_inurba_marseille","lat":43.28675,"lon":5.41583,"is_reserved":false,"is_disabled":false,"rental_uris":{"android":"levelo://app?vid=103450c0-eff4-42bc-bcce-ed42d8883806","ios":"levelo://app?vid=103450c0-eff4-42bc-bcce-ed42d8883806"},"vehicle_type_id":"4","last_reported":1747858283,"current_range_meters":8400,"station_id":"","pricing_plan_id":"cebpf4jnsgd1na2vs0mg"},{"bike_id":"ef8f3f04-00a2-4bce-8848-c66f4b30c735","system_id":"levelo_inurba_marseille","lat":43.29599,"lon":5.38089,"is_reserved":false,"is_disabled":false,"rental_uris":{"android":"levelo://app?vid=ef8f3f04-00a2-4bce-8848-c66f4b30c735","ios":"levelo://app?vid=ef8f3f04-00a2-4bce-8848-c66f4b30c735"},"vehicle_type_id":"4","last_reported":1747858283,"current_range_meters":8400,"station_id":"ce4bgl12rcd13ifvqbo0","pricing_plan_id":"cebpf4jnsgd1na2vs0mg"},{"bike_id":"f549fa19-0d0c-4783-93a3-93dc52000a0d","system_id":"levelo_inurba_marseille","lat":43.30936,"lon":5.40143,"is_reserved":false,"is_disabled":false,"rental_uris":{"android":"levelo://app?vid=f549fa19-0d0c-4783-93a3-93dc52000a0d","ios":"levelo://app?vid=f549fa19-0d0c-4783-93a3-93dc52000a0d"},"vehicle_type_id":"4","last_reported":1747858283,"current_range_meters":8400,"station_id":"ce4bgvp2rcd13ifvqct0","pricing_plan_id":"cebpf4jnsgd1na2vs0mg"},{"bike_id":"cfe31c57-6a47-46c7-8ee5-6ac8c0bff682","system_id":"levelo_inurba_marseille","lat":43.28671,"lon":5.38659,"is_reserved":false,"is_disabled":false,"rental_uris":{"android":"levelo://app?vid=cfe31c57-6a47-46c7-8ee5-6ac8c0bff682","ios":"levelo://app?vid=cfe31c57-6a47-46c7-8ee5-6ac8c0bff682"},"vehicle_type_id":"4","last_reported":1747858283,"current_range_meters":8400,"station_id":"ce4bh492rcd13ifvqdug","pricing_plan_id":"cebpf4jnsgd1na2vs0mg"},{"bike_id":"91de16ff-cf37-426b-8e6b-8b6c31a3b694","system_id":"levelo_inurba_marseille","lat":43.28464,"lon":5.35884,"is_reserved":false,"is_disabled":false,"rental_uris":{"android":"levelo://app?vid=91de16ff-cf37-426b-8e6b-8b6c31a3b694","ios":"levelo://app?vid=91de16ff-cf37-426b-8e6b-8b6c31a3b694"},"vehicle_type_id":"4","last_reported":1747858283,"current_range_meters":8400,"station_id":"ce4bhah2rcd13ifvqei0","pricing_plan_id":"cebpf4jnsgd1na2vs0mg"},{"bike_id":"30123f46-561e-45a4-b9ef-f1bdd47631b5","system_id":"levelo_inurba_marseille","lat":43.28274,"lon":5.35058,"is_reserved":false,"is_disabled":false,"rental_uris":{"android":"levelo://app?vid=30123f46-561e-45a4-b9ef-f1bdd47631b5","ios":"levelo://app?vid=30123f46-561e-45a4-b9ef-f1bdd47631b5"},"vehicle_type_id":"4","last_reported":1747858283,"current_range_meters":8400,"station_id":"ce4bhbp2rcd13ifvqerg","pricing_plan_id":"cebpf4jnsgd1na2vs0mg"},{"bike_id":"7a0f274a-cedf-45c0-bbdb-cc0f24eaa294","system_id":"levelo_inurba_marseille","lat":43.32491,"lon":5.36551,"is_reserved":false,"is_disabled":false,"rental_uris":{"android":"levelo://app?vid=7a0f274a-cedf-45c0-bbdb-cc0f24eaa294","ios":"levelo://app?vid=7a0f274a-cedf-45c0-bbdb-cc0f24eaa294"},"vehicle_type_id":"4","last_reported":1747858283,"current_range_meters":8400,"station_id":"ce4bhs12rcd13ifvqhvg","pricing_plan_id":"cebpf4jnsgd1na2vs0mg"},{"bike_id":"0e7d9f30-c5fd-48d2-9fea-501ed4952a36","system_id":"levelo_inurba_marseille","lat":43.268036,"lon":5.40265,"is_reserved":false,"is_disabled":false,"rental_uris":{"android":"levelo://app?vid=0e7d9f30-c5fd-48d2-9fea-501ed4952a36","ios":"levelo://app?vid=0e7d9f30-c5fd-48d2-9fea-501ed4952a36"},"vehicle_type_id":"4","last_reported":1747858283,"current_range_meters":8400,"station_id":"ce501612rcd8frsf0b60","pricing_plan_id":"cebpf4jnsgd1na2vs0mg"},{"bike_id":"efa465c1-b3ce-468d-bfa0-fb8957c22618","system_id":"levelo_inurba_marseille","lat":43.30439,"lon":5.38885,"is_reserved":false,"is_disabled":false,"rental_uris":{"android":"levelo://app?vid=efa465c1-b3ce-468d-bfa0-fb8957c22618","ios":"levelo://app?vid=efa465c1-b3ce-468d-bfa0-fb8957c22618"},"vehicle_type_id":"4","last_reported":1747858283,"current_range_meters":8800,"station_id":"ce4bgk12rcd13ifvqbi0","pricing_plan_id":"cebpf4jnsgd1na2vs0mg"},{"bike_id":"7ea217ba-e4d2-429a-a9e4-ec6c397693a5","system_id":"levelo_inurba_marseille","lat":43.279,"lon":5.39587,"is_reserved":false,"is_disabled":false,"rental_uris":{"android":"levelo://app?vid=7ea217ba-e4d2-429a-a9e4-ec6c397693a5","ios":"levelo://app?vid=7ea217ba-e4d2-429a-a9e4-ec6c397693a5"},"vehicle_type_id":"4","last_reported":1747858283,"current_range_meters":8800,"station_id":"ce4bhf92rcd13ifvqf40","pricing_plan_id":"cebpf4jnsgd1na2vs0mg"},{"bike_id":"5485c417-c53b-4353-b99b-31ac467da04f","system_id":"levelo_inurba_marseille","lat":43.24549,"lon":5.39542,"is_reserved":false,"is_disabled":false,"rental_uris":{"android":"levelo://app?vid=5485c417-c53b-4353-b99b-31ac467da04f","ios":"levelo://app?vid=5485c417-c53b-4353-b99b-31ac467da04f"},"vehicle_type_id":"4","last_reported":1747858283,"current_range_meters":8800,"station_id":"ce4bhlp2rcd13ifvqgjg","pricing_plan_id":"cebpf4jnsgd1na2vs0mg"},{"bike_id":"19b7d6ff-e486-4d98-bdc3-846ee562bb35","system_id":"levelo_inurba_marseille","lat":43.27823,"lon":5.40721,"is_reserved":false,"is_disabled":false,"rental_uris":{"android":"levelo://app?vid=19b7d6ff-e486-4d98-bdc3-846ee562bb35","ios":"levelo://app?vid=19b7d6ff-e486-4d98-bdc3-846ee562bb35"},"vehicle_type_id":"4","last_reported":1747858283,"current_range_meters":8800,"station_id":"ce4bhnh2rcd13ifvqgtg","pricing_plan_id":"cebpf4jnsgd1na2vs0mg"},{"bike_id":"0ad5832c-71b4-4a12-ac9d-39cb7b31a4da","system_id":"levelo_inurba_marseille","lat":43.2861,"lon":5.37065,"is_reserved":false,"is_disabled":false,"rental_uris":{"android":"levelo://app?vid=0ad5832c-71b4-4a12-ac9d-39cb7b31a4da","ios":"levelo://app?vid=0ad5832c-71b4-4a12-ac9d-39cb7b31a4da"},"vehicle_type_id":"4","last_reported":1747858283,"current_range_meters":8800,"station_id":"ce4bht12rcd13ifvqi60","pricing_plan_id":"cebpf4jnsgd1na2vs0mg"},{"bike_id":"dc53f8be-ab14-4142-9f04-5d373c92c9a5","system_id":"levelo_inurba_marseille","lat":43.217526,"lon":5.346013,"is_reserved":false,"is_disabled":false,"rental_uris":{"android":"levelo://app?vid=dc53f8be-ab14-4142-9f04-5d373c92c9a5","ios":"levelo://app?vid=dc53f8be-ab14-4142-9f04-5d373c92c9a5"},"vehicle_type_id":"4","last_reported":1747858283,"current_range_meters":8800,"station_id":"st_cvj6r9ubvosntc0bgbag","pricing_plan_id":"cebpf4jnsgd1na2vs0mg"},{"bike_id":"07a21b3e-45a3-4abd-8ae2-7d638f4951d3","system_id":"levelo_inurba_marseille","lat":43.29308,"lon":5.37179,"is_reserved":false,"is_disabled":false,"rental_uris":{"android":"levelo://app?vid=07a21b3e-45a3-4abd-8ae2-7d638f4951d3","ios":"levelo://app?vid=07a21b3e-45a3-4abd-8ae2-7d638f4951d3"},"vehicle_type_id":"4","last_reported":1747858283,"current_range_meters":9200,"station_id":"ce4bgh92rcd13ifvqb40","pricing_plan_id":"cebpf4jnsgd1na2vs0mg"},{"bike_id":"d5e8daf7-00b2-4751-8f9c-dfbb145b8a9d","system_id":"levelo_inurba_marseille","lat":43.28366,"lon":5.38105,"is_reserved":false,"is_disabled":false,"rental_uris":{"android":"levelo://app?vid=d5e8daf7-00b2-4751-8f9c-dfbb145b8a9d","ios":"levelo://app?vid=d5e8daf7-00b2-4751-8f9c-dfbb145b8a9d"},"vehicle_type_id":"4","last_reported":1747858283,"current_range_meters":9200,"station_id":"ce4bh412rcd13ifvqdr0","pricing_plan_id":"cebpf4jnsgd1na2vs0mg"},{"bike_id":"26bed040-add8-4eb3-b0c1-0581bc690645","system_id":"levelo_inurba_marseille","lat":43.2903,"lon":5.38642,"is_reserved":false,"is_disabled":false,"rental_uris":{"android":"levelo://app?vid=26bed040-add8-4eb3-b0c1-0581bc690645","ios":"levelo://app?vid=26bed040-add8-4eb3-b0c1-0581bc690645"},"vehicle_type_id":"4","last_reported":1747858283,"current_range_meters":9200,"station_id":"ce4bh4p2rcd13ifvqe0g","pricing_plan_id":"cebpf4jnsgd1na2vs0mg"},{"bike_id":"db09f9c8-1cc2-45f3-9242-0ec5bbc68e06","system_id":"levelo_inurba_marseille","lat":43.28938,"lon":5.36638,"is_reserved":false,"is_disabled":false,"rental_uris":{"android":"levelo://app?vid=db09f9c8-1cc2-45f3-9242-0ec5bbc68e06","ios":"levelo://app?vid=db09f9c8-1cc2-45f3-9242-0ec5bbc68e06"},"vehicle_type_id":"4","last_reported":1747858283,"current_range_meters":9200,"station_id":"ce4bhap2rcd13ifvqek0","pricing_plan_id":"cebpf4jnsgd1na2vs0mg"},{"bike_id":"bc484f6f-eef2-4121-8e4d-0591e8f025a5","system_id":"levelo_inurba_marseille","lat":43.27983,"lon":5.38748,"is_reserved":false,"is_disabled":false,"rental_uris":{"android":"levelo://app?vid=bc484f6f-eef2-4121-8e4d-0591e8f025a5","ios":"levelo://app?vid=bc484f6f-eef2-4121-8e4d-0591e8f025a5"},"vehicle_type_id":"4","last_reported":1747858283,"current_range_meters":9200,"station_id":"ce4bhg12rcd13ifvqf80","pricing_plan_id":"cebpf4jnsgd1na2vs0mg"},{"bike_id":"3fe3d6c4-138a-47df-b6b4-e6f19e8f7d46","system_id":"levelo_inurba_marseille","lat":43.21419,"lon":5.341,"is_reserved":false,"is_disabled":false,"rental_uris":{"android":"levelo://app?vid=3fe3d6c4-138a-47df-b6b4-e6f19e8f7d46","ios":"levelo://app?vid=3fe3d6c4-138a-47df-b6b4-e6f19e8f7d46"},"vehicle_type_id":"4","last_reported":1747858283,"current_range_meters":9600,"station_id":"","pricing_plan_id":"cebpf4jnsgd1na2vs0mg"},{"bike_id":"f3adcbfd-171e-42e8-b765-564e75dea920","system_id":"levelo_inurba_marseille","lat":43.29524,"lon":5.38553,"is_reserved":false,"is_disabled":false,"rental_uris":{"android":"levelo://app?vid=f3adcbfd-171e-42e8-b765-564e75dea920","ios":"levelo://app?vid=f3adcbfd-171e-42e8-b765-564e75dea920"},"vehicle_type_id":"4","last_reported":1747858283,"current_range_meters":9600,"station_id":"ce4bgih2rcd13ifvqba0","pricing_plan_id":"cebpf4jnsgd1na2vs0mg"},{"bike_id":"d5ea65c9-b10c-445c-90a9-5f32f306e626","system_id":"levelo_inurba_marseille","lat":43.24662,"lon":5.38159,"is_reserved":false,"is_disabled":false,"rental_uris":{"android":"levelo://app?vid=d5ea65c9-b10c-445c-90a9-5f32f306e626","ios":"levelo://app?vid=d5ea65c9-b10c-445c-90a9-5f32f306e626"},"vehicle_type_id":"4","last_reported":1747858283,"current_range_meters":9600,"station_id":"ce4bhih2rcd13ifvqfr0","pricing_plan_id":"cebpf4jnsgd1na2vs0mg"},{"bike_id":"cf930a01-96bf-4713-aadc-d399945bca85","system_id":"levelo_inurba_marseille","lat":43.25729,"lon":5.41105,"is_reserved":false,"is_disabled":false,"rental_uris":{"android":"levelo://app?vid=cf930a01-96bf-4713-aadc-d399945bca85","ios":"levelo://app?vid=cf930a01-96bf-4713-aadc-d399945bca85"},"vehicle_type_id":"4","last_reported":1747858283,"current_range_meters":9600,"station_id":"ce4bhkp2rcd13ifvqgd0","pricing_plan_id":"cebpf4jnsgd1na2vs0mg"},{"bike_id":"18959684-2a54-429f-b747-ca39b85c90b6","system_id":"levelo_inurba_marseille","lat":43.28001,"lon":5.40008,"is_reserved":false,"is_disabled":false,"rental_uris":{"android":"levelo://app?vid=18959684-2a54-429f-b747-ca39b85c90b6","ios":"levelo://app?vid=18959684-2a54-429f-b747-ca39b85c90b6"},"vehicle_type_id":"4","last_reported":1747858283,"current_range_meters":9600,"station_id":"ce4bho92rcd13ifvqh4g","pricing_plan_id":"cebpf4jnsgd1na2vs0mg"},{"bike_id":"e88fa6d0-0b05-48e3-91dd-5036cdf5aa6a","system_id":"levelo_inurba_marseille","lat":43.30928,"lon":5.36852,"is_reserved":false,"is_disabled":false,"rental_uris":{"android":"levelo://app?vid=e88fa6d0-0b05-48e3-91dd-5036cdf5aa6a","ios":"levelo://app?vid=e88fa6d0-0b05-48e3-91dd-5036cdf5aa6a"},"vehicle_type_id":"4","last_reported":1747858283,"current_range_meters":10000,"station_id":"ce4bgn92rcd13ifvqbvg","pricing_plan_id":"cebpf4jnsgd1na2vs0mg"},{"bike_id":"dcbb7dc0-f0cd-4ac0-948c-2fd1d0cce904","system_id":"levelo_inurba_marseille","lat":43.284098,"lon":5.375118,"is_reserved":false,"is_disabled":false,"rental_uris":{"android":"levelo://app?vid=dcbb7dc0-f0cd-4ac0-948c-2fd1d0cce904","ios":"levelo://app?vid=dcbb7dc0-f0cd-4ac0-948c-2fd1d0cce904"},"vehicle_type_id":"4","last_reported":1747858283,"current_range_meters":10000,"station_id":"ce4bh412rcd13ifvqds0","pricing_plan_id":"cebpf4jnsgd1na2vs0mg"},{"bike_id":"e7e12a20-3927-4164-84da-ed01b9003caa","system_id":"levelo_inurba_marseille","lat":43.24186,"lon":5.39728,"is_reserved":false,"is_disabled":false,"rental_uris":{"android":"levelo://app?vid=e7e12a20-3927-4164-84da-ed01b9003caa","ios":"levelo://app?vid=e7e12a20-3927-4164-84da-ed01b9003caa"},"vehicle_type_id":"4","last_reported":1747858283,"current_range_meters":10000,"station_id":"ce4bhn12rcd13ifvqgpg","pricing_plan_id":"cebpf4jnsgd1na2vs0mg"},{"bike_id":"66af826f-2201-4c6a-b28e-440b1e7d87e7","system_id":"levelo_inurba_marseille","lat":43.28086,"lon":5.39652,"is_reserved":false,"is_disabled":false,"rental_uris":{"android":"levelo://app?vid=66af826f-2201-4c6a-b28e-440b1e7d87e7","ios":"levelo://app?vid=66af826f-2201-4c6a-b28e-440b1e7d87e7"},"vehicle_type_id":"4","last_reported":1747858283,"current_range_meters":10000,"station_id":"ce4bho12rcd13ifvqh2g","pricing_plan_id":"cebpf4jnsgd1na2vs0mg"},{"bike_id":"300868af-8985-4691-8a15-ff7731614940","system_id":"levelo_inurba_marseille","lat":43.29554,"lon":5.42274,"is_reserved":false,"is_disabled":false,"rental_uris":{"android":"levelo://app?vid=300868af-8985-4691-8a15-ff7731614940","ios":"levelo://app?vid=300868af-8985-4691-8a15-ff7731614940"},"vehicle_type_id":"4","last_reported":1747858283,"current_range_meters":10000,"station_id":"ce4bhph2rcd13ifvqhdg","pricing_plan_id":"cebpf4jnsgd1na2vs0mg"},{"bike_id":"2f34c329-54fe-438b-a307-b47c6ac8481c","system_id":"levelo_inurba_marseille","lat":43.29895,"lon":5.436633,"is_reserved":false,"is_disabled":false,"rental_uris":{"android":"levelo://app?vid=2f34c329-54fe-438b-a307-b47c6ac8481c","ios":"levelo://app?vid=2f34c329-54fe-438b-a307-b47c6ac8481c"},"vehicle_type_id":"4","last_reported":1747858283,"current_range_meters":10000,"station_id":"ce4bhpp2rcd13ifvqhfg","pricing_plan_id":"cebpf4jnsgd1na2vs0mg"},{"bike_id":"37a40661-a730-4b3b-b0b5-15accd50b9e8","system_id":"levelo_inurba_marseille","lat":43.31992,"lon":5.38159,"is_reserved":false,"is_disabled":false,"rental_uris":{"android":"levelo://app?vid=37a40661-a730-4b3b-b0b5-15accd50b9e8","ios":"levelo://app?vid=37a40661-a730-4b3b-b0b5-15accd50b9e8"},"vehicle_type_id":"4","last_reported":1747858283,"current_range_meters":10000,"station_id":"ce4bhr12rcd13ifvqhpg","pricing_plan_id":"cebpf4jnsgd1na2vs0mg"},{"bike_id":"bca267d6-a1c4-408d-b675-5941b742e459","system_id":"levelo_inurba_marseille","lat":43.22929,"lon":5.35377,"is_reserved":false,"is_disabled":false,"rental_uris":{"android":"levelo://app?vid=bca267d6-a1c4-408d-b675-5941b742e459","ios":"levelo://app?vid=bca267d6-a1c4-408d-b675-5941b742e459"},"vehicle_type_id":"4","last_reported":1747858283,"current_range_meters":10000,"station_id":"cpo3532slgdg3j2ikp40","pricing_plan_id":"cebpf4jnsgd1na2vs0mg"},{"bike_id":"291e828a-9806-4bf2-95a5-01b03fb09077","system_id":"levelo_inurba_marseille","lat":43.21751,"lon":5.34595,"is_reserved":false,"is_disabled":false,"rental_uris":{"android":"levelo://app?vid=291e828a-9806-4bf2-95a5-01b03fb09077","ios":"levelo://app?vid=291e828a-9806-4bf2-95a5-01b03fb09077"},"vehicle_type_id":"4","last_reported":1747858283,"current_range_meters":10000,"station_id":"st_cvj6r9ubvosntc0bgbag","pricing_plan_id":"cebpf4jnsgd1na2vs0mg"},{"bike_id":"155f02f5-caba-4b5e-86df-d9e4c6380f50","system_id":"levelo_inurba_marseille","lat":43.2701,"lon":5.40659,"is_reserved":false,"is_disabled":false,"rental_uris":{"android":"levelo://app?vid=155f02f5-caba-4b5e-86df-d9e4c6380f50","ios":"levelo://app?vid=155f02f5-caba-4b5e-86df-d9e4c6380f50"},"vehicle_type_id":"4","last_reported":1747858283,"current_range_meters":10800,"station_id":"","pricing_plan_id":"cebpf4jnsgd1na2vs0mg"},{"bike_id":"3945f132-fe9c-4a22-8297-6b4d2b982274","system_id":"levelo_inurba_marseille","lat":43.30939,"lon":5.40137,"is_reserved":false,"is_disabled":false,"rental_uris":{"android":"levelo://app?vid=3945f132-fe9c-4a22-8297-6b4d2b982274","ios":"levelo://app?vid=3945f132-fe9c-4a22-8297-6b4d2b982274"},"vehicle_type_id":"4","last_reported":1747858283,"current_range_meters":10800,"station_id":"ce4bgvp2rcd13ifvqct0","pricing_plan_id":"cebpf4jnsgd1na2vs0mg"},{"bike_id":"c628524f-49b4-45d7-8ca8-4060c1f1e1d1","system_id":"levelo_inurba_marseille","lat":43.28102,"lon":5.37833,"is_reserved":false,"is_disabled":false,"rental_uris":{"android":"levelo://app?vid=c628524f-49b4-45d7-8ca8-4060c1f1e1d1","ios":"levelo://app?vid=c628524f-49b4-45d7-8ca8-4060c1f1e1d1"},"vehicle_type_id":"4","last_reported":1747858283,"current_range_meters":10800,"station_id":"ce4bha12rcd13ifvqee0","pricing_plan_id":"cebpf4jnsgd1na2vs0mg"},{"bike_id":"6a46d7f2-8f04-4312-83cf-8f3d3bd45704","system_id":"levelo_inurba_marseille","lat":43.28938,"lon":5.36636,"is_reserved":false,"is_disabled":false,"rental_uris":{"android":"levelo://app?vid=6a46d7f2-8f04-4312-83cf-8f3d3bd45704","ios":"levelo://app?vid=6a46d7f2-8f04-4312-83cf-8f3d3bd45704"},"vehicle_type_id":"4","last_reported":1747858283,"current_range_meters":10800,"station_id":"ce4bhap2rcd13ifvqek0","pricing_plan_id":"cebpf4jnsgd1na2vs0mg"},{"bike_id":"6912307a-b4d5-42d8-b865-d9e0e18ad5d5","system_id":"levelo_inurba_marseille","lat":43.24541,"lon":5.3953,"is_reserved":false,"is_disabled":false,"rental_uris":{"android":"levelo://app?vid=6912307a-b4d5-42d8-b865-d9e0e18ad5d5","ios":"levelo://app?vid=6912307a-b4d5-42d8-b865-d9e0e18ad5d5"},"vehicle_type_id":"4","last_reported":1747858283,"current_range_meters":10800,"station_id":"ce4bhlp2rcd13ifvqgjg","pricing_plan_id":"cebpf4jnsgd1na2vs0mg"},{"bike_id":"cc1aa9a5-2f42-4f72-a5bf-991f6a710edb","system_id":"levelo_inurba_marseille","lat":43.25159,"lon":5.40288,"is_reserved":false,"is_disabled":false,"rental_uris":{"android":"levelo://app?vid=cc1aa9a5-2f42-4f72-a5bf-991f6a710edb","ios":"levelo://app?vid=cc1aa9a5-2f42-4f72-a5bf-991f6a710edb"},"vehicle_type_id":"4","last_reported":1747858283,"current_range_meters":11200,"station_id":"","pricing_plan_id":"cebpf4jnsgd1na2vs0mg"},{"bike_id":"b75260eb-9a92-4d9e-9e2a-1e5fe175b8c5","system_id":"levelo_inurba_marseille","lat":43.29536,"lon":5.38547,"is_reserved":false,"is_disabled":false,"rental_uris":{"android":"levelo://app?vid=b75260eb-9a92-4d9e-9e2a-1e5fe175b8c5","ios":"levelo://app?vid=b75260eb-9a92-4d9e-9e2a-1e5fe175b8c5"},"vehicle_type_id":"4","last_reported":1747858283,"current_range_meters":11200,"station_id":"ce4bgih2rcd13ifvqba0","pricing_plan_id":"cebpf4jnsgd1na2vs0mg"},{"bike_id":"a504471e-4900-4c27-8e74-225fa3f3e80d","system_id":"levelo_inurba_marseille","lat":43.28106,"lon":5.37829,"is_reserved":false,"is_disabled":false,"rental_uris":{"android":"levelo://app?vid=a504471e-4900-4c27-8e74-225fa3f3e80d","ios":"levelo://app?vid=a504471e-4900-4c27-8e74-225fa3f3e80d"},"vehicle_type_id":"4","last_reported":1747858283,"current_range_meters":11200,"station_id":"ce4bha12rcd13ifvqee0","pricing_plan_id":"cebpf4jnsgd1na2vs0mg"},{"bike_id":"1efe93ba-3f8e-4305-b8d2-4d5ee78faf2c","system_id":"levelo_inurba_marseille","lat":43.31367,"lon":5.36806,"is_reserved":false,"is_disabled":false,"rental_uris":{"android":"levelo://app?vid=1efe93ba-3f8e-4305-b8d2-4d5ee78faf2c","ios":"levelo://app?vid=1efe93ba-3f8e-4305-b8d2-4d5ee78faf2c"},"vehicle_type_id":"4","last_reported":1747858283,"current_range_meters":11600,"station_id":"","pricing_plan_id":"cebpf4jnsgd1na2vs0mg"},{"bike_id":"4d220435-47a8-4d82-80db-a1284cf3e4c5","system_id":"levelo_inurba_marseille","lat":43.28665,"lon":5.38743,"is_reserved":false,"is_disabled":false,"rental_uris":{"android":"levelo://app?vid=4d220435-47a8-4d82-80db-a1284cf3e4c5","ios":"levelo://app?vid=4d220435-47a8-4d82-80db-a1284cf3e4c5"},"vehicle_type_id":"4","last_reported":1747858283,"current_range_meters":11600,"station_id":"","pricing_plan_id":"cebpf4jnsgd1na2vs0mg"},{"bike_id":"ad67e374-ebf1-4fd6-b2c5-35f7feef359b","system_id":"levelo_inurba_marseille","lat":43.30926,"lon":5.40143,"is_reserved":false,"is_disabled":false,"rental_uris":{"android":"levelo://app?vid=ad67e374-ebf1-4fd6-b2c5-35f7feef359b","ios":"levelo://app?vid=ad67e374-ebf1-4fd6-b2c5-35f7feef359b"},"vehicle_type_id":"4","last_reported":1747858283,"current_range_meters":11600,"station_id":"ce4bgvp2rcd13ifvqct0","pricing_plan_id":"cebpf4jnsgd1na2vs0mg"},{"bike_id":"c97ef379-9774-47c7-8718-7abdc4a45b15","system_id":"levelo_inurba_marseille","lat":43.27917,"lon":5.39575,"is_reserved":false,"is_disabled":false,"rental_uris":{"android":"levelo://app?vid=c97ef379-9774-47c7-8718-7abdc4a45b15","ios":"levelo://app?vid=c97ef379-9774-47c7-8718-7abdc4a45b15"},"vehicle_type_id":"4","last_reported":1747858283,"current_range_meters":11600,"station_id":"ce4bhf92rcd13ifvqf40","pricing_plan_id":"cebpf4jnsgd1na2vs0mg"},{"bike_id":"86fce640-9d52-4a60-a1e9-895bee8d740b","system_id":"levelo_inurba_marseille","lat":43.2465,"lon":5.38886,"is_reserved":false,"is_disabled":false,"rental_uris":{"android":"levelo://app?vid=86fce640-9d52-4a60-a1e9-895bee8d740b","ios":"levelo://app?vid=86fce640-9d52-4a60-a1e9-895bee8d740b"},"vehicle_type_id":"4","last_reported":1747858283,"current_range_meters":11600,"station_id":"ce4bhg12rcd13ifvqf60","pricing_plan_id":"cebpf4jnsgd1na2vs0mg"},{"bike_id":"9bc66e62-0f16-4829-a730-08d13f259630","system_id":"levelo_inurba_marseille","lat":43.28411,"lon":5.37526,"is_reserved":false,"is_disabled":false,"rental_uris":{"android":"levelo://app?vid=9bc66e62-0f16-4829-a730-08d13f259630","ios":"levelo://app?vid=9bc66e62-0f16-4829-a730-08d13f259630"},"vehicle_type_id":"4","last_reported":1747858283,"current_range_meters":12000,"station_id":"ce4bh412rcd13ifvqds0","pricing_plan_id":"cebpf4jnsgd1na2vs0mg"},{"bike_id":"52a94388-e886-4010-8907-14ce509fae92","system_id":"levelo_inurba_marseille","lat":43.292833,"lon":5.368259,"is_reserved":false,"is_disabled":false,"rental_uris":{"android":"levelo://app?vid=52a94388-e886-4010-8907-14ce509fae92","ios":"levelo://app?vid=52a94388-e886-4010-8907-14ce509fae92"},"vehicle_type_id":"4","last_reported":1747858283,"current_range_meters":12000,"station_id":"ce4bhbp2rcd13ifvqesg","pricing_plan_id":"cebpf4jnsgd1na2vs0mg"},{"bike_id":"06a0431d-78d4-4136-9c28-3d26f4f79d32","system_id":"levelo_inurba_marseille","lat":43.267004,"lon":5.382555,"is_reserved":false,"is_disabled":false,"rental_uris":{"android":"levelo://app?vid=06a0431d-78d4-4136-9c28-3d26f4f79d32","ios":"levelo://app?vid=06a0431d-78d4-4136-9c28-3d26f4f79d32"},"vehicle_type_id":"4","last_reported":1747858283,"current_range_meters":12000,"station_id":"ce4bhg92rcd13ifvqf90","pricing_plan_id":"cebpf4jnsgd1na2vs0mg"},{"bike_id":"feaf7be4-fe23-45f7-8636-d4ccad002b89","system_id":"levelo_inurba_marseille","lat":43.24051,"lon":5.37698,"is_reserved":false,"is_disabled":false,"rental_uris":{"android":"levelo://app?vid=feaf7be4-fe23-45f7-8636-d4ccad002b89","ios":"levelo://app?vid=feaf7be4-fe23-45f7-8636-d4ccad002b89"},"vehicle_type_id":"4","last_reported":1747858283,"current_range_meters":12000,"station_id":"ce4bhnp2rcd13ifvqgvg","pricing_plan_id":"cebpf4jnsgd1na2vs0mg"},{"bike_id":"bfc88a38-df32-4360-8173-61ba3df19406","system_id":"levelo_inurba_marseille","lat":43.29586,"lon":5.42273,"is_reserved":false,"is_disabled":false,"rental_uris":{"android":"levelo://app?vid=bfc88a38-df32-4360-8173-61ba3df19406","ios":"levelo://app?vid=bfc88a38-df32-4360-8173-61ba3df19406"},"vehicle_type_id":"4","last_reported":1747858283,"current_range_meters":12000,"station_id":"ce4bhph2rcd13ifvqhdg","pricing_plan_id":"cebpf4jnsgd1na2vs0mg"},{"bike_id":"ffb9b70c-39bb-4c02-a090-b635130307f3","system_id":"levelo_inurba_marseille","lat":43.30932,"lon":5.40136,"is_reserved":false,"is_disabled":false,"rental_uris":{"android":"levelo://app?vid=ffb9b70c-39bb-4c02-a090-b635130307f3","ios":"levelo://app?vid=ffb9b70c-39bb-4c02-a090-b635130307f3"},"vehicle_type_id":"4","last_reported":1747858283,"current_range_meters":12400,"station_id":"ce4bgvp2rcd13ifvqct0","pricing_plan_id":"cebpf4jnsgd1na2vs0mg"},{"bike_id":"c13127f8-d63d-49bc-acd2-4c52012639fd","system_id":"levelo_inurba_marseille","lat":43.306,"lon":5.39363,"is_reserved":false,"is_disabled":false,"rental_uris":{"android":"levelo://app?vid=c13127f8-d63d-49bc-acd2-4c52012639fd","ios":"levelo://app?vid=c13127f8-d63d-49bc-acd2-4c52012639fd"},"vehicle_type_id":"4","last_reported":1747858283,"current_range_meters":12400,"station_id":"ce4bh0p2rcd13ifvqd80","pricing_plan_id":"cebpf4jnsgd1na2vs0mg"},{"bike_id":"ef17a227-afc6-4e55-865a-b46578cd8260","system_id":"levelo_inurba_marseille","lat":43.2903,"lon":5.38124,"is_reserved":false,"is_disabled":false,"rental_uris":{"android":"levelo://app?vid=ef17a227-afc6-4e55-865a-b46578cd8260","ios":"levelo://app?vid=ef17a227-afc6-4e55-865a-b46578cd8260"},"vehicle_type_id":"4","last_reported":1747858283,"current_range_meters":12400,"station_id":"ce4bh4p2rcd13ifvqe1g","pricing_plan_id":"cebpf4jnsgd1na2vs0mg"},{"bike_id":"25285c4f-b17c-4827-b959-96efad6f0c8c","system_id":"levelo_inurba_marseille","lat":43.284515,"lon":5.358762,"is_reserved":false,"is_disabled":false,"rental_uris":{"android":"levelo://app?vid=25285c4f-b17c-4827-b959-96efad6f0c8c","ios":"levelo://app?vid=25285c4f-b17c-4827-b959-96efad6f0c8c"},"vehicle_type_id":"4","last_reported":1747858283,"current_range_meters":12400,"station_id":"ce4bhah2rcd13ifvqei0","pricing_plan_id":"cebpf4jnsgd1na2vs0mg"},{"bike_id":"20d46360-b017-40c9-8a0d-bb0351687016","system_id":"levelo_inurba_marseille","lat":43.25601,"lon":5.38212,"is_reserved":false,"is_disabled":false,"rental_uris":{"android":"levelo://app?vid=20d46360-b017-40c9-8a0d-bb0351687016","ios":"levelo://app?vid=20d46360-b017-40c9-8a0d-bb0351687016"},"vehicle_type_id":"4","last_reported":1747858283,"current_range_meters":12400,"station_id":"ce4bhih2rcd13ifvqfs0","pricing_plan_id":"cebpf4jnsgd1na2vs0mg"},{"bike_id":"57cfd938-afb3-49a7-b12c-1f51bfa76f33","system_id":"levelo_inurba_marseille","lat":43.25835,"lon":5.39428,"is_reserved":false,"is_disabled":false,"rental_uris":{"android":"levelo://app?vid=57cfd938-afb3-49a7-b12c-1f51bfa76f33","ios":"levelo://app?vid=57cfd938-afb3-49a7-b12c-1f51bfa76f33"},"vehicle_type_id":"4","last_reported":1747858283,"current_range_meters":12400,"station_id":"ce4bhip2rcd13ifvqft0","pricing_plan_id":"cebpf4jnsgd1na2vs0mg"},{"bike_id":"d0015b5e-8207-4ba0-9342-ea0e0671b53a","system_id":"levelo_inurba_marseille","lat":43.31209,"lon":5.37687,"is_reserved":false,"is_disabled":false,"rental_uris":{"android":"levelo://app?vid=d0015b5e-8207-4ba0-9342-ea0e0671b53a","ios":"levelo://app?vid=d0015b5e-8207-4ba0-9342-ea0e0671b53a"},"vehicle_type_id":"4","last_reported":1747858283,"current_range_meters":12800,"station_id":"","pricing_plan_id":"cebpf4jnsgd1na2vs0mg"},{"bike_id":"f9fb40c0-1fcd-48cb-8e26-3f2dc0fb2451","system_id":"levelo_inurba_marseille","lat":43.33751,"lon":5.37509,"is_reserved":false,"is_disabled":false,"rental_uris":{"android":"levelo://app?vid=f9fb40c0-1fcd-48cb-8e26-3f2dc0fb2451","ios":"levelo://app?vid=f9fb40c0-1fcd-48cb-8e26-3f2dc0fb2451"},"vehicle_type_id":"4","last_reported":1747858283,"current_range_meters":12800,"station_id":"","pricing_plan_id":"cebpf4jnsgd1na2vs0mg"},{"bike_id":"2660e8f1-015f-4236-8422-243d7edc68d6","system_id":"levelo_inurba_marseille","lat":43.30644,"lon":5.40088,"is_reserved":false,"is_disabled":false,"rental_uris":{"android":"levelo://app?vid=2660e8f1-015f-4236-8422-243d7edc68d6","ios":"levelo://app?vid=2660e8f1-015f-4236-8422-243d7edc68d6"},"vehicle_type_id":"4","last_reported":1747858283,"current_range_meters":12800,"station_id":"ce4bh112rcd13ifvqda0","pricing_plan_id":"cebpf4jnsgd1na2vs0mg"},{"bike_id":"c17555c5-c725-49de-86cd-809b37316930","system_id":"levelo_inurba_marseille","lat":43.25581,"lon":5.38227,"is_reserved":false,"is_disabled":false,"rental_uris":{"android":"levelo://app?vid=c17555c5-c725-49de-86cd-809b37316930","ios":"levelo://app?vid=c17555c5-c725-49de-86cd-809b37316930"},"vehicle_type_id":"4","last_reported":1747858283,"current_range_meters":12800,"station_id":"ce4bhih2rcd13ifvqfs0","pricing_plan_id":"cebpf4jnsgd1na2vs0mg"},{"bike_id":"ce957892-d8fd-466d-b919-bf46004edc46","system_id":"levelo_inurba_marseille","lat":43.27826,"lon":5.39206,"is_reserved":false,"is_disabled":false,"rental_uris":{"android":"levelo://app?vid=ce957892-d8fd-466d-b919-bf46004edc46","ios":"levelo://app?vid=ce957892-d8fd-466d-b919-bf46004edc46"},"vehicle_type_id":"4","last_reported":1747858283,"current_range_meters":12800,"station_id":"ce4bhjp2rcd13ifvqga0","pricing_plan_id":"cebpf4jnsgd1na2vs0mg"},{"bike_id":"f038d199-ceeb-4e0e-9367-d461a87a9f76","system_id":"levelo_inurba_marseille","lat":43.27836,"lon":5.3921,"is_reserved":false,"is_disabled":false,"rental_uris":{"android":"levelo://app?vid=f038d199-ceeb-4e0e-9367-d461a87a9f76","ios":"levelo://app?vid=f038d199-ceeb-4e0e-9367-d461a87a9f76"},"vehicle_type_id":"4","last_reported":1747858283,"current_range_meters":12800,"station_id":"ce4bhjp2rcd13ifvqga0","pricing_plan_id":"cebpf4jnsgd1na2vs0mg"},{"bike_id":"e71f2f8e-ed49-4107-abce-7f484fbab4c2","system_id":"levelo_inurba_marseille","lat":43.28078,"lon":5.3965,"is_reserved":false,"is_disabled":false,"rental_uris":{"android":"levelo://app?vid=e71f2f8e-ed49-4107-abce-7f484fbab4c2","ios":"levelo://app?vid=e71f2f8e-ed49-4107-abce-7f484fbab4c2"},"vehicle_type_id":"4","last_reported":1747858283,"current_range_meters":12800,"station_id":"ce4bho12rcd13ifvqh2g","pricing_plan_id":"cebpf4jnsgd1na2vs0mg"},{"bike_id":"27653dcd-dec9-4f13-b172-8968c20c1725","system_id":"levelo_inurba_marseille","lat":43.23856,"lon":5.43091,"is_reserved":false,"is_disabled":false,"rental_uris":{"android":"levelo://app?vid=27653dcd-dec9-4f13-b172-8968c20c1725","ios":"levelo://app?vid=27653dcd-dec9-4f13-b172-8968c20c1725"},"vehicle_type_id":"4","last_reported":1747858283,"current_range_meters":13600,"station_id":"","pricing_plan_id":"cebpf4jnsgd1na2vs0mg"},{"bike_id":"9335b0b1-51db-414d-93cf-643a859d3f43","system_id":"levelo_inurba_marseille","lat":43.29448,"lon":5.39743,"is_reserved":false,"is_disabled":false,"rental_uris":{"android":"levelo://app?vid=9335b0b1-51db-414d-93cf-643a859d3f43","ios":"levelo://app?vid=9335b0b1-51db-414d-93cf-643a859d3f43"},"vehicle_type_id":"4","last_reported":1747858283,"current_range_meters":13600,"station_id":"ce4bh3h2rcd13ifvqdo0","pricing_plan_id":"cebpf4jnsgd1na2vs0mg"},{"bike_id":"1dfbe32f-cc1d-4300-910b-8bc8f1c6ddd3","system_id":"levelo_inurba_marseille","lat":43.24817,"lon":5.37462,"is_reserved":false,"is_disabled":false,"rental_uris":{"android":"levelo://app?vid=1dfbe32f-cc1d-4300-910b-8bc8f1c6ddd3","ios":"levelo://app?vid=1dfbe32f-cc1d-4300-910b-8bc8f1c6ddd3"},"vehicle_type_id":"4","last_reported":1747858283,"current_range_meters":13600,"station_id":"ce4bhgh2rcd13ifvqfb0","pricing_plan_id":"cebpf4jnsgd1na2vs0mg"},{"bike_id":"a57f9f7f-d631-4520-94f2-90813d3e47c7","system_id":"levelo_inurba_marseille","lat":43.24808,"lon":5.37456,"is_reserved":false,"is_disabled":false,"rental_uris":{"android":"levelo://app?vid=a57f9f7f-d631-4520-94f2-90813d3e47c7","ios":"levelo://app?vid=a57f9f7f-d631-4520-94f2-90813d3e47c7"},"vehicle_type_id":"4","last_reported":1747858283,"current_range_meters":13600,"station_id":"ce4bhgh2rcd13ifvqfb0","pricing_plan_id":"cebpf4jnsgd1na2vs0mg"},{"bike_id":"01774b76-f693-4f92-a416-781eed7d286e","system_id":"levelo_inurba_marseille","lat":43.25822,"lon":5.39436,"is_reserved":false,"is_disabled":false,"rental_uris":{"android":"levelo://app?vid=01774b76-f693-4f92-a416-781eed7d286e","ios":"levelo://app?vid=01774b76-f693-4f92-a416-781eed7d286e"},"vehicle_type_id":"4","last_reported":1747858283,"current_range_meters":13600,"station_id":"ce4bhip2rcd13ifvqft0","pricing_plan_id":"cebpf4jnsgd1na2vs0mg"},{"bike_id":"1eb6850c-e94c-45e1-ac02-b110f71ba1ab","system_id":"levelo_inurba_marseille","lat":43.280819,"lon":5.396557,"is_reserved":false,"is_disabled":false,"rental_uris":{"android":"levelo://app?vid=1eb6850c-e94c-45e1-ac02-b110f71ba1ab","ios":"levelo://app?vid=1eb6850c-e94c-45e1-ac02-b110f71ba1ab"},"vehicle_type_id":"4","last_reported":1747858283,"current_range_meters":13600,"station_id":"ce4bho12rcd13ifvqh2g","pricing_plan_id":"cebpf4jnsgd1na2vs0mg"},{"bike_id":"c20b3fba-ccf3-4150-abbc-993bc6403597","system_id":"levelo_inurba_marseille","lat":43.32359,"lon":5.38892,"is_reserved":false,"is_disabled":false,"rental_uris":{"android":"levelo://app?vid=c20b3fba-ccf3-4150-abbc-993bc6403597","ios":"levelo://app?vid=c20b3fba-ccf3-4150-abbc-993bc6403597"},"vehicle_type_id":"4","last_reported":1747858283,"current_range_meters":13600,"station_id":"ce4bhqp2rcd13ifvqhog","pricing_plan_id":"cebpf4jnsgd1na2vs0mg"},{"bike_id":"9d5abffa-2a5a-4b3c-8de0-fbf9499b4692","system_id":"levelo_inurba_marseille","lat":43.24293,"lon":5.38369,"is_reserved":false,"is_disabled":false,"rental_uris":{"android":"levelo://app?vid=9d5abffa-2a5a-4b3c-8de0-fbf9499b4692","ios":"levelo://app?vid=9d5abffa-2a5a-4b3c-8de0-fbf9499b4692"},"vehicle_type_id":"4","last_reported":1747858283,"current_range_meters":14000,"station_id":"","pricing_plan_id":"cebpf4jnsgd1na2vs0mg"},{"bike_id":"46c160c4-123a-4043-837b-e27e0e4d0f00","system_id":"levelo_inurba_marseille","lat":43.29266,"lon":5.376173,"is_reserved":false,"is_disabled":false,"rental_uris":{"android":"levelo://app?vid=46c160c4-123a-4043-837b-e27e0e4d0f00","ios":"levelo://app?vid=46c160c4-123a-4043-837b-e27e0e4d0f00"},"vehicle_type_id":"4","last_reported":1747858283,"current_range_meters":14000,"station_id":"ce4bgi12rcd13ifvqb80","pricing_plan_id":"cebpf4jnsgd1na2vs0mg"},{"bike_id":"269a6a17-6816-4ac9-84c3-13b068c7bd94","system_id":"levelo_inurba_marseille","lat":43.3073,"lon":5.37614,"is_reserved":false,"is_disabled":false,"rental_uris":{"android":"levelo://app?vid=269a6a17-6816-4ac9-84c3-13b068c7bd94","ios":"levelo://app?vid=269a6a17-6816-4ac9-84c3-13b068c7bd94"},"vehicle_type_id":"4","last_reported":1747858283,"current_range_meters":14000,"station_id":"ce4bgv92rcd13ifvqcq0","pricing_plan_id":"cebpf4jnsgd1na2vs0mg"},{"bike_id":"b67e7ff2-3702-4ffe-9456-c5c5e09a94ba","system_id":"levelo_inurba_marseille","lat":43.28102,"lon":5.37846,"is_reserved":false,"is_disabled":false,"rental_uris":{"android":"levelo://app?vid=b67e7ff2-3702-4ffe-9456-c5c5e09a94ba","ios":"levelo://app?vid=b67e7ff2-3702-4ffe-9456-c5c5e09a94ba"},"vehicle_type_id":"4","last_reported":1747858283,"current_range_meters":14000,"station_id":"ce4bha12rcd13ifvqee0","pricing_plan_id":"cebpf4jnsgd1na2vs0mg"},{"bike_id":"aef31087-22bc-42a1-97b4-51a41c619788","system_id":"levelo_inurba_marseille","lat":43.2886,"lon":5.35852,"is_reserved":false,"is_disabled":false,"rental_uris":{"android":"levelo://app?vid=aef31087-22bc-42a1-97b4-51a41c619788","ios":"levelo://app?vid=aef31087-22bc-42a1-97b4-51a41c619788"},"vehicle_type_id":"4","last_reported":1747858283,"current_range_meters":14000,"station_id":"ce4bhb12rcd13ifvqem0","pricing_plan_id":"cebpf4jnsgd1na2vs0mg"},{"bike_id":"bca252b8-0709-44c2-8fd9-6edcc3d10d04","system_id":"levelo_inurba_marseille","lat":43.24653,"lon":5.38157,"is_reserved":false,"is_disabled":false,"rental_uris":{"android":"levelo://app?vid=bca252b8-0709-44c2-8fd9-6edcc3d10d04","ios":"levelo://app?vid=bca252b8-0709-44c2-8fd9-6edcc3d10d04"},"vehicle_type_id":"4","last_reported":1747858283,"current_range_meters":14000,"station_id":"ce4bhih2rcd13ifvqfr0","pricing_plan_id":"cebpf4jnsgd1na2vs0mg"},{"bike_id":"a2a04a53-59af-4546-9c58-841793fdfe2f","system_id":"levelo_inurba_marseille","lat":43.29914,"lon":5.38303,"is_reserved":false,"is_disabled":false,"rental_uris":{"android":"levelo://app?vid=a2a04a53-59af-4546-9c58-841793fdfe2f","ios":"levelo://app?vid=a2a04a53-59af-4546-9c58-841793fdfe2f"},"vehicle_type_id":"4","last_reported":1747858283,"current_range_meters":14400,"station_id":"","pricing_plan_id":"cebpf4jnsgd1na2vs0mg"},{"bike_id":"8c37efed-a110-4307-8086-3b6336efe3b5","system_id":"levelo_inurba_marseille","lat":43.26563,"lon":5.403188,"is_reserved":false,"is_disabled":false,"rental_uris":{"android":"levelo://app?vid=8c37efed-a110-4307-8086-3b6336efe3b5","ios":"levelo://app?vid=8c37efed-a110-4307-8086-3b6336efe3b5"},"vehicle_type_id":"4","last_reported":1747858283,"current_range_meters":14400,"station_id":"","pricing_plan_id":"cebpf4jnsgd1na2vs0mg"},{"bike_id":"e4c90034-2996-4db4-8552-7fcb16169bb5","system_id":"levelo_inurba_marseille","lat":43.303,"lon":5.39203,"is_reserved":false,"is_disabled":false,"rental_uris":{"android":"levelo://app?vid=e4c90034-2996-4db4-8552-7fcb16169bb5","ios":"levelo://app?vid=e4c90034-2996-4db4-8552-7fcb16169bb5"},"vehicle_type_id":"4","last_reported":1747858283,"current_range_meters":14400,"station_id":"ce4bgkh2rcd13ifvqbk0","pricing_plan_id":"cebpf4jnsgd1na2vs0mg"},{"bike_id":"aebe115e-1298-47e6-a57e-f483b232710f","system_id":"levelo_inurba_marseille","lat":43.29877,"lon":5.38902,"is_reserved":false,"is_disabled":false,"rental_uris":{"android":"levelo://app?vid=aebe115e-1298-47e6-a57e-f483b232710f","ios":"levelo://app?vid=aebe115e-1298-47e6-a57e-f483b232710f"},"vehicle_type_id":"4","last_reported":1747858283,"current_range_meters":14400,"station_id":"ce4bh392rcd13ifvqdl0","pricing_plan_id":"cebpf4jnsgd1na2vs0mg"},{"bike_id":"79aa9b77-5b16-4c31-9dfa-53049f23c876","system_id":"levelo_inurba_marseille","lat":43.28463,"lon":5.35888,"is_reserved":false,"is_disabled":false,"rental_uris":{"android":"levelo://app?vid=79aa9b77-5b16-4c31-9dfa-53049f23c876","ios":"levelo://app?vid=79aa9b77-5b16-4c31-9dfa-53049f23c876"},"vehicle_type_id":"4","last_reported":1747858283,"current_range_meters":14400,"station_id":"ce4bhah2rcd13ifvqei0","pricing_plan_id":"cebpf4jnsgd1na2vs0mg"},{"bike_id":"4b67313e-7b5f-466f-86c0-706ca1c2df1c","system_id":"levelo_inurba_marseille","lat":43.28937,"lon":5.36628,"is_reserved":false,"is_disabled":false,"rental_uris":{"android":"levelo://app?vid=4b67313e-7b5f-466f-86c0-706ca1c2df1c","ios":"levelo://app?vid=4b67313e-7b5f-466f-86c0-706ca1c2df1c"},"vehicle_type_id":"4","last_reported":1747858283,"current_range_meters":14400,"station_id":"ce4bhap2rcd13ifvqek0","pricing_plan_id":"cebpf4jnsgd1na2vs0mg"},{"bike_id":"c1ec801c-7f0c-41c1-bb99-83909fce24f4","system_id":"levelo_inurba_marseille","lat":43.28983,"lon":5.36373,"is_reserved":false,"is_disabled":false,"rental_uris":{"android":"levelo://app?vid=c1ec801c-7f0c-41c1-bb99-83909fce24f4","ios":"levelo://app?vid=c1ec801c-7f0c-41c1-bb99-83909fce24f4"},"vehicle_type_id":"4","last_reported":1747858283,"current_range_meters":14400,"station_id":"ce4bhc92rcd13ifvqetg","pricing_plan_id":"cebpf4jnsgd1na2vs0mg"},{"bike_id":"b879accf-e95f-4f81-9ceb-0c14a0260554","system_id":"levelo_inurba_marseille","lat":43.24812,"lon":5.3745,"is_reserved":false,"is_disabled":false,"rental_uris":{"android":"levelo://app?vid=b879accf-e95f-4f81-9ceb-0c14a0260554","ios":"levelo://app?vid=b879accf-e95f-4f81-9ceb-0c14a0260554"},"vehicle_type_id":"4","last_reported":1747858283,"current_range_meters":14400,"station_id":"ce4bhgh2rcd13ifvqfb0","pricing_plan_id":"cebpf4jnsgd1na2vs0mg"},{"bike_id":"87c4eccc-bb65-48f9-8b4c-4b27ebc9c1f5","system_id":"levelo_inurba_marseille","lat":43.21743,"lon":5.34607,"is_reserved":false,"is_disabled":false,"rental_uris":{"android":"levelo://app?vid=87c4eccc-bb65-48f9-8b4c-4b27ebc9c1f5","ios":"levelo://app?vid=87c4eccc-bb65-48f9-8b4c-4b27ebc9c1f5"},"vehicle_type_id":"4","last_reported":1747858283,"current_range_meters":14400,"station_id":"st_cvj6r9ubvosntc0bgbag","pricing_plan_id":"cebpf4jnsgd1na2vs0mg"},{"bike_id":"7dfdfdc8-9c79-46b6-9a4b-924773b53f29","system_id":"levelo_inurba_marseille","lat":43.26851,"lon":5.39182,"is_reserved":false,"is_disabled":false,"rental_uris":{"android":"levelo://app?vid=7dfdfdc8-9c79-46b6-9a4b-924773b53f29","ios":"levelo://app?vid=7dfdfdc8-9c79-46b6-9a4b-924773b53f29"},"vehicle_type_id":"4","last_reported":1747858283,"current_range_meters":14800,"station_id":"","pricing_plan_id":"cebpf4jnsgd1na2vs0mg"},{"bike_id":"5aa4518e-4082-4264-8e6b-18b9e070cdd8","system_id":"levelo_inurba_marseille","lat":43.29165,"lon":5.3847,"is_reserved":false,"is_disabled":false,"rental_uris":{"android":"levelo://app?vid=5aa4518e-4082-4264-8e6b-18b9e070cdd8","ios":"levelo://app?vid=5aa4518e-4082-4264-8e6b-18b9e070cdd8"},"vehicle_type_id":"4","last_reported":1747858283,"current_range_meters":14800,"station_id":"","pricing_plan_id":"cebpf4jnsgd1na2vs0mg"},{"bike_id":"a43f54c4-e886-4d49-8709-407ce0701240","system_id":"levelo_inurba_marseille","lat":43.30922,"lon":5.40169,"is_reserved":false,"is_disabled":false,"rental_uris":{"android":"levelo://app?vid=a43f54c4-e886-4d49-8709-407ce0701240","ios":"levelo://app?vid=a43f54c4-e886-4d49-8709-407ce0701240"},"vehicle_type_id":"4","last_reported":1747858283,"current_range_meters":14800,"station_id":"ce4bgvp2rcd13ifvqct0","pricing_plan_id":"cebpf4jnsgd1na2vs0mg"},{"bike_id":"b7a6c4f3-63d2-4144-a9c0-a4015558b2b2","system_id":"levelo_inurba_marseille","lat":43.3093,"lon":5.40136,"is_reserved":false,"is_disabled":false,"rental_uris":{"android":"levelo://app?vid=b7a6c4f3-63d2-4144-a9c0-a4015558b2b2","ios":"levelo://app?vid=b7a6c4f3-63d2-4144-a9c0-a4015558b2b2"},"vehicle_type_id":"4","last_reported":1747858283,"current_range_meters":14800,"station_id":"ce4bgvp2rcd13ifvqct0","pricing_plan_id":"cebpf4jnsgd1na2vs0mg"},{"bike_id":"5d7aaf26-a403-4419-8fd7-26e3eb24161e","system_id":"levelo_inurba_marseille","lat":43.292038,"lon":5.39317,"is_reserved":false,"is_disabled":false,"rental_uris":{"android":"levelo://app?vid=5d7aaf26-a403-4419-8fd7-26e3eb24161e","ios":"levelo://app?vid=5d7aaf26-a403-4419-8fd7-26e3eb24161e"},"vehicle_type_id":"4","last_reported":1747858283,"current_range_meters":14800,"station_id":"ce4bh192rcd13ifvqdd0","pricing_plan_id":"cebpf4jnsgd1na2vs0mg"},{"bike_id":"23a71179-ab02-45af-808c-9b81eac98856","system_id":"levelo_inurba_marseille","lat":43.27908,"lon":5.37988,"is_reserved":false,"is_disabled":false,"rental_uris":{"android":"levelo://app?vid=23a71179-ab02-45af-808c-9b81eac98856","ios":"levelo://app?vid=23a71179-ab02-45af-808c-9b81eac98856"},"vehicle_type_id":"4","last_reported":1747858283,"current_range_meters":14800,"station_id":"ce4bhf92rcd13ifvqf50","pricing_plan_id":"cebpf4jnsgd1na2vs0mg"},{"bike_id":"15b87f1f-21a3-4c5d-9fd9-21ccbb0f337d","system_id":"levelo_inurba_marseille","lat":43.27994,"lon":5.40008,"is_reserved":false,"is_disabled":false,"rental_uris":{"android":"levelo://app?vid=15b87f1f-21a3-4c5d-9fd9-21ccbb0f337d","ios":"levelo://app?vid=15b87f1f-21a3-4c5d-9fd9-21ccbb0f337d"},"vehicle_type_id":"4","last_reported":1747858283,"current_range_meters":14800,"station_id":"ce4bho92rcd13ifvqh4g","pricing_plan_id":"cebpf4jnsgd1na2vs0mg"},{"bike_id":"ac0ecd30-e6ee-4ae6-a10b-931d85fd5ceb","system_id":"levelo_inurba_marseille","lat":43.29012,"lon":5.38141,"is_reserved":false,"is_disabled":false,"rental_uris":{"android":"levelo://app?vid=ac0ecd30-e6ee-4ae6-a10b-931d85fd5ceb","ios":"levelo://app?vid=ac0ecd30-e6ee-4ae6-a10b-931d85fd5ceb"},"vehicle_type_id":"4","last_reported":1747858283,"current_range_meters":15200,"station_id":"ce4bh4p2rcd13ifvqe1g","pricing_plan_id":"cebpf4jnsgd1na2vs0mg"},{"bike_id":"9efc065e-28e0-46fd-ad6d-869d33e0ce0d","system_id":"levelo_inurba_marseille","lat":43.29069,"lon":5.37161,"is_reserved":false,"is_disabled":false,"rental_uris":{"android":"levelo://app?vid=9efc065e-28e0-46fd-ad6d-869d33e0ce0d","ios":"levelo://app?vid=9efc065e-28e0-46fd-ad6d-869d33e0ce0d"},"vehicle_type_id":"4","last_reported":1747858283,"current_range_meters":15200,"station_id":"ce4bh5p2rcd13ifvqe4g","pricing_plan_id":"cebpf4jnsgd1na2vs0mg"},{"bike_id":"e2cb30a3-06d3-4a8d-8bb5-0556ae31c6ff","system_id":"levelo_inurba_marseille","lat":43.24541,"lon":5.39529,"is_reserved":false,"is_disabled":false,"rental_uris":{"android":"levelo://app?vid=e2cb30a3-06d3-4a8d-8bb5-0556ae31c6ff","ios":"levelo://app?vid=e2cb30a3-06d3-4a8d-8bb5-0556ae31c6ff"},"vehicle_type_id":"4","last_reported":1747858283,"current_range_meters":15200,"station_id":"ce4bhlp2rcd13ifvqgjg","pricing_plan_id":"cebpf4jnsgd1na2vs0mg"},{"bike_id":"dc61c065-6ed1-487e-9ecf-5a93a8f61ca7","system_id":"levelo_inurba_marseille","lat":43.23203,"lon":5.39974,"is_reserved":false,"is_disabled":false,"rental_uris":{"android":"levelo://app?vid=dc61c065-6ed1-487e-9ecf-5a93a8f61ca7","ios":"levelo://app?vid=dc61c065-6ed1-487e-9ecf-5a93a8f61ca7"},"vehicle_type_id":"4","last_reported":1747858283,"current_range_meters":15200,"station_id":"ce4bhn12rcd13ifvqgqg","pricing_plan_id":"cebpf4jnsgd1na2vs0mg"},{"bike_id":"57bc2501-8b40-4c41-864c-1e62a7abefd8","system_id":"levelo_inurba_marseille","lat":43.3073,"lon":5.42437,"is_reserved":false,"is_disabled":false,"rental_uris":{"android":"levelo://app?vid=57bc2501-8b40-4c41-864c-1e62a7abefd8","ios":"levelo://app?vid=57bc2501-8b40-4c41-864c-1e62a7abefd8"},"vehicle_type_id":"4","last_reported":1747858283,"current_range_meters":15200,"station_id":"st_cvj6ca6bvosntc0bfgr0","pricing_plan_id":"cebpf4jnsgd1na2vs0mg"},{"bike_id":"075132df-4f04-4af3-a0a3-7ad3a04eedee","system_id":"levelo_inurba_marseille","lat":43.290281,"lon":5.386505,"is_reserved":false,"is_disabled":false,"rental_uris":{"android":"levelo://app?vid=075132df-4f04-4af3-a0a3-7ad3a04eedee","ios":"levelo://app?vid=075132df-4f04-4af3-a0a3-7ad3a04eedee"},"vehicle_type_id":"4","last_reported":1747858283,"current_range_meters":16000,"station_id":"","pricing_plan_id":"cebpf4jnsgd1na2vs0mg"},{"bike_id":"e6e6ff94-28ca-44c2-b0a5-dd939c0e607e","system_id":"levelo_inurba_marseille","lat":43.288607,"lon":5.3585,"is_reserved":false,"is_disabled":false,"rental_uris":{"android":"levelo://app?vid=e6e6ff94-28ca-44c2-b0a5-dd939c0e607e","ios":"levelo://app?vid=e6e6ff94-28ca-44c2-b0a5-dd939c0e607e"},"vehicle_type_id":"4","last_reported":1747858283,"current_range_meters":16000,"station_id":"ce4bhb12rcd13ifvqem0","pricing_plan_id":"cebpf4jnsgd1na2vs0mg"},{"bike_id":"bf95ba2b-6552-44af-a79b-525b69a1cf91","system_id":"levelo_inurba_marseille","lat":43.29305,"lon":5.37467,"is_reserved":false,"is_disabled":false,"rental_uris":{"android":"levelo://app?vid=bf95ba2b-6552-44af-a79b-525b69a1cf91","ios":"levelo://app?vid=bf95ba2b-6552-44af-a79b-525b69a1cf91"},"vehicle_type_id":"4","last_reported":1747858283,"current_range_meters":16400,"station_id":"ce4bgi12rcd13ifvqb70","pricing_plan_id":"cebpf4jnsgd1na2vs0mg"},{"bike_id":"d0bb5a65-7c4b-48a7-aee6-c71f6813b450","system_id":"levelo_inurba_marseille","lat":43.29535,"lon":5.38551,"is_reserved":false,"is_disabled":false,"rental_uris":{"android":"levelo://app?vid=d0bb5a65-7c4b-48a7-aee6-c71f6813b450","ios":"levelo://app?vid=d0bb5a65-7c4b-48a7-aee6-c71f6813b450"},"vehicle_type_id":"4","last_reported":1747858283,"current_range_meters":16400,"station_id":"ce4bgih2rcd13ifvqba0","pricing_plan_id":"cebpf4jnsgd1na2vs0mg"},{"bike_id":"9571866e-5919-4ebb-a9ec-4e9595f330ed","system_id":"levelo_inurba_marseille","lat":43.31063,"lon":5.38355,"is_reserved":false,"is_disabled":false,"rental_uris":{"android":"levelo://app?vid=9571866e-5919-4ebb-a9ec-4e9595f330ed","ios":"levelo://app?vid=9571866e-5919-4ebb-a9ec-4e9595f330ed"},"vehicle_type_id":"4","last_reported":1747858283,"current_range_meters":16400,"station_id":"ce4bgv92rcd13ifvqcr0","pricing_plan_id":"cebpf4jnsgd1na2vs0mg"},{"bike_id":"32380919-2abd-409f-a954-a7ebd64a69fb","system_id":"levelo_inurba_marseille","lat":43.29875,"lon":5.39721,"is_reserved":false,"is_disabled":false,"rental_uris":{"android":"levelo://app?vid=32380919-2abd-409f-a954-a7ebd64a69fb","ios":"levelo://app?vid=32380919-2abd-409f-a954-a7ebd64a69fb"},"vehicle_type_id":"4","last_reported":1747858283,"current_range_meters":16400,"station_id":"ce4bh0h2rcd13ifvqd50","pricing_plan_id":"cebpf4jnsgd1na2vs0mg"},{"bike_id":"8e634ee4-e269-40fd-a4ab-b5b2b93e9d81","system_id":"levelo_inurba_marseille","lat":43.29192,"lon":5.39319,"is_reserved":false,"is_disabled":false,"rental_uris":{"android":"levelo://app?vid=8e634ee4-e269-40fd-a4ab-b5b2b93e9d81","ios":"levelo://app?vid=8e634ee4-e269-40fd-a4ab-b5b2b93e9d81"},"vehicle_type_id":"4","last_reported":1747858283,"current_range_meters":16400,"station_id":"ce4bh192rcd13ifvqdd0","pricing_plan_id":"cebpf4jnsgd1na2vs0mg"},{"bike_id":"db5e95a1-8f8b-40d3-8dc4-2e7199d600fb","system_id":"levelo_inurba_marseille","lat":43.28702,"lon":5.37398,"is_reserved":false,"is_disabled":false,"rental_uris":{"android":"levelo://app?vid=db5e95a1-8f8b-40d3-8dc4-2e7199d600fb","ios":"levelo://app?vid=db5e95a1-8f8b-40d3-8dc4-2e7199d600fb"},"vehicle_type_id":"4","last_reported":1747858283,"current_range_meters":16400,"station_id":"ce4bh3p2rcd13ifvqdq0","pricing_plan_id":"cebpf4jnsgd1na2vs0mg"},{"bike_id":"56b00f8e-f5af-4184-aa90-1f4e20b16e16","system_id":"levelo_inurba_marseille","lat":43.29104,"lon":5.38154,"is_reserved":false,"is_disabled":false,"rental_uris":{"android":"levelo://app?vid=56b00f8e-f5af-4184-aa90-1f4e20b16e16","ios":"levelo://app?vid=56b00f8e-f5af-4184-aa90-1f4e20b16e16"},"vehicle_type_id":"4","last_reported":1747858283,"current_range_meters":16400,"station_id":"ce4bh512rcd13ifvqe2g","pricing_plan_id":"cebpf4jnsgd1na2vs0mg"},{"bike_id":"15e889e6-5461-4ef2-9d5c-d2f64351d8a2","system_id":"levelo_inurba_marseille","lat":43.29043,"lon":5.37559,"is_reserved":false,"is_disabled":false,"rental_uris":{"android":"levelo://app?vid=15e889e6-5461-4ef2-9d5c-d2f64351d8a2","ios":"levelo://app?vid=15e889e6-5461-4ef2-9d5c-d2f64351d8a2"},"vehicle_type_id":"4","last_reported":1747858283,"current_range_meters":16400,"station_id":"ce4bh692rcd13ifvqe90","pricing_plan_id":"cebpf4jnsgd1na2vs0mg"},{"bike_id":"f1321e81-ca86-4cd1-aea6-2636ac5fd84d","system_id":"levelo_inurba_marseille","lat":43.24809,"lon":5.37457,"is_reserved":false,"is_disabled":false,"rental_uris":{"android":"levelo://app?vid=f1321e81-ca86-4cd1-aea6-2636ac5fd84d","ios":"levelo://app?vid=f1321e81-ca86-4cd1-aea6-2636ac5fd84d"},"vehicle_type_id":"4","last_reported":1747858283,"current_range_meters":16400,"station_id":"ce4bhgh2rcd13ifvqfb0","pricing_plan_id":"cebpf4jnsgd1na2vs0mg"},{"bike_id":"18dbaa0a-aa54-496d-b473-b010cff076cc","system_id":"levelo_inurba_marseille","lat":43.24178,"lon":5.39732,"is_reserved":false,"is_disabled":false,"rental_uris":{"android":"levelo://app?vid=18dbaa0a-aa54-496d-b473-b010cff076cc","ios":"levelo://app?vid=18dbaa0a-aa54-496d-b473-b010cff076cc"},"vehicle_type_id":"4","last_reported":1747858283,"current_range_meters":16400,"station_id":"ce4bhn12rcd13ifvqgpg","pricing_plan_id":"cebpf4jnsgd1na2vs0mg"},{"bike_id":"d8ef93ab-6594-4205-bec9-cbf07e2aa23e","system_id":"levelo_inurba_marseille","lat":43.24075,"lon":5.37719,"is_reserved":false,"is_disabled":false,"rental_uris":{"android":"levelo://app?vid=d8ef93ab-6594-4205-bec9-cbf07e2aa23e","ios":"levelo://app?vid=d8ef93ab-6594-4205-bec9-cbf07e2aa23e"},"vehicle_type_id":"4","last_reported":1747858283,"current_range_meters":16400,"station_id":"ce4bhnp2rcd13ifvqgvg","pricing_plan_id":"cebpf4jnsgd1na2vs0mg"},{"bike_id":"81950612-f117-4241-b8e3-502b9c3abc4d","system_id":"levelo_inurba_marseille","lat":43.33594,"lon":5.40993,"is_reserved":false,"is_disabled":false,"rental_uris":{"android":"levelo://app?vid=81950612-f117-4241-b8e3-502b9c3abc4d","ios":"levelo://app?vid=81950612-f117-4241-b8e3-502b9c3abc4d"},"vehicle_type_id":"4","last_reported":1747858283,"current_range_meters":16400,"station_id":"ce4bhqh2rcd13ifvqhmg","pricing_plan_id":"cebpf4jnsgd1na2vs0mg"},{"bike_id":"e77df88b-cdd9-4e48-b50c-e09b024a8e1f","system_id":"levelo_inurba_marseille","lat":43.28466,"lon":5.35881,"is_reserved":false,"is_disabled":false,"rental_uris":{"android":"levelo://app?vid=e77df88b-cdd9-4e48-b50c-e09b024a8e1f","ios":"levelo://app?vid=e77df88b-cdd9-4e48-b50c-e09b024a8e1f"},"vehicle_type_id":"4","last_reported":1747858283,"current_range_meters":16800,"station_id":"ce4bhah2rcd13ifvqei0","pricing_plan_id":"cebpf4jnsgd1na2vs0mg"},{"bike_id":"67496974-16e2-4554-92f5-eb57e4e6fc5a","system_id":"levelo_inurba_marseille","lat":43.24651,"lon":5.38897,"is_reserved":false,"is_disabled":false,"rental_uris":{"android":"levelo://app?vid=67496974-16e2-4554-92f5-eb57e4e6fc5a","ios":"levelo://app?vid=67496974-16e2-4554-92f5-eb57e4e6fc5a"},"vehicle_type_id":"4","last_reported":1747858283,"current_range_meters":16800,"station_id":"ce4bhg12rcd13ifvqf60","pricing_plan_id":"cebpf4jnsgd1na2vs0mg"},{"bike_id":"69d47b3a-83e8-4c62-9416-e1c3b77b5e55","system_id":"levelo_inurba_marseille","lat":43.2558,"lon":5.38229,"is_reserved":false,"is_disabled":false,"rental_uris":{"android":"levelo://app?vid=69d47b3a-83e8-4c62-9416-e1c3b77b5e55","ios":"levelo://app?vid=69d47b3a-83e8-4c62-9416-e1c3b77b5e55"},"vehicle_type_id":"4","last_reported":1747858283,"current_range_meters":16800,"station_id":"ce4bhih2rcd13ifvqfs0","pricing_plan_id":"cebpf4jnsgd1na2vs0mg"},{"bike_id":"1eb89828-cd5a-4124-83a2-72722772ebdb","system_id":"levelo_inurba_marseille","lat":43.28699,"lon":5.39986,"is_reserved":false,"is_disabled":false,"rental_uris":{"android":"levelo://app?vid=1eb89828-cd5a-4124-83a2-72722772ebdb","ios":"levelo://app?vid=1eb89828-cd5a-4124-83a2-72722772ebdb"},"vehicle_type_id":"4","last_reported":1747858283,"current_range_meters":16800,"station_id":"ce4bho92rcd13ifvqh3g","pricing_plan_id":"cebpf4jnsgd1na2vs0mg"},{"bike_id":"f9e80b80-88d6-44d3-b570-b81a450517ba","system_id":"levelo_inurba_marseille","lat":43.2955,"lon":5.42288,"is_reserved":false,"is_disabled":false,"rental_uris":{"android":"levelo://app?vid=f9e80b80-88d6-44d3-b570-b81a450517ba","ios":"levelo://app?vid=f9e80b80-88d6-44d3-b570-b81a450517ba"},"vehicle_type_id":"4","last_reported":1747858283,"current_range_meters":16800,"station_id":"ce4bhph2rcd13ifvqhdg","pricing_plan_id":"cebpf4jnsgd1na2vs0mg"},{"bike_id":"2a778d5a-cb1d-40ca-9eb0-5973ab795e99","system_id":"levelo_inurba_marseille","lat":43.28424,"lon":5.37505,"is_reserved":false,"is_disabled":false,"rental_uris":{"android":"levelo://app?vid=2a778d5a-cb1d-40ca-9eb0-5973ab795e99","ios":"levelo://app?vid=2a778d5a-cb1d-40ca-9eb0-5973ab795e99"},"vehicle_type_id":"4","last_reported":1747858283,"current_range_meters":17200,"station_id":"ce4bh412rcd13ifvqds0","pricing_plan_id":"cebpf4jnsgd1na2vs0mg"},{"bike_id":"71b492a6-245c-4a56-a784-18e1611e4d48","system_id":"levelo_inurba_marseille","lat":43.28663,"lon":5.38666,"is_reserved":false,"is_disabled":false,"rental_uris":{"android":"levelo://app?vid=71b492a6-245c-4a56-a784-18e1611e4d48","ios":"levelo://app?vid=71b492a6-245c-4a56-a784-18e1611e4d48"},"vehicle_type_id":"4","last_reported":1747858283,"current_range_meters":17200,"station_id":"ce4bh492rcd13ifvqdug","pricing_plan_id":"cebpf4jnsgd1na2vs0mg"},{"bike_id":"9e0f60f5-1ed9-4866-954d-b33678f21e9f","system_id":"levelo_inurba_marseille","lat":43.29017,"lon":5.38133,"is_reserved":false,"is_disabled":false,"rental_uris":{"android":"levelo://app?vid=9e0f60f5-1ed9-4866-954d-b33678f21e9f","ios":"levelo://app?vid=9e0f60f5-1ed9-4866-954d-b33678f21e9f"},"vehicle_type_id":"4","last_reported":1747858283,"current_range_meters":17200,"station_id":"ce4bh4p2rcd13ifvqe1g","pricing_plan_id":"cebpf4jnsgd1na2vs0mg"},{"bike_id":"c6920924-1ef1-496f-bb67-1488371e842d","system_id":"levelo_inurba_marseille","lat":43.24818,"lon":5.37444,"is_reserved":false,"is_disabled":false,"rental_uris":{"android":"levelo://app?vid=c6920924-1ef1-496f-bb67-1488371e842d","ios":"levelo://app?vid=c6920924-1ef1-496f-bb67-1488371e842d"},"vehicle_type_id":"4","last_reported":1747858283,"current_range_meters":17200,"station_id":"ce4bhgh2rcd13ifvqfb0","pricing_plan_id":"cebpf4jnsgd1na2vs0mg"},{"bike_id":"958bc8c1-bb90-456a-b094-4aa798692b72","system_id":"levelo_inurba_marseille","lat":43.26063,"lon":5.39394,"is_reserved":false,"is_disabled":false,"rental_uris":{"android":"levelo://app?vid=958bc8c1-bb90-456a-b094-4aa798692b72","ios":"levelo://app?vid=958bc8c1-bb90-456a-b094-4aa798692b72"},"vehicle_type_id":"4","last_reported":1747858283,"current_range_meters":17200,"station_id":"ce4bhh92rcd13ifvqfj0","pricing_plan_id":"cebpf4jnsgd1na2vs0mg"},{"bike_id":"8e4faa08-7794-40fd-87e6-ae15a4de14c6","system_id":"levelo_inurba_marseille","lat":43.27064,"lon":5.4025,"is_reserved":false,"is_disabled":false,"rental_uris":{"android":"levelo://app?vid=8e4faa08-7794-40fd-87e6-ae15a4de14c6","ios":"levelo://app?vid=8e4faa08-7794-40fd-87e6-ae15a4de14c6"},"vehicle_type_id":"4","last_reported":1747858283,"current_range_meters":17200,"station_id":"ce4bhk92rcd13ifvqgc0","pricing_plan_id":"cebpf4jnsgd1na2vs0mg"},{"bike_id":"8ba715c0-5300-4dc7-9e8f-ddca9d4a6cd0","system_id":"levelo_inurba_marseille","lat":43.29787,"lon":5.39344,"is_reserved":false,"is_disabled":false,"rental_uris":{"android":"levelo://app?vid=8ba715c0-5300-4dc7-9e8f-ddca9d4a6cd0","ios":"levelo://app?vid=8ba715c0-5300-4dc7-9e8f-ddca9d4a6cd0"},"vehicle_type_id":"4","last_reported":1747858283,"current_range_meters":17200,"station_id":"chh1huq6cuj3fo74tm60","pricing_plan_id":"cebpf4jnsgd1na2vs0mg"},{"bike_id":"dc41f4f8-7129-474f-8e7f-701ac9edbd21","system_id":"levelo_inurba_marseille","lat":43.28904,"lon":5.3729,"is_reserved":false,"is_disabled":false,"rental_uris":{"android":"levelo://app?vid=dc41f4f8-7129-474f-8e7f-701ac9edbd21","ios":"levelo://app?vid=dc41f4f8-7129-474f-8e7f-701ac9edbd21"},"vehicle_type_id":"4","last_reported":1747858283,"current_range_meters":17600,"station_id":"","pricing_plan_id":"cebpf4jnsgd1na2vs0mg"},{"bike_id":"f8c3cf58-c5af-4a8e-b945-3ed6788e3e7f","system_id":"levelo_inurba_marseille","lat":43.318396,"lon":5.372624,"is_reserved":false,"is_disabled":false,"rental_uris":{"android":"levelo://app?vid=f8c3cf58-c5af-4a8e-b945-3ed6788e3e7f","ios":"levelo://app?vid=f8c3cf58-c5af-4a8e-b945-3ed6788e3e7f"},"vehicle_type_id":"4","last_reported":1747858283,"current_range_meters":17600,"station_id":"","pricing_plan_id":"cebpf4jnsgd1na2vs0mg"},