{"last_updated":1696957591,"ttl":30,"version":"2.2","data":{"bikes":[{"bike_id":"adb18d85-094f-49c8-bd2e-3e9c0a7281f2","system_id":"levelo_inurba_marseille","lat":43.312239,"lon":5.368562,"is_reserved":false,"is_disabled":false,"rental_uris":{"android":"levelo://app?vid=adb18d85-094f-49c8-bd2e-3e9c0a7281f2","ios":"levelo://app?vid=adb18d85-094f-49c8-bd2e-3e9c0a7281f2"},"vehicle_type_id":"4","last_reported":1696957591,"current_range_meters":30800,"station_id":"ce4bgl92rcd13ifvqbq0","pricing_plan_id":"free"},{"bike_id":"759b0240-cfa6-4623-86ba-1727ee5454e5","system_id":"levelo_inurba_marseille","lat":43.295196,"lon":5.39397,"is_reserved":false,"is_disabled":false,"rental_uris":{"android":"levelo://app?vid=759b0240-cfa6-4623-86ba-1727ee5454e5","ios":"levelo://app?vid=759b0240-cfa6-4623-86ba-1727ee5454e5"},"vehicle_type_id":"4","last_reported":1696957591,"current_range_meters":24400,"station_id":"ce4bh292rcd13ifvqdf0","pricing_plan_id":"free"},{"bike_id":"93290d19-ef8e-483f-9136-0bc8eaa51d29","system_id":"levelo_inurba_marseille","lat":43.312239,"lon":5.368562,"is_reserved":false,"is_disabled":false,"rental_uris":{"android":"levelo://app?vid=93290d19-ef8e-483f-9136-0bc8eaa51d29","ios":"levelo://app?vid=93290d19-ef8e-483f-9136-0bc8eaa51d29"},"vehicle_type_id":"4","last_reported":1696957591,"current_range_meters":30800,"station_id":"ce4bgl92rcd13ifvqbq0","pricing_plan_id":"free"},{"bike_id":"6518ad5d-9c86-4bd6-8fd3-dd29f109ac86","system_id":"levelo_inurba_marseille","lat":43.31537,"lon":5.36865,"is_reserved":false,"is_disabled":false,"rental_uris":{"android":"levelo://app?vid=6518ad5d-9c86-4bd6-8fd3-dd29f109ac86","ios":"levelo://app?vid=6518ad5d-9c86-4bd6-8fd3-dd29f109ac86"},"vehicle_type_id":"4","last_reported":1696957591,"current_range_meters":4400,"station_id":"","pricing_plan_id":"free"},{"bike_id":"aa36214c-6cba-4b46-94e6-3641872a9a10","system_id":"levelo_inurba_marseille","lat":43.31433,"lon":5.37225,"is_reserved":false,"is_disabled":false,"rental_uris":{"android":"levelo://app?vid=aa36214c-6cba-4b46-94e6-3641872a9a10","ios":"levelo://app?vid=aa36214c-6cba-4b46-94e6-3641872a9a10"},"vehicle_type_id":"4","last_reported":1696957591,"current_range_meters":0,"station_id":"","pricing_plan_id":"free"},{"bike_id":"c2b4c9ff-4ba8-4a39-8f10-f403b3d85931","system_id":"levelo_inurba_marseille","lat":43.31872,"lon":5.36669,"is_reserved":false,"is_disabled":false,"rental_uris":{"android":"levelo://app?vid=c2b4c9ff-4ba8-4a39-8f10-f403b3d85931","ios":"levelo://app?vid=c2b4c9ff-4ba8-4a39-8f10-f403b3d85931"},"vehicle_type_id":"4","last_reported":1696957591,"current_range_meters":13200,"station_id":"","pricing_plan_id":"free"},{"bike_id":"933baba4-0ef2-4358-878e-8858b6f3db76","system_id":"levelo_inurba_marseille","lat":43.316537,"lon":5.374237,"is_reserved":false,"is_disabled":false,"rental_uris":{"android":"levelo://app?vid=933baba4-0ef2-4358-878e-8858b6f3db76","ios":"levelo://app?vid=933baba4-0ef2-4358-878e-8858b6f3db76"},"vehicle_type_id":"4","last_reported":1696957591,"current_range_meters":2400,"station_id":"ce4bgvp2rcd13ifvqcu0","pricing_plan_id":"free"},{"bike_id":"97b72d6b-2ebd-4d2f-b37e-ae2005d05adb","system_id":"levelo_inurba_marseille","lat":43.31877,"lon":5.37157,"is_reserved":false,"is_disabled":false,"rental_uris":{"android":"levelo://app?vid=97b72d6b-2ebd-4d2f-b37e-ae2005d05adb","ios":"levelo://app?vid=97b72d6b-2ebd-4d2f-b37e-ae2005d05adb"},"vehicle_type_id":"4","last_reported":1696957591,"current_range_meters":28800,"station_id":"","pricing_plan_id":"free"},{"bike_id":"cf52fc07-da07-414d-9bb1-9deb2ebcda0c","system_id":"levelo_inurba_marseille","lat":43.31118,"lon":5.37765,"is_reserved":false,"is_disabled":false,"rental_uris":{"android":"levelo://app?vid=cf52fc07-da07-414d-9bb1-9deb2ebcda0c","ios":"levelo://app?vid=cf52fc07-da07-414d-9bb1-9deb2ebcda0c"},"vehicle_type_id":"4","last_reported":1696957591,"current_range_meters":0,"station_id":"ce4bgt92rcd13ifvqcg0","pricing_plan_id":"free"},{"bike_id":"ed589f20-5ffd-4084-81d1-95436dc6ecc2","system_id":"levelo_inurba_marseille","lat":43.30416,"lon":5.36793,"is_reserved":false,"is_disabled":false,"rental_uris":{"android":"levelo://app?vid=ed589f20-5ffd-4084-81d1-95436dc6ecc2","ios":"levelo://app?vid=ed589f20-5ffd-4084-81d1-95436dc6ecc2"},"vehicle_type_id":"4","last_reported":1696957591,"current_range_meters":1600,"station_id":"","pricing_plan_id":"free"},{"bike_id":"0bc5cfb4-3625-48df-ad6d-e21e45cfba59","system_id":"levelo_inurba_marseille","lat":43.317075,"lon":5.377367,"is_reserved":false,"is_disabled":false,"rental_uris":{"android":"levelo://app?vid=0bc5cfb4-3625-48df-ad6d-e21e45cfba59","ios":"levelo://app?vid=0bc5cfb4-3625-48df-ad6d-e21e45cfba59"},"vehicle_type_id":"4","last_reported":1696957591,"current_range_meters":6800,"station_id":"ce4bgth2rcd13ifvqch0","pricing_plan_id":"free"},{"bike_id":"800ebe94-4960-4f9e-8c64-9491f9501b96","system_id":"levelo_inurba_marseille","lat":43.306064,"lon":5.375433,"is_reserved":false,"is_disabled":false,"rental_uris":{"android":"levelo://app?vid=800ebe94-4960-4f9e-8c64-9491f9501b96","ios":"levelo://app?vid=800ebe94-4960-4f9e-8c64-9491f9501b96"},"vehicle_type_id":"4","last_reported":1696957591,"current_range_meters":5600,"station_id":"","pricing_plan_id":"free"},{"bike_id":"5a96bd28-cda0-449f-b4e4-905f9045e549","system_id":"levelo_inurba_marseille","lat":43.32183,"lon":5.36842,"is_reserved":false,"is_disabled":false,"rental_uris":{"android":"levelo://app?vid=5a96bd28-cda0-449f-b4e4-905f9045e549","ios":"levelo://app?vid=5a96bd28-cda0-449f-b4e4-905f9045e549"},"vehicle_type_id":"4","last_reported":1696957591,"current_range_meters":11600,"station_id":"","pricing_plan_id":"free"},{"bike_id":"163d2399-bf5f-4bc1-93ce-b45bdf89425b","system_id":"levelo_inurba_marseille","lat":43.303046,"lon":5.368981,"is_reserved":false,"is_disabled":false,"rental_uris":{"android":"levelo://app?vid=163d2399-bf5f-4bc1-93ce-b45bdf89425b","ios":"levelo://app?vid=163d2399-bf5f-4bc1-93ce-b45bdf89425b"},"vehicle_type_id":"4","last_reported":1696957591,"current_range_meters":25200,"station_id":"ce4bgqh2rcd13ifvqc5g","pricing_plan_id":"free"},{"bike_id":"ea587c33-a516-42b7-b8f3-df1ecbbf17ff","system_id":"levelo_inurba_marseille","lat":43.30304,"lon":5.368987,"is_reserved":false,"is_disabled":false,"rental_uris":{"android":"levelo://app?vid=ea587c33-a516-42b7-b8f3-df1ecbbf17ff","ios":"levelo://app?vid=ea587c33-a516-42b7-b8f3-df1ecbbf17ff"},"vehicle_type_id":"4","last_reported":1696957591,"current_range_meters":17200,"station_id":"ce4bgqh2rcd13ifvqc5g","pricing_plan_id":"free"},{"bike_id":"827f786c-2e87-41b5-8fff-c95c782cb753","system_id":"levelo_inurba_marseille","lat":43.31538,"lon":5.38032,"is_reserved":false,"is_disabled":false,"rental_uris":{"android":"levelo://app?vid=827f786c-2e87-41b5-8fff-c95c782cb753","ios":"levelo://app?vid=827f786c-2e87-41b5-8fff-c95c782cb753"},"vehicle_type_id":"4","last_reported":1696957591,"current_range_meters":18000,"station_id":"ce4bhsp2rcd13ifvqi50","pricing_plan_id":"free"},{"bike_id":"568bf4e9-9244-4dcc-8b59-84d28cae62ab","system_id":"levelo_inurba_marseille","lat":43.315388,"lon":5.380334,"is_reserved":false,"is_disabled":false,"rental_uris":{"android":"levelo://app?vid=568bf4e9-9244-4dcc-8b59-84d28cae62ab","ios":"levelo://app?vid=568bf4e9-9244-4dcc-8b59-84d28cae62ab"},"vehicle_type_id":"4","last_reported":1696957591,"current_range_meters":31200,"station_id":"ce4bhsp2rcd13ifvqi50","pricing_plan_id":"free"},{"bike_id":"24684eb3-fa19-479d-88c4-c7060a8ce96f","system_id":"levelo_inurba_marseille","lat":43.315383,"lon":5.380353,"is_reserved":false,"is_disabled":false,"rental_uris":{"android":"levelo://app?vid=24684eb3-fa19-479d-88c4-c7060a8ce96f","ios":"levelo://app?vid=24684eb3-fa19-479d-88c4-c7060a8ce96f"},"vehicle_type_id":"4","last_reported":1696957591,"current_range_meters":31200,"station_id":"ce4bhsp2rcd13ifvqi50","pricing_plan_id":"free"},{"bike_id":"505ee5ae-b22c-4079-acf8-ef84951315fc","system_id":"levelo_inurba_marseille","lat":43.308012,"lon":5.381511,"is_reserved":false,"is_disabled":false,"rental_uris":{"android":"levelo://app?vid=505ee5ae-b22c-4079-acf8-ef84951315fc","ios":"levelo://app?vid=505ee5ae-b22c-4079-acf8-ef84951315fc"},"vehicle_type_id":"4","last_reported":1696957591,"current_range_meters":16800,"station_id":"ce4bgt12rcd13ifvqce0","pricing_plan_id":"free"},{"bike_id":"08844995-7460-488b-a77c-008d0bdd2add","system_id":"levelo_inurba_marseille","lat":43.282754,"lon":5.350519,"is_reserved":false,"is_disabled":false,"rental_uris":{"android":"levelo://app?vid=08844995-7460-488b-a77c-008d0bdd2add","ios":"levelo://app?vid=08844995-7460-488b-a77c-008d0bdd2add"},"vehicle_type_id":"4","last_reported":1696957591,"current_range_meters":4000,"station_id":"ce4bhbp2rcd13ifvqerg","pricing_plan_id":"free"},{"bike_id":"afa87554-46fd-491d-b8a5-ed52f8a15fb0","system_id":"levelo_inurba_marseille","lat":43.31991,"lon":5.38064,"is_reserved":false,"is_disabled":false,"rental_uris":{"android":"levelo://app?vid=afa87554-46fd-491d-b8a5-ed52f8a15fb0","ios":"levelo://app?vid=afa87554-46fd-491d-b8a5-ed52f8a15fb0"},"vehicle_type_id":"4","last_reported":1696957591,"current_range_meters":5600,"station_id":"","pricing_plan_id":"free"},{"bike_id":"2329713e-3a83-4941-a7da-c676c9731936","system_id":"levelo_inurba_marseille","lat":43.299243,"lon":5.374807,"is_reserved":false,"is_disabled":false,"rental_uris":{"android":"levelo://app?vid=2329713e-3a83-4941-a7da-c676c9731936","ios":"levelo://app?vid=2329713e-3a83-4941-a7da-c676c9731936"},"vehicle_type_id":"4","last_reported":1696957591,"current_range_meters":6000,"station_id":"ce4bgjh2rcd13ifvqbg0","pricing_plan_id":"free"},{"bike_id":"a537e31a-4df1-4b90-b31a-744f50d94c5b","system_id":"levelo_inurba_marseille","lat":43.2993,"lon":5.36537,"is_reserved":false,"is_disabled":false,"rental_uris":{"android":"levelo://app?vid=a537e31a-4df1-4b90-b31a-744f50d94c5b","ios":"levelo://app?vid=a537e31a-4df1-4b90-b31a-744f50d94c5b"},"vehicle_type_id":"4","last_reported":1696957591,"current_range_meters":28000,"station_id":"ce4bgm92rcd13ifvqbr0","pricing_plan_id":"free"},{"bike_id":"7f1eba7a-375a-4bf5-9fcf-dc154d61ee4b","system_id":"levelo_inurba_marseille","lat":43.32665,"lon":5.36101,"is_reserved":false,"is_disabled":false,"rental_uris":{"android":"levelo://app?vid=7f1eba7a-375a-4bf5-9fcf-dc154d61ee4b","ios":"levelo://app?vid=7f1eba7a-375a-4bf5-9fcf-dc154d61ee4b"},"vehicle_type_id":"4","last_reported":1696957591,"current_range_meters":15600,"station_id":"","pricing_plan_id":"free"},{"bike_id":"c4d71f33-4020-4e3b-a4ec-b8001d9b2a98","system_id":"levelo_inurba_marseille","lat":43.29917,"lon":5.37468,"is_reserved":false,"is_disabled":false,"rental_uris":{"android":"levelo://app?vid=c4d71f33-4020-4e3b-a4ec-b8001d9b2a98","ios":"levelo://app?vid=c4d71f33-4020-4e3b-a4ec-b8001d9b2a98"},"vehicle_type_id":"4","last_reported":1696957591,"current_range_meters":29200,"station_id":"ce4bgjh2rcd13ifvqbg0","pricing_plan_id":"free"},{"bike_id":"896b87e8-d962-4820-a459-06106fc08e8b","system_id":"levelo_inurba_marseille","lat":43.299243,"lon":5.37481,"is_reserved":false,"is_disabled":false,"rental_uris":{"android":"levelo://app?vid=896b87e8-d962-4820-a459-06106fc08e8b","ios":"levelo://app?vid=896b87e8-d962-4820-a459-06106fc08e8b"},"vehicle_type_id":"4","last_reported":1696957591,"current_range_meters":20400,"station_id":"ce4bgjh2rcd13ifvqbg0","pricing_plan_id":"free"},{"bike_id":"643f5228-3ca6-41d1-85a7-151f977e9ddb","system_id":"levelo_inurba_marseille","lat":43.298014,"lon":5.366568,"is_reserved":false,"is_disabled":false,"rental_uris":{"android":"levelo://app?vid=643f5228-3ca6-41d1-85a7-151f977e9ddb","ios":"levelo://app?vid=643f5228-3ca6-41d1-85a7-151f977e9ddb"},"vehicle_type_id":"4","last_reported":1696957591,"current_range_meters":13200,"station_id":"","pricing_plan_id":"free"},{"bike_id":"d3441be2-24fe-4019-9c53-7bb5f1445f15","system_id":"levelo_inurba_marseille","lat":43.2991,"lon":5.37463,"is_reserved":false,"is_disabled":false,"rental_uris":{"android":"levelo://app?vid=d3441be2-24fe-4019-9c53-7bb5f1445f15","ios":"levelo://app?vid=d3441be2-24fe-4019-9c53-7bb5f1445f15"},"vehicle_type_id":"4","last_reported":1696957591,"current_range_meters":0,"station_id":"ce4bgjh2rcd13ifvqbg0","pricing_plan_id":"free"},{"bike_id":"f6ea16a2-7a11-413f-aee2-6d3ff90898f5","system_id":"levelo_inurba_marseille","lat":43.29909,"lon":5.37524,"is_reserved":false,"is_disabled":false,"rental_uris":{"android":"levelo://app?vid=f6ea16a2-7a11-413f-aee2-6d3ff90898f5","ios":"levelo://app?vid=f6ea16a2-7a11-413f-aee2-6d3ff90898f5"},"vehicle_type_id":"4","last_reported":1696957591,"current_range_meters":0,"station_id":"","pricing_plan_id":"free"},{"bike_id":"b1866448-5164-40f6-8f79-393f63f39a02","system_id":"levelo_inurba_marseille","lat":43.297774,"lon":5.370875,"is_reserved":false,"is_disabled":false,"rental_uris":{"android":"levelo://app?vid=b1866448-5164-40f6-8f79-393f63f39a02","ios":"levelo://app?vid=b1866448-5164-40f6-8f79-393f63f39a02"},"vehicle_type_id":"4","last_reported":1696957591,"current_range_meters":20800,"station_id":"ce4bgop2rcd13ifvqc1g","pricing_plan_id":"free"},{"bike_id":"42584b19-497e-4b47-8b16-32fbeb899d72","system_id":"levelo_inurba_marseille","lat":43.32822,"lon":5.366959,"is_reserved":false,"is_disabled":false,"rental_uris":{"android":"levelo://app?vid=42584b19-497e-4b47-8b16-32fbeb899d72","ios":"levelo://app?vid=42584b19-497e-4b47-8b16-32fbeb899d72"},"vehicle_type_id":"4","last_reported":1696957591,"current_range_meters":11200,"station_id":"","pricing_plan_id":"free"},{"bike_id":"dbdfefec-ce94-4f57-b6f3-fb7ecb0de27f","system_id":"levelo_inurba_marseille","lat":43.32831,"lon":5.36688,"is_reserved":false,"is_disabled":false,"rental_uris":{"android":"levelo://app?vid=dbdfefec-ce94-4f57-b6f3-fb7ecb0de27f","ios":"levelo://app?vid=dbdfefec-ce94-4f57-b6f3-fb7ecb0de27f"},"vehicle_type_id":"4","last_reported":1696957591,"current_range_meters":0,"station_id":"ce4bhs92rcd13ifvqi0g","pricing_plan_id":"free"},{"bike_id":"1293be6d-465b-4c7b-8a6b-828f589c90a0","system_id":"levelo_inurba_marseille","lat":43.297163,"lon":5.365866,"is_reserved":false,"is_disabled":false,"rental_uris":{"android":"levelo://app?vid=1293be6d-465b-4c7b-8a6b-828f589c90a0","ios":"levelo://app?vid=1293be6d-465b-4c7b-8a6b-828f589c90a0"},"vehicle_type_id":"4","last_reported":1696957591,"current_range_meters":28400,"station_id":"ce4bgn12rcd13ifvqbt0","pricing_plan_id":"free"},{"bike_id":"451377af-1837-4987-a10e-e8525d55de14","system_id":"levelo_inurba_marseille","lat":43.299534,"lon":5.378462,"is_reserved":false,"is_disabled":false,"rental_uris":{"android":"levelo://app?vid=451377af-1837-4987-a10e-e8525d55de14","ios":"levelo://app?vid=451377af-1837-4987-a10e-e8525d55de14"},"vehicle_type_id":"4","last_reported":1696957591,"current_range_meters":5600,"station_id":"","pricing_plan_id":"free"},{"bike_id":"a035ebdc-629b-411b-8f56-44f710fa493c","system_id":"levelo_inurba_marseille","lat":43.328569,"lon":5.366797,"is_reserved":false,"is_disabled":false,"rental_uris":{"android":"levelo://app?vid=a035ebdc-629b-411b-8f56-44f710fa493c","ios":"levelo://app?vid=a035ebdc-629b-411b-8f56-44f710fa493c"},"vehicle_type_id":"4","last_reported":1696957591,"current_range_meters":31200,"station_id":"","pricing_plan_id":"free"},{"bike_id":"5901c1c3-136c-4ed0-9788-1a9ea436413c","system_id":"levelo_inurba_marseille","lat":43.296021,"lon":5.367704,"is_reserved":false,"is_disabled":false,"rental_uris":{"android":"levelo://app?vid=5901c1c3-136c-4ed0-9788-1a9ea436413c","ios":"levelo://app?vid=5901c1c3-136c-4ed0-9788-1a9ea436413c"},"vehicle_type_id":"4","last_reported":1696957591,"current_range_meters":0,"station_id":"","pricing_plan_id":"free"},{"bike_id":"108b82d4-4d07-4f7d-aca1-4d808ba61c64","system_id":"levelo_inurba_marseille","lat":43.29573,"lon":5.367355,"is_reserved":false,"is_disabled":false,"rental_uris":{"android":"levelo://app?vid=108b82d4-4d07-4f7d-aca1-4d808ba61c64","ios":"levelo://app?vid=108b82d4-4d07-4f7d-aca1-4d808ba61c64"},"vehicle_type_id":"4","last_reported":1696957591,"current_range_meters":21200,"station_id":"ce4bgph2rcd13ifvqc2g","pricing_plan_id":"free"},{"bike_id":"d5bded8b-1efa-40e1-9a03-439c4222aad1","system_id":"levelo_inurba_marseille","lat":43.296131,"lon":5.370773,"is_reserved":false,"is_disabled":false,"rental_uris":{"android":"levelo://app?vid=d5bded8b-1efa-40e1-9a03-439c4222aad1","ios":"levelo://app?vid=d5bded8b-1efa-40e1-9a03-439c4222aad1"},"vehicle_type_id":"4","last_reported":1696957591,"current_range_meters":0,"station_id":"ce4bgnh2rcd13ifvqc0g","pricing_plan_id":"free"},{"bike_id":"6f8346ec-a05d-4d82-b782-cdbedbf07d14","system_id":"levelo_inurba_marseille","lat":43.32195,"lon":5.386885,"is_reserved":false,"is_disabled":false,"rental_uris":{"android":"levelo://app?vid=6f8346ec-a05d-4d82-b782-cdbedbf07d14","ios":"levelo://app?vid=6f8346ec-a05d-4d82-b782-cdbedbf07d14"},"vehicle_type_id":"4","last_reported":1696957591,"current_range_meters":24000,"station_id":"","pricing_plan_id":"free"},{"bike_id":"7ccc1751-061f-4aa0-83f4-b8b1b7a8f02b","system_id":"levelo_inurba_marseille","lat":43.31758,"lon":5.39013,"is_reserved":false,"is_disabled":false,"rental_uris":{"android":"levelo://app?vid=7ccc1751-061f-4aa0-83f4-b8b1b7a8f02b","ios":"levelo://app?vid=7ccc1751-061f-4aa0-83f4-b8b1b7a8f02b"},"vehicle_type_id":"4","last_reported":1696957591,"current_range_meters":15200,"station_id":"ce4bhqp2rcd13ifvqhng","pricing_plan_id":"free"},{"bike_id":"7334c9dd-6883-42a4-9e96-b16ec63905ad","system_id":"levelo_inurba_marseille","lat":43.298037,"lon":5.381066,"is_reserved":false,"is_disabled":false,"rental_uris":{"android":"levelo://app?vid=7334c9dd-6883-42a4-9e96-b16ec63905ad","ios":"levelo://app?vid=7334c9dd-6883-42a4-9e96-b16ec63905ad"},"vehicle_type_id":"4","last_reported":1696957591,"current_range_meters":22800,"station_id":"ce4bgip2rcd13ifvqbb0","pricing_plan_id":"free"},{"bike_id":"65ec6746-f3ad-476a-b97d-4f6d24a3448e","system_id":"levelo_inurba_marseille","lat":43.29794,"lon":5.38109,"is_reserved":false,"is_disabled":false,"rental_uris":{"android":"levelo://app?vid=65ec6746-f3ad-476a-b97d-4f6d24a3448e","ios":"levelo://app?vid=65ec6746-f3ad-476a-b97d-4f6d24a3448e"},"vehicle_type_id":"4","last_reported":1696957591,"current_range_meters":31200,"station_id":"ce4bgip2rcd13ifvqbb0","pricing_plan_id":"free"},{"bike_id":"4d3cbcc4-49c9-4057-8e3a-b7b31df96638","system_id":"levelo_inurba_marseille","lat":43.296155,"lon":5.37722,"is_reserved":false,"is_disabled":false,"rental_uris":{"android":"levelo://app?vid=4d3cbcc4-49c9-4057-8e3a-b7b31df96638","ios":"levelo://app?vid=4d3cbcc4-49c9-4057-8e3a-b7b31df96638"},"vehicle_type_id":"4","last_reported":1696957591,"current_range_meters":0,"station_id":"ce4bgi92rcd13ifvqb90","pricing_plan_id":"free"},{"bike_id":"3d7fc691-7f09-44c2-8970-e8f1aaf3e99b","system_id":"levelo_inurba_marseille","lat":43.295279,"lon":5.375048,"is_reserved":false,"is_disabled":false,"rental_uris":{"android":"levelo://app?vid=3d7fc691-7f09-44c2-8970-e8f1aaf3e99b","ios":"levelo://app?vid=3d7fc691-7f09-44c2-8970-e8f1aaf3e99b"},"vehicle_type_id":"4","last_reported":1696957591,"current_range_meters":30000,"station_id":"ce4bgkp2rcd13ifvqbmg","pricing_plan_id":"free"},{"bike_id":"0aad64e1-4d39-4a43-8cc4-1a6770be5337","system_id":"levelo_inurba_marseille","lat":43.29964,"lon":5.38483,"is_reserved":false,"is_disabled":false,"rental_uris":{"android":"levelo://app?vid=0aad64e1-4d39-4a43-8cc4-1a6770be5337","ios":"levelo://app?vid=0aad64e1-4d39-4a43-8cc4-1a6770be5337"},"vehicle_type_id":"4","last_reported":1696957591,"current_range_meters":0,"station_id":"ce4bgj92rcd13ifvqbd0","pricing_plan_id":"free"},{"bike_id":"f6585b31-ff45-4402-8685-c8d7b792653b","system_id":"levelo_inurba_marseille","lat":43.32182,"lon":5.38938,"is_reserved":false,"is_disabled":false,"rental_uris":{"android":"levelo://app?vid=f6585b31-ff45-4402-8685-c8d7b792653b","ios":"levelo://app?vid=f6585b31-ff45-4402-8685-c8d7b792653b"},"vehicle_type_id":"4","last_reported":1696957591,"current_range_meters":1600,"station_id":"","pricing_plan_id":"free"},{"bike_id":"b5df700d-a35b-4a2d-850a-7cb3aabac0a8","system_id":"levelo_inurba_marseille","lat":43.293009,"lon":5.374584,"is_reserved":false,"is_disabled":false,"rental_uris":{"android":"levelo://app?vid=b5df700d-a35b-4a2d-850a-7cb3aabac0a8","ios":"levelo://app?vid=b5df700d-a35b-4a2d-850a-7cb3aabac0a8"},"vehicle_type_id":"4","last_reported":1696957591,"current_range_meters":0,"station_id":"ce4bgi12rcd13ifvqb70","pricing_plan_id":"free"},{"bike_id":"a875ff7f-ef81-40eb-bdca-5427178a55a5","system_id":"levelo_inurba_marseille","lat":43.32385,"lon":5.38923,"is_reserved":false,"is_disabled":false,"rental_uris":{"android":"levelo://app?vid=a875ff7f-ef81-40eb-bdca-5427178a55a5","ios":"levelo://app?vid=a875ff7f-ef81-40eb-bdca-5427178a55a5"},"vehicle_type_id":"4","last_reported":1696957591,"current_range_meters":21600,"station_id":"ce4bhqp2rcd13ifvqhog","pricing_plan_id":"free"},{"bike_id":"3fa2ecd5-db71-4707-8e7c-94160de5eba8","system_id":"levelo_inurba_marseille","lat":43.293249,"lon":5.371578,"is_reserved":false,"is_disabled":false,"rental_uris":{"android":"levelo://app?vid=3fa2ecd5-db71-4707-8e7c-94160de5eba8","ios":"levelo://app?vid=3fa2ecd5-db71-4707-8e7c-94160de5eba8"},"vehicle_type_id":"4","last_reported":1696957591,"current_range_meters":13600,"station_id":"ce4bgh92rcd13ifvqb40","pricing_plan_id":"free"},{"bike_id":"74666ba0-25f1-4e83-9989-271697c04d9d","system_id":"levelo_inurba_marseille","lat":43.293874,"lon":5.376551,"is_reserved":false,"is_disabled":false,"rental_uris":{"android":"levelo://app?vid=74666ba0-25f1-4e83-9989-271697c04d9d","ios":"levelo://app?vid=74666ba0-25f1-4e83-9989-271697c04d9d"},"vehicle_type_id":"4","last_reported":1696957591,"current_range_meters":18000,"station_id":"","pricing_plan_id":"free"},{"bike_id":"5ed47142-c936-4f4b-aa17-fb0fc37bfca6","system_id":"levelo_inurba_marseille","lat":43.298764,"lon":5.388973,"is_reserved":false,"is_disabled":false,"rental_uris":{"android":"levelo://app?vid=5ed47142-c936-4f4b-aa17-fb0fc37bfca6","ios":"levelo://app?vid=5ed47142-c936-4f4b-aa17-fb0fc37bfca6"},"vehicle_type_id":"4","last_reported":1696957591,"current_range_meters":1600,"station_id":"ce4bh392rcd13ifvqdl0","pricing_plan_id":"free"},{"bike_id":"ee98e86a-a4c5-4872-94c2-055699b8d72d","system_id":"levelo_inurba_marseille","lat":43.292466,"lon":5.366151,"is_reserved":false,"is_disabled":false,"rental_uris":{"android":"levelo://app?vid=ee98e86a-a4c5-4872-94c2-055699b8d72d","ios":"levelo://app?vid=ee98e86a-a4c5-4872-94c2-055699b8d72d"},"vehicle_type_id":"4","last_reported":1696957591,"current_range_meters":15600,"station_id":"ce4bhbp2rcd13ifvqesg","pricing_plan_id":"free"},{"bike_id":"c8baeaa5-fe7f-4bd5-bda8-673fb3793006","system_id":"levelo_inurba_marseille","lat":43.32908,"lon":5.38393,"is_reserved":false,"is_disabled":false,"rental_uris":{"android":"levelo://app?vid=c8baeaa5-fe7f-4bd5-bda8-673fb3793006","ios":"levelo://app?vid=c8baeaa5-fe7f-4bd5-bda8-673fb3793006"},"vehicle_type_id":"4","last_reported":1696957591,"current_range_meters":9600,"station_id":"","pricing_plan_id":"free"},{"bike_id":"9271b411-6026-4f1c-8fca-aefb3f3f7395","system_id":"levelo_inurba_marseille","lat":43.293009,"lon":5.374584,"is_reserved":false,"is_disabled":false,"rental_uris":{"android":"levelo://app?vid=9271b411-6026-4f1c-8fca-aefb3f3f7395","ios":"levelo://app?vid=9271b411-6026-4f1c-8fca-aefb3f3f7395"},"vehicle_type_id":"4","last_reported":1696957591,"current_range_meters":0,"station_id":"ce4bgi12rcd13ifvqb70","pricing_plan_id":"free"},{"bike_id":"142d422e-c72a-489e-8c5a-f151d476d4ae","system_id":"levelo_inurba_marseille","lat":43.305994,"lon":5.393687,"is_reserved":false,"is_disabled":false,"rental_uris":{"android":"levelo://app?vid=142d422e-c72a-489e-8c5a-f151d476d4ae","ios":"levelo://app?vid=142d422e-c72a-489e-8c5a-f151d476d4ae"},"vehicle_type_id":"4","last_reported":1696957591,"current_range_meters":2800,"station_id":"ce4bh0p2rcd13ifvqd80","pricing_plan_id":"free"},{"bike_id":"0db3cde6-504c-4608-9121-5ec7f794ca19","system_id":"levelo_inurba_marseille","lat":43.302992,"lon":5.392136,"is_reserved":false,"is_disabled":false,"rental_uris":{"android":"levelo://app?vid=0db3cde6-504c-4608-9121-5ec7f794ca19","ios":"levelo://app?vid=0db3cde6-504c-4608-9121-5ec7f794ca19"},"vehicle_type_id":"4","last_reported":1696957591,"current_range_meters":30800,"station_id":"ce4bgkh2rcd13ifvqbk0","pricing_plan_id":"free"},{"bike_id":"55da4b1e-ec25-4280-b823-fbb2e26c473e","system_id":"levelo_inurba_marseille","lat":43.29299,"lon":5.37617,"is_reserved":false,"is_disabled":false,"rental_uris":{"android":"levelo://app?vid=55da4b1e-ec25-4280-b823-fbb2e26c473e","ios":"levelo://app?vid=55da4b1e-ec25-4280-b823-fbb2e26c473e"},"vehicle_type_id":"4","last_reported":1696957591,"current_range_meters":5600,"station_id":"ce4bgi12rcd13ifvqb80","pricing_plan_id":"free"},{"bike_id":"8ccdb072-973c-4d28-9dae-097ae9aa0448","system_id":"levelo_inurba_marseille","lat":43.32183,"lon":5.39285,"is_reserved":false,"is_disabled":false,"rental_uris":{"android":"levelo://app?vid=8ccdb072-973c-4d28-9dae-097ae9aa0448","ios":"levelo://app?vid=8ccdb072-973c-4d28-9dae-097ae9aa0448"},"vehicle_type_id":"4","last_reported":1696957591,"current_range_meters":9600,"station_id":"","pricing_plan_id":"free"},{"bike_id":"5133dd7a-6187-40fb-adce-059a01902ee2","system_id":"levelo_inurba_marseille","lat":43.30085,"lon":5.390856,"is_reserved":false,"is_disabled":false,"rental_uris":{"android":"levelo://app?vid=5133dd7a-6187-40fb-adce-059a01902ee2","ios":"levelo://app?vid=5133dd7a-6187-40fb-adce-059a01902ee2"},"vehicle_type_id":"4","last_reported":1696957591,"current_range_meters":6000,"station_id":"ce4bh192rcd13ifvqdb0","pricing_plan_id":"free"},{"bike_id":"f4cf515f-ac45-4bb7-822b-793dae161a8f","system_id":"levelo_inurba_marseille","lat":43.300852,"lon":5.390859,"is_reserved":false,"is_disabled":false,"rental_uris":{"android":"levelo://app?vid=f4cf515f-ac45-4bb7-822b-793dae161a8f","ios":"levelo://app?vid=f4cf515f-ac45-4bb7-822b-793dae161a8f"},"vehicle_type_id":"4","last_reported":1696957591,"current_range_meters":28800,"station_id":"ce4bh192rcd13ifvqdb0","pricing_plan_id":"free"},{"bike_id":"9ac9a31a-273b-4538-b2e4-6f8141a31288","system_id":"levelo_inurba_marseille","lat":43.298764,"lon":5.388973,"is_reserved":false,"is_disabled":false,"rental_uris":{"android":"levelo://app?vid=9ac9a31a-273b-4538-b2e4-6f8141a31288","ios":"levelo://app?vid=9ac9a31a-273b-4538-b2e4-6f8141a31288"},"vehicle_type_id":"4","last_reported":1696957591,"current_range_meters":0,"station_id":"ce4bh392rcd13ifvqdl0","pricing_plan_id":"free"},{"bike_id":"f9ab4528-b906-47cd-86f8-aa1c545cc9a7","system_id":"levelo_inurba_marseille","lat":43.291675,"lon":5.371583,"is_reserved":false,"is_disabled":false,"rental_uris":{"android":"levelo://app?vid=f9ab4528-b906-47cd-86f8-aa1c545cc9a7","ios":"levelo://app?vid=f9ab4528-b906-47cd-86f8-aa1c545cc9a7"},"vehicle_type_id":"4","last_reported":1696957591,"current_range_meters":20400,"station_id":"ce4bha92rcd13ifvqeh0","pricing_plan_id":"free"},{"bike_id":"f3877aac-2557-46dd-a031-4ffdbf9e091d","system_id":"levelo_inurba_marseille","lat":43.298764,"lon":5.388973,"is_reserved":false,"is_disabled":false,"rental_uris":{"android":"levelo://app?vid=f3877aac-2557-46dd-a031-4ffdbf9e091d","ios":"levelo://app?vid=f3877aac-2557-46dd-a031-4ffdbf9e091d"},"vehicle_type_id":"4","last_reported":1696957591,"current_range_meters":0,"station_id":"ce4bh392rcd13ifvqdl0","pricing_plan_id":"free"},{"bike_id":"6ad7e42e-df37-44b1-9ee0-4d5e63582126","system_id":"levelo_inurba_marseille","lat":43.29146,"lon":5.370127,"is_reserved":false,"is_disabled":false,"rental_uris":{"android":"levelo://app?vid=6ad7e42e-df37-44b1-9ee0-4d5e63582126","ios":"levelo://app?vid=6ad7e42e-df37-44b1-9ee0-4d5e63582126"},"vehicle_type_id":"4","last_reported":1696957591,"current_range_meters":18000,"station_id":"","pricing_plan_id":"free"},{"bike_id":"89d2cc24-f8aa-4956-bb4a-2ede2919a2a9","system_id":"levelo_inurba_marseille","lat":43.29203,"lon":5.35797,"is_reserved":false,"is_disabled":false,"rental_uris":{"android":"levelo://app?vid=89d2cc24-f8aa-4956-bb4a-2ede2919a2a9","ios":"levelo://app?vid=89d2cc24-f8aa-4956-bb4a-2ede2919a2a9"},"vehicle_type_id":"4","last_reported":1696957591,"current_range_meters":14000,"station_id":"","pricing_plan_id":"free"},{"bike_id":"c46a8da0-8470-4673-a487-229ce8622409","system_id":"levelo_inurba_marseille","lat":43.33371,"lon":5.35765,"is_reserved":false,"is_disabled":false,"rental_uris":{"android":"levelo://app?vid=c46a8da0-8470-4673-a487-229ce8622409","ios":"levelo://app?vid=c46a8da0-8470-4673-a487-229ce8622409"},"vehicle_type_id":"4","last_reported":1696957591,"current_range_meters":0,"station_id":"","pricing_plan_id":"free"},{"bike_id":"1efffee8-96f2-47dc-8f21-2ac07c683821","system_id":"levelo_inurba_marseille","lat":43.290779,"lon":5.371482,"is_reserved":false,"is_disabled":false,"rental_uris":{"android":"levelo://app?vid=1efffee8-96f2-47dc-8f21-2ac07c683821","ios":"levelo://app?vid=1efffee8-96f2-47dc-8f21-2ac07c683821"},"vehicle_type_id":"4","last_reported":1696957591,"current_range_meters":0,"station_id":"ce4bh5p2rcd13ifvqe4g","pricing_plan_id":"free"},{"bike_id":"df2286b8-d66c-4143-9357-6abf1577024c","system_id":"levelo_inurba_marseille","lat":43.290779,"lon":5.371482,"is_reserved":false,"is_disabled":false,"rental_uris":{"android":"levelo://app?vid=df2286b8-d66c-4143-9357-6abf1577024c","ios":"levelo://app?vid=df2286b8-d66c-4143-9357-6abf1577024c"},"vehicle_type_id":"4","last_reported":1696957591,"current_range_meters":1200,"station_id":"ce4bh5p2rcd13ifvqe4g","pricing_plan_id":"free"},{"bike_id":"4b5dbe7b-cda6-4872-94c0-d7e466f22643","system_id":"levelo_inurba_marseille","lat":43.290779,"lon":5.371482,"is_reserved":false,"is_disabled":false,"rental_uris":{"android":"levelo://app?vid=4b5dbe7b-cda6-4872-94c0-d7e466f22643","ios":"levelo://app?vid=4b5dbe7b-cda6-4872-94c0-d7e466f22643"},"vehicle_type_id":"4","last_reported":1696957591,"current_range_meters":0,"station_id":"ce4bh5p2rcd13ifvqe4g","pricing_plan_id":"free"},{"bike_id":"aa4819cd-a5a5-485c-b0ef-19ae8bff7e42","system_id":"levelo_inurba_marseille","lat":43.29029,"lon":5.36981,"is_reserved":false,"is_disabled":false,"rental_uris":{"android":"levelo://app?vid=aa4819cd-a5a5-485c-b0ef-19ae8bff7e42","ios":"levelo://app?vid=aa4819cd-a5a5-485c-b0ef-19ae8bff7e42"},"vehicle_type_id":"4","last_reported":1696957591,"current_range_meters":0,"station_id":"","pricing_plan_id":"free"},{"bike_id":"1fc4f0db-d8b1-4352-aeac-7b2836e2782f","system_id":"levelo_inurba_marseille","lat":43.30211,"lon":5.39471,"is_reserved":false,"is_disabled":false,"rental_uris":{"android":"levelo://app?vid=1fc4f0db-d8b1-4352-aeac-7b2836e2782f","ios":"levelo://app?vid=1fc4f0db-d8b1-4352-aeac-7b2836e2782f"},"vehicle_type_id":"4","last_reported":1696957591,"current_range_meters":27600,"station_id":"ce4bh0p2rcd13ifvqd70","pricing_plan_id":"free"},{"bike_id":"542e036d-0908-47e3-aed2-6fb888bb85bb","system_id":"levelo_inurba_marseille","lat":43.290631,"lon":5.359244,"is_reserved":false,"is_disabled":false,"rental_uris":{"android":"levelo://app?vid=542e036d-0908-47e3-aed2-6fb888bb85bb","ios":"levelo://app?vid=542e036d-0908-47e3-aed2-6fb888bb85bb"},"vehicle_type_id":"4","last_reported":1696957591,"current_range_meters":26400,"station_id":"ce4bha92rcd13ifvqeg0","pricing_plan_id":"free"},{"bike_id":"4c3f12e2-a44a-4680-9890-36e6573998a1","system_id":"levelo_inurba_marseille","lat":43.29135,"lon":5.35458,"is_reserved":false,"is_disabled":false,"rental_uris":{"android":"levelo://app?vid=4c3f12e2-a44a-4680-9890-36e6573998a1","ios":"levelo://app?vid=4c3f12e2-a44a-4680-9890-36e6573998a1"},"vehicle_type_id":"4","last_reported":1696957591,"current_range_meters":14800,"station_id":"ce4bh192rcd13ifvqdc0","pricing_plan_id":"free"},{"bike_id":"e5ef0fb0-0db0-4f10-8b54-1f430a01691d","system_id":"levelo_inurba_marseille","lat":43.282754,"lon":5.350519,"is_reserved":false,"is_disabled":false,"rental_uris":{"android":"levelo://app?vid=e5ef0fb0-0db0-4f10-8b54-1f430a01691d","ios":"levelo://app?vid=e5ef0fb0-0db0-4f10-8b54-1f430a01691d"},"vehicle_type_id":"4","last_reported":1696957591,"current_range_meters":24400,"station_id":"ce4bhbp2rcd13ifvqerg","pricing_plan_id":"free"},{"bike_id":"4c57b2ea-0255-4d60-a0f7-48fd735ac896","system_id":"levelo_inurba_marseille","lat":43.294153,"lon":5.386305,"is_reserved":false,"is_disabled":false,"rental_uris":{"android":"levelo://app?vid=4c57b2ea-0255-4d60-a0f7-48fd735ac896","ios":"levelo://app?vid=4c57b2ea-0255-4d60-a0f7-48fd735ac896"},"vehicle_type_id":"4","last_reported":1696957591,"current_range_meters":30800,"station_id":"ce4bh2h2rcd13ifvqdh0","pricing_plan_id":"free"},{"bike_id":"9a391f28-63cd-46cd-ba8d-bb668ccbd82a","system_id":"levelo_inurba_marseille","lat":43.32723,"lon":5.39208,"is_reserved":false,"is_disabled":false,"rental_uris":{"android":"levelo://app?vid=9a391f28-63cd-46cd-ba8d-bb668ccbd82a","ios":"levelo://app?vid=9a391f28-63cd-46cd-ba8d-bb668ccbd82a"},"vehicle_type_id":"4","last_reported":1696957591,"current_range_meters":0,"station_id":"","pricing_plan_id":"free"},{"bike_id":"626ec3f5-923a-4b58-9f3c-8cce83577dab","system_id":"levelo_inurba_marseille","lat":43.296711,"lon":5.39069,"is_reserved":false,"is_disabled":false,"rental_uris":{"android":"levelo://app?vid=626ec3f5-923a-4b58-9f3c-8cce83577dab","ios":"levelo://app?vid=626ec3f5-923a-4b58-9f3c-8cce83577dab"},"vehicle_type_id":"4","last_reported":1696957591,"current_range_meters":8400,"station_id":"","pricing_plan_id":"free"},{"bike_id":"220a6936-a90f-4521-8469-1d104baf6b37","system_id":"levelo_inurba_marseille","lat":43.292644,"lon":5.384257,"is_reserved":false,"is_disabled":false,"rental_uris":{"android":"levelo://app?vid=220a6936-a90f-4521-8469-1d104baf6b37","ios":"levelo://app?vid=220a6936-a90f-4521-8469-1d104baf6b37"},"vehicle_type_id":"4","last_reported":1696957591,"current_range_meters":27600,"station_id":"ce4bh692rcd13ifvqea0","pricing_plan_id":"free"},{"bike_id":"e6d57891-78f5-4887-b717-d4842a14a6ac","system_id":"levelo_inurba_marseille","lat":43.33039,"lon":5.38925,"is_reserved":false,"is_disabled":false,"rental_uris":{"android":"levelo://app?vid=e6d57891-78f5-4887-b717-d4842a14a6ac","ios":"levelo://app?vid=e6d57891-78f5-4887-b717-d4842a14a6ac"},"vehicle_type_id":"4","last_reported":1696957591,"current_range_meters":7600,"station_id":"ce4bhr92rcd13ifvqhrg","pricing_plan_id":"free"},{"bike_id":"3f8f0e1e-01b5-4975-8475-f5e280844a31","system_id":"levelo_inurba_marseille","lat":43.290103,"lon":5.356114,"is_reserved":false,"is_disabled":false,"rental_uris":{"android":"levelo://app?vid=3f8f0e1e-01b5-4975-8475-f5e280844a31","ios":"levelo://app?vid=3f8f0e1e-01b5-4975-8475-f5e280844a31"},"vehicle_type_id":"4","last_reported":1696957591,"current_range_meters":23600,"station_id":"ce4bhb92rcd13ifvqen0","pricing_plan_id":"free"},{"bike_id":"22d14334-b4a6-4f0b-84b0-da1060f543ca","system_id":"levelo_inurba_marseille","lat":43.290995,"lon":5.381361,"is_reserved":false,"is_disabled":false,"rental_uris":{"android":"levelo://app?vid=22d14334-b4a6-4f0b-84b0-da1060f543ca","ios":"levelo://app?vid=22d14334-b4a6-4f0b-84b0-da1060f543ca"},"vehicle_type_id":"4","last_reported":1696957591,"current_range_meters":5200,"station_id":"ce4bh512rcd13ifvqe2g","pricing_plan_id":"free"},{"bike_id":"2c30a6bd-4ff8-4e88-bdd6-71df7fc0982c","system_id":"levelo_inurba_marseille","lat":43.290104,"lon":5.356111,"is_reserved":false,"is_disabled":false,"rental_uris":{"android":"levelo://app?vid=2c30a6bd-4ff8-4e88-bdd6-71df7fc0982c","ios":"levelo://app?vid=2c30a6bd-4ff8-4e88-bdd6-71df7fc0982c"},"vehicle_type_id":"4","last_reported":1696957591,"current_range_meters":0,"station_id":"ce4bhb92rcd13ifvqen0","pricing_plan_id":"free"},{"bike_id":"a3227351-460c-4a09-b1f1-d42e7a9e4cda","system_id":"levelo_inurba_marseille","lat":43.297892,"lon":5.393409,"is_reserved":false,"is_disabled":false,"rental_uris":{"android":"levelo://app?vid=a3227351-460c-4a09-b1f1-d42e7a9e4cda","ios":"levelo://app?vid=a3227351-460c-4a09-b1f1-d42e7a9e4cda"},"vehicle_type_id":"4","last_reported":1696957591,"current_range_meters":6400,"station_id":"","pricing_plan_id":"free"},{"bike_id":"52e572f2-572c-4146-994c-afc7605ce2a8","system_id":"levelo_inurba_marseille","lat":43.295169,"lon":5.390426,"is_reserved":false,"is_disabled":false,"rental_uris":{"android":"levelo://app?vid=52e572f2-572c-4146-994c-afc7605ce2a8","ios":"levelo://app?vid=52e572f2-572c-4146-994c-afc7605ce2a8"},"vehicle_type_id":"4","last_reported":1696957591,"current_range_meters":24400,"station_id":"ce4bh3p2rcd13ifvqdp0","pricing_plan_id":"free"},{"bike_id":"eef061b8-c021-46d4-a4b0-ad06c1c2bfd8","system_id":"levelo_inurba_marseille","lat":43.289645,"lon":5.378337,"is_reserved":false,"is_disabled":false,"rental_uris":{"android":"levelo://app?vid=eef061b8-c021-46d4-a4b0-ad06c1c2bfd8","ios":"levelo://app?vid=eef061b8-c021-46d4-a4b0-ad06c1c2bfd8"},"vehicle_type_id":"4","last_reported":1696957591,"current_range_meters":23200,"station_id":"ce4bhch2rcd13ifvqeug","pricing_plan_id":"free"},{"bike_id":"0bcb4b96-a772-40bd-b232-4b071a93b076","system_id":"levelo_inurba_marseille","lat":43.28856,"lon":5.358371,"is_reserved":false,"is_disabled":false,"rental_uris":{"android":"levelo://app?vid=0bcb4b96-a772-40bd-b232-4b071a93b076","ios":"levelo://app?vid=0bcb4b96-a772-40bd-b232-4b071a93b076"},"vehicle_type_id":"4","last_reported":1696957591,"current_range_meters":0,"station_id":"ce4bhb12rcd13ifvqem0","pricing_plan_id":"free"},{"bike_id":"d1cb4fc3-486d-4331-b54f-9d93a4c0c7e3","system_id":"levelo_inurba_marseille","lat":43.337733,"lon":5.368147,"is_reserved":false,"is_disabled":false,"rental_uris":{"android":"levelo://app?vid=d1cb4fc3-486d-4331-b54f-9d93a4c0c7e3","ios":"levelo://app?vid=d1cb4fc3-486d-4331-b54f-9d93a4c0c7e3"},"vehicle_type_id":"4","last_reported":1696957591,"current_range_meters":0,"station_id":"","pricing_plan_id":"free"},{"bike_id":"a9439f70-4da7-4528-97fa-8325291e72a7","system_id":"levelo_inurba_marseille","lat":43.312609,"lon":5.401662,"is_reserved":false,"is_disabled":false,"rental_uris":{"android":"levelo://app?vid=a9439f70-4da7-4528-97fa-8325291e72a7","ios":"levelo://app?vid=a9439f70-4da7-4528-97fa-8325291e72a7"},"vehicle_type_id":"4","last_reported":1696957591,"current_range_meters":0,"station_id":"ce4bh092rcd13ifvqd30","pricing_plan_id":"free"},{"bike_id":"e5530f6b-92bf-4696-b197-99566a6f6b8b","system_id":"levelo_inurba_marseille","lat":43.30945,"lon":5.40143,"is_reserved":false,"is_disabled":false,"rental_uris":{"android":"levelo://app?vid=e5530f6b-92bf-4696-b197-99566a6f6b8b","ios":"levelo://app?vid=e5530f6b-92bf-4696-b197-99566a6f6b8b"},"vehicle_type_id":"4","last_reported":1696957591,"current_range_meters":29600,"station_id":"ce4bgvp2rcd13ifvqct0","pricing_plan_id":"free"},{"bike_id":"135bf23b-0679-4e58-9a71-5fc578a9398b","system_id":"levelo_inurba_marseille","lat":43.337463,"lon":5.374556,"is_reserved":false,"is_disabled":false,"rental_uris":{"android":"levelo://app?vid=135bf23b-0679-4e58-9a71-5fc578a9398b","ios":"levelo://app?vid=135bf23b-0679-4e58-9a71-5fc578a9398b"},"vehicle_type_id":"4","last_reported":1696957591,"current_range_meters":28000,"station_id":"","pricing_plan_id":"free"},{"bike_id":"e91523e1-7c63-46a9-b49b-1f697684489f","system_id":"levelo_inurba_marseille","lat":43.337502,"lon":5.374509,"is_reserved":false,"is_disabled":false,"rental_uris":{"android":"levelo://app?vid=e91523e1-7c63-46a9-b49b-1f697684489f","ios":"levelo://app?vid=e91523e1-7c63-46a9-b49b-1f697684489f"},"vehicle_type_id":"4","last_reported":1696957591,"current_range_meters":18000,"station_id":"","pricing_plan_id":"free"},{"bike_id":"05647e7d-129a-48d7-8f0e-ea7d2f5b1d6c","system_id":"levelo_inurba_marseille","lat":43.337509,"lon":5.374609,"is_reserved":false,"is_disabled":false,"rental_uris":{"android":"levelo://app?vid=05647e7d-129a-48d7-8f0e-ea7d2f5b1d6c","ios":"levelo://app?vid=05647e7d-129a-48d7-8f0e-ea7d2f5b1d6c"},"vehicle_type_id":"4","last_reported":1696957591,"current_range_meters":12800,"station_id":"","pricing_plan_id":"free"},{"bike_id":"1238509b-e8c9-4e04-b4ea-b95e4f4b0ebb","system_id":"levelo_inurba_marseille","lat":43.337568,"lon":5.3745,"is_reserved":false,"is_disabled":false,"rental_uris":{"android":"levelo://app?vid=1238509b-e8c9-4e04-b4ea-b95e4f4b0ebb","ios":"levelo://app?vid=1238509b-e8c9-4e04-b4ea-b95e4f4b0ebb"},"vehicle_type_id":"4","last_reported":1696957591,"current_range_meters":25600,"station_id":"","pricing_plan_id":"free"},{"bike_id":"a68e0488-9b8d-4757-8bab-7fb1cc9dc4d3","system_id":"levelo_inurba_marseille","lat":43.33027,"lon":5.39228,"is_reserved":false,"is_disabled":false,"rental_uris":{"android":"levelo://app?vid=a68e0488-9b8d-4757-8bab-7fb1cc9dc4d3","ios":"levelo://app?vid=a68e0488-9b8d-4757-8bab-7fb1cc9dc4d3"},"vehicle_type_id":"4","last_reported":1696957591,"current_range_meters":8400,"station_id":"","pricing_plan_id":"free"},{"bike_id":"1cf44cd8-3ea2-4a9e-b572-8d4c6ba806a8","system_id":"levelo_inurba_marseille","lat":43.295713,"lon":5.399639,"is_reserved":false,"is_disabled":false,"rental_uris":{"android":"levelo://app?vid=1cf44cd8-3ea2-4a9e-b572-8d4c6ba806a8","ios":"levelo://app?vid=1cf44cd8-3ea2-4a9e-b572-8d4c6ba806a8"},"vehicle_type_id":"4","last_reported":1696957591,"current_range_meters":20400,"station_id":"ce4bh312rcd13ifvqdj0","pricing_plan_id":"free"},{"bike_id":"c1cde366-b834-4c73-a39f-89d7d0a97293","system_id":"levelo_inurba_marseille","lat":43.337713,"lon":5.374431,"is_reserved":false,"is_disabled":false,"rental_uris":{"android":"levelo://app?vid=c1cde366-b834-4c73-a39f-89d7d0a97293","ios":"levelo://app?vid=c1cde366-b834-4c73-a39f-89d7d0a97293"},"vehicle_type_id":"4","last_reported":1696957591,"current_range_meters":30000,"station_id":"","pricing_plan_id":"free"},{"bike_id":"b036d5bc-59eb-4596-bf8b-6736f3ea9bd2","system_id":"levelo_inurba_marseille","lat":43.28727,"lon":5.36078,"is_reserved":false,"is_disabled":false,"rental_uris":{"android":"levelo://app?vid=b036d5bc-59eb-4596-bf8b-6736f3ea9bd2","ios":"levelo://app?vid=b036d5bc-59eb-4596-bf8b-6736f3ea9bd2"},"vehicle_type_id":"4","last_reported":1696957591,"current_range_meters":13600,"station_id":"cki0cbj6b192h4jlfktg","pricing_plan_id":"free"},{"bike_id":"434171b1-fdac-4a2d-a3c6-d4fb8a721a98","system_id":"levelo_inurba_marseille","lat":43.298681,"lon":5.397225,"is_reserved":false,"is_disabled":false,"rental_uris":{"android":"levelo://app?vid=434171b1-fdac-4a2d-a3c6-d4fb8a721a98","ios":"levelo://app?vid=434171b1-fdac-4a2d-a3c6-d4fb8a721a98"},"vehicle_type_id":"4","last_reported":1696957591,"current_range_meters":2400,"station_id":"ce4bh0h2rcd13ifvqd50","pricing_plan_id":"free"},{"bike_id":"3ca744f4-d977-42c7-8899-5db0fe52bd72","system_id":"levelo_inurba_marseille","lat":43.287006,"lon":5.373813,"is_reserved":false,"is_disabled":false,"rental_uris":{"android":"levelo://app?vid=3ca744f4-d977-42c7-8899-5db0fe52bd72","ios":"levelo://app?vid=3ca744f4-d977-42c7-8899-5db0fe52bd72"},"vehicle_type_id":"4","last_reported":1696957591,"current_range_meters":22000,"station_id":"","pricing_plan_id":"free"},{"bike_id":"f8961487-220f-4313-a842-c1e13c5c812e","system_id":"levelo_inurba_marseille","lat":43.290336,"lon":5.386476,"is_reserved":false,"is_disabled":false,"rental_uris":{"android":"levelo://app?vid=f8961487-220f-4313-a842-c1e13c5c812e","ios":"levelo://app?vid=f8961487-220f-4313-a842-c1e13c5c812e"},"vehicle_type_id":"4","last_reported":1696957591,"current_range_meters":1200,"station_id":"","pricing_plan_id":"free"},{"bike_id":"36dfaa93-6331-4ac5-930f-e63016ee4d14","system_id":"levelo_inurba_marseille","lat":43.302759,"lon":5.400793,"is_reserved":false,"is_disabled":false,"rental_uris":{"android":"levelo://app?vid=36dfaa93-6331-4ac5-930f-e63016ee4d14","ios":"levelo://app?vid=36dfaa93-6331-4ac5-930f-e63016ee4d14"},"vehicle_type_id":"4","last_reported":1696957591,"current_range_meters":26800,"station_id":"ce4bgvh2rcd13ifvqcs0","pricing_plan_id":"free"},{"bike_id":"8f319c7c-1926-4e7b-bcaa-79950849b60a","system_id":"levelo_inurba_marseille","lat":43.30642,"lon":5.401031,"is_reserved":false,"is_disabled":false,"rental_uris":{"android":"levelo://app?vid=8f319c7c-1926-4e7b-bcaa-79950849b60a","ios":"levelo://app?vid=8f319c7c-1926-4e7b-bcaa-79950849b60a"},"vehicle_type_id":"4","last_reported":1696957591,"current_range_meters":0,"station_id":"ce4bh112rcd13ifvqda0","pricing_plan_id":"free"},{"bike_id":"5656ee0e-7962-45b0-881b-660fa6ec295d","system_id":"levelo_inurba_marseille","lat":43.286039,"lon":5.370681,"is_reserved":false,"is_disabled":false,"rental_uris":{"android":"levelo://app?vid=5656ee0e-7962-45b0-881b-660fa6ec295d","ios":"levelo://app?vid=5656ee0e-7962-45b0-881b-660fa6ec295d"},"vehicle_type_id":"4","last_reported":1696957591,"current_range_meters":31200,"station_id":"ce4bht12rcd13ifvqi60","pricing_plan_id":"free"},{"bike_id":"9fcbab61-eefe-458a-8841-5ff30417747b","system_id":"levelo_inurba_marseille","lat":43.286039,"lon":5.370679,"is_reserved":false,"is_disabled":false,"rental_uris":{"android":"levelo://app?vid=9fcbab61-eefe-458a-8841-5ff30417747b","ios":"levelo://app?vid=9fcbab61-eefe-458a-8841-5ff30417747b"},"vehicle_type_id":"4","last_reported":1696957591,"current_range_meters":12400,"station_id":"ce4bht12rcd13ifvqi60","pricing_plan_id":"free"},{"bike_id":"81ac735a-fb58-40b9-b2c0-34e32f7f2f53","system_id":"levelo_inurba_marseille","lat":43.287184,"lon":5.37937,"is_reserved":false,"is_disabled":false,"rental_uris":{"android":"levelo://app?vid=81ac735a-fb58-40b9-b2c0-34e32f7f2f53","ios":"levelo://app?vid=81ac735a-fb58-40b9-b2c0-34e32f7f2f53"},"vehicle_type_id":"4","last_reported":1696957591,"current_range_meters":11600,"station_id":"ce4bh9p2rcd13ifvqec0","pricing_plan_id":"free"},{"bike_id":"2a618a49-755b-4bfc-8a8c-870daf6761ba","system_id":"levelo_inurba_marseille","lat":43.267959,"lon":5.402687,"is_reserved":false,"is_disabled":false,"rental_uris":{"android":"levelo://app?vid=2a618a49-755b-4bfc-8a8c-870daf6761ba","ios":"levelo://app?vid=2a618a49-755b-4bfc-8a8c-870daf6761ba"},"vehicle_type_id":"4","last_reported":1696957591,"current_range_meters":28800,"station_id":"ce501612rcd8frsf0b60","pricing_plan_id":"free"},{"bike_id":"bd681585-f780-4843-8942-c96696cc2cd1","system_id":"levelo_inurba_marseille","lat":43.28718,"lon":5.37948,"is_reserved":false,"is_disabled":false,"rental_uris":{"android":"levelo://app?vid=bd681585-f780-4843-8942-c96696cc2cd1","ios":"levelo://app?vid=bd681585-f780-4843-8942-c96696cc2cd1"},"vehicle_type_id":"4","last_reported":1696957591,"current_range_meters":0,"station_id":"ce4bh9p2rcd13ifvqec0","pricing_plan_id":"free"},{"bike_id":"67267d25-aad2-4be1-b7e7-1f18e8af3b86","system_id":"levelo_inurba_marseille","lat":43.33907,"lon":5.35656,"is_reserved":false,"is_disabled":false,"rental_uris":{"android":"levelo://app?vid=67267d25-aad2-4be1-b7e7-1f18e8af3b86","ios":"levelo://app?vid=67267d25-aad2-4be1-b7e7-1f18e8af3b86"},"vehicle_type_id":"4","last_reported":1696957591,"current_range_meters":0,"station_id":"","pricing_plan_id":"free"},{"bike_id":"25767a2e-e28d-443f-82d2-0ff3f41d6868","system_id":"levelo_inurba_marseille","lat":43.316468,"lon":5.404381,"is_reserved":false,"is_disabled":false,"rental_uris":{"android":"levelo://app?vid=25767a2e-e28d-443f-82d2-0ff3f41d6868","ios":"levelo://app?vid=25767a2e-e28d-443f-82d2-0ff3f41d6868"},"vehicle_type_id":"4","last_reported":1696957591,"current_range_meters":18400,"station_id":"","pricing_plan_id":"free"},{"bike_id":"b852caad-aabf-41d3-8ae6-a0931b9cf7ee","system_id":"levelo_inurba_marseille","lat":43.31648,"lon":5.4044,"is_reserved":false,"is_disabled":false,"rental_uris":{"android":"levelo://app?vid=b852caad-aabf-41d3-8ae6-a0931b9cf7ee","ios":"levelo://app?vid=b852caad-aabf-41d3-8ae6-a0931b9cf7ee"},"vehicle_type_id":"4","last_reported":1696957591,"current_range_meters":24800,"station_id":"ce4bh012rcd13ifvqd00","pricing_plan_id":"free"},{"bike_id":"f35c5f73-8967-4b15-b9a3-cd805574b5ef","system_id":"levelo_inurba_marseille","lat":43.33483,"lon":5.38996,"is_reserved":false,"is_disabled":false,"rental_uris":{"android":"levelo://app?vid=f35c5f73-8967-4b15-b9a3-cd805574b5ef","ios":"levelo://app?vid=f35c5f73-8967-4b15-b9a3-cd805574b5ef"},"vehicle_type_id":"4","last_reported":1696957591,"current_range_meters":10000,"station_id":"","pricing_plan_id":"free"},{"bike_id":"7f8572e6-7206-4d3a-8f15-dccdd0d84b18","system_id":"levelo_inurba_marseille","lat":43.283998,"lon":5.375062,"is_reserved":false,"is_disabled":false,"rental_uris":{"android":"levelo://app?vid=7f8572e6-7206-4d3a-8f15-dccdd0d84b18","ios":"levelo://app?vid=7f8572e6-7206-4d3a-8f15-dccdd0d84b18"},"vehicle_type_id":"4","last_reported":1696957591,"current_range_meters":15600,"station_id":"ce4bh412rcd13ifvqds0","pricing_plan_id":"free"},{"bike_id":"7b6a6488-c6ec-4718-baf4-80c1f85903f2","system_id":"levelo_inurba_marseille","lat":43.33103,"lon":5.39697,"is_reserved":false,"is_disabled":false,"rental_uris":{"android":"levelo://app?vid=7b6a6488-c6ec-4718-baf4-80c1f85903f2","ios":"levelo://app?vid=7b6a6488-c6ec-4718-baf4-80c1f85903f2"},"vehicle_type_id":"4","last_reported":1696957591,"current_range_meters":4400,"station_id":"","pricing_plan_id":"free"},{"bike_id":"ef595ded-539a-4ea3-b651-ca820330c4a9","system_id":"levelo_inurba_marseille","lat":43.2847,"lon":5.35898,"is_reserved":false,"is_disabled":false,"rental_uris":{"android":"levelo://app?vid=ef595ded-539a-4ea3-b651-ca820330c4a9","ios":"levelo://app?vid=ef595ded-539a-4ea3-b651-ca820330c4a9"},"vehicle_type_id":"4","last_reported":1696957591,"current_range_meters":31200,"station_id":"ce4bhah2rcd13ifvqei0","pricing_plan_id":"free"},{"bike_id":"f0a1b823-598d-44f4-9d2b-f67ee99c7457","system_id":"levelo_inurba_marseille","lat":43.284664,"lon":5.359072,"is_reserved":false,"is_disabled":false,"rental_uris":{"android":"levelo://app?vid=f0a1b823-598d-44f4-9d2b-f67ee99c7457","ios":"levelo://app?vid=f0a1b823-598d-44f4-9d2b-f67ee99c7457"},"vehicle_type_id":"4","last_reported":1696957591,"current_range_meters":19200,"station_id":"","pricing_plan_id":"free"},{"bike_id":"96ebd9f7-1573-4309-a677-41465e945ed9","system_id":"levelo_inurba_marseille","lat":43.284538,"lon":5.358657,"is_reserved":false,"is_disabled":false,"rental_uris":{"android":"levelo://app?vid=96ebd9f7-1573-4309-a677-41465e945ed9","ios":"levelo://app?vid=96ebd9f7-1573-4309-a677-41465e945ed9"},"vehicle_type_id":"4","last_reported":1696957591,"current_range_meters":22400,"station_id":"ce4bhah2rcd13ifvqei0","pricing_plan_id":"free"},{"bike_id":"f3f26229-5b7a-4840-a8d5-0eba70e8bd98","system_id":"levelo_inurba_marseille","lat":43.28463,"lon":5.3589,"is_reserved":false,"is_disabled":false,"rental_uris":{"android":"levelo://app?vid=f3f26229-5b7a-4840-a8d5-0eba70e8bd98","ios":"levelo://app?vid=f3f26229-5b7a-4840-a8d5-0eba70e8bd98"},"vehicle_type_id":"4","last_reported":1696957591,"current_range_meters":31200,"station_id":"ce4bhah2rcd13ifvqei0","pricing_plan_id":"free"},{"bike_id":"a753588c-da72-44a3-ab09-8df2577f70dd","system_id":"levelo_inurba_marseille","lat":43.284538,"lon":5.358657,"is_reserved":false,"is_disabled":false,"rental_uris":{"android":"levelo://app?vid=a753588c-da72-44a3-ab09-8df2577f70dd","ios":"levelo://app?vid=a753588c-da72-44a3-ab09-8df2577f70dd"},"vehicle_type_id":"4","last_reported":1696957591,"current_range_meters":27200,"station_id":"ce4bhah2rcd13ifvqei0","pricing_plan_id":"free"},{"bike_id":"cbddd40d-8cff-4ff5-97fa-c33ff59b1bf9","system_id":"levelo_inurba_marseille","lat":43.284538,"lon":5.358657,"is_reserved":false,"is_disabled":false,"rental_uris":{"android":"levelo://app?vid=cbddd40d-8cff-4ff5-97fa-c33ff59b1bf9","ios":"levelo://app?vid=cbddd40d-8cff-4ff5-97fa-c33ff59b1bf9"},"vehicle_type_id":"4","last_reported":1696957591,"current_range_meters":18400,"station_id":"ce4bhah2rcd13ifvqei0","pricing_plan_id":"free"},{"bike_id":"20dabc70-917d-4f2e-b8d5-2342dd6acd52","system_id":"levelo_inurba_marseille","lat":43.284534,"lon":5.358662,"is_reserved":false,"is_disabled":false,"rental_uris":{"android":"levelo://app?vid=20dabc70-917d-4f2e-b8d5-2342dd6acd52","ios":"levelo://app?vid=20dabc70-917d-4f2e-b8d5-2342dd6acd52"},"vehicle_type_id":"4","last_reported":1696957591,"current_range_meters":28800,"station_id":"ce4bhah2rcd13ifvqei0","pricing_plan_id":"free"},{"bike_id":"52c9c4e4-ae02-4e9e-b33c-23545e83f6b5","system_id":"levelo_inurba_marseille","lat":43.284619,"lon":5.358836,"is_reserved":false,"is_disabled":false,"rental_uris":{"android":"levelo://app?vid=52c9c4e4-ae02-4e9e-b33c-23545e83f6b5","ios":"levelo://app?vid=52c9c4e4-ae02-4e9e-b33c-23545e83f6b5"},"vehicle_type_id":"4","last_reported":1696957591,"current_range_meters":20400,"station_id":"","pricing_plan_id":"free"},{"bike_id":"ab8abb7f-c7ab-4a7c-bd36-10eccd8a515d","system_id":"levelo_inurba_marseille","lat":43.31621,"lon":5.40613,"is_reserved":false,"is_disabled":false,"rental_uris":{"android":"levelo://app?vid=ab8abb7f-c7ab-4a7c-bd36-10eccd8a515d","ios":"levelo://app?vid=ab8abb7f-c7ab-4a7c-bd36-10eccd8a515d"},"vehicle_type_id":"4","last_reported":1696957591,"current_range_meters":15600,"station_id":"","pricing_plan_id":"free"},{"bike_id":"25ba3892-f89a-46b7-af3d-2da53e2e1913","system_id":"levelo_inurba_marseille","lat":43.284534,"lon":5.358662,"is_reserved":false,"is_disabled":false,"rental_uris":{"android":"levelo://app?vid=25ba3892-f89a-46b7-af3d-2da53e2e1913","ios":"levelo://app?vid=25ba3892-f89a-46b7-af3d-2da53e2e1913"},"vehicle_type_id":"4","last_reported":1696957591,"current_range_meters":18000,"station_id":"ce4bhah2rcd13ifvqei0","pricing_plan_id":"free"},{"bike_id":"f6266551-fc51-4703-8fda-1b10b03bcef4","system_id":"levelo_inurba_marseille","lat":43.284538,"lon":5.358657,"is_reserved":false,"is_disabled":false,"rental_uris":{"android":"levelo://app?vid=f6266551-fc51-4703-8fda-1b10b03bcef4","ios":"levelo://app?vid=f6266551-fc51-4703-8fda-1b10b03bcef4"},"vehicle_type_id":"4","last_reported":1696957591,"current_range_meters":0,"station_id":"ce4bhah2rcd13ifvqei0","pricing_plan_id":"free"},{"bike_id":"8b3fd766-771f-404d-a216-2f17d246932a","system_id":"levelo_inurba_marseille","lat":43.33894,"lon":5.38459,"is_reserved":false,"is_disabled":false,"rental_uris":{"android":"levelo://app?vid=8b3fd766-771f-404d-a216-2f17d246932a","ios":"levelo://app?vid=8b3fd766-771f-404d-a216-2f17d246932a"},"vehicle_type_id":"4","last_reported":1696957591,"current_range_meters":7600,"station_id":"","pricing_plan_id":"free"},{"bike_id":"c881cdd1-bbdd-48ff-842f-c0d641cf23e2","system_id":"levelo_inurba_marseille","lat":43.28413,"lon":5.374986,"is_reserved":false,"is_disabled":false,"rental_uris":{"android":"levelo://app?vid=c881cdd1-bbdd-48ff-842f-c0d641cf23e2","ios":"levelo://app?vid=c881cdd1-bbdd-48ff-842f-c0d641cf23e2"},"vehicle_type_id":"4","last_reported":1696957591,"current_range_meters":20000,"station_id":"ce4bhb92rcd13ifvqen0","pricing_plan_id":"free"},{"bike_id":"9711d633-e3f0-430d-b868-56abb2f9ba45","system_id":"levelo_inurba_marseille","lat":43.29566,"lon":5.39964,"is_reserved":false,"is_disabled":false,"rental_uris":{"android":"levelo://app?vid=9711d633-e3f0-430d-b868-56abb2f9ba45","ios":"levelo://app?vid=9711d633-e3f0-430d-b868-56abb2f9ba45"},"vehicle_type_id":"4","last_reported":1696957591,"current_range_meters":28800,"station_id":"ce4bh312rcd13ifvqdj0","pricing_plan_id":"free"},{"bike_id":"d86e6063-d2b7-480b-8894-4266461a28dd","system_id":"levelo_inurba_marseille","lat":43.283998,"lon":5.375062,"is_reserved":false,"is_disabled":false,"rental_uris":{"android":"levelo://app?vid=d86e6063-d2b7-480b-8894-4266461a28dd","ios":"levelo://app?vid=d86e6063-d2b7-480b-8894-4266461a28dd"},"vehicle_type_id":"4","last_reported":1696957591,"current_range_meters":3600,"station_id":"ce4bh412rcd13ifvqds0","pricing_plan_id":"free"},{"bike_id":"33ceb6c9-10f4-4d83-8d5d-2df92f4b6955","system_id":"levelo_inurba_marseille","lat":43.283998,"lon":5.375062,"is_reserved":false,"is_disabled":false,"rental_uris":{"android":"levelo://app?vid=33ceb6c9-10f4-4d83-8d5d-2df92f4b6955","ios":"levelo://app?vid=33ceb6c9-10f4-4d83-8d5d-2df92f4b6955"},"vehicle_type_id":"4","last_reported":1696957591,"current_range_meters":19200,"station_id":"ce4bh412rcd13ifvqds0","pricing_plan_id":"free"},{"bike_id":"b955fa9e-1c73-4498-8aae-cd51cd2b3242","system_id":"levelo_inurba_marseille","lat":43.295665,"lon":5.399798,"is_reserved":false,"is_disabled":false,"rental_uris":{"android":"levelo://app?vid=b955fa9e-1c73-4498-8aae-cd51cd2b3242","ios":"levelo://app?vid=b955fa9e-1c73-4498-8aae-cd51cd2b3242"},"vehicle_type_id":"4","last_reported":1696957591,"current_range_meters":5200,"station_id":"","pricing_plan_id":"free"},{"bike_id":"691064c3-61cd-4e50-b1f2-c9114afd2b08","system_id":"levelo_inurba_marseille","lat":43.33248,"lon":5.398165,"is_reserved":false,"is_disabled":false,"rental_uris":{"android":"levelo://app?vid=691064c3-61cd-4e50-b1f2-c9114afd2b08","ios":"levelo://app?vid=691064c3-61cd-4e50-b1f2-c9114afd2b08"},"vehicle_type_id":"4","last_reported":1696957591,"current_range_meters":23200,"station_id":"","pricing_plan_id":"free"},{"bike_id":"979e170d-e599-485b-b52a-f222ae6d8c72","system_id":"levelo_inurba_marseille","lat":43.33739,"lon":5.39102,"is_reserved":false,"is_disabled":false,"rental_uris":{"android":"levelo://app?vid=979e170d-e599-485b-b52a-f222ae6d8c72","ios":"levelo://app?vid=979e170d-e599-485b-b52a-f222ae6d8c72"},"vehicle_type_id":"4","last_reported":1696957591,"current_range_meters":5200,"station_id":"","pricing_plan_id":"free"},{"bike_id":"5fda50a1-3d87-4f36-9ef9-3f272bfa4d3a","system_id":"levelo_inurba_marseille","lat":43.33717,"lon":5.391857,"is_reserved":false,"is_disabled":false,"rental_uris":{"android":"levelo://app?vid=5fda50a1-3d87-4f36-9ef9-3f272bfa4d3a","ios":"levelo://app?vid=5fda50a1-3d87-4f36-9ef9-3f272bfa4d3a"},"vehicle_type_id":"4","last_reported":1696957591,"current_range_meters":2000,"station_id":"ce4bhr92rcd13ifvqhsg","pricing_plan_id":"free"},{"bike_id":"c0758fab-5267-4c54-8a4e-bc32cdf56e20","system_id":"levelo_inurba_marseille","lat":43.323464,"lon":5.406297,"is_reserved":false,"is_disabled":false,"rental_uris":{"android":"levelo://app?vid=c0758fab-5267-4c54-8a4e-bc32cdf56e20","ios":"levelo://app?vid=c0758fab-5267-4c54-8a4e-bc32cdf56e20"},"vehicle_type_id":"4","last_reported":1696957591,"current_range_meters":6800,"station_id":"ce4bhq92rcd13ifvqhjg","pricing_plan_id":"free"},{"bike_id":"c9120e63-5947-4531-8423-1f5a2419050e","system_id":"levelo_inurba_marseille","lat":43.337168,"lon":5.391825,"is_reserved":false,"is_disabled":false,"rental_uris":{"android":"levelo://app?vid=c9120e63-5947-4531-8423-1f5a2419050e","ios":"levelo://app?vid=c9120e63-5947-4531-8423-1f5a2419050e"},"vehicle_type_id":"4","last_reported":1696957591,"current_range_meters":22400,"station_id":"ce4bhr92rcd13ifvqhsg","pricing_plan_id":"free"},{"bike_id":"7b4aa130-1b74-42ca-8404-3fc83189795e","system_id":"levelo_inurba_marseille","lat":43.284931,"lon":5.384298,"is_reserved":false,"is_disabled":false,"rental_uris":{"android":"levelo://app?vid=7b4aa130-1b74-42ca-8404-3fc83189795e","ios":"levelo://app?vid=7b4aa130-1b74-42ca-8404-3fc83189795e"},"vehicle_type_id":"4","last_reported":1696957591,"current_range_meters":30000,"station_id":"ce4bh512rcd13ifvqe3g","pricing_plan_id":"free"},{"bike_id":"4bd3312b-c136-47d8-8ab5-7d8d35a9eed9","system_id":"levelo_inurba_marseille","lat":43.32383,"lon":5.40649,"is_reserved":false,"is_disabled":false,"rental_uris":{"android":"levelo://app?vid=4bd3312b-c136-47d8-8ab5-7d8d35a9eed9","ios":"levelo://app?vid=4bd3312b-c136-47d8-8ab5-7d8d35a9eed9"},"vehicle_type_id":"4","last_reported":1696957591,"current_range_meters":28400,"station_id":"ce4bhq92rcd13ifvqhjg","pricing_plan_id":"free"},{"bike_id":"c84afc24-e428-4bd9-bffc-76d0802cec69","system_id":"levelo_inurba_marseille","lat":43.32536,"lon":5.40567,"is_reserved":false,"is_disabled":false,"rental_uris":{"android":"levelo://app?vid=c84afc24-e428-4bd9-bffc-76d0802cec69","ios":"levelo://app?vid=c84afc24-e428-4bd9-bffc-76d0802cec69"},"vehicle_type_id":"4","last_reported":1696957591,"current_range_meters":0,"station_id":"","pricing_plan_id":"free"},{"bike_id":"9207922f-6eec-4c6f-8b39-44f7e322f8c0","system_id":"levelo_inurba_marseille","lat":43.284262,"lon":5.349831,"is_reserved":false,"is_disabled":false,"rental_uris":{"android":"levelo://app?vid=9207922f-6eec-4c6f-8b39-44f7e322f8c0","ios":"levelo://app?vid=9207922f-6eec-4c6f-8b39-44f7e322f8c0"},"vehicle_type_id":"4","last_reported":1696957591,"current_range_meters":0,"station_id":"ce4bhbh2rcd13ifvqepg","pricing_plan_id":"free"},{"bike_id":"eb028789-5112-4418-bf32-c34e8611be70","system_id":"levelo_inurba_marseille","lat":43.289363,"lon":5.396322,"is_reserved":false,"is_disabled":false,"rental_uris":{"android":"levelo://app?vid=eb028789-5112-4418-bf32-c34e8611be70","ios":"levelo://app?vid=eb028789-5112-4418-bf32-c34e8611be70"},"vehicle_type_id":"4","last_reported":1696957591,"current_range_meters":26800,"station_id":"ce4bh3h2rcd13ifvqdn0","pricing_plan_id":"free"},{"bike_id":"469ff509-6ffd-41fa-82ab-84cf09a851c1","system_id":"levelo_inurba_marseille","lat":43.292724,"lon":5.401131,"is_reserved":false,"is_disabled":false,"rental_uris":{"android":"levelo://app?vid=469ff509-6ffd-41fa-82ab-84cf09a851c1","ios":"levelo://app?vid=469ff509-6ffd-41fa-82ab-84cf09a851c1"},"vehicle_type_id":"4","last_reported":1696957591,"current_range_meters":0,"station_id":"ce4bh312rcd13ifvqdk0","pricing_plan_id":"free"},{"bike_id":"02064766-223e-42eb-96ac-6987e1bee69f","system_id":"levelo_inurba_marseille","lat":43.292724,"lon":5.401131,"is_reserved":false,"is_disabled":false,"rental_uris":{"android":"levelo://app?vid=02064766-223e-42eb-96ac-6987e1bee69f","ios":"levelo://app?vid=02064766-223e-42eb-96ac-6987e1bee69f"},"vehicle_type_id":"4","last_reported":1696957591,"current_range_meters":20800,"station_id":"ce4bh312rcd13ifvqdk0","pricing_plan_id":"free"},{"bike_id":"07f2b0eb-95bb-4193-a47a-92f782a2d264","system_id":"levelo_inurba_marseille","lat":43.28039,"lon":5.369297,"is_reserved":false,"is_disabled":false,"rental_uris":{"android":"levelo://app?vid=07f2b0eb-95bb-4193-a47a-92f782a2d264","ios":"levelo://app?vid=07f2b0eb-95bb-4193-a47a-92f782a2d264"},"vehicle_type_id":"4","last_reported":1696957591,"current_range_meters":20000,"station_id":"ce4bha12rcd13ifvqef0","pricing_plan_id":"free"},{"bike_id":"e04665d3-ea67-4442-8625-182f6461af47","system_id":"levelo_inurba_marseille","lat":43.283502,"lon":5.386471,"is_reserved":false,"is_disabled":false,"rental_uris":{"android":"levelo://app?vid=e04665d3-ea67-4442-8625-182f6461af47","ios":"levelo://app?vid=e04665d3-ea67-4442-8625-182f6461af47"},"vehicle_type_id":"4","last_reported":1696957591,"current_range_meters":21600,"station_id":"ce4bh492rcd13ifvqdvg","pricing_plan_id":"free"},{"bike_id":"54a38b4a-e77f-4bd0-a302-e45681597cee","system_id":"levelo_inurba_marseille","lat":43.283502,"lon":5.386471,"is_reserved":false,"is_disabled":false,"rental_uris":{"android":"levelo://app?vid=54a38b4a-e77f-4bd0-a302-e45681597cee","ios":"levelo://app?vid=54a38b4a-e77f-4bd0-a302-e45681597cee"},"vehicle_type_id":"4","last_reported":1696957591,"current_range_meters":7600,"station_id":"ce4bh492rcd13ifvqdvg","pricing_plan_id":"free"},{"bike_id":"01d3ee69-cd50-44db-bfe9-11d804a04086","system_id":"levelo_inurba_marseille","lat":43.312368,"lon":5.411468,"is_reserved":false,"is_disabled":false,"rental_uris":{"android":"levelo://app?vid=01d3ee69-cd50-44db-bfe9-11d804a04086","ios":"levelo://app?vid=01d3ee69-cd50-44db-bfe9-11d804a04086"},"vehicle_type_id":"4","last_reported":1696957591,"current_range_meters":0,"station_id":"","pricing_plan_id":"free"},{"bike_id":"2168f134-73a4-478e-80c9-d0d53e99af4e","system_id":"levelo_inurba_marseille","lat":43.32382,"lon":5.40902,"is_reserved":false,"is_disabled":false,"rental_uris":{"android":"levelo://app?vid=2168f134-73a4-478e-80c9-d0d53e99af4e","ios":"levelo://app?vid=2168f134-73a4-478e-80c9-d0d53e99af4e"},"vehicle_type_id":"4","last_reported":1696957591,"current_range_meters":0,"station_id":"","pricing_plan_id":"free"},{"bike_id":"020c59e6-ea56-4976-9842-0352b6c2e605","system_id":"levelo_inurba_marseille","lat":43.281044,"lon":5.378308,"is_reserved":false,"is_disabled":false,"rental_uris":{"android":"levelo://app?vid=020c59e6-ea56-4976-9842-0352b6c2e605","ios":"levelo://app?vid=020c59e6-ea56-4976-9842-0352b6c2e605"},"vehicle_type_id":"4","last_reported":1696957591,"current_range_meters":24400,"station_id":"ce4bha12rcd13ifvqee0","pricing_plan_id":"free"},{"bike_id":"77750e22-93f8-4512-ab13-619af12c6cb9","system_id":"levelo_inurba_marseille","lat":43.29041,"lon":5.399634,"is_reserved":false,"is_disabled":false,"rental_uris":{"android":"levelo://app?vid=77750e22-93f8-4512-ab13-619af12c6cb9","ios":"levelo://app?vid=77750e22-93f8-4512-ab13-619af12c6cb9"},"vehicle_type_id":"4","last_reported":1696957591,"current_range_meters":8400,"station_id":"ce4bh392rcd13ifvqdm0","pricing_plan_id":"free"},{"bike_id":"45a3dca3-9660-47b2-a797-21c158421b72","system_id":"levelo_inurba_marseille","lat":43.29041,"lon":5.399634,"is_reserved":false,"is_disabled":false,"rental_uris":{"android":"levelo://app?vid=45a3dca3-9660-47b2-a797-21c158421b72","ios":"levelo://app?vid=45a3dca3-9660-47b2-a797-21c158421b72"},"vehicle_type_id":"4","last_reported":1696957591,"current_range_meters":13200,"station_id":"ce4bh392rcd13ifvqdm0","pricing_plan_id":"free"},{"bike_id":"2489710b-06c0-4dfb-ac1a-d7eb6a9a6dbb","system_id":"levelo_inurba_marseille","lat":43.281044,"lon":5.378308,"is_reserved":false,"is_disabled":false,"rental_uris":{"android":"levelo://app?vid=2489710b-06c0-4dfb-ac1a-d7eb6a9a6dbb","ios":"levelo://app?vid=2489710b-06c0-4dfb-ac1a-d7eb6a9a6dbb"},"vehicle_type_id":"4","last_reported":1696957591,"current_range_meters":10000,"station_id":"ce4bha12rcd13ifvqee0","pricing_plan_id":"free"},{"bike_id":"1165a81c-07ba-4de4-92fd-2e6656b5161b","system_id":"levelo_inurba_marseille","lat":43.304188,"lon":5.412904,"is_reserved":false,"is_disabled":false,"rental_uris":{"android":"levelo://app?vid=1165a81c-07ba-4de4-92fd-2e6656b5161b","ios":"levelo://app?vid=1165a81c-07ba-4de4-92fd-2e6656b5161b"},"vehicle_type_id":"4","last_reported":1696957591,"current_range_meters":14400,"station_id":"ce4bhop2rcd13ifvqh8g","pricing_plan_id":"free"},{"bike_id":"4d864564-e985-4a5f-bd2d-ae15571ca1ee","system_id":"levelo_inurba_marseille","lat":43.34357,"lon":5.38363,"is_reserved":false,"is_disabled":false,"rental_uris":{"android":"levelo://app?vid=4d864564-e985-4a5f-bd2d-ae15571ca1ee","ios":"levelo://app?vid=4d864564-e985-4a5f-bd2d-ae15571ca1ee"},"vehicle_type_id":"4","last_reported":1696957591,"current_range_meters":16400,"station_id":"","pricing_plan_id":"free"},{"bike_id":"2ab69aaa-ed5a-449a-935d-0ddb0ebcd1df","system_id":"levelo_inurba_marseille","lat":43.28039,"lon":5.369297,"is_reserved":false,"is_disabled":false,"rental_uris":{"android":"levelo://app?vid=2ab69aaa-ed5a-449a-935d-0ddb0ebcd1df","ios":"levelo://app?vid=2ab69aaa-ed5a-449a-935d-0ddb0ebcd1df"},"vehicle_type_id":"4","last_reported":1696957591,"current_range_meters":3200,"station_id":"ce4bha12rcd13ifvqef0","pricing_plan_id":"free"},{"bike_id":"0ce76b8b-2e00-4992-b3b5-72420cb4b006","system_id":"levelo_inurba_marseille","lat":43.32658,"lon":5.40955,"is_reserved":false,"is_disabled":false,"rental_uris":{"android":"levelo://app?vid=0ce76b8b-2e00-4992-b3b5-72420cb4b006","ios":"levelo://app?vid=0ce76b8b-2e00-4992-b3b5-72420cb4b006"},"vehicle_type_id":"4","last_reported":1696957591,"current_range_meters":0,"station_id":"ce4bhpp2rcd13ifvqhgg","pricing_plan_id":"free"},{"bike_id":"14b61463-b7c2-4629-97d6-bf0f47b738bb","system_id":"levelo_inurba_marseille","lat":43.281465,"lon":5.38532,"is_reserved":false,"is_disabled":false,"rental_uris":{"android":"levelo://app?vid=14b61463-b7c2-4629-97d6-bf0f47b738bb","ios":"levelo://app?vid=14b61463-b7c2-4629-97d6-bf0f47b738bb"},"vehicle_type_id":"4","last_reported":1696957591,"current_range_meters":1200,"station_id":"","pricing_plan_id":"free"},{"bike_id":"0ed0ad5a-81f8-4d54-b57a-fefabaad1f9e","system_id":"levelo_inurba_marseille","lat":43.34632,"lon":5.37617,"is_reserved":false,"is_disabled":false,"rental_uris":{"android":"levelo://app?vid=0ed0ad5a-81f8-4d54-b57a-fefabaad1f9e","ios":"levelo://app?vid=0ed0ad5a-81f8-4d54-b57a-fefabaad1f9e"},"vehicle_type_id":"4","last_reported":1696957591,"current_range_meters":11200,"station_id":"","pricing_plan_id":"free"},{"bike_id":"fbe84689-e4ad-43d0-b5eb-93ddc61c0d75","system_id":"levelo_inurba_marseille","lat":43.32669,"lon":5.41071,"is_reserved":false,"is_disabled":false,"rental_uris":{"android":"levelo://app?vid=fbe84689-e4ad-43d0-b5eb-93ddc61c0d75","ios":"levelo://app?vid=fbe84689-e4ad-43d0-b5eb-93ddc61c0d75"},"vehicle_type_id":"4","last_reported":1696957591,"current_range_meters":25600,"station_id":"","pricing_plan_id":"free"},{"bike_id":"69cb4574-9668-4f7f-b899-4229f1f52c09","system_id":"levelo_inurba_marseille","lat":43.287154,"lon":5.399979,"is_reserved":false,"is_disabled":false,"rental_uris":{"android":"levelo://app?vid=69cb4574-9668-4f7f-b899-4229f1f52c09","ios":"levelo://app?vid=69cb4574-9668-4f7f-b899-4229f1f52c09"},"vehicle_type_id":"4","last_reported":1696957591,"current_range_meters":30400,"station_id":"ce4bho92rcd13ifvqh3g","pricing_plan_id":"free"},{"bike_id":"1303a1e4-bc99-45a7-b31d-cccbe7ebd0f0","system_id":"levelo_inurba_marseille","lat":43.2777,"lon":5.36223,"is_reserved":false,"is_disabled":false,"rental_uris":{"android":"levelo://app?vid=1303a1e4-bc99-45a7-b31d-cccbe7ebd0f0","ios":"levelo://app?vid=1303a1e4-bc99-45a7-b31d-cccbe7ebd0f0"},"vehicle_type_id":"4","last_reported":1696957591,"current_range_meters":21600,"station_id":"","pricing_plan_id":"free"},{"bike_id":"cd090b16-ac60-4ca2-a2a8-29d13a00441b","system_id":"levelo_inurba_marseille","lat":43.2788,"lon":5.38175,"is_reserved":false,"is_disabled":false,"rental_uris":{"android":"levelo://app?vid=cd090b16-ac60-4ca2-a2a8-29d13a00441b","ios":"levelo://app?vid=cd090b16-ac60-4ca2-a2a8-29d13a00441b"},"vehicle_type_id":"4","last_reported":1696957591,"current_range_meters":0,"station_id":"","pricing_plan_id":"free"},{"bike_id":"00fcf6b0-1e42-4dd4-8fba-1e37010bc97a","system_id":"levelo_inurba_marseille","lat":43.279742,"lon":5.38744,"is_reserved":false,"is_disabled":false,"rental_uris":{"android":"levelo://app?vid=00fcf6b0-1e42-4dd4-8fba-1e37010bc97a","ios":"levelo://app?vid=00fcf6b0-1e42-4dd4-8fba-1e37010bc97a"},"vehicle_type_id":"4","last_reported":1696957591,"current_range_meters":0,"station_id":"ce4bhg12rcd13ifvqf80","pricing_plan_id":"free"},{"bike_id":"2935018d-c9e5-40b6-a72f-d1b95a464343","system_id":"levelo_inurba_marseille","lat":43.292817,"lon":5.409097,"is_reserved":false,"is_disabled":false,"rental_uris":{"android":"levelo://app?vid=2935018d-c9e5-40b6-a72f-d1b95a464343","ios":"levelo://app?vid=2935018d-c9e5-40b6-a72f-d1b95a464343"},"vehicle_type_id":"4","last_reported":1696957591,"current_range_meters":22000,"station_id":"ce4bgrh2rcd13ifvqc8g","pricing_plan_id":"free"},{"bike_id":"5b276282-9734-4b1e-b568-ea419108e192","system_id":"levelo_inurba_marseille","lat":43.292571,"lon":5.409107,"is_reserved":false,"is_disabled":false,"rental_uris":{"android":"levelo://app?vid=5b276282-9734-4b1e-b568-ea419108e192","ios":"levelo://app?vid=5b276282-9734-4b1e-b568-ea419108e192"},"vehicle_type_id":"4","last_reported":1696957591,"current_range_meters":25600,"station_id":"ce4bh192rcd13ifvqdc0","pricing_plan_id":"free"},{"bike_id":"8e1bd4cd-5b3c-451f-9127-b288464b67a2","system_id":"levelo_inurba_marseille","lat":43.276217,"lon":5.361092,"is_reserved":false,"is_disabled":false,"rental_uris":{"android":"levelo://app?vid=8e1bd4cd-5b3c-451f-9127-b288464b67a2","ios":"levelo://app?vid=8e1bd4cd-5b3c-451f-9127-b288464b67a2"},"vehicle_type_id":"4","last_reported":1696957591,"current_range_meters":30800,"station_id":"","pricing_plan_id":"free"},{"bike_id":"3fe56494-78d3-41b7-819b-4f29a0a0d1b8","system_id":"levelo_inurba_marseille","lat":43.27672,"lon":5.38009,"is_reserved":false,"is_disabled":false,"rental_uris":{"android":"levelo://app?vid=3fe56494-78d3-41b7-819b-4f29a0a0d1b8","ios":"levelo://app?vid=3fe56494-78d3-41b7-819b-4f29a0a0d1b8"},"vehicle_type_id":"4","last_reported":1696957591,"current_range_meters":23600,"station_id":"","pricing_plan_id":"free"},{"bike_id":"b32362f8-ecfe-48b8-9dc1-8c76c1d99667","system_id":"levelo_inurba_marseille","lat":43.278385,"lon":5.38964,"is_reserved":false,"is_disabled":false,"rental_uris":{"android":"levelo://app?vid=b32362f8-ecfe-48b8-9dc1-8c76c1d99667","ios":"levelo://app?vid=b32362f8-ecfe-48b8-9dc1-8c76c1d99667"},"vehicle_type_id":"4","last_reported":1696957591,"current_range_meters":0,"station_id":"","pricing_plan_id":"free"},{"bike_id":"70bdb1d1-6c27-48de-8532-7bf57f042dbf","system_id":"levelo_inurba_marseille","lat":43.278337,"lon":5.392059,"is_reserved":false,"is_disabled":false,"rental_uris":{"android":"levelo://app?vid=70bdb1d1-6c27-48de-8532-7bf57f042dbf","ios":"levelo://app?vid=70bdb1d1-6c27-48de-8532-7bf57f042dbf"},"vehicle_type_id":"4","last_reported":1696957591,"current_range_meters":29600,"station_id":"","pricing_plan_id":"free"},{"bike_id":"fd3a44e9-0097-4994-9781-ac2c8451a090","system_id":"levelo_inurba_marseille","lat":43.275625,"lon":5.384392,"is_reserved":false,"is_disabled":false,"rental_uris":{"android":"levelo://app?vid=fd3a44e9-0097-4994-9781-ac2c8451a090","ios":"levelo://app?vid=fd3a44e9-0097-4994-9781-ac2c8451a090"},"vehicle_type_id":"4","last_reported":1696957591,"current_range_meters":23600,"station_id":"ce4bhh92rcd13ifvqfi0","pricing_plan_id":"free"},{"bike_id":"00e523d3-9891-4518-8f9e-26f51605e3c8","system_id":"levelo_inurba_marseille","lat":43.275625,"lon":5.384392,"is_reserved":false,"is_disabled":false,"rental_uris":{"android":"levelo://app?vid=00e523d3-9891-4518-8f9e-26f51605e3c8","ios":"levelo://app?vid=00e523d3-9891-4518-8f9e-26f51605e3c8"},"vehicle_type_id":"4","last_reported":1696957591,"current_range_meters":20000,"station_id":"ce4bhh92rcd13ifvqfi0","pricing_plan_id":"free"},{"bike_id":"8b5fc64e-58c6-4c02-9f32-b04222fbd329","system_id":"levelo_inurba_marseille","lat":43.283343,"lon":5.402554,"is_reserved":false,"is_disabled":false,"rental_uris":{"android":"levelo://app?vid=8b5fc64e-58c6-4c02-9f32-b04222fbd329","ios":"levelo://app?vid=8b5fc64e-58c6-4c02-9f32-b04222fbd329"},"vehicle_type_id":"4","last_reported":1696957591,"current_range_meters":13600,"station_id":"","pricing_plan_id":"free"},{"bike_id":"70cfd93b-531b-4296-96c2-994448fbee2e","system_id":"levelo_inurba_marseille","lat":43.276298,"lon":5.390931,"is_reserved":false,"is_disabled":false,"rental_uris":{"android":"levelo://app?vid=70cfd93b-531b-4296-96c2-994448fbee2e","ios":"levelo://app?vid=70cfd93b-531b-4296-96c2-994448fbee2e"},"vehicle_type_id":"4","last_reported":1696957591,"current_range_meters":0,"station_id":"","pricing_plan_id":"free"},{"bike_id":"cb4d521e-d111-4485-9167-ca8bd10895ec","system_id":"levelo_inurba_marseille","lat":43.317348,"lon":5.423831,"is_reserved":false,"is_disabled":false,"rental_uris":{"android":"levelo://app?vid=cb4d521e-d111-4485-9167-ca8bd10895ec","ios":"levelo://app?vid=cb4d521e-d111-4485-9167-ca8bd10895ec"},"vehicle_type_id":"4","last_reported":1696957591,"current_range_meters":30400,"station_id":"","pricing_plan_id":"free"},{"bike_id":"f6a57af6-97de-46ba-be59-2316ce2bd96a","system_id":"levelo_inurba_marseille","lat":43.317121,"lon":5.423936,"is_reserved":false,"is_disabled":false,"rental_uris":{"android":"levelo://app?vid=f6a57af6-97de-46ba-be59-2316ce2bd96a","ios":"levelo://app?vid=f6a57af6-97de-46ba-be59-2316ce2bd96a"},"vehicle_type_id":"4","last_reported":1696957591,"current_range_meters":12400,"station_id":"ce4bhp92rcd13ifvqhbg","pricing_plan_id":"free"},{"bike_id":"61544d6a-7323-447a-a081-e411b262973a","system_id":"levelo_inurba_marseille","lat":43.317184,"lon":5.424018,"is_reserved":false,"is_disabled":false,"rental_uris":{"android":"levelo://app?vid=61544d6a-7323-447a-a081-e411b262973a","ios":"levelo://app?vid=61544d6a-7323-447a-a081-e411b262973a"},"vehicle_type_id":"4","last_reported":1696957591,"current_range_meters":18400,"station_id":"ce4bhp92rcd13ifvqhbg","pricing_plan_id":"free"},{"bike_id":"70731107-f221-4871-95fc-65ac74222c62","system_id":"levelo_inurba_marseille","lat":43.310785,"lon":5.424305,"is_reserved":false,"is_disabled":false,"rental_uris":{"android":"levelo://app?vid=70731107-f221-4871-95fc-65ac74222c62","ios":"levelo://app?vid=70731107-f221-4871-95fc-65ac74222c62"},"vehicle_type_id":"4","last_reported":1696957591,"current_range_meters":14800,"station_id":"ce4bhp92rcd13ifvqhag","pricing_plan_id":"free"},{"bike_id":"d1a88ff5-db50-47e2-be89-60ef2b5a5f9c","system_id":"levelo_inurba_marseille","lat":43.273125,"lon":5.390731,"is_reserved":false,"is_disabled":false,"rental_uris":{"android":"levelo://app?vid=d1a88ff5-db50-47e2-be89-60ef2b5a5f9c","ios":"levelo://app?vid=d1a88ff5-db50-47e2-be89-60ef2b5a5f9c"},"vehicle_type_id":"4","last_reported":1696957591,"current_range_meters":0,"station_id":"ce4bhgp2rcd13ifvqfe0","pricing_plan_id":"free"},{"bike_id":"bfd4646e-79e7-493e-b667-a92c4096c604","system_id":"levelo_inurba_marseille","lat":43.2732,"lon":5.39092,"is_reserved":false,"is_disabled":false,"rental_uris":{"android":"levelo://app?vid=bfd4646e-79e7-493e-b667-a92c4096c604","ios":"levelo://app?vid=bfd4646e-79e7-493e-b667-a92c4096c604"},"vehicle_type_id":"4","last_reported":1696957591,"current_range_meters":27600,"station_id":"ce4bhgp2rcd13ifvqfe0","pricing_plan_id":"free"},{"bike_id":"cd9dd4a7-aa78-4918-88d1-ccde02d0fd55","system_id":"levelo_inurba_marseille","lat":43.272124,"lon":5.391768,"is_reserved":false,"is_disabled":false,"rental_uris":{"android":"levelo://app?vid=cd9dd4a7-aa78-4918-88d1-ccde02d0fd55","ios":"levelo://app?vid=cd9dd4a7-aa78-4918-88d1-ccde02d0fd55"},"vehicle_type_id":"4","last_reported":1696957591,"current_range_meters":25600,"station_id":"ce4bhhp2rcd13ifvqfm0","pricing_plan_id":"free"},{"bike_id":"bfda7fdd-da11-46a7-a4c9-1c391cfeb9fc","system_id":"levelo_inurba_marseille","lat":43.272068,"lon":5.391815,"is_reserved":false,"is_disabled":false,"rental_uris":{"android":"levelo://app?vid=bfda7fdd-da11-46a7-a4c9-1c391cfeb9fc","ios":"levelo://app?vid=bfda7fdd-da11-46a7-a4c9-1c391cfeb9fc"},"vehicle_type_id":"4","last_reported":1696957591,"current_range_meters":4400,"station_id":"","pricing_plan_id":"free"},{"bike_id":"93143f84-1976-4f01-91c5-af4849a69636","system_id":"levelo_inurba_marseille","lat":43.272116,"lon":5.391763,"is_reserved":false,"is_disabled":false,"rental_uris":{"android":"levelo://app?vid=93143f84-1976-4f01-91c5-af4849a69636","ios":"levelo://app?vid=93143f84-1976-4f01-91c5-af4849a69636"},"vehicle_type_id":"4","last_reported":1696957591,"current_range_meters":0,"station_id":"ce4bhhp2rcd13ifvqfm0","pricing_plan_id":"free"},{"bike_id":"ca3cf435-9b1a-4051-8ba6-badd250f4f64","system_id":"levelo_inurba_marseille","lat":43.272063,"lon":5.391875,"is_reserved":false,"is_disabled":false,"rental_uris":{"android":"levelo://app?vid=ca3cf435-9b1a-4051-8ba6-badd250f4f64","ios":"levelo://app?vid=ca3cf435-9b1a-4051-8ba6-badd250f4f64"},"vehicle_type_id":"4","last_reported":1696957591,"current_range_meters":6000,"station_id":"","pricing_plan_id":"free"},{"bike_id":"6293ca1a-72c6-418a-a6a8-1535f2caff96","system_id":"levelo_inurba_marseille","lat":43.278128,"lon":5.407195,"is_reserved":false,"is_disabled":false,"rental_uris":{"android":"levelo://app?vid=6293ca1a-72c6-418a-a6a8-1535f2caff96","ios":"levelo://app?vid=6293ca1a-72c6-418a-a6a8-1535f2caff96"},"vehicle_type_id":"4","last_reported":1696957591,"current_range_meters":22000,"station_id":"ce4bhnh2rcd13ifvqgtg","pricing_plan_id":"free"},{"bike_id":"d5d70dbe-f176-45ae-be72-50635d221675","system_id":"levelo_inurba_marseille","lat":43.278128,"lon":5.407195,"is_reserved":false,"is_disabled":false,"rental_uris":{"android":"levelo://app?vid=d5d70dbe-f176-45ae-be72-50635d221675","ios":"levelo://app?vid=d5d70dbe-f176-45ae-be72-50635d221675"},"vehicle_type_id":"4","last_reported":1696957591,"current_range_meters":25600,"station_id":"ce4bhnh2rcd13ifvqgtg","pricing_plan_id":"free"},{"bike_id":"bc08616c-5601-4ae5-b1b1-42cc4c693526","system_id":"levelo_inurba_marseille","lat":43.278128,"lon":5.407195,"is_reserved":false,"is_disabled":false,"rental_uris":{"android":"levelo://app?vid=bc08616c-5601-4ae5-b1b1-42cc4c693526","ios":"levelo://app?vid=bc08616c-5601-4ae5-b1b1-42cc4c693526"},"vehicle_type_id":"4","last_reported":1696957591,"current_range_meters":0,"station_id":"ce4bhnh2rcd13ifvqgtg","pricing_plan_id":"free"},{"bike_id":"adb54670-cc9f-46aa-b90f-8fb17f357678","system_id":"levelo_inurba_marseille","lat":43.26681,"lon":5.382694,"is_reserved":false,"is_disabled":false,"rental_uris":{"android":"levelo://app?vid=adb54670-cc9f-46aa-b90f-8fb17f357678","ios":"levelo://app?vid=adb54670-cc9f-46aa-b90f-8fb17f357678"},"vehicle_type_id":"4","last_reported":1696957591,"current_range_meters":25600,"station_id":"ce4bhg92rcd13ifvqf90","pricing_plan_id":"free"},{"bike_id":"19e3997b-663c-44bb-832b-9c412cd71690","system_id":"levelo_inurba_marseille","lat":43.325818,"lon":5.429533,"is_reserved":false,"is_disabled":false,"rental_uris":{"android":"levelo://app?vid=19e3997b-663c-44bb-832b-9c412cd71690","ios":"levelo://app?vid=19e3997b-663c-44bb-832b-9c412cd71690"},"vehicle_type_id":"4","last_reported":1696957591,"current_range_meters":22400,"station_id":"","pricing_plan_id":"free"},{"bike_id":"10264151-75ac-4b6e-beb6-5b0c1fe03040","system_id":"levelo_inurba_marseille","lat":43.272124,"lon":5.391768,"is_reserved":false,"is_disabled":false,"rental_uris":{"android":"levelo://app?vid=10264151-75ac-4b6e-beb6-5b0c1fe03040","ios":"levelo://app?vid=10264151-75ac-4b6e-beb6-5b0c1fe03040"},"vehicle_type_id":"4","last_reported":1696957591,"current_range_meters":26400,"station_id":"ce4bhhp2rcd13ifvqfm0","pricing_plan_id":"free"},{"bike_id":"53f60525-c8a5-4870-8505-87c8ce4fddc0","system_id":"levelo_inurba_marseille","lat":43.279658,"lon":5.415862,"is_reserved":false,"is_disabled":false,"rental_uris":{"android":"levelo://app?vid=53f60525-c8a5-4870-8505-87c8ce4fddc0","ios":"levelo://app?vid=53f60525-c8a5-4870-8505-87c8ce4fddc0"},"vehicle_type_id":"4","last_reported":1696957591,"current_range_meters":0,"station_id":"","pricing_plan_id":"free"},{"bike_id":"a1860f3f-3279-466a-837e-112ae5be5c09","system_id":"levelo_inurba_marseille","lat":43.2799,"lon":5.41645,"is_reserved":false,"is_disabled":false,"rental_uris":{"android":"levelo://app?vid=a1860f3f-3279-466a-837e-112ae5be5c09","ios":"levelo://app?vid=a1860f3f-3279-466a-837e-112ae5be5c09"},"vehicle_type_id":"4","last_reported":1696957591,"current_range_meters":24000,"station_id":"ce4bho12rcd13ifvqh1g","pricing_plan_id":"free"},{"bike_id":"8f2568b5-e64e-4725-9722-44fc91f8d183","system_id":"levelo_inurba_marseille","lat":43.27997,"lon":5.4166,"is_reserved":false,"is_disabled":false,"rental_uris":{"android":"levelo://app?vid=8f2568b5-e64e-4725-9722-44fc91f8d183","ios":"levelo://app?vid=8f2568b5-e64e-4725-9722-44fc91f8d183"},"vehicle_type_id":"4","last_reported":1696957591,"current_range_meters":1200,"station_id":"ce4bho12rcd13ifvqh1g","pricing_plan_id":"free"},{"bike_id":"3a7611bd-88c7-44fb-9187-d5a9f6484785","system_id":"levelo_inurba_marseille","lat":43.27994,"lon":5.41663,"is_reserved":false,"is_disabled":false,"rental_uris":{"android":"levelo://app?vid=3a7611bd-88c7-44fb-9187-d5a9f6484785","ios":"levelo://app?vid=3a7611bd-88c7-44fb-9187-d5a9f6484785"},"vehicle_type_id":"4","last_reported":1696957591,"current_range_meters":16800,"station_id":"ce4bho12rcd13ifvqh1g","pricing_plan_id":"free"},{"bike_id":"46110b61-1b33-49cf-b205-8f66c58aca19","system_id":"levelo_inurba_marseille","lat":43.279924,"lon":5.416808,"is_reserved":false,"is_disabled":false,"rental_uris":{"android":"levelo://app?vid=46110b61-1b33-49cf-b205-8f66c58aca19","ios":"levelo://app?vid=46110b61-1b33-49cf-b205-8f66c58aca19"},"vehicle_type_id":"4","last_reported":1696957591,"current_range_meters":0,"station_id":"","pricing_plan_id":"free"},{"bike_id":"ba767f52-a9f8-455a-a8d3-724aae526edb","system_id":"levelo_inurba_marseille","lat":43.279675,"lon":5.418185,"is_reserved":false,"is_disabled":false,"rental_uris":{"android":"levelo://app?vid=ba767f52-a9f8-455a-a8d3-724aae526edb","ios":"levelo://app?vid=ba767f52-a9f8-455a-a8d3-724aae526edb"},"vehicle_type_id":"4","last_reported":1696957591,"current_range_meters":20800,"station_id":"ce4bgh92rcd13ifvqb50","pricing_plan_id":"free"},{"bike_id":"95bd554c-b0bc-48e6-b140-9ff43e5575f2","system_id":"levelo_inurba_marseille","lat":43.265675,"lon":5.390127,"is_reserved":false,"is_disabled":false,"rental_uris":{"android":"levelo://app?vid=95bd554c-b0bc-48e6-b140-9ff43e5575f2","ios":"levelo://app?vid=95bd554c-b0bc-48e6-b140-9ff43e5575f2"},"vehicle_type_id":"4","last_reported":1696957591,"current_range_meters":4000,"station_id":"","pricing_plan_id":"free"},{"bike_id":"d52964dd-0f0c-4831-8304-2ccb9ed8f051","system_id":"levelo_inurba_marseille","lat":43.265653,"lon":5.390124,"is_reserved":false,"is_disabled":false,"rental_uris":{"android":"levelo://app?vid=d52964dd-0f0c-4831-8304-2ccb9ed8f051","ios":"levelo://app?vid=d52964dd-0f0c-4831-8304-2ccb9ed8f051"},"vehicle_type_id":"4","last_reported":1696957591,"current_range_meters":4400,"station_id":"","pricing_plan_id":"free"},{"bike_id":"47196fd1-8a3e-4a68-9a08-96b70ce1e42e","system_id":"levelo_inurba_marseille","lat":43.26561,"lon":5.39009,"is_reserved":false,"is_disabled":false,"rental_uris":{"android":"levelo://app?vid=47196fd1-8a3e-4a68-9a08-96b70ce1e42e","ios":"levelo://app?vid=47196fd1-8a3e-4a68-9a08-96b70ce1e42e"},"vehicle_type_id":"4","last_reported":1696957591,"current_range_meters":5600,"station_id":"ce4bhe12rcd13ifvqf30","pricing_plan_id":"free"},{"bike_id":"8d2ab8ac-9f56-4e9a-85b2-91af491f78b3","system_id":"levelo_inurba_marseille","lat":43.26559,"lon":5.39003,"is_reserved":false,"is_disabled":false,"rental_uris":{"android":"levelo://app?vid=8d2ab8ac-9f56-4e9a-85b2-91af491f78b3","ios":"levelo://app?vid=8d2ab8ac-9f56-4e9a-85b2-91af491f78b3"},"vehicle_type_id":"4","last_reported":1696957591,"current_range_meters":0,"station_id":"ce4bhe12rcd13ifvqf30","pricing_plan_id":"free"},{"bike_id":"f6134ae0-979c-4421-871e-dbd2233cd346","system_id":"levelo_inurba_marseille","lat":43.265602,"lon":5.39011,"is_reserved":false,"is_disabled":false,"rental_uris":{"android":"levelo://app?vid=f6134ae0-979c-4421-871e-dbd2233cd346","ios":"levelo://app?vid=f6134ae0-979c-4421-871e-dbd2233cd346"},"vehicle_type_id":"4","last_reported":1696957591,"current_range_meters":21600,"station_id":"","pricing_plan_id":"free"},{"bike_id":"753cb14b-f3d2-41c9-99c1-532767e7f36e","system_id":"levelo_inurba_marseille","lat":43.26943,"lon":5.402595,"is_reserved":false,"is_disabled":false,"rental_uris":{"android":"levelo://app?vid=753cb14b-f3d2-41c9-99c1-532767e7f36e","ios":"levelo://app?vid=753cb14b-f3d2-41c9-99c1-532767e7f36e"},"vehicle_type_id":"4","last_reported":1696957591,"current_range_meters":16000,"station_id":"","pricing_plan_id":"free"},{"bike_id":"51d919c9-200a-4e68-bac2-8b7ecbd764ee","system_id":"levelo_inurba_marseille","lat":43.317104,"lon":5.436818,"is_reserved":false,"is_disabled":false,"rental_uris":{"android":"levelo://app?vid=51d919c9-200a-4e68-bac2-8b7ecbd764ee","ios":"levelo://app?vid=51d919c9-200a-4e68-bac2-8b7ecbd764ee"},"vehicle_type_id":"4","last_reported":1696957591,"current_range_meters":21600,"station_id":"ce4bhp92rcd13ifvqhcg","pricing_plan_id":"free"},{"bike_id":"52c5c711-aaf4-4236-b76b-e519ba3b6141","system_id":"levelo_inurba_marseille","lat":43.317543,"lon":5.438018,"is_reserved":false,"is_disabled":false,"rental_uris":{"android":"levelo://app?vid=52c5c711-aaf4-4236-b76b-e519ba3b6141","ios":"levelo://app?vid=52c5c711-aaf4-4236-b76b-e519ba3b6141"},"vehicle_type_id":"4","last_reported":1696957591,"current_range_meters":25600,"station_id":"","pricing_plan_id":"free"},{"bike_id":"c8a3234e-c700-4888-9122-6e89314987f6","system_id":"levelo_inurba_marseille","lat":43.281586,"lon":5.426459,"is_reserved":false,"is_disabled":false,"rental_uris":{"android":"levelo://app?vid=c8a3234e-c700-4888-9122-6e89314987f6","ios":"levelo://app?vid=c8a3234e-c700-4888-9122-6e89314987f6"},"vehicle_type_id":"4","last_reported":1696957591,"current_range_meters":26400,"station_id":"","pricing_plan_id":"free"},{"bike_id":"fbdf9e03-0b34-472c-bce6-bcb27afe5198","system_id":"levelo_inurba_marseille","lat":43.274887,"lon":5.424472,"is_reserved":false,"is_disabled":false,"rental_uris":{"android":"levelo://app?vid=fbdf9e03-0b34-472c-bce6-bcb27afe5198","ios":"levelo://app?vid=fbdf9e03-0b34-472c-bce6-bcb27afe5198"},"vehicle_type_id":"4","last_reported":1696957591,"current_range_meters":24000,"station_id":"","pricing_plan_id":"free"},{"bike_id":"62041404-1432-4212-b650-2870c9db96e9","system_id":"levelo_inurba_marseille","lat":43.27492,"lon":5.42455,"is_reserved":false,"is_disabled":false,"rental_uris":{"android":"levelo://app?vid=62041404-1432-4212-b650-2870c9db96e9","ios":"levelo://app?vid=62041404-1432-4212-b650-2870c9db96e9"},"vehicle_type_id":"4","last_reported":1696957591,"current_range_meters":0,"station_id":"","pricing_plan_id":"free"},{"bike_id":"fae8b7b7-3461-40e3-a857-95fe0162001c","system_id":"levelo_inurba_marseille","lat":43.255841,"lon":5.382303,"is_reserved":false,"is_disabled":false,"rental_uris":{"android":"levelo://app?vid=fae8b7b7-3461-40e3-a857-95fe0162001c","ios":"levelo://app?vid=fae8b7b7-3461-40e3-a857-95fe0162001c"},"vehicle_type_id":"4","last_reported":1696957591,"current_range_meters":18000,"station_id":"","pricing_plan_id":"free"},{"bike_id":"9d1aee39-f2f5-453a-8408-97279dbaf761","system_id":"levelo_inurba_marseille","lat":43.255808,"lon":5.38225,"is_reserved":false,"is_disabled":false,"rental_uris":{"android":"levelo://app?vid=9d1aee39-f2f5-453a-8408-97279dbaf761","ios":"levelo://app?vid=9d1aee39-f2f5-453a-8408-97279dbaf761"},"vehicle_type_id":"4","last_reported":1696957591,"current_range_meters":15600,"station_id":"","pricing_plan_id":"free"},{"bike_id":"ee4d4b2c-ea19-43f7-885a-12e07ad33e65","system_id":"levelo_inurba_marseille","lat":43.255811,"lon":5.382338,"is_reserved":false,"is_disabled":false,"rental_uris":{"android":"levelo://app?vid=ee4d4b2c-ea19-43f7-885a-12e07ad33e65","ios":"levelo://app?vid=ee4d4b2c-ea19-43f7-885a-12e07ad33e65"},"vehicle_type_id":"4","last_reported":1696957591,"current_range_meters":400,"station_id":"","pricing_plan_id":"free"},{"bike_id":"ec381500-3daa-4748-a43b-98222a219c71","system_id":"levelo_inurba_marseille","lat":43.254945,"lon":5.376454,"is_reserved":false,"is_disabled":false,"rental_uris":{"android":"levelo://app?vid=ec381500-3daa-4748-a43b-98222a219c71","ios":"levelo://app?vid=ec381500-3daa-4748-a43b-98222a219c71"},"vehicle_type_id":"4","last_reported":1696957591,"current_range_meters":26400,"station_id":"ce4bhh12rcd13ifvqff0","pricing_plan_id":"free"},{"bike_id":"a761e034-55f0-48b0-a40f-d25f069c7fcf","system_id":"levelo_inurba_marseille","lat":43.254945,"lon":5.376454,"is_reserved":false,"is_disabled":false,"rental_uris":{"android":"levelo://app?vid=a761e034-55f0-48b0-a40f-d25f069c7fcf","ios":"levelo://app?vid=a761e034-55f0-48b0-a40f-d25f069c7fcf"},"vehicle_type_id":"4","last_reported":1696957591,"current_range_meters":14000,"station_id":"ce4bhh12rcd13ifvqff0","pricing_plan_id":"free"},{"bike_id":"00bff700-fc8c-4944-be9a-ab7057f70d4c","system_id":"levelo_inurba_marseille","lat":43.260219,"lon":5.37546,"is_reserved":false,"is_disabled":false,"rental_uris":{"android":"levelo://app?vid=00bff700-fc8c-4944-be9a-ab7057f70d4c","ios":"levelo://app?vid=00bff700-fc8c-4944-be9a-ab7057f70d4c"},"vehicle_type_id":"4","last_reported":1696957591,"current_range_meters":0,"station_id":"ce4bhgh2rcd13ifvqfa0","pricing_plan_id":"free"},{"bike_id":"d6684615-6596-4c7a-997f-e2d87c20923f","system_id":"levelo_inurba_marseille","lat":43.254947,"lon":5.376454,"is_reserved":false,"is_disabled":false,"rental_uris":{"android":"levelo://app?vid=d6684615-6596-4c7a-997f-e2d87c20923f","ios":"levelo://app?vid=d6684615-6596-4c7a-997f-e2d87c20923f"},"vehicle_type_id":"4","last_reported":1696957591,"current_range_meters":29200,"station_id":"ce4bhh12rcd13ifvqff0","pricing_plan_id":"free"},{"bike_id":"2149fdd8-b5df-460f-80e6-9bbde6b564dd","system_id":"levelo_inurba_marseille","lat":43.250009,"lon":5.389195,"is_reserved":false,"is_disabled":false,"rental_uris":{"android":"levelo://app?vid=2149fdd8-b5df-460f-80e6-9bbde6b564dd","ios":"levelo://app?vid=2149fdd8-b5df-460f-80e6-9bbde6b564dd"},"vehicle_type_id":"4","last_reported":1696957591,"current_range_meters":18800,"station_id":"ce4bhgp2rcd13ifvqfd0","pricing_plan_id":"free"},{"bike_id":"ba38c1df-5895-4e41-a0cb-b3f57f5e352d","system_id":"levelo_inurba_marseille","lat":43.2479,"lon":5.374457,"is_reserved":false,"is_disabled":false,"rental_uris":{"android":"levelo://app?vid=ba38c1df-5895-4e41-a0cb-b3f57f5e352d","ios":"levelo://app?vid=ba38c1df-5895-4e41-a0cb-b3f57f5e352d"},"vehicle_type_id":"4","last_reported":1696957591,"current_range_meters":8400,"station_id":"ce4bhgh2rcd13ifvqfb0","pricing_plan_id":"free"},{"bike_id":"95d455c3-ef34-4e90-abcf-ea47dee76227","system_id":"levelo_inurba_marseille","lat":43.250966,"lon":5.395186,"is_reserved":false,"is_disabled":false,"rental_uris":{"android":"levelo://app?vid=95d455c3-ef34-4e90-abcf-ea47dee76227","ios":"levelo://app?vid=95d455c3-ef34-4e90-abcf-ea47dee76227"},"vehicle_type_id":"4","last_reported":1696957591,"current_range_meters":6400,"station_id":"ce4bhm12rcd13ifvqgkg","pricing_plan_id":"free"},{"bike_id":"8a6eb59d-c643-4b04-af8d-dac2ee0cc41c","system_id":"levelo_inurba_marseille","lat":43.25159,"lon":5.40615,"is_reserved":false,"is_disabled":false,"rental_uris":{"android":"levelo://app?vid=8a6eb59d-c643-4b04-af8d-dac2ee0cc41c","ios":"levelo://app?vid=8a6eb59d-c643-4b04-af8d-dac2ee0cc41c"},"vehicle_type_id":"4","last_reported":1696957591,"current_range_meters":14000,"station_id":"","pricing_plan_id":"free"},{"bike_id":"c5cd91d9-e8df-4fd3-aa95-813f97d08b8e","system_id":"levelo_inurba_marseille","lat":43.245581,"lon":5.395069,"is_reserved":false,"is_disabled":false,"rental_uris":{"android":"levelo://app?vid=c5cd91d9-e8df-4fd3-aa95-813f97d08b8e","ios":"levelo://app?vid=c5cd91d9-e8df-4fd3-aa95-813f97d08b8e"},"vehicle_type_id":"4","last_reported":1696957591,"current_range_meters":23200,"station_id":"ce4bhlp2rcd13ifvqgjg","pricing_plan_id":"free"},{"bike_id":"35b2f539-a9a3-4d5e-8628-29b2d1f2deb9","system_id":"levelo_inurba_marseille","lat":43.239654,"lon":5.366407,"is_reserved":false,"is_disabled":false,"rental_uris":{"android":"levelo://app?vid=35b2f539-a9a3-4d5e-8628-29b2d1f2deb9","ios":"levelo://app?vid=35b2f539-a9a3-4d5e-8628-29b2d1f2deb9"},"vehicle_type_id":"4","last_reported":1696957591,"current_range_meters":0,"station_id":"ce4bhi12rcd13ifvqfp0","pricing_plan_id":"free"},{"bike_id":"61756bef-e065-47be-83b2-e5da0e141fb5","system_id":"levelo_inurba_marseille","lat":43.241782,"lon":5.397261,"is_reserved":false,"is_disabled":false,"rental_uris":{"android":"levelo://app?vid=61756bef-e065-47be-83b2-e5da0e141fb5","ios":"levelo://app?vid=61756bef-e065-47be-83b2-e5da0e141fb5"},"vehicle_type_id":"4","last_reported":1696957591,"current_range_meters":28800,"station_id":"ce4bhn12rcd13ifvqgpg","pricing_plan_id":"free"},{"bike_id":"37dffbd4-f633-4fd4-8f9e-42b204e0eec5","system_id":"levelo_inurba_marseille","lat":43.241782,"lon":5.397261,"is_reserved":false,"is_disabled":false,"rental_uris":{"android":"levelo://app?vid=37dffbd4-f633-4fd4-8f9e-42b204e0eec5","ios":"levelo://app?vid=37dffbd4-f633-4fd4-8f9e-42b204e0eec5"},"vehicle_type_id":"4","last_reported":1696957591,"current_range_meters":16400,"station_id":"ce4bhn12rcd13ifvqgpg","pricing_plan_id":"free"},{"bike_id":"7b87f0ba-aecb-479d-8b1d-86d0e3ab3077","system_id":"levelo_inurba_marseille","lat":43.241782,"lon":5.397261,"is_reserved":false,"is_disabled":false,"rental_uris":{"android":"levelo://app?vid=7b87f0ba-aecb-479d-8b1d-86d0e3ab3077","ios":"levelo://app?vid=7b87f0ba-aecb-479d-8b1d-86d0e3ab3077"},"vehicle_type_id":"4","last_reported":1696957591,"current_range_meters":9600,"station_id":"ce4bhn12rcd13ifvqgpg","pricing_plan_id":"free"},{"bike_id":"9736d85c-3875-4a6f-a83c-d9f03690ebc0","system_id":"levelo_inurba_marseille","lat":43.241843,"lon":5.39799,"is_reserved":false,"is_disabled":false,"rental_uris":{"android":"levelo://app?vid=9736d85c-3875-4a6f-a83c-d9f03690ebc0","ios":"levelo://app?vid=9736d85c-3875-4a6f-a83c-d9f03690ebc0"},"vehicle_type_id":"4","last_reported":1696957591,"current_range_meters":25200,"station_id":"ce4bhn12rcd13ifvqgpg","pricing_plan_id":"free"},{"bike_id":"578fa459-f824-4034-9b82-1cc6a169924a","system_id":"levelo_inurba_marseille","lat":43.231919,"lon":5.355532,"is_reserved":false,"is_disabled":false,"rental_uris":{"android":"levelo://app?vid=578fa459-f824-4034-9b82-1cc6a169924a","ios":"levelo://app?vid=578fa459-f824-4034-9b82-1cc6a169924a"},"vehicle_type_id":"4","last_reported":1696957591,"current_range_meters":31200,"station_id":"ce4bhu92rcd13ifvqi70","pricing_plan_id":"free"},{"bike_id":"66b7d172-833b-4854-9cc5-5efd20dc94d6","system_id":"levelo_inurba_marseille","lat":43.231919,"lon":5.355532,"is_reserved":false,"is_disabled":false,"rental_uris":{"android":"levelo://app?vid=66b7d172-833b-4854-9cc5-5efd20dc94d6","ios":"levelo://app?vid=66b7d172-833b-4854-9cc5-5efd20dc94d6"},"vehicle_type_id":"4","last_reported":1696957591,"current_range_meters":21600,"station_id":"ce4bhu92rcd13ifvqi70","pricing_plan_id":"free"},{"bike_id":"18eacd6f-94af-4214-886a-a5bfee481c69","system_id":"levelo_inurba_marseille","lat":43.231919,"lon":5.355532,"is_reserved":false,"is_disabled":false,"rental_uris":{"android":"levelo://app?vid=18eacd6f-94af-4214-886a-a5bfee481c69","ios":"levelo://app?vid=18eacd6f-94af-4214-886a-a5bfee481c69"},"vehicle_type_id":"4","last_reported":1696957591,"current_range_meters":4000,"station_id":"ce4bhu92rcd13ifvqi70","pricing_plan_id":"free"},{"bike_id":"7147c9a2-12ab-46df-afe2-06169f70ee74","system_id":"levelo_inurba_marseille","lat":43.231919,"lon":5.355532,"is_reserved":false,"is_disabled":false,"rental_uris":{"android":"levelo://app?vid=7147c9a2-12ab-46df-afe2-06169f70ee74","ios":"levelo://app?vid=7147c9a2-12ab-46df-afe2-06169f70ee74"},"vehicle_type_id":"4","last_reported":1696957591,"current_range_meters":2000,"station_id":"ce4bhu92rcd13ifvqi70","pricing_plan_id":"free"},{"bike_id":"da51c2cc-e184-421c-b238-e2f31bedc61a","system_id":"levelo_inurba_marseille","lat":43.231794,"lon":5.400052,"is_reserved":false,"is_disabled":false,"rental_uris":{"android":"levelo://app?vid=da51c2cc-e184-421c-b238-e2f31bedc61a","ios":"levelo://app?vid=da51c2cc-e184-421c-b238-e2f31bedc61a"},"vehicle_type_id":"4","last_reported":1696957591,"current_range_meters":11600,"station_id":"ce4bhn12rcd13ifvqgqg","pricing_plan_id":"free"},{"bike_id":"b2686103-e85a-4c5a-93df-1adf86734520","system_id":"levelo_inurba_marseille","lat":43.231793,"lon":5.400044,"is_reserved":false,"is_disabled":false,"rental_uris":{"android":"levelo://app?vid=b2686103-e85a-4c5a-93df-1adf86734520","ios":"levelo://app?vid=b2686103-e85a-4c5a-93df-1adf86734520"},"vehicle_type_id":"4","last_reported":1696957591,"current_range_meters":14000,"station_id":"ce4bhn12rcd13ifvqgqg","pricing_plan_id":"free"},{"bike_id":"dcb6f43c-ac9d-49c4-b44e-9c244870bdbe","system_id":"levelo_inurba_marseille","lat":43.231793,"lon":5.400044,"is_reserved":false,"is_disabled":false,"rental_uris":{"android":"levelo://app?vid=dcb6f43c-ac9d-49c4-b44e-9c244870bdbe","ios":"levelo://app?vid=dcb6f43c-ac9d-49c4-b44e-9c244870bdbe"},"vehicle_type_id":"4","last_reported":1696957591,"current_range_meters":0,"station_id":"ce4bhn12rcd13ifvqgqg","pricing_plan_id":"free"},{"bike_id":"73df0138-72e3-4dee-9011-c7235e06d38d","system_id":"levelo_inurba_marseille","lat":43.231794,"lon":5.400052,"is_reserved":false,"is_disabled":false,"rental_uris":{"android":"levelo://app?vid=73df0138-72e3-4dee-9011-c7235e06d38d","ios":"levelo://app?vid=73df0138-72e3-4dee-9011-c7235e06d38d"},"vehicle_type_id":"4","last_reported":1696957591,"current_range_meters":15200,"station_id":"ce4bhn12rcd13ifvqgqg","pricing_plan_id":"free"}]}}