{"last_updated":1690700758,"ttl":30,"version":"2.2","data":{"bikes":[{"bike_id":"e526d4e2-849c-44ae-a0d7-5572a62df909","system_id":"levelo_inurba_marseille","lat":43.312239,"lon":5.368562,"is_reserved":false,"is_disabled":false,"rental_uris":{"android":"levelo://app?vid=e526d4e2-849c-44ae-a0d7-5572a62df909","ios":"levelo://app?vid=e526d4e2-849c-44ae-a0d7-5572a62df909"},"vehicle_type_id":"4","last_reported":1690700758,"current_range_meters":24400,"station_id":"ce4bgl92rcd13ifvqbq0","pricing_plan_id":"free"},{"bike_id":"6620dbff-b3ab-4da4-b733-4a42362359e2","system_id":"levelo_inurba_marseille","lat":43.309076,"lon":5.368465,"is_reserved":false,"is_disabled":false,"rental_uris":{"android":"levelo://app?vid=6620dbff-b3ab-4da4-b733-4a42362359e2","ios":"levelo://app?vid=6620dbff-b3ab-4da4-b733-4a42362359e2"},"vehicle_type_id":"4","last_reported":1690700758,"current_range_meters":26000,"station_id":"ce4bgn92rcd13ifvqbvg","pricing_plan_id":"free"},{"bike_id":"ce2aed0b-1e4c-4938-8b07-6a5d7e877820","system_id":"levelo_inurba_marseille","lat":43.309076,"lon":5.368465,"is_reserved":false,"is_disabled":false,"rental_uris":{"android":"levelo://app?vid=ce2aed0b-1e4c-4938-8b07-6a5d7e877820","ios":"levelo://app?vid=ce2aed0b-1e4c-4938-8b07-6a5d7e877820"},"vehicle_type_id":"4","last_reported":1690700758,"current_range_meters":30400,"station_id":"ce4bgn92rcd13ifvqbvg","pricing_plan_id":"free"},{"bike_id":"6e8c6368-e7a6-4f0c-a107-4b6ab071c91a","system_id":"levelo_inurba_marseille","lat":43.309076,"lon":5.368465,"is_reserved":false,"is_disabled":false,"rental_uris":{"android":"levelo://app?vid=6e8c6368-e7a6-4f0c-a107-4b6ab071c91a","ios":"levelo://app?vid=6e8c6368-e7a6-4f0c-a107-4b6ab071c91a"},"vehicle_type_id":"4","last_reported":1690700758,"current_range_meters":31600,"station_id":"ce4bgn92rcd13ifvqbvg","pricing_plan_id":"free"},{"bike_id":"42546227-122e-464c-8dc1-f483b1253b06","system_id":"levelo_inurba_marseille","lat":43.314811,"lon":5.373103,"is_reserved":false,"is_disabled":false,"rental_uris":{"android":"levelo://app?vid=42546227-122e-464c-8dc1-f483b1253b06","ios":"levelo://app?vid=42546227-122e-464c-8dc1-f483b1253b06"},"vehicle_type_id":"4","last_reported":1690700758,"current_range_meters":15200,"station_id":"ce4bgt12rcd13ifvqcd0","pricing_plan_id":"free"},{"bike_id":"e6966d8b-bc7f-4b8b-988b-c63eab1ca283","system_id":"levelo_inurba_marseille","lat":43.314811,"lon":5.373103,"is_reserved":false,"is_disabled":false,"rental_uris":{"android":"levelo://app?vid=e6966d8b-bc7f-4b8b-988b-c63eab1ca283","ios":"levelo://app?vid=e6966d8b-bc7f-4b8b-988b-c63eab1ca283"},"vehicle_type_id":"4","last_reported":1690700758,"current_range_meters":31200,"station_id":"ce4bgt12rcd13ifvqcd0","pricing_plan_id":"free"},{"bike_id":"9af271fd-0e0b-4a05-b455-88d732407160","system_id":"levelo_inurba_marseille","lat":43.314811,"lon":5.373103,"is_reserved":false,"is_disabled":false,"rental_uris":{"android":"levelo://app?vid=9af271fd-0e0b-4a05-b455-88d732407160","ios":"levelo://app?vid=9af271fd-0e0b-4a05-b455-88d732407160"},"vehicle_type_id":"4","last_reported":1690700758,"current_range_meters":31200,"station_id":"ce4bgt12rcd13ifvqcd0","pricing_plan_id":"free"},{"bike_id":"1bce0164-0a7d-48f9-b63e-bca06b7d3676","system_id":"levelo_inurba_marseille","lat":43.314811,"lon":5.373103,"is_reserved":false,"is_disabled":false,"rental_uris":{"android":"levelo://app?vid=1bce0164-0a7d-48f9-b63e-bca06b7d3676","ios":"levelo://app?vid=1bce0164-0a7d-48f9-b63e-bca06b7d3676"},"vehicle_type_id":"4","last_reported":1690700758,"current_range_meters":13600,"station_id":"ce4bgt12rcd13ifvqcd0","pricing_plan_id":"free"},{"bike_id":"79bcd25c-26b4-48f4-b134-c255b4afb57b","system_id":"levelo_inurba_marseille","lat":43.314811,"lon":5.373103,"is_reserved":false,"is_disabled":false,"rental_uris":{"android":"levelo://app?vid=79bcd25c-26b4-48f4-b134-c255b4afb57b","ios":"levelo://app?vid=79bcd25c-26b4-48f4-b134-c255b4afb57b"},"vehicle_type_id":"4","last_reported":1690700758,"current_range_meters":14400,"station_id":"ce4bgt12rcd13ifvqcd0","pricing_plan_id":"free"},{"bike_id":"5cf8e82b-5121-4436-b59c-fbea86df3a57","system_id":"levelo_inurba_marseille","lat":43.314811,"lon":5.373104,"is_reserved":false,"is_disabled":false,"rental_uris":{"android":"levelo://app?vid=5cf8e82b-5121-4436-b59c-fbea86df3a57","ios":"levelo://app?vid=5cf8e82b-5121-4436-b59c-fbea86df3a57"},"vehicle_type_id":"4","last_reported":1690700758,"current_range_meters":31200,"station_id":"ce4bgt12rcd13ifvqcd0","pricing_plan_id":"free"},{"bike_id":"e2f672fa-37af-4500-8e51-816cb00f71ef","system_id":"levelo_inurba_marseille","lat":43.314811,"lon":5.373103,"is_reserved":false,"is_disabled":false,"rental_uris":{"android":"levelo://app?vid=e2f672fa-37af-4500-8e51-816cb00f71ef","ios":"levelo://app?vid=e2f672fa-37af-4500-8e51-816cb00f71ef"},"vehicle_type_id":"4","last_reported":1690700758,"current_range_meters":31600,"station_id":"ce4bgt12rcd13ifvqcd0","pricing_plan_id":"free"},{"bike_id":"483cb85b-bd87-44e0-b4f3-53f231887bd9","system_id":"levelo_inurba_marseille","lat":43.31498,"lon":5.373,"is_reserved":false,"is_disabled":false,"rental_uris":{"android":"levelo://app?vid=483cb85b-bd87-44e0-b4f3-53f231887bd9","ios":"levelo://app?vid=483cb85b-bd87-44e0-b4f3-53f231887bd9"},"vehicle_type_id":"4","last_reported":1690700758,"current_range_meters":21200,"station_id":"ce4bgt12rcd13ifvqcd0","pricing_plan_id":"free"},{"bike_id":"67b2d011-c6c6-4bbd-81d4-dac33d584a1a","system_id":"levelo_inurba_marseille","lat":43.31498,"lon":5.37303,"is_reserved":false,"is_disabled":false,"rental_uris":{"android":"levelo://app?vid=67b2d011-c6c6-4bbd-81d4-dac33d584a1a","ios":"levelo://app?vid=67b2d011-c6c6-4bbd-81d4-dac33d584a1a"},"vehicle_type_id":"4","last_reported":1690700758,"current_range_meters":23200,"station_id":"ce4bgt12rcd13ifvqcd0","pricing_plan_id":"free"},{"bike_id":"758617e3-a195-4e10-940c-bd25294c2f68","system_id":"levelo_inurba_marseille","lat":43.314811,"lon":5.373103,"is_reserved":false,"is_disabled":false,"rental_uris":{"android":"levelo://app?vid=758617e3-a195-4e10-940c-bd25294c2f68","ios":"levelo://app?vid=758617e3-a195-4e10-940c-bd25294c2f68"},"vehicle_type_id":"4","last_reported":1690700758,"current_range_meters":22400,"station_id":"ce4bgt12rcd13ifvqcd0","pricing_plan_id":"free"},{"bike_id":"b5b94798-c459-4f6a-bdb7-5cabddc4e522","system_id":"levelo_inurba_marseille","lat":43.309039,"lon":5.371797,"is_reserved":false,"is_disabled":false,"rental_uris":{"android":"levelo://app?vid=b5b94798-c459-4f6a-bdb7-5cabddc4e522","ios":"levelo://app?vid=b5b94798-c459-4f6a-bdb7-5cabddc4e522"},"vehicle_type_id":"4","last_reported":1690700758,"current_range_meters":31200,"station_id":"ce4bguh2rcd13ifvqckg","pricing_plan_id":"free"},{"bike_id":"41e52e64-56b3-4058-ba07-fe1e9ed365d5","system_id":"levelo_inurba_marseille","lat":43.30889,"lon":5.37204,"is_reserved":false,"is_disabled":false,"rental_uris":{"android":"levelo://app?vid=41e52e64-56b3-4058-ba07-fe1e9ed365d5","ios":"levelo://app?vid=41e52e64-56b3-4058-ba07-fe1e9ed365d5"},"vehicle_type_id":"4","last_reported":1690700758,"current_range_meters":15200,"station_id":"ce4bguh2rcd13ifvqckg","pricing_plan_id":"free"},{"bike_id":"9398e27a-b878-4a61-bd3e-2a47df328051","system_id":"levelo_inurba_marseille","lat":43.30548,"lon":5.36717,"is_reserved":false,"is_disabled":false,"rental_uris":{"android":"levelo://app?vid=9398e27a-b878-4a61-bd3e-2a47df328051","ios":"levelo://app?vid=9398e27a-b878-4a61-bd3e-2a47df328051"},"vehicle_type_id":"4","last_reported":1690700758,"current_range_meters":20800,"station_id":"ce4bgrp2rcd13ifvqc9g","pricing_plan_id":"free"},{"bike_id":"56090168-c20e-4144-8fa4-414df887f8c6","system_id":"levelo_inurba_marseille","lat":43.305714,"lon":5.365633,"is_reserved":false,"is_disabled":false,"rental_uris":{"android":"levelo://app?vid=56090168-c20e-4144-8fa4-414df887f8c6","ios":"levelo://app?vid=56090168-c20e-4144-8fa4-414df887f8c6"},"vehicle_type_id":"4","last_reported":1690700758,"current_range_meters":31200,"station_id":"ce4bgs12rcd13ifvqcag","pricing_plan_id":"free"},{"bike_id":"d646d146-22c8-4203-a2e9-c62007f50cb8","system_id":"levelo_inurba_marseille","lat":43.305714,"lon":5.365633,"is_reserved":false,"is_disabled":false,"rental_uris":{"android":"levelo://app?vid=d646d146-22c8-4203-a2e9-c62007f50cb8","ios":"levelo://app?vid=d646d146-22c8-4203-a2e9-c62007f50cb8"},"vehicle_type_id":"4","last_reported":1690700758,"current_range_meters":26400,"station_id":"ce4bgs12rcd13ifvqcag","pricing_plan_id":"free"},{"bike_id":"f3baaec9-17fe-4295-87a2-836106df06c6","system_id":"levelo_inurba_marseille","lat":43.305706,"lon":5.365654,"is_reserved":false,"is_disabled":false,"rental_uris":{"android":"levelo://app?vid=f3baaec9-17fe-4295-87a2-836106df06c6","ios":"levelo://app?vid=f3baaec9-17fe-4295-87a2-836106df06c6"},"vehicle_type_id":"4","last_reported":1690700758,"current_range_meters":30800,"station_id":"ce4bgs12rcd13ifvqcag","pricing_plan_id":"free"},{"bike_id":"579faa43-5bc9-464c-b1fb-015e340c718d","system_id":"levelo_inurba_marseille","lat":43.30529,"lon":5.36715,"is_reserved":false,"is_disabled":false,"rental_uris":{"android":"levelo://app?vid=579faa43-5bc9-464c-b1fb-015e340c718d","ios":"levelo://app?vid=579faa43-5bc9-464c-b1fb-015e340c718d"},"vehicle_type_id":"4","last_reported":1690700758,"current_range_meters":0,"station_id":"ce4bgrp2rcd13ifvqc9g","pricing_plan_id":"free"},{"bike_id":"782566b2-fa52-4fa9-bf4e-84c95587a6c0","system_id":"levelo_inurba_marseille","lat":43.305714,"lon":5.365633,"is_reserved":false,"is_disabled":false,"rental_uris":{"android":"levelo://app?vid=782566b2-fa52-4fa9-bf4e-84c95587a6c0","ios":"levelo://app?vid=782566b2-fa52-4fa9-bf4e-84c95587a6c0"},"vehicle_type_id":"4","last_reported":1690700758,"current_range_meters":29600,"station_id":"ce4bgs12rcd13ifvqcag","pricing_plan_id":"free"},{"bike_id":"3138bda1-8dd9-4b0e-a10c-09d9369dc11e","system_id":"levelo_inurba_marseille","lat":43.305706,"lon":5.365654,"is_reserved":false,"is_disabled":false,"rental_uris":{"android":"levelo://app?vid=3138bda1-8dd9-4b0e-a10c-09d9369dc11e","ios":"levelo://app?vid=3138bda1-8dd9-4b0e-a10c-09d9369dc11e"},"vehicle_type_id":"4","last_reported":1690700758,"current_range_meters":27600,"station_id":"ce4bgs12rcd13ifvqcag","pricing_plan_id":"free"},{"bike_id":"9c350a26-9740-44e8-b8d7-be67a4e18337","system_id":"levelo_inurba_marseille","lat":43.305706,"lon":5.365654,"is_reserved":false,"is_disabled":false,"rental_uris":{"android":"levelo://app?vid=9c350a26-9740-44e8-b8d7-be67a4e18337","ios":"levelo://app?vid=9c350a26-9740-44e8-b8d7-be67a4e18337"},"vehicle_type_id":"4","last_reported":1690700758,"current_range_meters":30800,"station_id":"ce4bgs12rcd13ifvqcag","pricing_plan_id":"free"},{"bike_id":"0a6cbd8b-cb16-449e-8e5f-c6ebbd615b03","system_id":"levelo_inurba_marseille","lat":43.305706,"lon":5.365654,"is_reserved":false,"is_disabled":false,"rental_uris":{"android":"levelo://app?vid=0a6cbd8b-cb16-449e-8e5f-c6ebbd615b03","ios":"levelo://app?vid=0a6cbd8b-cb16-449e-8e5f-c6ebbd615b03"},"vehicle_type_id":"4","last_reported":1690700758,"current_range_meters":30000,"station_id":"ce4bgs12rcd13ifvqcag","pricing_plan_id":"free"},{"bike_id":"de0d43c7-4268-4fee-9668-95466cb82574","system_id":"levelo_inurba_marseille","lat":43.305368,"lon":5.367343,"is_reserved":false,"is_disabled":false,"rental_uris":{"android":"levelo://app?vid=de0d43c7-4268-4fee-9668-95466cb82574","ios":"levelo://app?vid=de0d43c7-4268-4fee-9668-95466cb82574"},"vehicle_type_id":"4","last_reported":1690700758,"current_range_meters":24400,"station_id":"ce4bgrp2rcd13ifvqc9g","pricing_plan_id":"free"},{"bike_id":"2b129411-2892-4747-a672-e7abe33b1974","system_id":"levelo_inurba_marseille","lat":43.305989,"lon":5.37225,"is_reserved":false,"is_disabled":false,"rental_uris":{"android":"levelo://app?vid=2b129411-2892-4747-a672-e7abe33b1974","ios":"levelo://app?vid=2b129411-2892-4747-a672-e7abe33b1974"},"vehicle_type_id":"4","last_reported":1690700758,"current_range_meters":26400,"station_id":"ce4bgqh2rcd13ifvqc4g","pricing_plan_id":"free"},{"bike_id":"f20ea888-8740-440b-bfeb-8eb2a7c1f652","system_id":"levelo_inurba_marseille","lat":43.30596,"lon":5.3724,"is_reserved":false,"is_disabled":false,"rental_uris":{"android":"levelo://app?vid=f20ea888-8740-440b-bfeb-8eb2a7c1f652","ios":"levelo://app?vid=f20ea888-8740-440b-bfeb-8eb2a7c1f652"},"vehicle_type_id":"4","last_reported":1690700758,"current_range_meters":26400,"station_id":"ce4bgqh2rcd13ifvqc4g","pricing_plan_id":"free"},{"bike_id":"40fd417f-1211-416f-8f5a-70c3cee18edf","system_id":"levelo_inurba_marseille","lat":43.311131,"lon":5.377651,"is_reserved":false,"is_disabled":false,"rental_uris":{"android":"levelo://app?vid=40fd417f-1211-416f-8f5a-70c3cee18edf","ios":"levelo://app?vid=40fd417f-1211-416f-8f5a-70c3cee18edf"},"vehicle_type_id":"4","last_reported":1690700758,"current_range_meters":27200,"station_id":"ce4bgt92rcd13ifvqcg0","pricing_plan_id":"free"},{"bike_id":"9d165c2c-f600-4d02-be30-38ff316054f4","system_id":"levelo_inurba_marseille","lat":43.311125,"lon":5.377624,"is_reserved":false,"is_disabled":false,"rental_uris":{"android":"levelo://app?vid=9d165c2c-f600-4d02-be30-38ff316054f4","ios":"levelo://app?vid=9d165c2c-f600-4d02-be30-38ff316054f4"},"vehicle_type_id":"4","last_reported":1690700758,"current_range_meters":27200,"station_id":"ce4bgt92rcd13ifvqcg0","pricing_plan_id":"free"},{"bike_id":"295be361-0bbc-44d9-a427-c8269b3f039e","system_id":"levelo_inurba_marseille","lat":43.311125,"lon":5.377624,"is_reserved":false,"is_disabled":false,"rental_uris":{"android":"levelo://app?vid=295be361-0bbc-44d9-a427-c8269b3f039e","ios":"levelo://app?vid=295be361-0bbc-44d9-a427-c8269b3f039e"},"vehicle_type_id":"4","last_reported":1690700758,"current_range_meters":26400,"station_id":"ce4bgt92rcd13ifvqcg0","pricing_plan_id":"free"},{"bike_id":"ad31d8bb-b956-4e4a-82c7-982584d6e594","system_id":"levelo_inurba_marseille","lat":43.30773,"lon":5.37649,"is_reserved":false,"is_disabled":false,"rental_uris":{"android":"levelo://app?vid=ad31d8bb-b956-4e4a-82c7-982584d6e594","ios":"levelo://app?vid=ad31d8bb-b956-4e4a-82c7-982584d6e594"},"vehicle_type_id":"4","last_reported":1690700758,"current_range_meters":16800,"station_id":"ce4bgv92rcd13ifvqcq0","pricing_plan_id":"free"},{"bike_id":"ebace74c-b95d-49e0-ab15-6bd39686b9db","system_id":"levelo_inurba_marseille","lat":43.317075,"lon":5.377367,"is_reserved":false,"is_disabled":false,"rental_uris":{"android":"levelo://app?vid=ebace74c-b95d-49e0-ab15-6bd39686b9db","ios":"levelo://app?vid=ebace74c-b95d-49e0-ab15-6bd39686b9db"},"vehicle_type_id":"4","last_reported":1690700758,"current_range_meters":30400,"station_id":"ce4bgth2rcd13ifvqch0","pricing_plan_id":"free"},{"bike_id":"f2f804a2-cd8f-4ead-82dc-29a77c1e036f","system_id":"levelo_inurba_marseille","lat":43.31708,"lon":5.37747,"is_reserved":false,"is_disabled":false,"rental_uris":{"android":"levelo://app?vid=f2f804a2-cd8f-4ead-82dc-29a77c1e036f","ios":"levelo://app?vid=f2f804a2-cd8f-4ead-82dc-29a77c1e036f"},"vehicle_type_id":"4","last_reported":1690700758,"current_range_meters":31200,"station_id":"ce4bgth2rcd13ifvqch0","pricing_plan_id":"free"},{"bike_id":"3b69d8cb-a3e6-4b29-b50f-b8548dcc2195","system_id":"levelo_inurba_marseille","lat":43.31708,"lon":5.37749,"is_reserved":false,"is_disabled":false,"rental_uris":{"android":"levelo://app?vid=3b69d8cb-a3e6-4b29-b50f-b8548dcc2195","ios":"levelo://app?vid=3b69d8cb-a3e6-4b29-b50f-b8548dcc2195"},"vehicle_type_id":"4","last_reported":1690700758,"current_range_meters":28800,"station_id":"ce4bgth2rcd13ifvqch0","pricing_plan_id":"free"},{"bike_id":"4e9ce199-97b7-4738-8ca8-7d142b671092","system_id":"levelo_inurba_marseille","lat":43.3171,"lon":5.37753,"is_reserved":false,"is_disabled":false,"rental_uris":{"android":"levelo://app?vid=4e9ce199-97b7-4738-8ca8-7d142b671092","ios":"levelo://app?vid=4e9ce199-97b7-4738-8ca8-7d142b671092"},"vehicle_type_id":"4","last_reported":1690700758,"current_range_meters":21200,"station_id":"ce4bgth2rcd13ifvqch0","pricing_plan_id":"free"},{"bike_id":"d8ac299b-7b85-4e93-8aa7-2e6be63e5689","system_id":"levelo_inurba_marseille","lat":43.317075,"lon":5.377367,"is_reserved":false,"is_disabled":false,"rental_uris":{"android":"levelo://app?vid=d8ac299b-7b85-4e93-8aa7-2e6be63e5689","ios":"levelo://app?vid=d8ac299b-7b85-4e93-8aa7-2e6be63e5689"},"vehicle_type_id":"4","last_reported":1690700758,"current_range_meters":31200,"station_id":"ce4bgth2rcd13ifvqch0","pricing_plan_id":"free"},{"bike_id":"54e8bbd0-88aa-4ddb-a483-d897b5ef40d7","system_id":"levelo_inurba_marseille","lat":43.31713,"lon":5.37765,"is_reserved":false,"is_disabled":false,"rental_uris":{"android":"levelo://app?vid=54e8bbd0-88aa-4ddb-a483-d897b5ef40d7","ios":"levelo://app?vid=54e8bbd0-88aa-4ddb-a483-d897b5ef40d7"},"vehicle_type_id":"4","last_reported":1690700758,"current_range_meters":23200,"station_id":"ce4bgth2rcd13ifvqch0","pricing_plan_id":"free"},{"bike_id":"016ba993-6d4c-4c46-a960-2dcbd4ea472c","system_id":"levelo_inurba_marseille","lat":43.315289,"lon":5.380349,"is_reserved":false,"is_disabled":false,"rental_uris":{"android":"levelo://app?vid=016ba993-6d4c-4c46-a960-2dcbd4ea472c","ios":"levelo://app?vid=016ba993-6d4c-4c46-a960-2dcbd4ea472c"},"vehicle_type_id":"4","last_reported":1690700758,"current_range_meters":31200,"station_id":"ce4bhsp2rcd13ifvqi50","pricing_plan_id":"free"},{"bike_id":"939465ff-afc0-4c51-905c-dffec7dc0b87","system_id":"levelo_inurba_marseille","lat":43.31529,"lon":5.38022,"is_reserved":false,"is_disabled":false,"rental_uris":{"android":"levelo://app?vid=939465ff-afc0-4c51-905c-dffec7dc0b87","ios":"levelo://app?vid=939465ff-afc0-4c51-905c-dffec7dc0b87"},"vehicle_type_id":"4","last_reported":1690700758,"current_range_meters":29600,"station_id":"ce4bhsp2rcd13ifvqi50","pricing_plan_id":"free"},{"bike_id":"069adb06-70e2-47b5-8450-41e40ae498a9","system_id":"levelo_inurba_marseille","lat":43.315289,"lon":5.380349,"is_reserved":false,"is_disabled":false,"rental_uris":{"android":"levelo://app?vid=069adb06-70e2-47b5-8450-41e40ae498a9","ios":"levelo://app?vid=069adb06-70e2-47b5-8450-41e40ae498a9"},"vehicle_type_id":"4","last_reported":1690700758,"current_range_meters":31200,"station_id":"ce4bhsp2rcd13ifvqi50","pricing_plan_id":"free"},{"bike_id":"7263e23d-fc97-4b44-ac59-c1840c14f9cb","system_id":"levelo_inurba_marseille","lat":43.31529,"lon":5.38027,"is_reserved":false,"is_disabled":false,"rental_uris":{"android":"levelo://app?vid=7263e23d-fc97-4b44-ac59-c1840c14f9cb","ios":"levelo://app?vid=7263e23d-fc97-4b44-ac59-c1840c14f9cb"},"vehicle_type_id":"4","last_reported":1690700758,"current_range_meters":31200,"station_id":"ce4bhsp2rcd13ifvqi50","pricing_plan_id":"free"},{"bike_id":"125e107b-f233-46a9-85fa-dfc998ba5621","system_id":"levelo_inurba_marseille","lat":43.30187,"lon":5.36614,"is_reserved":false,"is_disabled":false,"rental_uris":{"android":"levelo://app?vid=125e107b-f233-46a9-85fa-dfc998ba5621","ios":"levelo://app?vid=125e107b-f233-46a9-85fa-dfc998ba5621"},"vehicle_type_id":"4","last_reported":1690700758,"current_range_meters":23200,"station_id":"ce4bgrh2rcd13ifvqc8g","pricing_plan_id":"free"},{"bike_id":"f5e4d0da-5247-4abe-86d3-a13277061951","system_id":"levelo_inurba_marseille","lat":43.30174,"lon":5.36613,"is_reserved":false,"is_disabled":false,"rental_uris":{"android":"levelo://app?vid=f5e4d0da-5247-4abe-86d3-a13277061951","ios":"levelo://app?vid=f5e4d0da-5247-4abe-86d3-a13277061951"},"vehicle_type_id":"4","last_reported":1690700758,"current_range_meters":7600,"station_id":"ce4bgrh2rcd13ifvqc8g","pricing_plan_id":"free"},{"bike_id":"c4fe1f20-0830-43e3-9f89-4ca70a2aeb23","system_id":"levelo_inurba_marseille","lat":43.304606,"lon":5.379026,"is_reserved":false,"is_disabled":false,"rental_uris":{"android":"levelo://app?vid=c4fe1f20-0830-43e3-9f89-4ca70a2aeb23","ios":"levelo://app?vid=c4fe1f20-0830-43e3-9f89-4ca70a2aeb23"},"vehicle_type_id":"4","last_reported":1690700758,"current_range_meters":28000,"station_id":"ce4bgup2rcd13ifvqcn0","pricing_plan_id":"free"},{"bike_id":"49bc1fd7-13ac-437a-b616-f4433f71440f","system_id":"levelo_inurba_marseille","lat":43.304606,"lon":5.379026,"is_reserved":false,"is_disabled":false,"rental_uris":{"android":"levelo://app?vid=49bc1fd7-13ac-437a-b616-f4433f71440f","ios":"levelo://app?vid=49bc1fd7-13ac-437a-b616-f4433f71440f"},"vehicle_type_id":"4","last_reported":1690700758,"current_range_meters":29600,"station_id":"ce4bgup2rcd13ifvqcn0","pricing_plan_id":"free"},{"bike_id":"7547ff6a-30ca-4a0c-9e2d-a6bf1ba695ed","system_id":"levelo_inurba_marseille","lat":43.304606,"lon":5.379026,"is_reserved":false,"is_disabled":false,"rental_uris":{"android":"levelo://app?vid=7547ff6a-30ca-4a0c-9e2d-a6bf1ba695ed","ios":"levelo://app?vid=7547ff6a-30ca-4a0c-9e2d-a6bf1ba695ed"},"vehicle_type_id":"4","last_reported":1690700758,"current_range_meters":31200,"station_id":"ce4bgup2rcd13ifvqcn0","pricing_plan_id":"free"},{"bike_id":"174f1da0-1564-4ca8-a375-fdc64f8e78f4","system_id":"levelo_inurba_marseille","lat":43.304606,"lon":5.379026,"is_reserved":false,"is_disabled":false,"rental_uris":{"android":"levelo://app?vid=174f1da0-1564-4ca8-a375-fdc64f8e78f4","ios":"levelo://app?vid=174f1da0-1564-4ca8-a375-fdc64f8e78f4"},"vehicle_type_id":"4","last_reported":1690700758,"current_range_meters":30400,"station_id":"ce4bgup2rcd13ifvqcn0","pricing_plan_id":"free"},{"bike_id":"66fa1f72-40ed-4d37-b0e0-e5e67709f029","system_id":"levelo_inurba_marseille","lat":43.304606,"lon":5.379026,"is_reserved":false,"is_disabled":false,"rental_uris":{"android":"levelo://app?vid=66fa1f72-40ed-4d37-b0e0-e5e67709f029","ios":"levelo://app?vid=66fa1f72-40ed-4d37-b0e0-e5e67709f029"},"vehicle_type_id":"4","last_reported":1690700758,"current_range_meters":24800,"station_id":"ce4bgup2rcd13ifvqcn0","pricing_plan_id":"free"},{"bike_id":"8a268aed-85b2-4524-9ab1-168fa486098f","system_id":"levelo_inurba_marseille","lat":43.302784,"lon":5.377158,"is_reserved":false,"is_disabled":false,"rental_uris":{"android":"levelo://app?vid=8a268aed-85b2-4524-9ab1-168fa486098f","ios":"levelo://app?vid=8a268aed-85b2-4524-9ab1-168fa486098f"},"vehicle_type_id":"4","last_reported":1690700758,"current_range_meters":30800,"station_id":"ce4bguh2rcd13ifvqcj0","pricing_plan_id":"free"},{"bike_id":"aba35237-b659-414a-a574-effd85fc70a5","system_id":"levelo_inurba_marseille","lat":43.30151,"lon":5.37422,"is_reserved":false,"is_disabled":false,"rental_uris":{"android":"levelo://app?vid=aba35237-b659-414a-a574-effd85fc70a5","ios":"levelo://app?vid=aba35237-b659-414a-a574-effd85fc70a5"},"vehicle_type_id":"4","last_reported":1690700758,"current_range_meters":14800,"station_id":"ce4bgs92rcd13ifvqcc0","pricing_plan_id":"free"},{"bike_id":"d7f8e26c-3422-46b9-8a4a-4736d0e0980d","system_id":"levelo_inurba_marseille","lat":43.30142,"lon":5.37409,"is_reserved":false,"is_disabled":false,"rental_uris":{"android":"levelo://app?vid=d7f8e26c-3422-46b9-8a4a-4736d0e0980d","ios":"levelo://app?vid=d7f8e26c-3422-46b9-8a4a-4736d0e0980d"},"vehicle_type_id":"4","last_reported":1690700758,"current_range_meters":0,"station_id":"ce4bgs92rcd13ifvqcc0","pricing_plan_id":"free"},{"bike_id":"6efa0a49-d566-4281-8aa6-3af8cd6f228f","system_id":"levelo_inurba_marseille","lat":43.30137,"lon":5.37414,"is_reserved":false,"is_disabled":false,"rental_uris":{"android":"levelo://app?vid=6efa0a49-d566-4281-8aa6-3af8cd6f228f","ios":"levelo://app?vid=6efa0a49-d566-4281-8aa6-3af8cd6f228f"},"vehicle_type_id":"4","last_reported":1690700758,"current_range_meters":23200,"station_id":"ce4bgs92rcd13ifvqcc0","pricing_plan_id":"free"},{"bike_id":"bb0bae59-5846-402a-ad07-e6bdbb413dd8","system_id":"levelo_inurba_marseille","lat":43.31995,"lon":5.38147,"is_reserved":false,"is_disabled":false,"rental_uris":{"android":"levelo://app?vid=bb0bae59-5846-402a-ad07-e6bdbb413dd8","ios":"levelo://app?vid=bb0bae59-5846-402a-ad07-e6bdbb413dd8"},"vehicle_type_id":"4","last_reported":1690700758,"current_range_meters":31200,"station_id":"ce4bhr12rcd13ifvqhpg","pricing_plan_id":"free"},{"bike_id":"107b2b44-c7ca-4fb2-8ca3-8997711c6fff","system_id":"levelo_inurba_marseille","lat":43.319935,"lon":5.381699,"is_reserved":false,"is_disabled":false,"rental_uris":{"android":"levelo://app?vid=107b2b44-c7ca-4fb2-8ca3-8997711c6fff","ios":"levelo://app?vid=107b2b44-c7ca-4fb2-8ca3-8997711c6fff"},"vehicle_type_id":"4","last_reported":1690700758,"current_range_meters":31200,"station_id":"ce4bhr12rcd13ifvqhpg","pricing_plan_id":"free"},{"bike_id":"290ba626-e532-4e76-b419-6fbb782cdd40","system_id":"levelo_inurba_marseille","lat":43.319935,"lon":5.381699,"is_reserved":false,"is_disabled":false,"rental_uris":{"android":"levelo://app?vid=290ba626-e532-4e76-b419-6fbb782cdd40","ios":"levelo://app?vid=290ba626-e532-4e76-b419-6fbb782cdd40"},"vehicle_type_id":"4","last_reported":1690700758,"current_range_meters":20400,"station_id":"ce4bhr12rcd13ifvqhpg","pricing_plan_id":"free"},{"bike_id":"0f5620c4-84b9-4c25-8df7-035c8f85f0f1","system_id":"levelo_inurba_marseille","lat":43.313571,"lon":5.384829,"is_reserved":false,"is_disabled":false,"rental_uris":{"android":"levelo://app?vid=0f5620c4-84b9-4c25-8df7-035c8f85f0f1","ios":"levelo://app?vid=0f5620c4-84b9-4c25-8df7-035c8f85f0f1"},"vehicle_type_id":"4","last_reported":1690700758,"current_range_meters":31200,"station_id":"ce4bgt92rcd13ifvqcf0","pricing_plan_id":"free"},{"bike_id":"a8912510-327b-4502-97bf-8ab06900700a","system_id":"levelo_inurba_marseille","lat":43.29933,"lon":5.36563,"is_reserved":false,"is_disabled":false,"rental_uris":{"android":"levelo://app?vid=a8912510-327b-4502-97bf-8ab06900700a","ios":"levelo://app?vid=a8912510-327b-4502-97bf-8ab06900700a"},"vehicle_type_id":"4","last_reported":1690700758,"current_range_meters":30000,"station_id":"ce4bgm92rcd13ifvqbr0","pricing_plan_id":"free"},{"bike_id":"85c39b94-aa38-4089-b8e5-383c0714c982","system_id":"levelo_inurba_marseille","lat":43.29934,"lon":5.36544,"is_reserved":false,"is_disabled":false,"rental_uris":{"android":"levelo://app?vid=85c39b94-aa38-4089-b8e5-383c0714c982","ios":"levelo://app?vid=85c39b94-aa38-4089-b8e5-383c0714c982"},"vehicle_type_id":"4","last_reported":1690700758,"current_range_meters":16800,"station_id":"ce4bgm92rcd13ifvqbr0","pricing_plan_id":"free"},{"bike_id":"9fc02244-4be6-4919-b585-599192e68b5e","system_id":"levelo_inurba_marseille","lat":43.30537,"lon":5.38412,"is_reserved":false,"is_disabled":false,"rental_uris":{"android":"levelo://app?vid=9fc02244-4be6-4919-b585-599192e68b5e","ios":"levelo://app?vid=9fc02244-4be6-4919-b585-599192e68b5e"},"vehicle_type_id":"4","last_reported":1690700758,"current_range_meters":29200,"station_id":"ce4bgg92rcd13ifvqb30","pricing_plan_id":"free"},{"bike_id":"756be6ab-103d-4895-9a43-b1b6562cb06a","system_id":"levelo_inurba_marseille","lat":43.305364,"lon":5.384119,"is_reserved":false,"is_disabled":false,"rental_uris":{"android":"levelo://app?vid=756be6ab-103d-4895-9a43-b1b6562cb06a","ios":"levelo://app?vid=756be6ab-103d-4895-9a43-b1b6562cb06a"},"vehicle_type_id":"4","last_reported":1690700758,"current_range_meters":31200,"station_id":"ce4bgg92rcd13ifvqb30","pricing_plan_id":"free"},{"bike_id":"87d4601f-9640-448c-8a98-a74d44d3107d","system_id":"levelo_inurba_marseille","lat":43.30541,"lon":5.38416,"is_reserved":false,"is_disabled":false,"rental_uris":{"android":"levelo://app?vid=87d4601f-9640-448c-8a98-a74d44d3107d","ios":"levelo://app?vid=87d4601f-9640-448c-8a98-a74d44d3107d"},"vehicle_type_id":"4","last_reported":1690700758,"current_range_meters":26800,"station_id":"ce4bgg92rcd13ifvqb30","pricing_plan_id":"free"},{"bike_id":"eaddd20a-8089-47cd-bf5e-eaea19c5efb6","system_id":"levelo_inurba_marseille","lat":43.30538,"lon":5.38415,"is_reserved":false,"is_disabled":false,"rental_uris":{"android":"levelo://app?vid=eaddd20a-8089-47cd-bf5e-eaea19c5efb6","ios":"levelo://app?vid=eaddd20a-8089-47cd-bf5e-eaea19c5efb6"},"vehicle_type_id":"4","last_reported":1690700758,"current_range_meters":31200,"station_id":"ce4bgg92rcd13ifvqb30","pricing_plan_id":"free"},{"bike_id":"30537d43-af02-4a10-b928-7b9b8cf633d2","system_id":"levelo_inurba_marseille","lat":43.305364,"lon":5.384119,"is_reserved":false,"is_disabled":false,"rental_uris":{"android":"levelo://app?vid=30537d43-af02-4a10-b928-7b9b8cf633d2","ios":"levelo://app?vid=30537d43-af02-4a10-b928-7b9b8cf633d2"},"vehicle_type_id":"4","last_reported":1690700758,"current_range_meters":30800,"station_id":"ce4bgg92rcd13ifvqb30","pricing_plan_id":"free"},{"bike_id":"1eb2dd59-31ea-44ad-bc27-6319eb8e2a93","system_id":"levelo_inurba_marseille","lat":43.298433,"lon":5.362774,"is_reserved":false,"is_disabled":false,"rental_uris":{"android":"levelo://app?vid=1eb2dd59-31ea-44ad-bc27-6319eb8e2a93","ios":"levelo://app?vid=1eb2dd59-31ea-44ad-bc27-6319eb8e2a93"},"vehicle_type_id":"4","last_reported":1690700758,"current_range_meters":24000,"station_id":"ce4bgpp2rcd13ifvqc3g","pricing_plan_id":"free"},{"bike_id":"141525d2-61cf-4ec2-85c9-138acdd47c43","system_id":"levelo_inurba_marseille","lat":43.298433,"lon":5.362774,"is_reserved":false,"is_disabled":false,"rental_uris":{"android":"levelo://app?vid=141525d2-61cf-4ec2-85c9-138acdd47c43","ios":"levelo://app?vid=141525d2-61cf-4ec2-85c9-138acdd47c43"},"vehicle_type_id":"4","last_reported":1690700758,"current_range_meters":28800,"station_id":"ce4bgpp2rcd13ifvqc3g","pricing_plan_id":"free"},{"bike_id":"425b6836-37f6-43b3-a70e-cc17dccfb906","system_id":"levelo_inurba_marseille","lat":43.305364,"lon":5.384119,"is_reserved":false,"is_disabled":false,"rental_uris":{"android":"levelo://app?vid=425b6836-37f6-43b3-a70e-cc17dccfb906","ios":"levelo://app?vid=425b6836-37f6-43b3-a70e-cc17dccfb906"},"vehicle_type_id":"4","last_reported":1690700758,"current_range_meters":31200,"station_id":"ce4bgg92rcd13ifvqb30","pricing_plan_id":"free"},{"bike_id":"4effcd64-6e14-48b3-8940-bd0a132189ba","system_id":"levelo_inurba_marseille","lat":43.30531,"lon":5.38436,"is_reserved":false,"is_disabled":false,"rental_uris":{"android":"levelo://app?vid=4effcd64-6e14-48b3-8940-bd0a132189ba","ios":"levelo://app?vid=4effcd64-6e14-48b3-8940-bd0a132189ba"},"vehicle_type_id":"4","last_reported":1690700758,"current_range_meters":31200,"station_id":"ce4bgg92rcd13ifvqb30","pricing_plan_id":"free"},{"bike_id":"74ee93de-bda0-4527-876e-bba97fee7758","system_id":"levelo_inurba_marseille","lat":43.31166,"lon":5.38709,"is_reserved":false,"is_disabled":false,"rental_uris":{"android":"levelo://app?vid=74ee93de-bda0-4527-876e-bba97fee7758","ios":"levelo://app?vid=74ee93de-bda0-4527-876e-bba97fee7758"},"vehicle_type_id":"4","last_reported":1690700758,"current_range_meters":28000,"station_id":"ce4bgv12rcd13ifvqcp0","pricing_plan_id":"free"},{"bike_id":"ef938cda-6cd2-4bea-b6f1-70f6e04908e3","system_id":"levelo_inurba_marseille","lat":43.311722,"lon":5.387247,"is_reserved":false,"is_disabled":false,"rental_uris":{"android":"levelo://app?vid=ef938cda-6cd2-4bea-b6f1-70f6e04908e3","ios":"levelo://app?vid=ef938cda-6cd2-4bea-b6f1-70f6e04908e3"},"vehicle_type_id":"4","last_reported":1690700758,"current_range_meters":31200,"station_id":"ce4bgv12rcd13ifvqcp0","pricing_plan_id":"free"},{"bike_id":"81edd84a-bdf2-4cb8-b4ff-a1fe2cd3d660","system_id":"levelo_inurba_marseille","lat":43.297794,"lon":5.370888,"is_reserved":false,"is_disabled":false,"rental_uris":{"android":"levelo://app?vid=81edd84a-bdf2-4cb8-b4ff-a1fe2cd3d660","ios":"levelo://app?vid=81edd84a-bdf2-4cb8-b4ff-a1fe2cd3d660"},"vehicle_type_id":"4","last_reported":1690700758,"current_range_meters":31200,"station_id":"ce4bgop2rcd13ifvqc1g","pricing_plan_id":"free"},{"bike_id":"5e85bd67-015e-4b1a-ae07-7fc83b8593c4","system_id":"levelo_inurba_marseille","lat":43.29785,"lon":5.37105,"is_reserved":false,"is_disabled":false,"rental_uris":{"android":"levelo://app?vid=5e85bd67-015e-4b1a-ae07-7fc83b8593c4","ios":"levelo://app?vid=5e85bd67-015e-4b1a-ae07-7fc83b8593c4"},"vehicle_type_id":"4","last_reported":1690700758,"current_range_meters":14000,"station_id":"ce4bgop2rcd13ifvqc1g","pricing_plan_id":"free"},{"bike_id":"d5d09a61-6122-4645-ada0-f41f8c7752f3","system_id":"levelo_inurba_marseille","lat":43.297774,"lon":5.370875,"is_reserved":false,"is_disabled":false,"rental_uris":{"android":"levelo://app?vid=d5d09a61-6122-4645-ada0-f41f8c7752f3","ios":"levelo://app?vid=d5d09a61-6122-4645-ada0-f41f8c7752f3"},"vehicle_type_id":"4","last_reported":1690700758,"current_range_meters":30000,"station_id":"ce4bgop2rcd13ifvqc1g","pricing_plan_id":"free"},{"bike_id":"fead3f1e-e9e6-4830-9da4-e98cba309113","system_id":"levelo_inurba_marseille","lat":43.322872,"lon":5.382756,"is_reserved":false,"is_disabled":false,"rental_uris":{"android":"levelo://app?vid=fead3f1e-e9e6-4830-9da4-e98cba309113","ios":"levelo://app?vid=fead3f1e-e9e6-4830-9da4-e98cba309113"},"vehicle_type_id":"4","last_reported":1690700758,"current_range_meters":12800,"station_id":"ce4bhr12rcd13ifvqhqg","pricing_plan_id":"free"},{"bike_id":"01768fa1-df85-472a-bce4-e98c4f1a7eed","system_id":"levelo_inurba_marseille","lat":43.32286,"lon":5.38265,"is_reserved":false,"is_disabled":false,"rental_uris":{"android":"levelo://app?vid=01768fa1-df85-472a-bce4-e98c4f1a7eed","ios":"levelo://app?vid=01768fa1-df85-472a-bce4-e98c4f1a7eed"},"vehicle_type_id":"4","last_reported":1690700758,"current_range_meters":12800,"station_id":"ce4bhr12rcd13ifvqhqg","pricing_plan_id":"free"},{"bike_id":"a196dbb0-0ca2-44b0-8b03-b7d3a734d20c","system_id":"levelo_inurba_marseille","lat":43.322872,"lon":5.382756,"is_reserved":false,"is_disabled":false,"rental_uris":{"android":"levelo://app?vid=a196dbb0-0ca2-44b0-8b03-b7d3a734d20c","ios":"levelo://app?vid=a196dbb0-0ca2-44b0-8b03-b7d3a734d20c"},"vehicle_type_id":"4","last_reported":1690700758,"current_range_meters":25600,"station_id":"ce4bhr12rcd13ifvqhqg","pricing_plan_id":"free"},{"bike_id":"a87c3d89-8ecc-4c20-a387-7842b25267e1","system_id":"levelo_inurba_marseille","lat":43.32289,"lon":5.38269,"is_reserved":false,"is_disabled":false,"rental_uris":{"android":"levelo://app?vid=a87c3d89-8ecc-4c20-a387-7842b25267e1","ios":"levelo://app?vid=a87c3d89-8ecc-4c20-a387-7842b25267e1"},"vehicle_type_id":"4","last_reported":1690700758,"current_range_meters":29600,"station_id":"ce4bhr12rcd13ifvqhqg","pricing_plan_id":"free"},{"bike_id":"87ae9f90-94a6-4da3-816d-05c9f494a960","system_id":"levelo_inurba_marseille","lat":43.32287,"lon":5.38273,"is_reserved":false,"is_disabled":false,"rental_uris":{"android":"levelo://app?vid=87ae9f90-94a6-4da3-816d-05c9f494a960","ios":"levelo://app?vid=87ae9f90-94a6-4da3-816d-05c9f494a960"},"vehicle_type_id":"4","last_reported":1690700758,"current_range_meters":30800,"station_id":"ce4bhr12rcd13ifvqhqg","pricing_plan_id":"free"},{"bike_id":"aff0017d-8d19-4b8c-8490-dfc322af04d7","system_id":"levelo_inurba_marseille","lat":43.32285,"lon":5.38279,"is_reserved":false,"is_disabled":false,"rental_uris":{"android":"levelo://app?vid=aff0017d-8d19-4b8c-8490-dfc322af04d7","ios":"levelo://app?vid=aff0017d-8d19-4b8c-8490-dfc322af04d7"},"vehicle_type_id":"4","last_reported":1690700758,"current_range_meters":12000,"station_id":"ce4bhr12rcd13ifvqhqg","pricing_plan_id":"free"},{"bike_id":"79bf6da4-5f08-488b-96b1-6e23f74ec5ec","system_id":"levelo_inurba_marseille","lat":43.32286,"lon":5.38279,"is_reserved":false,"is_disabled":false,"rental_uris":{"android":"levelo://app?vid=79bf6da4-5f08-488b-96b1-6e23f74ec5ec","ios":"levelo://app?vid=79bf6da4-5f08-488b-96b1-6e23f74ec5ec"},"vehicle_type_id":"4","last_reported":1690700758,"current_range_meters":12400,"station_id":"ce4bhr12rcd13ifvqhqg","pricing_plan_id":"free"},{"bike_id":"82f1e03d-e4c3-4aac-b6f0-c9fc3950fe62","system_id":"levelo_inurba_marseille","lat":43.322997,"lon":5.382725,"is_reserved":false,"is_disabled":false,"rental_uris":{"android":"levelo://app?vid=82f1e03d-e4c3-4aac-b6f0-c9fc3950fe62","ios":"levelo://app?vid=82f1e03d-e4c3-4aac-b6f0-c9fc3950fe62"},"vehicle_type_id":"4","last_reported":1690700758,"current_range_meters":22000,"station_id":"","pricing_plan_id":"free"},{"bike_id":"c72ce1d8-c1fd-419a-9fc0-9ddeb92b3914","system_id":"levelo_inurba_marseille","lat":43.32824,"lon":5.3668,"is_reserved":false,"is_disabled":false,"rental_uris":{"android":"levelo://app?vid=c72ce1d8-c1fd-419a-9fc0-9ddeb92b3914","ios":"levelo://app?vid=c72ce1d8-c1fd-419a-9fc0-9ddeb92b3914"},"vehicle_type_id":"4","last_reported":1690700758,"current_range_meters":16000,"station_id":"ce4bhs92rcd13ifvqi0g","pricing_plan_id":"free"},{"bike_id":"d3c2bcbb-81be-4b9f-bb2f-8815022aaf16","system_id":"levelo_inurba_marseille","lat":43.32828,"lon":5.36686,"is_reserved":false,"is_disabled":false,"rental_uris":{"android":"levelo://app?vid=d3c2bcbb-81be-4b9f-bb2f-8815022aaf16","ios":"levelo://app?vid=d3c2bcbb-81be-4b9f-bb2f-8815022aaf16"},"vehicle_type_id":"4","last_reported":1690700758,"current_range_meters":19600,"station_id":"ce4bhs92rcd13ifvqi0g","pricing_plan_id":"free"},{"bike_id":"685545c2-1c31-4941-a36d-c472f871ebff","system_id":"levelo_inurba_marseille","lat":43.32828,"lon":5.36675,"is_reserved":false,"is_disabled":false,"rental_uris":{"android":"levelo://app?vid=685545c2-1c31-4941-a36d-c472f871ebff","ios":"levelo://app?vid=685545c2-1c31-4941-a36d-c472f871ebff"},"vehicle_type_id":"4","last_reported":1690700758,"current_range_meters":30800,"station_id":"ce4bhs92rcd13ifvqi0g","pricing_plan_id":"free"},{"bike_id":"3f56ab11-c8db-4856-8929-e236d19fea1e","system_id":"levelo_inurba_marseille","lat":43.328371,"lon":5.366909,"is_reserved":false,"is_disabled":false,"rental_uris":{"android":"levelo://app?vid=3f56ab11-c8db-4856-8929-e236d19fea1e","ios":"levelo://app?vid=3f56ab11-c8db-4856-8929-e236d19fea1e"},"vehicle_type_id":"4","last_reported":1690700758,"current_range_meters":1200,"station_id":"ce4bhs92rcd13ifvqi0g","pricing_plan_id":"free"},{"bike_id":"00fe8b7d-b19b-4190-baa0-973af50113d0","system_id":"levelo_inurba_marseille","lat":43.32832,"lon":5.36674,"is_reserved":false,"is_disabled":false,"rental_uris":{"android":"levelo://app?vid=00fe8b7d-b19b-4190-baa0-973af50113d0","ios":"levelo://app?vid=00fe8b7d-b19b-4190-baa0-973af50113d0"},"vehicle_type_id":"4","last_reported":1690700758,"current_range_meters":25200,"station_id":"ce4bhs92rcd13ifvqi0g","pricing_plan_id":"free"},{"bike_id":"dd789220-e7b5-42c1-b9dc-dc4243148021","system_id":"levelo_inurba_marseille","lat":43.29708,"lon":5.36607,"is_reserved":false,"is_disabled":false,"rental_uris":{"android":"levelo://app?vid=dd789220-e7b5-42c1-b9dc-dc4243148021","ios":"levelo://app?vid=dd789220-e7b5-42c1-b9dc-dc4243148021"},"vehicle_type_id":"4","last_reported":1690700758,"current_range_meters":31200,"station_id":"ce4bgn12rcd13ifvqbt0","pricing_plan_id":"free"},{"bike_id":"4e49fd61-d76c-4f01-a724-aad03f3839fb","system_id":"levelo_inurba_marseille","lat":43.296131,"lon":5.370773,"is_reserved":false,"is_disabled":false,"rental_uris":{"android":"levelo://app?vid=4e49fd61-d76c-4f01-a724-aad03f3839fb","ios":"levelo://app?vid=4e49fd61-d76c-4f01-a724-aad03f3839fb"},"vehicle_type_id":"4","last_reported":1690700758,"current_range_meters":31600,"station_id":"ce4bgnh2rcd13ifvqc0g","pricing_plan_id":"free"},{"bike_id":"54d183bc-8f5d-4515-adcd-1409d34df75e","system_id":"levelo_inurba_marseille","lat":43.296131,"lon":5.370791,"is_reserved":false,"is_disabled":false,"rental_uris":{"android":"levelo://app?vid=54d183bc-8f5d-4515-adcd-1409d34df75e","ios":"levelo://app?vid=54d183bc-8f5d-4515-adcd-1409d34df75e"},"vehicle_type_id":"4","last_reported":1690700758,"current_range_meters":30400,"station_id":"ce4bgnh2rcd13ifvqc0g","pricing_plan_id":"free"},{"bike_id":"94874515-ce70-4c9b-8e50-844514346ec5","system_id":"levelo_inurba_marseille","lat":43.296131,"lon":5.370773,"is_reserved":false,"is_disabled":false,"rental_uris":{"android":"levelo://app?vid=94874515-ce70-4c9b-8e50-844514346ec5","ios":"levelo://app?vid=94874515-ce70-4c9b-8e50-844514346ec5"},"vehicle_type_id":"4","last_reported":1690700758,"current_range_meters":30400,"station_id":"ce4bgnh2rcd13ifvqc0g","pricing_plan_id":"free"},{"bike_id":"8de0a742-0df0-4fb8-9fe6-3794908b4f67","system_id":"levelo_inurba_marseille","lat":43.296921,"lon":5.376579,"is_reserved":false,"is_disabled":false,"rental_uris":{"android":"levelo://app?vid=8de0a742-0df0-4fb8-9fe6-3794908b4f67","ios":"levelo://app?vid=8de0a742-0df0-4fb8-9fe6-3794908b4f67"},"vehicle_type_id":"4","last_reported":1690700758,"current_range_meters":31200,"station_id":"ce4bgkh2rcd13ifvqbl0","pricing_plan_id":"free"},{"bike_id":"cfa9fd01-e259-490d-a713-d3d230379ea7","system_id":"levelo_inurba_marseille","lat":43.299028,"lon":5.381509,"is_reserved":false,"is_disabled":false,"rental_uris":{"android":"levelo://app?vid=cfa9fd01-e259-490d-a713-d3d230379ea7","ios":"levelo://app?vid=cfa9fd01-e259-490d-a713-d3d230379ea7"},"vehicle_type_id":"4","last_reported":1690700758,"current_range_meters":31600,"station_id":"ce4bgj12rcd13ifvqbc0","pricing_plan_id":"free"},{"bike_id":"c7e3c735-ee80-4038-8f1f-c1570132d973","system_id":"levelo_inurba_marseille","lat":43.299028,"lon":5.381509,"is_reserved":false,"is_disabled":false,"rental_uris":{"android":"levelo://app?vid=c7e3c735-ee80-4038-8f1f-c1570132d973","ios":"levelo://app?vid=c7e3c735-ee80-4038-8f1f-c1570132d973"},"vehicle_type_id":"4","last_reported":1690700758,"current_range_meters":26800,"station_id":"ce4bgj12rcd13ifvqbc0","pricing_plan_id":"free"},{"bike_id":"25cd6972-2650-4d12-b66c-ff9964c82ff4","system_id":"levelo_inurba_marseille","lat":43.309589,"lon":5.390258,"is_reserved":false,"is_disabled":false,"rental_uris":{"android":"levelo://app?vid=25cd6972-2650-4d12-b66c-ff9964c82ff4","ios":"levelo://app?vid=25cd6972-2650-4d12-b66c-ff9964c82ff4"},"vehicle_type_id":"4","last_reported":1690700758,"current_range_meters":20800,"station_id":"ce4bgup2rcd13ifvqco0","pricing_plan_id":"free"},{"bike_id":"cd8968a3-91c7-4b63-9b8d-8fd8dd6a308b","system_id":"levelo_inurba_marseille","lat":43.30944,"lon":5.39027,"is_reserved":false,"is_disabled":false,"rental_uris":{"android":"levelo://app?vid=cd8968a3-91c7-4b63-9b8d-8fd8dd6a308b","ios":"levelo://app?vid=cd8968a3-91c7-4b63-9b8d-8fd8dd6a308b"},"vehicle_type_id":"4","last_reported":1690700758,"current_range_meters":10800,"station_id":"ce4bgup2rcd13ifvqco0","pricing_plan_id":"free"},{"bike_id":"f0b1921d-8fc5-42f6-8214-26455e772ce5","system_id":"levelo_inurba_marseille","lat":43.309589,"lon":5.390258,"is_reserved":false,"is_disabled":false,"rental_uris":{"android":"levelo://app?vid=f0b1921d-8fc5-42f6-8214-26455e772ce5","ios":"levelo://app?vid=f0b1921d-8fc5-42f6-8214-26455e772ce5"},"vehicle_type_id":"4","last_reported":1690700758,"current_range_meters":27200,"station_id":"ce4bgup2rcd13ifvqco0","pricing_plan_id":"free"},{"bike_id":"eb9e8aa3-f33d-465d-b5ef-60c0501da7f0","system_id":"levelo_inurba_marseille","lat":43.309589,"lon":5.390258,"is_reserved":false,"is_disabled":false,"rental_uris":{"android":"levelo://app?vid=eb9e8aa3-f33d-465d-b5ef-60c0501da7f0","ios":"levelo://app?vid=eb9e8aa3-f33d-465d-b5ef-60c0501da7f0"},"vehicle_type_id":"4","last_reported":1690700758,"current_range_meters":32000,"station_id":"ce4bgup2rcd13ifvqco0","pricing_plan_id":"free"},{"bike_id":"56bf1b6d-5d9c-4c7b-827f-095bfdc1c494","system_id":"levelo_inurba_marseille","lat":43.309589,"lon":5.390258,"is_reserved":false,"is_disabled":false,"rental_uris":{"android":"levelo://app?vid=56bf1b6d-5d9c-4c7b-827f-095bfdc1c494","ios":"levelo://app?vid=56bf1b6d-5d9c-4c7b-827f-095bfdc1c494"},"vehicle_type_id":"4","last_reported":1690700758,"current_range_meters":30000,"station_id":"ce4bgup2rcd13ifvqco0","pricing_plan_id":"free"},{"bike_id":"5e6958ee-06fb-4f13-ba9e-5e5d2166a511","system_id":"levelo_inurba_marseille","lat":43.309589,"lon":5.390258,"is_reserved":false,"is_disabled":false,"rental_uris":{"android":"levelo://app?vid=5e6958ee-06fb-4f13-ba9e-5e5d2166a511","ios":"levelo://app?vid=5e6958ee-06fb-4f13-ba9e-5e5d2166a511"},"vehicle_type_id":"4","last_reported":1690700758,"current_range_meters":28400,"station_id":"ce4bgup2rcd13ifvqco0","pricing_plan_id":"free"},{"bike_id":"f813237f-e256-47d7-8403-44c402b34083","system_id":"levelo_inurba_marseille","lat":43.317557,"lon":5.390173,"is_reserved":false,"is_disabled":false,"rental_uris":{"android":"levelo://app?vid=f813237f-e256-47d7-8403-44c402b34083","ios":"levelo://app?vid=f813237f-e256-47d7-8403-44c402b34083"},"vehicle_type_id":"4","last_reported":1690700758,"current_range_meters":31200,"station_id":"ce4bhqp2rcd13ifvqhng","pricing_plan_id":"free"},{"bike_id":"4f5abe1e-2c96-4f51-bb89-5798709b64f8","system_id":"levelo_inurba_marseille","lat":43.298037,"lon":5.381066,"is_reserved":false,"is_disabled":false,"rental_uris":{"android":"levelo://app?vid=4f5abe1e-2c96-4f51-bb89-5798709b64f8","ios":"levelo://app?vid=4f5abe1e-2c96-4f51-bb89-5798709b64f8"},"vehicle_type_id":"4","last_reported":1690700758,"current_range_meters":31200,"station_id":"ce4bgip2rcd13ifvqbb0","pricing_plan_id":"free"},{"bike_id":"dbf52dee-4686-47d9-a9a2-8b6682fe419e","system_id":"levelo_inurba_marseille","lat":43.298037,"lon":5.381066,"is_reserved":false,"is_disabled":false,"rental_uris":{"android":"levelo://app?vid=dbf52dee-4686-47d9-a9a2-8b6682fe419e","ios":"levelo://app?vid=dbf52dee-4686-47d9-a9a2-8b6682fe419e"},"vehicle_type_id":"4","last_reported":1690700758,"current_range_meters":4000,"station_id":"ce4bgip2rcd13ifvqbb0","pricing_plan_id":"free"},{"bike_id":"e55878b8-3c49-47bb-a463-ee29b8a91721","system_id":"levelo_inurba_marseille","lat":43.298037,"lon":5.381066,"is_reserved":false,"is_disabled":false,"rental_uris":{"android":"levelo://app?vid=e55878b8-3c49-47bb-a463-ee29b8a91721","ios":"levelo://app?vid=e55878b8-3c49-47bb-a463-ee29b8a91721"},"vehicle_type_id":"4","last_reported":1690700758,"current_range_meters":28000,"station_id":"ce4bgip2rcd13ifvqbb0","pricing_plan_id":"free"},{"bike_id":"a08197bc-2d19-44d3-9cb5-ae5f209f9a76","system_id":"levelo_inurba_marseille","lat":43.298037,"lon":5.381066,"is_reserved":false,"is_disabled":false,"rental_uris":{"android":"levelo://app?vid=a08197bc-2d19-44d3-9cb5-ae5f209f9a76","ios":"levelo://app?vid=a08197bc-2d19-44d3-9cb5-ae5f209f9a76"},"vehicle_type_id":"4","last_reported":1690700758,"current_range_meters":29200,"station_id":"ce4bgip2rcd13ifvqbb0","pricing_plan_id":"free"},{"bike_id":"b1bcb2ca-9e0e-4eb7-b0f1-30f8f868f700","system_id":"levelo_inurba_marseille","lat":43.30442,"lon":5.38886,"is_reserved":false,"is_disabled":false,"rental_uris":{"android":"levelo://app?vid=b1bcb2ca-9e0e-4eb7-b0f1-30f8f868f700","ios":"levelo://app?vid=b1bcb2ca-9e0e-4eb7-b0f1-30f8f868f700"},"vehicle_type_id":"4","last_reported":1690700758,"current_range_meters":30800,"station_id":"ce4bgk12rcd13ifvqbi0","pricing_plan_id":"free"},{"bike_id":"6878926a-13ea-4f65-8d47-9e8e53eb3824","system_id":"levelo_inurba_marseille","lat":43.295748,"lon":5.37522,"is_reserved":false,"is_disabled":false,"rental_uris":{"android":"levelo://app?vid=6878926a-13ea-4f65-8d47-9e8e53eb3824","ios":"levelo://app?vid=6878926a-13ea-4f65-8d47-9e8e53eb3824"},"vehicle_type_id":"4","last_reported":1690700758,"current_range_meters":27200,"station_id":"ce4bgh92rcd13ifvqb50","pricing_plan_id":"free"},{"bike_id":"5f206f46-4ca1-40aa-8db9-7f2ed556df8d","system_id":"levelo_inurba_marseille","lat":43.30444,"lon":5.3889,"is_reserved":false,"is_disabled":false,"rental_uris":{"android":"levelo://app?vid=5f206f46-4ca1-40aa-8db9-7f2ed556df8d","ios":"levelo://app?vid=5f206f46-4ca1-40aa-8db9-7f2ed556df8d"},"vehicle_type_id":"4","last_reported":1690700758,"current_range_meters":31200,"station_id":"ce4bgk12rcd13ifvqbi0","pricing_plan_id":"free"},{"bike_id":"356a34ba-5433-46b1-a4b3-5355ae63e414","system_id":"levelo_inurba_marseille","lat":43.295748,"lon":5.37522,"is_reserved":false,"is_disabled":false,"rental_uris":{"android":"levelo://app?vid=356a34ba-5433-46b1-a4b3-5355ae63e414","ios":"levelo://app?vid=356a34ba-5433-46b1-a4b3-5355ae63e414"},"vehicle_type_id":"4","last_reported":1690700758,"current_range_meters":29200,"station_id":"ce4bgh92rcd13ifvqb50","pricing_plan_id":"free"},{"bike_id":"8635d105-9ed6-49dc-a210-4db63860e75a","system_id":"levelo_inurba_marseille","lat":43.30436,"lon":5.38889,"is_reserved":false,"is_disabled":false,"rental_uris":{"android":"levelo://app?vid=8635d105-9ed6-49dc-a210-4db63860e75a","ios":"levelo://app?vid=8635d105-9ed6-49dc-a210-4db63860e75a"},"vehicle_type_id":"4","last_reported":1690700758,"current_range_meters":800,"station_id":"ce4bgk12rcd13ifvqbi0","pricing_plan_id":"free"},{"bike_id":"f700a645-ea98-4562-9ec7-679895ab671b","system_id":"levelo_inurba_marseille","lat":43.30438,"lon":5.38891,"is_reserved":false,"is_disabled":false,"rental_uris":{"android":"levelo://app?vid=f700a645-ea98-4562-9ec7-679895ab671b","ios":"levelo://app?vid=f700a645-ea98-4562-9ec7-679895ab671b"},"vehicle_type_id":"4","last_reported":1690700758,"current_range_meters":30800,"station_id":"ce4bgk12rcd13ifvqbi0","pricing_plan_id":"free"},{"bike_id":"d425ab71-09de-41ae-ae39-55cc193a1ae2","system_id":"levelo_inurba_marseille","lat":43.30437,"lon":5.38893,"is_reserved":false,"is_disabled":false,"rental_uris":{"android":"levelo://app?vid=d425ab71-09de-41ae-ae39-55cc193a1ae2","ios":"levelo://app?vid=d425ab71-09de-41ae-ae39-55cc193a1ae2"},"vehicle_type_id":"4","last_reported":1690700758,"current_range_meters":30800,"station_id":"ce4bgk12rcd13ifvqbi0","pricing_plan_id":"free"},{"bike_id":"cd30a538-f286-4dbe-a039-ea112147060c","system_id":"levelo_inurba_marseille","lat":43.295748,"lon":5.37522,"is_reserved":false,"is_disabled":false,"rental_uris":{"android":"levelo://app?vid=cd30a538-f286-4dbe-a039-ea112147060c","ios":"levelo://app?vid=cd30a538-f286-4dbe-a039-ea112147060c"},"vehicle_type_id":"4","last_reported":1690700758,"current_range_meters":9200,"station_id":"ce4bgh92rcd13ifvqb50","pricing_plan_id":"free"},{"bike_id":"da4763ea-7f34-403b-8e29-b2abaecfd5c0","system_id":"levelo_inurba_marseille","lat":43.295748,"lon":5.37522,"is_reserved":false,"is_disabled":false,"rental_uris":{"android":"levelo://app?vid=da4763ea-7f34-403b-8e29-b2abaecfd5c0","ios":"levelo://app?vid=da4763ea-7f34-403b-8e29-b2abaecfd5c0"},"vehicle_type_id":"4","last_reported":1690700758,"current_range_meters":27200,"station_id":"ce4bgh92rcd13ifvqb50","pricing_plan_id":"free"},{"bike_id":"565c6259-d731-45fe-bdd9-3da118b608be","system_id":"levelo_inurba_marseille","lat":43.304278,"lon":5.388868,"is_reserved":false,"is_disabled":false,"rental_uris":{"android":"levelo://app?vid=565c6259-d731-45fe-bdd9-3da118b608be","ios":"levelo://app?vid=565c6259-d731-45fe-bdd9-3da118b608be"},"vehicle_type_id":"4","last_reported":1690700758,"current_range_meters":31200,"station_id":"ce4bgk12rcd13ifvqbi0","pricing_plan_id":"free"},{"bike_id":"2b8e5079-c0e5-4c3f-a2c8-f11618da7fab","system_id":"levelo_inurba_marseille","lat":43.295748,"lon":5.37522,"is_reserved":false,"is_disabled":false,"rental_uris":{"android":"levelo://app?vid=2b8e5079-c0e5-4c3f-a2c8-f11618da7fab","ios":"levelo://app?vid=2b8e5079-c0e5-4c3f-a2c8-f11618da7fab"},"vehicle_type_id":"4","last_reported":1690700758,"current_range_meters":28800,"station_id":"ce4bgh92rcd13ifvqb50","pricing_plan_id":"free"},{"bike_id":"3b98bd46-1a2b-4db2-92b7-16cdc195ac5c","system_id":"levelo_inurba_marseille","lat":43.295748,"lon":5.37522,"is_reserved":false,"is_disabled":false,"rental_uris":{"android":"levelo://app?vid=3b98bd46-1a2b-4db2-92b7-16cdc195ac5c","ios":"levelo://app?vid=3b98bd46-1a2b-4db2-92b7-16cdc195ac5c"},"vehicle_type_id":"4","last_reported":1690700758,"current_range_meters":30800,"station_id":"ce4bgh92rcd13ifvqb50","pricing_plan_id":"free"},{"bike_id":"dd61ed29-465d-404f-93ca-f18c331e455a","system_id":"levelo_inurba_marseille","lat":43.295748,"lon":5.37522,"is_reserved":false,"is_disabled":false,"rental_uris":{"android":"levelo://app?vid=dd61ed29-465d-404f-93ca-f18c331e455a","ios":"levelo://app?vid=dd61ed29-465d-404f-93ca-f18c331e455a"},"vehicle_type_id":"4","last_reported":1690700758,"current_range_meters":29600,"station_id":"ce4bgh92rcd13ifvqb50","pricing_plan_id":"free"},{"bike_id":"f32b5f2e-7f29-478e-9475-ff13d9bd741d","system_id":"levelo_inurba_marseille","lat":43.296277,"lon":5.377108,"is_reserved":false,"is_disabled":false,"rental_uris":{"android":"levelo://app?vid=f32b5f2e-7f29-478e-9475-ff13d9bd741d","ios":"levelo://app?vid=f32b5f2e-7f29-478e-9475-ff13d9bd741d"},"vehicle_type_id":"4","last_reported":1690700758,"current_range_meters":30000,"station_id":"ce4bgi92rcd13ifvqb90","pricing_plan_id":"free"},{"bike_id":"1f9dd196-51a2-4318-a5ae-1d24fdde7369","system_id":"levelo_inurba_marseille","lat":43.296277,"lon":5.377108,"is_reserved":false,"is_disabled":false,"rental_uris":{"android":"levelo://app?vid=1f9dd196-51a2-4318-a5ae-1d24fdde7369","ios":"levelo://app?vid=1f9dd196-51a2-4318-a5ae-1d24fdde7369"},"vehicle_type_id":"4","last_reported":1690700758,"current_range_meters":31600,"station_id":"ce4bgi92rcd13ifvqb90","pricing_plan_id":"free"},{"bike_id":"41f249c5-5694-448c-80e6-2f6bf09596d4","system_id":"levelo_inurba_marseille","lat":43.29771,"lon":5.38139,"is_reserved":false,"is_disabled":false,"rental_uris":{"android":"levelo://app?vid=41f249c5-5694-448c-80e6-2f6bf09596d4","ios":"levelo://app?vid=41f249c5-5694-448c-80e6-2f6bf09596d4"},"vehicle_type_id":"4","last_reported":1690700758,"current_range_meters":16800,"station_id":"ce4bgip2rcd13ifvqbb0","pricing_plan_id":"free"},{"bike_id":"bb2a1f61-e931-4e11-a033-3e6c4ceae23f","system_id":"levelo_inurba_marseille","lat":43.29975,"lon":5.3849,"is_reserved":false,"is_disabled":false,"rental_uris":{"android":"levelo://app?vid=bb2a1f61-e931-4e11-a033-3e6c4ceae23f","ios":"levelo://app?vid=bb2a1f61-e931-4e11-a033-3e6c4ceae23f"},"vehicle_type_id":"4","last_reported":1690700758,"current_range_meters":19200,"station_id":"ce4bgj92rcd13ifvqbd0","pricing_plan_id":"free"},{"bike_id":"7ed85d03-edea-485f-8a4a-99100645034a","system_id":"levelo_inurba_marseille","lat":43.299724,"lon":5.384848,"is_reserved":false,"is_disabled":false,"rental_uris":{"android":"levelo://app?vid=7ed85d03-edea-485f-8a4a-99100645034a","ios":"levelo://app?vid=7ed85d03-edea-485f-8a4a-99100645034a"},"vehicle_type_id":"4","last_reported":1690700758,"current_range_meters":2400,"station_id":"ce4bgj92rcd13ifvqbd0","pricing_plan_id":"free"},{"bike_id":"a786c199-887d-4adc-bab3-c3563be8fa4d","system_id":"levelo_inurba_marseille","lat":43.299724,"lon":5.384848,"is_reserved":false,"is_disabled":false,"rental_uris":{"android":"levelo://app?vid=a786c199-887d-4adc-bab3-c3563be8fa4d","ios":"levelo://app?vid=a786c199-887d-4adc-bab3-c3563be8fa4d"},"vehicle_type_id":"4","last_reported":1690700758,"current_range_meters":31200,"station_id":"ce4bgj92rcd13ifvqbd0","pricing_plan_id":"free"},{"bike_id":"e8aee945-7790-41f4-b9ab-f31523922cd5","system_id":"levelo_inurba_marseille","lat":43.299724,"lon":5.384848,"is_reserved":false,"is_disabled":false,"rental_uris":{"android":"levelo://app?vid=e8aee945-7790-41f4-b9ab-f31523922cd5","ios":"levelo://app?vid=e8aee945-7790-41f4-b9ab-f31523922cd5"},"vehicle_type_id":"4","last_reported":1690700758,"current_range_meters":31600,"station_id":"ce4bgj92rcd13ifvqbd0","pricing_plan_id":"free"},{"bike_id":"e2f8daca-1d85-4fa9-872d-3de86ddfd33f","system_id":"levelo_inurba_marseille","lat":43.32369,"lon":5.3887,"is_reserved":false,"is_disabled":false,"rental_uris":{"android":"levelo://app?vid=e2f8daca-1d85-4fa9-872d-3de86ddfd33f","ios":"levelo://app?vid=e2f8daca-1d85-4fa9-872d-3de86ddfd33f"},"vehicle_type_id":"4","last_reported":1690700758,"current_range_meters":31200,"station_id":"ce4bhqp2rcd13ifvqhog","pricing_plan_id":"free"},{"bike_id":"2af9e318-f53d-4ba2-902d-e65c019554d2","system_id":"levelo_inurba_marseille","lat":43.32364,"lon":5.38881,"is_reserved":false,"is_disabled":false,"rental_uris":{"android":"levelo://app?vid=2af9e318-f53d-4ba2-902d-e65c019554d2","ios":"levelo://app?vid=2af9e318-f53d-4ba2-902d-e65c019554d2"},"vehicle_type_id":"4","last_reported":1690700758,"current_range_meters":31200,"station_id":"ce4bhqp2rcd13ifvqhog","pricing_plan_id":"free"},{"bike_id":"2d0fd9cb-5c5b-47e0-8a06-d0b8b5a34d31","system_id":"levelo_inurba_marseille","lat":43.32359,"lon":5.38886,"is_reserved":false,"is_disabled":false,"rental_uris":{"android":"levelo://app?vid=2d0fd9cb-5c5b-47e0-8a06-d0b8b5a34d31","ios":"levelo://app?vid=2d0fd9cb-5c5b-47e0-8a06-d0b8b5a34d31"},"vehicle_type_id":"4","last_reported":1690700758,"current_range_meters":31200,"station_id":"ce4bhqp2rcd13ifvqhog","pricing_plan_id":"free"},{"bike_id":"12b93392-7a33-437c-92c7-5ffd9af1469b","system_id":"levelo_inurba_marseille","lat":43.29613,"lon":5.381,"is_reserved":false,"is_disabled":false,"rental_uris":{"android":"levelo://app?vid=12b93392-7a33-437c-92c7-5ffd9af1469b","ios":"levelo://app?vid=12b93392-7a33-437c-92c7-5ffd9af1469b"},"vehicle_type_id":"4","last_reported":1690700758,"current_range_meters":2000,"station_id":"ce4bgl12rcd13ifvqbo0","pricing_plan_id":"free"},{"bike_id":"fcd296f3-86d9-4d7a-81ef-3f4a3410e512","system_id":"levelo_inurba_marseille","lat":43.292749,"lon":5.368398,"is_reserved":false,"is_disabled":false,"rental_uris":{"android":"levelo://app?vid=fcd296f3-86d9-4d7a-81ef-3f4a3410e512","ios":"levelo://app?vid=fcd296f3-86d9-4d7a-81ef-3f4a3410e512"},"vehicle_type_id":"4","last_reported":1690700758,"current_range_meters":28000,"station_id":"ce4bhbp2rcd13ifvqesg","pricing_plan_id":"free"},{"bike_id":"4dd01df8-cfd6-40bd-b17a-1ac3e1d93384","system_id":"levelo_inurba_marseille","lat":43.29278,"lon":5.36838,"is_reserved":false,"is_disabled":false,"rental_uris":{"android":"levelo://app?vid=4dd01df8-cfd6-40bd-b17a-1ac3e1d93384","ios":"levelo://app?vid=4dd01df8-cfd6-40bd-b17a-1ac3e1d93384"},"vehicle_type_id":"4","last_reported":1690700758,"current_range_meters":31200,"station_id":"ce4bhbp2rcd13ifvqesg","pricing_plan_id":"free"},{"bike_id":"018bee97-e699-4bf9-bc4b-2c12e9b5f5ac","system_id":"levelo_inurba_marseille","lat":43.292749,"lon":5.368398,"is_reserved":false,"is_disabled":false,"rental_uris":{"android":"levelo://app?vid=018bee97-e699-4bf9-bc4b-2c12e9b5f5ac","ios":"levelo://app?vid=018bee97-e699-4bf9-bc4b-2c12e9b5f5ac"},"vehicle_type_id":"4","last_reported":1690700758,"current_range_meters":12000,"station_id":"ce4bhbp2rcd13ifvqesg","pricing_plan_id":"free"},{"bike_id":"e2261b2f-eff1-4dce-9797-7f88ba85f5ad","system_id":"levelo_inurba_marseille","lat":43.292749,"lon":5.368398,"is_reserved":false,"is_disabled":false,"rental_uris":{"android":"levelo://app?vid=e2261b2f-eff1-4dce-9797-7f88ba85f5ad","ios":"levelo://app?vid=e2261b2f-eff1-4dce-9797-7f88ba85f5ad"},"vehicle_type_id":"4","last_reported":1690700758,"current_range_meters":28800,"station_id":"ce4bhbp2rcd13ifvqesg","pricing_plan_id":"free"},{"bike_id":"5d0adf50-eb1c-491b-bf6e-4265c560a936","system_id":"levelo_inurba_marseille","lat":43.292749,"lon":5.368398,"is_reserved":false,"is_disabled":false,"rental_uris":{"android":"levelo://app?vid=5d0adf50-eb1c-491b-bf6e-4265c560a936","ios":"levelo://app?vid=5d0adf50-eb1c-491b-bf6e-4265c560a936"},"vehicle_type_id":"4","last_reported":1690700758,"current_range_meters":31200,"station_id":"ce4bhbp2rcd13ifvqesg","pricing_plan_id":"free"},{"bike_id":"4da1ac7c-d916-4c2e-8edb-2a006d03feb6","system_id":"levelo_inurba_marseille","lat":43.29307,"lon":5.37193,"is_reserved":false,"is_disabled":false,"rental_uris":{"android":"levelo://app?vid=4da1ac7c-d916-4c2e-8edb-2a006d03feb6","ios":"levelo://app?vid=4da1ac7c-d916-4c2e-8edb-2a006d03feb6"},"vehicle_type_id":"4","last_reported":1690700758,"current_range_meters":31200,"station_id":"ce4bgh92rcd13ifvqb40","pricing_plan_id":"free"},{"bike_id":"b947f1ff-f085-4eba-b0b4-90707e84295d","system_id":"levelo_inurba_marseille","lat":43.293249,"lon":5.371578,"is_reserved":false,"is_disabled":false,"rental_uris":{"android":"levelo://app?vid=b947f1ff-f085-4eba-b0b4-90707e84295d","ios":"levelo://app?vid=b947f1ff-f085-4eba-b0b4-90707e84295d"},"vehicle_type_id":"4","last_reported":1690700758,"current_range_meters":28000,"station_id":"ce4bgh92rcd13ifvqb40","pricing_plan_id":"free"},{"bike_id":"ce6aaeb6-a7f9-471f-880e-08755252e438","system_id":"levelo_inurba_marseille","lat":43.292749,"lon":5.368398,"is_reserved":false,"is_disabled":false,"rental_uris":{"android":"levelo://app?vid=ce6aaeb6-a7f9-471f-880e-08755252e438","ios":"levelo://app?vid=ce6aaeb6-a7f9-471f-880e-08755252e438"},"vehicle_type_id":"4","last_reported":1690700758,"current_range_meters":31200,"station_id":"ce4bhbp2rcd13ifvqesg","pricing_plan_id":"free"},{"bike_id":"9d073127-adc2-4efc-b689-e4ec65538d06","system_id":"levelo_inurba_marseille","lat":43.292749,"lon":5.368398,"is_reserved":false,"is_disabled":false,"rental_uris":{"android":"levelo://app?vid=9d073127-adc2-4efc-b689-e4ec65538d06","ios":"levelo://app?vid=9d073127-adc2-4efc-b689-e4ec65538d06"},"vehicle_type_id":"4","last_reported":1690700758,"current_range_meters":31200,"station_id":"ce4bhbp2rcd13ifvqesg","pricing_plan_id":"free"},{"bike_id":"f8ed757d-145d-4f97-9611-b78c41a7aa5e","system_id":"levelo_inurba_marseille","lat":43.292749,"lon":5.368398,"is_reserved":false,"is_disabled":false,"rental_uris":{"android":"levelo://app?vid=f8ed757d-145d-4f97-9611-b78c41a7aa5e","ios":"levelo://app?vid=f8ed757d-145d-4f97-9611-b78c41a7aa5e"},"vehicle_type_id":"4","last_reported":1690700758,"current_range_meters":27200,"station_id":"ce4bhbp2rcd13ifvqesg","pricing_plan_id":"free"},{"bike_id":"0f9dea11-eeb8-476c-9e55-aa64337f1f29","system_id":"levelo_inurba_marseille","lat":43.29302,"lon":5.37176,"is_reserved":false,"is_disabled":false,"rental_uris":{"android":"levelo://app?vid=0f9dea11-eeb8-476c-9e55-aa64337f1f29","ios":"levelo://app?vid=0f9dea11-eeb8-476c-9e55-aa64337f1f29"},"vehicle_type_id":"4","last_reported":1690700758,"current_range_meters":18400,"station_id":"ce4bgh92rcd13ifvqb40","pricing_plan_id":"free"},{"bike_id":"5690c099-bf45-46bc-9a43-714733f27d60","system_id":"levelo_inurba_marseille","lat":43.293249,"lon":5.371578,"is_reserved":false,"is_disabled":false,"rental_uris":{"android":"levelo://app?vid=5690c099-bf45-46bc-9a43-714733f27d60","ios":"levelo://app?vid=5690c099-bf45-46bc-9a43-714733f27d60"},"vehicle_type_id":"4","last_reported":1690700758,"current_range_meters":21600,"station_id":"ce4bgh92rcd13ifvqb40","pricing_plan_id":"free"},{"bike_id":"ea2a1f90-1603-48d8-a8c0-904adae231e3","system_id":"levelo_inurba_marseille","lat":43.292749,"lon":5.368398,"is_reserved":false,"is_disabled":false,"rental_uris":{"android":"levelo://app?vid=ea2a1f90-1603-48d8-a8c0-904adae231e3","ios":"levelo://app?vid=ea2a1f90-1603-48d8-a8c0-904adae231e3"},"vehicle_type_id":"4","last_reported":1690700758,"current_range_meters":18800,"station_id":"ce4bhbp2rcd13ifvqesg","pricing_plan_id":"free"},{"bike_id":"cc6bb53f-f554-4672-b631-2a669034244c","system_id":"levelo_inurba_marseille","lat":43.29271,"lon":5.36841,"is_reserved":false,"is_disabled":false,"rental_uris":{"android":"levelo://app?vid=cc6bb53f-f554-4672-b631-2a669034244c","ios":"levelo://app?vid=cc6bb53f-f554-4672-b631-2a669034244c"},"vehicle_type_id":"4","last_reported":1690700758,"current_range_meters":31200,"station_id":"ce4bhbp2rcd13ifvqesg","pricing_plan_id":"free"},{"bike_id":"a3bb7a7c-b584-42a4-967b-b82bea92a3c6","system_id":"levelo_inurba_marseille","lat":43.2927,"lon":5.36844,"is_reserved":false,"is_disabled":false,"rental_uris":{"android":"levelo://app?vid=a3bb7a7c-b584-42a4-967b-b82bea92a3c6","ios":"levelo://app?vid=a3bb7a7c-b584-42a4-967b-b82bea92a3c6"},"vehicle_type_id":"4","last_reported":1690700758,"current_range_meters":31200,"station_id":"ce4bhbp2rcd13ifvqesg","pricing_plan_id":"free"},{"bike_id":"bfac7228-8461-4593-b73a-88b25262534b","system_id":"levelo_inurba_marseille","lat":43.293009,"lon":5.374584,"is_reserved":false,"is_disabled":false,"rental_uris":{"android":"levelo://app?vid=bfac7228-8461-4593-b73a-88b25262534b","ios":"levelo://app?vid=bfac7228-8461-4593-b73a-88b25262534b"},"vehicle_type_id":"4","last_reported":1690700758,"current_range_meters":31600,"station_id":"ce4bgi12rcd13ifvqb70","pricing_plan_id":"free"},{"bike_id":"97cf1d3f-39d4-4d8f-8e69-617977c87e40","system_id":"levelo_inurba_marseille","lat":43.305994,"lon":5.393687,"is_reserved":false,"is_disabled":false,"rental_uris":{"android":"levelo://app?vid=97cf1d3f-39d4-4d8f-8e69-617977c87e40","ios":"levelo://app?vid=97cf1d3f-39d4-4d8f-8e69-617977c87e40"},"vehicle_type_id":"4","last_reported":1690700758,"current_range_meters":31200,"station_id":"ce4bh0p2rcd13ifvqd80","pricing_plan_id":"free"},{"bike_id":"774baad4-ff84-482f-919e-b3a6a326fc0e","system_id":"levelo_inurba_marseille","lat":43.305994,"lon":5.393687,"is_reserved":false,"is_disabled":false,"rental_uris":{"android":"levelo://app?vid=774baad4-ff84-482f-919e-b3a6a326fc0e","ios":"levelo://app?vid=774baad4-ff84-482f-919e-b3a6a326fc0e"},"vehicle_type_id":"4","last_reported":1690700758,"current_range_meters":31600,"station_id":"ce4bh0p2rcd13ifvqd80","pricing_plan_id":"free"},{"bike_id":"9e1f0c42-2a02-45e3-9571-0c43c0d0f288","system_id":"levelo_inurba_marseille","lat":43.293009,"lon":5.374584,"is_reserved":false,"is_disabled":false,"rental_uris":{"android":"levelo://app?vid=9e1f0c42-2a02-45e3-9571-0c43c0d0f288","ios":"levelo://app?vid=9e1f0c42-2a02-45e3-9571-0c43c0d0f288"},"vehicle_type_id":"4","last_reported":1690700758,"current_range_meters":28400,"station_id":"ce4bgi12rcd13ifvqb70","pricing_plan_id":"free"},{"bike_id":"29a93903-2727-4128-a0a0-2ee48b7ce899","system_id":"levelo_inurba_marseille","lat":43.305918,"lon":5.393589,"is_reserved":false,"is_disabled":false,"rental_uris":{"android":"levelo://app?vid=29a93903-2727-4128-a0a0-2ee48b7ce899","ios":"levelo://app?vid=29a93903-2727-4128-a0a0-2ee48b7ce899"},"vehicle_type_id":"4","last_reported":1690700758,"current_range_meters":30000,"station_id":"","pricing_plan_id":"free"},{"bike_id":"8d8e0590-e69b-4991-ab2e-02e3ba717a3b","system_id":"levelo_inurba_marseille","lat":43.305994,"lon":5.393687,"is_reserved":false,"is_disabled":false,"rental_uris":{"android":"levelo://app?vid=8d8e0590-e69b-4991-ab2e-02e3ba717a3b","ios":"levelo://app?vid=8d8e0590-e69b-4991-ab2e-02e3ba717a3b"},"vehicle_type_id":"4","last_reported":1690700758,"current_range_meters":31200,"station_id":"ce4bh0p2rcd13ifvqd80","pricing_plan_id":"free"},{"bike_id":"3b0e2b2c-5813-4333-ae6b-3db59151bf01","system_id":"levelo_inurba_marseille","lat":43.293009,"lon":5.374584,"is_reserved":false,"is_disabled":false,"rental_uris":{"android":"levelo://app?vid=3b0e2b2c-5813-4333-ae6b-3db59151bf01","ios":"levelo://app?vid=3b0e2b2c-5813-4333-ae6b-3db59151bf01"},"vehicle_type_id":"4","last_reported":1690700758,"current_range_meters":28000,"station_id":"ce4bgi12rcd13ifvqb70","pricing_plan_id":"free"},{"bike_id":"07902971-9d1f-4377-aefd-7c201cfdc135","system_id":"levelo_inurba_marseille","lat":43.30301,"lon":5.39211,"is_reserved":false,"is_disabled":false,"rental_uris":{"android":"levelo://app?vid=07902971-9d1f-4377-aefd-7c201cfdc135","ios":"levelo://app?vid=07902971-9d1f-4377-aefd-7c201cfdc135"},"vehicle_type_id":"4","last_reported":1690700758,"current_range_meters":31200,"station_id":"ce4bgkh2rcd13ifvqbk0","pricing_plan_id":"free"},{"bike_id":"bf02f20e-9669-4293-8436-255b6610207d","system_id":"levelo_inurba_marseille","lat":43.303,"lon":5.39214,"is_reserved":false,"is_disabled":false,"rental_uris":{"android":"levelo://app?vid=bf02f20e-9669-4293-8436-255b6610207d","ios":"levelo://app?vid=bf02f20e-9669-4293-8436-255b6610207d"},"vehicle_type_id":"4","last_reported":1690700758,"current_range_meters":26000,"station_id":"ce4bgkh2rcd13ifvqbk0","pricing_plan_id":"free"},{"bike_id":"a63dcc51-82a4-4966-a0f9-9a582f0ae547","system_id":"levelo_inurba_marseille","lat":43.30298,"lon":5.39218,"is_reserved":false,"is_disabled":false,"rental_uris":{"android":"levelo://app?vid=a63dcc51-82a4-4966-a0f9-9a582f0ae547","ios":"levelo://app?vid=a63dcc51-82a4-4966-a0f9-9a582f0ae547"},"vehicle_type_id":"4","last_reported":1690700758,"current_range_meters":29600,"station_id":"ce4bgkh2rcd13ifvqbk0","pricing_plan_id":"free"},{"bike_id":"61a8d575-210f-4c10-990d-8da0ac03aac7","system_id":"levelo_inurba_marseille","lat":43.30085,"lon":5.390856,"is_reserved":false,"is_disabled":false,"rental_uris":{"android":"levelo://app?vid=61a8d575-210f-4c10-990d-8da0ac03aac7","ios":"levelo://app?vid=61a8d575-210f-4c10-990d-8da0ac03aac7"},"vehicle_type_id":"4","last_reported":1690700758,"current_range_meters":28400,"station_id":"ce4bh192rcd13ifvqdb0","pricing_plan_id":"free"},{"bike_id":"8eb9a8b9-4ea6-41c7-aebd-d3a1609bb202","system_id":"levelo_inurba_marseille","lat":43.291738,"lon":5.371508,"is_reserved":false,"is_disabled":false,"rental_uris":{"android":"levelo://app?vid=8eb9a8b9-4ea6-41c7-aebd-d3a1609bb202","ios":"levelo://app?vid=8eb9a8b9-4ea6-41c7-aebd-d3a1609bb202"},"vehicle_type_id":"4","last_reported":1690700758,"current_range_meters":29200,"station_id":"","pricing_plan_id":"free"},{"bike_id":"628f67b8-aa2a-402a-afe7-e7fef571a01c","system_id":"levelo_inurba_marseille","lat":43.298764,"lon":5.388973,"is_reserved":false,"is_disabled":false,"rental_uris":{"android":"levelo://app?vid=628f67b8-aa2a-402a-afe7-e7fef571a01c","ios":"levelo://app?vid=628f67b8-aa2a-402a-afe7-e7fef571a01c"},"vehicle_type_id":"4","last_reported":1690700758,"current_range_meters":31200,"station_id":"ce4bh392rcd13ifvqdl0","pricing_plan_id":"free"},{"bike_id":"96017152-f43b-4fe3-b929-d6ec23fb5f1c","system_id":"levelo_inurba_marseille","lat":43.292,"lon":5.35811,"is_reserved":false,"is_disabled":false,"rental_uris":{"android":"levelo://app?vid=96017152-f43b-4fe3-b929-d6ec23fb5f1c","ios":"levelo://app?vid=96017152-f43b-4fe3-b929-d6ec23fb5f1c"},"vehicle_type_id":"4","last_reported":1690700758,"current_range_meters":2400,"station_id":"ce4bhb12rcd13ifvqel0","pricing_plan_id":"free"},{"bike_id":"749e6216-5813-4557-b5ac-22ddbee1a2cb","system_id":"levelo_inurba_marseille","lat":43.309038,"lon":5.396546,"is_reserved":false,"is_disabled":false,"rental_uris":{"android":"levelo://app?vid=749e6216-5813-4557-b5ac-22ddbee1a2cb","ios":"levelo://app?vid=749e6216-5813-4557-b5ac-22ddbee1a2cb"},"vehicle_type_id":"4","last_reported":1690700758,"current_range_meters":17600,"station_id":"ce4bh012rcd13ifvqcv0","pricing_plan_id":"free"},{"bike_id":"d645ba07-2814-4a6f-8934-c9ee5d2b18a9","system_id":"levelo_inurba_marseille","lat":43.30882,"lon":5.39636,"is_reserved":false,"is_disabled":false,"rental_uris":{"android":"levelo://app?vid=d645ba07-2814-4a6f-8934-c9ee5d2b18a9","ios":"levelo://app?vid=d645ba07-2814-4a6f-8934-c9ee5d2b18a9"},"vehicle_type_id":"4","last_reported":1690700758,"current_range_meters":14400,"station_id":"ce4bh012rcd13ifvqcv0","pricing_plan_id":"free"},{"bike_id":"37af7b51-de40-4409-a74e-d62ef29b5166","system_id":"levelo_inurba_marseille","lat":43.309038,"lon":5.396546,"is_reserved":false,"is_disabled":false,"rental_uris":{"android":"levelo://app?vid=37af7b51-de40-4409-a74e-d62ef29b5166","ios":"levelo://app?vid=37af7b51-de40-4409-a74e-d62ef29b5166"},"vehicle_type_id":"4","last_reported":1690700758,"current_range_meters":21600,"station_id":"ce4bh012rcd13ifvqcv0","pricing_plan_id":"free"},{"bike_id":"d11bb5f3-d4d3-4e13-93de-11496c310a56","system_id":"levelo_inurba_marseille","lat":43.29194,"lon":5.35799,"is_reserved":false,"is_disabled":false,"rental_uris":{"android":"levelo://app?vid=d11bb5f3-d4d3-4e13-93de-11496c310a56","ios":"levelo://app?vid=d11bb5f3-d4d3-4e13-93de-11496c310a56"},"vehicle_type_id":"4","last_reported":1690700758,"current_range_meters":19600,"station_id":"ce4bhb12rcd13ifvqel0","pricing_plan_id":"free"},{"bike_id":"9d5932e1-1ecb-4e4b-9834-7daa501ba578","system_id":"levelo_inurba_marseille","lat":43.313291,"lon":5.396838,"is_reserved":false,"is_disabled":false,"rental_uris":{"android":"levelo://app?vid=9d5932e1-1ecb-4e4b-9834-7daa501ba578","ios":"levelo://app?vid=9d5932e1-1ecb-4e4b-9834-7daa501ba578"},"vehicle_type_id":"4","last_reported":1690700758,"current_range_meters":24400,"station_id":"ce4bgvp2rcd13ifvqcu0","pricing_plan_id":"free"},{"bike_id":"d4b00351-7968-4125-84f1-930fb0442276","system_id":"levelo_inurba_marseille","lat":43.31332,"lon":5.39689,"is_reserved":false,"is_disabled":false,"rental_uris":{"android":"levelo://app?vid=d4b00351-7968-4125-84f1-930fb0442276","ios":"levelo://app?vid=d4b00351-7968-4125-84f1-930fb0442276"},"vehicle_type_id":"4","last_reported":1690700758,"current_range_meters":25200,"station_id":"ce4bgvp2rcd13ifvqcu0","pricing_plan_id":"free"},{"bike_id":"fd6b9e9e-d62f-4af4-a98d-736347042a9b","system_id":"levelo_inurba_marseille","lat":43.29191,"lon":5.35794,"is_reserved":false,"is_disabled":false,"rental_uris":{"android":"levelo://app?vid=fd6b9e9e-d62f-4af4-a98d-736347042a9b","ios":"levelo://app?vid=fd6b9e9e-d62f-4af4-a98d-736347042a9b"},"vehicle_type_id":"4","last_reported":1690700758,"current_range_meters":16000,"station_id":"ce4bhb12rcd13ifvqel0","pricing_plan_id":"free"},{"bike_id":"6618072e-71e2-459b-b7c7-bda622339b06","system_id":"levelo_inurba_marseille","lat":43.31328,"lon":5.39693,"is_reserved":false,"is_disabled":false,"rental_uris":{"android":"levelo://app?vid=6618072e-71e2-459b-b7c7-bda622339b06","ios":"levelo://app?vid=6618072e-71e2-459b-b7c7-bda622339b06"},"vehicle_type_id":"4","last_reported":1690700758,"current_range_meters":31200,"station_id":"ce4bgvp2rcd13ifvqcu0","pricing_plan_id":"free"},{"bike_id":"9213c0ee-4e64-4b88-bb4d-4ee5b90d01ce","system_id":"levelo_inurba_marseille","lat":43.313291,"lon":5.396838,"is_reserved":false,"is_disabled":false,"rental_uris":{"android":"levelo://app?vid=9213c0ee-4e64-4b88-bb4d-4ee5b90d01ce","ios":"levelo://app?vid=9213c0ee-4e64-4b88-bb4d-4ee5b90d01ce"},"vehicle_type_id":"4","last_reported":1690700758,"current_range_meters":22000,"station_id":"ce4bgvp2rcd13ifvqcu0","pricing_plan_id":"free"},{"bike_id":"f65c89e3-4ac5-4277-8a4d-802f78de69ca","system_id":"levelo_inurba_marseille","lat":43.30888,"lon":5.39647,"is_reserved":false,"is_disabled":false,"rental_uris":{"android":"levelo://app?vid=f65c89e3-4ac5-4277-8a4d-802f78de69ca","ios":"levelo://app?vid=f65c89e3-4ac5-4277-8a4d-802f78de69ca"},"vehicle_type_id":"4","last_reported":1690700758,"current_range_meters":29200,"station_id":"ce4bh012rcd13ifvqcv0","pricing_plan_id":"free"},{"bike_id":"39a676aa-a0dd-48ed-b22f-375bf91b01cf","system_id":"levelo_inurba_marseille","lat":43.313291,"lon":5.396838,"is_reserved":false,"is_disabled":false,"rental_uris":{"android":"levelo://app?vid=39a676aa-a0dd-48ed-b22f-375bf91b01cf","ios":"levelo://app?vid=39a676aa-a0dd-48ed-b22f-375bf91b01cf"},"vehicle_type_id":"4","last_reported":1690700758,"current_range_meters":11200,"station_id":"ce4bgvp2rcd13ifvqcu0","pricing_plan_id":"free"},{"bike_id":"c6c55b1c-d4bb-4502-b5d2-8527da4eba7c","system_id":"levelo_inurba_marseille","lat":43.29186,"lon":5.35798,"is_reserved":false,"is_disabled":false,"rental_uris":{"android":"levelo://app?vid=c6c55b1c-d4bb-4502-b5d2-8527da4eba7c","ios":"levelo://app?vid=c6c55b1c-d4bb-4502-b5d2-8527da4eba7c"},"vehicle_type_id":"4","last_reported":1690700758,"current_range_meters":31200,"station_id":"ce4bhb12rcd13ifvqel0","pricing_plan_id":"free"},{"bike_id":"ae76c9c8-b0ec-41c4-8e38-e379ca62cdc6","system_id":"levelo_inurba_marseille","lat":43.309038,"lon":5.396546,"is_reserved":false,"is_disabled":false,"rental_uris":{"android":"levelo://app?vid=ae76c9c8-b0ec-41c4-8e38-e379ca62cdc6","ios":"levelo://app?vid=ae76c9c8-b0ec-41c4-8e38-e379ca62cdc6"},"vehicle_type_id":"4","last_reported":1690700758,"current_range_meters":24000,"station_id":"ce4bh012rcd13ifvqcv0","pricing_plan_id":"free"},{"bike_id":"d4ff709a-e4f6-4600-a28b-ce492dd35705","system_id":"levelo_inurba_marseille","lat":43.3088,"lon":5.39653,"is_reserved":false,"is_disabled":false,"rental_uris":{"android":"levelo://app?vid=d4ff709a-e4f6-4600-a28b-ce492dd35705","ios":"levelo://app?vid=d4ff709a-e4f6-4600-a28b-ce492dd35705"},"vehicle_type_id":"4","last_reported":1690700758,"current_range_meters":29600,"station_id":"ce4bh012rcd13ifvqcv0","pricing_plan_id":"free"},{"bike_id":"3e58afc8-28aa-43bd-ab0c-872a293f9939","system_id":"levelo_inurba_marseille","lat":43.29533,"lon":5.38549,"is_reserved":false,"is_disabled":false,"rental_uris":{"android":"levelo://app?vid=3e58afc8-28aa-43bd-ab0c-872a293f9939","ios":"levelo://app?vid=3e58afc8-28aa-43bd-ab0c-872a293f9939"},"vehicle_type_id":"4","last_reported":1690700758,"current_range_meters":800,"station_id":"ce4bgih2rcd13ifvqba0","pricing_plan_id":"free"},{"bike_id":"1900486d-5d6a-401e-9812-bcc4dfb8f525","system_id":"levelo_inurba_marseille","lat":43.29529,"lon":5.385581,"is_reserved":false,"is_disabled":false,"rental_uris":{"android":"levelo://app?vid=1900486d-5d6a-401e-9812-bcc4dfb8f525","ios":"levelo://app?vid=1900486d-5d6a-401e-9812-bcc4dfb8f525"},"vehicle_type_id":"4","last_reported":1690700758,"current_range_meters":31200,"station_id":"ce4bgih2rcd13ifvqba0","pricing_plan_id":"free"},{"bike_id":"24f299c7-4ebc-4947-a67e-e1aaa980dd14","system_id":"levelo_inurba_marseille","lat":43.302008,"lon":5.394694,"is_reserved":false,"is_disabled":false,"rental_uris":{"android":"levelo://app?vid=24f299c7-4ebc-4947-a67e-e1aaa980dd14","ios":"levelo://app?vid=24f299c7-4ebc-4947-a67e-e1aaa980dd14"},"vehicle_type_id":"4","last_reported":1690700758,"current_range_meters":31200,"station_id":"ce4bh0p2rcd13ifvqd70","pricing_plan_id":"free"},{"bike_id":"1f014f73-d156-40cb-886f-3887ecf335a7","system_id":"levelo_inurba_marseille","lat":43.294162,"lon":5.386292,"is_reserved":false,"is_disabled":false,"rental_uris":{"android":"levelo://app?vid=1f014f73-d156-40cb-886f-3887ecf335a7","ios":"levelo://app?vid=1f014f73-d156-40cb-886f-3887ecf335a7"},"vehicle_type_id":"4","last_reported":1690700758,"current_range_meters":24800,"station_id":"ce4bh2h2rcd13ifvqdh0","pricing_plan_id":"free"},{"bike_id":"44890c1d-eea9-4e1d-a181-cbc4a662c0e4","system_id":"levelo_inurba_marseille","lat":43.29018,"lon":5.37569,"is_reserved":false,"is_disabled":false,"rental_uris":{"android":"levelo://app?vid=44890c1d-eea9-4e1d-a181-cbc4a662c0e4","ios":"levelo://app?vid=44890c1d-eea9-4e1d-a181-cbc4a662c0e4"},"vehicle_type_id":"4","last_reported":1690700758,"current_range_meters":29600,"station_id":"ce4bh692rcd13ifvqe90","pricing_plan_id":"free"},{"bike_id":"397e0ab2-df7a-4bd5-a5a9-0961dc104aa4","system_id":"levelo_inurba_marseille","lat":43.304274,"lon":5.397513,"is_reserved":false,"is_disabled":false,"rental_uris":{"android":"levelo://app?vid=397e0ab2-df7a-4bd5-a5a9-0961dc104aa4","ios":"levelo://app?vid=397e0ab2-df7a-4bd5-a5a9-0961dc104aa4"},"vehicle_type_id":"4","last_reported":1690700758,"current_range_meters":19200,"station_id":"ce4bh092rcd13ifvqd20","pricing_plan_id":"free"},{"bike_id":"28929931-333a-4b9c-82ba-1bf4bffbd97b","system_id":"levelo_inurba_marseille","lat":43.30417,"lon":5.39746,"is_reserved":false,"is_disabled":false,"rental_uris":{"android":"levelo://app?vid=28929931-333a-4b9c-82ba-1bf4bffbd97b","ios":"levelo://app?vid=28929931-333a-4b9c-82ba-1bf4bffbd97b"},"vehicle_type_id":"4","last_reported":1690700758,"current_range_meters":31200,"station_id":"ce4bh092rcd13ifvqd20","pricing_plan_id":"free"},{"bike_id":"2b9d5b7f-de2d-4d7d-8b10-ffcfb486c31a","system_id":"levelo_inurba_marseille","lat":43.30424,"lon":5.39758,"is_reserved":false,"is_disabled":false,"rental_uris":{"android":"levelo://app?vid=2b9d5b7f-de2d-4d7d-8b10-ffcfb486c31a","ios":"levelo://app?vid=2b9d5b7f-de2d-4d7d-8b10-ffcfb486c31a"},"vehicle_type_id":"4","last_reported":1690700758,"current_range_meters":31200,"station_id":"ce4bh092rcd13ifvqd20","pricing_plan_id":"free"},{"bike_id":"d8132d11-7d1d-4eb1-907e-a79177a55510","system_id":"levelo_inurba_marseille","lat":43.330444,"lon":5.389052,"is_reserved":false,"is_disabled":false,"rental_uris":{"android":"levelo://app?vid=d8132d11-7d1d-4eb1-907e-a79177a55510","ios":"levelo://app?vid=d8132d11-7d1d-4eb1-907e-a79177a55510"},"vehicle_type_id":"4","last_reported":1690700758,"current_range_meters":13200,"station_id":"ce4bhr92rcd13ifvqhrg","pricing_plan_id":"free"},{"bike_id":"0632e3dc-4ead-4dba-8dfb-3362f3ba9823","system_id":"levelo_inurba_marseille","lat":43.33039,"lon":5.38917,"is_reserved":false,"is_disabled":false,"rental_uris":{"android":"levelo://app?vid=0632e3dc-4ead-4dba-8dfb-3362f3ba9823","ios":"levelo://app?vid=0632e3dc-4ead-4dba-8dfb-3362f3ba9823"},"vehicle_type_id":"4","last_reported":1690700758,"current_range_meters":24400,"station_id":"ce4bhr92rcd13ifvqhrg","pricing_plan_id":"free"},{"bike_id":"45c704c0-c2a3-4dbf-a77b-e7e50645392f","system_id":"levelo_inurba_marseille","lat":43.33037,"lon":5.3892,"is_reserved":false,"is_disabled":false,"rental_uris":{"android":"levelo://app?vid=45c704c0-c2a3-4dbf-a77b-e7e50645392f","ios":"levelo://app?vid=45c704c0-c2a3-4dbf-a77b-e7e50645392f"},"vehicle_type_id":"4","last_reported":1690700758,"current_range_meters":30000,"station_id":"ce4bhr92rcd13ifvqhrg","pricing_plan_id":"free"},{"bike_id":"66b8030f-419e-4118-95bc-2bcb6a2b6267","system_id":"levelo_inurba_marseille","lat":43.33043,"lon":5.38912,"is_reserved":false,"is_disabled":false,"rental_uris":{"android":"levelo://app?vid=66b8030f-419e-4118-95bc-2bcb6a2b6267","ios":"levelo://app?vid=66b8030f-419e-4118-95bc-2bcb6a2b6267"},"vehicle_type_id":"4","last_reported":1690700758,"current_range_meters":31200,"station_id":"ce4bhr92rcd13ifvqhrg","pricing_plan_id":"free"},{"bike_id":"88805126-cb4f-4301-97ee-991ee73d2c83","system_id":"levelo_inurba_marseille","lat":43.33041,"lon":5.38916,"is_reserved":false,"is_disabled":false,"rental_uris":{"android":"levelo://app?vid=88805126-cb4f-4301-97ee-991ee73d2c83","ios":"levelo://app?vid=88805126-cb4f-4301-97ee-991ee73d2c83"},"vehicle_type_id":"4","last_reported":1690700758,"current_range_meters":31200,"station_id":"ce4bhr92rcd13ifvqhrg","pricing_plan_id":"free"},{"bike_id":"b11f1067-6cd7-48d3-a1c6-0c9afe78097b","system_id":"levelo_inurba_marseille","lat":43.33041,"lon":5.38916,"is_reserved":false,"is_disabled":false,"rental_uris":{"android":"levelo://app?vid=b11f1067-6cd7-48d3-a1c6-0c9afe78097b","ios":"levelo://app?vid=b11f1067-6cd7-48d3-a1c6-0c9afe78097b"},"vehicle_type_id":"4","last_reported":1690700758,"current_range_meters":18400,"station_id":"ce4bhr92rcd13ifvqhrg","pricing_plan_id":"free"},{"bike_id":"95efe035-f1ee-4904-b5d5-88f29d014ea7","system_id":"levelo_inurba_marseille","lat":43.33045,"lon":5.38912,"is_reserved":false,"is_disabled":false,"rental_uris":{"android":"levelo://app?vid=95efe035-f1ee-4904-b5d5-88f29d014ea7","ios":"levelo://app?vid=95efe035-f1ee-4904-b5d5-88f29d014ea7"},"vehicle_type_id":"4","last_reported":1690700758,"current_range_meters":21600,"station_id":"ce4bhr92rcd13ifvqhrg","pricing_plan_id":"free"},{"bike_id":"a636eec4-b719-4e6f-b179-4c8cadeba60e","system_id":"levelo_inurba_marseille","lat":43.33042,"lon":5.38917,"is_reserved":false,"is_disabled":false,"rental_uris":{"android":"levelo://app?vid=a636eec4-b719-4e6f-b179-4c8cadeba60e","ios":"levelo://app?vid=a636eec4-b719-4e6f-b179-4c8cadeba60e"},"vehicle_type_id":"4","last_reported":1690700758,"current_range_meters":20000,"station_id":"ce4bhr92rcd13ifvqhrg","pricing_plan_id":"free"},{"bike_id":"796e70f5-8414-465b-ac61-42bbdf301266","system_id":"levelo_inurba_marseille","lat":43.33042,"lon":5.38917,"is_reserved":false,"is_disabled":false,"rental_uris":{"android":"levelo://app?vid=796e70f5-8414-465b-ac61-42bbdf301266","ios":"levelo://app?vid=796e70f5-8414-465b-ac61-42bbdf301266"},"vehicle_type_id":"4","last_reported":1690700758,"current_range_meters":16000,"station_id":"ce4bhr92rcd13ifvqhrg","pricing_plan_id":"free"},{"bike_id":"8ce2eb91-3190-42f2-9129-1ca28f4fad21","system_id":"levelo_inurba_marseille","lat":43.33039,"lon":5.38922,"is_reserved":false,"is_disabled":false,"rental_uris":{"android":"levelo://app?vid=8ce2eb91-3190-42f2-9129-1ca28f4fad21","ios":"levelo://app?vid=8ce2eb91-3190-42f2-9129-1ca28f4fad21"},"vehicle_type_id":"4","last_reported":1690700758,"current_range_meters":31200,"station_id":"ce4bhr92rcd13ifvqhrg","pricing_plan_id":"free"},{"bike_id":"15826b93-93a4-4083-bb32-5201a2212194","system_id":"levelo_inurba_marseille","lat":43.3304,"lon":5.38921,"is_reserved":false,"is_disabled":false,"rental_uris":{"android":"levelo://app?vid=15826b93-93a4-4083-bb32-5201a2212194","ios":"levelo://app?vid=15826b93-93a4-4083-bb32-5201a2212194"},"vehicle_type_id":"4","last_reported":1690700758,"current_range_meters":31200,"station_id":"ce4bhr92rcd13ifvqhrg","pricing_plan_id":"free"},{"bike_id":"4031e07c-3812-4dd4-9840-651d80dc70e1","system_id":"levelo_inurba_marseille","lat":43.33039,"lon":5.38923,"is_reserved":false,"is_disabled":false,"rental_uris":{"android":"levelo://app?vid=4031e07c-3812-4dd4-9840-651d80dc70e1","ios":"levelo://app?vid=4031e07c-3812-4dd4-9840-651d80dc70e1"},"vehicle_type_id":"4","last_reported":1690700758,"current_range_meters":31200,"station_id":"ce4bhr92rcd13ifvqhrg","pricing_plan_id":"free"},{"bike_id":"9e62e635-3ba1-4491-b5e4-9ed5f3656f44","system_id":"levelo_inurba_marseille","lat":43.33041,"lon":5.38923,"is_reserved":false,"is_disabled":false,"rental_uris":{"android":"levelo://app?vid=9e62e635-3ba1-4491-b5e4-9ed5f3656f44","ios":"levelo://app?vid=9e62e635-3ba1-4491-b5e4-9ed5f3656f44"},"vehicle_type_id":"4","last_reported":1690700758,"current_range_meters":18800,"station_id":"ce4bhr92rcd13ifvqhrg","pricing_plan_id":"free"},{"bike_id":"8bca0c20-8ca7-4bea-b050-dcc0818b5b7a","system_id":"levelo_inurba_marseille","lat":43.33044,"lon":5.38921,"is_reserved":false,"is_disabled":false,"rental_uris":{"android":"levelo://app?vid=8bca0c20-8ca7-4bea-b050-dcc0818b5b7a","ios":"levelo://app?vid=8bca0c20-8ca7-4bea-b050-dcc0818b5b7a"},"vehicle_type_id":"4","last_reported":1690700758,"current_range_meters":17600,"station_id":"ce4bhr92rcd13ifvqhrg","pricing_plan_id":"free"},{"bike_id":"134ef223-0af9-48f2-bbd1-4d84dd8cb35c","system_id":"levelo_inurba_marseille","lat":43.290104,"lon":5.356111,"is_reserved":false,"is_disabled":false,"rental_uris":{"android":"levelo://app?vid=134ef223-0af9-48f2-bbd1-4d84dd8cb35c","ios":"levelo://app?vid=134ef223-0af9-48f2-bbd1-4d84dd8cb35c"},"vehicle_type_id":"4","last_reported":1690700758,"current_range_meters":31200,"station_id":"ce4bhb92rcd13ifvqen0","pricing_plan_id":"free"},{"bike_id":"c2800087-0a33-4156-b90a-bbe98d050b3d","system_id":"levelo_inurba_marseille","lat":43.33048,"lon":5.38918,"is_reserved":false,"is_disabled":false,"rental_uris":{"android":"levelo://app?vid=c2800087-0a33-4156-b90a-bbe98d050b3d","ios":"levelo://app?vid=c2800087-0a33-4156-b90a-bbe98d050b3d"},"vehicle_type_id":"4","last_reported":1690700758,"current_range_meters":18000,"station_id":"ce4bhr92rcd13ifvqhrg","pricing_plan_id":"free"},{"bike_id":"6c0c89dc-30ff-421c-8fe5-242e31b8b7c8","system_id":"levelo_inurba_marseille","lat":43.290995,"lon":5.381361,"is_reserved":false,"is_disabled":false,"rental_uris":{"android":"levelo://app?vid=6c0c89dc-30ff-421c-8fe5-242e31b8b7c8","ios":"levelo://app?vid=6c0c89dc-30ff-421c-8fe5-242e31b8b7c8"},"vehicle_type_id":"4","last_reported":1690700758,"current_range_meters":23200,"station_id":"ce4bh512rcd13ifvqe2g","pricing_plan_id":"free"},{"bike_id":"d296482a-e223-4a02-9d66-e6ae9093b911","system_id":"levelo_inurba_marseille","lat":43.29091,"lon":5.38113,"is_reserved":false,"is_disabled":false,"rental_uris":{"android":"levelo://app?vid=d296482a-e223-4a02-9d66-e6ae9093b911","ios":"levelo://app?vid=d296482a-e223-4a02-9d66-e6ae9093b911"},"vehicle_type_id":"4","last_reported":1690700758,"current_range_meters":0,"station_id":"","pricing_plan_id":"free"},{"bike_id":"05bf2cc0-c80b-4d3b-9303-5cea93148e89","system_id":"levelo_inurba_marseille","lat":43.290995,"lon":5.381361,"is_reserved":false,"is_disabled":false,"rental_uris":{"android":"levelo://app?vid=05bf2cc0-c80b-4d3b-9303-5cea93148e89","ios":"levelo://app?vid=05bf2cc0-c80b-4d3b-9303-5cea93148e89"},"vehicle_type_id":"4","last_reported":1690700758,"current_range_meters":29600,"station_id":"ce4bh512rcd13ifvqe2g","pricing_plan_id":"free"},{"bike_id":"818ed24c-d5b8-4a90-b5b5-46aec9b0cc57","system_id":"levelo_inurba_marseille","lat":43.29792,"lon":5.39327,"is_reserved":false,"is_disabled":false,"rental_uris":{"android":"levelo://app?vid=818ed24c-d5b8-4a90-b5b5-46aec9b0cc57","ios":"levelo://app?vid=818ed24c-d5b8-4a90-b5b5-46aec9b0cc57"},"vehicle_type_id":"4","last_reported":1690700758,"current_range_meters":28400,"station_id":"chh1huq6cuj3fo74tm60","pricing_plan_id":"free"},{"bike_id":"6be13678-7b83-4e29-8a26-9dfd9a65b83d","system_id":"levelo_inurba_marseille","lat":43.29782,"lon":5.39328,"is_reserved":false,"is_disabled":false,"rental_uris":{"android":"levelo://app?vid=6be13678-7b83-4e29-8a26-9dfd9a65b83d","ios":"levelo://app?vid=6be13678-7b83-4e29-8a26-9dfd9a65b83d"},"vehicle_type_id":"4","last_reported":1690700758,"current_range_meters":27200,"station_id":"chh1huq6cuj3fo74tm60","pricing_plan_id":"free"},{"bike_id":"9c7c889d-62f8-479c-bef9-a81d3f43607a","system_id":"levelo_inurba_marseille","lat":43.29786,"lon":5.39337,"is_reserved":false,"is_disabled":false,"rental_uris":{"android":"levelo://app?vid=9c7c889d-62f8-479c-bef9-a81d3f43607a","ios":"levelo://app?vid=9c7c889d-62f8-479c-bef9-a81d3f43607a"},"vehicle_type_id":"4","last_reported":1690700758,"current_range_meters":31200,"station_id":"chh1huq6cuj3fo74tm60","pricing_plan_id":"free"},{"bike_id":"93150eb9-b5a9-4013-b979-11528514b04b","system_id":"levelo_inurba_marseille","lat":43.297815,"lon":5.393548,"is_reserved":false,"is_disabled":false,"rental_uris":{"android":"levelo://app?vid=93150eb9-b5a9-4013-b979-11528514b04b","ios":"levelo://app?vid=93150eb9-b5a9-4013-b979-11528514b04b"},"vehicle_type_id":"4","last_reported":1690700758,"current_range_meters":31600,"station_id":"chh1huq6cuj3fo74tm60","pricing_plan_id":"free"},{"bike_id":"65fb4e4f-afe6-4f35-b095-db906135fdfa","system_id":"levelo_inurba_marseille","lat":43.295169,"lon":5.390426,"is_reserved":false,"is_disabled":false,"rental_uris":{"android":"levelo://app?vid=65fb4e4f-afe6-4f35-b095-db906135fdfa","ios":"levelo://app?vid=65fb4e4f-afe6-4f35-b095-db906135fdfa"},"vehicle_type_id":"4","last_reported":1690700758,"current_range_meters":29600,"station_id":"ce4bh3p2rcd13ifvqdp0","pricing_plan_id":"free"},{"bike_id":"6419bd13-46cd-4d2d-a93e-2dfdf335bc58","system_id":"levelo_inurba_marseille","lat":43.29784,"lon":5.39349,"is_reserved":false,"is_disabled":false,"rental_uris":{"android":"levelo://app?vid=6419bd13-46cd-4d2d-a93e-2dfdf335bc58","ios":"levelo://app?vid=6419bd13-46cd-4d2d-a93e-2dfdf335bc58"},"vehicle_type_id":"4","last_reported":1690700758,"current_range_meters":13200,"station_id":"chh1huq6cuj3fo74tm60","pricing_plan_id":"free"},{"bike_id":"e35e6a8f-13e5-4193-b4dc-920c89467865","system_id":"levelo_inurba_marseille","lat":43.297815,"lon":5.393548,"is_reserved":false,"is_disabled":false,"rental_uris":{"android":"levelo://app?vid=e35e6a8f-13e5-4193-b4dc-920c89467865","ios":"levelo://app?vid=e35e6a8f-13e5-4193-b4dc-920c89467865"},"vehicle_type_id":"4","last_reported":1690700758,"current_range_meters":12800,"station_id":"chh1huq6cuj3fo74tm60","pricing_plan_id":"free"},{"bike_id":"9c934898-8817-48b4-ae94-5f7dd06f6af4","system_id":"levelo_inurba_marseille","lat":43.28856,"lon":5.358371,"is_reserved":false,"is_disabled":false,"rental_uris":{"android":"levelo://app?vid=9c934898-8817-48b4-ae94-5f7dd06f6af4","ios":"levelo://app?vid=9c934898-8817-48b4-ae94-5f7dd06f6af4"},"vehicle_type_id":"4","last_reported":1690700758,"current_range_meters":26400,"station_id":"ce4bhb12rcd13ifvqem0","pricing_plan_id":"free"},{"bike_id":"39f6e422-34ea-4b03-b5d4-de58cf51b715","system_id":"levelo_inurba_marseille","lat":43.31277,"lon":5.40161,"is_reserved":false,"is_disabled":false,"rental_uris":{"android":"levelo://app?vid=39f6e422-34ea-4b03-b5d4-de58cf51b715","ios":"levelo://app?vid=39f6e422-34ea-4b03-b5d4-de58cf51b715"},"vehicle_type_id":"4","last_reported":1690700758,"current_range_meters":0,"station_id":"ce4bh092rcd13ifvqd30","pricing_plan_id":"free"},{"bike_id":"6712d572-5230-47fd-b324-a697d1bbc1a7","system_id":"levelo_inurba_marseille","lat":43.31284,"lon":5.40162,"is_reserved":false,"is_disabled":false,"rental_uris":{"android":"levelo://app?vid=6712d572-5230-47fd-b324-a697d1bbc1a7","ios":"levelo://app?vid=6712d572-5230-47fd-b324-a697d1bbc1a7"},"vehicle_type_id":"4","last_reported":1690700758,"current_range_meters":26000,"station_id":"ce4bh092rcd13ifvqd30","pricing_plan_id":"free"},{"bike_id":"3498ab04-5bf6-4cf9-a817-c77db518793e","system_id":"levelo_inurba_marseille","lat":43.30938,"lon":5.40141,"is_reserved":false,"is_disabled":false,"rental_uris":{"android":"levelo://app?vid=3498ab04-5bf6-4cf9-a817-c77db518793e","ios":"levelo://app?vid=3498ab04-5bf6-4cf9-a817-c77db518793e"},"vehicle_type_id":"4","last_reported":1690700758,"current_range_meters":31200,"station_id":"ce4bgvp2rcd13ifvqct0","pricing_plan_id":"free"},{"bike_id":"8fedc5b7-1118-477b-987f-0c9db06be606","system_id":"levelo_inurba_marseille","lat":43.30926,"lon":5.40141,"is_reserved":false,"is_disabled":false,"rental_uris":{"android":"levelo://app?vid=8fedc5b7-1118-477b-987f-0c9db06be606","ios":"levelo://app?vid=8fedc5b7-1118-477b-987f-0c9db06be606"},"vehicle_type_id":"4","last_reported":1690700758,"current_range_meters":29600,"station_id":"ce4bgvp2rcd13ifvqct0","pricing_plan_id":"free"},{"bike_id":"d6a1b16b-955b-4df1-8acb-882abc264217","system_id":"levelo_inurba_marseille","lat":43.30642,"lon":5.401031,"is_reserved":false,"is_disabled":false,"rental_uris":{"android":"levelo://app?vid=d6a1b16b-955b-4df1-8acb-882abc264217","ios":"levelo://app?vid=d6a1b16b-955b-4df1-8acb-882abc264217"},"vehicle_type_id":"4","last_reported":1690700758,"current_range_meters":27200,"station_id":"ce4bh112rcd13ifvqda0","pricing_plan_id":"free"},{"bike_id":"845edb28-242a-48e3-830e-444c3fe9f568","system_id":"levelo_inurba_marseille","lat":43.3093,"lon":5.40144,"is_reserved":false,"is_disabled":false,"rental_uris":{"android":"levelo://app?vid=845edb28-242a-48e3-830e-444c3fe9f568","ios":"levelo://app?vid=845edb28-242a-48e3-830e-444c3fe9f568"},"vehicle_type_id":"4","last_reported":1690700758,"current_range_meters":31200,"station_id":"ce4bgvp2rcd13ifvqct0","pricing_plan_id":"free"},{"bike_id":"e7bccbd7-ddd6-4572-9e59-bb29a5975027","system_id":"levelo_inurba_marseille","lat":43.30928,"lon":5.40146,"is_reserved":false,"is_disabled":false,"rental_uris":{"android":"levelo://app?vid=e7bccbd7-ddd6-4572-9e59-bb29a5975027","ios":"levelo://app?vid=e7bccbd7-ddd6-4572-9e59-bb29a5975027"},"vehicle_type_id":"4","last_reported":1690700758,"current_range_meters":29200,"station_id":"ce4bgvp2rcd13ifvqct0","pricing_plan_id":"free"},{"bike_id":"6d04d2dd-03fa-4724-8d0d-0293b5ba0fec","system_id":"levelo_inurba_marseille","lat":43.30642,"lon":5.401031,"is_reserved":false,"is_disabled":false,"rental_uris":{"android":"levelo://app?vid=6d04d2dd-03fa-4724-8d0d-0293b5ba0fec","ios":"levelo://app?vid=6d04d2dd-03fa-4724-8d0d-0293b5ba0fec"},"vehicle_type_id":"4","last_reported":1690700758,"current_range_meters":11600,"station_id":"ce4bh112rcd13ifvqda0","pricing_plan_id":"free"},{"bike_id":"9f688603-e9c3-4794-9f62-ef0d59dced32","system_id":"levelo_inurba_marseille","lat":43.3094,"lon":5.40151,"is_reserved":false,"is_disabled":false,"rental_uris":{"android":"levelo://app?vid=9f688603-e9c3-4794-9f62-ef0d59dced32","ios":"levelo://app?vid=9f688603-e9c3-4794-9f62-ef0d59dced32"},"vehicle_type_id":"4","last_reported":1690700758,"current_range_meters":31200,"station_id":"ce4bgvp2rcd13ifvqct0","pricing_plan_id":"free"},{"bike_id":"144d72b0-9c63-476a-84ba-60c80581f603","system_id":"levelo_inurba_marseille","lat":43.30936,"lon":5.40152,"is_reserved":false,"is_disabled":false,"rental_uris":{"android":"levelo://app?vid=144d72b0-9c63-476a-84ba-60c80581f603","ios":"levelo://app?vid=144d72b0-9c63-476a-84ba-60c80581f603"},"vehicle_type_id":"4","last_reported":1690700758,"current_range_meters":22400,"station_id":"ce4bgvp2rcd13ifvqct0","pricing_plan_id":"free"},{"bike_id":"d25ccd34-4a37-4b0d-9b6e-26aa79dde1a3","system_id":"levelo_inurba_marseille","lat":43.30644,"lon":5.40075,"is_reserved":false,"is_disabled":false,"rental_uris":{"android":"levelo://app?vid=d25ccd34-4a37-4b0d-9b6e-26aa79dde1a3","ios":"levelo://app?vid=d25ccd34-4a37-4b0d-9b6e-26aa79dde1a3"},"vehicle_type_id":"4","last_reported":1690700758,"current_range_meters":26400,"station_id":"ce4bh112rcd13ifvqda0","pricing_plan_id":"free"},{"bike_id":"a43525f9-c989-490f-93b5-f2346ddd3c40","system_id":"levelo_inurba_marseille","lat":43.30642,"lon":5.401031,"is_reserved":false,"is_disabled":false,"rental_uris":{"android":"levelo://app?vid=a43525f9-c989-490f-93b5-f2346ddd3c40","ios":"levelo://app?vid=a43525f9-c989-490f-93b5-f2346ddd3c40"},"vehicle_type_id":"4","last_reported":1690700758,"current_range_meters":11600,"station_id":"ce4bh112rcd13ifvqda0","pricing_plan_id":"free"},{"bike_id":"8acbaa28-e60d-4d44-aa13-8de0d87640a4","system_id":"levelo_inurba_marseille","lat":43.309371,"lon":5.401449,"is_reserved":false,"is_disabled":false,"rental_uris":{"android":"levelo://app?vid=8acbaa28-e60d-4d44-aa13-8de0d87640a4","ios":"levelo://app?vid=8acbaa28-e60d-4d44-aa13-8de0d87640a4"},"vehicle_type_id":"4","last_reported":1690700758,"current_range_meters":31200,"station_id":"ce4bgvp2rcd13ifvqct0","pricing_plan_id":"free"},{"bike_id":"2fee5b92-3037-4806-8494-c26d45ebd96f","system_id":"levelo_inurba_marseille","lat":43.30929,"lon":5.40154,"is_reserved":false,"is_disabled":false,"rental_uris":{"android":"levelo://app?vid=2fee5b92-3037-4806-8494-c26d45ebd96f","ios":"levelo://app?vid=2fee5b92-3037-4806-8494-c26d45ebd96f"},"vehicle_type_id":"4","last_reported":1690700758,"current_range_meters":22800,"station_id":"ce4bgvp2rcd13ifvqct0","pricing_plan_id":"free"},{"bike_id":"6b45dcf3-69d7-4f6a-8c2c-2415112fbbb9","system_id":"levelo_inurba_marseille","lat":43.30638,"lon":5.4008,"is_reserved":false,"is_disabled":false,"rental_uris":{"android":"levelo://app?vid=6b45dcf3-69d7-4f6a-8c2c-2415112fbbb9","ios":"levelo://app?vid=6b45dcf3-69d7-4f6a-8c2c-2415112fbbb9"},"vehicle_type_id":"4","last_reported":1690700758,"current_range_meters":17200,"station_id":"ce4bh112rcd13ifvqda0","pricing_plan_id":"free"},{"bike_id":"91dd67bf-f105-4daa-ad01-50bb0e017b84","system_id":"levelo_inurba_marseille","lat":43.301117,"lon":5.398795,"is_reserved":false,"is_disabled":false,"rental_uris":{"android":"levelo://app?vid=91dd67bf-f105-4daa-ad01-50bb0e017b84","ios":"levelo://app?vid=91dd67bf-f105-4daa-ad01-50bb0e017b84"},"vehicle_type_id":"4","last_reported":1690700758,"current_range_meters":31200,"station_id":"ce4bh0h2rcd13ifvqd40","pricing_plan_id":"free"},{"bike_id":"1ea01834-fe89-4f4d-b462-c38ad94abbf2","system_id":"levelo_inurba_marseille","lat":43.301117,"lon":5.398795,"is_reserved":false,"is_disabled":false,"rental_uris":{"android":"levelo://app?vid=1ea01834-fe89-4f4d-b462-c38ad94abbf2","ios":"levelo://app?vid=1ea01834-fe89-4f4d-b462-c38ad94abbf2"},"vehicle_type_id":"4","last_reported":1690700758,"current_range_meters":30400,"station_id":"ce4bh0h2rcd13ifvqd40","pricing_plan_id":"free"},{"bike_id":"55d326ab-3450-4781-a618-f14a0c530860","system_id":"levelo_inurba_marseille","lat":43.301117,"lon":5.398795,"is_reserved":false,"is_disabled":false,"rental_uris":{"android":"levelo://app?vid=55d326ab-3450-4781-a618-f14a0c530860","ios":"levelo://app?vid=55d326ab-3450-4781-a618-f14a0c530860"},"vehicle_type_id":"4","last_reported":1690700758,"current_range_meters":31200,"station_id":"ce4bh0h2rcd13ifvqd40","pricing_plan_id":"free"},{"bike_id":"2a7bf58c-1ee9-4754-8e19-04a2323aff80","system_id":"levelo_inurba_marseille","lat":43.301117,"lon":5.398795,"is_reserved":false,"is_disabled":false,"rental_uris":{"android":"levelo://app?vid=2a7bf58c-1ee9-4754-8e19-04a2323aff80","ios":"levelo://app?vid=2a7bf58c-1ee9-4754-8e19-04a2323aff80"},"vehicle_type_id":"4","last_reported":1690700758,"current_range_meters":31200,"station_id":"ce4bh0h2rcd13ifvqd40","pricing_plan_id":"free"},{"bike_id":"506c439d-c625-422f-970c-b379db8290b0","system_id":"levelo_inurba_marseille","lat":43.301117,"lon":5.398795,"is_reserved":false,"is_disabled":false,"rental_uris":{"android":"levelo://app?vid=506c439d-c625-422f-970c-b379db8290b0","ios":"levelo://app?vid=506c439d-c625-422f-970c-b379db8290b0"},"vehicle_type_id":"4","last_reported":1690700758,"current_range_meters":20000,"station_id":"ce4bh0h2rcd13ifvqd40","pricing_plan_id":"free"},