{"last_updated":1704560756,"ttl":30,"version":"2.2","data":{"bikes":[{"bike_id":"63c5bbe2-e38e-4272-9b99-6308d9583200","system_id":"levelo_inurba_marseille","lat":43.312239,"lon":5.368562,"is_reserved":false,"is_disabled":false,"rental_uris":{"android":"levelo://app?vid=63c5bbe2-e38e-4272-9b99-6308d9583200","ios":"levelo://app?vid=63c5bbe2-e38e-4272-9b99-6308d9583200"},"vehicle_type_id":"4","last_reported":1704560756,"current_range_meters":13600,"station_id":"ce4bgl92rcd13ifvqbq0","pricing_plan_id":"free"},{"bike_id":"f32880fb-3d4e-42d2-a76a-53dd1275acc0","system_id":"levelo_inurba_marseille","lat":43.309076,"lon":5.368465,"is_reserved":false,"is_disabled":false,"rental_uris":{"android":"levelo://app?vid=f32880fb-3d4e-42d2-a76a-53dd1275acc0","ios":"levelo://app?vid=f32880fb-3d4e-42d2-a76a-53dd1275acc0"},"vehicle_type_id":"4","last_reported":1704560756,"current_range_meters":16800,"station_id":"ce4bgn92rcd13ifvqbvg","pricing_plan_id":"free"},{"bike_id":"14ef0add-ad81-4cbd-a4fb-6487d3cfd93e","system_id":"levelo_inurba_marseille","lat":43.309076,"lon":5.368465,"is_reserved":false,"is_disabled":false,"rental_uris":{"android":"levelo://app?vid=14ef0add-ad81-4cbd-a4fb-6487d3cfd93e","ios":"levelo://app?vid=14ef0add-ad81-4cbd-a4fb-6487d3cfd93e"},"vehicle_type_id":"4","last_reported":1704560756,"current_range_meters":3600,"station_id":"ce4bgn92rcd13ifvqbvg","pricing_plan_id":"free"},{"bike_id":"f27eeb9f-5146-4c79-afc8-55fc441894e6","system_id":"levelo_inurba_marseille","lat":43.309076,"lon":5.368465,"is_reserved":false,"is_disabled":false,"rental_uris":{"android":"levelo://app?vid=f27eeb9f-5146-4c79-afc8-55fc441894e6","ios":"levelo://app?vid=f27eeb9f-5146-4c79-afc8-55fc441894e6"},"vehicle_type_id":"4","last_reported":1704560756,"current_range_meters":30400,"station_id":"ce4bgn92rcd13ifvqbvg","pricing_plan_id":"free"},{"bike_id":"2fd0a687-191a-4884-8161-8ed02f6937a1","system_id":"levelo_inurba_marseille","lat":43.309039,"lon":5.371797,"is_reserved":false,"is_disabled":false,"rental_uris":{"android":"levelo://app?vid=2fd0a687-191a-4884-8161-8ed02f6937a1","ios":"levelo://app?vid=2fd0a687-191a-4884-8161-8ed02f6937a1"},"vehicle_type_id":"4","last_reported":1704560756,"current_range_meters":28400,"station_id":"ce4bguh2rcd13ifvqckg","pricing_plan_id":"free"},{"bike_id":"e6faa301-007c-4b5e-9d7c-908bd35a3462","system_id":"levelo_inurba_marseille","lat":43.305368,"lon":5.367343,"is_reserved":false,"is_disabled":false,"rental_uris":{"android":"levelo://app?vid=e6faa301-007c-4b5e-9d7c-908bd35a3462","ios":"levelo://app?vid=e6faa301-007c-4b5e-9d7c-908bd35a3462"},"vehicle_type_id":"4","last_reported":1704560756,"current_range_meters":29200,"station_id":"ce4bgrp2rcd13ifvqc9g","pricing_plan_id":"free"},{"bike_id":"aac5b55b-f09e-4fc0-a25a-ff987f7f828d","system_id":"levelo_inurba_marseille","lat":43.30539,"lon":5.36537,"is_reserved":false,"is_disabled":false,"rental_uris":{"android":"levelo://app?vid=aac5b55b-f09e-4fc0-a25a-ff987f7f828d","ios":"levelo://app?vid=aac5b55b-f09e-4fc0-a25a-ff987f7f828d"},"vehicle_type_id":"4","last_reported":1704560756,"current_range_meters":31200,"station_id":"ce4bgs12rcd13ifvqcag","pricing_plan_id":"free"},{"bike_id":"a891dac8-d270-4b7d-b8bb-0bc9ecf8ab8d","system_id":"levelo_inurba_marseille","lat":43.30538,"lon":5.365313,"is_reserved":false,"is_disabled":false,"rental_uris":{"android":"levelo://app?vid=a891dac8-d270-4b7d-b8bb-0bc9ecf8ab8d","ios":"levelo://app?vid=a891dac8-d270-4b7d-b8bb-0bc9ecf8ab8d"},"vehicle_type_id":"4","last_reported":1704560756,"current_range_meters":0,"station_id":"ce4bgs12rcd13ifvqcag","pricing_plan_id":"free"},{"bike_id":"7fadf6ac-de3e-4a3c-9643-06e933c28957","system_id":"levelo_inurba_marseille","lat":43.305989,"lon":5.37225,"is_reserved":false,"is_disabled":false,"rental_uris":{"android":"levelo://app?vid=7fadf6ac-de3e-4a3c-9643-06e933c28957","ios":"levelo://app?vid=7fadf6ac-de3e-4a3c-9643-06e933c28957"},"vehicle_type_id":"4","last_reported":1704560756,"current_range_meters":26400,"station_id":"ce4bgqh2rcd13ifvqc4g","pricing_plan_id":"free"},{"bike_id":"9c6cca01-7164-42ff-a42d-688b3e3b1a9a","system_id":"levelo_inurba_marseille","lat":43.305989,"lon":5.37225,"is_reserved":false,"is_disabled":false,"rental_uris":{"android":"levelo://app?vid=9c6cca01-7164-42ff-a42d-688b3e3b1a9a","ios":"levelo://app?vid=9c6cca01-7164-42ff-a42d-688b3e3b1a9a"},"vehicle_type_id":"4","last_reported":1704560756,"current_range_meters":4800,"station_id":"ce4bgqh2rcd13ifvqc4g","pricing_plan_id":"free"},{"bike_id":"37e016f2-9841-409c-9268-141b0a205a9a","system_id":"levelo_inurba_marseille","lat":43.311131,"lon":5.377651,"is_reserved":false,"is_disabled":false,"rental_uris":{"android":"levelo://app?vid=37e016f2-9841-409c-9268-141b0a205a9a","ios":"levelo://app?vid=37e016f2-9841-409c-9268-141b0a205a9a"},"vehicle_type_id":"4","last_reported":1704560756,"current_range_meters":0,"station_id":"ce4bgt92rcd13ifvqcg0","pricing_plan_id":"free"},{"bike_id":"eb35d5a5-fda2-4885-ad5e-c93ec5670994","system_id":"levelo_inurba_marseille","lat":43.307945,"lon":5.376487,"is_reserved":false,"is_disabled":false,"rental_uris":{"android":"levelo://app?vid=eb35d5a5-fda2-4885-ad5e-c93ec5670994","ios":"levelo://app?vid=eb35d5a5-fda2-4885-ad5e-c93ec5670994"},"vehicle_type_id":"4","last_reported":1704560756,"current_range_meters":0,"station_id":"ce4bgv92rcd13ifvqcq0","pricing_plan_id":"free"},{"bike_id":"292132f8-c648-4ee1-84e7-ce0e99bfa46f","system_id":"levelo_inurba_marseille","lat":43.317075,"lon":5.377367,"is_reserved":false,"is_disabled":false,"rental_uris":{"android":"levelo://app?vid=292132f8-c648-4ee1-84e7-ce0e99bfa46f","ios":"levelo://app?vid=292132f8-c648-4ee1-84e7-ce0e99bfa46f"},"vehicle_type_id":"4","last_reported":1704560756,"current_range_meters":26800,"station_id":"ce4bgth2rcd13ifvqch0","pricing_plan_id":"free"},{"bike_id":"c4e90871-bb94-4085-82dc-ccbd997a22ca","system_id":"levelo_inurba_marseille","lat":43.31529,"lon":5.37909,"is_reserved":false,"is_disabled":false,"rental_uris":{"android":"levelo://app?vid=c4e90871-bb94-4085-82dc-ccbd997a22ca","ios":"levelo://app?vid=c4e90871-bb94-4085-82dc-ccbd997a22ca"},"vehicle_type_id":"4","last_reported":1704560756,"current_range_meters":9200,"station_id":"","pricing_plan_id":"free"},{"bike_id":"959d6fb5-5420-4555-9236-ace358ad5fc4","system_id":"levelo_inurba_marseille","lat":43.30304,"lon":5.368987,"is_reserved":false,"is_disabled":false,"rental_uris":{"android":"levelo://app?vid=959d6fb5-5420-4555-9236-ace358ad5fc4","ios":"levelo://app?vid=959d6fb5-5420-4555-9236-ace358ad5fc4"},"vehicle_type_id":"4","last_reported":1704560756,"current_range_meters":3200,"station_id":"ce4bgqh2rcd13ifvqc5g","pricing_plan_id":"free"},{"bike_id":"cbabc18f-21ed-464a-b503-ee421e0ca19d","system_id":"levelo_inurba_marseille","lat":43.30304,"lon":5.368987,"is_reserved":false,"is_disabled":false,"rental_uris":{"android":"levelo://app?vid=cbabc18f-21ed-464a-b503-ee421e0ca19d","ios":"levelo://app?vid=cbabc18f-21ed-464a-b503-ee421e0ca19d"},"vehicle_type_id":"4","last_reported":1704560756,"current_range_meters":18800,"station_id":"ce4bgqh2rcd13ifvqc5g","pricing_plan_id":"free"},{"bike_id":"8ef1a586-cc29-4bb1-a1d4-de2934bfeac9","system_id":"levelo_inurba_marseille","lat":43.315293,"lon":5.380349,"is_reserved":false,"is_disabled":false,"rental_uris":{"android":"levelo://app?vid=8ef1a586-cc29-4bb1-a1d4-de2934bfeac9","ios":"levelo://app?vid=8ef1a586-cc29-4bb1-a1d4-de2934bfeac9"},"vehicle_type_id":"4","last_reported":1704560756,"current_range_meters":6000,"station_id":"ce4bhsp2rcd13ifvqi50","pricing_plan_id":"free"},{"bike_id":"731d991d-aeb9-430b-b7f5-2095831304fe","system_id":"levelo_inurba_marseille","lat":43.308012,"lon":5.381511,"is_reserved":false,"is_disabled":false,"rental_uris":{"android":"levelo://app?vid=731d991d-aeb9-430b-b7f5-2095831304fe","ios":"levelo://app?vid=731d991d-aeb9-430b-b7f5-2095831304fe"},"vehicle_type_id":"4","last_reported":1704560756,"current_range_meters":21600,"station_id":"ce4bgt12rcd13ifvqce0","pricing_plan_id":"free"},{"bike_id":"d10f47e0-67a3-4f7c-ab9d-a27297be68e1","system_id":"levelo_inurba_marseille","lat":43.308012,"lon":5.381511,"is_reserved":false,"is_disabled":false,"rental_uris":{"android":"levelo://app?vid=d10f47e0-67a3-4f7c-ab9d-a27297be68e1","ios":"levelo://app?vid=d10f47e0-67a3-4f7c-ab9d-a27297be68e1"},"vehicle_type_id":"4","last_reported":1704560756,"current_range_meters":11600,"station_id":"ce4bgt12rcd13ifvqce0","pricing_plan_id":"free"},{"bike_id":"6d08cc5d-a9e2-474b-a664-1a59055af1a4","system_id":"levelo_inurba_marseille","lat":43.308012,"lon":5.381511,"is_reserved":false,"is_disabled":false,"rental_uris":{"android":"levelo://app?vid=6d08cc5d-a9e2-474b-a664-1a59055af1a4","ios":"levelo://app?vid=6d08cc5d-a9e2-474b-a664-1a59055af1a4"},"vehicle_type_id":"4","last_reported":1704560756,"current_range_meters":29600,"station_id":"ce4bgt12rcd13ifvqce0","pricing_plan_id":"free"},{"bike_id":"9a5d20fc-5739-4188-aece-a966211e1333","system_id":"levelo_inurba_marseille","lat":43.324771,"lon":5.36557,"is_reserved":false,"is_disabled":false,"rental_uris":{"android":"levelo://app?vid=9a5d20fc-5739-4188-aece-a966211e1333","ios":"levelo://app?vid=9a5d20fc-5739-4188-aece-a966211e1333"},"vehicle_type_id":"4","last_reported":1704560756,"current_range_meters":19200,"station_id":"ce4bhs12rcd13ifvqhvg","pricing_plan_id":"free"},{"bike_id":"2b3bbee8-cd3f-46cd-bf22-5c183deed76b","system_id":"levelo_inurba_marseille","lat":43.313571,"lon":5.384829,"is_reserved":false,"is_disabled":false,"rental_uris":{"android":"levelo://app?vid=2b3bbee8-cd3f-46cd-bf22-5c183deed76b","ios":"levelo://app?vid=2b3bbee8-cd3f-46cd-bf22-5c183deed76b"},"vehicle_type_id":"4","last_reported":1704560756,"current_range_meters":30400,"station_id":"ce4bgt92rcd13ifvqcf0","pricing_plan_id":"free"},{"bike_id":"17504bde-947a-4cd6-98b3-9a4c66aca99b","system_id":"levelo_inurba_marseille","lat":43.313827,"lon":5.385007,"is_reserved":false,"is_disabled":false,"rental_uris":{"android":"levelo://app?vid=17504bde-947a-4cd6-98b3-9a4c66aca99b","ios":"levelo://app?vid=17504bde-947a-4cd6-98b3-9a4c66aca99b"},"vehicle_type_id":"4","last_reported":1704560756,"current_range_meters":5200,"station_id":"","pricing_plan_id":"free"},{"bike_id":"49b6548a-76e2-4510-b2b8-2b4029680d0a","system_id":"levelo_inurba_marseille","lat":43.299222,"lon":5.365554,"is_reserved":false,"is_disabled":false,"rental_uris":{"android":"levelo://app?vid=49b6548a-76e2-4510-b2b8-2b4029680d0a","ios":"levelo://app?vid=49b6548a-76e2-4510-b2b8-2b4029680d0a"},"vehicle_type_id":"4","last_reported":1704560756,"current_range_meters":30400,"station_id":"ce4bgm92rcd13ifvqbr0","pricing_plan_id":"free"},{"bike_id":"5245b07d-2d07-43fc-bd49-b8ec0fcd3b79","system_id":"levelo_inurba_marseille","lat":43.299222,"lon":5.365554,"is_reserved":false,"is_disabled":false,"rental_uris":{"android":"levelo://app?vid=5245b07d-2d07-43fc-bd49-b8ec0fcd3b79","ios":"levelo://app?vid=5245b07d-2d07-43fc-bd49-b8ec0fcd3b79"},"vehicle_type_id":"4","last_reported":1704560756,"current_range_meters":27200,"station_id":"ce4bgm92rcd13ifvqbr0","pricing_plan_id":"free"},{"bike_id":"3c69489c-925b-4888-a83b-5a2156f1e4a8","system_id":"levelo_inurba_marseille","lat":43.299857,"lon":5.37429,"is_reserved":false,"is_disabled":false,"rental_uris":{"android":"levelo://app?vid=3c69489c-925b-4888-a83b-5a2156f1e4a8","ios":"levelo://app?vid=3c69489c-925b-4888-a83b-5a2156f1e4a8"},"vehicle_type_id":"4","last_reported":1704560756,"current_range_meters":25600,"station_id":"","pricing_plan_id":"free"},{"bike_id":"b22604ec-0c4b-41b4-a20e-38add68f7682","system_id":"levelo_inurba_marseille","lat":43.32569,"lon":5.374801,"is_reserved":false,"is_disabled":false,"rental_uris":{"android":"levelo://app?vid=b22604ec-0c4b-41b4-a20e-38add68f7682","ios":"levelo://app?vid=b22604ec-0c4b-41b4-a20e-38add68f7682"},"vehicle_type_id":"4","last_reported":1704560756,"current_range_meters":13200,"station_id":"","pricing_plan_id":"free"},{"bike_id":"90f624c9-e920-42f0-bdb2-c7157855cdc0","system_id":"levelo_inurba_marseille","lat":43.311599,"lon":5.386833,"is_reserved":false,"is_disabled":false,"rental_uris":{"android":"levelo://app?vid=90f624c9-e920-42f0-bdb2-c7157855cdc0","ios":"levelo://app?vid=90f624c9-e920-42f0-bdb2-c7157855cdc0"},"vehicle_type_id":"4","last_reported":1704560756,"current_range_meters":12400,"station_id":"ce4bgv12rcd13ifvqcp0","pricing_plan_id":"free"},{"bike_id":"e9aa8d83-0ebb-4baa-b2e6-15c0cbc86420","system_id":"levelo_inurba_marseille","lat":43.305364,"lon":5.384119,"is_reserved":false,"is_disabled":false,"rental_uris":{"android":"levelo://app?vid=e9aa8d83-0ebb-4baa-b2e6-15c0cbc86420","ios":"levelo://app?vid=e9aa8d83-0ebb-4baa-b2e6-15c0cbc86420"},"vehicle_type_id":"4","last_reported":1704560756,"current_range_meters":26400,"station_id":"ce4bgg92rcd13ifvqb30","pricing_plan_id":"free"},{"bike_id":"29c4be67-ca2a-40f1-8b0e-afa95a3624ab","system_id":"levelo_inurba_marseille","lat":43.298433,"lon":5.362774,"is_reserved":false,"is_disabled":false,"rental_uris":{"android":"levelo://app?vid=29c4be67-ca2a-40f1-8b0e-afa95a3624ab","ios":"levelo://app?vid=29c4be67-ca2a-40f1-8b0e-afa95a3624ab"},"vehicle_type_id":"4","last_reported":1704560756,"current_range_meters":24800,"station_id":"ce4bgpp2rcd13ifvqc3g","pricing_plan_id":"free"},{"bike_id":"41e3ffd0-59af-425b-8819-4223cf1be0d4","system_id":"levelo_inurba_marseille","lat":43.298433,"lon":5.362774,"is_reserved":false,"is_disabled":false,"rental_uris":{"android":"levelo://app?vid=41e3ffd0-59af-425b-8819-4223cf1be0d4","ios":"levelo://app?vid=41e3ffd0-59af-425b-8819-4223cf1be0d4"},"vehicle_type_id":"4","last_reported":1704560756,"current_range_meters":31200,"station_id":"ce4bgpp2rcd13ifvqc3g","pricing_plan_id":"free"},{"bike_id":"26df597e-2c66-484e-9143-ab5f1004ff8c","system_id":"levelo_inurba_marseille","lat":43.298433,"lon":5.362774,"is_reserved":false,"is_disabled":false,"rental_uris":{"android":"levelo://app?vid=26df597e-2c66-484e-9143-ab5f1004ff8c","ios":"levelo://app?vid=26df597e-2c66-484e-9143-ab5f1004ff8c"},"vehicle_type_id":"4","last_reported":1704560756,"current_range_meters":31200,"station_id":"ce4bgpp2rcd13ifvqc3g","pricing_plan_id":"free"},{"bike_id":"36b590db-00a3-4ab8-8276-5f4181acda7e","system_id":"levelo_inurba_marseille","lat":43.298433,"lon":5.362774,"is_reserved":false,"is_disabled":false,"rental_uris":{"android":"levelo://app?vid=36b590db-00a3-4ab8-8276-5f4181acda7e","ios":"levelo://app?vid=36b590db-00a3-4ab8-8276-5f4181acda7e"},"vehicle_type_id":"4","last_reported":1704560756,"current_range_meters":31200,"station_id":"ce4bgpp2rcd13ifvqc3g","pricing_plan_id":"free"},{"bike_id":"276c91d7-6ca9-48bc-bf75-acd9920b9ec2","system_id":"levelo_inurba_marseille","lat":43.32286,"lon":5.382666,"is_reserved":false,"is_disabled":false,"rental_uris":{"android":"levelo://app?vid=276c91d7-6ca9-48bc-bf75-acd9920b9ec2","ios":"levelo://app?vid=276c91d7-6ca9-48bc-bf75-acd9920b9ec2"},"vehicle_type_id":"4","last_reported":1704560756,"current_range_meters":25600,"station_id":"ce4bhr12rcd13ifvqhqg","pricing_plan_id":"free"},{"bike_id":"297a7823-4b34-45b3-8282-c78d31cc9f05","system_id":"levelo_inurba_marseille","lat":43.322872,"lon":5.382756,"is_reserved":false,"is_disabled":false,"rental_uris":{"android":"levelo://app?vid=297a7823-4b34-45b3-8282-c78d31cc9f05","ios":"levelo://app?vid=297a7823-4b34-45b3-8282-c78d31cc9f05"},"vehicle_type_id":"4","last_reported":1704560756,"current_range_meters":28000,"station_id":"ce4bhr12rcd13ifvqhqg","pricing_plan_id":"free"},{"bike_id":"09da622d-5ec6-4261-a95d-695d32c570ab","system_id":"levelo_inurba_marseille","lat":43.322884,"lon":5.38273,"is_reserved":false,"is_disabled":false,"rental_uris":{"android":"levelo://app?vid=09da622d-5ec6-4261-a95d-695d32c570ab","ios":"levelo://app?vid=09da622d-5ec6-4261-a95d-695d32c570ab"},"vehicle_type_id":"4","last_reported":1704560756,"current_range_meters":14400,"station_id":"ce4bhr12rcd13ifvqhqg","pricing_plan_id":"free"},{"bike_id":"dcd3aa27-02fb-4fd3-be52-a62e646f894b","system_id":"levelo_inurba_marseille","lat":43.297794,"lon":5.370888,"is_reserved":false,"is_disabled":false,"rental_uris":{"android":"levelo://app?vid=dcd3aa27-02fb-4fd3-be52-a62e646f894b","ios":"levelo://app?vid=dcd3aa27-02fb-4fd3-be52-a62e646f894b"},"vehicle_type_id":"4","last_reported":1704560756,"current_range_meters":24000,"station_id":"ce4bgop2rcd13ifvqc1g","pricing_plan_id":"free"},{"bike_id":"d0aaa14f-1070-4a80-a2f2-78508dd9f6bd","system_id":"levelo_inurba_marseille","lat":43.322872,"lon":5.382756,"is_reserved":false,"is_disabled":false,"rental_uris":{"android":"levelo://app?vid=d0aaa14f-1070-4a80-a2f2-78508dd9f6bd","ios":"levelo://app?vid=d0aaa14f-1070-4a80-a2f2-78508dd9f6bd"},"vehicle_type_id":"4","last_reported":1704560756,"current_range_meters":31200,"station_id":"ce4bhr12rcd13ifvqhqg","pricing_plan_id":"free"},{"bike_id":"3bb7c7dd-5eca-4a2d-a889-98c939c30e62","system_id":"levelo_inurba_marseille","lat":43.32288,"lon":5.3828,"is_reserved":false,"is_disabled":false,"rental_uris":{"android":"levelo://app?vid=3bb7c7dd-5eca-4a2d-a889-98c939c30e62","ios":"levelo://app?vid=3bb7c7dd-5eca-4a2d-a889-98c939c30e62"},"vehicle_type_id":"4","last_reported":1704560756,"current_range_meters":30000,"station_id":"ce4bhr12rcd13ifvqhqg","pricing_plan_id":"free"},{"bike_id":"f661f6de-13d0-42ff-819f-05ad69d6ac0a","system_id":"levelo_inurba_marseille","lat":43.32811,"lon":5.36684,"is_reserved":false,"is_disabled":false,"rental_uris":{"android":"levelo://app?vid=f661f6de-13d0-42ff-819f-05ad69d6ac0a","ios":"levelo://app?vid=f661f6de-13d0-42ff-819f-05ad69d6ac0a"},"vehicle_type_id":"4","last_reported":1704560756,"current_range_meters":28000,"station_id":"ce4bhs92rcd13ifvqi0g","pricing_plan_id":"free"},{"bike_id":"66addf4b-70b7-4ac4-8e17-37956e9ecfbb","system_id":"levelo_inurba_marseille","lat":43.328233,"lon":5.366767,"is_reserved":false,"is_disabled":false,"rental_uris":{"android":"levelo://app?vid=66addf4b-70b7-4ac4-8e17-37956e9ecfbb","ios":"levelo://app?vid=66addf4b-70b7-4ac4-8e17-37956e9ecfbb"},"vehicle_type_id":"4","last_reported":1704560756,"current_range_meters":23200,"station_id":"ce4bhs92rcd13ifvqi0g","pricing_plan_id":"free"},{"bike_id":"c224ea64-7bb8-45be-8a3a-d137d9e17684","system_id":"levelo_inurba_marseille","lat":43.32824,"lon":5.36684,"is_reserved":false,"is_disabled":false,"rental_uris":{"android":"levelo://app?vid=c224ea64-7bb8-45be-8a3a-d137d9e17684","ios":"levelo://app?vid=c224ea64-7bb8-45be-8a3a-d137d9e17684"},"vehicle_type_id":"4","last_reported":1704560756,"current_range_meters":18400,"station_id":"ce4bhs92rcd13ifvqi0g","pricing_plan_id":"free"},{"bike_id":"387c1dff-fb7e-4547-838e-1af3f69c4219","system_id":"levelo_inurba_marseille","lat":43.32824,"lon":5.36681,"is_reserved":false,"is_disabled":false,"rental_uris":{"android":"levelo://app?vid=387c1dff-fb7e-4547-838e-1af3f69c4219","ios":"levelo://app?vid=387c1dff-fb7e-4547-838e-1af3f69c4219"},"vehicle_type_id":"4","last_reported":1704560756,"current_range_meters":26800,"station_id":"ce4bhs92rcd13ifvqi0g","pricing_plan_id":"free"},{"bike_id":"0f4d3e9a-7c47-4898-8890-89e08c97b864","system_id":"levelo_inurba_marseille","lat":43.32825,"lon":5.36685,"is_reserved":false,"is_disabled":false,"rental_uris":{"android":"levelo://app?vid=0f4d3e9a-7c47-4898-8890-89e08c97b864","ios":"levelo://app?vid=0f4d3e9a-7c47-4898-8890-89e08c97b864"},"vehicle_type_id":"4","last_reported":1704560756,"current_range_meters":24800,"station_id":"ce4bhs92rcd13ifvqi0g","pricing_plan_id":"free"},{"bike_id":"42895378-a21e-445b-8e89-325727904609","system_id":"levelo_inurba_marseille","lat":43.328371,"lon":5.366909,"is_reserved":false,"is_disabled":false,"rental_uris":{"android":"levelo://app?vid=42895378-a21e-445b-8e89-325727904609","ios":"levelo://app?vid=42895378-a21e-445b-8e89-325727904609"},"vehicle_type_id":"4","last_reported":1704560756,"current_range_meters":25600,"station_id":"ce4bhs92rcd13ifvqi0g","pricing_plan_id":"free"},{"bike_id":"48e8ea8a-74a9-44ba-bf7d-c5a3ef32811d","system_id":"levelo_inurba_marseille","lat":43.32826,"lon":5.36683,"is_reserved":false,"is_disabled":false,"rental_uris":{"android":"levelo://app?vid=48e8ea8a-74a9-44ba-bf7d-c5a3ef32811d","ios":"levelo://app?vid=48e8ea8a-74a9-44ba-bf7d-c5a3ef32811d"},"vehicle_type_id":"4","last_reported":1704560756,"current_range_meters":31200,"station_id":"ce4bhs92rcd13ifvqi0g","pricing_plan_id":"free"},{"bike_id":"064b14d2-f3e9-43be-a725-c95d6c66fd15","system_id":"levelo_inurba_marseille","lat":43.328371,"lon":5.366909,"is_reserved":false,"is_disabled":false,"rental_uris":{"android":"levelo://app?vid=064b14d2-f3e9-43be-a725-c95d6c66fd15","ios":"levelo://app?vid=064b14d2-f3e9-43be-a725-c95d6c66fd15"},"vehicle_type_id":"4","last_reported":1704560756,"current_range_meters":26000,"station_id":"ce4bhs92rcd13ifvqi0g","pricing_plan_id":"free"},{"bike_id":"43f47c35-ec23-411b-b2fa-7957e35eab11","system_id":"levelo_inurba_marseille","lat":43.328371,"lon":5.366909,"is_reserved":false,"is_disabled":false,"rental_uris":{"android":"levelo://app?vid=43f47c35-ec23-411b-b2fa-7957e35eab11","ios":"levelo://app?vid=43f47c35-ec23-411b-b2fa-7957e35eab11"},"vehicle_type_id":"4","last_reported":1704560756,"current_range_meters":14400,"station_id":"ce4bhs92rcd13ifvqi0g","pricing_plan_id":"free"},{"bike_id":"0725f2a6-de18-43ea-a245-f699ddc19b55","system_id":"levelo_inurba_marseille","lat":43.328371,"lon":5.366909,"is_reserved":false,"is_disabled":false,"rental_uris":{"android":"levelo://app?vid=0725f2a6-de18-43ea-a245-f699ddc19b55","ios":"levelo://app?vid=0725f2a6-de18-43ea-a245-f699ddc19b55"},"vehicle_type_id":"4","last_reported":1704560756,"current_range_meters":12400,"station_id":"ce4bhs92rcd13ifvqi0g","pricing_plan_id":"free"},{"bike_id":"ca02ca89-8dd5-4fc4-9a30-db37a36b7ff7","system_id":"levelo_inurba_marseille","lat":43.32831,"lon":5.36681,"is_reserved":false,"is_disabled":false,"rental_uris":{"android":"levelo://app?vid=ca02ca89-8dd5-4fc4-9a30-db37a36b7ff7","ios":"levelo://app?vid=ca02ca89-8dd5-4fc4-9a30-db37a36b7ff7"},"vehicle_type_id":"4","last_reported":1704560756,"current_range_meters":31200,"station_id":"ce4bhs92rcd13ifvqi0g","pricing_plan_id":"free"},{"bike_id":"ee966a52-c4f3-4b5b-b8b2-c85b17eb5fb4","system_id":"levelo_inurba_marseille","lat":43.328371,"lon":5.366909,"is_reserved":false,"is_disabled":false,"rental_uris":{"android":"levelo://app?vid=ee966a52-c4f3-4b5b-b8b2-c85b17eb5fb4","ios":"levelo://app?vid=ee966a52-c4f3-4b5b-b8b2-c85b17eb5fb4"},"vehicle_type_id":"4","last_reported":1704560756,"current_range_meters":20000,"station_id":"ce4bhs92rcd13ifvqi0g","pricing_plan_id":"free"},{"bike_id":"f9fb32ee-0289-482c-b827-6bda0ce94fa5","system_id":"levelo_inurba_marseille","lat":43.297163,"lon":5.365866,"is_reserved":false,"is_disabled":false,"rental_uris":{"android":"levelo://app?vid=f9fb32ee-0289-482c-b827-6bda0ce94fa5","ios":"levelo://app?vid=f9fb32ee-0289-482c-b827-6bda0ce94fa5"},"vehicle_type_id":"4","last_reported":1704560756,"current_range_meters":17200,"station_id":"ce4bgn12rcd13ifvqbt0","pricing_plan_id":"free"},{"bike_id":"20ee9ffc-dea6-4ee0-aa5b-7f51a0c56576","system_id":"levelo_inurba_marseille","lat":43.298917,"lon":5.378977,"is_reserved":false,"is_disabled":false,"rental_uris":{"android":"levelo://app?vid=20ee9ffc-dea6-4ee0-aa5b-7f51a0c56576","ios":"levelo://app?vid=20ee9ffc-dea6-4ee0-aa5b-7f51a0c56576"},"vehicle_type_id":"4","last_reported":1704560756,"current_range_meters":18400,"station_id":"","pricing_plan_id":"free"},{"bike_id":"c5f23bb6-e77c-436a-8025-94c1f3b37c1b","system_id":"levelo_inurba_marseille","lat":43.296129,"lon":5.370777,"is_reserved":false,"is_disabled":false,"rental_uris":{"android":"levelo://app?vid=c5f23bb6-e77c-436a-8025-94c1f3b37c1b","ios":"levelo://app?vid=c5f23bb6-e77c-436a-8025-94c1f3b37c1b"},"vehicle_type_id":"4","last_reported":1704560756,"current_range_meters":20000,"station_id":"ce4bgnh2rcd13ifvqc0g","pricing_plan_id":"free"},{"bike_id":"011f2abd-e8c2-4cf6-a39a-ccbed4a648e8","system_id":"levelo_inurba_marseille","lat":43.296131,"lon":5.370791,"is_reserved":false,"is_disabled":false,"rental_uris":{"android":"levelo://app?vid=011f2abd-e8c2-4cf6-a39a-ccbed4a648e8","ios":"levelo://app?vid=011f2abd-e8c2-4cf6-a39a-ccbed4a648e8"},"vehicle_type_id":"4","last_reported":1704560756,"current_range_meters":29600,"station_id":"ce4bgnh2rcd13ifvqc0g","pricing_plan_id":"free"},{"bike_id":"eec93932-52b4-4a07-b46f-44c831efcf42","system_id":"levelo_inurba_marseille","lat":43.29727,"lon":5.37692,"is_reserved":false,"is_disabled":false,"rental_uris":{"android":"levelo://app?vid=eec93932-52b4-4a07-b46f-44c831efcf42","ios":"levelo://app?vid=eec93932-52b4-4a07-b46f-44c831efcf42"},"vehicle_type_id":"4","last_reported":1704560756,"current_range_meters":0,"station_id":"ce4bgkh2rcd13ifvqbl0","pricing_plan_id":"free"},{"bike_id":"d8d16ed4-be6f-4b49-83fc-7aeada7edd98","system_id":"levelo_inurba_marseille","lat":43.299028,"lon":5.381509,"is_reserved":false,"is_disabled":false,"rental_uris":{"android":"levelo://app?vid=d8d16ed4-be6f-4b49-83fc-7aeada7edd98","ios":"levelo://app?vid=d8d16ed4-be6f-4b49-83fc-7aeada7edd98"},"vehicle_type_id":"4","last_reported":1704560756,"current_range_meters":14800,"station_id":"ce4bgj12rcd13ifvqbc0","pricing_plan_id":"free"},{"bike_id":"712bc03c-4301-4f23-a402-31c4a3f6ea54","system_id":"levelo_inurba_marseille","lat":43.31752,"lon":5.39011,"is_reserved":false,"is_disabled":false,"rental_uris":{"android":"levelo://app?vid=712bc03c-4301-4f23-a402-31c4a3f6ea54","ios":"levelo://app?vid=712bc03c-4301-4f23-a402-31c4a3f6ea54"},"vehicle_type_id":"4","last_reported":1704560756,"current_range_meters":7200,"station_id":"ce4bhqp2rcd13ifvqhng","pricing_plan_id":"free"},{"bike_id":"53b8b99f-61cc-4dd1-a7ec-a32bd91f2e37","system_id":"levelo_inurba_marseille","lat":43.31765,"lon":5.3901,"is_reserved":false,"is_disabled":false,"rental_uris":{"android":"levelo://app?vid=53b8b99f-61cc-4dd1-a7ec-a32bd91f2e37","ios":"levelo://app?vid=53b8b99f-61cc-4dd1-a7ec-a32bd91f2e37"},"vehicle_type_id":"4","last_reported":1704560756,"current_range_meters":12800,"station_id":"ce4bhqp2rcd13ifvqhng","pricing_plan_id":"free"},{"bike_id":"e37c395a-9586-41ec-a7f6-e0ff510c2fd8","system_id":"levelo_inurba_marseille","lat":43.31755,"lon":5.39019,"is_reserved":false,"is_disabled":false,"rental_uris":{"android":"levelo://app?vid=e37c395a-9586-41ec-a7f6-e0ff510c2fd8","ios":"levelo://app?vid=e37c395a-9586-41ec-a7f6-e0ff510c2fd8"},"vehicle_type_id":"4","last_reported":1704560756,"current_range_meters":31200,"station_id":"ce4bhqp2rcd13ifvqhng","pricing_plan_id":"free"},{"bike_id":"9f99198d-706b-47c3-9d54-a5e733922f25","system_id":"levelo_inurba_marseille","lat":43.317557,"lon":5.390173,"is_reserved":false,"is_disabled":false,"rental_uris":{"android":"levelo://app?vid=9f99198d-706b-47c3-9d54-a5e733922f25","ios":"levelo://app?vid=9f99198d-706b-47c3-9d54-a5e733922f25"},"vehicle_type_id":"4","last_reported":1704560756,"current_range_meters":31200,"station_id":"ce4bhqp2rcd13ifvqhng","pricing_plan_id":"free"},{"bike_id":"d2b9ea91-fae6-48a0-a734-1d9f63e27ff3","system_id":"levelo_inurba_marseille","lat":43.304195,"lon":5.38886,"is_reserved":false,"is_disabled":false,"rental_uris":{"android":"levelo://app?vid=d2b9ea91-fae6-48a0-a734-1d9f63e27ff3","ios":"levelo://app?vid=d2b9ea91-fae6-48a0-a734-1d9f63e27ff3"},"vehicle_type_id":"4","last_reported":1704560756,"current_range_meters":24800,"station_id":"ce4bgk12rcd13ifvqbi0","pricing_plan_id":"free"},{"bike_id":"abe238a4-2e12-4bc5-8ec8-d77e9f6c475f","system_id":"levelo_inurba_marseille","lat":43.295748,"lon":5.37522,"is_reserved":false,"is_disabled":false,"rental_uris":{"android":"levelo://app?vid=abe238a4-2e12-4bc5-8ec8-d77e9f6c475f","ios":"levelo://app?vid=abe238a4-2e12-4bc5-8ec8-d77e9f6c475f"},"vehicle_type_id":"4","last_reported":1704560756,"current_range_meters":0,"station_id":"ce4bgh92rcd13ifvqb50","pricing_plan_id":"free"},{"bike_id":"d60802d6-4f47-444a-b234-883690eec05b","system_id":"levelo_inurba_marseille","lat":43.33062,"lon":5.3627,"is_reserved":false,"is_disabled":false,"rental_uris":{"android":"levelo://app?vid=d60802d6-4f47-444a-b234-883690eec05b","ios":"levelo://app?vid=d60802d6-4f47-444a-b234-883690eec05b"},"vehicle_type_id":"4","last_reported":1704560756,"current_range_meters":0,"station_id":"","pricing_plan_id":"free"},{"bike_id":"a12af473-aa48-4641-8d03-b5d31e039efc","system_id":"levelo_inurba_marseille","lat":43.32367,"lon":5.388836,"is_reserved":false,"is_disabled":false,"rental_uris":{"android":"levelo://app?vid=a12af473-aa48-4641-8d03-b5d31e039efc","ios":"levelo://app?vid=a12af473-aa48-4641-8d03-b5d31e039efc"},"vehicle_type_id":"4","last_reported":1704560756,"current_range_meters":16800,"station_id":"ce4bhqp2rcd13ifvqhog","pricing_plan_id":"free"},{"bike_id":"204dea3f-87e7-4326-9f54-6cdab23e9e5a","system_id":"levelo_inurba_marseille","lat":43.32367,"lon":5.388836,"is_reserved":false,"is_disabled":false,"rental_uris":{"android":"levelo://app?vid=204dea3f-87e7-4326-9f54-6cdab23e9e5a","ios":"levelo://app?vid=204dea3f-87e7-4326-9f54-6cdab23e9e5a"},"vehicle_type_id":"4","last_reported":1704560756,"current_range_meters":6400,"station_id":"ce4bhqp2rcd13ifvqhog","pricing_plan_id":"free"},{"bike_id":"f01ce631-6252-4def-9d5b-6b3fe89f74fd","system_id":"levelo_inurba_marseille","lat":43.29601,"lon":5.381084,"is_reserved":false,"is_disabled":false,"rental_uris":{"android":"levelo://app?vid=f01ce631-6252-4def-9d5b-6b3fe89f74fd","ios":"levelo://app?vid=f01ce631-6252-4def-9d5b-6b3fe89f74fd"},"vehicle_type_id":"4","last_reported":1704560756,"current_range_meters":18400,"station_id":"ce4bgl12rcd13ifvqbo0","pricing_plan_id":"free"},{"bike_id":"5b326c93-7c0e-4334-bfb9-b08e8a2ae5c5","system_id":"levelo_inurba_marseille","lat":43.29602,"lon":5.381084,"is_reserved":false,"is_disabled":false,"rental_uris":{"android":"levelo://app?vid=5b326c93-7c0e-4334-bfb9-b08e8a2ae5c5","ios":"levelo://app?vid=5b326c93-7c0e-4334-bfb9-b08e8a2ae5c5"},"vehicle_type_id":"4","last_reported":1704560756,"current_range_meters":28000,"station_id":"ce4bgl12rcd13ifvqbo0","pricing_plan_id":"free"},{"bike_id":"e65d45d8-5d93-40c5-98a6-1d077f9f9065","system_id":"levelo_inurba_marseille","lat":43.293259,"lon":5.371586,"is_reserved":false,"is_disabled":false,"rental_uris":{"android":"levelo://app?vid=e65d45d8-5d93-40c5-98a6-1d077f9f9065","ios":"levelo://app?vid=e65d45d8-5d93-40c5-98a6-1d077f9f9065"},"vehicle_type_id":"4","last_reported":1704560756,"current_range_meters":15600,"station_id":"ce4bgh92rcd13ifvqb40","pricing_plan_id":"free"},{"bike_id":"a10e43d9-7c94-4f01-ae09-c785ec4d8dee","system_id":"levelo_inurba_marseille","lat":43.293009,"lon":5.374584,"is_reserved":false,"is_disabled":false,"rental_uris":{"android":"levelo://app?vid=a10e43d9-7c94-4f01-ae09-c785ec4d8dee","ios":"levelo://app?vid=a10e43d9-7c94-4f01-ae09-c785ec4d8dee"},"vehicle_type_id":"4","last_reported":1704560756,"current_range_meters":8400,"station_id":"ce4bgi12rcd13ifvqb70","pricing_plan_id":"free"},{"bike_id":"010eb6b7-2326-4b9e-bcf6-7ac8013c85e1","system_id":"levelo_inurba_marseille","lat":43.293009,"lon":5.374584,"is_reserved":false,"is_disabled":false,"rental_uris":{"android":"levelo://app?vid=010eb6b7-2326-4b9e-bcf6-7ac8013c85e1","ios":"levelo://app?vid=010eb6b7-2326-4b9e-bcf6-7ac8013c85e1"},"vehicle_type_id":"4","last_reported":1704560756,"current_range_meters":16400,"station_id":"ce4bgi12rcd13ifvqb70","pricing_plan_id":"free"},{"bike_id":"55710135-0ee6-4c8b-a7a0-3c9629c2e952","system_id":"levelo_inurba_marseille","lat":43.293009,"lon":5.374584,"is_reserved":false,"is_disabled":false,"rental_uris":{"android":"levelo://app?vid=55710135-0ee6-4c8b-a7a0-3c9629c2e952","ios":"levelo://app?vid=55710135-0ee6-4c8b-a7a0-3c9629c2e952"},"vehicle_type_id":"4","last_reported":1704560756,"current_range_meters":23600,"station_id":"ce4bgi12rcd13ifvqb70","pricing_plan_id":"free"},{"bike_id":"86bce03f-7e85-4350-9ac8-9c0a40d86e96","system_id":"levelo_inurba_marseille","lat":43.302992,"lon":5.392136,"is_reserved":false,"is_disabled":false,"rental_uris":{"android":"levelo://app?vid=86bce03f-7e85-4350-9ac8-9c0a40d86e96","ios":"levelo://app?vid=86bce03f-7e85-4350-9ac8-9c0a40d86e96"},"vehicle_type_id":"4","last_reported":1704560756,"current_range_meters":29200,"station_id":"ce4bgkh2rcd13ifvqbk0","pricing_plan_id":"free"},{"bike_id":"9cf1386f-f18d-4cdf-88d0-a002f8029d9f","system_id":"levelo_inurba_marseille","lat":43.302992,"lon":5.392136,"is_reserved":false,"is_disabled":false,"rental_uris":{"android":"levelo://app?vid=9cf1386f-f18d-4cdf-88d0-a002f8029d9f","ios":"levelo://app?vid=9cf1386f-f18d-4cdf-88d0-a002f8029d9f"},"vehicle_type_id":"4","last_reported":1704560756,"current_range_meters":5200,"station_id":"ce4bgkh2rcd13ifvqbk0","pricing_plan_id":"free"},{"bike_id":"f0ed138c-7b2b-40c2-95bf-8b4fc5e4c0f6","system_id":"levelo_inurba_marseille","lat":43.2936,"lon":5.37835,"is_reserved":false,"is_disabled":false,"rental_uris":{"android":"levelo://app?vid=f0ed138c-7b2b-40c2-95bf-8b4fc5e4c0f6","ios":"levelo://app?vid=f0ed138c-7b2b-40c2-95bf-8b4fc5e4c0f6"},"vehicle_type_id":"4","last_reported":1704560756,"current_range_meters":22000,"station_id":"ce4bgjh2rcd13ifvqbf0","pricing_plan_id":"free"},{"bike_id":"011b6afc-6b6f-46a9-a198-d84ef2ee8116","system_id":"levelo_inurba_marseille","lat":43.300852,"lon":5.390859,"is_reserved":false,"is_disabled":false,"rental_uris":{"android":"levelo://app?vid=011b6afc-6b6f-46a9-a198-d84ef2ee8116","ios":"levelo://app?vid=011b6afc-6b6f-46a9-a198-d84ef2ee8116"},"vehicle_type_id":"4","last_reported":1704560756,"current_range_meters":24000,"station_id":"ce4bh192rcd13ifvqdb0","pricing_plan_id":"free"},{"bike_id":"a00e456c-9e22-4967-b4a8-8391232c4ecd","system_id":"levelo_inurba_marseille","lat":43.313291,"lon":5.396838,"is_reserved":false,"is_disabled":false,"rental_uris":{"android":"levelo://app?vid=a00e456c-9e22-4967-b4a8-8391232c4ecd","ios":"levelo://app?vid=a00e456c-9e22-4967-b4a8-8391232c4ecd"},"vehicle_type_id":"4","last_reported":1704560756,"current_range_meters":24000,"station_id":"ce4bgvp2rcd13ifvqcu0","pricing_plan_id":"free"},{"bike_id":"15616ee9-4f17-4b92-a0cd-be70054cee42","system_id":"levelo_inurba_marseille","lat":43.309047,"lon":5.396551,"is_reserved":false,"is_disabled":false,"rental_uris":{"android":"levelo://app?vid=15616ee9-4f17-4b92-a0cd-be70054cee42","ios":"levelo://app?vid=15616ee9-4f17-4b92-a0cd-be70054cee42"},"vehicle_type_id":"4","last_reported":1704560756,"current_range_meters":26400,"station_id":"ce4bh012rcd13ifvqcv0","pricing_plan_id":"free"},{"bike_id":"732ea02c-4eb5-4030-b861-e8e02075f6b1","system_id":"levelo_inurba_marseille","lat":43.29529,"lon":5.385581,"is_reserved":false,"is_disabled":false,"rental_uris":{"android":"levelo://app?vid=732ea02c-4eb5-4030-b861-e8e02075f6b1","ios":"levelo://app?vid=732ea02c-4eb5-4030-b861-e8e02075f6b1"},"vehicle_type_id":"4","last_reported":1704560756,"current_range_meters":31200,"station_id":"ce4bgih2rcd13ifvqba0","pricing_plan_id":"free"},{"bike_id":"6f2984a7-df3f-46c4-8edb-a8b5bcaf8dda","system_id":"levelo_inurba_marseille","lat":43.309038,"lon":5.396546,"is_reserved":false,"is_disabled":false,"rental_uris":{"android":"levelo://app?vid=6f2984a7-df3f-46c4-8edb-a8b5bcaf8dda","ios":"levelo://app?vid=6f2984a7-df3f-46c4-8edb-a8b5bcaf8dda"},"vehicle_type_id":"4","last_reported":1704560756,"current_range_meters":26800,"station_id":"ce4bh012rcd13ifvqcv0","pricing_plan_id":"free"},{"bike_id":"00fe0627-e960-4852-b159-cdb5d5b3d042","system_id":"levelo_inurba_marseille","lat":43.29529,"lon":5.385581,"is_reserved":false,"is_disabled":false,"rental_uris":{"android":"levelo://app?vid=00fe0627-e960-4852-b159-cdb5d5b3d042","ios":"levelo://app?vid=00fe0627-e960-4852-b159-cdb5d5b3d042"},"vehicle_type_id":"4","last_reported":1704560756,"current_range_meters":14400,"station_id":"ce4bgih2rcd13ifvqba0","pricing_plan_id":"free"},{"bike_id":"3c21526a-d645-4b71-9ac6-0bc257ea8d31","system_id":"levelo_inurba_marseille","lat":43.29529,"lon":5.385581,"is_reserved":false,"is_disabled":false,"rental_uris":{"android":"levelo://app?vid=3c21526a-d645-4b71-9ac6-0bc257ea8d31","ios":"levelo://app?vid=3c21526a-d645-4b71-9ac6-0bc257ea8d31"},"vehicle_type_id":"4","last_reported":1704560756,"current_range_meters":13200,"station_id":"ce4bgih2rcd13ifvqba0","pricing_plan_id":"free"},{"bike_id":"ec065b52-d757-4756-b047-62f1ddbab5f8","system_id":"levelo_inurba_marseille","lat":43.29529,"lon":5.385581,"is_reserved":false,"is_disabled":false,"rental_uris":{"android":"levelo://app?vid=ec065b52-d757-4756-b047-62f1ddbab5f8","ios":"levelo://app?vid=ec065b52-d757-4756-b047-62f1ddbab5f8"},"vehicle_type_id":"4","last_reported":1704560756,"current_range_meters":2400,"station_id":"ce4bgih2rcd13ifvqba0","pricing_plan_id":"free"},{"bike_id":"ff5e86ff-144e-42e0-a598-57ce010730dd","system_id":"levelo_inurba_marseille","lat":43.29529,"lon":5.385581,"is_reserved":false,"is_disabled":false,"rental_uris":{"android":"levelo://app?vid=ff5e86ff-144e-42e0-a598-57ce010730dd","ios":"levelo://app?vid=ff5e86ff-144e-42e0-a598-57ce010730dd"},"vehicle_type_id":"4","last_reported":1704560756,"current_range_meters":20400,"station_id":"ce4bgih2rcd13ifvqba0","pricing_plan_id":"free"},{"bike_id":"81359a32-85ef-4663-bae8-c49671add387","system_id":"levelo_inurba_marseille","lat":43.29529,"lon":5.385581,"is_reserved":false,"is_disabled":false,"rental_uris":{"android":"levelo://app?vid=81359a32-85ef-4663-bae8-c49671add387","ios":"levelo://app?vid=81359a32-85ef-4663-bae8-c49671add387"},"vehicle_type_id":"4","last_reported":1704560756,"current_range_meters":26000,"station_id":"ce4bgih2rcd13ifvqba0","pricing_plan_id":"free"},{"bike_id":"a18c9f18-dd23-4fa3-ae4c-750a813ec2dd","system_id":"levelo_inurba_marseille","lat":43.314065,"lon":5.397248,"is_reserved":false,"is_disabled":false,"rental_uris":{"android":"levelo://app?vid=a18c9f18-dd23-4fa3-ae4c-750a813ec2dd","ios":"levelo://app?vid=a18c9f18-dd23-4fa3-ae4c-750a813ec2dd"},"vehicle_type_id":"4","last_reported":1704560756,"current_range_meters":18400,"station_id":"","pricing_plan_id":"free"},{"bike_id":"726c7951-943b-4717-8098-0b53f85ab816","system_id":"levelo_inurba_marseille","lat":43.289184,"lon":5.366408,"is_reserved":false,"is_disabled":false,"rental_uris":{"android":"levelo://app?vid=726c7951-943b-4717-8098-0b53f85ab816","ios":"levelo://app?vid=726c7951-943b-4717-8098-0b53f85ab816"},"vehicle_type_id":"4","last_reported":1704560756,"current_range_meters":21200,"station_id":"ce4bhap2rcd13ifvqek0","pricing_plan_id":"free"},{"bike_id":"9239e4f3-13b9-4e96-bd84-d813befd9be0","system_id":"levelo_inurba_marseille","lat":43.289184,"lon":5.366408,"is_reserved":false,"is_disabled":false,"rental_uris":{"android":"levelo://app?vid=9239e4f3-13b9-4e96-bd84-d813befd9be0","ios":"levelo://app?vid=9239e4f3-13b9-4e96-bd84-d813befd9be0"},"vehicle_type_id":"4","last_reported":1704560756,"current_range_meters":2000,"station_id":"ce4bhap2rcd13ifvqek0","pricing_plan_id":"free"},{"bike_id":"2eeec64f-a83a-47c7-b724-add8b2cc31a6","system_id":"levelo_inurba_marseille","lat":43.289184,"lon":5.366408,"is_reserved":false,"is_disabled":false,"rental_uris":{"android":"levelo://app?vid=2eeec64f-a83a-47c7-b724-add8b2cc31a6","ios":"levelo://app?vid=2eeec64f-a83a-47c7-b724-add8b2cc31a6"},"vehicle_type_id":"4","last_reported":1704560756,"current_range_meters":24400,"station_id":"ce4bhap2rcd13ifvqek0","pricing_plan_id":"free"},{"bike_id":"5dfbd92f-2387-4cf4-97b8-28b9dd341ffd","system_id":"levelo_inurba_marseille","lat":43.289184,"lon":5.366408,"is_reserved":false,"is_disabled":false,"rental_uris":{"android":"levelo://app?vid=5dfbd92f-2387-4cf4-97b8-28b9dd341ffd","ios":"levelo://app?vid=5dfbd92f-2387-4cf4-97b8-28b9dd341ffd"},"vehicle_type_id":"4","last_reported":1704560756,"current_range_meters":12000,"station_id":"ce4bhap2rcd13ifvqek0","pricing_plan_id":"free"},{"bike_id":"0fe31f37-df8f-46f9-ac9c-0fb9962a06bc","system_id":"levelo_inurba_marseille","lat":43.289184,"lon":5.366408,"is_reserved":false,"is_disabled":false,"rental_uris":{"android":"levelo://app?vid=0fe31f37-df8f-46f9-ac9c-0fb9962a06bc","ios":"levelo://app?vid=0fe31f37-df8f-46f9-ac9c-0fb9962a06bc"},"vehicle_type_id":"4","last_reported":1704560756,"current_range_meters":27600,"station_id":"ce4bhap2rcd13ifvqek0","pricing_plan_id":"free"},{"bike_id":"3d3a4b88-a18b-4fa1-9285-b88fc151157a","system_id":"levelo_inurba_marseille","lat":43.289184,"lon":5.366408,"is_reserved":false,"is_disabled":false,"rental_uris":{"android":"levelo://app?vid=3d3a4b88-a18b-4fa1-9285-b88fc151157a","ios":"levelo://app?vid=3d3a4b88-a18b-4fa1-9285-b88fc151157a"},"vehicle_type_id":"4","last_reported":1704560756,"current_range_meters":29200,"station_id":"ce4bhap2rcd13ifvqek0","pricing_plan_id":"free"},{"bike_id":"433f299e-ccf8-4011-be2f-a895ce2ba53c","system_id":"levelo_inurba_marseille","lat":43.289184,"lon":5.366408,"is_reserved":false,"is_disabled":false,"rental_uris":{"android":"levelo://app?vid=433f299e-ccf8-4011-be2f-a895ce2ba53c","ios":"levelo://app?vid=433f299e-ccf8-4011-be2f-a895ce2ba53c"},"vehicle_type_id":"4","last_reported":1704560756,"current_range_meters":5200,"station_id":"ce4bhap2rcd13ifvqek0","pricing_plan_id":"free"},{"bike_id":"d5786209-c1e5-43be-ad2f-2cf4c5756b37","system_id":"levelo_inurba_marseille","lat":43.289184,"lon":5.366408,"is_reserved":false,"is_disabled":false,"rental_uris":{"android":"levelo://app?vid=d5786209-c1e5-43be-ad2f-2cf4c5756b37","ios":"levelo://app?vid=d5786209-c1e5-43be-ad2f-2cf4c5756b37"},"vehicle_type_id":"4","last_reported":1704560756,"current_range_meters":7600,"station_id":"ce4bhap2rcd13ifvqek0","pricing_plan_id":"free"},{"bike_id":"621659f5-5ff2-4eba-a4cb-3e5963e3eeb7","system_id":"levelo_inurba_marseille","lat":43.289379,"lon":5.364007,"is_reserved":false,"is_disabled":false,"rental_uris":{"android":"levelo://app?vid=621659f5-5ff2-4eba-a4cb-3e5963e3eeb7","ios":"levelo://app?vid=621659f5-5ff2-4eba-a4cb-3e5963e3eeb7"},"vehicle_type_id":"4","last_reported":1704560756,"current_range_meters":8400,"station_id":"ce4bhc92rcd13ifvqetg","pricing_plan_id":"free"},{"bike_id":"b9e22ef4-cd68-41dd-b281-b9fd497c8809","system_id":"levelo_inurba_marseille","lat":43.292644,"lon":5.384257,"is_reserved":false,"is_disabled":false,"rental_uris":{"android":"levelo://app?vid=b9e22ef4-cd68-41dd-b281-b9fd497c8809","ios":"levelo://app?vid=b9e22ef4-cd68-41dd-b281-b9fd497c8809"},"vehicle_type_id":"4","last_reported":1704560756,"current_range_meters":14400,"station_id":"ce4bh692rcd13ifvqea0","pricing_plan_id":"free"},{"bike_id":"13ee60b3-3c79-4e3e-a814-181937a9e63e","system_id":"levelo_inurba_marseille","lat":43.290995,"lon":5.381361,"is_reserved":false,"is_disabled":false,"rental_uris":{"android":"levelo://app?vid=13ee60b3-3c79-4e3e-a814-181937a9e63e","ios":"levelo://app?vid=13ee60b3-3c79-4e3e-a814-181937a9e63e"},"vehicle_type_id":"4","last_reported":1704560756,"current_range_meters":15600,"station_id":"ce4bh512rcd13ifvqe2g","pricing_plan_id":"free"},{"bike_id":"7a4f9df6-e149-4ff9-b6a6-823deb37ca76","system_id":"levelo_inurba_marseille","lat":43.290995,"lon":5.381361,"is_reserved":false,"is_disabled":false,"rental_uris":{"android":"levelo://app?vid=7a4f9df6-e149-4ff9-b6a6-823deb37ca76","ios":"levelo://app?vid=7a4f9df6-e149-4ff9-b6a6-823deb37ca76"},"vehicle_type_id":"4","last_reported":1704560756,"current_range_meters":8400,"station_id":"ce4bh512rcd13ifvqe2g","pricing_plan_id":"free"},{"bike_id":"10e8b5ee-440b-4509-913f-e2199938ccc1","system_id":"levelo_inurba_marseille","lat":43.290995,"lon":5.381361,"is_reserved":false,"is_disabled":false,"rental_uris":{"android":"levelo://app?vid=10e8b5ee-440b-4509-913f-e2199938ccc1","ios":"levelo://app?vid=10e8b5ee-440b-4509-913f-e2199938ccc1"},"vehicle_type_id":"4","last_reported":1704560756,"current_range_meters":18800,"station_id":"ce4bh512rcd13ifvqe2g","pricing_plan_id":"free"},{"bike_id":"898eb23d-9ed5-4fec-aef1-4d95f0c34074","system_id":"levelo_inurba_marseille","lat":43.290995,"lon":5.381361,"is_reserved":false,"is_disabled":false,"rental_uris":{"android":"levelo://app?vid=898eb23d-9ed5-4fec-aef1-4d95f0c34074","ios":"levelo://app?vid=898eb23d-9ed5-4fec-aef1-4d95f0c34074"},"vehicle_type_id":"4","last_reported":1704560756,"current_range_meters":19600,"station_id":"ce4bh512rcd13ifvqe2g","pricing_plan_id":"free"},{"bike_id":"fc74f00d-9f72-450b-b9e9-6e2afbdef22c","system_id":"levelo_inurba_marseille","lat":43.290995,"lon":5.381361,"is_reserved":false,"is_disabled":false,"rental_uris":{"android":"levelo://app?vid=fc74f00d-9f72-450b-b9e9-6e2afbdef22c","ios":"levelo://app?vid=fc74f00d-9f72-450b-b9e9-6e2afbdef22c"},"vehicle_type_id":"4","last_reported":1704560756,"current_range_meters":6400,"station_id":"ce4bh512rcd13ifvqe2g","pricing_plan_id":"free"},{"bike_id":"6f82b53c-8118-4f6b-a9b0-c67e8150cfb5","system_id":"levelo_inurba_marseille","lat":43.290995,"lon":5.381361,"is_reserved":false,"is_disabled":false,"rental_uris":{"android":"levelo://app?vid=6f82b53c-8118-4f6b-a9b0-c67e8150cfb5","ios":"levelo://app?vid=6f82b53c-8118-4f6b-a9b0-c67e8150cfb5"},"vehicle_type_id":"4","last_reported":1704560756,"current_range_meters":19600,"station_id":"ce4bh512rcd13ifvqe2g","pricing_plan_id":"free"},{"bike_id":"c58bcad1-11d5-46e2-aebd-e1fbe92a7012","system_id":"levelo_inurba_marseille","lat":43.28988,"lon":5.37818,"is_reserved":false,"is_disabled":false,"rental_uris":{"android":"levelo://app?vid=c58bcad1-11d5-46e2-aebd-e1fbe92a7012","ios":"levelo://app?vid=c58bcad1-11d5-46e2-aebd-e1fbe92a7012"},"vehicle_type_id":"4","last_reported":1704560756,"current_range_meters":0,"station_id":"ce4bh9p2rcd13ifvqed0","pricing_plan_id":"free"},{"bike_id":"63445f4b-da1d-454c-a265-ffd259706f56","system_id":"levelo_inurba_marseille","lat":43.289741,"lon":5.378306,"is_reserved":false,"is_disabled":false,"rental_uris":{"android":"levelo://app?vid=63445f4b-da1d-454c-a265-ffd259706f56","ios":"levelo://app?vid=63445f4b-da1d-454c-a265-ffd259706f56"},"vehicle_type_id":"4","last_reported":1704560756,"current_range_meters":0,"station_id":"ce4bh9p2rcd13ifvqed0","pricing_plan_id":"free"},{"bike_id":"62f7543a-4649-4802-b066-a1558b23cd06","system_id":"levelo_inurba_marseille","lat":43.295169,"lon":5.390426,"is_reserved":false,"is_disabled":false,"rental_uris":{"android":"levelo://app?vid=62f7543a-4649-4802-b066-a1558b23cd06","ios":"levelo://app?vid=62f7543a-4649-4802-b066-a1558b23cd06"},"vehicle_type_id":"4","last_reported":1704560756,"current_range_meters":24400,"station_id":"ce4bh3p2rcd13ifvqdp0","pricing_plan_id":"free"},{"bike_id":"06a0a7a2-a3d5-4aa1-97f4-08caf609380d","system_id":"levelo_inurba_marseille","lat":43.289743,"lon":5.378304,"is_reserved":false,"is_disabled":false,"rental_uris":{"android":"levelo://app?vid=06a0a7a2-a3d5-4aa1-97f4-08caf609380d","ios":"levelo://app?vid=06a0a7a2-a3d5-4aa1-97f4-08caf609380d"},"vehicle_type_id":"4","last_reported":1704560756,"current_range_meters":25200,"station_id":"ce4bh9p2rcd13ifvqed0","pricing_plan_id":"free"},{"bike_id":"d6d0da97-fdb8-4782-b697-836a4ec5e63b","system_id":"levelo_inurba_marseille","lat":43.29787,"lon":5.393475,"is_reserved":false,"is_disabled":false,"rental_uris":{"android":"levelo://app?vid=d6d0da97-fdb8-4782-b697-836a4ec5e63b","ios":"levelo://app?vid=d6d0da97-fdb8-4782-b697-836a4ec5e63b"},"vehicle_type_id":"4","last_reported":1704560756,"current_range_meters":17200,"station_id":"chh1huq6cuj3fo74tm60","pricing_plan_id":"free"},{"bike_id":"db1033e7-d202-408d-8fcc-78dc2d4afb4d","system_id":"levelo_inurba_marseille","lat":43.33018,"lon":5.39036,"is_reserved":false,"is_disabled":false,"rental_uris":{"android":"levelo://app?vid=db1033e7-d202-408d-8fcc-78dc2d4afb4d","ios":"levelo://app?vid=db1033e7-d202-408d-8fcc-78dc2d4afb4d"},"vehicle_type_id":"4","last_reported":1704560756,"current_range_meters":18800,"station_id":"","pricing_plan_id":"free"},{"bike_id":"92e830c4-c3f2-4da4-bb83-e95e25eb7520","system_id":"levelo_inurba_marseille","lat":43.289743,"lon":5.378304,"is_reserved":false,"is_disabled":false,"rental_uris":{"android":"levelo://app?vid=92e830c4-c3f2-4da4-bb83-e95e25eb7520","ios":"levelo://app?vid=92e830c4-c3f2-4da4-bb83-e95e25eb7520"},"vehicle_type_id":"4","last_reported":1704560756,"current_range_meters":21200,"station_id":"ce4bh9p2rcd13ifvqed0","pricing_plan_id":"free"},{"bike_id":"c8f1c66d-517e-47cd-8c74-1fbdb664b117","system_id":"levelo_inurba_marseille","lat":43.33024,"lon":5.39031,"is_reserved":false,"is_disabled":false,"rental_uris":{"android":"levelo://app?vid=c8f1c66d-517e-47cd-8c74-1fbdb664b117","ios":"levelo://app?vid=c8f1c66d-517e-47cd-8c74-1fbdb664b117"},"vehicle_type_id":"4","last_reported":1704560756,"current_range_meters":18000,"station_id":"","pricing_plan_id":"free"},{"bike_id":"42a2d22f-ce67-446d-ab38-453f93bc49fa","system_id":"levelo_inurba_marseille","lat":43.330178,"lon":5.39042,"is_reserved":false,"is_disabled":false,"rental_uris":{"android":"levelo://app?vid=42a2d22f-ce67-446d-ab38-453f93bc49fa","ios":"levelo://app?vid=42a2d22f-ce67-446d-ab38-453f93bc49fa"},"vehicle_type_id":"4","last_reported":1704560756,"current_range_meters":16400,"station_id":"","pricing_plan_id":"free"},{"bike_id":"5c0e221b-54dc-4307-a6ad-cc1692cf4df3","system_id":"levelo_inurba_marseille","lat":43.33025,"lon":5.39035,"is_reserved":false,"is_disabled":false,"rental_uris":{"android":"levelo://app?vid=5c0e221b-54dc-4307-a6ad-cc1692cf4df3","ios":"levelo://app?vid=5c0e221b-54dc-4307-a6ad-cc1692cf4df3"},"vehicle_type_id":"4","last_reported":1704560756,"current_range_meters":18800,"station_id":"","pricing_plan_id":"free"},{"bike_id":"604d70e1-4bfc-4c1a-ad50-5c45b428d61e","system_id":"levelo_inurba_marseille","lat":43.330442,"lon":5.389148,"is_reserved":false,"is_disabled":false,"rental_uris":{"android":"levelo://app?vid=604d70e1-4bfc-4c1a-ad50-5c45b428d61e","ios":"levelo://app?vid=604d70e1-4bfc-4c1a-ad50-5c45b428d61e"},"vehicle_type_id":"4","last_reported":1704560756,"current_range_meters":23200,"station_id":"ce4bhr92rcd13ifvqhrg","pricing_plan_id":"free"},{"bike_id":"6c5eebbe-3606-40f4-b51a-cdf8266c0074","system_id":"levelo_inurba_marseille","lat":43.33024,"lon":5.3904,"is_reserved":false,"is_disabled":false,"rental_uris":{"android":"levelo://app?vid=6c5eebbe-3606-40f4-b51a-cdf8266c0074","ios":"levelo://app?vid=6c5eebbe-3606-40f4-b51a-cdf8266c0074"},"vehicle_type_id":"4","last_reported":1704560756,"current_range_meters":12400,"station_id":"","pricing_plan_id":"free"},{"bike_id":"50a06571-ee32-4006-8417-dd8ead2ab8e4","system_id":"levelo_inurba_marseille","lat":43.3302,"lon":5.39047,"is_reserved":false,"is_disabled":false,"rental_uris":{"android":"levelo://app?vid=50a06571-ee32-4006-8417-dd8ead2ab8e4","ios":"levelo://app?vid=50a06571-ee32-4006-8417-dd8ead2ab8e4"},"vehicle_type_id":"4","last_reported":1704560756,"current_range_meters":28800,"station_id":"ce4bhr92rcd13ifvqhrg","pricing_plan_id":"free"},{"bike_id":"8625464e-66d0-4621-bd34-1a2874fb7a19","system_id":"levelo_inurba_marseille","lat":43.330442,"lon":5.389148,"is_reserved":false,"is_disabled":false,"rental_uris":{"android":"levelo://app?vid=8625464e-66d0-4621-bd34-1a2874fb7a19","ios":"levelo://app?vid=8625464e-66d0-4621-bd34-1a2874fb7a19"},"vehicle_type_id":"4","last_reported":1704560756,"current_range_meters":10800,"station_id":"ce4bhr92rcd13ifvqhrg","pricing_plan_id":"free"},{"bike_id":"57a59c67-703f-4a83-aae5-f27109cb99b9","system_id":"levelo_inurba_marseille","lat":43.330442,"lon":5.389148,"is_reserved":false,"is_disabled":false,"rental_uris":{"android":"levelo://app?vid=57a59c67-703f-4a83-aae5-f27109cb99b9","ios":"levelo://app?vid=57a59c67-703f-4a83-aae5-f27109cb99b9"},"vehicle_type_id":"4","last_reported":1704560756,"current_range_meters":22400,"station_id":"ce4bhr92rcd13ifvqhrg","pricing_plan_id":"free"},{"bike_id":"a1229350-5dd9-473d-b3bc-f2a3ecdeb507","system_id":"levelo_inurba_marseille","lat":43.292644,"lon":5.384257,"is_reserved":false,"is_disabled":false,"rental_uris":{"android":"levelo://app?vid=a1229350-5dd9-473d-b3bc-f2a3ecdeb507","ios":"levelo://app?vid=a1229350-5dd9-473d-b3bc-f2a3ecdeb507"},"vehicle_type_id":"4","last_reported":1704560756,"current_range_meters":21200,"station_id":"ce4bh692rcd13ifvqea0","pricing_plan_id":"free"},{"bike_id":"090a8487-2f08-4d28-9c75-1545e65ce0d4","system_id":"levelo_inurba_marseille","lat":43.2901,"lon":5.381269,"is_reserved":false,"is_disabled":false,"rental_uris":{"android":"levelo://app?vid=090a8487-2f08-4d28-9c75-1545e65ce0d4","ios":"levelo://app?vid=090a8487-2f08-4d28-9c75-1545e65ce0d4"},"vehicle_type_id":"4","last_reported":1704560756,"current_range_meters":19600,"station_id":"ce4bh4p2rcd13ifvqe1g","pricing_plan_id":"free"},{"bike_id":"72aa130d-2443-48d2-bf3b-bae178d7e328","system_id":"levelo_inurba_marseille","lat":43.2901,"lon":5.381269,"is_reserved":false,"is_disabled":false,"rental_uris":{"android":"levelo://app?vid=72aa130d-2443-48d2-bf3b-bae178d7e328","ios":"levelo://app?vid=72aa130d-2443-48d2-bf3b-bae178d7e328"},"vehicle_type_id":"4","last_reported":1704560756,"current_range_meters":9600,"station_id":"ce4bh4p2rcd13ifvqe1g","pricing_plan_id":"free"},{"bike_id":"6c1bba3f-4d1f-4ea4-aa92-94bbfeaf271f","system_id":"levelo_inurba_marseille","lat":43.28856,"lon":5.358371,"is_reserved":false,"is_disabled":false,"rental_uris":{"android":"levelo://app?vid=6c1bba3f-4d1f-4ea4-aa92-94bbfeaf271f","ios":"levelo://app?vid=6c1bba3f-4d1f-4ea4-aa92-94bbfeaf271f"},"vehicle_type_id":"4","last_reported":1704560756,"current_range_meters":1600,"station_id":"ce4bhb12rcd13ifvqem0","pricing_plan_id":"free"},{"bike_id":"cd4cbadc-7eba-45d9-b14c-3b07c31487e2","system_id":"levelo_inurba_marseille","lat":43.28856,"lon":5.358371,"is_reserved":false,"is_disabled":false,"rental_uris":{"android":"levelo://app?vid=cd4cbadc-7eba-45d9-b14c-3b07c31487e2","ios":"levelo://app?vid=cd4cbadc-7eba-45d9-b14c-3b07c31487e2"},"vehicle_type_id":"4","last_reported":1704560756,"current_range_meters":13600,"station_id":"ce4bhb12rcd13ifvqem0","pricing_plan_id":"free"},{"bike_id":"83c714e2-2737-4e48-afcb-86ec7ddce011","system_id":"levelo_inurba_marseille","lat":43.312609,"lon":5.401662,"is_reserved":false,"is_disabled":false,"rental_uris":{"android":"levelo://app?vid=83c714e2-2737-4e48-afcb-86ec7ddce011","ios":"levelo://app?vid=83c714e2-2737-4e48-afcb-86ec7ddce011"},"vehicle_type_id":"4","last_reported":1704560756,"current_range_meters":22400,"station_id":"ce4bh092rcd13ifvqd30","pricing_plan_id":"free"},{"bike_id":"d6010514-a3fd-4163-bb29-118b6b540f45","system_id":"levelo_inurba_marseille","lat":43.28727,"lon":5.36078,"is_reserved":false,"is_disabled":false,"rental_uris":{"android":"levelo://app?vid=d6010514-a3fd-4163-bb29-118b6b540f45","ios":"levelo://app?vid=d6010514-a3fd-4163-bb29-118b6b540f45"},"vehicle_type_id":"4","last_reported":1704560756,"current_range_meters":19200,"station_id":"cki0cbj6b192h4jlfktg","pricing_plan_id":"free"},{"bike_id":"5c53de44-99cc-4112-ab13-0c2ed9659f54","system_id":"levelo_inurba_marseille","lat":43.286961,"lon":5.373785,"is_reserved":false,"is_disabled":false,"rental_uris":{"android":"levelo://app?vid=5c53de44-99cc-4112-ab13-0c2ed9659f54","ios":"levelo://app?vid=5c53de44-99cc-4112-ab13-0c2ed9659f54"},"vehicle_type_id":"4","last_reported":1704560756,"current_range_meters":24000,"station_id":"ce4bh3p2rcd13ifvqdq0","pricing_plan_id":"free"},{"bike_id":"3b274785-e176-4a01-b8a7-6a19e2f00809","system_id":"levelo_inurba_marseille","lat":43.298681,"lon":5.397225,"is_reserved":false,"is_disabled":false,"rental_uris":{"android":"levelo://app?vid=3b274785-e176-4a01-b8a7-6a19e2f00809","ios":"levelo://app?vid=3b274785-e176-4a01-b8a7-6a19e2f00809"},"vehicle_type_id":"4","last_reported":1704560756,"current_range_meters":16000,"station_id":"ce4bh0h2rcd13ifvqd50","pricing_plan_id":"free"},{"bike_id":"9247e80b-c38f-4006-a95a-82ced0c6ddf5","system_id":"levelo_inurba_marseille","lat":43.298681,"lon":5.397225,"is_reserved":false,"is_disabled":false,"rental_uris":{"android":"levelo://app?vid=9247e80b-c38f-4006-a95a-82ced0c6ddf5","ios":"levelo://app?vid=9247e80b-c38f-4006-a95a-82ced0c6ddf5"},"vehicle_type_id":"4","last_reported":1704560756,"current_range_meters":28400,"station_id":"ce4bh0h2rcd13ifvqd50","pricing_plan_id":"free"},{"bike_id":"916eb063-d023-420b-8af3-7121dbd6a2a9","system_id":"levelo_inurba_marseille","lat":43.286961,"lon":5.373785,"is_reserved":false,"is_disabled":false,"rental_uris":{"android":"levelo://app?vid=916eb063-d023-420b-8af3-7121dbd6a2a9","ios":"levelo://app?vid=916eb063-d023-420b-8af3-7121dbd6a2a9"},"vehicle_type_id":"4","last_reported":1704560756,"current_range_meters":16000,"station_id":"ce4bh3p2rcd13ifvqdq0","pricing_plan_id":"free"},{"bike_id":"ac5056cf-8b40-44a0-aad3-bc4037f1358d","system_id":"levelo_inurba_marseille","lat":43.286961,"lon":5.373785,"is_reserved":false,"is_disabled":false,"rental_uris":{"android":"levelo://app?vid=ac5056cf-8b40-44a0-aad3-bc4037f1358d","ios":"levelo://app?vid=ac5056cf-8b40-44a0-aad3-bc4037f1358d"},"vehicle_type_id":"4","last_reported":1704560756,"current_range_meters":21200,"station_id":"ce4bh3p2rcd13ifvqdq0","pricing_plan_id":"free"},{"bike_id":"24f56cda-bf05-4f56-b057-cda780df5e31","system_id":"levelo_inurba_marseille","lat":43.295194,"lon":5.39397,"is_reserved":false,"is_disabled":false,"rental_uris":{"android":"levelo://app?vid=24f56cda-bf05-4f56-b057-cda780df5e31","ios":"levelo://app?vid=24f56cda-bf05-4f56-b057-cda780df5e31"},"vehicle_type_id":"4","last_reported":1704560756,"current_range_meters":9200,"station_id":"ce4bh292rcd13ifvqdf0","pricing_plan_id":"free"},{"bike_id":"1b43b43f-aa17-4b65-8739-277ade569bda","system_id":"levelo_inurba_marseille","lat":43.295196,"lon":5.39397,"is_reserved":false,"is_disabled":false,"rental_uris":{"android":"levelo://app?vid=1b43b43f-aa17-4b65-8739-277ade569bda","ios":"levelo://app?vid=1b43b43f-aa17-4b65-8739-277ade569bda"},"vehicle_type_id":"4","last_reported":1704560756,"current_range_meters":2000,"station_id":"ce4bh292rcd13ifvqdf0","pricing_plan_id":"free"},{"bike_id":"07f77bee-313e-491d-8d20-57d4f7ec4807","system_id":"levelo_inurba_marseille","lat":43.290345,"lon":5.38646,"is_reserved":false,"is_disabled":false,"rental_uris":{"android":"levelo://app?vid=07f77bee-313e-491d-8d20-57d4f7ec4807","ios":"levelo://app?vid=07f77bee-313e-491d-8d20-57d4f7ec4807"},"vehicle_type_id":"4","last_reported":1704560756,"current_range_meters":24800,"station_id":"ce4bh4p2rcd13ifvqe0g","pricing_plan_id":"free"},{"bike_id":"02eed534-c23b-40f9-bcec-3640200deef0","system_id":"levelo_inurba_marseille","lat":43.290345,"lon":5.38646,"is_reserved":false,"is_disabled":false,"rental_uris":{"android":"levelo://app?vid=02eed534-c23b-40f9-bcec-3640200deef0","ios":"levelo://app?vid=02eed534-c23b-40f9-bcec-3640200deef0"},"vehicle_type_id":"4","last_reported":1704560756,"current_range_meters":19200,"station_id":"ce4bh4p2rcd13ifvqe0g","pricing_plan_id":"free"},{"bike_id":"60b8e9cf-be69-4974-a9f2-c48ac7f4bf9c","system_id":"levelo_inurba_marseille","lat":43.290345,"lon":5.38646,"is_reserved":false,"is_disabled":false,"rental_uris":{"android":"levelo://app?vid=60b8e9cf-be69-4974-a9f2-c48ac7f4bf9c","ios":"levelo://app?vid=60b8e9cf-be69-4974-a9f2-c48ac7f4bf9c"},"vehicle_type_id":"4","last_reported":1704560756,"current_range_meters":8000,"station_id":"ce4bh4p2rcd13ifvqe0g","pricing_plan_id":"free"},{"bike_id":"3d586703-e7c7-4c93-820c-cc285dc4e8ac","system_id":"levelo_inurba_marseille","lat":43.286039,"lon":5.370681,"is_reserved":false,"is_disabled":false,"rental_uris":{"android":"levelo://app?vid=3d586703-e7c7-4c93-820c-cc285dc4e8ac","ios":"levelo://app?vid=3d586703-e7c7-4c93-820c-cc285dc4e8ac"},"vehicle_type_id":"4","last_reported":1704560756,"current_range_meters":10000,"station_id":"ce4bht12rcd13ifvqi60","pricing_plan_id":"free"},{"bike_id":"d1e90008-3cde-4501-b835-3157988b71ce","system_id":"levelo_inurba_marseille","lat":43.316821,"lon":5.404737,"is_reserved":false,"is_disabled":false,"rental_uris":{"android":"levelo://app?vid=d1e90008-3cde-4501-b835-3157988b71ce","ios":"levelo://app?vid=d1e90008-3cde-4501-b835-3157988b71ce"},"vehicle_type_id":"4","last_reported":1704560756,"current_range_meters":22800,"station_id":"ce4bh012rcd13ifvqd00","pricing_plan_id":"free"},{"bike_id":"bae476ad-5050-40a2-9a41-7b3ae0fa9456","system_id":"levelo_inurba_marseille","lat":43.28463,"lon":5.35895,"is_reserved":false,"is_disabled":false,"rental_uris":{"android":"levelo://app?vid=bae476ad-5050-40a2-9a41-7b3ae0fa9456","ios":"levelo://app?vid=bae476ad-5050-40a2-9a41-7b3ae0fa9456"},"vehicle_type_id":"4","last_reported":1704560756,"current_range_meters":24800,"station_id":"ce4bhah2rcd13ifvqei0","pricing_plan_id":"free"},{"bike_id":"6a56f94b-25ec-4c12-9c3b-b2e738918f0c","system_id":"levelo_inurba_marseille","lat":43.28459,"lon":5.35893,"is_reserved":false,"is_disabled":false,"rental_uris":{"android":"levelo://app?vid=6a56f94b-25ec-4c12-9c3b-b2e738918f0c","ios":"levelo://app?vid=6a56f94b-25ec-4c12-9c3b-b2e738918f0c"},"vehicle_type_id":"4","last_reported":1704560756,"current_range_meters":31200,"station_id":"ce4bhah2rcd13ifvqei0","pricing_plan_id":"free"},{"bike_id":"09c38a4d-006c-42cc-80f0-bc5b21f3c90a","system_id":"levelo_inurba_marseille","lat":43.28458,"lon":5.35883,"is_reserved":false,"is_disabled":false,"rental_uris":{"android":"levelo://app?vid=09c38a4d-006c-42cc-80f0-bc5b21f3c90a","ios":"levelo://app?vid=09c38a4d-006c-42cc-80f0-bc5b21f3c90a"},"vehicle_type_id":"4","last_reported":1704560756,"current_range_meters":1200,"station_id":"ce4bhah2rcd13ifvqei0","pricing_plan_id":"free"},{"bike_id":"96910b03-f01f-4ccf-9e76-9a065bfbbec5","system_id":"levelo_inurba_marseille","lat":43.285856,"lon":5.350771,"is_reserved":false,"is_disabled":false,"rental_uris":{"android":"levelo://app?vid=96910b03-f01f-4ccf-9e76-9a065bfbbec5","ios":"levelo://app?vid=96910b03-f01f-4ccf-9e76-9a065bfbbec5"},"vehicle_type_id":"4","last_reported":1704560756,"current_range_meters":31200,"station_id":"ce4bhch2rcd13ifvqeug","pricing_plan_id":"free"},{"bike_id":"77dcd9db-8541-482e-80ea-3465701dc93c","system_id":"levelo_inurba_marseille","lat":43.285856,"lon":5.350771,"is_reserved":false,"is_disabled":false,"rental_uris":{"android":"levelo://app?vid=77dcd9db-8541-482e-80ea-3465701dc93c","ios":"levelo://app?vid=77dcd9db-8541-482e-80ea-3465701dc93c"},"vehicle_type_id":"4","last_reported":1704560756,"current_range_meters":18800,"station_id":"ce4bhch2rcd13ifvqeug","pricing_plan_id":"free"},{"bike_id":"e7e08145-4601-41a4-9b39-d7f05b7c27b0","system_id":"levelo_inurba_marseille","lat":43.285856,"lon":5.350771,"is_reserved":false,"is_disabled":false,"rental_uris":{"android":"levelo://app?vid=e7e08145-4601-41a4-9b39-d7f05b7c27b0","ios":"levelo://app?vid=e7e08145-4601-41a4-9b39-d7f05b7c27b0"},"vehicle_type_id":"4","last_reported":1704560756,"current_range_meters":12800,"station_id":"ce4bhch2rcd13ifvqeug","pricing_plan_id":"free"},{"bike_id":"8ae8fd29-973b-477c-9463-de857e7f5178","system_id":"levelo_inurba_marseille","lat":43.285856,"lon":5.350771,"is_reserved":false,"is_disabled":false,"rental_uris":{"android":"levelo://app?vid=8ae8fd29-973b-477c-9463-de857e7f5178","ios":"levelo://app?vid=8ae8fd29-973b-477c-9463-de857e7f5178"},"vehicle_type_id":"4","last_reported":1704560756,"current_range_meters":25600,"station_id":"ce4bhch2rcd13ifvqeug","pricing_plan_id":"free"},{"bike_id":"154efb84-26fc-49e6-ada6-5bf0c44dd6f0","system_id":"levelo_inurba_marseille","lat":43.285856,"lon":5.350771,"is_reserved":false,"is_disabled":false,"rental_uris":{"android":"levelo://app?vid=154efb84-26fc-49e6-ada6-5bf0c44dd6f0","ios":"levelo://app?vid=154efb84-26fc-49e6-ada6-5bf0c44dd6f0"},"vehicle_type_id":"4","last_reported":1704560756,"current_range_meters":13200,"station_id":"ce4bhch2rcd13ifvqeug","pricing_plan_id":"free"},{"bike_id":"01e59b64-29e9-4e48-86ad-7a3b4b582e04","system_id":"levelo_inurba_marseille","lat":43.285856,"lon":5.350771,"is_reserved":false,"is_disabled":false,"rental_uris":{"android":"levelo://app?vid=01e59b64-29e9-4e48-86ad-7a3b4b582e04","ios":"levelo://app?vid=01e59b64-29e9-4e48-86ad-7a3b4b582e04"},"vehicle_type_id":"4","last_reported":1704560756,"current_range_meters":30400,"station_id":"ce4bhch2rcd13ifvqeug","pricing_plan_id":"free"},{"bike_id":"43b3ea92-a636-409a-a2bf-2cfcdf83346d","system_id":"levelo_inurba_marseille","lat":43.285856,"lon":5.350771,"is_reserved":false,"is_disabled":false,"rental_uris":{"android":"levelo://app?vid=43b3ea92-a636-409a-a2bf-2cfcdf83346d","ios":"levelo://app?vid=43b3ea92-a636-409a-a2bf-2cfcdf83346d"},"vehicle_type_id":"4","last_reported":1704560756,"current_range_meters":28000,"station_id":"ce4bhch2rcd13ifvqeug","pricing_plan_id":"free"},{"bike_id":"5688a380-9bf4-41fc-824e-d906fd2a2179","system_id":"levelo_inurba_marseille","lat":43.285856,"lon":5.350771,"is_reserved":false,"is_disabled":false,"rental_uris":{"android":"levelo://app?vid=5688a380-9bf4-41fc-824e-d906fd2a2179","ios":"levelo://app?vid=5688a380-9bf4-41fc-824e-d906fd2a2179"},"vehicle_type_id":"4","last_reported":1704560756,"current_range_meters":17200,"station_id":"ce4bhch2rcd13ifvqeug","pricing_plan_id":"free"},{"bike_id":"a8a5a961-0292-4b80-81a4-a594170f711e","system_id":"levelo_inurba_marseille","lat":43.285856,"lon":5.350771,"is_reserved":false,"is_disabled":false,"rental_uris":{"android":"levelo://app?vid=a8a5a961-0292-4b80-81a4-a594170f711e","ios":"levelo://app?vid=a8a5a961-0292-4b80-81a4-a594170f711e"},"vehicle_type_id":"4","last_reported":1704560756,"current_range_meters":22000,"station_id":"ce4bhch2rcd13ifvqeug","pricing_plan_id":"free"},{"bike_id":"e7d08906-0d87-4715-8ffa-bdb9be03abd3","system_id":"levelo_inurba_marseille","lat":43.285856,"lon":5.350771,"is_reserved":false,"is_disabled":false,"rental_uris":{"android":"levelo://app?vid=e7d08906-0d87-4715-8ffa-bdb9be03abd3","ios":"levelo://app?vid=e7d08906-0d87-4715-8ffa-bdb9be03abd3"},"vehicle_type_id":"4","last_reported":1704560756,"current_range_meters":21200,"station_id":"ce4bhch2rcd13ifvqeug","pricing_plan_id":"free"},{"bike_id":"ad416916-31a8-43a9-a9e3-26fdda5903b3","system_id":"levelo_inurba_marseille","lat":43.285848,"lon":5.350787,"is_reserved":false,"is_disabled":false,"rental_uris":{"android":"levelo://app?vid=ad416916-31a8-43a9-a9e3-26fdda5903b3","ios":"levelo://app?vid=ad416916-31a8-43a9-a9e3-26fdda5903b3"},"vehicle_type_id":"4","last_reported":1704560756,"current_range_meters":6400,"station_id":"ce4bhch2rcd13ifvqeug","pricing_plan_id":"free"},{"bike_id":"f6d84242-536a-4227-995d-300e54eb18f6","system_id":"levelo_inurba_marseille","lat":43.285856,"lon":5.350771,"is_reserved":false,"is_disabled":false,"rental_uris":{"android":"levelo://app?vid=f6d84242-536a-4227-995d-300e54eb18f6","ios":"levelo://app?vid=f6d84242-536a-4227-995d-300e54eb18f6"},"vehicle_type_id":"4","last_reported":1704560756,"current_range_meters":12800,"station_id":"ce4bhch2rcd13ifvqeug","pricing_plan_id":"free"},{"bike_id":"fb57a4ce-b80e-4e72-9b44-0357d82d3002","system_id":"levelo_inurba_marseille","lat":43.285848,"lon":5.350787,"is_reserved":false,"is_disabled":false,"rental_uris":{"android":"levelo://app?vid=fb57a4ce-b80e-4e72-9b44-0357d82d3002","ios":"levelo://app?vid=fb57a4ce-b80e-4e72-9b44-0357d82d3002"},"vehicle_type_id":"4","last_reported":1704560756,"current_range_meters":23600,"station_id":"ce4bhch2rcd13ifvqeug","pricing_plan_id":"free"},{"bike_id":"b0d9c37a-12b7-4fcf-b2cc-70034df7a04b","system_id":"levelo_inurba_marseille","lat":43.2984,"lon":5.40174,"is_reserved":false,"is_disabled":false,"rental_uris":{"android":"levelo://app?vid=b0d9c37a-12b7-4fcf-b2cc-70034df7a04b","ios":"levelo://app?vid=b0d9c37a-12b7-4fcf-b2cc-70034df7a04b"},"vehicle_type_id":"4","last_reported":1704560756,"current_range_meters":3200,"station_id":"","pricing_plan_id":"free"},{"bike_id":"fbad2125-fac4-47af-8aef-bb952a3b5438","system_id":"levelo_inurba_marseille","lat":43.2841,"lon":5.37516,"is_reserved":false,"is_disabled":false,"rental_uris":{"android":"levelo://app?vid=fbad2125-fac4-47af-8aef-bb952a3b5438","ios":"levelo://app?vid=fbad2125-fac4-47af-8aef-bb952a3b5438"},"vehicle_type_id":"4","last_reported":1704560756,"current_range_meters":24800,"station_id":"ce4bh412rcd13ifvqds0","pricing_plan_id":"free"},{"bike_id":"5a366b9d-bc08-48bb-b07b-d2b3a96dbe8f","system_id":"levelo_inurba_marseille","lat":43.286595,"lon":5.386795,"is_reserved":false,"is_disabled":false,"rental_uris":{"android":"levelo://app?vid=5a366b9d-bc08-48bb-b07b-d2b3a96dbe8f","ios":"levelo://app?vid=5a366b9d-bc08-48bb-b07b-d2b3a96dbe8f"},"vehicle_type_id":"4","last_reported":1704560756,"current_range_meters":11200,"station_id":"ce4bh492rcd13ifvqdug","pricing_plan_id":"free"},{"bike_id":"002b4379-69d7-41c9-ab53-4de44a1e07fa","system_id":"levelo_inurba_marseille","lat":43.33711,"lon":5.39184,"is_reserved":false,"is_disabled":false,"rental_uris":{"android":"levelo://app?vid=002b4379-69d7-41c9-ab53-4de44a1e07fa","ios":"levelo://app?vid=002b4379-69d7-41c9-ab53-4de44a1e07fa"},"vehicle_type_id":"4","last_reported":1704560756,"current_range_meters":11200,"station_id":"ce4bhr92rcd13ifvqhsg","pricing_plan_id":"free"},{"bike_id":"77f21ead-88be-416e-8b5b-c5c2515aacd1","system_id":"levelo_inurba_marseille","lat":43.297946,"lon":5.404063,"is_reserved":false,"is_disabled":false,"rental_uris":{"android":"levelo://app?vid=77f21ead-88be-416e-8b5b-c5c2515aacd1","ios":"levelo://app?vid=77f21ead-88be-416e-8b5b-c5c2515aacd1"},"vehicle_type_id":"4","last_reported":1704560756,"current_range_meters":13600,"station_id":"ce4bh112rcd13ifvqd90","pricing_plan_id":"free"},{"bike_id":"74c757a3-57f5-43bc-9cbd-c0caf045d565","system_id":"levelo_inurba_marseille","lat":43.284219,"lon":5.3497,"is_reserved":false,"is_disabled":false,"rental_uris":{"android":"levelo://app?vid=74c757a3-57f5-43bc-9cbd-c0caf045d565","ios":"levelo://app?vid=74c757a3-57f5-43bc-9cbd-c0caf045d565"},"vehicle_type_id":"4","last_reported":1704560756,"current_range_meters":28800,"station_id":"ce4bhbh2rcd13ifvqepg","pricing_plan_id":"free"},{"bike_id":"c3f119c8-a2c3-48cd-a23a-407567ed222b","system_id":"levelo_inurba_marseille","lat":43.284217,"lon":5.349697,"is_reserved":false,"is_disabled":false,"rental_uris":{"android":"levelo://app?vid=c3f119c8-a2c3-48cd-a23a-407567ed222b","ios":"levelo://app?vid=c3f119c8-a2c3-48cd-a23a-407567ed222b"},"vehicle_type_id":"4","last_reported":1704560756,"current_range_meters":31200,"station_id":"ce4bhbh2rcd13ifvqepg","pricing_plan_id":"free"},{"bike_id":"d9053633-3e20-4b04-aade-d069042c0c0a","system_id":"levelo_inurba_marseille","lat":43.284217,"lon":5.349697,"is_reserved":false,"is_disabled":false,"rental_uris":{"android":"levelo://app?vid=d9053633-3e20-4b04-aade-d069042c0c0a","ios":"levelo://app?vid=d9053633-3e20-4b04-aade-d069042c0c0a"},"vehicle_type_id":"4","last_reported":1704560756,"current_range_meters":18400,"station_id":"ce4bhbh2rcd13ifvqepg","pricing_plan_id":"free"},{"bike_id":"4714bef9-5f38-4c26-b888-7b40cc11f281","system_id":"levelo_inurba_marseille","lat":43.284219,"lon":5.3497,"is_reserved":false,"is_disabled":false,"rental_uris":{"android":"levelo://app?vid=4714bef9-5f38-4c26-b888-7b40cc11f281","ios":"levelo://app?vid=4714bef9-5f38-4c26-b888-7b40cc11f281"},"vehicle_type_id":"4","last_reported":1704560756,"current_range_meters":30000,"station_id":"ce4bhbh2rcd13ifvqepg","pricing_plan_id":"free"},{"bike_id":"a2b2319c-8302-4c6c-8e3d-f0397969e6f4","system_id":"levelo_inurba_marseille","lat":43.284217,"lon":5.349697,"is_reserved":false,"is_disabled":false,"rental_uris":{"android":"levelo://app?vid=a2b2319c-8302-4c6c-8e3d-f0397969e6f4","ios":"levelo://app?vid=a2b2319c-8302-4c6c-8e3d-f0397969e6f4"},"vehicle_type_id":"4","last_reported":1704560756,"current_range_meters":14400,"station_id":"ce4bhbh2rcd13ifvqepg","pricing_plan_id":"free"},{"bike_id":"5d724bc6-af52-4d46-8d06-42885fe6618d","system_id":"levelo_inurba_marseille","lat":43.284217,"lon":5.349697,"is_reserved":false,"is_disabled":false,"rental_uris":{"android":"levelo://app?vid=5d724bc6-af52-4d46-8d06-42885fe6618d","ios":"levelo://app?vid=5d724bc6-af52-4d46-8d06-42885fe6618d"},"vehicle_type_id":"4","last_reported":1704560756,"current_range_meters":2400,"station_id":"ce4bhbh2rcd13ifvqepg","pricing_plan_id":"free"},{"bike_id":"0054c85f-74c8-4bfe-be20-04de88ba1c36","system_id":"levelo_inurba_marseille","lat":43.292724,"lon":5.401131,"is_reserved":false,"is_disabled":false,"rental_uris":{"android":"levelo://app?vid=0054c85f-74c8-4bfe-be20-04de88ba1c36","ios":"levelo://app?vid=0054c85f-74c8-4bfe-be20-04de88ba1c36"},"vehicle_type_id":"4","last_reported":1704560756,"current_range_meters":29200,"station_id":"ce4bh312rcd13ifvqdk0","pricing_plan_id":"free"},{"bike_id":"fd817817-289b-4ac7-a1d1-8ad432f14ee3","system_id":"levelo_inurba_marseille","lat":43.282744,"lon":5.350533,"is_reserved":false,"is_disabled":false,"rental_uris":{"android":"levelo://app?vid=fd817817-289b-4ac7-a1d1-8ad432f14ee3","ios":"levelo://app?vid=fd817817-289b-4ac7-a1d1-8ad432f14ee3"},"vehicle_type_id":"4","last_reported":1704560756,"current_range_meters":20400,"station_id":"ce4bhbp2rcd13ifvqerg","pricing_plan_id":"free"},{"bike_id":"f504af7c-df2b-40ed-b292-73fc5838a0d1","system_id":"levelo_inurba_marseille","lat":43.282744,"lon":5.350533,"is_reserved":false,"is_disabled":false,"rental_uris":{"android":"levelo://app?vid=f504af7c-df2b-40ed-b292-73fc5838a0d1","ios":"levelo://app?vid=f504af7c-df2b-40ed-b292-73fc5838a0d1"},"vehicle_type_id":"4","last_reported":1704560756,"current_range_meters":24000,"station_id":"ce4bhbp2rcd13ifvqerg","pricing_plan_id":"free"},{"bike_id":"f8dd31ec-fac5-40aa-bf57-1849aadae574","system_id":"levelo_inurba_marseille","lat":43.282744,"lon":5.350533,"is_reserved":false,"is_disabled":false,"rental_uris":{"android":"levelo://app?vid=f8dd31ec-fac5-40aa-bf57-1849aadae574","ios":"levelo://app?vid=f8dd31ec-fac5-40aa-bf57-1849aadae574"},"vehicle_type_id":"4","last_reported":1704560756,"current_range_meters":27600,"station_id":"ce4bhbp2rcd13ifvqerg","pricing_plan_id":"free"},{"bike_id":"0460cab1-97c5-4774-a16c-e37100078aa5","system_id":"levelo_inurba_marseille","lat":43.282754,"lon":5.350519,"is_reserved":false,"is_disabled":false,"rental_uris":{"android":"levelo://app?vid=0460cab1-97c5-4774-a16c-e37100078aa5","ios":"levelo://app?vid=0460cab1-97c5-4774-a16c-e37100078aa5"},"vehicle_type_id":"4","last_reported":1704560756,"current_range_meters":12800,"station_id":"ce4bhbp2rcd13ifvqerg","pricing_plan_id":"free"},{"bike_id":"5eb379ff-9691-48e3-9afe-cbaece97f5e8","system_id":"levelo_inurba_marseille","lat":43.282754,"lon":5.350519,"is_reserved":false,"is_disabled":false,"rental_uris":{"android":"levelo://app?vid=5eb379ff-9691-48e3-9afe-cbaece97f5e8","ios":"levelo://app?vid=5eb379ff-9691-48e3-9afe-cbaece97f5e8"},"vehicle_type_id":"4","last_reported":1704560756,"current_range_meters":31200,"station_id":"ce4bhbp2rcd13ifvqerg","pricing_plan_id":"free"},{"bike_id":"ebaf8194-6ffd-4e80-9a8d-566a84ceb7f8","system_id":"levelo_inurba_marseille","lat":43.282754,"lon":5.350519,"is_reserved":false,"is_disabled":false,"rental_uris":{"android":"levelo://app?vid=ebaf8194-6ffd-4e80-9a8d-566a84ceb7f8","ios":"levelo://app?vid=ebaf8194-6ffd-4e80-9a8d-566a84ceb7f8"},"vehicle_type_id":"4","last_reported":1704560756,"current_range_meters":18000,"station_id":"ce4bhbp2rcd13ifvqerg","pricing_plan_id":"free"},{"bike_id":"21804342-5a63-4a0e-ad51-7b719089cba5","system_id":"levelo_inurba_marseille","lat":43.28041,"lon":5.369457,"is_reserved":false,"is_disabled":false,"rental_uris":{"android":"levelo://app?vid=21804342-5a63-4a0e-ad51-7b719089cba5","ios":"levelo://app?vid=21804342-5a63-4a0e-ad51-7b719089cba5"},"vehicle_type_id":"4","last_reported":1704560756,"current_range_meters":21200,"station_id":"ce4bha12rcd13ifvqef0","pricing_plan_id":"free"},{"bike_id":"9985952e-90d5-4cd6-904e-6ab0a5ed76c5","system_id":"levelo_inurba_marseille","lat":43.281044,"lon":5.378308,"is_reserved":false,"is_disabled":false,"rental_uris":{"android":"levelo://app?vid=9985952e-90d5-4cd6-904e-6ab0a5ed76c5","ios":"levelo://app?vid=9985952e-90d5-4cd6-904e-6ab0a5ed76c5"},"vehicle_type_id":"4","last_reported":1704560756,"current_range_meters":13200,"station_id":"ce4bha12rcd13ifvqee0","pricing_plan_id":"free"},{"bike_id":"fd544800-01de-4ece-b10f-f1a15f393e49","system_id":"levelo_inurba_marseille","lat":43.28566,"lon":5.39505,"is_reserved":false,"is_disabled":false,"rental_uris":{"android":"levelo://app?vid=fd544800-01de-4ece-b10f-f1a15f393e49","ios":"levelo://app?vid=fd544800-01de-4ece-b10f-f1a15f393e49"},"vehicle_type_id":"4","last_reported":1704560756,"current_range_meters":25600,"station_id":"ce4bh292rcd13ifvqdg0","pricing_plan_id":"free"},{"bike_id":"a0d20dd8-a3b3-4fa3-a6e9-2896226abf35","system_id":"levelo_inurba_marseille","lat":43.326605,"lon":5.409903,"is_reserved":false,"is_disabled":false,"rental_uris":{"android":"levelo://app?vid=a0d20dd8-a3b3-4fa3-a6e9-2896226abf35","ios":"levelo://app?vid=a0d20dd8-a3b3-4fa3-a6e9-2896226abf35"},"vehicle_type_id":"4","last_reported":1704560756,"current_range_meters":10400,"station_id":"ce4bhpp2rcd13ifvqhgg","pricing_plan_id":"free"},{"bike_id":"804748a1-919c-4286-95e2-023037287763","system_id":"levelo_inurba_marseille","lat":43.326605,"lon":5.409903,"is_reserved":false,"is_disabled":false,"rental_uris":{"android":"levelo://app?vid=804748a1-919c-4286-95e2-023037287763","ios":"levelo://app?vid=804748a1-919c-4286-95e2-023037287763"},"vehicle_type_id":"4","last_reported":1704560756,"current_range_meters":27600,"station_id":"ce4bhpp2rcd13ifvqhgg","pricing_plan_id":"free"},{"bike_id":"73b7c303-bb17-492e-9d0f-94d5ac695eac","system_id":"levelo_inurba_marseille","lat":43.32658,"lon":5.40992,"is_reserved":false,"is_disabled":false,"rental_uris":{"android":"levelo://app?vid=73b7c303-bb17-492e-9d0f-94d5ac695eac","ios":"levelo://app?vid=73b7c303-bb17-492e-9d0f-94d5ac695eac"},"vehicle_type_id":"4","last_reported":1704560756,"current_range_meters":20800,"station_id":"ce4bhpp2rcd13ifvqhgg","pricing_plan_id":"free"},{"bike_id":"42cbd23f-a351-4504-8913-fdf670468387","system_id":"levelo_inurba_marseille","lat":43.304188,"lon":5.412904,"is_reserved":false,"is_disabled":false,"rental_uris":{"android":"levelo://app?vid=42cbd23f-a351-4504-8913-fdf670468387","ios":"levelo://app?vid=42cbd23f-a351-4504-8913-fdf670468387"},"vehicle_type_id":"4","last_reported":1704560756,"current_range_meters":1600,"station_id":"ce4bhop2rcd13ifvqh8g","pricing_plan_id":"free"},{"bike_id":"3d351d06-0266-45af-8adb-554012353f4c","system_id":"levelo_inurba_marseille","lat":43.304188,"lon":5.412904,"is_reserved":false,"is_disabled":false,"rental_uris":{"android":"levelo://app?vid=3d351d06-0266-45af-8adb-554012353f4c","ios":"levelo://app?vid=3d351d06-0266-45af-8adb-554012353f4c"},"vehicle_type_id":"4","last_reported":1704560756,"current_range_meters":27200,"station_id":"ce4bhop2rcd13ifvqh8g","pricing_plan_id":"free"},{"bike_id":"6b32fc1f-04a9-4fe2-b9d5-f7ed7bb851d8","system_id":"levelo_inurba_marseille","lat":43.304188,"lon":5.412904,"is_reserved":false,"is_disabled":false,"rental_uris":{"android":"levelo://app?vid=6b32fc1f-04a9-4fe2-b9d5-f7ed7bb851d8","ios":"levelo://app?vid=6b32fc1f-04a9-4fe2-b9d5-f7ed7bb851d8"},"vehicle_type_id":"4","last_reported":1704560756,"current_range_meters":3600,"station_id":"ce4bhop2rcd13ifvqh8g","pricing_plan_id":"free"},{"bike_id":"34d0ac35-3ac7-4b8b-a1c5-105fd039b867","system_id":"levelo_inurba_marseille","lat":43.304188,"lon":5.412904,"is_reserved":false,"is_disabled":false,"rental_uris":{"android":"levelo://app?vid=34d0ac35-3ac7-4b8b-a1c5-105fd039b867","ios":"levelo://app?vid=34d0ac35-3ac7-4b8b-a1c5-105fd039b867"},"vehicle_type_id":"4","last_reported":1704560756,"current_range_meters":13600,"station_id":"ce4bhop2rcd13ifvqh8g","pricing_plan_id":"free"},{"bike_id":"618b2525-98d1-43ef-9f26-2b907efca56c","system_id":"levelo_inurba_marseille","lat":43.279087,"lon":5.380114,"is_reserved":false,"is_disabled":false,"rental_uris":{"android":"levelo://app?vid=618b2525-98d1-43ef-9f26-2b907efca56c","ios":"levelo://app?vid=618b2525-98d1-43ef-9f26-2b907efca56c"},"vehicle_type_id":"4","last_reported":1704560756,"current_range_meters":14800,"station_id":"ce4bhf92rcd13ifvqf50","pricing_plan_id":"free"},{"bike_id":"1773922a-ba1e-48f6-8178-120cf1f3455c","system_id":"levelo_inurba_marseille","lat":43.279087,"lon":5.380114,"is_reserved":false,"is_disabled":false,"rental_uris":{"android":"levelo://app?vid=1773922a-ba1e-48f6-8178-120cf1f3455c","ios":"levelo://app?vid=1773922a-ba1e-48f6-8178-120cf1f3455c"},"vehicle_type_id":"4","last_reported":1704560756,"current_range_meters":15200,"station_id":"ce4bhf92rcd13ifvqf50","pricing_plan_id":"free"},{"bike_id":"d419f4ba-d163-4558-9cba-a3bf24fb64f1","system_id":"levelo_inurba_marseille","lat":43.287154,"lon":5.399979,"is_reserved":false,"is_disabled":false,"rental_uris":{"android":"levelo://app?vid=d419f4ba-d163-4558-9cba-a3bf24fb64f1","ios":"levelo://app?vid=d419f4ba-d163-4558-9cba-a3bf24fb64f1"},"vehicle_type_id":"4","last_reported":1704560756,"current_range_meters":18800,"station_id":"ce4bho92rcd13ifvqh3g","pricing_plan_id":"free"},{"bike_id":"693842fc-43e8-49a6-a91f-9437296dc33e","system_id":"levelo_inurba_marseille","lat":43.287154,"lon":5.399979,"is_reserved":false,"is_disabled":false,"rental_uris":{"android":"levelo://app?vid=693842fc-43e8-49a6-a91f-9437296dc33e","ios":"levelo://app?vid=693842fc-43e8-49a6-a91f-9437296dc33e"},"vehicle_type_id":"4","last_reported":1704560756,"current_range_meters":19200,"station_id":"ce4bho92rcd13ifvqh3g","pricing_plan_id":"free"},{"bike_id":"00e0cd74-0fea-469c-8661-e351e0a91458","system_id":"levelo_inurba_marseille","lat":43.320045,"lon":5.415048,"is_reserved":false,"is_disabled":false,"rental_uris":{"android":"levelo://app?vid=00e0cd74-0fea-469c-8661-e351e0a91458","ios":"levelo://app?vid=00e0cd74-0fea-469c-8661-e351e0a91458"},"vehicle_type_id":"4","last_reported":1704560756,"current_range_meters":12800,"station_id":"ce4bhq92rcd13ifvqhkg","pricing_plan_id":"free"},{"bike_id":"c111bfd0-06ad-4d16-96bf-3a79a029a6ba","system_id":"levelo_inurba_marseille","lat":43.320045,"lon":5.415046,"is_reserved":false,"is_disabled":false,"rental_uris":{"android":"levelo://app?vid=c111bfd0-06ad-4d16-96bf-3a79a029a6ba","ios":"levelo://app?vid=c111bfd0-06ad-4d16-96bf-3a79a029a6ba"},"vehicle_type_id":"4","last_reported":1704560756,"current_range_meters":29200,"station_id":"ce4bhq92rcd13ifvqhkg","pricing_plan_id":"free"},{"bike_id":"c091dd33-318a-4a7a-b50f-997c9e30af63","system_id":"levelo_inurba_marseille","lat":43.2996,"lon":5.41326,"is_reserved":false,"is_disabled":false,"rental_uris":{"android":"levelo://app?vid=c091dd33-318a-4a7a-b50f-997c9e30af63","ios":"levelo://app?vid=c091dd33-318a-4a7a-b50f-997c9e30af63"},"vehicle_type_id":"4","last_reported":1704560756,"current_range_meters":30000,"station_id":"ce4bhp12rcd13ifvqh9g","pricing_plan_id":"free"},{"bike_id":"8524d087-6bd2-40eb-80a2-cb0002b4ae05","system_id":"levelo_inurba_marseille","lat":43.279742,"lon":5.38744,"is_reserved":false,"is_disabled":false,"rental_uris":{"android":"levelo://app?vid=8524d087-6bd2-40eb-80a2-cb0002b4ae05","ios":"levelo://app?vid=8524d087-6bd2-40eb-80a2-cb0002b4ae05"},"vehicle_type_id":"4","last_reported":1704560756,"current_range_meters":1600,"station_id":"ce4bhg12rcd13ifvqf80","pricing_plan_id":"free"},{"bike_id":"b8cb2190-720c-4b59-bfb8-59d79db26918","system_id":"levelo_inurba_marseille","lat":43.279742,"lon":5.38744,"is_reserved":false,"is_disabled":false,"rental_uris":{"android":"levelo://app?vid=b8cb2190-720c-4b59-bfb8-59d79db26918","ios":"levelo://app?vid=b8cb2190-720c-4b59-bfb8-59d79db26918"},"vehicle_type_id":"4","last_reported":1704560756,"current_range_meters":10400,"station_id":"ce4bhg12rcd13ifvqf80","pricing_plan_id":"free"},{"bike_id":"677ca596-95ab-4d77-8424-2822874d3d4f","system_id":"levelo_inurba_marseille","lat":43.292569,"lon":5.409107,"is_reserved":false,"is_disabled":false,"rental_uris":{"android":"levelo://app?vid=677ca596-95ab-4d77-8424-2822874d3d4f","ios":"levelo://app?vid=677ca596-95ab-4d77-8424-2822874d3d4f"},"vehicle_type_id":"4","last_reported":1704560756,"current_range_meters":16000,"station_id":"ce4bh192rcd13ifvqdc0","pricing_plan_id":"free"},{"bike_id":"63d8ca79-8dd4-4dfd-96ac-ef3a7de66591","system_id":"levelo_inurba_marseille","lat":43.27618,"lon":5.361009,"is_reserved":false,"is_disabled":false,"rental_uris":{"android":"levelo://app?vid=63d8ca79-8dd4-4dfd-96ac-ef3a7de66591","ios":"levelo://app?vid=63d8ca79-8dd4-4dfd-96ac-ef3a7de66591"},"vehicle_type_id":"4","last_reported":1704560756,"current_range_meters":24000,"station_id":"ce4bgj92rcd13ifvqbe0","pricing_plan_id":"free"},{"bike_id":"d5b382b5-4769-41c0-86a7-f7277acff2b1","system_id":"levelo_inurba_marseille","lat":43.27618,"lon":5.361009,"is_reserved":false,"is_disabled":false,"rental_uris":{"android":"levelo://app?vid=d5b382b5-4769-41c0-86a7-f7277acff2b1","ios":"levelo://app?vid=d5b382b5-4769-41c0-86a7-f7277acff2b1"},"vehicle_type_id":"4","last_reported":1704560756,"current_range_meters":22400,"station_id":"ce4bgj92rcd13ifvqbe0","pricing_plan_id":"free"},{"bike_id":"f5949106-917a-47f4-864b-ec544cb9e921","system_id":"levelo_inurba_marseille","lat":43.325243,"lon":5.414326,"is_reserved":false,"is_disabled":false,"rental_uris":{"android":"levelo://app?vid=f5949106-917a-47f4-864b-ec544cb9e921","ios":"levelo://app?vid=f5949106-917a-47f4-864b-ec544cb9e921"},"vehicle_type_id":"4","last_reported":1704560756,"current_range_meters":25200,"station_id":"ce4bhq12rcd13ifvqhhg","pricing_plan_id":"free"},{"bike_id":"82d304de-d4b6-45d8-a05c-d2eb3ae4742a","system_id":"levelo_inurba_marseille","lat":43.325233,"lon":5.414318,"is_reserved":false,"is_disabled":false,"rental_uris":{"android":"levelo://app?vid=82d304de-d4b6-45d8-a05c-d2eb3ae4742a","ios":"levelo://app?vid=82d304de-d4b6-45d8-a05c-d2eb3ae4742a"},"vehicle_type_id":"4","last_reported":1704560756,"current_range_meters":24400,"station_id":"ce4bhq12rcd13ifvqhhg","pricing_plan_id":"free"},{"bike_id":"141d8f62-d431-4979-8358-54f524263357","system_id":"levelo_inurba_marseille","lat":43.32535,"lon":5.41455,"is_reserved":false,"is_disabled":false,"rental_uris":{"android":"levelo://app?vid=141d8f62-d431-4979-8358-54f524263357","ios":"levelo://app?vid=141d8f62-d431-4979-8358-54f524263357"},"vehicle_type_id":"4","last_reported":1704560756,"current_range_meters":22000,"station_id":"ce4bhq12rcd13ifvqhhg","pricing_plan_id":"free"},{"bike_id":"f525caa2-2ce9-43db-8af0-00724981ec1e","system_id":"levelo_inurba_marseille","lat":43.265714,"lon":5.372891,"is_reserved":false,"is_disabled":false,"rental_uris":{"android":"levelo://app?vid=f525caa2-2ce9-43db-8af0-00724981ec1e","ios":"levelo://app?vid=f525caa2-2ce9-43db-8af0-00724981ec1e"},"vehicle_type_id":"4","last_reported":1704560756,"current_range_meters":18400,"station_id":"ce4bhg12rcd13ifvqf70","pricing_plan_id":"free"},{"bike_id":"48ae1ea2-8d09-42be-864e-4461b750428f","system_id":"levelo_inurba_marseille","lat":43.303837,"lon":5.418724,"is_reserved":false,"is_disabled":false,"rental_uris":{"android":"levelo://app?vid=48ae1ea2-8d09-42be-864e-4461b750428f","ios":"levelo://app?vid=48ae1ea2-8d09-42be-864e-4461b750428f"},"vehicle_type_id":"4","last_reported":1704560756,"current_range_meters":12000,"station_id":"ce4bhop2rcd13ifvqh7g","pricing_plan_id":"free"},{"bike_id":"e932803c-64b8-4375-ad39-afc4d8466e7f","system_id":"levelo_inurba_marseille","lat":43.278401,"lon":5.392152,"is_reserved":false,"is_disabled":false,"rental_uris":{"android":"levelo://app?vid=e932803c-64b8-4375-ad39-afc4d8466e7f","ios":"levelo://app?vid=e932803c-64b8-4375-ad39-afc4d8466e7f"},"vehicle_type_id":"4","last_reported":1704560756,"current_range_meters":7600,"station_id":"ce4bhjp2rcd13ifvqga0","pricing_plan_id":"free"},{"bike_id":"a6b2f0c8-2d99-4413-8928-da53f8da3e5e","system_id":"levelo_inurba_marseille","lat":43.278399,"lon":5.392139,"is_reserved":false,"is_disabled":false,"rental_uris":{"android":"levelo://app?vid=a6b2f0c8-2d99-4413-8928-da53f8da3e5e","ios":"levelo://app?vid=a6b2f0c8-2d99-4413-8928-da53f8da3e5e"},"vehicle_type_id":"4","last_reported":1704560756,"current_range_meters":24800,"station_id":"ce4bhjp2rcd13ifvqga0","pricing_plan_id":"free"},{"bike_id":"76db6041-15ad-46e3-8a16-a59a3c86dd50","system_id":"levelo_inurba_marseille","lat":43.27369,"lon":5.36263,"is_reserved":false,"is_disabled":false,"rental_uris":{"android":"levelo://app?vid=76db6041-15ad-46e3-8a16-a59a3c86dd50","ios":"levelo://app?vid=76db6041-15ad-46e3-8a16-a59a3c86dd50"},"vehicle_type_id":"4","last_reported":1704560756,"current_range_meters":25200,"station_id":"ce4bhbh2rcd13ifvqeo0","pricing_plan_id":"free"},{"bike_id":"fefe9313-a24f-4b44-b74c-84e66ddd93a5","system_id":"levelo_inurba_marseille","lat":43.275625,"lon":5.384392,"is_reserved":false,"is_disabled":false,"rental_uris":{"android":"levelo://app?vid=fefe9313-a24f-4b44-b74c-84e66ddd93a5","ios":"levelo://app?vid=fefe9313-a24f-4b44-b74c-84e66ddd93a5"},"vehicle_type_id":"4","last_reported":1704560756,"current_range_meters":30800,"station_id":"ce4bhh92rcd13ifvqfi0","pricing_plan_id":"free"},{"bike_id":"8c5ec460-665f-4c8a-9cff-114d2b2664da","system_id":"levelo_inurba_marseille","lat":43.275625,"lon":5.384392,"is_reserved":false,"is_disabled":false,"rental_uris":{"android":"levelo://app?vid=8c5ec460-665f-4c8a-9cff-114d2b2664da","ios":"levelo://app?vid=8c5ec460-665f-4c8a-9cff-114d2b2664da"},"vehicle_type_id":"4","last_reported":1704560756,"current_range_meters":6400,"station_id":"ce4bhh92rcd13ifvqfi0","pricing_plan_id":"free"},{"bike_id":"e7a411eb-84b4-4951-b315-a348e176a550","system_id":"levelo_inurba_marseille","lat":43.279952,"lon":5.400085,"is_reserved":false,"is_disabled":false,"rental_uris":{"android":"levelo://app?vid=e7a411eb-84b4-4951-b315-a348e176a550","ios":"levelo://app?vid=e7a411eb-84b4-4951-b315-a348e176a550"},"vehicle_type_id":"4","last_reported":1704560756,"current_range_meters":14800,"station_id":"ce4bho92rcd13ifvqh4g","pricing_plan_id":"free"},{"bike_id":"b64097b7-cafd-40c8-9192-664316f67849","system_id":"levelo_inurba_marseille","lat":43.317121,"lon":5.423936,"is_reserved":false,"is_disabled":false,"rental_uris":{"android":"levelo://app?vid=b64097b7-cafd-40c8-9192-664316f67849","ios":"levelo://app?vid=b64097b7-cafd-40c8-9192-664316f67849"},"vehicle_type_id":"4","last_reported":1704560756,"current_range_meters":28000,"station_id":"ce4bhp92rcd13ifvqhbg","pricing_plan_id":"free"},{"bike_id":"464b252f-4a0d-4ecb-9f59-3d1a072c4274","system_id":"levelo_inurba_marseille","lat":43.317121,"lon":5.423936,"is_reserved":false,"is_disabled":false,"rental_uris":{"android":"levelo://app?vid=464b252f-4a0d-4ecb-9f59-3d1a072c4274","ios":"levelo://app?vid=464b252f-4a0d-4ecb-9f59-3d1a072c4274"},"vehicle_type_id":"4","last_reported":1704560756,"current_range_meters":30400,"station_id":"ce4bhp92rcd13ifvqhbg","pricing_plan_id":"free"},{"bike_id":"c3e9a4d6-3959-44ec-98e3-e7f91fbe6b15","system_id":"levelo_inurba_marseille","lat":43.31081,"lon":5.42429,"is_reserved":false,"is_disabled":false,"rental_uris":{"android":"levelo://app?vid=c3e9a4d6-3959-44ec-98e3-e7f91fbe6b15","ios":"levelo://app?vid=c3e9a4d6-3959-44ec-98e3-e7f91fbe6b15"},"vehicle_type_id":"4","last_reported":1704560756,"current_range_meters":16400,"station_id":"ce4bhp92rcd13ifvqhag","pricing_plan_id":"free"},{"bike_id":"add79ccb-d238-4b0b-9447-1ee9e99bc8fe","system_id":"levelo_inurba_marseille","lat":43.310785,"lon":5.424305,"is_reserved":false,"is_disabled":false,"rental_uris":{"android":"levelo://app?vid=add79ccb-d238-4b0b-9447-1ee9e99bc8fe","ios":"levelo://app?vid=add79ccb-d238-4b0b-9447-1ee9e99bc8fe"},"vehicle_type_id":"4","last_reported":1704560756,"current_range_meters":30400,"station_id":"ce4bhp92rcd13ifvqhag","pricing_plan_id":"free"},{"bike_id":"59d91862-a9e6-4831-bca0-cbfa7b15b6f2","system_id":"levelo_inurba_marseille","lat":43.340804,"lon":5.410219,"is_reserved":false,"is_disabled":false,"rental_uris":{"android":"levelo://app?vid=59d91862-a9e6-4831-bca0-cbfa7b15b6f2","ios":"levelo://app?vid=59d91862-a9e6-4831-bca0-cbfa7b15b6f2"},"vehicle_type_id":"4","last_reported":1704560756,"current_range_meters":26000,"station_id":"ce4bhqh2rcd13ifvqhlg","pricing_plan_id":"free"},{"bike_id":"461657c9-e33a-46b1-991e-8729539ba8aa","system_id":"levelo_inurba_marseille","lat":43.340804,"lon":5.410219,"is_reserved":false,"is_disabled":false,"rental_uris":{"android":"levelo://app?vid=461657c9-e33a-46b1-991e-8729539ba8aa","ios":"levelo://app?vid=461657c9-e33a-46b1-991e-8729539ba8aa"},"vehicle_type_id":"4","last_reported":1704560756,"current_range_meters":15200,"station_id":"ce4bhqh2rcd13ifvqhlg","pricing_plan_id":"free"},{"bike_id":"1329ecce-d968-4dfa-857d-48c98983749e","system_id":"levelo_inurba_marseille","lat":43.30414,"lon":5.42539,"is_reserved":false,"is_disabled":false,"rental_uris":{"android":"levelo://app?vid=1329ecce-d968-4dfa-857d-48c98983749e","ios":"levelo://app?vid=1329ecce-d968-4dfa-857d-48c98983749e"},"vehicle_type_id":"4","last_reported":1704560756,"current_range_meters":18000,"station_id":"ce4bhoh2rcd13ifvqh6g","pricing_plan_id":"free"},{"bike_id":"7d91815f-b01c-4b04-a387-438be19e9d2b","system_id":"levelo_inurba_marseille","lat":43.30414,"lon":5.42542,"is_reserved":false,"is_disabled":false,"rental_uris":{"android":"levelo://app?vid=7d91815f-b01c-4b04-a387-438be19e9d2b","ios":"levelo://app?vid=7d91815f-b01c-4b04-a387-438be19e9d2b"},"vehicle_type_id":"4","last_reported":1704560756,"current_range_meters":26400,"station_id":"ce4bhoh2rcd13ifvqh6g","pricing_plan_id":"free"},{"bike_id":"7345abd2-09ef-440c-b6e9-d57569a8415a","system_id":"levelo_inurba_marseille","lat":43.304096,"lon":5.425385,"is_reserved":false,"is_disabled":false,"rental_uris":{"android":"levelo://app?vid=7345abd2-09ef-440c-b6e9-d57569a8415a","ios":"levelo://app?vid=7345abd2-09ef-440c-b6e9-d57569a8415a"},"vehicle_type_id":"4","last_reported":1704560756,"current_range_meters":10400,"station_id":"ce4bhoh2rcd13ifvqh6g","pricing_plan_id":"free"},{"bike_id":"effeea02-3fe2-4aa7-ae89-81e152137c42","system_id":"levelo_inurba_marseille","lat":43.304096,"lon":5.425385,"is_reserved":false,"is_disabled":false,"rental_uris":{"android":"levelo://app?vid=effeea02-3fe2-4aa7-ae89-81e152137c42","ios":"levelo://app?vid=effeea02-3fe2-4aa7-ae89-81e152137c42"},"vehicle_type_id":"4","last_reported":1704560756,"current_range_meters":20400,"station_id":"ce4bhoh2rcd13ifvqh6g","pricing_plan_id":"free"},{"bike_id":"0912c419-a71f-4680-827a-5b4af68de8e4","system_id":"levelo_inurba_marseille","lat":43.295498,"lon":5.422919,"is_reserved":false,"is_disabled":false,"rental_uris":{"android":"levelo://app?vid=0912c419-a71f-4680-827a-5b4af68de8e4","ios":"levelo://app?vid=0912c419-a71f-4680-827a-5b4af68de8e4"},"vehicle_type_id":"4","last_reported":1704560756,"current_range_meters":24800,"station_id":"ce4bhph2rcd13ifvqhdg","pricing_plan_id":"free"},{"bike_id":"7454f125-5cd1-480f-880e-3f8e1dffec2a","system_id":"levelo_inurba_marseille","lat":43.272116,"lon":5.391747,"is_reserved":false,"is_disabled":false,"rental_uris":{"android":"levelo://app?vid=7454f125-5cd1-480f-880e-3f8e1dffec2a","ios":"levelo://app?vid=7454f125-5cd1-480f-880e-3f8e1dffec2a"},"vehicle_type_id":"4","last_reported":1704560756,"current_range_meters":15200,"station_id":"ce4bhhp2rcd13ifvqfm0","pricing_plan_id":"free"},{"bike_id":"cfc82555-18c2-432c-b091-dc483430b11e","system_id":"levelo_inurba_marseille","lat":43.278128,"lon":5.407195,"is_reserved":false,"is_disabled":false,"rental_uris":{"android":"levelo://app?vid=cfc82555-18c2-432c-b091-dc483430b11e","ios":"levelo://app?vid=cfc82555-18c2-432c-b091-dc483430b11e"},"vehicle_type_id":"4","last_reported":1704560756,"current_range_meters":11600,"station_id":"ce4bhnh2rcd13ifvqgtg","pricing_plan_id":"free"},{"bike_id":"9f951183-79aa-45dc-85e6-f5d68510d2eb","system_id":"levelo_inurba_marseille","lat":43.279465,"lon":5.410561,"is_reserved":false,"is_disabled":false,"rental_uris":{"android":"levelo://app?vid=9f951183-79aa-45dc-85e6-f5d68510d2eb","ios":"levelo://app?vid=9f951183-79aa-45dc-85e6-f5d68510d2eb"},"vehicle_type_id":"4","last_reported":1704560756,"current_range_meters":20400,"station_id":"ce4bhnp2rcd13ifvqh0g","pricing_plan_id":"free"},{"bike_id":"243e4711-f5e6-46ed-93b9-55a62cf8b3d0","system_id":"levelo_inurba_marseille","lat":43.265714,"lon":5.372891,"is_reserved":false,"is_disabled":false,"rental_uris":{"android":"levelo://app?vid=243e4711-f5e6-46ed-93b9-55a62cf8b3d0","ios":"levelo://app?vid=243e4711-f5e6-46ed-93b9-55a62cf8b3d0"},"vehicle_type_id":"4","last_reported":1704560756,"current_range_meters":17600,"station_id":"ce4bhg12rcd13ifvqf70","pricing_plan_id":"free"},{"bike_id":"163f1eec-bade-4f9f-aca5-dab4b4a7ae61","system_id":"levelo_inurba_marseille","lat":43.26681,"lon":5.382694,"is_reserved":false,"is_disabled":false,"rental_uris":{"android":"levelo://app?vid=163f1eec-bade-4f9f-aca5-dab4b4a7ae61","ios":"levelo://app?vid=163f1eec-bade-4f9f-aca5-dab4b4a7ae61"},"vehicle_type_id":"4","last_reported":1704560756,"current_range_meters":28800,"station_id":"ce4bhg92rcd13ifvqf90","pricing_plan_id":"free"},{"bike_id":"7311cfae-6bd9-4d75-aa08-0ab65c491408","system_id":"levelo_inurba_marseille","lat":43.26681,"lon":5.382694,"is_reserved":false,"is_disabled":false,"rental_uris":{"android":"levelo://app?vid=7311cfae-6bd9-4d75-aa08-0ab65c491408","ios":"levelo://app?vid=7311cfae-6bd9-4d75-aa08-0ab65c491408"},"vehicle_type_id":"4","last_reported":1704560756,"current_range_meters":22400,"station_id":"ce4bhg92rcd13ifvqf90","pricing_plan_id":"free"},{"bike_id":"0250e1be-a2f2-4a43-a8ea-544c588376bf","system_id":"levelo_inurba_marseille","lat":43.276771,"lon":5.388799,"is_reserved":false,"is_disabled":false,"rental_uris":{"android":"levelo://app?vid=0250e1be-a2f2-4a43-a8ea-544c588376bf","ios":"levelo://app?vid=0250e1be-a2f2-4a43-a8ea-544c588376bf"},"vehicle_type_id":"4","last_reported":1704560756,"current_range_meters":23200,"station_id":"ce4bhi12rcd13ifvqfo0","pricing_plan_id":"free"},{"bike_id":"08cf40c3-1fc8-4255-8004-31437b23d9e3","system_id":"levelo_inurba_marseille","lat":43.27996,"lon":5.416624,"is_reserved":false,"is_disabled":false,"rental_uris":{"android":"levelo://app?vid=08cf40c3-1fc8-4255-8004-31437b23d9e3","ios":"levelo://app?vid=08cf40c3-1fc8-4255-8004-31437b23d9e3"},"vehicle_type_id":"4","last_reported":1704560756,"current_range_meters":10400,"station_id":"ce4bho12rcd13ifvqh1g","pricing_plan_id":"free"},{"bike_id":"c4a64382-6120-4b9c-a66f-4f6ed6ea9058","system_id":"levelo_inurba_marseille","lat":43.27996,"lon":5.416624,"is_reserved":false,"is_disabled":false,"rental_uris":{"android":"levelo://app?vid=c4a64382-6120-4b9c-a66f-4f6ed6ea9058","ios":"levelo://app?vid=c4a64382-6120-4b9c-a66f-4f6ed6ea9058"},"vehicle_type_id":"4","last_reported":1704560756,"current_range_meters":0,"station_id":"ce4bho12rcd13ifvqh1g","pricing_plan_id":"free"},{"bike_id":"5d83567f-9191-4ed4-a3fb-9d1463a5a9c9","system_id":"levelo_inurba_marseille","lat":43.27996,"lon":5.416624,"is_reserved":false,"is_disabled":false,"rental_uris":{"android":"levelo://app?vid=5d83567f-9191-4ed4-a3fb-9d1463a5a9c9","ios":"levelo://app?vid=5d83567f-9191-4ed4-a3fb-9d1463a5a9c9"},"vehicle_type_id":"4","last_reported":1704560756,"current_range_meters":21600,"station_id":"ce4bho12rcd13ifvqh1g","pricing_plan_id":"free"},{"bike_id":"58ae8025-0ef1-4d5a-9851-004db29f1840","system_id":"levelo_inurba_marseille","lat":43.267966,"lon":5.393976,"is_reserved":false,"is_disabled":false,"rental_uris":{"android":"levelo://app?vid=58ae8025-0ef1-4d5a-9851-004db29f1840","ios":"levelo://app?vid=58ae8025-0ef1-4d5a-9851-004db29f1840"},"vehicle_type_id":"4","last_reported":1704560756,"current_range_meters":20400,"station_id":"ce4bhh12rcd13ifvqfg0","pricing_plan_id":"free"},{"bike_id":"94297a20-ff00-4981-9305-39e238bab790","system_id":"levelo_inurba_marseille","lat":43.308051,"lon":5.43527,"is_reserved":false,"is_disabled":false,"rental_uris":{"android":"levelo://app?vid=94297a20-ff00-4981-9305-39e238bab790","ios":"levelo://app?vid=94297a20-ff00-4981-9305-39e238bab790"},"vehicle_type_id":"4","last_reported":1704560756,"current_range_meters":18000,"station_id":"ce4bhph2rcd13ifvqheg","pricing_plan_id":"free"},