{"last_updated":1726423897,"ttl":30,"version":"2.2","data":{"bikes":[{"bike_id":"c8d8484d-0573-4081-8c1f-d9349948a019","system_id":"levelo_inurba_marseille","lat":43.29882,"lon":5.39744,"is_reserved":false,"is_disabled":false,"rental_uris":{"android":"levelo://app?vid=c8d8484d-0573-4081-8c1f-d9349948a019","ios":"levelo://app?vid=c8d8484d-0573-4081-8c1f-d9349948a019"},"vehicle_type_id":"4","last_reported":1726423897,"current_range_meters":2000,"station_id":"ce4bh0h2rcd13ifvqd50","pricing_plan_id":"cebpf4jnsgd1na2vs0mg"},{"bike_id":"2d0ca37d-9d01-44fb-ad3e-61b23f7a8317","system_id":"levelo_inurba_marseille","lat":43.30894,"lon":5.37188,"is_reserved":false,"is_disabled":false,"rental_uris":{"android":"levelo://app?vid=2d0ca37d-9d01-44fb-ad3e-61b23f7a8317","ios":"levelo://app?vid=2d0ca37d-9d01-44fb-ad3e-61b23f7a8317"},"vehicle_type_id":"4","last_reported":1726423897,"current_range_meters":10800,"station_id":"ce4bguh2rcd13ifvqckg","pricing_plan_id":"cebpf4jnsgd1na2vs0mg"},{"bike_id":"d32ad788-bff1-4601-a61f-014ff81f57d0","system_id":"levelo_inurba_marseille","lat":43.28672,"lon":5.36372,"is_reserved":false,"is_disabled":false,"rental_uris":{"android":"levelo://app?vid=d32ad788-bff1-4601-a61f-014ff81f57d0","ios":"levelo://app?vid=d32ad788-bff1-4601-a61f-014ff81f57d0"},"vehicle_type_id":"4","last_reported":1726423897,"current_range_meters":38800,"station_id":"ce4bhah2rcd13ifvqej0","pricing_plan_id":"cebpf4jnsgd1na2vs0mg"},{"bike_id":"5440ae72-f8d2-4dc7-b6cd-9b12f1ca8829","system_id":"levelo_inurba_marseille","lat":43.29863,"lon":5.39737,"is_reserved":false,"is_disabled":false,"rental_uris":{"android":"levelo://app?vid=5440ae72-f8d2-4dc7-b6cd-9b12f1ca8829","ios":"levelo://app?vid=5440ae72-f8d2-4dc7-b6cd-9b12f1ca8829"},"vehicle_type_id":"4","last_reported":1726423897,"current_range_meters":6800,"station_id":"ce4bh0h2rcd13ifvqd50","pricing_plan_id":"cebpf4jnsgd1na2vs0mg"},{"bike_id":"48a82de2-7872-40cb-b1bf-43e70b76834b","system_id":"levelo_inurba_marseille","lat":43.31294,"lon":5.37812,"is_reserved":false,"is_disabled":false,"rental_uris":{"android":"levelo://app?vid=48a82de2-7872-40cb-b1bf-43e70b76834b","ios":"levelo://app?vid=48a82de2-7872-40cb-b1bf-43e70b76834b"},"vehicle_type_id":"4","last_reported":1726423897,"current_range_meters":32800,"station_id":"","pricing_plan_id":"cebpf4jnsgd1na2vs0mg"},{"bike_id":"491f625c-672a-429b-adf2-44db696ce223","system_id":"levelo_inurba_marseille","lat":43.24811,"lon":5.37454,"is_reserved":false,"is_disabled":false,"rental_uris":{"android":"levelo://app?vid=491f625c-672a-429b-adf2-44db696ce223","ios":"levelo://app?vid=491f625c-672a-429b-adf2-44db696ce223"},"vehicle_type_id":"4","last_reported":1726423897,"current_range_meters":9200,"station_id":"ce4bhgh2rcd13ifvqfb0","pricing_plan_id":"cebpf4jnsgd1na2vs0mg"},{"bike_id":"6ef9cd56-0823-4ee6-99b4-5f7b09a32856","system_id":"levelo_inurba_marseille","lat":43.311162,"lon":5.3777,"is_reserved":false,"is_disabled":false,"rental_uris":{"android":"levelo://app?vid=6ef9cd56-0823-4ee6-99b4-5f7b09a32856","ios":"levelo://app?vid=6ef9cd56-0823-4ee6-99b4-5f7b09a32856"},"vehicle_type_id":"4","last_reported":1726423897,"current_range_meters":24400,"station_id":"ce4bgt92rcd13ifvqcg0","pricing_plan_id":"cebpf4jnsgd1na2vs0mg"},{"bike_id":"4b0baa59-4b35-4582-8b59-740038399f58","system_id":"levelo_inurba_marseille","lat":43.28936,"lon":5.36642,"is_reserved":false,"is_disabled":false,"rental_uris":{"android":"levelo://app?vid=4b0baa59-4b35-4582-8b59-740038399f58","ios":"levelo://app?vid=4b0baa59-4b35-4582-8b59-740038399f58"},"vehicle_type_id":"4","last_reported":1726423897,"current_range_meters":4000,"station_id":"ce4bhap2rcd13ifvqek0","pricing_plan_id":"cebpf4jnsgd1na2vs0mg"},{"bike_id":"7c475990-5c91-40de-8e97-2ed5070be005","system_id":"levelo_inurba_marseille","lat":43.23032,"lon":5.401,"is_reserved":false,"is_disabled":false,"rental_uris":{"android":"levelo://app?vid=7c475990-5c91-40de-8e97-2ed5070be005","ios":"levelo://app?vid=7c475990-5c91-40de-8e97-2ed5070be005"},"vehicle_type_id":"4","last_reported":1726423897,"current_range_meters":37600,"station_id":"","pricing_plan_id":"cebpf4jnsgd1na2vs0mg"},{"bike_id":"1821de59-cbdb-4018-b102-f9fc14fcdcca","system_id":"levelo_inurba_marseille","lat":43.30943,"lon":5.39041,"is_reserved":false,"is_disabled":false,"rental_uris":{"android":"levelo://app?vid=1821de59-cbdb-4018-b102-f9fc14fcdcca","ios":"levelo://app?vid=1821de59-cbdb-4018-b102-f9fc14fcdcca"},"vehicle_type_id":"4","last_reported":1726423897,"current_range_meters":38800,"station_id":"ce4bgup2rcd13ifvqco0","pricing_plan_id":"cebpf4jnsgd1na2vs0mg"},{"bike_id":"13ec4916-f0ea-4897-8afc-596425b42c42","system_id":"levelo_inurba_marseille","lat":43.23191,"lon":5.35553,"is_reserved":false,"is_disabled":false,"rental_uris":{"android":"levelo://app?vid=13ec4916-f0ea-4897-8afc-596425b42c42","ios":"levelo://app?vid=13ec4916-f0ea-4897-8afc-596425b42c42"},"vehicle_type_id":"4","last_reported":1726423897,"current_range_meters":20800,"station_id":"ce4bhu92rcd13ifvqi70","pricing_plan_id":"cebpf4jnsgd1na2vs0mg"},{"bike_id":"e8549387-9deb-4f66-b733-a7cdaa0db866","system_id":"levelo_inurba_marseille","lat":43.33034,"lon":5.39052,"is_reserved":false,"is_disabled":false,"rental_uris":{"android":"levelo://app?vid=e8549387-9deb-4f66-b733-a7cdaa0db866","ios":"levelo://app?vid=e8549387-9deb-4f66-b733-a7cdaa0db866"},"vehicle_type_id":"4","last_reported":1726423897,"current_range_meters":15200,"station_id":"ce4bhr92rcd13ifvqhrg","pricing_plan_id":"cebpf4jnsgd1na2vs0mg"},{"bike_id":"2c47c24e-96d3-4e99-910a-98524d55c13a","system_id":"levelo_inurba_marseille","lat":43.28474,"lon":5.3856,"is_reserved":false,"is_disabled":false,"rental_uris":{"android":"levelo://app?vid=2c47c24e-96d3-4e99-910a-98524d55c13a","ios":"levelo://app?vid=2c47c24e-96d3-4e99-910a-98524d55c13a"},"vehicle_type_id":"4","last_reported":1726423897,"current_range_meters":36800,"station_id":"ce4bh8p2rcd13ifvqeb0","pricing_plan_id":"cebpf4jnsgd1na2vs0mg"},{"bike_id":"7103e8c5-92ff-46c7-9457-034459bc010d","system_id":"levelo_inurba_marseille","lat":43.309326,"lon":5.390612,"is_reserved":false,"is_disabled":false,"rental_uris":{"android":"levelo://app?vid=7103e8c5-92ff-46c7-9457-034459bc010d","ios":"levelo://app?vid=7103e8c5-92ff-46c7-9457-034459bc010d"},"vehicle_type_id":"4","last_reported":1726423897,"current_range_meters":4000,"station_id":"ce4bh312rcd13ifvqdj0","pricing_plan_id":"cebpf4jnsgd1na2vs0mg"},{"bike_id":"9ff26d1d-afd3-4c3f-ae4a-eaf1838af3b0","system_id":"levelo_inurba_marseille","lat":43.239881,"lon":5.36719,"is_reserved":false,"is_disabled":false,"rental_uris":{"android":"levelo://app?vid=9ff26d1d-afd3-4c3f-ae4a-eaf1838af3b0","ios":"levelo://app?vid=9ff26d1d-afd3-4c3f-ae4a-eaf1838af3b0"},"vehicle_type_id":"4","last_reported":1726423897,"current_range_meters":9200,"station_id":"ce4bhi12rcd13ifvqfp0","pricing_plan_id":"cebpf4jnsgd1na2vs0mg"},{"bike_id":"74c67d55-8a5f-40c9-8066-d68354718f8c","system_id":"levelo_inurba_marseille","lat":43.23189,"lon":5.35554,"is_reserved":false,"is_disabled":false,"rental_uris":{"android":"levelo://app?vid=74c67d55-8a5f-40c9-8066-d68354718f8c","ios":"levelo://app?vid=74c67d55-8a5f-40c9-8066-d68354718f8c"},"vehicle_type_id":"4","last_reported":1726423897,"current_range_meters":18000,"station_id":"ce4bhu92rcd13ifvqi70","pricing_plan_id":"cebpf4jnsgd1na2vs0mg"},{"bike_id":"73bb92ad-4797-4055-a6e9-bd55766e0edb","system_id":"levelo_inurba_marseille","lat":43.26779,"lon":5.39416,"is_reserved":false,"is_disabled":false,"rental_uris":{"android":"levelo://app?vid=73bb92ad-4797-4055-a6e9-bd55766e0edb","ios":"levelo://app?vid=73bb92ad-4797-4055-a6e9-bd55766e0edb"},"vehicle_type_id":"4","last_reported":1726423897,"current_range_meters":36400,"station_id":"ce4bhh12rcd13ifvqfg0","pricing_plan_id":"cebpf4jnsgd1na2vs0mg"},{"bike_id":"e7cd2dd3-5044-4054-887e-8d99b4566ce5","system_id":"levelo_inurba_marseille","lat":43.3237,"lon":5.38353,"is_reserved":false,"is_disabled":false,"rental_uris":{"android":"levelo://app?vid=e7cd2dd3-5044-4054-887e-8d99b4566ce5","ios":"levelo://app?vid=e7cd2dd3-5044-4054-887e-8d99b4566ce5"},"vehicle_type_id":"4","last_reported":1726423897,"current_range_meters":2800,"station_id":"","pricing_plan_id":"cebpf4jnsgd1na2vs0mg"},{"bike_id":"212c501b-a753-4c1a-ba0c-b560582af171","system_id":"levelo_inurba_marseille","lat":43.29556,"lon":5.42277,"is_reserved":false,"is_disabled":false,"rental_uris":{"android":"levelo://app?vid=212c501b-a753-4c1a-ba0c-b560582af171","ios":"levelo://app?vid=212c501b-a753-4c1a-ba0c-b560582af171"},"vehicle_type_id":"4","last_reported":1726423897,"current_range_meters":18000,"station_id":"ce4bhph2rcd13ifvqhdg","pricing_plan_id":"cebpf4jnsgd1na2vs0mg"},{"bike_id":"9e722106-7599-4c7d-aec9-f8554cf6d523","system_id":"levelo_inurba_marseille","lat":43.23191,"lon":5.35554,"is_reserved":false,"is_disabled":false,"rental_uris":{"android":"levelo://app?vid=9e722106-7599-4c7d-aec9-f8554cf6d523","ios":"levelo://app?vid=9e722106-7599-4c7d-aec9-f8554cf6d523"},"vehicle_type_id":"4","last_reported":1726423897,"current_range_meters":8000,"station_id":"ce4bhu92rcd13ifvqi70","pricing_plan_id":"cebpf4jnsgd1na2vs0mg"},{"bike_id":"6b40fb54-f001-4b50-9e8c-adebb84e7325","system_id":"levelo_inurba_marseille","lat":43.31709,"lon":5.3776,"is_reserved":false,"is_disabled":false,"rental_uris":{"android":"levelo://app?vid=6b40fb54-f001-4b50-9e8c-adebb84e7325","ios":"levelo://app?vid=6b40fb54-f001-4b50-9e8c-adebb84e7325"},"vehicle_type_id":"4","last_reported":1726423897,"current_range_meters":36800,"station_id":"ce4bgth2rcd13ifvqch0","pricing_plan_id":"cebpf4jnsgd1na2vs0mg"},{"bike_id":"9df403c3-53c3-47d4-91b9-94e0e8946522","system_id":"levelo_inurba_marseille","lat":43.28106,"lon":5.37847,"is_reserved":false,"is_disabled":false,"rental_uris":{"android":"levelo://app?vid=9df403c3-53c3-47d4-91b9-94e0e8946522","ios":"levelo://app?vid=9df403c3-53c3-47d4-91b9-94e0e8946522"},"vehicle_type_id":"4","last_reported":1726423897,"current_range_meters":14000,"station_id":"ce4bha12rcd13ifvqee0","pricing_plan_id":"cebpf4jnsgd1na2vs0mg"},{"bike_id":"40869c76-4f82-404f-9cdf-639196b728f9","system_id":"levelo_inurba_marseille","lat":43.28571,"lon":5.3951,"is_reserved":false,"is_disabled":false,"rental_uris":{"android":"levelo://app?vid=40869c76-4f82-404f-9cdf-639196b728f9","ios":"levelo://app?vid=40869c76-4f82-404f-9cdf-639196b728f9"},"vehicle_type_id":"4","last_reported":1726423897,"current_range_meters":22800,"station_id":"ce4bh292rcd13ifvqdg0","pricing_plan_id":"cebpf4jnsgd1na2vs0mg"},{"bike_id":"33e3b5af-e6bf-4a19-9a11-ee1b8b29314e","system_id":"levelo_inurba_marseille","lat":43.32344,"lon":5.40616,"is_reserved":false,"is_disabled":false,"rental_uris":{"android":"levelo://app?vid=33e3b5af-e6bf-4a19-9a11-ee1b8b29314e","ios":"levelo://app?vid=33e3b5af-e6bf-4a19-9a11-ee1b8b29314e"},"vehicle_type_id":"4","last_reported":1726423897,"current_range_meters":4000,"station_id":"ce4bhq92rcd13ifvqhjg","pricing_plan_id":"cebpf4jnsgd1na2vs0mg"},{"bike_id":"958689e9-93d3-4caa-ad47-66f185a26470","system_id":"levelo_inurba_marseille","lat":43.31781,"lon":5.37228,"is_reserved":false,"is_disabled":false,"rental_uris":{"android":"levelo://app?vid=958689e9-93d3-4caa-ad47-66f185a26470","ios":"levelo://app?vid=958689e9-93d3-4caa-ad47-66f185a26470"},"vehicle_type_id":"4","last_reported":1726423897,"current_range_meters":2800,"station_id":"","pricing_plan_id":"cebpf4jnsgd1na2vs0mg"},{"bike_id":"f1b77573-dd71-4715-ab46-100973399881","system_id":"levelo_inurba_marseille","lat":43.29907,"lon":5.38133,"is_reserved":false,"is_disabled":false,"rental_uris":{"android":"levelo://app?vid=f1b77573-dd71-4715-ab46-100973399881","ios":"levelo://app?vid=f1b77573-dd71-4715-ab46-100973399881"},"vehicle_type_id":"4","last_reported":1726423897,"current_range_meters":4000,"station_id":"ce4bgj12rcd13ifvqbc0","pricing_plan_id":"cebpf4jnsgd1na2vs0mg"},{"bike_id":"83c995e2-c90d-4126-8799-3247855d0482","system_id":"levelo_inurba_marseille","lat":43.28439,"lon":5.39194,"is_reserved":false,"is_disabled":false,"rental_uris":{"android":"levelo://app?vid=83c995e2-c90d-4126-8799-3247855d0482","ios":"levelo://app?vid=83c995e2-c90d-4126-8799-3247855d0482"},"vehicle_type_id":"4","last_reported":1726423897,"current_range_meters":11600,"station_id":"ce4bhoh2rcd13ifvqh5g","pricing_plan_id":"cebpf4jnsgd1na2vs0mg"},{"bike_id":"ec9006f1-9246-40db-9584-a79270db200a","system_id":"levelo_inurba_marseille","lat":43.31726,"lon":5.42403,"is_reserved":false,"is_disabled":false,"rental_uris":{"android":"levelo://app?vid=ec9006f1-9246-40db-9584-a79270db200a","ios":"levelo://app?vid=ec9006f1-9246-40db-9584-a79270db200a"},"vehicle_type_id":"4","last_reported":1726423897,"current_range_meters":39200,"station_id":"ce4bhp92rcd13ifvqhbg","pricing_plan_id":"cebpf4jnsgd1na2vs0mg"},{"bike_id":"1f9daccf-ad14-49fa-9a54-61f46a5190e3","system_id":"levelo_inurba_marseille","lat":43.2835,"lon":5.38111,"is_reserved":false,"is_disabled":false,"rental_uris":{"android":"levelo://app?vid=1f9daccf-ad14-49fa-9a54-61f46a5190e3","ios":"levelo://app?vid=1f9daccf-ad14-49fa-9a54-61f46a5190e3"},"vehicle_type_id":"4","last_reported":1726423897,"current_range_meters":10800,"station_id":"ce4bh412rcd13ifvqdr0","pricing_plan_id":"cebpf4jnsgd1na2vs0mg"},{"bike_id":"6915c8b1-c3c0-4a06-8cf6-962b542b069c","system_id":"levelo_inurba_marseille","lat":43.28667,"lon":5.36359,"is_reserved":false,"is_disabled":false,"rental_uris":{"android":"levelo://app?vid=6915c8b1-c3c0-4a06-8cf6-962b542b069c","ios":"levelo://app?vid=6915c8b1-c3c0-4a06-8cf6-962b542b069c"},"vehicle_type_id":"4","last_reported":1726423897,"current_range_meters":9200,"station_id":"ce4bhah2rcd13ifvqej0","pricing_plan_id":"cebpf4jnsgd1na2vs0mg"},{"bike_id":"dd67ccfd-3876-4766-9619-bfddd230cddf","system_id":"levelo_inurba_marseille","lat":43.330231,"lon":5.390363,"is_reserved":false,"is_disabled":false,"rental_uris":{"android":"levelo://app?vid=dd67ccfd-3876-4766-9619-bfddd230cddf","ios":"levelo://app?vid=dd67ccfd-3876-4766-9619-bfddd230cddf"},"vehicle_type_id":"4","last_reported":1726423897,"current_range_meters":24800,"station_id":"ce4bgop2rcd13ifvqc1g","pricing_plan_id":"cebpf4jnsgd1na2vs0mg"},{"bike_id":"f79ff168-7c1f-43a6-9a48-819ae1e3b151","system_id":"levelo_inurba_marseille","lat":43.24071,"lon":5.37756,"is_reserved":false,"is_disabled":false,"rental_uris":{"android":"levelo://app?vid=f79ff168-7c1f-43a6-9a48-819ae1e3b151","ios":"levelo://app?vid=f79ff168-7c1f-43a6-9a48-819ae1e3b151"},"vehicle_type_id":"4","last_reported":1726423897,"current_range_meters":11200,"station_id":"ce4bhnp2rcd13ifvqgvg","pricing_plan_id":"cebpf4jnsgd1na2vs0mg"},{"bike_id":"33d7f647-3c77-4900-85cd-f62125c908a0","system_id":"levelo_inurba_marseille","lat":43.25085,"lon":5.39526,"is_reserved":false,"is_disabled":false,"rental_uris":{"android":"levelo://app?vid=33d7f647-3c77-4900-85cd-f62125c908a0","ios":"levelo://app?vid=33d7f647-3c77-4900-85cd-f62125c908a0"},"vehicle_type_id":"4","last_reported":1726423897,"current_range_meters":18000,"station_id":"ce4bhm12rcd13ifvqgkg","pricing_plan_id":"cebpf4jnsgd1na2vs0mg"},{"bike_id":"13cdf17d-08eb-4760-9c0c-383821681f5e","system_id":"levelo_inurba_marseille","lat":43.30135,"lon":5.38781,"is_reserved":false,"is_disabled":false,"rental_uris":{"android":"levelo://app?vid=13cdf17d-08eb-4760-9c0c-383821681f5e","ios":"levelo://app?vid=13cdf17d-08eb-4760-9c0c-383821681f5e"},"vehicle_type_id":"4","last_reported":1726423897,"current_range_meters":38400,"station_id":"ce4bghh2rcd13ifvqb60","pricing_plan_id":"cebpf4jnsgd1na2vs0mg"},{"bike_id":"401bc5f7-6d8a-4abb-b88a-b91d26652f09","system_id":"levelo_inurba_marseille","lat":43.299705,"lon":5.384886,"is_reserved":false,"is_disabled":false,"rental_uris":{"android":"levelo://app?vid=401bc5f7-6d8a-4abb-b88a-b91d26652f09","ios":"levelo://app?vid=401bc5f7-6d8a-4abb-b88a-b91d26652f09"},"vehicle_type_id":"4","last_reported":1726423897,"current_range_meters":13600,"station_id":"ce4bgj92rcd13ifvqbd0","pricing_plan_id":"cebpf4jnsgd1na2vs0mg"},{"bike_id":"ecab2b07-b455-4c0a-a787-affa632df0b6","system_id":"levelo_inurba_marseille","lat":43.29563,"lon":5.42291,"is_reserved":false,"is_disabled":false,"rental_uris":{"android":"levelo://app?vid=ecab2b07-b455-4c0a-a787-affa632df0b6","ios":"levelo://app?vid=ecab2b07-b455-4c0a-a787-affa632df0b6"},"vehicle_type_id":"4","last_reported":1726423897,"current_range_meters":20800,"station_id":"ce4bhph2rcd13ifvqhdg","pricing_plan_id":"cebpf4jnsgd1na2vs0mg"},{"bike_id":"15f1742d-c808-4f79-b42b-3bdcab8f94cd","system_id":"levelo_inurba_marseille","lat":43.28409,"lon":5.3751,"is_reserved":false,"is_disabled":false,"rental_uris":{"android":"levelo://app?vid=15f1742d-c808-4f79-b42b-3bdcab8f94cd","ios":"levelo://app?vid=15f1742d-c808-4f79-b42b-3bdcab8f94cd"},"vehicle_type_id":"4","last_reported":1726423897,"current_range_meters":2800,"station_id":"ce4bh412rcd13ifvqds0","pricing_plan_id":"cebpf4jnsgd1na2vs0mg"},{"bike_id":"e0578bd3-1a0e-429a-8b90-c50cda685c19","system_id":"levelo_inurba_marseille","lat":43.25821,"lon":5.3943,"is_reserved":false,"is_disabled":false,"rental_uris":{"android":"levelo://app?vid=e0578bd3-1a0e-429a-8b90-c50cda685c19","ios":"levelo://app?vid=e0578bd3-1a0e-429a-8b90-c50cda685c19"},"vehicle_type_id":"4","last_reported":1726423897,"current_range_meters":17600,"station_id":"ce4bhip2rcd13ifvqft0","pricing_plan_id":"cebpf4jnsgd1na2vs0mg"},{"bike_id":"26db0265-0a91-4c66-8aa8-67a94f7eef0d","system_id":"levelo_inurba_marseille","lat":43.26941,"lon":5.40063,"is_reserved":false,"is_disabled":false,"rental_uris":{"android":"levelo://app?vid=26db0265-0a91-4c66-8aa8-67a94f7eef0d","ios":"levelo://app?vid=26db0265-0a91-4c66-8aa8-67a94f7eef0d"},"vehicle_type_id":"4","last_reported":1726423897,"current_range_meters":8800,"station_id":"","pricing_plan_id":"cebpf4jnsgd1na2vs0mg"},{"bike_id":"189b6bc1-c1a3-4f5b-a4cc-c0f641262031","system_id":"levelo_inurba_marseille","lat":43.28405,"lon":5.37528,"is_reserved":false,"is_disabled":false,"rental_uris":{"android":"levelo://app?vid=189b6bc1-c1a3-4f5b-a4cc-c0f641262031","ios":"levelo://app?vid=189b6bc1-c1a3-4f5b-a4cc-c0f641262031"},"vehicle_type_id":"4","last_reported":1726423897,"current_range_meters":28400,"station_id":"ce4bh412rcd13ifvqds0","pricing_plan_id":"cebpf4jnsgd1na2vs0mg"},{"bike_id":"9e3f707b-d4d8-4862-87a6-fae47020db06","system_id":"levelo_inurba_marseille","lat":43.30124,"lon":5.38784,"is_reserved":false,"is_disabled":false,"rental_uris":{"android":"levelo://app?vid=9e3f707b-d4d8-4862-87a6-fae47020db06","ios":"levelo://app?vid=9e3f707b-d4d8-4862-87a6-fae47020db06"},"vehicle_type_id":"4","last_reported":1726423897,"current_range_meters":20800,"station_id":"ce4bghh2rcd13ifvqb60","pricing_plan_id":"cebpf4jnsgd1na2vs0mg"},{"bike_id":"7cb86f02-015f-4218-848c-60a0be8facd1","system_id":"levelo_inurba_marseille","lat":43.25731,"lon":5.41106,"is_reserved":false,"is_disabled":false,"rental_uris":{"android":"levelo://app?vid=7cb86f02-015f-4218-848c-60a0be8facd1","ios":"levelo://app?vid=7cb86f02-015f-4218-848c-60a0be8facd1"},"vehicle_type_id":"4","last_reported":1726423897,"current_range_meters":13600,"station_id":"ce4bhkp2rcd13ifvqgd0","pricing_plan_id":"cebpf4jnsgd1na2vs0mg"},{"bike_id":"c28c94b1-2f39-4636-abaa-827f7d0008cf","system_id":"levelo_inurba_marseille","lat":43.299103,"lon":5.381343,"is_reserved":false,"is_disabled":false,"rental_uris":{"android":"levelo://app?vid=c28c94b1-2f39-4636-abaa-827f7d0008cf","ios":"levelo://app?vid=c28c94b1-2f39-4636-abaa-827f7d0008cf"},"vehicle_type_id":"4","last_reported":1726423897,"current_range_meters":29600,"station_id":"ce4bgt12rcd13ifvqce0","pricing_plan_id":"cebpf4jnsgd1na2vs0mg"},{"bike_id":"fa0bba81-ae28-438c-aaa0-a2a0c9d69ac5","system_id":"levelo_inurba_marseille","lat":43.29557,"lon":5.42283,"is_reserved":false,"is_disabled":false,"rental_uris":{"android":"levelo://app?vid=fa0bba81-ae28-438c-aaa0-a2a0c9d69ac5","ios":"levelo://app?vid=fa0bba81-ae28-438c-aaa0-a2a0c9d69ac5"},"vehicle_type_id":"4","last_reported":1726423897,"current_range_meters":33200,"station_id":"ce4bhph2rcd13ifvqhdg","pricing_plan_id":"cebpf4jnsgd1na2vs0mg"},{"bike_id":"4c085319-22a8-4fbc-96c3-492f8293da1f","system_id":"levelo_inurba_marseille","lat":43.29516,"lon":5.39405,"is_reserved":false,"is_disabled":false,"rental_uris":{"android":"levelo://app?vid=4c085319-22a8-4fbc-96c3-492f8293da1f","ios":"levelo://app?vid=4c085319-22a8-4fbc-96c3-492f8293da1f"},"vehicle_type_id":"4","last_reported":1726423897,"current_range_meters":2800,"station_id":"ce4bh292rcd13ifvqdf0","pricing_plan_id":"cebpf4jnsgd1na2vs0mg"},{"bike_id":"22abc786-11de-49ba-8901-022e94127ff5","system_id":"levelo_inurba_marseille","lat":43.28455,"lon":5.35882,"is_reserved":false,"is_disabled":false,"rental_uris":{"android":"levelo://app?vid=22abc786-11de-49ba-8901-022e94127ff5","ios":"levelo://app?vid=22abc786-11de-49ba-8901-022e94127ff5"},"vehicle_type_id":"4","last_reported":1726423897,"current_range_meters":8000,"station_id":"ce4bhah2rcd13ifvqei0","pricing_plan_id":"cebpf4jnsgd1na2vs0mg"},{"bike_id":"99d127e0-fc57-4b31-96e0-cec340cb16dd","system_id":"levelo_inurba_marseille","lat":43.27807,"lon":5.40706,"is_reserved":false,"is_disabled":false,"rental_uris":{"android":"levelo://app?vid=99d127e0-fc57-4b31-96e0-cec340cb16dd","ios":"levelo://app?vid=99d127e0-fc57-4b31-96e0-cec340cb16dd"},"vehicle_type_id":"4","last_reported":1726423897,"current_range_meters":6000,"station_id":"ce4bhnh2rcd13ifvqgtg","pricing_plan_id":"cebpf4jnsgd1na2vs0mg"},{"bike_id":"415b13fd-de58-480c-861b-9f42d1eebf31","system_id":"levelo_inurba_marseille","lat":43.30405,"lon":5.41289,"is_reserved":false,"is_disabled":false,"rental_uris":{"android":"levelo://app?vid=415b13fd-de58-480c-861b-9f42d1eebf31","ios":"levelo://app?vid=415b13fd-de58-480c-861b-9f42d1eebf31"},"vehicle_type_id":"4","last_reported":1726423897,"current_range_meters":35200,"station_id":"ce4bhop2rcd13ifvqh8g","pricing_plan_id":"cebpf4jnsgd1na2vs0mg"},{"bike_id":"f1bea7c0-7bee-41a5-8dc1-b413bd0acfd1","system_id":"levelo_inurba_marseille","lat":43.30948,"lon":5.3903,"is_reserved":false,"is_disabled":false,"rental_uris":{"android":"levelo://app?vid=f1bea7c0-7bee-41a5-8dc1-b413bd0acfd1","ios":"levelo://app?vid=f1bea7c0-7bee-41a5-8dc1-b413bd0acfd1"},"vehicle_type_id":"4","last_reported":1726423897,"current_range_meters":39200,"station_id":"ce4bgup2rcd13ifvqco0","pricing_plan_id":"cebpf4jnsgd1na2vs0mg"},{"bike_id":"6dbaf9a2-2ba6-48b9-9c03-e397bb128b85","system_id":"levelo_inurba_marseille","lat":43.31696,"lon":5.4047,"is_reserved":false,"is_disabled":false,"rental_uris":{"android":"levelo://app?vid=6dbaf9a2-2ba6-48b9-9c03-e397bb128b85","ios":"levelo://app?vid=6dbaf9a2-2ba6-48b9-9c03-e397bb128b85"},"vehicle_type_id":"4","last_reported":1726423897,"current_range_meters":39200,"station_id":"ce4bh012rcd13ifvqd00","pricing_plan_id":"cebpf4jnsgd1na2vs0mg"},{"bike_id":"32ea5249-4cad-4eca-866b-0ecfa21a2c74","system_id":"levelo_inurba_marseille","lat":43.27931,"lon":5.387812,"is_reserved":false,"is_disabled":false,"rental_uris":{"android":"levelo://app?vid=32ea5249-4cad-4eca-866b-0ecfa21a2c74","ios":"levelo://app?vid=32ea5249-4cad-4eca-866b-0ecfa21a2c74"},"vehicle_type_id":"4","last_reported":1726423897,"current_range_meters":16000,"station_id":"ce4bhg12rcd13ifvqf80","pricing_plan_id":"cebpf4jnsgd1na2vs0mg"},{"bike_id":"b1db6496-7d7b-4acc-a88c-e5406d38e100","system_id":"levelo_inurba_marseille","lat":43.23194,"lon":5.35557,"is_reserved":false,"is_disabled":false,"rental_uris":{"android":"levelo://app?vid=b1db6496-7d7b-4acc-a88c-e5406d38e100","ios":"levelo://app?vid=b1db6496-7d7b-4acc-a88c-e5406d38e100"},"vehicle_type_id":"4","last_reported":1726423897,"current_range_meters":36400,"station_id":"ce4bhu92rcd13ifvqi70","pricing_plan_id":"cebpf4jnsgd1na2vs0mg"},{"bike_id":"ee721f16-71d0-49c8-9da4-858f78b55bcb","system_id":"levelo_inurba_marseille","lat":43.25938,"lon":5.40902,"is_reserved":false,"is_disabled":false,"rental_uris":{"android":"levelo://app?vid=ee721f16-71d0-49c8-9da4-858f78b55bcb","ios":"levelo://app?vid=ee721f16-71d0-49c8-9da4-858f78b55bcb"},"vehicle_type_id":"4","last_reported":1726423897,"current_range_meters":24800,"station_id":"ce4bhm92rcd13ifvqglg","pricing_plan_id":"cebpf4jnsgd1na2vs0mg"},{"bike_id":"826f4136-a005-4203-8c5f-7808e18dcf00","system_id":"levelo_inurba_marseille","lat":43.29558,"lon":5.42297,"is_reserved":false,"is_disabled":false,"rental_uris":{"android":"levelo://app?vid=826f4136-a005-4203-8c5f-7808e18dcf00","ios":"levelo://app?vid=826f4136-a005-4203-8c5f-7808e18dcf00"},"vehicle_type_id":"4","last_reported":1726423897,"current_range_meters":8000,"station_id":"ce4bhph2rcd13ifvqhdg","pricing_plan_id":"cebpf4jnsgd1na2vs0mg"},{"bike_id":"6af3fd63-dca0-4cb9-98e9-3bd40577cb21","system_id":"levelo_inurba_marseille","lat":43.297081,"lon":5.366145,"is_reserved":false,"is_disabled":false,"rental_uris":{"android":"levelo://app?vid=6af3fd63-dca0-4cb9-98e9-3bd40577cb21","ios":"levelo://app?vid=6af3fd63-dca0-4cb9-98e9-3bd40577cb21"},"vehicle_type_id":"4","last_reported":1726423897,"current_range_meters":36800,"station_id":"ce4bgn12rcd13ifvqbt0","pricing_plan_id":"cebpf4jnsgd1na2vs0mg"},{"bike_id":"5cf4c2f1-f092-4550-b8cf-369099ebc3bc","system_id":"levelo_inurba_marseille","lat":43.24568,"lon":5.41551,"is_reserved":false,"is_disabled":false,"rental_uris":{"android":"levelo://app?vid=5cf4c2f1-f092-4550-b8cf-369099ebc3bc","ios":"levelo://app?vid=5cf4c2f1-f092-4550-b8cf-369099ebc3bc"},"vehicle_type_id":"4","last_reported":1726423897,"current_range_meters":12800,"station_id":"ce4bhlh2rcd13ifvqgig","pricing_plan_id":"cebpf4jnsgd1na2vs0mg"},{"bike_id":"3b5fe658-85b6-452d-a07e-eda227d67cf6","system_id":"levelo_inurba_marseille","lat":43.30646,"lon":5.40093,"is_reserved":false,"is_disabled":false,"rental_uris":{"android":"levelo://app?vid=3b5fe658-85b6-452d-a07e-eda227d67cf6","ios":"levelo://app?vid=3b5fe658-85b6-452d-a07e-eda227d67cf6"},"vehicle_type_id":"4","last_reported":1726423897,"current_range_meters":2800,"station_id":"ce4bh112rcd13ifvqda0","pricing_plan_id":"cebpf4jnsgd1na2vs0mg"},{"bike_id":"4721e0a5-8c0a-4c61-91fb-10c3ba183135","system_id":"levelo_inurba_marseille","lat":43.24074,"lon":5.37764,"is_reserved":false,"is_disabled":false,"rental_uris":{"android":"levelo://app?vid=4721e0a5-8c0a-4c61-91fb-10c3ba183135","ios":"levelo://app?vid=4721e0a5-8c0a-4c61-91fb-10c3ba183135"},"vehicle_type_id":"4","last_reported":1726423897,"current_range_meters":12800,"station_id":"ce4bhnp2rcd13ifvqgvg","pricing_plan_id":"cebpf4jnsgd1na2vs0mg"},{"bike_id":"af14ea28-99c8-4f02-9e97-70bdea229624","system_id":"levelo_inurba_marseille","lat":43.31329,"lon":5.39687,"is_reserved":false,"is_disabled":false,"rental_uris":{"android":"levelo://app?vid=af14ea28-99c8-4f02-9e97-70bdea229624","ios":"levelo://app?vid=af14ea28-99c8-4f02-9e97-70bdea229624"},"vehicle_type_id":"4","last_reported":1726423897,"current_range_meters":25600,"station_id":"ce4bgvp2rcd13ifvqcu0","pricing_plan_id":"cebpf4jnsgd1na2vs0mg"},{"bike_id":"b3296071-3ee4-4cd4-a9c0-ea1b11b66293","system_id":"levelo_inurba_marseille","lat":43.32217,"lon":5.38695,"is_reserved":false,"is_disabled":false,"rental_uris":{"android":"levelo://app?vid=b3296071-3ee4-4cd4-a9c0-ea1b11b66293","ios":"levelo://app?vid=b3296071-3ee4-4cd4-a9c0-ea1b11b66293"},"vehicle_type_id":"4","last_reported":1726423897,"current_range_meters":9200,"station_id":"","pricing_plan_id":"cebpf4jnsgd1na2vs0mg"},{"bike_id":"b645ac77-0d58-4fa9-8ad3-947af8bdb1d9","system_id":"levelo_inurba_marseille","lat":43.299,"lon":5.43665,"is_reserved":false,"is_disabled":false,"rental_uris":{"android":"levelo://app?vid=b645ac77-0d58-4fa9-8ad3-947af8bdb1d9","ios":"levelo://app?vid=b645ac77-0d58-4fa9-8ad3-947af8bdb1d9"},"vehicle_type_id":"4","last_reported":1726423897,"current_range_meters":32800,"station_id":"ce4bhpp2rcd13ifvqhfg","pricing_plan_id":"cebpf4jnsgd1na2vs0mg"},{"bike_id":"03515e55-0de8-4f6d-953a-abbf71a9cce4","system_id":"levelo_inurba_marseille","lat":43.24071,"lon":5.37759,"is_reserved":false,"is_disabled":false,"rental_uris":{"android":"levelo://app?vid=03515e55-0de8-4f6d-953a-abbf71a9cce4","ios":"levelo://app?vid=03515e55-0de8-4f6d-953a-abbf71a9cce4"},"vehicle_type_id":"4","last_reported":1726423897,"current_range_meters":16400,"station_id":"ce4bhnp2rcd13ifvqgvg","pricing_plan_id":"cebpf4jnsgd1na2vs0mg"},{"bike_id":"bc1ca659-eef9-4c04-a751-b58c7f1bbe70","system_id":"levelo_inurba_marseille","lat":43.28668,"lon":5.38681,"is_reserved":false,"is_disabled":false,"rental_uris":{"android":"levelo://app?vid=bc1ca659-eef9-4c04-a751-b58c7f1bbe70","ios":"levelo://app?vid=bc1ca659-eef9-4c04-a751-b58c7f1bbe70"},"vehicle_type_id":"4","last_reported":1726423897,"current_range_meters":16400,"station_id":"ce4bh492rcd13ifvqdug","pricing_plan_id":"cebpf4jnsgd1na2vs0mg"},{"bike_id":"c84943f8-1125-42de-ac4e-6dc26a66cddd","system_id":"levelo_inurba_marseille","lat":43.30939,"lon":5.37826,"is_reserved":false,"is_disabled":false,"rental_uris":{"android":"levelo://app?vid=c84943f8-1125-42de-ac4e-6dc26a66cddd","ios":"levelo://app?vid=c84943f8-1125-42de-ac4e-6dc26a66cddd"},"vehicle_type_id":"4","last_reported":1726423897,"current_range_meters":38400,"station_id":"ce4bgv92rcd13ifvqcq0","pricing_plan_id":"cebpf4jnsgd1na2vs0mg"},{"bike_id":"6ec13ce0-5fd1-482f-9f1f-90b5169fdaef","system_id":"levelo_inurba_marseille","lat":43.30952,"lon":5.3904,"is_reserved":false,"is_disabled":false,"rental_uris":{"android":"levelo://app?vid=6ec13ce0-5fd1-482f-9f1f-90b5169fdaef","ios":"levelo://app?vid=6ec13ce0-5fd1-482f-9f1f-90b5169fdaef"},"vehicle_type_id":"4","last_reported":1726423897,"current_range_meters":8000,"station_id":"ce4bgup2rcd13ifvqco0","pricing_plan_id":"cebpf4jnsgd1na2vs0mg"},{"bike_id":"7abc2a25-404a-4f70-a7c0-c89315b5c4bc","system_id":"levelo_inurba_marseille","lat":43.29063,"lon":5.40557,"is_reserved":false,"is_disabled":false,"rental_uris":{"android":"levelo://app?vid=7abc2a25-404a-4f70-a7c0-c89315b5c4bc","ios":"levelo://app?vid=7abc2a25-404a-4f70-a7c0-c89315b5c4bc"},"vehicle_type_id":"4","last_reported":1726423897,"current_range_meters":28000,"station_id":"","pricing_plan_id":"cebpf4jnsgd1na2vs0mg"},{"bike_id":"7646c591-ba02-4a98-a2f6-74af65491dc1","system_id":"levelo_inurba_marseille","lat":43.28003,"lon":5.40012,"is_reserved":false,"is_disabled":false,"rental_uris":{"android":"levelo://app?vid=7646c591-ba02-4a98-a2f6-74af65491dc1","ios":"levelo://app?vid=7646c591-ba02-4a98-a2f6-74af65491dc1"},"vehicle_type_id":"4","last_reported":1726423897,"current_range_meters":28000,"station_id":"ce4bho92rcd13ifvqh4g","pricing_plan_id":"cebpf4jnsgd1na2vs0mg"},{"bike_id":"677498c9-746b-4650-9a8e-2c7479635944","system_id":"levelo_inurba_marseille","lat":43.33023,"lon":5.39044,"is_reserved":false,"is_disabled":false,"rental_uris":{"android":"levelo://app?vid=677498c9-746b-4650-9a8e-2c7479635944","ios":"levelo://app?vid=677498c9-746b-4650-9a8e-2c7479635944"},"vehicle_type_id":"4","last_reported":1726423897,"current_range_meters":31200,"station_id":"ce4bhr92rcd13ifvqhrg","pricing_plan_id":"cebpf4jnsgd1na2vs0mg"},{"bike_id":"94e55d14-c828-4bbb-9d3b-f074151f51a3","system_id":"levelo_inurba_marseille","lat":43.29366,"lon":5.37852,"is_reserved":false,"is_disabled":false,"rental_uris":{"android":"levelo://app?vid=94e55d14-c828-4bbb-9d3b-f074151f51a3","ios":"levelo://app?vid=94e55d14-c828-4bbb-9d3b-f074151f51a3"},"vehicle_type_id":"4","last_reported":1726423897,"current_range_meters":12000,"station_id":"ce4bgjh2rcd13ifvqbf0","pricing_plan_id":"cebpf4jnsgd1na2vs0mg"},{"bike_id":"32ff1411-8714-4b01-8604-64a6aa8c550b","system_id":"levelo_inurba_marseille","lat":43.29003,"lon":5.35615,"is_reserved":false,"is_disabled":false,"rental_uris":{"android":"levelo://app?vid=32ff1411-8714-4b01-8604-64a6aa8c550b","ios":"levelo://app?vid=32ff1411-8714-4b01-8604-64a6aa8c550b"},"vehicle_type_id":"4","last_reported":1726423897,"current_range_meters":5600,"station_id":"ce4bhb92rcd13ifvqen0","pricing_plan_id":"cebpf4jnsgd1na2vs0mg"},{"bike_id":"c0042362-d76e-412e-8000-c06d63ef023d","system_id":"levelo_inurba_marseille","lat":43.29047,"lon":5.35918,"is_reserved":false,"is_disabled":false,"rental_uris":{"android":"levelo://app?vid=c0042362-d76e-412e-8000-c06d63ef023d","ios":"levelo://app?vid=c0042362-d76e-412e-8000-c06d63ef023d"},"vehicle_type_id":"4","last_reported":1726423897,"current_range_meters":39200,"station_id":"ce4bha92rcd13ifvqeg0","pricing_plan_id":"cebpf4jnsgd1na2vs0mg"},{"bike_id":"8501d234-79b8-49e2-b395-6952746405ea","system_id":"levelo_inurba_marseille","lat":43.24163,"lon":5.36394,"is_reserved":false,"is_disabled":false,"rental_uris":{"android":"levelo://app?vid=8501d234-79b8-49e2-b395-6952746405ea","ios":"levelo://app?vid=8501d234-79b8-49e2-b395-6952746405ea"},"vehicle_type_id":"4","last_reported":1726423897,"current_range_meters":14400,"station_id":"cpo36qri1sfpv3e86is0","pricing_plan_id":"cebpf4jnsgd1na2vs0mg"},{"bike_id":"a1fd93be-9189-4d8f-bc5f-8b82d66d4441","system_id":"levelo_inurba_marseille","lat":43.24665,"lon":5.38163,"is_reserved":false,"is_disabled":false,"rental_uris":{"android":"levelo://app?vid=a1fd93be-9189-4d8f-bc5f-8b82d66d4441","ios":"levelo://app?vid=a1fd93be-9189-4d8f-bc5f-8b82d66d4441"},"vehicle_type_id":"4","last_reported":1726423897,"current_range_meters":39200,"station_id":"ce4bhih2rcd13ifvqfr0","pricing_plan_id":"cebpf4jnsgd1na2vs0mg"},{"bike_id":"59c2c49a-1762-42b4-9559-0e22c089f63b","system_id":"levelo_inurba_marseille","lat":43.25114,"lon":5.40319,"is_reserved":false,"is_disabled":false,"rental_uris":{"android":"levelo://app?vid=59c2c49a-1762-42b4-9559-0e22c089f63b","ios":"levelo://app?vid=59c2c49a-1762-42b4-9559-0e22c089f63b"},"vehicle_type_id":"4","last_reported":1726423897,"current_range_meters":22000,"station_id":"ce4bhlh2rcd13ifvqgig","pricing_plan_id":"cebpf4jnsgd1na2vs0mg"},{"bike_id":"beab53ff-70cd-4efb-8751-5f79fcc636ef","system_id":"levelo_inurba_marseille","lat":43.29901,"lon":5.43671,"is_reserved":false,"is_disabled":false,"rental_uris":{"android":"levelo://app?vid=beab53ff-70cd-4efb-8751-5f79fcc636ef","ios":"levelo://app?vid=beab53ff-70cd-4efb-8751-5f79fcc636ef"},"vehicle_type_id":"4","last_reported":1726423897,"current_range_meters":3200,"station_id":"ce4bhpp2rcd13ifvqhfg","pricing_plan_id":"cebpf4jnsgd1na2vs0mg"},{"bike_id":"bb38dcd5-5255-46ef-acb2-896002b8540e","system_id":"levelo_inurba_marseille","lat":43.24387,"lon":5.37063,"is_reserved":false,"is_disabled":false,"rental_uris":{"android":"levelo://app?vid=bb38dcd5-5255-46ef-acb2-896002b8540e","ios":"levelo://app?vid=bb38dcd5-5255-46ef-acb2-896002b8540e"},"vehicle_type_id":"4","last_reported":1726423897,"current_range_meters":38800,"station_id":"ce4bhhh2rcd13ifvqfk0","pricing_plan_id":"cebpf4jnsgd1na2vs0mg"},{"bike_id":"157a4b55-096e-486e-bc1f-0e234c301f3a","system_id":"levelo_inurba_marseille","lat":43.248051,"lon":5.374537,"is_reserved":false,"is_disabled":false,"rental_uris":{"android":"levelo://app?vid=157a4b55-096e-486e-bc1f-0e234c301f3a","ios":"levelo://app?vid=157a4b55-096e-486e-bc1f-0e234c301f3a"},"vehicle_type_id":"4","last_reported":1726423897,"current_range_meters":22800,"station_id":"ce4bhgh2rcd13ifvqfb0","pricing_plan_id":"cebpf4jnsgd1na2vs0mg"},{"bike_id":"58286d15-9785-4010-942d-ccd63c6b2535","system_id":"levelo_inurba_marseille","lat":43.27985,"lon":5.41651,"is_reserved":false,"is_disabled":false,"rental_uris":{"android":"levelo://app?vid=58286d15-9785-4010-942d-ccd63c6b2535","ios":"levelo://app?vid=58286d15-9785-4010-942d-ccd63c6b2535"},"vehicle_type_id":"4","last_reported":1726423897,"current_range_meters":27200,"station_id":"ce4bho12rcd13ifvqh1g","pricing_plan_id":"cebpf4jnsgd1na2vs0mg"},{"bike_id":"3709e871-70a4-471a-a01b-eee384645ff0","system_id":"levelo_inurba_marseille","lat":43.31718,"lon":5.42415,"is_reserved":false,"is_disabled":false,"rental_uris":{"android":"levelo://app?vid=3709e871-70a4-471a-a01b-eee384645ff0","ios":"levelo://app?vid=3709e871-70a4-471a-a01b-eee384645ff0"},"vehicle_type_id":"4","last_reported":1726423897,"current_range_meters":39200,"station_id":"ce4bhp92rcd13ifvqhbg","pricing_plan_id":"cebpf4jnsgd1na2vs0mg"},{"bike_id":"d159c689-97ee-4d9c-85a8-bf8be4ee440c","system_id":"levelo_inurba_marseille","lat":43.31494,"lon":5.37306,"is_reserved":false,"is_disabled":false,"rental_uris":{"android":"levelo://app?vid=d159c689-97ee-4d9c-85a8-bf8be4ee440c","ios":"levelo://app?vid=d159c689-97ee-4d9c-85a8-bf8be4ee440c"},"vehicle_type_id":"4","last_reported":1726423897,"current_range_meters":38400,"station_id":"ce4bgt12rcd13ifvqcd0","pricing_plan_id":"cebpf4jnsgd1na2vs0mg"},{"bike_id":"37776167-08cf-4620-b3d3-e3f67752e124","system_id":"levelo_inurba_marseille","lat":43.2707,"lon":5.42281,"is_reserved":false,"is_disabled":false,"rental_uris":{"android":"levelo://app?vid=37776167-08cf-4620-b3d3-e3f67752e124","ios":"levelo://app?vid=37776167-08cf-4620-b3d3-e3f67752e124"},"vehicle_type_id":"4","last_reported":1726423897,"current_range_meters":9600,"station_id":"ce4bhk92rcd13ifvqgb0","pricing_plan_id":"cebpf4jnsgd1na2vs0mg"},{"bike_id":"dde9add0-5c35-4eef-ba65-19df115b9389","system_id":"levelo_inurba_marseille","lat":43.285065,"lon":5.374621,"is_reserved":false,"is_disabled":false,"rental_uris":{"android":"levelo://app?vid=dde9add0-5c35-4eef-ba65-19df115b9389","ios":"levelo://app?vid=dde9add0-5c35-4eef-ba65-19df115b9389"},"vehicle_type_id":"4","last_reported":1726423897,"current_range_meters":14800,"station_id":"ce4bh3p2rcd13ifvqdq0","pricing_plan_id":"cebpf4jnsgd1na2vs0mg"},{"bike_id":"55591efb-137e-4f30-88b4-468d435bc92b","system_id":"levelo_inurba_marseille","lat":43.28929,"lon":5.384,"is_reserved":false,"is_disabled":false,"rental_uris":{"android":"levelo://app?vid=55591efb-137e-4f30-88b4-468d435bc92b","ios":"levelo://app?vid=55591efb-137e-4f30-88b4-468d435bc92b"},"vehicle_type_id":"4","last_reported":1726423897,"current_range_meters":13600,"station_id":"ce4bh612rcd13ifvqe6g","pricing_plan_id":"cebpf4jnsgd1na2vs0mg"},{"bike_id":"7356a0e6-7823-47bc-a108-ff00321a67a6","system_id":"levelo_inurba_marseille","lat":43.29368,"lon":5.37864,"is_reserved":false,"is_disabled":false,"rental_uris":{"android":"levelo://app?vid=7356a0e6-7823-47bc-a108-ff00321a67a6","ios":"levelo://app?vid=7356a0e6-7823-47bc-a108-ff00321a67a6"},"vehicle_type_id":"4","last_reported":1726423897,"current_range_meters":18800,"station_id":"ce4bgjh2rcd13ifvqbf0","pricing_plan_id":"cebpf4jnsgd1na2vs0mg"},{"bike_id":"68bc764f-b42a-4124-a878-40c92c27c47d","system_id":"levelo_inurba_marseille","lat":43.31756,"lon":5.39014,"is_reserved":false,"is_disabled":false,"rental_uris":{"android":"levelo://app?vid=68bc764f-b42a-4124-a878-40c92c27c47d","ios":"levelo://app?vid=68bc764f-b42a-4124-a878-40c92c27c47d"},"vehicle_type_id":"4","last_reported":1726423897,"current_range_meters":36000,"station_id":"ce4bhqp2rcd13ifvqhng","pricing_plan_id":"cebpf4jnsgd1na2vs0mg"},{"bike_id":"ff52615e-b358-44c9-b023-a386687a7ae3","system_id":"levelo_inurba_marseille","lat":43.299693,"lon":5.384964,"is_reserved":false,"is_disabled":false,"rental_uris":{"android":"levelo://app?vid=ff52615e-b358-44c9-b023-a386687a7ae3","ios":"levelo://app?vid=ff52615e-b358-44c9-b023-a386687a7ae3"},"vehicle_type_id":"4","last_reported":1726423897,"current_range_meters":14000,"station_id":"ce4bgj92rcd13ifvqbd0","pricing_plan_id":"cebpf4jnsgd1na2vs0mg"},{"bike_id":"072cde95-f7e9-4d24-b101-b47bc456a189","system_id":"levelo_inurba_marseille","lat":43.28926,"lon":5.38402,"is_reserved":false,"is_disabled":false,"rental_uris":{"android":"levelo://app?vid=072cde95-f7e9-4d24-b101-b47bc456a189","ios":"levelo://app?vid=072cde95-f7e9-4d24-b101-b47bc456a189"},"vehicle_type_id":"4","last_reported":1726423897,"current_range_meters":19200,"station_id":"ce4bh612rcd13ifvqe6g","pricing_plan_id":"cebpf4jnsgd1na2vs0mg"},{"bike_id":"5cc3b4c6-8e3f-4d20-a577-d2f5ce9f95fd","system_id":"levelo_inurba_marseille","lat":43.298859,"lon":5.436672,"is_reserved":false,"is_disabled":false,"rental_uris":{"android":"levelo://app?vid=5cc3b4c6-8e3f-4d20-a577-d2f5ce9f95fd","ios":"levelo://app?vid=5cc3b4c6-8e3f-4d20-a577-d2f5ce9f95fd"},"vehicle_type_id":"4","last_reported":1726423897,"current_range_meters":31200,"station_id":"ce4bhpp2rcd13ifvqhfg","pricing_plan_id":"cebpf4jnsgd1na2vs0mg"},{"bike_id":"a3489470-3334-4492-9cfa-1862f425b160","system_id":"levelo_inurba_marseille","lat":43.28154,"lon":5.42652,"is_reserved":false,"is_disabled":false,"rental_uris":{"android":"levelo://app?vid=a3489470-3334-4492-9cfa-1862f425b160","ios":"levelo://app?vid=a3489470-3334-4492-9cfa-1862f425b160"},"vehicle_type_id":"4","last_reported":1726423897,"current_range_meters":22400,"station_id":"ce4bhnh2rcd13ifvqgug","pricing_plan_id":"cebpf4jnsgd1na2vs0mg"},{"bike_id":"fb770ce3-e998-41e8-9bb5-61147f66fa03","system_id":"levelo_inurba_marseille","lat":43.291656,"lon":5.380456,"is_reserved":false,"is_disabled":false,"rental_uris":{"android":"levelo://app?vid=fb770ce3-e998-41e8-9bb5-61147f66fa03","ios":"levelo://app?vid=fb770ce3-e998-41e8-9bb5-61147f66fa03"},"vehicle_type_id":"4","last_reported":1726423897,"current_range_meters":14000,"station_id":"ce4bh392rcd13ifvqdl0","pricing_plan_id":"cebpf4jnsgd1na2vs0mg"},{"bike_id":"8cc2b236-9c0e-4a5b-be5a-78436a8f624b","system_id":"levelo_inurba_marseille","lat":43.254997,"lon":5.376523,"is_reserved":false,"is_disabled":false,"rental_uris":{"android":"levelo://app?vid=8cc2b236-9c0e-4a5b-be5a-78436a8f624b","ios":"levelo://app?vid=8cc2b236-9c0e-4a5b-be5a-78436a8f624b"},"vehicle_type_id":"4","last_reported":1726423897,"current_range_meters":39200,"station_id":"ce4bhh12rcd13ifvqff0","pricing_plan_id":"cebpf4jnsgd1na2vs0mg"},{"bike_id":"6ad2fe94-195b-4d58-9ac6-d3a9675a4c80","system_id":"levelo_inurba_marseille","lat":43.23066,"lon":5.35492,"is_reserved":false,"is_disabled":false,"rental_uris":{"android":"levelo://app?vid=6ad2fe94-195b-4d58-9ac6-d3a9675a4c80","ios":"levelo://app?vid=6ad2fe94-195b-4d58-9ac6-d3a9675a4c80"},"vehicle_type_id":"4","last_reported":1726423897,"current_range_meters":21600,"station_id":"cpo3342slgdg3j2ifvpg","pricing_plan_id":"cebpf4jnsgd1na2vs0mg"},{"bike_id":"a56cdbda-f168-4c4f-a578-51ccdcfe51a4","system_id":"levelo_inurba_marseille","lat":43.32475,"lon":5.36567,"is_reserved":false,"is_disabled":false,"rental_uris":{"android":"levelo://app?vid=a56cdbda-f168-4c4f-a578-51ccdcfe51a4","ios":"levelo://app?vid=a56cdbda-f168-4c4f-a578-51ccdcfe51a4"},"vehicle_type_id":"4","last_reported":1726423897,"current_range_meters":8400,"station_id":"ce4bhs12rcd13ifvqhvg","pricing_plan_id":"cebpf4jnsgd1na2vs0mg"},{"bike_id":"ed395158-49bb-4ed0-a30f-caaeb4a15a1c","system_id":"levelo_inurba_marseille","lat":43.24077,"lon":5.37753,"is_reserved":false,"is_disabled":false,"rental_uris":{"android":"levelo://app?vid=ed395158-49bb-4ed0-a30f-caaeb4a15a1c","ios":"levelo://app?vid=ed395158-49bb-4ed0-a30f-caaeb4a15a1c"},"vehicle_type_id":"4","last_reported":1726423897,"current_range_meters":12800,"station_id":"ce4bhnp2rcd13ifvqgvg","pricing_plan_id":"cebpf4jnsgd1na2vs0mg"},{"bike_id":"52727c6d-9d0a-49d1-973a-1230d0a9aac6","system_id":"levelo_inurba_marseille","lat":43.317571,"lon":5.390086,"is_reserved":false,"is_disabled":false,"rental_uris":{"android":"levelo://app?vid=52727c6d-9d0a-49d1-973a-1230d0a9aac6","ios":"levelo://app?vid=52727c6d-9d0a-49d1-973a-1230d0a9aac6"},"vehicle_type_id":"4","last_reported":1726423897,"current_range_meters":13600,"station_id":"ce4bhqp2rcd13ifvqhng","pricing_plan_id":"cebpf4jnsgd1na2vs0mg"},{"bike_id":"b74d3f1c-0fdc-4988-980c-1f76e254caf4","system_id":"levelo_inurba_marseille","lat":43.31995,"lon":5.38168,"is_reserved":false,"is_disabled":false,"rental_uris":{"android":"levelo://app?vid=b74d3f1c-0fdc-4988-980c-1f76e254caf4","ios":"levelo://app?vid=b74d3f1c-0fdc-4988-980c-1f76e254caf4"},"vehicle_type_id":"4","last_reported":1726423897,"current_range_meters":8000,"station_id":"ce4bhr12rcd13ifvqhpg","pricing_plan_id":"cebpf4jnsgd1na2vs0mg"},{"bike_id":"2a29b635-860d-4fcf-b9ef-7b9429843b40","system_id":"levelo_inurba_marseille","lat":43.31726,"lon":5.42406,"is_reserved":false,"is_disabled":false,"rental_uris":{"android":"levelo://app?vid=2a29b635-860d-4fcf-b9ef-7b9429843b40","ios":"levelo://app?vid=2a29b635-860d-4fcf-b9ef-7b9429843b40"},"vehicle_type_id":"4","last_reported":1726423897,"current_range_meters":36800,"station_id":"ce4bhp92rcd13ifvqhbg","pricing_plan_id":"cebpf4jnsgd1na2vs0mg"},{"bike_id":"985c9376-7ac5-4d93-bd51-9f009702893f","system_id":"levelo_inurba_marseille","lat":43.28102,"lon":5.37834,"is_reserved":false,"is_disabled":false,"rental_uris":{"android":"levelo://app?vid=985c9376-7ac5-4d93-bd51-9f009702893f","ios":"levelo://app?vid=985c9376-7ac5-4d93-bd51-9f009702893f"},"vehicle_type_id":"4","last_reported":1726423897,"current_range_meters":4800,"station_id":"ce4bha12rcd13ifvqee0","pricing_plan_id":"cebpf4jnsgd1na2vs0mg"},{"bike_id":"c5420d2d-15c1-444c-8801-d166f4c1e391","system_id":"levelo_inurba_marseille","lat":43.2656,"lon":5.39014,"is_reserved":false,"is_disabled":false,"rental_uris":{"android":"levelo://app?vid=c5420d2d-15c1-444c-8801-d166f4c1e391","ios":"levelo://app?vid=c5420d2d-15c1-444c-8801-d166f4c1e391"},"vehicle_type_id":"4","last_reported":1726423897,"current_range_meters":38800,"station_id":"ce4bhe12rcd13ifvqf30","pricing_plan_id":"cebpf4jnsgd1na2vs0mg"},{"bike_id":"d1f38fcd-be46-4877-a9ac-34b365272c30","system_id":"levelo_inurba_marseille","lat":43.27102,"lon":5.43322,"is_reserved":false,"is_disabled":false,"rental_uris":{"android":"levelo://app?vid=d1f38fcd-be46-4877-a9ac-34b365272c30","ios":"levelo://app?vid=d1f38fcd-be46-4877-a9ac-34b365272c30"},"vehicle_type_id":"4","last_reported":1726423897,"current_range_meters":13600,"station_id":"","pricing_plan_id":"cebpf4jnsgd1na2vs0mg"},{"bike_id":"5dd812c1-471e-4696-8ab0-e50e2dc97a3e","system_id":"levelo_inurba_marseille","lat":43.32344,"lon":5.40614,"is_reserved":false,"is_disabled":false,"rental_uris":{"android":"levelo://app?vid=5dd812c1-471e-4696-8ab0-e50e2dc97a3e","ios":"levelo://app?vid=5dd812c1-471e-4696-8ab0-e50e2dc97a3e"},"vehicle_type_id":"4","last_reported":1726423897,"current_range_meters":3600,"station_id":"ce4bhq92rcd13ifvqhjg","pricing_plan_id":"cebpf4jnsgd1na2vs0mg"},{"bike_id":"2c36f173-7fe7-45a3-b0b4-69fddd6ecd2c","system_id":"levelo_inurba_marseille","lat":43.27611,"lon":5.36107,"is_reserved":false,"is_disabled":false,"rental_uris":{"android":"levelo://app?vid=2c36f173-7fe7-45a3-b0b4-69fddd6ecd2c","ios":"levelo://app?vid=2c36f173-7fe7-45a3-b0b4-69fddd6ecd2c"},"vehicle_type_id":"4","last_reported":1726423897,"current_range_meters":17200,"station_id":"ce4bgj92rcd13ifvqbe0","pricing_plan_id":"cebpf4jnsgd1na2vs0mg"},{"bike_id":"91f7e9e5-076e-4e3a-8acf-289dc20e3d9f","system_id":"levelo_inurba_marseille","lat":43.31721,"lon":5.42411,"is_reserved":false,"is_disabled":false,"rental_uris":{"android":"levelo://app?vid=91f7e9e5-076e-4e3a-8acf-289dc20e3d9f","ios":"levelo://app?vid=91f7e9e5-076e-4e3a-8acf-289dc20e3d9f"},"vehicle_type_id":"4","last_reported":1726423897,"current_range_meters":36400,"station_id":"ce4bhp92rcd13ifvqhbg","pricing_plan_id":"cebpf4jnsgd1na2vs0mg"},{"bike_id":"d4dcec5a-b0b6-4319-8584-aaf3103d153c","system_id":"levelo_inurba_marseille","lat":43.29562,"lon":5.42276,"is_reserved":false,"is_disabled":false,"rental_uris":{"android":"levelo://app?vid=d4dcec5a-b0b6-4319-8584-aaf3103d153c","ios":"levelo://app?vid=d4dcec5a-b0b6-4319-8584-aaf3103d153c"},"vehicle_type_id":"4","last_reported":1726423897,"current_range_meters":35200,"station_id":"ce4bhph2rcd13ifvqhdg","pricing_plan_id":"cebpf4jnsgd1na2vs0mg"},{"bike_id":"67b5b757-e0f3-43f5-9024-da319fb1d16e","system_id":"levelo_inurba_marseille","lat":43.23189,"lon":5.39987,"is_reserved":false,"is_disabled":false,"rental_uris":{"android":"levelo://app?vid=67b5b757-e0f3-43f5-9024-da319fb1d16e","ios":"levelo://app?vid=67b5b757-e0f3-43f5-9024-da319fb1d16e"},"vehicle_type_id":"4","last_reported":1726423897,"current_range_meters":22400,"station_id":"ce4bhn12rcd13ifvqgqg","pricing_plan_id":"cebpf4jnsgd1na2vs0mg"},{"bike_id":"5263c75a-b0ca-4e1c-9976-2df708ba914c","system_id":"levelo_inurba_marseille","lat":43.29561,"lon":5.42287,"is_reserved":false,"is_disabled":false,"rental_uris":{"android":"levelo://app?vid=5263c75a-b0ca-4e1c-9976-2df708ba914c","ios":"levelo://app?vid=5263c75a-b0ca-4e1c-9976-2df708ba914c"},"vehicle_type_id":"4","last_reported":1726423897,"current_range_meters":10000,"station_id":"ce4bhph2rcd13ifvqhdg","pricing_plan_id":"cebpf4jnsgd1na2vs0mg"},{"bike_id":"baed2d9e-a3bb-4072-90af-fe361525a2bb","system_id":"levelo_inurba_marseille","lat":43.25577,"lon":5.38242,"is_reserved":false,"is_disabled":false,"rental_uris":{"android":"levelo://app?vid=baed2d9e-a3bb-4072-90af-fe361525a2bb","ios":"levelo://app?vid=baed2d9e-a3bb-4072-90af-fe361525a2bb"},"vehicle_type_id":"4","last_reported":1726423897,"current_range_meters":38800,"station_id":"ce4bhih2rcd13ifvqfs0","pricing_plan_id":"cebpf4jnsgd1na2vs0mg"},{"bike_id":"7493d269-7c3a-4f79-bc06-c9691a0ed937","system_id":"levelo_inurba_marseille","lat":43.28852,"lon":5.35851,"is_reserved":false,"is_disabled":false,"rental_uris":{"android":"levelo://app?vid=7493d269-7c3a-4f79-bc06-c9691a0ed937","ios":"levelo://app?vid=7493d269-7c3a-4f79-bc06-c9691a0ed937"},"vehicle_type_id":"4","last_reported":1726423897,"current_range_meters":8800,"station_id":"ce4bhb12rcd13ifvqem0","pricing_plan_id":"cebpf4jnsgd1na2vs0mg"},{"bike_id":"6360c1f0-93da-47dc-8cd6-28fc46f76c2d","system_id":"levelo_inurba_marseille","lat":43.3094,"lon":5.39056,"is_reserved":false,"is_disabled":false,"rental_uris":{"android":"levelo://app?vid=6360c1f0-93da-47dc-8cd6-28fc46f76c2d","ios":"levelo://app?vid=6360c1f0-93da-47dc-8cd6-28fc46f76c2d"},"vehicle_type_id":"4","last_reported":1726423897,"current_range_meters":11600,"station_id":"ce4bgup2rcd13ifvqco0","pricing_plan_id":"cebpf4jnsgd1na2vs0mg"},{"bike_id":"103368f7-6cf9-4f61-a9f7-0e638a4ed99a","system_id":"levelo_inurba_marseille","lat":43.24073,"lon":5.37759,"is_reserved":false,"is_disabled":false,"rental_uris":{"android":"levelo://app?vid=103368f7-6cf9-4f61-a9f7-0e638a4ed99a","ios":"levelo://app?vid=103368f7-6cf9-4f61-a9f7-0e638a4ed99a"},"vehicle_type_id":"4","last_reported":1726423897,"current_range_meters":11200,"station_id":"ce4bhnp2rcd13ifvqgvg","pricing_plan_id":"cebpf4jnsgd1na2vs0mg"},{"bike_id":"d777a0b3-3f17-475c-b403-efafc48e02e0","system_id":"levelo_inurba_marseille","lat":43.28403,"lon":5.37519,"is_reserved":false,"is_disabled":false,"rental_uris":{"android":"levelo://app?vid=d777a0b3-3f17-475c-b403-efafc48e02e0","ios":"levelo://app?vid=d777a0b3-3f17-475c-b403-efafc48e02e0"},"vehicle_type_id":"4","last_reported":1726423897,"current_range_meters":16000,"station_id":"ce4bh412rcd13ifvqds0","pricing_plan_id":"cebpf4jnsgd1na2vs0mg"},{"bike_id":"7ef821f4-5270-4027-8ab3-172d181c8f44","system_id":"levelo_inurba_marseille","lat":43.28713,"lon":5.37935,"is_reserved":false,"is_disabled":false,"rental_uris":{"android":"levelo://app?vid=7ef821f4-5270-4027-8ab3-172d181c8f44","ios":"levelo://app?vid=7ef821f4-5270-4027-8ab3-172d181c8f44"},"vehicle_type_id":"4","last_reported":1726423897,"current_range_meters":20000,"station_id":"ce4bh9p2rcd13ifvqec0","pricing_plan_id":"cebpf4jnsgd1na2vs0mg"},{"bike_id":"7c82eff3-455c-4ac5-a0d4-aa6e30fca420","system_id":"levelo_inurba_marseille","lat":43.247814,"lon":5.374753,"is_reserved":false,"is_disabled":false,"rental_uris":{"android":"levelo://app?vid=7c82eff3-455c-4ac5-a0d4-aa6e30fca420","ios":"levelo://app?vid=7c82eff3-455c-4ac5-a0d4-aa6e30fca420"},"vehicle_type_id":"4","last_reported":1726423897,"current_range_meters":20400,"station_id":"ce4bhgh2rcd13ifvqfb0","pricing_plan_id":"cebpf4jnsgd1na2vs0mg"},{"bike_id":"20f3fcf2-3b26-45ef-b95e-4580e0e2754b","system_id":"levelo_inurba_marseille","lat":43.29559,"lon":5.42284,"is_reserved":false,"is_disabled":false,"rental_uris":{"android":"levelo://app?vid=20f3fcf2-3b26-45ef-b95e-4580e0e2754b","ios":"levelo://app?vid=20f3fcf2-3b26-45ef-b95e-4580e0e2754b"},"vehicle_type_id":"4","last_reported":1726423897,"current_range_meters":2000,"station_id":"ce4bhph2rcd13ifvqhdg","pricing_plan_id":"cebpf4jnsgd1na2vs0mg"},{"bike_id":"224f4cdb-6cc3-4db0-87c2-8c2eb9bfcc34","system_id":"levelo_inurba_marseille","lat":43.289154,"lon":5.38408,"is_reserved":false,"is_disabled":false,"rental_uris":{"android":"levelo://app?vid=224f4cdb-6cc3-4db0-87c2-8c2eb9bfcc34","ios":"levelo://app?vid=224f4cdb-6cc3-4db0-87c2-8c2eb9bfcc34"},"vehicle_type_id":"4","last_reported":1726423897,"current_range_meters":12000,"station_id":"ce4bh612rcd13ifvqe6g","pricing_plan_id":"cebpf4jnsgd1na2vs0mg"},{"bike_id":"24a54a96-b4be-42bd-be02-05700fb56521","system_id":"levelo_inurba_marseille","lat":43.24994,"lon":5.3893,"is_reserved":false,"is_disabled":false,"rental_uris":{"android":"levelo://app?vid=24a54a96-b4be-42bd-be02-05700fb56521","ios":"levelo://app?vid=24a54a96-b4be-42bd-be02-05700fb56521"},"vehicle_type_id":"4","last_reported":1726423897,"current_range_meters":35200,"station_id":"ce4bhgp2rcd13ifvqfd0","pricing_plan_id":"cebpf4jnsgd1na2vs0mg"},{"bike_id":"328d45f9-980e-4811-97c0-47d761861509","system_id":"levelo_inurba_marseille","lat":43.29847,"lon":5.37836,"is_reserved":false,"is_disabled":false,"rental_uris":{"android":"levelo://app?vid=328d45f9-980e-4811-97c0-47d761861509","ios":"levelo://app?vid=328d45f9-980e-4811-97c0-47d761861509"},"vehicle_type_id":"4","last_reported":1726423897,"current_range_meters":27200,"station_id":"ce4bgkh2rcd13ifvqbl0","pricing_plan_id":"cebpf4jnsgd1na2vs0mg"},{"bike_id":"3b51f764-c75e-47b9-9ce2-0fdae7022f59","system_id":"levelo_inurba_marseille","lat":43.24824,"lon":5.39216,"is_reserved":false,"is_disabled":false,"rental_uris":{"android":"levelo://app?vid=3b51f764-c75e-47b9-9ce2-0fdae7022f59","ios":"levelo://app?vid=3b51f764-c75e-47b9-9ce2-0fdae7022f59"},"vehicle_type_id":"4","last_reported":1726423897,"current_range_meters":2800,"station_id":"","pricing_plan_id":"cebpf4jnsgd1na2vs0mg"},{"bike_id":"ed894eb8-418b-420e-8b0a-60c234bd212d","system_id":"levelo_inurba_marseille","lat":43.25089,"lon":5.39517,"is_reserved":false,"is_disabled":false,"rental_uris":{"android":"levelo://app?vid=ed894eb8-418b-420e-8b0a-60c234bd212d","ios":"levelo://app?vid=ed894eb8-418b-420e-8b0a-60c234bd212d"},"vehicle_type_id":"4","last_reported":1726423897,"current_range_meters":8000,"station_id":"ce4bhm12rcd13ifvqgkg","pricing_plan_id":"cebpf4jnsgd1na2vs0mg"},{"bike_id":"faf816e6-4e87-4e93-88d4-5861eae33b5c","system_id":"levelo_inurba_marseille","lat":43.24078,"lon":5.3775,"is_reserved":false,"is_disabled":false,"rental_uris":{"android":"levelo://app?vid=faf816e6-4e87-4e93-88d4-5861eae33b5c","ios":"levelo://app?vid=faf816e6-4e87-4e93-88d4-5861eae33b5c"},"vehicle_type_id":"4","last_reported":1726423897,"current_range_meters":24800,"station_id":"ce4bhnp2rcd13ifvqgvg","pricing_plan_id":"cebpf4jnsgd1na2vs0mg"},{"bike_id":"d4e94640-833a-4cb6-b013-663f23cd313b","system_id":"levelo_inurba_marseille","lat":43.3059,"lon":5.39359,"is_reserved":false,"is_disabled":false,"rental_uris":{"android":"levelo://app?vid=d4e94640-833a-4cb6-b013-663f23cd313b","ios":"levelo://app?vid=d4e94640-833a-4cb6-b013-663f23cd313b"},"vehicle_type_id":"4","last_reported":1726423897,"current_range_meters":34800,"station_id":"ce4bh0p2rcd13ifvqd80","pricing_plan_id":"cebpf4jnsgd1na2vs0mg"},{"bike_id":"c264ec44-e2d7-4307-8c45-7a567c428ef9","system_id":"levelo_inurba_marseille","lat":43.24648,"lon":5.3889,"is_reserved":false,"is_disabled":false,"rental_uris":{"android":"levelo://app?vid=c264ec44-e2d7-4307-8c45-7a567c428ef9","ios":"levelo://app?vid=c264ec44-e2d7-4307-8c45-7a567c428ef9"},"vehicle_type_id":"4","last_reported":1726423897,"current_range_meters":39200,"station_id":"ce4bhg12rcd13ifvqf60","pricing_plan_id":"cebpf4jnsgd1na2vs0mg"},{"bike_id":"ece240a6-57ed-4ab0-9fc1-7ec70e1c4642","system_id":"levelo_inurba_marseille","lat":43.30948,"lon":5.39037,"is_reserved":false,"is_disabled":false,"rental_uris":{"android":"levelo://app?vid=ece240a6-57ed-4ab0-9fc1-7ec70e1c4642","ios":"levelo://app?vid=ece240a6-57ed-4ab0-9fc1-7ec70e1c4642"},"vehicle_type_id":"4","last_reported":1726423897,"current_range_meters":16800,"station_id":"ce4bgup2rcd13ifvqco0","pricing_plan_id":"cebpf4jnsgd1na2vs0mg"},{"bike_id":"8c1a4b1f-cfcd-4e81-ba19-2e17e20b5a30","system_id":"levelo_inurba_marseille","lat":43.30301,"lon":5.39217,"is_reserved":false,"is_disabled":false,"rental_uris":{"android":"levelo://app?vid=8c1a4b1f-cfcd-4e81-ba19-2e17e20b5a30","ios":"levelo://app?vid=8c1a4b1f-cfcd-4e81-ba19-2e17e20b5a30"},"vehicle_type_id":"4","last_reported":1726423897,"current_range_meters":19600,"station_id":"ce4bgkh2rcd13ifvqbk0","pricing_plan_id":"cebpf4jnsgd1na2vs0mg"},{"bike_id":"8b608b96-fedf-4511-8d4b-09bad2606e1a","system_id":"levelo_inurba_marseille","lat":43.27729,"lon":5.41129,"is_reserved":false,"is_disabled":false,"rental_uris":{"android":"levelo://app?vid=8b608b96-fedf-4511-8d4b-09bad2606e1a","ios":"levelo://app?vid=8b608b96-fedf-4511-8d4b-09bad2606e1a"},"vehicle_type_id":"4","last_reported":1726423897,"current_range_meters":20000,"station_id":"","pricing_plan_id":"cebpf4jnsgd1na2vs0mg"},{"bike_id":"d6149948-cc69-48c8-b75f-51b423ee5546","system_id":"levelo_inurba_marseille","lat":43.31167,"lon":5.39357,"is_reserved":false,"is_disabled":false,"rental_uris":{"android":"levelo://app?vid=d6149948-cc69-48c8-b75f-51b423ee5546","ios":"levelo://app?vid=d6149948-cc69-48c8-b75f-51b423ee5546"},"vehicle_type_id":"4","last_reported":1726423897,"current_range_meters":26000,"station_id":"","pricing_plan_id":"cebpf4jnsgd1na2vs0mg"},{"bike_id":"6f4f7321-2be7-4c36-bb04-a516f10e06a9","system_id":"levelo_inurba_marseille","lat":43.23183,"lon":5.3999,"is_reserved":false,"is_disabled":false,"rental_uris":{"android":"levelo://app?vid=6f4f7321-2be7-4c36-bb04-a516f10e06a9","ios":"levelo://app?vid=6f4f7321-2be7-4c36-bb04-a516f10e06a9"},"vehicle_type_id":"4","last_reported":1726423897,"current_range_meters":30400,"station_id":"ce4bhn12rcd13ifvqgqg","pricing_plan_id":"cebpf4jnsgd1na2vs0mg"},{"bike_id":"fa2b0a9f-66ad-4cd1-b7bb-93b9cffdc904","system_id":"levelo_inurba_marseille","lat":43.25936,"lon":5.40916,"is_reserved":false,"is_disabled":false,"rental_uris":{"android":"levelo://app?vid=fa2b0a9f-66ad-4cd1-b7bb-93b9cffdc904","ios":"levelo://app?vid=fa2b0a9f-66ad-4cd1-b7bb-93b9cffdc904"},"vehicle_type_id":"4","last_reported":1726423897,"current_range_meters":31200,"station_id":"ce4bhm92rcd13ifvqglg","pricing_plan_id":"cebpf4jnsgd1na2vs0mg"},{"bike_id":"176d5298-f8e5-4d21-823b-d7223edc733a","system_id":"levelo_inurba_marseille","lat":43.28934,"lon":5.3639,"is_reserved":false,"is_disabled":false,"rental_uris":{"android":"levelo://app?vid=176d5298-f8e5-4d21-823b-d7223edc733a","ios":"levelo://app?vid=176d5298-f8e5-4d21-823b-d7223edc733a"},"vehicle_type_id":"4","last_reported":1726423897,"current_range_meters":11200,"station_id":"ce4bhc92rcd13ifvqetg","pricing_plan_id":"cebpf4jnsgd1na2vs0mg"},{"bike_id":"d2ca61ed-07b0-4f91-990e-b98a38e76d1b","system_id":"levelo_inurba_marseille","lat":43.24076,"lon":5.37765,"is_reserved":false,"is_disabled":false,"rental_uris":{"android":"levelo://app?vid=d2ca61ed-07b0-4f91-990e-b98a38e76d1b","ios":"levelo://app?vid=d2ca61ed-07b0-4f91-990e-b98a38e76d1b"},"vehicle_type_id":"4","last_reported":1726423897,"current_range_meters":10800,"station_id":"ce4bhnp2rcd13ifvqgvg","pricing_plan_id":"cebpf4jnsgd1na2vs0mg"},{"bike_id":"998460b9-5e8f-453c-b355-2194979b4112","system_id":"levelo_inurba_marseille","lat":43.31117,"lon":5.37761,"is_reserved":false,"is_disabled":false,"rental_uris":{"android":"levelo://app?vid=998460b9-5e8f-453c-b355-2194979b4112","ios":"levelo://app?vid=998460b9-5e8f-453c-b355-2194979b4112"},"vehicle_type_id":"4","last_reported":1726423897,"current_range_meters":36000,"station_id":"ce4bgt92rcd13ifvqcg0","pricing_plan_id":"cebpf4jnsgd1na2vs0mg"},{"bike_id":"0204ccda-6a49-438f-946f-1369ad3f770c","system_id":"levelo_inurba_marseille","lat":43.29521,"lon":5.39409,"is_reserved":false,"is_disabled":false,"rental_uris":{"android":"levelo://app?vid=0204ccda-6a49-438f-946f-1369ad3f770c","ios":"levelo://app?vid=0204ccda-6a49-438f-946f-1369ad3f770c"},"vehicle_type_id":"4","last_reported":1726423897,"current_range_meters":28000,"station_id":"ce4bh292rcd13ifvqdf0","pricing_plan_id":"cebpf4jnsgd1na2vs0mg"},{"bike_id":"1c956d28-b66e-427b-9681-b110484fbd57","system_id":"levelo_inurba_marseille","lat":43.27989,"lon":5.41662,"is_reserved":false,"is_disabled":false,"rental_uris":{"android":"levelo://app?vid=1c956d28-b66e-427b-9681-b110484fbd57","ios":"levelo://app?vid=1c956d28-b66e-427b-9681-b110484fbd57"},"vehicle_type_id":"4","last_reported":1726423897,"current_range_meters":38800,"station_id":"ce4bho12rcd13ifvqh1g","pricing_plan_id":"cebpf4jnsgd1na2vs0mg"},{"bike_id":"f1e8ceee-9573-4b77-ab79-482d0d3b70cc","system_id":"levelo_inurba_marseille","lat":43.24172,"lon":5.36403,"is_reserved":false,"is_disabled":false,"rental_uris":{"android":"levelo://app?vid=f1e8ceee-9573-4b77-ab79-482d0d3b70cc","ios":"levelo://app?vid=f1e8ceee-9573-4b77-ab79-482d0d3b70cc"},"vehicle_type_id":"4","last_reported":1726423897,"current_range_meters":34800,"station_id":"cpo36qri1sfpv3e86is0","pricing_plan_id":"cebpf4jnsgd1na2vs0mg"},{"bike_id":"edcf436d-36d8-4681-8697-07624e464679","system_id":"levelo_inurba_marseille","lat":43.30616,"lon":5.37231,"is_reserved":false,"is_disabled":false,"rental_uris":{"android":"levelo://app?vid=edcf436d-36d8-4681-8697-07624e464679","ios":"levelo://app?vid=edcf436d-36d8-4681-8697-07624e464679"},"vehicle_type_id":"4","last_reported":1726423897,"current_range_meters":11600,"station_id":"ce4bgqh2rcd13ifvqc4g","pricing_plan_id":"cebpf4jnsgd1na2vs0mg"},{"bike_id":"b6338ec0-1a69-4c70-8674-99fda6e64b88","system_id":"levelo_inurba_marseille","lat":43.295654,"lon":5.375108,"is_reserved":false,"is_disabled":false,"rental_uris":{"android":"levelo://app?vid=b6338ec0-1a69-4c70-8674-99fda6e64b88","ios":"levelo://app?vid=b6338ec0-1a69-4c70-8674-99fda6e64b88"},"vehicle_type_id":"4","last_reported":1726423897,"current_range_meters":31200,"station_id":"ce4bgqh2rcd13ifvqc4g","pricing_plan_id":"cebpf4jnsgd1na2vs0mg"},{"bike_id":"35a2c7c4-a135-40c6-8200-d38f48de2f21","system_id":"levelo_inurba_marseille","lat":43.24546,"lon":5.39524,"is_reserved":false,"is_disabled":false,"rental_uris":{"android":"levelo://app?vid=35a2c7c4-a135-40c6-8200-d38f48de2f21","ios":"levelo://app?vid=35a2c7c4-a135-40c6-8200-d38f48de2f21"},"vehicle_type_id":"4","last_reported":1726423897,"current_range_meters":30000,"station_id":"ce4bhlp2rcd13ifvqgjg","pricing_plan_id":"cebpf4jnsgd1na2vs0mg"},{"bike_id":"737c5042-01d0-463a-a2dc-883f78ff3ab9","system_id":"levelo_inurba_marseille","lat":43.30945,"lon":5.39045,"is_reserved":false,"is_disabled":false,"rental_uris":{"android":"levelo://app?vid=737c5042-01d0-463a-a2dc-883f78ff3ab9","ios":"levelo://app?vid=737c5042-01d0-463a-a2dc-883f78ff3ab9"},"vehicle_type_id":"4","last_reported":1726423897,"current_range_meters":17200,"station_id":"ce4bgup2rcd13ifvqco0","pricing_plan_id":"cebpf4jnsgd1na2vs0mg"},{"bike_id":"673f7d4f-af70-44a1-9365-c12271f03488","system_id":"levelo_inurba_marseille","lat":43.30876,"lon":5.37189,"is_reserved":false,"is_disabled":false,"rental_uris":{"android":"levelo://app?vid=673f7d4f-af70-44a1-9365-c12271f03488","ios":"levelo://app?vid=673f7d4f-af70-44a1-9365-c12271f03488"},"vehicle_type_id":"4","last_reported":1726423897,"current_range_meters":3200,"station_id":"ce4bguh2rcd13ifvqckg","pricing_plan_id":"cebpf4jnsgd1na2vs0mg"},{"bike_id":"0e5a3bf8-e7be-4e70-aca4-d97d6e03c7dd","system_id":"levelo_inurba_marseille","lat":43.33023,"lon":5.39046,"is_reserved":false,"is_disabled":false,"rental_uris":{"android":"levelo://app?vid=0e5a3bf8-e7be-4e70-aca4-d97d6e03c7dd","ios":"levelo://app?vid=0e5a3bf8-e7be-4e70-aca4-d97d6e03c7dd"},"vehicle_type_id":"4","last_reported":1726423897,"current_range_meters":22400,"station_id":"ce4bhr92rcd13ifvqhrg","pricing_plan_id":"cebpf4jnsgd1na2vs0mg"},{"bike_id":"a01138f9-d81d-4b02-8703-8746cedb7247","system_id":"levelo_inurba_marseille","lat":43.297742,"lon":5.393341,"is_reserved":false,"is_disabled":false,"rental_uris":{"android":"levelo://app?vid=a01138f9-d81d-4b02-8703-8746cedb7247","ios":"levelo://app?vid=a01138f9-d81d-4b02-8703-8746cedb7247"},"vehicle_type_id":"4","last_reported":1726423897,"current_range_meters":18800,"station_id":"chh1huq6cuj3fo74tm60","pricing_plan_id":"cebpf4jnsgd1na2vs0mg"},{"bike_id":"da582019-05a3-4198-a45f-99eb5e0985da","system_id":"levelo_inurba_marseille","lat":43.28154,"lon":5.42643,"is_reserved":false,"is_disabled":false,"rental_uris":{"android":"levelo://app?vid=da582019-05a3-4198-a45f-99eb5e0985da","ios":"levelo://app?vid=da582019-05a3-4198-a45f-99eb5e0985da"},"vehicle_type_id":"4","last_reported":1726423897,"current_range_meters":19200,"station_id":"ce4bhnh2rcd13ifvqgug","pricing_plan_id":"cebpf4jnsgd1na2vs0mg"},{"bike_id":"012525c8-d863-400b-a802-0ef1a483fc5c","system_id":"levelo_inurba_marseille","lat":43.29557,"lon":5.42283,"is_reserved":false,"is_disabled":false,"rental_uris":{"android":"levelo://app?vid=012525c8-d863-400b-a802-0ef1a483fc5c","ios":"levelo://app?vid=012525c8-d863-400b-a802-0ef1a483fc5c"},"vehicle_type_id":"4","last_reported":1726423897,"current_range_meters":11200,"station_id":"ce4bhph2rcd13ifvqhdg","pricing_plan_id":"cebpf4jnsgd1na2vs0mg"},{"bike_id":"6f387a41-1a28-4619-ac86-26875678b81b","system_id":"levelo_inurba_marseille","lat":43.29899,"lon":5.43673,"is_reserved":false,"is_disabled":false,"rental_uris":{"android":"levelo://app?vid=6f387a41-1a28-4619-ac86-26875678b81b","ios":"levelo://app?vid=6f387a41-1a28-4619-ac86-26875678b81b"},"vehicle_type_id":"4","last_reported":1726423897,"current_range_meters":30400,"station_id":"ce4bhpp2rcd13ifvqhfg","pricing_plan_id":"cebpf4jnsgd1na2vs0mg"},{"bike_id":"e2d435e6-c237-4a0a-8436-b1d492bd4038","system_id":"levelo_inurba_marseille","lat":43.30544,"lon":5.38434,"is_reserved":false,"is_disabled":false,"rental_uris":{"android":"levelo://app?vid=e2d435e6-c237-4a0a-8436-b1d492bd4038","ios":"levelo://app?vid=e2d435e6-c237-4a0a-8436-b1d492bd4038"},"vehicle_type_id":"4","last_reported":1726423897,"current_range_meters":30400,"station_id":"ce4bgg92rcd13ifvqb30","pricing_plan_id":"cebpf4jnsgd1na2vs0mg"},{"bike_id":"72d50923-b500-4de5-abd9-c1374e23005d","system_id":"levelo_inurba_marseille","lat":43.31268,"lon":5.40171,"is_reserved":false,"is_disabled":false,"rental_uris":{"android":"levelo://app?vid=72d50923-b500-4de5-abd9-c1374e23005d","ios":"levelo://app?vid=72d50923-b500-4de5-abd9-c1374e23005d"},"vehicle_type_id":"4","last_reported":1726423897,"current_range_meters":16800,"station_id":"ce4bh092rcd13ifvqd30","pricing_plan_id":"cebpf4jnsgd1na2vs0mg"},{"bike_id":"64f9829d-f350-410c-a43c-f777cc74c706","system_id":"levelo_inurba_marseille","lat":43.293976,"lon":5.37376,"is_reserved":false,"is_disabled":false,"rental_uris":{"android":"levelo://app?vid=64f9829d-f350-410c-a43c-f777cc74c706","ios":"levelo://app?vid=64f9829d-f350-410c-a43c-f777cc74c706"},"vehicle_type_id":"4","last_reported":1726423897,"current_range_meters":13600,"station_id":"ce4bgph2rcd13ifvqc2g","pricing_plan_id":"cebpf4jnsgd1na2vs0mg"},{"bike_id":"2b5b691d-84d2-4aaf-b9c0-753c2081d646","system_id":"levelo_inurba_marseille","lat":43.33605,"lon":5.41034,"is_reserved":false,"is_disabled":false,"rental_uris":{"android":"levelo://app?vid=2b5b691d-84d2-4aaf-b9c0-753c2081d646","ios":"levelo://app?vid=2b5b691d-84d2-4aaf-b9c0-753c2081d646"},"vehicle_type_id":"4","last_reported":1726423897,"current_range_meters":2000,"station_id":"ce4bhqh2rcd13ifvqhmg","pricing_plan_id":"cebpf4jnsgd1na2vs0mg"},{"bike_id":"89c593dd-3ce0-4389-b519-8a01b295617f","system_id":"levelo_inurba_marseille","lat":43.29274,"lon":5.40113,"is_reserved":false,"is_disabled":false,"rental_uris":{"android":"levelo://app?vid=89c593dd-3ce0-4389-b519-8a01b295617f","ios":"levelo://app?vid=89c593dd-3ce0-4389-b519-8a01b295617f"},"vehicle_type_id":"4","last_reported":1726423897,"current_range_meters":6400,"station_id":"ce4bh312rcd13ifvqdk0","pricing_plan_id":"cebpf4jnsgd1na2vs0mg"},{"bike_id":"3912930e-cc3b-4458-a920-5ce57f9156d7","system_id":"levelo_inurba_marseille","lat":43.2586,"lon":5.39915,"is_reserved":false,"is_disabled":false,"rental_uris":{"android":"levelo://app?vid=3912930e-cc3b-4458-a920-5ce57f9156d7","ios":"levelo://app?vid=3912930e-cc3b-4458-a920-5ce57f9156d7"},"vehicle_type_id":"4","last_reported":1726423897,"current_range_meters":38800,"station_id":"ce4bhl92rcd13ifvqghg","pricing_plan_id":"cebpf4jnsgd1na2vs0mg"},{"bike_id":"aa95c661-1107-4bd0-b9af-c8a4ebe70138","system_id":"levelo_inurba_marseille","lat":43.32958,"lon":5.39035,"is_reserved":false,"is_disabled":false,"rental_uris":{"android":"levelo://app?vid=aa95c661-1107-4bd0-b9af-c8a4ebe70138","ios":"levelo://app?vid=aa95c661-1107-4bd0-b9af-c8a4ebe70138"},"vehicle_type_id":"4","last_reported":1726423897,"current_range_meters":35600,"station_id":"","pricing_plan_id":"cebpf4jnsgd1na2vs0mg"},{"bike_id":"4fe3b2fb-2627-4fdf-bc74-6ec78b2aa653","system_id":"levelo_inurba_marseille","lat":43.24645,"lon":5.3889,"is_reserved":false,"is_disabled":false,"rental_uris":{"android":"levelo://app?vid=4fe3b2fb-2627-4fdf-bc74-6ec78b2aa653","ios":"levelo://app?vid=4fe3b2fb-2627-4fdf-bc74-6ec78b2aa653"},"vehicle_type_id":"4","last_reported":1726423897,"current_range_meters":36800,"station_id":"ce4bhg12rcd13ifvqf60","pricing_plan_id":"cebpf4jnsgd1na2vs0mg"},{"bike_id":"227f33f7-8417-4c1b-bc1d-35884f04e18d","system_id":"levelo_inurba_marseille","lat":43.284,"lon":5.37521,"is_reserved":false,"is_disabled":false,"rental_uris":{"android":"levelo://app?vid=227f33f7-8417-4c1b-bc1d-35884f04e18d","ios":"levelo://app?vid=227f33f7-8417-4c1b-bc1d-35884f04e18d"},"vehicle_type_id":"4","last_reported":1726423897,"current_range_meters":4800,"station_id":"ce4bh412rcd13ifvqds0","pricing_plan_id":"cebpf4jnsgd1na2vs0mg"},{"bike_id":"d30f307f-0b2b-41fa-b0cf-4ac04692194b","system_id":"levelo_inurba_marseille","lat":43.30795,"lon":5.38175,"is_reserved":false,"is_disabled":false,"rental_uris":{"android":"levelo://app?vid=d30f307f-0b2b-41fa-b0cf-4ac04692194b","ios":"levelo://app?vid=d30f307f-0b2b-41fa-b0cf-4ac04692194b"},"vehicle_type_id":"4","last_reported":1726423897,"current_range_meters":6800,"station_id":"ce4bgt12rcd13ifvqce0","pricing_plan_id":"cebpf4jnsgd1na2vs0mg"},{"bike_id":"ab80e542-4d8b-413a-a47b-331267bca482","system_id":"levelo_inurba_marseille","lat":43.30304,"lon":5.3921,"is_reserved":false,"is_disabled":false,"rental_uris":{"android":"levelo://app?vid=ab80e542-4d8b-413a-a47b-331267bca482","ios":"levelo://app?vid=ab80e542-4d8b-413a-a47b-331267bca482"},"vehicle_type_id":"4","last_reported":1726423897,"current_range_meters":7200,"station_id":"ce4bgkh2rcd13ifvqbk0","pricing_plan_id":"cebpf4jnsgd1na2vs0mg"},{"bike_id":"52049413-3c9e-41b2-8f18-9184b33fdde9","system_id":"levelo_inurba_marseille","lat":43.26789,"lon":5.39411,"is_reserved":false,"is_disabled":false,"rental_uris":{"android":"levelo://app?vid=52049413-3c9e-41b2-8f18-9184b33fdde9","ios":"levelo://app?vid=52049413-3c9e-41b2-8f18-9184b33fdde9"},"vehicle_type_id":"4","last_reported":1726423897,"current_range_meters":31200,"station_id":"ce4bhh12rcd13ifvqfg0","pricing_plan_id":"cebpf4jnsgd1na2vs0mg"},{"bike_id":"349d9ac4-642a-438f-a490-46173d58584f","system_id":"levelo_inurba_marseille","lat":43.23964,"lon":5.36637,"is_reserved":false,"is_disabled":false,"rental_uris":{"android":"levelo://app?vid=349d9ac4-642a-438f-a490-46173d58584f","ios":"levelo://app?vid=349d9ac4-642a-438f-a490-46173d58584f"},"vehicle_type_id":"4","last_reported":1726423897,"current_range_meters":40000,"station_id":"ce4bhi12rcd13ifvqfp0","pricing_plan_id":"cebpf4jnsgd1na2vs0mg"},{"bike_id":"fc01b955-7897-41df-81ba-b8892105aee1","system_id":"levelo_inurba_marseille","lat":43.28441,"lon":5.39206,"is_reserved":false,"is_disabled":false,"rental_uris":{"android":"levelo://app?vid=fc01b955-7897-41df-81ba-b8892105aee1","ios":"levelo://app?vid=fc01b955-7897-41df-81ba-b8892105aee1"},"vehicle_type_id":"4","last_reported":1726423897,"current_range_meters":8800,"station_id":"ce4bhoh2rcd13ifvqh5g","pricing_plan_id":"cebpf4jnsgd1na2vs0mg"},{"bike_id":"91414158-4ddf-4f80-a21f-d5749e07bcf1","system_id":"levelo_inurba_marseille","lat":43.29704,"lon":5.36607,"is_reserved":false,"is_disabled":false,"rental_uris":{"android":"levelo://app?vid=91414158-4ddf-4f80-a21f-d5749e07bcf1","ios":"levelo://app?vid=91414158-4ddf-4f80-a21f-d5749e07bcf1"},"vehicle_type_id":"4","last_reported":1726423897,"current_range_meters":9600,"station_id":"ce4bgn12rcd13ifvqbt0","pricing_plan_id":"cebpf4jnsgd1na2vs0mg"},{"bike_id":"bc7257ac-06d8-47d9-8cc8-fb05306d0b3c","system_id":"levelo_inurba_marseille","lat":43.28404,"lon":5.37509,"is_reserved":false,"is_disabled":false,"rental_uris":{"android":"levelo://app?vid=bc7257ac-06d8-47d9-8cc8-fb05306d0b3c","ios":"levelo://app?vid=bc7257ac-06d8-47d9-8cc8-fb05306d0b3c"},"vehicle_type_id":"4","last_reported":1726423897,"current_range_meters":11600,"station_id":"ce4bh412rcd13ifvqds0","pricing_plan_id":"cebpf4jnsgd1na2vs0mg"},{"bike_id":"0315f4f4-5d3b-4dbf-ba81-59fec433e07d","system_id":"levelo_inurba_marseille","lat":43.30952,"lon":5.39043,"is_reserved":false,"is_disabled":false,"rental_uris":{"android":"levelo://app?vid=0315f4f4-5d3b-4dbf-ba81-59fec433e07d","ios":"levelo://app?vid=0315f4f4-5d3b-4dbf-ba81-59fec433e07d"},"vehicle_type_id":"4","last_reported":1726423897,"current_range_meters":36400,"station_id":"ce4bgup2rcd13ifvqco0","pricing_plan_id":"cebpf4jnsgd1na2vs0mg"},{"bike_id":"c59178dd-d77c-42bd-ba16-4e6f4db0709c","system_id":"levelo_inurba_marseille","lat":43.24818,"lon":5.37459,"is_reserved":false,"is_disabled":false,"rental_uris":{"android":"levelo://app?vid=c59178dd-d77c-42bd-ba16-4e6f4db0709c","ios":"levelo://app?vid=c59178dd-d77c-42bd-ba16-4e6f4db0709c"},"vehicle_type_id":"4","last_reported":1726423897,"current_range_meters":27600,"station_id":"ce4bhgh2rcd13ifvqfb0","pricing_plan_id":"cebpf4jnsgd1na2vs0mg"},{"bike_id":"07afe054-ce13-45a8-bd6a-0e98bdaf6dde","system_id":"levelo_inurba_marseille","lat":43.24669,"lon":5.38166,"is_reserved":false,"is_disabled":false,"rental_uris":{"android":"levelo://app?vid=07afe054-ce13-45a8-bd6a-0e98bdaf6dde","ios":"levelo://app?vid=07afe054-ce13-45a8-bd6a-0e98bdaf6dde"},"vehicle_type_id":"4","last_reported":1726423897,"current_range_meters":20400,"station_id":"ce4bhih2rcd13ifvqfr0","pricing_plan_id":"cebpf4jnsgd1na2vs0mg"},{"bike_id":"db865793-aa7c-4f02-a065-6a457f5ad6dc","system_id":"levelo_inurba_marseille","lat":43.30313,"lon":5.36595,"is_reserved":false,"is_disabled":false,"rental_uris":{"android":"levelo://app?vid=db865793-aa7c-4f02-a065-6a457f5ad6dc","ios":"levelo://app?vid=db865793-aa7c-4f02-a065-6a457f5ad6dc"},"vehicle_type_id":"4","last_reported":1726423897,"current_range_meters":6400,"station_id":"","pricing_plan_id":"cebpf4jnsgd1na2vs0mg"},{"bike_id":"7f0e2e6e-b7df-4f4f-a0b2-1478021fe226","system_id":"levelo_inurba_marseille","lat":43.29555,"lon":5.42288,"is_reserved":false,"is_disabled":false,"rental_uris":{"android":"levelo://app?vid=7f0e2e6e-b7df-4f4f-a0b2-1478021fe226","ios":"levelo://app?vid=7f0e2e6e-b7df-4f4f-a0b2-1478021fe226"},"vehicle_type_id":"4","last_reported":1726423897,"current_range_meters":24800,"station_id":"ce4bhph2rcd13ifvqhdg","pricing_plan_id":"cebpf4jnsgd1na2vs0mg"},{"bike_id":"a2eb9711-28ed-4552-9816-4c9874153417","system_id":"levelo_inurba_marseille","lat":43.293028,"lon":5.374614,"is_reserved":false,"is_disabled":false,"rental_uris":{"android":"levelo://app?vid=a2eb9711-28ed-4552-9816-4c9874153417","ios":"levelo://app?vid=a2eb9711-28ed-4552-9816-4c9874153417"},"vehicle_type_id":"4","last_reported":1726423897,"current_range_meters":16400,"station_id":"","pricing_plan_id":"cebpf4jnsgd1na2vs0mg"},{"bike_id":"e9740301-1f53-4b41-98d7-1774b401a6ac","system_id":"levelo_inurba_marseille","lat":43.308838,"lon":5.396456,"is_reserved":false,"is_disabled":false,"rental_uris":{"android":"levelo://app?vid=e9740301-1f53-4b41-98d7-1774b401a6ac","ios":"levelo://app?vid=e9740301-1f53-4b41-98d7-1774b401a6ac"},"vehicle_type_id":"4","last_reported":1726423897,"current_range_meters":35200,"station_id":"ce4bh0p2rcd13ifvqd80","pricing_plan_id":"cebpf4jnsgd1na2vs0mg"},{"bike_id":"c6e4ebef-e5d2-488c-8898-3712fe7d389a","system_id":"levelo_inurba_marseille","lat":43.31067,"lon":5.40102,"is_reserved":false,"is_disabled":false,"rental_uris":{"android":"levelo://app?vid=c6e4ebef-e5d2-488c-8898-3712fe7d389a","ios":"levelo://app?vid=c6e4ebef-e5d2-488c-8898-3712fe7d389a"},"vehicle_type_id":"4","last_reported":1726423897,"current_range_meters":8000,"station_id":"","pricing_plan_id":"cebpf4jnsgd1na2vs0mg"},{"bike_id":"b5976d29-4e9d-4138-af37-b813ab1fb183","system_id":"levelo_inurba_marseille","lat":43.24392,"lon":5.37068,"is_reserved":false,"is_disabled":false,"rental_uris":{"android":"levelo://app?vid=b5976d29-4e9d-4138-af37-b813ab1fb183","ios":"levelo://app?vid=b5976d29-4e9d-4138-af37-b813ab1fb183"},"vehicle_type_id":"4","last_reported":1726423897,"current_range_meters":25200,"station_id":"ce4bhhh2rcd13ifvqfk0","pricing_plan_id":"cebpf4jnsgd1na2vs0mg"},{"bike_id":"d5425e37-4afc-4595-9604-bf6defc6fc89","system_id":"levelo_inurba_marseille","lat":43.2903,"lon":5.38663,"is_reserved":false,"is_disabled":false,"rental_uris":{"android":"levelo://app?vid=d5425e37-4afc-4595-9604-bf6defc6fc89","ios":"levelo://app?vid=d5425e37-4afc-4595-9604-bf6defc6fc89"},"vehicle_type_id":"4","last_reported":1726423897,"current_range_meters":6000,"station_id":"ce4bh4p2rcd13ifvqe0g","pricing_plan_id":"cebpf4jnsgd1na2vs0mg"},{"bike_id":"28fce7d1-86b5-4235-9bd4-9023c8a9a878","system_id":"levelo_inurba_marseille","lat":43.29254,"lon":5.38444,"is_reserved":false,"is_disabled":false,"rental_uris":{"android":"levelo://app?vid=28fce7d1-86b5-4235-9bd4-9023c8a9a878","ios":"levelo://app?vid=28fce7d1-86b5-4235-9bd4-9023c8a9a878"},"vehicle_type_id":"4","last_reported":1726423897,"current_range_meters":14000,"station_id":"ce4bh692rcd13ifvqea0","pricing_plan_id":"cebpf4jnsgd1na2vs0mg"},{"bike_id":"b97a7743-2e7e-4c69-a003-9cc01c170b29","system_id":"levelo_inurba_marseille","lat":43.26511,"lon":5.40876,"is_reserved":false,"is_disabled":false,"rental_uris":{"android":"levelo://app?vid=b97a7743-2e7e-4c69-a003-9cc01c170b29","ios":"levelo://app?vid=b97a7743-2e7e-4c69-a003-9cc01c170b29"},"vehicle_type_id":"4","last_reported":1726423897,"current_range_meters":8400,"station_id":"","pricing_plan_id":"cebpf4jnsgd1na2vs0mg"},{"bike_id":"b743a9c7-bff2-4e35-9357-5b891b452147","system_id":"levelo_inurba_marseille","lat":43.29899,"lon":5.43666,"is_reserved":false,"is_disabled":false,"rental_uris":{"android":"levelo://app?vid=b743a9c7-bff2-4e35-9357-5b891b452147","ios":"levelo://app?vid=b743a9c7-bff2-4e35-9357-5b891b452147"},"vehicle_type_id":"4","last_reported":1726423897,"current_range_meters":18800,"station_id":"ce4bhpp2rcd13ifvqhfg","pricing_plan_id":"cebpf4jnsgd1na2vs0mg"},{"bike_id":"72313e28-e653-49a7-972d-a06da7ffe69f","system_id":"levelo_inurba_marseille","lat":43.25109,"lon":5.40325,"is_reserved":false,"is_disabled":false,"rental_uris":{"android":"levelo://app?vid=72313e28-e653-49a7-972d-a06da7ffe69f","ios":"levelo://app?vid=72313e28-e653-49a7-972d-a06da7ffe69f"},"vehicle_type_id":"4","last_reported":1726423897,"current_range_meters":9600,"station_id":"ce4bhlh2rcd13ifvqgig","pricing_plan_id":"cebpf4jnsgd1na2vs0mg"},{"bike_id":"23a902f3-de84-482d-a332-b150f35d66ca","system_id":"levelo_inurba_marseille","lat":43.28725,"lon":5.36084,"is_reserved":false,"is_disabled":false,"rental_uris":{"android":"levelo://app?vid=23a902f3-de84-482d-a332-b150f35d66ca","ios":"levelo://app?vid=23a902f3-de84-482d-a332-b150f35d66ca"},"vehicle_type_id":"4","last_reported":1726423897,"current_range_meters":30400,"station_id":"cki0cbj6b192h4jlfktg","pricing_plan_id":"cebpf4jnsgd1na2vs0mg"},{"bike_id":"8d0d6ceb-d20c-4c82-86b9-f62a7ce678df","system_id":"levelo_inurba_marseille","lat":43.30452,"lon":5.36518,"is_reserved":false,"is_disabled":false,"rental_uris":{"android":"levelo://app?vid=8d0d6ceb-d20c-4c82-86b9-f62a7ce678df","ios":"levelo://app?vid=8d0d6ceb-d20c-4c82-86b9-f62a7ce678df"},"vehicle_type_id":"4","last_reported":1726423897,"current_range_meters":7200,"station_id":"","pricing_plan_id":"cebpf4jnsgd1na2vs0mg"},{"bike_id":"0fb2e889-e253-4466-b3d9-18b1930464d1","system_id":"levelo_inurba_marseille","lat":43.27493,"lon":5.42451,"is_reserved":false,"is_disabled":false,"rental_uris":{"android":"levelo://app?vid=0fb2e889-e253-4466-b3d9-18b1930464d1","ios":"levelo://app?vid=0fb2e889-e253-4466-b3d9-18b1930464d1"},"vehicle_type_id":"4","last_reported":1726423897,"current_range_meters":39200,"station_id":"ce4bhn92rcd13ifvqgrg","pricing_plan_id":"cebpf4jnsgd1na2vs0mg"},{"bike_id":"581788f3-75cf-4bb7-868a-64bde562274e","system_id":"levelo_inurba_marseille","lat":43.25932,"lon":5.40906,"is_reserved":false,"is_disabled":false,"rental_uris":{"android":"levelo://app?vid=581788f3-75cf-4bb7-868a-64bde562274e","ios":"levelo://app?vid=581788f3-75cf-4bb7-868a-64bde562274e"},"vehicle_type_id":"4","last_reported":1726423897,"current_range_meters":7200,"station_id":"ce4bhm92rcd13ifvqglg","pricing_plan_id":"cebpf4jnsgd1na2vs0mg"},{"bike_id":"36b99592-9fe0-4687-9e3e-bf849ba15c26","system_id":"levelo_inurba_marseille","lat":43.3095,"lon":5.39034,"is_reserved":false,"is_disabled":false,"rental_uris":{"android":"levelo://app?vid=36b99592-9fe0-4687-9e3e-bf849ba15c26","ios":"levelo://app?vid=36b99592-9fe0-4687-9e3e-bf849ba15c26"},"vehicle_type_id":"4","last_reported":1726423897,"current_range_meters":38800,"station_id":"ce4bgup2rcd13ifvqco0","pricing_plan_id":"cebpf4jnsgd1na2vs0mg"},{"bike_id":"fdc93edb-9eb0-4e5c-82e6-a355b95cad3b","system_id":"levelo_inurba_marseille","lat":43.28856,"lon":5.35861,"is_reserved":false,"is_disabled":false,"rental_uris":{"android":"levelo://app?vid=fdc93edb-9eb0-4e5c-82e6-a355b95cad3b","ios":"levelo://app?vid=fdc93edb-9eb0-4e5c-82e6-a355b95cad3b"},"vehicle_type_id":"4","last_reported":1726423897,"current_range_meters":8800,"station_id":"ce4bhb12rcd13ifvqem0","pricing_plan_id":"cebpf4jnsgd1na2vs0mg"},{"bike_id":"a84aba34-4400-4eaa-910c-cdc70af0590b","system_id":"levelo_inurba_marseille","lat":43.2956,"lon":5.4228,"is_reserved":false,"is_disabled":false,"rental_uris":{"android":"levelo://app?vid=a84aba34-4400-4eaa-910c-cdc70af0590b","ios":"levelo://app?vid=a84aba34-4400-4eaa-910c-cdc70af0590b"},"vehicle_type_id":"4","last_reported":1726423897,"current_range_meters":24800,"station_id":"ce4bhph2rcd13ifvqhdg","pricing_plan_id":"cebpf4jnsgd1na2vs0mg"},{"bike_id":"dab2f2f0-5e2e-4935-98e9-0971ad0ab4e1","system_id":"levelo_inurba_marseille","lat":43.29914,"lon":5.40328,"is_reserved":false,"is_disabled":false,"rental_uris":{"android":"levelo://app?vid=dab2f2f0-5e2e-4935-98e9-0971ad0ab4e1","ios":"levelo://app?vid=dab2f2f0-5e2e-4935-98e9-0971ad0ab4e1"},"vehicle_type_id":"4","last_reported":1726423897,"current_range_meters":20800,"station_id":"","pricing_plan_id":"cebpf4jnsgd1na2vs0mg"},{"bike_id":"01cddcf4-ca74-4f8d-988d-acbcbd64d173","system_id":"levelo_inurba_marseille","lat":43.29259,"lon":5.38447,"is_reserved":false,"is_disabled":false,"rental_uris":{"android":"levelo://app?vid=01cddcf4-ca74-4f8d-988d-acbcbd64d173","ios":"levelo://app?vid=01cddcf4-ca74-4f8d-988d-acbcbd64d173"},"vehicle_type_id":"4","last_reported":1726423897,"current_range_meters":20000,"station_id":"ce4bh692rcd13ifvqea0","pricing_plan_id":"cebpf4jnsgd1na2vs0mg"},{"bike_id":"1d7606d1-f71c-481f-8a7d-aaf3a2720106","system_id":"levelo_inurba_marseille","lat":43.308807,"lon":5.396399,"is_reserved":false,"is_disabled":false,"rental_uris":{"android":"levelo://app?vid=1d7606d1-f71c-481f-8a7d-aaf3a2720106","ios":"levelo://app?vid=1d7606d1-f71c-481f-8a7d-aaf3a2720106"},"vehicle_type_id":"4","last_reported":1726423897,"current_range_meters":16400,"station_id":"ce4bh012rcd13ifvqcv0","pricing_plan_id":"cebpf4jnsgd1na2vs0mg"},{"bike_id":"f7ef6fcd-b36a-4e39-ab29-615bf7f08d5f","system_id":"levelo_inurba_marseille","lat":43.23186,"lon":5.35557,"is_reserved":false,"is_disabled":false,"rental_uris":{"android":"levelo://app?vid=f7ef6fcd-b36a-4e39-ab29-615bf7f08d5f","ios":"levelo://app?vid=f7ef6fcd-b36a-4e39-ab29-615bf7f08d5f"},"vehicle_type_id":"4","last_reported":1726423897,"current_range_meters":23200,"station_id":"ce4bhu92rcd13ifvqi70","pricing_plan_id":"cebpf4jnsgd1na2vs0mg"},{"bike_id":"2578ef5e-916a-41ec-9f68-c3ebb7a28629","system_id":"levelo_inurba_marseille","lat":43.23179,"lon":5.39987,"is_reserved":false,"is_disabled":false,"rental_uris":{"android":"levelo://app?vid=2578ef5e-916a-41ec-9f68-c3ebb7a28629","ios":"levelo://app?vid=2578ef5e-916a-41ec-9f68-c3ebb7a28629"},"vehicle_type_id":"4","last_reported":1726423897,"current_range_meters":38800,"station_id":"ce4bhn12rcd13ifvqgqg","pricing_plan_id":"cebpf4jnsgd1na2vs0mg"},{"bike_id":"0ec10047-1d31-44c8-b32c-30e826f4fd7f","system_id":"levelo_inurba_marseille","lat":43.293793,"lon":5.378922,"is_reserved":false,"is_disabled":false,"rental_uris":{"android":"levelo://app?vid=0ec10047-1d31-44c8-b32c-30e826f4fd7f","ios":"levelo://app?vid=0ec10047-1d31-44c8-b32c-30e826f4fd7f"},"vehicle_type_id":"4","last_reported":1726423897,"current_range_meters":17200,"station_id":"","pricing_plan_id":"cebpf4jnsgd1na2vs0mg"},{"bike_id":"9baec385-3266-4c55-b9cf-25f8839a48a7","system_id":"levelo_inurba_marseille","lat":43.31801,"lon":5.37362,"is_reserved":false,"is_disabled":false,"rental_uris":{"android":"levelo://app?vid=9baec385-3266-4c55-b9cf-25f8839a48a7","ios":"levelo://app?vid=9baec385-3266-4c55-b9cf-25f8839a48a7"},"vehicle_type_id":"4","last_reported":1726423897,"current_range_meters":15200,"station_id":"","pricing_plan_id":"cebpf4jnsgd1na2vs0mg"},{"bike_id":"efb80696-7094-476e-bc26-033c787166ad","system_id":"levelo_inurba_marseille","lat":43.29265,"lon":5.38444,"is_reserved":false,"is_disabled":false,"rental_uris":{"android":"levelo://app?vid=efb80696-7094-476e-bc26-033c787166ad","ios":"levelo://app?vid=efb80696-7094-476e-bc26-033c787166ad"},"vehicle_type_id":"4","last_reported":1726423897,"current_range_meters":6400,"station_id":"ce4bh692rcd13ifvqea0","pricing_plan_id":"cebpf4jnsgd1na2vs0mg"},{"bike_id":"5cdb427c-f739-498e-ba13-9ff99daa6d0b","system_id":"levelo_inurba_marseille","lat":43.28469,"lon":5.35889,"is_reserved":false,"is_disabled":false,"rental_uris":{"android":"levelo://app?vid=5cdb427c-f739-498e-ba13-9ff99daa6d0b","ios":"levelo://app?vid=5cdb427c-f739-498e-ba13-9ff99daa6d0b"},"vehicle_type_id":"4","last_reported":1726423897,"current_range_meters":8000,"station_id":"ce4bhah2rcd13ifvqei0","pricing_plan_id":"cebpf4jnsgd1na2vs0mg"},{"bike_id":"60bcf602-c3a9-4ec8-be69-05600c82ed6b","system_id":"levelo_inurba_marseille","lat":43.23188,"lon":5.39984,"is_reserved":false,"is_disabled":false,"rental_uris":{"android":"levelo://app?vid=60bcf602-c3a9-4ec8-be69-05600c82ed6b","ios":"levelo://app?vid=60bcf602-c3a9-4ec8-be69-05600c82ed6b"},"vehicle_type_id":"4","last_reported":1726423897,"current_range_meters":2000,"station_id":"ce4bhn12rcd13ifvqgqg","pricing_plan_id":"cebpf4jnsgd1na2vs0mg"},{"bike_id":"6778361a-3d9b-4444-8112-1c9b565b4d0e","system_id":"levelo_inurba_marseille","lat":43.29873,"lon":5.37528,"is_reserved":false,"is_disabled":false,"rental_uris":{"android":"levelo://app?vid=6778361a-3d9b-4444-8112-1c9b565b4d0e","ios":"levelo://app?vid=6778361a-3d9b-4444-8112-1c9b565b4d0e"},"vehicle_type_id":"4","last_reported":1726423897,"current_range_meters":10000,"station_id":"","pricing_plan_id":"cebpf4jnsgd1na2vs0mg"},{"bike_id":"df6e8216-9c32-4176-9c82-d3722186a840","system_id":"levelo_inurba_marseille","lat":43.231964,"lon":5.35546,"is_reserved":false,"is_disabled":false,"rental_uris":{"android":"levelo://app?vid=df6e8216-9c32-4176-9c82-d3722186a840","ios":"levelo://app?vid=df6e8216-9c32-4176-9c82-d3722186a840"},"vehicle_type_id":"4","last_reported":1726423897,"current_range_meters":16800,"station_id":"ce4bhgh2rcd13ifvqfb0","pricing_plan_id":"cebpf4jnsgd1na2vs0mg"},{"bike_id":"68d10e86-a6ab-4a17-aea0-928a663b6e89","system_id":"levelo_inurba_marseille","lat":43.34032,"lon":5.34874,"is_reserved":false,"is_disabled":false,"rental_uris":{"android":"levelo://app?vid=68d10e86-a6ab-4a17-aea0-928a663b6e89","ios":"levelo://app?vid=68d10e86-a6ab-4a17-aea0-928a663b6e89"},"vehicle_type_id":"4","last_reported":1726423897,"current_range_meters":7200,"station_id":"","pricing_plan_id":"cebpf4jnsgd1na2vs0mg"},{"bike_id":"2b3b10e6-1922-4551-80bc-9ecd69662d64","system_id":"levelo_inurba_marseille","lat":43.294969,"lon":5.363841,"is_reserved":false,"is_disabled":false,"rental_uris":{"android":"levelo://app?vid=2b3b10e6-1922-4551-80bc-9ecd69662d64","ios":"levelo://app?vid=2b3b10e6-1922-4551-80bc-9ecd69662d64"},"vehicle_type_id":"4","last_reported":1726423897,"current_range_meters":20400,"station_id":"ce4bgpp2rcd13ifvqc3g","pricing_plan_id":"cebpf4jnsgd1na2vs0mg"},{"bike_id":"038ea4dd-8d7e-493b-8127-45ba80741a4d","system_id":"levelo_inurba_marseille","lat":43.32333,"lon":5.38504,"is_reserved":false,"is_disabled":false,"rental_uris":{"android":"levelo://app?vid=038ea4dd-8d7e-493b-8127-45ba80741a4d","ios":"levelo://app?vid=038ea4dd-8d7e-493b-8127-45ba80741a4d"},"vehicle_type_id":"4","last_reported":1726423897,"current_range_meters":6800,"station_id":"","pricing_plan_id":"cebpf4jnsgd1na2vs0mg"},{"bike_id":"17ed0d48-b06f-49a7-8dfc-fa4f277c07ce","system_id":"levelo_inurba_marseille","lat":43.29025,"lon":5.3865,"is_reserved":false,"is_disabled":false,"rental_uris":{"android":"levelo://app?vid=17ed0d48-b06f-49a7-8dfc-fa4f277c07ce","ios":"levelo://app?vid=17ed0d48-b06f-49a7-8dfc-fa4f277c07ce"},"vehicle_type_id":"4","last_reported":1726423897,"current_range_meters":29600,"station_id":"ce4bh4p2rcd13ifvqe0g","pricing_plan_id":"cebpf4jnsgd1na2vs0mg"},{"bike_id":"9c5cb67a-25bd-48ad-a3be-031881a0f72f","system_id":"levelo_inurba_marseille","lat":43.28402,"lon":5.37531,"is_reserved":false,"is_disabled":false,"rental_uris":{"android":"levelo://app?vid=9c5cb67a-25bd-48ad-a3be-031881a0f72f","ios":"levelo://app?vid=9c5cb67a-25bd-48ad-a3be-031881a0f72f"},"vehicle_type_id":"4","last_reported":1726423897,"current_range_meters":36400,"station_id":"ce4bh412rcd13ifvqds0","pricing_plan_id":"cebpf4jnsgd1na2vs0mg"},{"bike_id":"0be312cc-68c9-4d0a-b8c8-3b8b196c9c82","system_id":"levelo_inurba_marseille","lat":43.29224,"lon":5.36074,"is_reserved":false,"is_disabled":false,"rental_uris":{"android":"levelo://app?vid=0be312cc-68c9-4d0a-b8c8-3b8b196c9c82","ios":"levelo://app?vid=0be312cc-68c9-4d0a-b8c8-3b8b196c9c82"},"vehicle_type_id":"4","last_reported":1726423897,"current_range_meters":16400,"station_id":"ce4bhbh2rcd13ifvqeqg","pricing_plan_id":"cebpf4jnsgd1na2vs0mg"},{"bike_id":"8e10a9ac-c572-4e78-a33e-f93355b014b8","system_id":"levelo_inurba_marseille","lat":43.30949,"lon":5.39032,"is_reserved":false,"is_disabled":false,"rental_uris":{"android":"levelo://app?vid=8e10a9ac-c572-4e78-a33e-f93355b014b8","ios":"levelo://app?vid=8e10a9ac-c572-4e78-a33e-f93355b014b8"},"vehicle_type_id":"4","last_reported":1726423897,"current_range_meters":8000,"station_id":"ce4bgup2rcd13ifvqco0","pricing_plan_id":"cebpf4jnsgd1na2vs0mg"},{"bike_id":"bb3c9eb2-fc94-4ff3-a99e-6f6ffe8f27b2","system_id":"levelo_inurba_marseille","lat":43.29554,"lon":5.42283,"is_reserved":false,"is_disabled":false,"rental_uris":{"android":"levelo://app?vid=bb3c9eb2-fc94-4ff3-a99e-6f6ffe8f27b2","ios":"levelo://app?vid=bb3c9eb2-fc94-4ff3-a99e-6f6ffe8f27b2"},"vehicle_type_id":"4","last_reported":1726423897,"current_range_meters":24000,"station_id":"ce4bhph2rcd13ifvqhdg","pricing_plan_id":"cebpf4jnsgd1na2vs0mg"},{"bike_id":"0ebeedbe-4dd0-47e6-8c28-f555d0b0a7f2","system_id":"levelo_inurba_marseille","lat":43.23958,"lon":5.36639,"is_reserved":false,"is_disabled":false,"rental_uris":{"android":"levelo://app?vid=0ebeedbe-4dd0-47e6-8c28-f555d0b0a7f2","ios":"levelo://app?vid=0ebeedbe-4dd0-47e6-8c28-f555d0b0a7f2"},"vehicle_type_id":"4","last_reported":1726423897,"current_range_meters":2800,"station_id":"ce4bhi12rcd13ifvqfp0","pricing_plan_id":"cebpf4jnsgd1na2vs0mg"},{"bike_id":"ad57f441-186f-42f1-8b2a-e26e79b5512b","system_id":"levelo_inurba_marseille","lat":43.25871,"lon":5.39894,"is_reserved":false,"is_disabled":false,"rental_uris":{"android":"levelo://app?vid=ad57f441-186f-42f1-8b2a-e26e79b5512b","ios":"levelo://app?vid=ad57f441-186f-42f1-8b2a-e26e79b5512b"},"vehicle_type_id":"4","last_reported":1726423897,"current_range_meters":16400,"station_id":"ce4bhl92rcd13ifvqghg","pricing_plan_id":"cebpf4jnsgd1na2vs0mg"},{"bike_id":"36ac99db-ecbc-4ee8-b239-ef64ac120ce1","system_id":"levelo_inurba_marseille","lat":43.29903,"lon":5.43669,"is_reserved":false,"is_disabled":false,"rental_uris":{"android":"levelo://app?vid=36ac99db-ecbc-4ee8-b239-ef64ac120ce1","ios":"levelo://app?vid=36ac99db-ecbc-4ee8-b239-ef64ac120ce1"},"vehicle_type_id":"4","last_reported":1726423897,"current_range_meters":12800,"station_id":"ce4bhpp2rcd13ifvqhfg","pricing_plan_id":"cebpf4jnsgd1na2vs0mg"},{"bike_id":"289660f7-515f-42ac-b51c-a3ae3cc8dba1","system_id":"levelo_inurba_marseille","lat":43.31752,"lon":5.39025,"is_reserved":false,"is_disabled":false,"rental_uris":{"android":"levelo://app?vid=289660f7-515f-42ac-b51c-a3ae3cc8dba1","ios":"levelo://app?vid=289660f7-515f-42ac-b51c-a3ae3cc8dba1"},"vehicle_type_id":"4","last_reported":1726423897,"current_range_meters":14400,"station_id":"ce4bhqp2rcd13ifvqhng","pricing_plan_id":"cebpf4jnsgd1na2vs0mg"},{"bike_id":"90b4cd2a-f48e-4843-bf0e-9de4c12be0b4","system_id":"levelo_inurba_marseille","lat":43.255737,"lon":5.382168,"is_reserved":false,"is_disabled":false,"rental_uris":{"android":"levelo://app?vid=90b4cd2a-f48e-4843-bf0e-9de4c12be0b4","ios":"levelo://app?vid=90b4cd2a-f48e-4843-bf0e-9de4c12be0b4"},"vehicle_type_id":"4","last_reported":1726423897,"current_range_meters":14000,"station_id":"ce4bhih2rcd13ifvqfs0","pricing_plan_id":"cebpf4jnsgd1na2vs0mg"},{"bike_id":"173b81fb-b952-4985-a30a-e9eff633608d","system_id":"levelo_inurba_marseille","lat":43.30956,"lon":5.3904,"is_reserved":false,"is_disabled":false,"rental_uris":{"android":"levelo://app?vid=173b81fb-b952-4985-a30a-e9eff633608d","ios":"levelo://app?vid=173b81fb-b952-4985-a30a-e9eff633608d"},"vehicle_type_id":"4","last_reported":1726423897,"current_range_meters":8000,"station_id":"ce4bgup2rcd13ifvqco0","pricing_plan_id":"cebpf4jnsgd1na2vs0mg"},{"bike_id":"0df06088-362e-49d9-8f54-f66df627f855","system_id":"levelo_inurba_marseille","lat":43.31268,"lon":5.38374,"is_reserved":false,"is_disabled":false,"rental_uris":{"android":"levelo://app?vid=0df06088-362e-49d9-8f54-f66df627f855","ios":"levelo://app?vid=0df06088-362e-49d9-8f54-f66df627f855"},"vehicle_type_id":"4","last_reported":1726423897,"current_range_meters":36800,"station_id":"","pricing_plan_id":"cebpf4jnsgd1na2vs0mg"},{"bike_id":"4bd706a5-65c1-4a7a-9a3f-bc4e3e11f8fb","system_id":"levelo_inurba_marseille","lat":43.23192,"lon":5.3556,"is_reserved":false,"is_disabled":false,"rental_uris":{"android":"levelo://app?vid=4bd706a5-65c1-4a7a-9a3f-bc4e3e11f8fb","ios":"levelo://app?vid=4bd706a5-65c1-4a7a-9a3f-bc4e3e11f8fb"},"vehicle_type_id":"4","last_reported":1726423897,"current_range_meters":8800,"station_id":"ce4bhu92rcd13ifvqi70","pricing_plan_id":"cebpf4jnsgd1na2vs0mg"},{"bike_id":"8928d6bc-a87f-4f19-887f-401fd897f06d","system_id":"levelo_inurba_marseille","lat":43.29576,"lon":5.36741,"is_reserved":false,"is_disabled":false,"rental_uris":{"android":"levelo://app?vid=8928d6bc-a87f-4f19-887f-401fd897f06d","ios":"levelo://app?vid=8928d6bc-a87f-4f19-887f-401fd897f06d"},"vehicle_type_id":"4","last_reported":1726423897,"current_range_meters":25600,"station_id":"ce4bgph2rcd13ifvqc2g","pricing_plan_id":"cebpf4jnsgd1na2vs0mg"},{"bike_id":"c2181711-c8c2-4ac4-abc7-bbd02c21e2de","system_id":"levelo_inurba_marseille","lat":43.24667,"lon":5.38159,"is_reserved":false,"is_disabled":false,"rental_uris":{"android":"levelo://app?vid=c2181711-c8c2-4ac4-abc7-bbd02c21e2de","ios":"levelo://app?vid=c2181711-c8c2-4ac4-abc7-bbd02c21e2de"},"vehicle_type_id":"4","last_reported":1726423897,"current_range_meters":38800,"station_id":"ce4bhih2rcd13ifvqfr0","pricing_plan_id":"cebpf4jnsgd1na2vs0mg"},{"bike_id":"1887530c-3934-40f5-8df6-aad59e0a71f7","system_id":"levelo_inurba_marseille","lat":43.29437,"lon":5.39757,"is_reserved":false,"is_disabled":false,"rental_uris":{"android":"levelo://app?vid=1887530c-3934-40f5-8df6-aad59e0a71f7","ios":"levelo://app?vid=1887530c-3934-40f5-8df6-aad59e0a71f7"},"vehicle_type_id":"4","last_reported":1726423897,"current_range_meters":2000,"station_id":"ce4bh3h2rcd13ifvqdo0","pricing_plan_id":"cebpf4jnsgd1na2vs0mg"},{"bike_id":"6c44549a-4c45-44dc-9eeb-d1b24ea3078d","system_id":"levelo_inurba_marseille","lat":43.30796,"lon":5.38219,"is_reserved":false,"is_disabled":false,"rental_uris":{"android":"levelo://app?vid=6c44549a-4c45-44dc-9eeb-d1b24ea3078d","ios":"levelo://app?vid=6c44549a-4c45-44dc-9eeb-d1b24ea3078d"},"vehicle_type_id":"4","last_reported":1726423897,"current_range_meters":34000,"station_id":"ce4bgt12rcd13ifvqce0","pricing_plan_id":"cebpf4jnsgd1na2vs0mg"},{"bike_id":"c50a3668-3e2c-42fe-9c39-28c3d30f6826","system_id":"levelo_inurba_marseille","lat":43.24075,"lon":5.37755,"is_reserved":false,"is_disabled":false,"rental_uris":{"android":"levelo://app?vid=c50a3668-3e2c-42fe-9c39-28c3d30f6826","ios":"levelo://app?vid=c50a3668-3e2c-42fe-9c39-28c3d30f6826"},"vehicle_type_id":"4","last_reported":1726423897,"current_range_meters":37600,"station_id":"ce4bhnp2rcd13ifvqgvg","pricing_plan_id":"cebpf4jnsgd1na2vs0mg"},{"bike_id":"038ae942-3a02-4dcc-a398-5d2bcba7bf78","system_id":"levelo_inurba_marseille","lat":43.29556,"lon":5.42293,"is_reserved":false,"is_disabled":false,"rental_uris":{"android":"levelo://app?vid=038ae942-3a02-4dcc-a398-5d2bcba7bf78","ios":"levelo://app?vid=038ae942-3a02-4dcc-a398-5d2bcba7bf78"},"vehicle_type_id":"4","last_reported":1726423897,"current_range_meters":7200,"station_id":"ce4bhph2rcd13ifvqhdg","pricing_plan_id":"cebpf4jnsgd1na2vs0mg"},{"bike_id":"1d579368-e600-465c-9eed-6bfb4e257b81","system_id":"levelo_inurba_marseille","lat":43.30542,"lon":5.384156,"is_reserved":false,"is_disabled":false,"rental_uris":{"android":"levelo://app?vid=1d579368-e600-465c-9eed-6bfb4e257b81","ios":"levelo://app?vid=1d579368-e600-465c-9eed-6bfb4e257b81"},"vehicle_type_id":"4","last_reported":1726423897,"current_range_meters":14800,"station_id":"ce4bgg92rcd13ifvqb30","pricing_plan_id":"cebpf4jnsgd1na2vs0mg"},{"bike_id":"81c104c8-4e2f-4a36-8b27-dce785b0441b","system_id":"levelo_inurba_marseille","lat":43.27417,"lon":5.39414,"is_reserved":false,"is_disabled":false,"rental_uris":{"android":"levelo://app?vid=81c104c8-4e2f-4a36-8b27-dce785b0441b","ios":"levelo://app?vid=81c104c8-4e2f-4a36-8b27-dce785b0441b"},"vehicle_type_id":"4","last_reported":1726423897,"current_range_meters":14800,"station_id":"ce4bhdp2rcd13ifvqf20","pricing_plan_id":"cebpf4jnsgd1na2vs0mg"},{"bike_id":"340d7373-d5d6-4c31-8b48-f58d97246fe1","system_id":"levelo_inurba_marseille","lat":43.31109,"lon":5.37768,"is_reserved":false,"is_disabled":false,"rental_uris":{"android":"levelo://app?vid=340d7373-d5d6-4c31-8b48-f58d97246fe1","ios":"levelo://app?vid=340d7373-d5d6-4c31-8b48-f58d97246fe1"},"vehicle_type_id":"4","last_reported":1726423897,"current_range_meters":12800,"station_id":"ce4bgt92rcd13ifvqcg0","pricing_plan_id":"cebpf4jnsgd1na2vs0mg"},{"bike_id":"11524487-31e8-4e95-b2e3-7d8f817ca566","system_id":"levelo_inurba_marseille","lat":43.2926,"lon":5.38444,"is_reserved":false,"is_disabled":false,"rental_uris":{"android":"levelo://app?vid=11524487-31e8-4e95-b2e3-7d8f817ca566","ios":"levelo://app?vid=11524487-31e8-4e95-b2e3-7d8f817ca566"},"vehicle_type_id":"4","last_reported":1726423897,"current_range_meters":25200,"station_id":"ce4bh692rcd13ifvqea0","pricing_plan_id":"cebpf4jnsgd1na2vs0mg"},{"bike_id":"37a3405a-9642-4796-96b6-eff10413f26d","system_id":"levelo_inurba_marseille","lat":43.24081,"lon":5.37736,"is_reserved":false,"is_disabled":false,"rental_uris":{"android":"levelo://app?vid=37a3405a-9642-4796-96b6-eff10413f26d","ios":"levelo://app?vid=37a3405a-9642-4796-96b6-eff10413f26d"},