{"last_updated":1703275638,"ttl":30,"version":"2.2","data":{"bikes":[{"bike_id":"4b2568c1-e8af-4c09-9e79-dc3eb16e7898","system_id":"levelo_inurba_marseille","lat":43.309447,"lon":5.36879,"is_reserved":false,"is_disabled":false,"rental_uris":{"android":"levelo://app?vid=4b2568c1-e8af-4c09-9e79-dc3eb16e7898","ios":"levelo://app?vid=4b2568c1-e8af-4c09-9e79-dc3eb16e7898"},"vehicle_type_id":"4","last_reported":1703275638,"current_range_meters":8000,"station_id":"ce4bgn92rcd13ifvqbvg","pricing_plan_id":"free"},{"bike_id":"2d131d5b-92c4-4585-979b-373a5e3f7a2f","system_id":"levelo_inurba_marseille","lat":43.309076,"lon":5.368465,"is_reserved":false,"is_disabled":false,"rental_uris":{"android":"levelo://app?vid=2d131d5b-92c4-4585-979b-373a5e3f7a2f","ios":"levelo://app?vid=2d131d5b-92c4-4585-979b-373a5e3f7a2f"},"vehicle_type_id":"4","last_reported":1703275638,"current_range_meters":0,"station_id":"ce4bgn92rcd13ifvqbvg","pricing_plan_id":"free"},{"bike_id":"73dbf0d2-70af-4dc4-9152-4f30069fd65c","system_id":"levelo_inurba_marseille","lat":43.305714,"lon":5.365633,"is_reserved":false,"is_disabled":false,"rental_uris":{"android":"levelo://app?vid=73dbf0d2-70af-4dc4-9152-4f30069fd65c","ios":"levelo://app?vid=73dbf0d2-70af-4dc4-9152-4f30069fd65c"},"vehicle_type_id":"4","last_reported":1703275638,"current_range_meters":19200,"station_id":"ce4bgs12rcd13ifvqcag","pricing_plan_id":"free"},{"bike_id":"48eaa4ea-5363-4743-a082-2ee58e06ae6c","system_id":"levelo_inurba_marseille","lat":43.305706,"lon":5.365654,"is_reserved":false,"is_disabled":false,"rental_uris":{"android":"levelo://app?vid=48eaa4ea-5363-4743-a082-2ee58e06ae6c","ios":"levelo://app?vid=48eaa4ea-5363-4743-a082-2ee58e06ae6c"},"vehicle_type_id":"4","last_reported":1703275638,"current_range_meters":11200,"station_id":"ce4bgs12rcd13ifvqcag","pricing_plan_id":"free"},{"bike_id":"13f1b7cf-71b8-456a-bf29-6f517d220944","system_id":"levelo_inurba_marseille","lat":43.305706,"lon":5.365654,"is_reserved":false,"is_disabled":false,"rental_uris":{"android":"levelo://app?vid=13f1b7cf-71b8-456a-bf29-6f517d220944","ios":"levelo://app?vid=13f1b7cf-71b8-456a-bf29-6f517d220944"},"vehicle_type_id":"4","last_reported":1703275638,"current_range_meters":30400,"station_id":"ce4bgs12rcd13ifvqcag","pricing_plan_id":"free"},{"bike_id":"4bd5cfbe-2446-495c-8368-dfd2ac90cfa9","system_id":"levelo_inurba_marseille","lat":43.305989,"lon":5.37225,"is_reserved":false,"is_disabled":false,"rental_uris":{"android":"levelo://app?vid=4bd5cfbe-2446-495c-8368-dfd2ac90cfa9","ios":"levelo://app?vid=4bd5cfbe-2446-495c-8368-dfd2ac90cfa9"},"vehicle_type_id":"4","last_reported":1703275638,"current_range_meters":2400,"station_id":"ce4bgqh2rcd13ifvqc4g","pricing_plan_id":"free"},{"bike_id":"31064d41-982a-4d68-957c-a6ab36a1327f","system_id":"levelo_inurba_marseille","lat":43.317075,"lon":5.377367,"is_reserved":false,"is_disabled":false,"rental_uris":{"android":"levelo://app?vid=31064d41-982a-4d68-957c-a6ab36a1327f","ios":"levelo://app?vid=31064d41-982a-4d68-957c-a6ab36a1327f"},"vehicle_type_id":"4","last_reported":1703275638,"current_range_meters":17600,"station_id":"ce4bgth2rcd13ifvqch0","pricing_plan_id":"free"},{"bike_id":"bc74c432-90ab-4b82-bc0b-9716a4ccf6b2","system_id":"levelo_inurba_marseille","lat":43.317075,"lon":5.377367,"is_reserved":false,"is_disabled":false,"rental_uris":{"android":"levelo://app?vid=bc74c432-90ab-4b82-bc0b-9716a4ccf6b2","ios":"levelo://app?vid=bc74c432-90ab-4b82-bc0b-9716a4ccf6b2"},"vehicle_type_id":"4","last_reported":1703275638,"current_range_meters":12800,"station_id":"ce4bgth2rcd13ifvqch0","pricing_plan_id":"free"},{"bike_id":"393d59ad-ee2c-41b2-a1e7-00d8c7ae6d32","system_id":"levelo_inurba_marseille","lat":43.303046,"lon":5.368981,"is_reserved":false,"is_disabled":false,"rental_uris":{"android":"levelo://app?vid=393d59ad-ee2c-41b2-a1e7-00d8c7ae6d32","ios":"levelo://app?vid=393d59ad-ee2c-41b2-a1e7-00d8c7ae6d32"},"vehicle_type_id":"4","last_reported":1703275638,"current_range_meters":31200,"station_id":"ce4bgqh2rcd13ifvqc5g","pricing_plan_id":"free"},{"bike_id":"e7b79a31-b693-4880-9563-33191e324073","system_id":"levelo_inurba_marseille","lat":43.304606,"lon":5.379026,"is_reserved":false,"is_disabled":false,"rental_uris":{"android":"levelo://app?vid=e7b79a31-b693-4880-9563-33191e324073","ios":"levelo://app?vid=e7b79a31-b693-4880-9563-33191e324073"},"vehicle_type_id":"4","last_reported":1703275638,"current_range_meters":31200,"station_id":"ce4bgup2rcd13ifvqcn0","pricing_plan_id":"free"},{"bike_id":"668ed309-8463-4ab3-a8b5-14aa2166e6ab","system_id":"levelo_inurba_marseille","lat":43.304606,"lon":5.379026,"is_reserved":false,"is_disabled":false,"rental_uris":{"android":"levelo://app?vid=668ed309-8463-4ab3-a8b5-14aa2166e6ab","ios":"levelo://app?vid=668ed309-8463-4ab3-a8b5-14aa2166e6ab"},"vehicle_type_id":"4","last_reported":1703275638,"current_range_meters":24800,"station_id":"ce4bgup2rcd13ifvqcn0","pricing_plan_id":"free"},{"bike_id":"78588a46-3475-4449-8bcb-8837fd0526d1","system_id":"levelo_inurba_marseille","lat":43.304606,"lon":5.379026,"is_reserved":false,"is_disabled":false,"rental_uris":{"android":"levelo://app?vid=78588a46-3475-4449-8bcb-8837fd0526d1","ios":"levelo://app?vid=78588a46-3475-4449-8bcb-8837fd0526d1"},"vehicle_type_id":"4","last_reported":1703275638,"current_range_meters":25600,"station_id":"ce4bgup2rcd13ifvqcn0","pricing_plan_id":"free"},{"bike_id":"f66b2c3a-dca4-44e4-83aa-0408996240b7","system_id":"levelo_inurba_marseille","lat":43.304606,"lon":5.379026,"is_reserved":false,"is_disabled":false,"rental_uris":{"android":"levelo://app?vid=f66b2c3a-dca4-44e4-83aa-0408996240b7","ios":"levelo://app?vid=f66b2c3a-dca4-44e4-83aa-0408996240b7"},"vehicle_type_id":"4","last_reported":1703275638,"current_range_meters":31200,"station_id":"ce4bgup2rcd13ifvqcn0","pricing_plan_id":"free"},{"bike_id":"6676e4b4-d3d7-408d-9354-9a08ef7e19d2","system_id":"levelo_inurba_marseille","lat":43.304606,"lon":5.379026,"is_reserved":false,"is_disabled":false,"rental_uris":{"android":"levelo://app?vid=6676e4b4-d3d7-408d-9354-9a08ef7e19d2","ios":"levelo://app?vid=6676e4b4-d3d7-408d-9354-9a08ef7e19d2"},"vehicle_type_id":"4","last_reported":1703275638,"current_range_meters":26400,"station_id":"ce4bgup2rcd13ifvqcn0","pricing_plan_id":"free"},{"bike_id":"fd11726f-53a8-4b42-9cf6-2c2a9fad0b9f","system_id":"levelo_inurba_marseille","lat":43.304606,"lon":5.379026,"is_reserved":false,"is_disabled":false,"rental_uris":{"android":"levelo://app?vid=fd11726f-53a8-4b42-9cf6-2c2a9fad0b9f","ios":"levelo://app?vid=fd11726f-53a8-4b42-9cf6-2c2a9fad0b9f"},"vehicle_type_id":"4","last_reported":1703275638,"current_range_meters":24400,"station_id":"ce4bgup2rcd13ifvqcn0","pricing_plan_id":"free"},{"bike_id":"83b114e7-7768-4245-985b-3139b735fbbf","system_id":"levelo_inurba_marseille","lat":43.304599,"lon":5.379017,"is_reserved":false,"is_disabled":false,"rental_uris":{"android":"levelo://app?vid=83b114e7-7768-4245-985b-3139b735fbbf","ios":"levelo://app?vid=83b114e7-7768-4245-985b-3139b735fbbf"},"vehicle_type_id":"4","last_reported":1703275638,"current_range_meters":24400,"station_id":"","pricing_plan_id":"free"},{"bike_id":"5173c815-5ad8-4866-809e-c9042bb14333","system_id":"levelo_inurba_marseille","lat":43.304606,"lon":5.379026,"is_reserved":false,"is_disabled":false,"rental_uris":{"android":"levelo://app?vid=5173c815-5ad8-4866-809e-c9042bb14333","ios":"levelo://app?vid=5173c815-5ad8-4866-809e-c9042bb14333"},"vehicle_type_id":"4","last_reported":1703275638,"current_range_meters":22800,"station_id":"ce4bgup2rcd13ifvqcn0","pricing_plan_id":"free"},{"bike_id":"afe88eba-f14a-4fdd-9436-f7e42e43ac0c","system_id":"levelo_inurba_marseille","lat":43.304606,"lon":5.379026,"is_reserved":false,"is_disabled":false,"rental_uris":{"android":"levelo://app?vid=afe88eba-f14a-4fdd-9436-f7e42e43ac0c","ios":"levelo://app?vid=afe88eba-f14a-4fdd-9436-f7e42e43ac0c"},"vehicle_type_id":"4","last_reported":1703275638,"current_range_meters":28000,"station_id":"ce4bgup2rcd13ifvqcn0","pricing_plan_id":"free"},{"bike_id":"00192217-4083-4c24-b3dc-41e4ad6320b2","system_id":"levelo_inurba_marseille","lat":43.304606,"lon":5.379026,"is_reserved":false,"is_disabled":false,"rental_uris":{"android":"levelo://app?vid=00192217-4083-4c24-b3dc-41e4ad6320b2","ios":"levelo://app?vid=00192217-4083-4c24-b3dc-41e4ad6320b2"},"vehicle_type_id":"4","last_reported":1703275638,"current_range_meters":25600,"station_id":"ce4bgup2rcd13ifvqcn0","pricing_plan_id":"free"},{"bike_id":"d49856a3-44f0-421b-b491-b14da2392901","system_id":"levelo_inurba_marseille","lat":43.304606,"lon":5.379026,"is_reserved":false,"is_disabled":false,"rental_uris":{"android":"levelo://app?vid=d49856a3-44f0-421b-b491-b14da2392901","ios":"levelo://app?vid=d49856a3-44f0-421b-b491-b14da2392901"},"vehicle_type_id":"4","last_reported":1703275638,"current_range_meters":20800,"station_id":"ce4bgup2rcd13ifvqcn0","pricing_plan_id":"free"},{"bike_id":"0f12f4a1-9d18-4087-b872-4b0ae162eb1d","system_id":"levelo_inurba_marseille","lat":43.324771,"lon":5.36557,"is_reserved":false,"is_disabled":false,"rental_uris":{"android":"levelo://app?vid=0f12f4a1-9d18-4087-b872-4b0ae162eb1d","ios":"levelo://app?vid=0f12f4a1-9d18-4087-b872-4b0ae162eb1d"},"vehicle_type_id":"4","last_reported":1703275638,"current_range_meters":0,"station_id":"ce4bhs12rcd13ifvqhvg","pricing_plan_id":"free"},{"bike_id":"601ffd83-73ec-409e-bb77-825e72ad7191","system_id":"levelo_inurba_marseille","lat":43.30143,"lon":5.37413,"is_reserved":false,"is_disabled":false,"rental_uris":{"android":"levelo://app?vid=601ffd83-73ec-409e-bb77-825e72ad7191","ios":"levelo://app?vid=601ffd83-73ec-409e-bb77-825e72ad7191"},"vehicle_type_id":"4","last_reported":1703275638,"current_range_meters":18800,"station_id":"ce4bgs92rcd13ifvqcc0","pricing_plan_id":"free"},{"bike_id":"c616a760-5d15-46bb-9d75-552ebc124cb7","system_id":"levelo_inurba_marseille","lat":43.319935,"lon":5.381699,"is_reserved":false,"is_disabled":false,"rental_uris":{"android":"levelo://app?vid=c616a760-5d15-46bb-9d75-552ebc124cb7","ios":"levelo://app?vid=c616a760-5d15-46bb-9d75-552ebc124cb7"},"vehicle_type_id":"4","last_reported":1703275638,"current_range_meters":19200,"station_id":"ce4bhr12rcd13ifvqhpg","pricing_plan_id":"free"},{"bike_id":"69599836-e945-413a-a849-741769f44bc7","system_id":"levelo_inurba_marseille","lat":43.302784,"lon":5.377158,"is_reserved":false,"is_disabled":false,"rental_uris":{"android":"levelo://app?vid=69599836-e945-413a-a849-741769f44bc7","ios":"levelo://app?vid=69599836-e945-413a-a849-741769f44bc7"},"vehicle_type_id":"4","last_reported":1703275638,"current_range_meters":17600,"station_id":"ce4bguh2rcd13ifvqcj0","pricing_plan_id":"free"},{"bike_id":"dc0f6af5-c02c-4610-baea-e5c6ca16f530","system_id":"levelo_inurba_marseille","lat":43.3199,"lon":5.38147,"is_reserved":false,"is_disabled":false,"rental_uris":{"android":"levelo://app?vid=dc0f6af5-c02c-4610-baea-e5c6ca16f530","ios":"levelo://app?vid=dc0f6af5-c02c-4610-baea-e5c6ca16f530"},"vehicle_type_id":"4","last_reported":1703275638,"current_range_meters":28000,"station_id":"ce4bhr12rcd13ifvqhpg","pricing_plan_id":"free"},{"bike_id":"82b7c1aa-506b-4cff-953c-bb835d7847c3","system_id":"levelo_inurba_marseille","lat":43.319935,"lon":5.381699,"is_reserved":false,"is_disabled":false,"rental_uris":{"android":"levelo://app?vid=82b7c1aa-506b-4cff-953c-bb835d7847c3","ios":"levelo://app?vid=82b7c1aa-506b-4cff-953c-bb835d7847c3"},"vehicle_type_id":"4","last_reported":1703275638,"current_range_meters":14000,"station_id":"ce4bhr12rcd13ifvqhpg","pricing_plan_id":"free"},{"bike_id":"9c231161-337f-4eba-87d3-44d75eaa84aa","system_id":"levelo_inurba_marseille","lat":43.319935,"lon":5.381699,"is_reserved":false,"is_disabled":false,"rental_uris":{"android":"levelo://app?vid=9c231161-337f-4eba-87d3-44d75eaa84aa","ios":"levelo://app?vid=9c231161-337f-4eba-87d3-44d75eaa84aa"},"vehicle_type_id":"4","last_reported":1703275638,"current_range_meters":30000,"station_id":"ce4bhr12rcd13ifvqhpg","pricing_plan_id":"free"},{"bike_id":"0660b770-dd60-4e90-8802-23f4be821afa","system_id":"levelo_inurba_marseille","lat":43.319935,"lon":5.381699,"is_reserved":false,"is_disabled":false,"rental_uris":{"android":"levelo://app?vid=0660b770-dd60-4e90-8802-23f4be821afa","ios":"levelo://app?vid=0660b770-dd60-4e90-8802-23f4be821afa"},"vehicle_type_id":"4","last_reported":1703275638,"current_range_meters":5200,"station_id":"ce4bhr12rcd13ifvqhpg","pricing_plan_id":"free"},{"bike_id":"965cf9c4-61d5-49c2-b8b1-76508d620af4","system_id":"levelo_inurba_marseille","lat":43.319935,"lon":5.381699,"is_reserved":false,"is_disabled":false,"rental_uris":{"android":"levelo://app?vid=965cf9c4-61d5-49c2-b8b1-76508d620af4","ios":"levelo://app?vid=965cf9c4-61d5-49c2-b8b1-76508d620af4"},"vehicle_type_id":"4","last_reported":1703275638,"current_range_meters":20000,"station_id":"ce4bhr12rcd13ifvqhpg","pricing_plan_id":"free"},{"bike_id":"a4d91f4c-0227-4bc9-a904-969806ef4ac5","system_id":"levelo_inurba_marseille","lat":43.319935,"lon":5.381699,"is_reserved":false,"is_disabled":false,"rental_uris":{"android":"levelo://app?vid=a4d91f4c-0227-4bc9-a904-969806ef4ac5","ios":"levelo://app?vid=a4d91f4c-0227-4bc9-a904-969806ef4ac5"},"vehicle_type_id":"4","last_reported":1703275638,"current_range_meters":21200,"station_id":"ce4bhr12rcd13ifvqhpg","pricing_plan_id":"free"},{"bike_id":"418db413-a207-4393-943b-eeb597f51177","system_id":"levelo_inurba_marseille","lat":43.313571,"lon":5.384829,"is_reserved":false,"is_disabled":false,"rental_uris":{"android":"levelo://app?vid=418db413-a207-4393-943b-eeb597f51177","ios":"levelo://app?vid=418db413-a207-4393-943b-eeb597f51177"},"vehicle_type_id":"4","last_reported":1703275638,"current_range_meters":11600,"station_id":"ce4bgt92rcd13ifvqcf0","pricing_plan_id":"free"},{"bike_id":"340deee9-a8d1-4273-accf-2f044ad8fe7d","system_id":"levelo_inurba_marseille","lat":43.313571,"lon":5.384829,"is_reserved":false,"is_disabled":false,"rental_uris":{"android":"levelo://app?vid=340deee9-a8d1-4273-accf-2f044ad8fe7d","ios":"levelo://app?vid=340deee9-a8d1-4273-accf-2f044ad8fe7d"},"vehicle_type_id":"4","last_reported":1703275638,"current_range_meters":24400,"station_id":"ce4bgt92rcd13ifvqcf0","pricing_plan_id":"free"},{"bike_id":"5faa80dd-7ff2-404b-a2cb-ff29cdece0f2","system_id":"levelo_inurba_marseille","lat":43.31366,"lon":5.38498,"is_reserved":false,"is_disabled":false,"rental_uris":{"android":"levelo://app?vid=5faa80dd-7ff2-404b-a2cb-ff29cdece0f2","ios":"levelo://app?vid=5faa80dd-7ff2-404b-a2cb-ff29cdece0f2"},"vehicle_type_id":"4","last_reported":1703275638,"current_range_meters":6400,"station_id":"ce4bgt92rcd13ifvqcf0","pricing_plan_id":"free"},{"bike_id":"118790d4-6e58-4843-b26b-54922331b0ee","system_id":"levelo_inurba_marseille","lat":43.313571,"lon":5.384829,"is_reserved":false,"is_disabled":false,"rental_uris":{"android":"levelo://app?vid=118790d4-6e58-4843-b26b-54922331b0ee","ios":"levelo://app?vid=118790d4-6e58-4843-b26b-54922331b0ee"},"vehicle_type_id":"4","last_reported":1703275638,"current_range_meters":15600,"station_id":"ce4bgt92rcd13ifvqcf0","pricing_plan_id":"free"},{"bike_id":"d1dd440c-f4d7-455a-ae66-f8b70563efc9","system_id":"levelo_inurba_marseille","lat":43.299724,"lon":5.371829,"is_reserved":false,"is_disabled":false,"rental_uris":{"android":"levelo://app?vid=d1dd440c-f4d7-455a-ae66-f8b70563efc9","ios":"levelo://app?vid=d1dd440c-f4d7-455a-ae66-f8b70563efc9"},"vehicle_type_id":"4","last_reported":1703275638,"current_range_meters":4800,"station_id":"ce4bgr92rcd13ifvqc7g","pricing_plan_id":"free"},{"bike_id":"9bed46f7-3f6b-4d73-9943-32500b55a8c4","system_id":"levelo_inurba_marseille","lat":43.299724,"lon":5.371829,"is_reserved":false,"is_disabled":false,"rental_uris":{"android":"levelo://app?vid=9bed46f7-3f6b-4d73-9943-32500b55a8c4","ios":"levelo://app?vid=9bed46f7-3f6b-4d73-9943-32500b55a8c4"},"vehicle_type_id":"4","last_reported":1703275638,"current_range_meters":0,"station_id":"ce4bgr92rcd13ifvqc7g","pricing_plan_id":"free"},{"bike_id":"f90382fa-ab83-4d91-aa90-6261bde58f28","system_id":"levelo_inurba_marseille","lat":43.299724,"lon":5.371829,"is_reserved":false,"is_disabled":false,"rental_uris":{"android":"levelo://app?vid=f90382fa-ab83-4d91-aa90-6261bde58f28","ios":"levelo://app?vid=f90382fa-ab83-4d91-aa90-6261bde58f28"},"vehicle_type_id":"4","last_reported":1703275638,"current_range_meters":23200,"station_id":"ce4bgr92rcd13ifvqc7g","pricing_plan_id":"free"},{"bike_id":"50a6d385-f619-4bea-8349-fb191bbde8e8","system_id":"levelo_inurba_marseille","lat":43.299724,"lon":5.371829,"is_reserved":false,"is_disabled":false,"rental_uris":{"android":"levelo://app?vid=50a6d385-f619-4bea-8349-fb191bbde8e8","ios":"levelo://app?vid=50a6d385-f619-4bea-8349-fb191bbde8e8"},"vehicle_type_id":"4","last_reported":1703275638,"current_range_meters":22000,"station_id":"ce4bgr92rcd13ifvqc7g","pricing_plan_id":"free"},{"bike_id":"c481a43d-6862-4d89-9672-508007c5a6f2","system_id":"levelo_inurba_marseille","lat":43.311722,"lon":5.387247,"is_reserved":false,"is_disabled":false,"rental_uris":{"android":"levelo://app?vid=c481a43d-6862-4d89-9672-508007c5a6f2","ios":"levelo://app?vid=c481a43d-6862-4d89-9672-508007c5a6f2"},"vehicle_type_id":"4","last_reported":1703275638,"current_range_meters":7200,"station_id":"ce4bgv12rcd13ifvqcp0","pricing_plan_id":"free"},{"bike_id":"a5c51781-d947-4138-9aa1-ef1cea089aaa","system_id":"levelo_inurba_marseille","lat":43.311722,"lon":5.387247,"is_reserved":false,"is_disabled":false,"rental_uris":{"android":"levelo://app?vid=a5c51781-d947-4138-9aa1-ef1cea089aaa","ios":"levelo://app?vid=a5c51781-d947-4138-9aa1-ef1cea089aaa"},"vehicle_type_id":"4","last_reported":1703275638,"current_range_meters":12800,"station_id":"ce4bgv12rcd13ifvqcp0","pricing_plan_id":"free"},{"bike_id":"41f11b12-f0f4-4ab1-a8f5-ab090514d08f","system_id":"levelo_inurba_marseille","lat":43.299243,"lon":5.374807,"is_reserved":false,"is_disabled":false,"rental_uris":{"android":"levelo://app?vid=41f11b12-f0f4-4ab1-a8f5-ab090514d08f","ios":"levelo://app?vid=41f11b12-f0f4-4ab1-a8f5-ab090514d08f"},"vehicle_type_id":"4","last_reported":1703275638,"current_range_meters":3200,"station_id":"ce4bgjh2rcd13ifvqbg0","pricing_plan_id":"free"},{"bike_id":"5366679b-541b-41c4-a265-2ce6049a5192","system_id":"levelo_inurba_marseille","lat":43.311722,"lon":5.387247,"is_reserved":false,"is_disabled":false,"rental_uris":{"android":"levelo://app?vid=5366679b-541b-41c4-a265-2ce6049a5192","ios":"levelo://app?vid=5366679b-541b-41c4-a265-2ce6049a5192"},"vehicle_type_id":"4","last_reported":1703275638,"current_range_meters":9200,"station_id":"ce4bgv12rcd13ifvqcp0","pricing_plan_id":"free"},{"bike_id":"71684833-1aa8-4c1d-a58f-565c67dbe783","system_id":"levelo_inurba_marseille","lat":43.297794,"lon":5.370888,"is_reserved":false,"is_disabled":false,"rental_uris":{"android":"levelo://app?vid=71684833-1aa8-4c1d-a58f-565c67dbe783","ios":"levelo://app?vid=71684833-1aa8-4c1d-a58f-565c67dbe783"},"vehicle_type_id":"4","last_reported":1703275638,"current_range_meters":14000,"station_id":"ce4bgop2rcd13ifvqc1g","pricing_plan_id":"free"},{"bike_id":"f5987233-1d3e-4901-8b4d-56e1ca83344b","system_id":"levelo_inurba_marseille","lat":43.322872,"lon":5.382756,"is_reserved":false,"is_disabled":false,"rental_uris":{"android":"levelo://app?vid=f5987233-1d3e-4901-8b4d-56e1ca83344b","ios":"levelo://app?vid=f5987233-1d3e-4901-8b4d-56e1ca83344b"},"vehicle_type_id":"4","last_reported":1703275638,"current_range_meters":31600,"station_id":"ce4bhr12rcd13ifvqhqg","pricing_plan_id":"free"},{"bike_id":"d427d9f4-23f5-48b6-96d0-49850595043e","system_id":"levelo_inurba_marseille","lat":43.297774,"lon":5.370875,"is_reserved":false,"is_disabled":false,"rental_uris":{"android":"levelo://app?vid=d427d9f4-23f5-48b6-96d0-49850595043e","ios":"levelo://app?vid=d427d9f4-23f5-48b6-96d0-49850595043e"},"vehicle_type_id":"4","last_reported":1703275638,"current_range_meters":27600,"station_id":"ce4bgop2rcd13ifvqc1g","pricing_plan_id":"free"},{"bike_id":"6ef56fd5-1a7c-4c71-8bf8-33afeff899ef","system_id":"levelo_inurba_marseille","lat":43.322872,"lon":5.382756,"is_reserved":false,"is_disabled":false,"rental_uris":{"android":"levelo://app?vid=6ef56fd5-1a7c-4c71-8bf8-33afeff899ef","ios":"levelo://app?vid=6ef56fd5-1a7c-4c71-8bf8-33afeff899ef"},"vehicle_type_id":"4","last_reported":1703275638,"current_range_meters":19600,"station_id":"ce4bhr12rcd13ifvqhqg","pricing_plan_id":"free"},{"bike_id":"62a0e181-56c1-4aad-a05b-240ecf27baec","system_id":"levelo_inurba_marseille","lat":43.322872,"lon":5.382756,"is_reserved":false,"is_disabled":false,"rental_uris":{"android":"levelo://app?vid=62a0e181-56c1-4aad-a05b-240ecf27baec","ios":"levelo://app?vid=62a0e181-56c1-4aad-a05b-240ecf27baec"},"vehicle_type_id":"4","last_reported":1703275638,"current_range_meters":30800,"station_id":"ce4bhr12rcd13ifvqhqg","pricing_plan_id":"free"},{"bike_id":"e4cf6f6e-7d8c-4b7e-ab01-7de3c446c970","system_id":"levelo_inurba_marseille","lat":43.322872,"lon":5.382756,"is_reserved":false,"is_disabled":false,"rental_uris":{"android":"levelo://app?vid=e4cf6f6e-7d8c-4b7e-ab01-7de3c446c970","ios":"levelo://app?vid=e4cf6f6e-7d8c-4b7e-ab01-7de3c446c970"},"vehicle_type_id":"4","last_reported":1703275638,"current_range_meters":26400,"station_id":"ce4bhr12rcd13ifvqhqg","pricing_plan_id":"free"},{"bike_id":"525f6ec1-c089-48ad-8216-d8e073aa768d","system_id":"levelo_inurba_marseille","lat":43.32827,"lon":5.36676,"is_reserved":false,"is_disabled":false,"rental_uris":{"android":"levelo://app?vid=525f6ec1-c089-48ad-8216-d8e073aa768d","ios":"levelo://app?vid=525f6ec1-c089-48ad-8216-d8e073aa768d"},"vehicle_type_id":"4","last_reported":1703275638,"current_range_meters":6400,"station_id":"ce4bhs92rcd13ifvqi0g","pricing_plan_id":"free"},{"bike_id":"35885570-4683-4059-8e33-5f256f01c4d9","system_id":"levelo_inurba_marseille","lat":43.297163,"lon":5.365866,"is_reserved":false,"is_disabled":false,"rental_uris":{"android":"levelo://app?vid=35885570-4683-4059-8e33-5f256f01c4d9","ios":"levelo://app?vid=35885570-4683-4059-8e33-5f256f01c4d9"},"vehicle_type_id":"4","last_reported":1703275638,"current_range_meters":24000,"station_id":"ce4bgn12rcd13ifvqbt0","pricing_plan_id":"free"},{"bike_id":"39ff70c5-8442-4c69-866e-cafdbb55a3ca","system_id":"levelo_inurba_marseille","lat":43.297163,"lon":5.365866,"is_reserved":false,"is_disabled":false,"rental_uris":{"android":"levelo://app?vid=39ff70c5-8442-4c69-866e-cafdbb55a3ca","ios":"levelo://app?vid=39ff70c5-8442-4c69-866e-cafdbb55a3ca"},"vehicle_type_id":"4","last_reported":1703275638,"current_range_meters":21200,"station_id":"ce4bgn12rcd13ifvqbt0","pricing_plan_id":"free"},{"bike_id":"757b027e-afcf-4f19-838b-6309bb68956c","system_id":"levelo_inurba_marseille","lat":43.297163,"lon":5.365866,"is_reserved":false,"is_disabled":false,"rental_uris":{"android":"levelo://app?vid=757b027e-afcf-4f19-838b-6309bb68956c","ios":"levelo://app?vid=757b027e-afcf-4f19-838b-6309bb68956c"},"vehicle_type_id":"4","last_reported":1703275638,"current_range_meters":28800,"station_id":"ce4bgn12rcd13ifvqbt0","pricing_plan_id":"free"},{"bike_id":"248036c1-af81-4d27-9242-6593b46581d0","system_id":"levelo_inurba_marseille","lat":43.297163,"lon":5.365866,"is_reserved":false,"is_disabled":false,"rental_uris":{"android":"levelo://app?vid=248036c1-af81-4d27-9242-6593b46581d0","ios":"levelo://app?vid=248036c1-af81-4d27-9242-6593b46581d0"},"vehicle_type_id":"4","last_reported":1703275638,"current_range_meters":31200,"station_id":"ce4bgn12rcd13ifvqbt0","pricing_plan_id":"free"},{"bike_id":"fdd591f7-6a13-418a-929d-cd46fd846e16","system_id":"levelo_inurba_marseille","lat":43.2968,"lon":5.37291,"is_reserved":false,"is_disabled":false,"rental_uris":{"android":"levelo://app?vid=fdd591f7-6a13-418a-929d-cd46fd846e16","ios":"levelo://app?vid=fdd591f7-6a13-418a-929d-cd46fd846e16"},"vehicle_type_id":"4","last_reported":1703275638,"current_range_meters":30400,"station_id":"ce4bgk12rcd13ifvqbj0","pricing_plan_id":"free"},{"bike_id":"558ec63f-134c-4e7a-9858-e5ff95d1d8fa","system_id":"levelo_inurba_marseille","lat":43.295984,"lon":5.367889,"is_reserved":false,"is_disabled":false,"rental_uris":{"android":"levelo://app?vid=558ec63f-134c-4e7a-9858-e5ff95d1d8fa","ios":"levelo://app?vid=558ec63f-134c-4e7a-9858-e5ff95d1d8fa"},"vehicle_type_id":"4","last_reported":1703275638,"current_range_meters":13200,"station_id":"","pricing_plan_id":"free"},{"bike_id":"b403e6b0-50a3-4e6a-80ff-538a53db017c","system_id":"levelo_inurba_marseille","lat":43.29587,"lon":5.36746,"is_reserved":false,"is_disabled":false,"rental_uris":{"android":"levelo://app?vid=b403e6b0-50a3-4e6a-80ff-538a53db017c","ios":"levelo://app?vid=b403e6b0-50a3-4e6a-80ff-538a53db017c"},"vehicle_type_id":"4","last_reported":1703275638,"current_range_meters":12000,"station_id":"ce4bgph2rcd13ifvqc2g","pricing_plan_id":"free"},{"bike_id":"e6c0f86c-4e5e-4f11-9e64-a4b6b747b652","system_id":"levelo_inurba_marseille","lat":43.29573,"lon":5.367355,"is_reserved":false,"is_disabled":false,"rental_uris":{"android":"levelo://app?vid=e6c0f86c-4e5e-4f11-9e64-a4b6b747b652","ios":"levelo://app?vid=e6c0f86c-4e5e-4f11-9e64-a4b6b747b652"},"vehicle_type_id":"4","last_reported":1703275638,"current_range_meters":12000,"station_id":"ce4bgph2rcd13ifvqc2g","pricing_plan_id":"free"},{"bike_id":"6786d73f-4900-4a6b-9054-a25c5e7e40b8","system_id":"levelo_inurba_marseille","lat":43.296935,"lon":5.376544,"is_reserved":false,"is_disabled":false,"rental_uris":{"android":"levelo://app?vid=6786d73f-4900-4a6b-9054-a25c5e7e40b8","ios":"levelo://app?vid=6786d73f-4900-4a6b-9054-a25c5e7e40b8"},"vehicle_type_id":"4","last_reported":1703275638,"current_range_meters":26000,"station_id":"ce4bgkh2rcd13ifvqbl0","pricing_plan_id":"free"},{"bike_id":"7eada8fb-8c59-41ea-ae15-1164bd9fc1af","system_id":"levelo_inurba_marseille","lat":43.32176,"lon":5.38767,"is_reserved":false,"is_disabled":false,"rental_uris":{"android":"levelo://app?vid=7eada8fb-8c59-41ea-ae15-1164bd9fc1af","ios":"levelo://app?vid=7eada8fb-8c59-41ea-ae15-1164bd9fc1af"},"vehicle_type_id":"4","last_reported":1703275638,"current_range_meters":30000,"station_id":"","pricing_plan_id":"free"},{"bike_id":"d39682ea-d8f1-45a4-b2b8-5a732fb091bc","system_id":"levelo_inurba_marseille","lat":43.317557,"lon":5.390173,"is_reserved":false,"is_disabled":false,"rental_uris":{"android":"levelo://app?vid=d39682ea-d8f1-45a4-b2b8-5a732fb091bc","ios":"levelo://app?vid=d39682ea-d8f1-45a4-b2b8-5a732fb091bc"},"vehicle_type_id":"4","last_reported":1703275638,"current_range_meters":30000,"station_id":"ce4bhqp2rcd13ifvqhng","pricing_plan_id":"free"},{"bike_id":"43855516-4c02-494d-aefa-3c215dbc6b85","system_id":"levelo_inurba_marseille","lat":43.317557,"lon":5.390173,"is_reserved":false,"is_disabled":false,"rental_uris":{"android":"levelo://app?vid=43855516-4c02-494d-aefa-3c215dbc6b85","ios":"levelo://app?vid=43855516-4c02-494d-aefa-3c215dbc6b85"},"vehicle_type_id":"4","last_reported":1703275638,"current_range_meters":1200,"station_id":"ce4bhqp2rcd13ifvqhng","pricing_plan_id":"free"},{"bike_id":"cdb3d701-5381-4219-9cdd-c446bf2fa9ab","system_id":"levelo_inurba_marseille","lat":43.295324,"lon":5.36115,"is_reserved":false,"is_disabled":false,"rental_uris":{"android":"levelo://app?vid=cdb3d701-5381-4219-9cdd-c446bf2fa9ab","ios":"levelo://app?vid=cdb3d701-5381-4219-9cdd-c446bf2fa9ab"},"vehicle_type_id":"4","last_reported":1703275638,"current_range_meters":7200,"station_id":"","pricing_plan_id":"free"},{"bike_id":"751abed5-dd5a-4e93-af76-564fc4c5a6ce","system_id":"levelo_inurba_marseille","lat":43.295748,"lon":5.37522,"is_reserved":false,"is_disabled":false,"rental_uris":{"android":"levelo://app?vid=751abed5-dd5a-4e93-af76-564fc4c5a6ce","ios":"levelo://app?vid=751abed5-dd5a-4e93-af76-564fc4c5a6ce"},"vehicle_type_id":"4","last_reported":1703275638,"current_range_meters":18400,"station_id":"ce4bgh92rcd13ifvqb50","pricing_plan_id":"free"},{"bike_id":"1378810b-812d-44e5-847a-1b7aeb90e4c4","system_id":"levelo_inurba_marseille","lat":43.299,"lon":5.38357,"is_reserved":false,"is_disabled":false,"rental_uris":{"android":"levelo://app?vid=1378810b-812d-44e5-847a-1b7aeb90e4c4","ios":"levelo://app?vid=1378810b-812d-44e5-847a-1b7aeb90e4c4"},"vehicle_type_id":"4","last_reported":1703275638,"current_range_meters":400,"station_id":"","pricing_plan_id":"free"},{"bike_id":"757b5ef7-0a32-4605-829d-3b7de886275c","system_id":"levelo_inurba_marseille","lat":43.295279,"lon":5.375048,"is_reserved":false,"is_disabled":false,"rental_uris":{"android":"levelo://app?vid=757b5ef7-0a32-4605-829d-3b7de886275c","ios":"levelo://app?vid=757b5ef7-0a32-4605-829d-3b7de886275c"},"vehicle_type_id":"4","last_reported":1703275638,"current_range_meters":23600,"station_id":"ce4bgkp2rcd13ifvqbmg","pricing_plan_id":"free"},{"bike_id":"dc576f31-c21e-42d2-97a4-815b145b7f58","system_id":"levelo_inurba_marseille","lat":43.32367,"lon":5.388836,"is_reserved":false,"is_disabled":false,"rental_uris":{"android":"levelo://app?vid=dc576f31-c21e-42d2-97a4-815b145b7f58","ios":"levelo://app?vid=dc576f31-c21e-42d2-97a4-815b145b7f58"},"vehicle_type_id":"4","last_reported":1703275638,"current_range_meters":2000,"station_id":"ce4bhqp2rcd13ifvqhog","pricing_plan_id":"free"},{"bike_id":"035ba96c-8560-4c70-973e-f7eb3e99c40c","system_id":"levelo_inurba_marseille","lat":43.32367,"lon":5.388836,"is_reserved":false,"is_disabled":false,"rental_uris":{"android":"levelo://app?vid=035ba96c-8560-4c70-973e-f7eb3e99c40c","ios":"levelo://app?vid=035ba96c-8560-4c70-973e-f7eb3e99c40c"},"vehicle_type_id":"4","last_reported":1703275638,"current_range_meters":20400,"station_id":"ce4bhqp2rcd13ifvqhog","pricing_plan_id":"free"},{"bike_id":"d9ab82e6-017b-48f3-b1fe-f3bc0d75b193","system_id":"levelo_inurba_marseille","lat":43.293259,"lon":5.371586,"is_reserved":false,"is_disabled":false,"rental_uris":{"android":"levelo://app?vid=d9ab82e6-017b-48f3-b1fe-f3bc0d75b193","ios":"levelo://app?vid=d9ab82e6-017b-48f3-b1fe-f3bc0d75b193"},"vehicle_type_id":"4","last_reported":1703275638,"current_range_meters":21600,"station_id":"ce4bgh92rcd13ifvqb40","pricing_plan_id":"free"},{"bike_id":"441e52b0-178a-4d1d-9375-b3998c7fcbfc","system_id":"levelo_inurba_marseille","lat":43.293009,"lon":5.374584,"is_reserved":false,"is_disabled":false,"rental_uris":{"android":"levelo://app?vid=441e52b0-178a-4d1d-9375-b3998c7fcbfc","ios":"levelo://app?vid=441e52b0-178a-4d1d-9375-b3998c7fcbfc"},"vehicle_type_id":"4","last_reported":1703275638,"current_range_meters":23600,"station_id":"ce4bgi12rcd13ifvqb70","pricing_plan_id":"free"},{"bike_id":"9a46291f-ad07-4cb7-ae23-a061c0823e34","system_id":"levelo_inurba_marseille","lat":43.305994,"lon":5.393687,"is_reserved":false,"is_disabled":false,"rental_uris":{"android":"levelo://app?vid=9a46291f-ad07-4cb7-ae23-a061c0823e34","ios":"levelo://app?vid=9a46291f-ad07-4cb7-ae23-a061c0823e34"},"vehicle_type_id":"4","last_reported":1703275638,"current_range_meters":7600,"station_id":"ce4bh0p2rcd13ifvqd80","pricing_plan_id":"free"},{"bike_id":"50b8a951-b97d-4db7-9a3d-5f00fb7b52db","system_id":"levelo_inurba_marseille","lat":43.305994,"lon":5.393687,"is_reserved":false,"is_disabled":false,"rental_uris":{"android":"levelo://app?vid=50b8a951-b97d-4db7-9a3d-5f00fb7b52db","ios":"levelo://app?vid=50b8a951-b97d-4db7-9a3d-5f00fb7b52db"},"vehicle_type_id":"4","last_reported":1703275638,"current_range_meters":31200,"station_id":"ce4bh0p2rcd13ifvqd80","pricing_plan_id":"free"},{"bike_id":"c6a83b09-b16e-45ed-8bb4-75d04d392aee","system_id":"levelo_inurba_marseille","lat":43.305994,"lon":5.393687,"is_reserved":false,"is_disabled":false,"rental_uris":{"android":"levelo://app?vid=c6a83b09-b16e-45ed-8bb4-75d04d392aee","ios":"levelo://app?vid=c6a83b09-b16e-45ed-8bb4-75d04d392aee"},"vehicle_type_id":"4","last_reported":1703275638,"current_range_meters":17600,"station_id":"ce4bh0p2rcd13ifvqd80","pricing_plan_id":"free"},{"bike_id":"943621d9-b404-43fc-8606-18e7767ff8ad","system_id":"levelo_inurba_marseille","lat":43.2936,"lon":5.37835,"is_reserved":false,"is_disabled":false,"rental_uris":{"android":"levelo://app?vid=943621d9-b404-43fc-8606-18e7767ff8ad","ios":"levelo://app?vid=943621d9-b404-43fc-8606-18e7767ff8ad"},"vehicle_type_id":"4","last_reported":1703275638,"current_range_meters":6800,"station_id":"ce4bgjh2rcd13ifvqbf0","pricing_plan_id":"free"},{"bike_id":"e49f5a8d-263c-4d6d-9b24-84e1b54f7f7e","system_id":"levelo_inurba_marseille","lat":43.300852,"lon":5.390859,"is_reserved":false,"is_disabled":false,"rental_uris":{"android":"levelo://app?vid=e49f5a8d-263c-4d6d-9b24-84e1b54f7f7e","ios":"levelo://app?vid=e49f5a8d-263c-4d6d-9b24-84e1b54f7f7e"},"vehicle_type_id":"4","last_reported":1703275638,"current_range_meters":24800,"station_id":"ce4bh192rcd13ifvqdb0","pricing_plan_id":"free"},{"bike_id":"557000a1-02d5-45c6-b20c-951b70bf4f82","system_id":"levelo_inurba_marseille","lat":43.300986,"lon":5.390863,"is_reserved":false,"is_disabled":false,"rental_uris":{"android":"levelo://app?vid=557000a1-02d5-45c6-b20c-951b70bf4f82","ios":"levelo://app?vid=557000a1-02d5-45c6-b20c-951b70bf4f82"},"vehicle_type_id":"4","last_reported":1703275638,"current_range_meters":0,"station_id":"","pricing_plan_id":"free"},{"bike_id":"185472b9-58a3-4170-9ef0-2a7f6e685a3b","system_id":"levelo_inurba_marseille","lat":43.30085,"lon":5.390856,"is_reserved":false,"is_disabled":false,"rental_uris":{"android":"levelo://app?vid=185472b9-58a3-4170-9ef0-2a7f6e685a3b","ios":"levelo://app?vid=185472b9-58a3-4170-9ef0-2a7f6e685a3b"},"vehicle_type_id":"4","last_reported":1703275638,"current_range_meters":2400,"station_id":"ce4bh192rcd13ifvqdb0","pricing_plan_id":"free"},{"bike_id":"d5f60d9e-cdaf-48c8-b20a-2a0124bb934a","system_id":"levelo_inurba_marseille","lat":43.313291,"lon":5.396838,"is_reserved":false,"is_disabled":false,"rental_uris":{"android":"levelo://app?vid=d5f60d9e-cdaf-48c8-b20a-2a0124bb934a","ios":"levelo://app?vid=d5f60d9e-cdaf-48c8-b20a-2a0124bb934a"},"vehicle_type_id":"4","last_reported":1703275638,"current_range_meters":8400,"station_id":"ce4bgvp2rcd13ifvqcu0","pricing_plan_id":"free"},{"bike_id":"bfeab3b4-00c2-4361-8c01-2d0b50c959af","system_id":"levelo_inurba_marseille","lat":43.308859,"lon":5.396376,"is_reserved":false,"is_disabled":false,"rental_uris":{"android":"levelo://app?vid=bfeab3b4-00c2-4361-8c01-2d0b50c959af","ios":"levelo://app?vid=bfeab3b4-00c2-4361-8c01-2d0b50c959af"},"vehicle_type_id":"4","last_reported":1703275638,"current_range_meters":0,"station_id":"ce4bh012rcd13ifvqcv0","pricing_plan_id":"free"},{"bike_id":"af4eb44c-b6c6-4ffb-9294-38dd5d5dc4b6","system_id":"levelo_inurba_marseille","lat":43.31327,"lon":5.39691,"is_reserved":false,"is_disabled":false,"rental_uris":{"android":"levelo://app?vid=af4eb44c-b6c6-4ffb-9294-38dd5d5dc4b6","ios":"levelo://app?vid=af4eb44c-b6c6-4ffb-9294-38dd5d5dc4b6"},"vehicle_type_id":"4","last_reported":1703275638,"current_range_meters":21200,"station_id":"ce4bgvp2rcd13ifvqcu0","pricing_plan_id":"free"},{"bike_id":"a90b8b83-e596-4fc1-8b62-b201f740b064","system_id":"levelo_inurba_marseille","lat":43.313291,"lon":5.396838,"is_reserved":false,"is_disabled":false,"rental_uris":{"android":"levelo://app?vid=a90b8b83-e596-4fc1-8b62-b201f740b064","ios":"levelo://app?vid=a90b8b83-e596-4fc1-8b62-b201f740b064"},"vehicle_type_id":"4","last_reported":1703275638,"current_range_meters":21200,"station_id":"ce4bgvp2rcd13ifvqcu0","pricing_plan_id":"free"},{"bike_id":"3a27099c-67c9-4212-9dcc-528235e98cb9","system_id":"levelo_inurba_marseille","lat":43.291994,"lon":5.357886,"is_reserved":false,"is_disabled":false,"rental_uris":{"android":"levelo://app?vid=3a27099c-67c9-4212-9dcc-528235e98cb9","ios":"levelo://app?vid=3a27099c-67c9-4212-9dcc-528235e98cb9"},"vehicle_type_id":"4","last_reported":1703275638,"current_range_meters":8400,"station_id":"ce4bhb12rcd13ifvqel0","pricing_plan_id":"free"},{"bike_id":"38d8ffb9-ac7c-4e14-9721-daaee9d23c1a","system_id":"levelo_inurba_marseille","lat":43.313291,"lon":5.396838,"is_reserved":false,"is_disabled":false,"rental_uris":{"android":"levelo://app?vid=38d8ffb9-ac7c-4e14-9721-daaee9d23c1a","ios":"levelo://app?vid=38d8ffb9-ac7c-4e14-9721-daaee9d23c1a"},"vehicle_type_id":"4","last_reported":1703275638,"current_range_meters":26400,"station_id":"ce4bgvp2rcd13ifvqcu0","pricing_plan_id":"free"},{"bike_id":"cbc62839-3c9d-4d9e-963f-bbabfe928114","system_id":"levelo_inurba_marseille","lat":43.313291,"lon":5.396838,"is_reserved":false,"is_disabled":false,"rental_uris":{"android":"levelo://app?vid=cbc62839-3c9d-4d9e-963f-bbabfe928114","ios":"levelo://app?vid=cbc62839-3c9d-4d9e-963f-bbabfe928114"},"vehicle_type_id":"4","last_reported":1703275638,"current_range_meters":10800,"station_id":"ce4bgvp2rcd13ifvqcu0","pricing_plan_id":"free"},{"bike_id":"fa38fcc7-ca87-4463-a289-03c7cd4e6723","system_id":"levelo_inurba_marseille","lat":43.313291,"lon":5.396838,"is_reserved":false,"is_disabled":false,"rental_uris":{"android":"levelo://app?vid=fa38fcc7-ca87-4463-a289-03c7cd4e6723","ios":"levelo://app?vid=fa38fcc7-ca87-4463-a289-03c7cd4e6723"},"vehicle_type_id":"4","last_reported":1703275638,"current_range_meters":24800,"station_id":"ce4bgvp2rcd13ifvqcu0","pricing_plan_id":"free"},{"bike_id":"f6c1fa5a-46bd-4077-bc4a-fb521e11192e","system_id":"levelo_inurba_marseille","lat":43.31326,"lon":5.39695,"is_reserved":false,"is_disabled":false,"rental_uris":{"android":"levelo://app?vid=f6c1fa5a-46bd-4077-bc4a-fb521e11192e","ios":"levelo://app?vid=f6c1fa5a-46bd-4077-bc4a-fb521e11192e"},"vehicle_type_id":"4","last_reported":1703275638,"current_range_meters":15200,"station_id":"ce4bgvp2rcd13ifvqcu0","pricing_plan_id":"free"},{"bike_id":"365351fb-9dc0-4763-85db-886ebe3b10db","system_id":"levelo_inurba_marseille","lat":43.313291,"lon":5.396838,"is_reserved":false,"is_disabled":false,"rental_uris":{"android":"levelo://app?vid=365351fb-9dc0-4763-85db-886ebe3b10db","ios":"levelo://app?vid=365351fb-9dc0-4763-85db-886ebe3b10db"},"vehicle_type_id":"4","last_reported":1703275638,"current_range_meters":8000,"station_id":"ce4bgvp2rcd13ifvqcu0","pricing_plan_id":"free"},{"bike_id":"c4b5c253-f844-42fd-82a6-50cb9b8a64cd","system_id":"levelo_inurba_marseille","lat":43.313291,"lon":5.396838,"is_reserved":false,"is_disabled":false,"rental_uris":{"android":"levelo://app?vid=c4b5c253-f844-42fd-82a6-50cb9b8a64cd","ios":"levelo://app?vid=c4b5c253-f844-42fd-82a6-50cb9b8a64cd"},"vehicle_type_id":"4","last_reported":1703275638,"current_range_meters":31600,"station_id":"ce4bgvp2rcd13ifvqcu0","pricing_plan_id":"free"},{"bike_id":"eceb5307-053e-422d-bbd0-9af032e873b8","system_id":"levelo_inurba_marseille","lat":43.313291,"lon":5.396838,"is_reserved":false,"is_disabled":false,"rental_uris":{"android":"levelo://app?vid=eceb5307-053e-422d-bbd0-9af032e873b8","ios":"levelo://app?vid=eceb5307-053e-422d-bbd0-9af032e873b8"},"vehicle_type_id":"4","last_reported":1703275638,"current_range_meters":22000,"station_id":"ce4bgvp2rcd13ifvqcu0","pricing_plan_id":"free"},{"bike_id":"1c53378b-8e96-4648-8299-2ce4fc698ff4","system_id":"levelo_inurba_marseille","lat":43.309047,"lon":5.396551,"is_reserved":false,"is_disabled":false,"rental_uris":{"android":"levelo://app?vid=1c53378b-8e96-4648-8299-2ce4fc698ff4","ios":"levelo://app?vid=1c53378b-8e96-4648-8299-2ce4fc698ff4"},"vehicle_type_id":"4","last_reported":1703275638,"current_range_meters":9600,"station_id":"ce4bh012rcd13ifvqcv0","pricing_plan_id":"free"},{"bike_id":"8574d9c3-1f5d-45bc-b840-34b822fa2f5a","system_id":"levelo_inurba_marseille","lat":43.309047,"lon":5.396551,"is_reserved":false,"is_disabled":false,"rental_uris":{"android":"levelo://app?vid=8574d9c3-1f5d-45bc-b840-34b822fa2f5a","ios":"levelo://app?vid=8574d9c3-1f5d-45bc-b840-34b822fa2f5a"},"vehicle_type_id":"4","last_reported":1703275638,"current_range_meters":16000,"station_id":"ce4bh012rcd13ifvqcv0","pricing_plan_id":"free"},{"bike_id":"8af13314-deea-493f-b30d-5b3fa9f67374","system_id":"levelo_inurba_marseille","lat":43.29538,"lon":5.3854,"is_reserved":false,"is_disabled":false,"rental_uris":{"android":"levelo://app?vid=8af13314-deea-493f-b30d-5b3fa9f67374","ios":"levelo://app?vid=8af13314-deea-493f-b30d-5b3fa9f67374"},"vehicle_type_id":"4","last_reported":1703275638,"current_range_meters":25600,"station_id":"ce4bgih2rcd13ifvqba0","pricing_plan_id":"free"},{"bike_id":"f643ad99-0b3b-492b-ae37-9d7372877480","system_id":"levelo_inurba_marseille","lat":43.29535,"lon":5.38544,"is_reserved":false,"is_disabled":false,"rental_uris":{"android":"levelo://app?vid=f643ad99-0b3b-492b-ae37-9d7372877480","ios":"levelo://app?vid=f643ad99-0b3b-492b-ae37-9d7372877480"},"vehicle_type_id":"4","last_reported":1703275638,"current_range_meters":29200,"station_id":"ce4bgih2rcd13ifvqba0","pricing_plan_id":"free"},{"bike_id":"37da7960-faed-4294-9037-999f8b9d248d","system_id":"levelo_inurba_marseille","lat":43.29535,"lon":5.38545,"is_reserved":false,"is_disabled":false,"rental_uris":{"android":"levelo://app?vid=37da7960-faed-4294-9037-999f8b9d248d","ios":"levelo://app?vid=37da7960-faed-4294-9037-999f8b9d248d"},"vehicle_type_id":"4","last_reported":1703275638,"current_range_meters":0,"station_id":"ce4bgih2rcd13ifvqba0","pricing_plan_id":"free"},{"bike_id":"d28184fb-8e03-4188-ba7a-5903a54c56dc","system_id":"levelo_inurba_marseille","lat":43.29529,"lon":5.385581,"is_reserved":false,"is_disabled":false,"rental_uris":{"android":"levelo://app?vid=d28184fb-8e03-4188-ba7a-5903a54c56dc","ios":"levelo://app?vid=d28184fb-8e03-4188-ba7a-5903a54c56dc"},"vehicle_type_id":"4","last_reported":1703275638,"current_range_meters":7600,"station_id":"ce4bgih2rcd13ifvqba0","pricing_plan_id":"free"},{"bike_id":"175c3e4d-3e2b-415f-8165-0040f32efb88","system_id":"levelo_inurba_marseille","lat":43.290779,"lon":5.371482,"is_reserved":false,"is_disabled":false,"rental_uris":{"android":"levelo://app?vid=175c3e4d-3e2b-415f-8165-0040f32efb88","ios":"levelo://app?vid=175c3e4d-3e2b-415f-8165-0040f32efb88"},"vehicle_type_id":"4","last_reported":1703275638,"current_range_meters":25600,"station_id":"ce4bh5p2rcd13ifvqe4g","pricing_plan_id":"free"},{"bike_id":"207ba7a9-9467-41d4-b7f6-091b6537f4eb","system_id":"levelo_inurba_marseille","lat":43.302008,"lon":5.394694,"is_reserved":false,"is_disabled":false,"rental_uris":{"android":"levelo://app?vid=207ba7a9-9467-41d4-b7f6-091b6537f4eb","ios":"levelo://app?vid=207ba7a9-9467-41d4-b7f6-091b6537f4eb"},"vehicle_type_id":"4","last_reported":1703275638,"current_range_meters":18400,"station_id":"ce4bh0p2rcd13ifvqd70","pricing_plan_id":"free"},{"bike_id":"81ecd235-69e4-434d-8b01-82b37874aab3","system_id":"levelo_inurba_marseille","lat":43.290631,"lon":5.359244,"is_reserved":false,"is_disabled":false,"rental_uris":{"android":"levelo://app?vid=81ecd235-69e4-434d-8b01-82b37874aab3","ios":"levelo://app?vid=81ecd235-69e4-434d-8b01-82b37874aab3"},"vehicle_type_id":"4","last_reported":1703275638,"current_range_meters":22400,"station_id":"ce4bha92rcd13ifvqeg0","pricing_plan_id":"free"},{"bike_id":"bbb877a0-e4c2-4921-a699-0b430e991bee","system_id":"levelo_inurba_marseille","lat":43.294153,"lon":5.386305,"is_reserved":false,"is_disabled":false,"rental_uris":{"android":"levelo://app?vid=bbb877a0-e4c2-4921-a699-0b430e991bee","ios":"levelo://app?vid=bbb877a0-e4c2-4921-a699-0b430e991bee"},"vehicle_type_id":"4","last_reported":1703275638,"current_range_meters":0,"station_id":"ce4bh2h2rcd13ifvqdh0","pricing_plan_id":"free"},{"bike_id":"65f214b2-3544-432b-8290-9980fd78b538","system_id":"levelo_inurba_marseille","lat":43.290327,"lon":5.375711,"is_reserved":false,"is_disabled":false,"rental_uris":{"android":"levelo://app?vid=65f214b2-3544-432b-8290-9980fd78b538","ios":"levelo://app?vid=65f214b2-3544-432b-8290-9980fd78b538"},"vehicle_type_id":"4","last_reported":1703275638,"current_range_meters":19200,"station_id":"ce4bh692rcd13ifvqe90","pricing_plan_id":"free"},{"bike_id":"f275a310-a3cb-4e13-b125-2fe37a086358","system_id":"levelo_inurba_marseille","lat":43.290327,"lon":5.375711,"is_reserved":false,"is_disabled":false,"rental_uris":{"android":"levelo://app?vid=f275a310-a3cb-4e13-b125-2fe37a086358","ios":"levelo://app?vid=f275a310-a3cb-4e13-b125-2fe37a086358"},"vehicle_type_id":"4","last_reported":1703275638,"current_range_meters":14800,"station_id":"ce4bh692rcd13ifvqe90","pricing_plan_id":"free"},{"bike_id":"2181b0c2-3840-4280-a2fc-7a3d7ae35c06","system_id":"levelo_inurba_marseille","lat":43.294153,"lon":5.386305,"is_reserved":false,"is_disabled":false,"rental_uris":{"android":"levelo://app?vid=2181b0c2-3840-4280-a2fc-7a3d7ae35c06","ios":"levelo://app?vid=2181b0c2-3840-4280-a2fc-7a3d7ae35c06"},"vehicle_type_id":"4","last_reported":1703275638,"current_range_meters":22400,"station_id":"ce4bh2h2rcd13ifvqdh0","pricing_plan_id":"free"},{"bike_id":"c8fd0fcb-c393-42b9-867d-97643c1473c2","system_id":"levelo_inurba_marseille","lat":43.289184,"lon":5.366408,"is_reserved":false,"is_disabled":false,"rental_uris":{"android":"levelo://app?vid=c8fd0fcb-c393-42b9-867d-97643c1473c2","ios":"levelo://app?vid=c8fd0fcb-c393-42b9-867d-97643c1473c2"},"vehicle_type_id":"4","last_reported":1703275638,"current_range_meters":14000,"station_id":"ce4bhap2rcd13ifvqek0","pricing_plan_id":"free"},{"bike_id":"a8ee3438-3f49-448a-9ad4-96b995db011d","system_id":"levelo_inurba_marseille","lat":43.289184,"lon":5.366408,"is_reserved":false,"is_disabled":false,"rental_uris":{"android":"levelo://app?vid=a8ee3438-3f49-448a-9ad4-96b995db011d","ios":"levelo://app?vid=a8ee3438-3f49-448a-9ad4-96b995db011d"},"vehicle_type_id":"4","last_reported":1703275638,"current_range_meters":12400,"station_id":"ce4bhap2rcd13ifvqek0","pricing_plan_id":"free"},{"bike_id":"699fb274-e86a-4282-9628-817969df5af4","system_id":"levelo_inurba_marseille","lat":43.292642,"lon":5.384254,"is_reserved":false,"is_disabled":false,"rental_uris":{"android":"levelo://app?vid=699fb274-e86a-4282-9628-817969df5af4","ios":"levelo://app?vid=699fb274-e86a-4282-9628-817969df5af4"},"vehicle_type_id":"4","last_reported":1703275638,"current_range_meters":6000,"station_id":"ce4bh692rcd13ifvqea0","pricing_plan_id":"free"},{"bike_id":"add3e967-7825-408a-84cb-efe74d5e32bc","system_id":"levelo_inurba_marseille","lat":43.292644,"lon":5.384257,"is_reserved":false,"is_disabled":false,"rental_uris":{"android":"levelo://app?vid=add3e967-7825-408a-84cb-efe74d5e32bc","ios":"levelo://app?vid=add3e967-7825-408a-84cb-efe74d5e32bc"},"vehicle_type_id":"4","last_reported":1703275638,"current_range_meters":20000,"station_id":"ce4bh692rcd13ifvqea0","pricing_plan_id":"free"},{"bike_id":"0774dd71-6226-419d-bf37-6c3f270322f5","system_id":"levelo_inurba_marseille","lat":43.292644,"lon":5.384257,"is_reserved":false,"is_disabled":false,"rental_uris":{"android":"levelo://app?vid=0774dd71-6226-419d-bf37-6c3f270322f5","ios":"levelo://app?vid=0774dd71-6226-419d-bf37-6c3f270322f5"},"vehicle_type_id":"4","last_reported":1703275638,"current_range_meters":16800,"station_id":"ce4bh692rcd13ifvqea0","pricing_plan_id":"free"},{"bike_id":"ad49f3bb-9ac6-424a-b167-cee7bb3212d4","system_id":"levelo_inurba_marseille","lat":43.292644,"lon":5.384257,"is_reserved":false,"is_disabled":false,"rental_uris":{"android":"levelo://app?vid=ad49f3bb-9ac6-424a-b167-cee7bb3212d4","ios":"levelo://app?vid=ad49f3bb-9ac6-424a-b167-cee7bb3212d4"},"vehicle_type_id":"4","last_reported":1703275638,"current_range_meters":29600,"station_id":"ce4bh692rcd13ifvqea0","pricing_plan_id":"free"},{"bike_id":"31d9408e-66ee-45b0-b457-b27a1d67c41a","system_id":"levelo_inurba_marseille","lat":43.292642,"lon":5.384254,"is_reserved":false,"is_disabled":false,"rental_uris":{"android":"levelo://app?vid=31d9408e-66ee-45b0-b457-b27a1d67c41a","ios":"levelo://app?vid=31d9408e-66ee-45b0-b457-b27a1d67c41a"},"vehicle_type_id":"4","last_reported":1703275638,"current_range_meters":800,"station_id":"ce4bh692rcd13ifvqea0","pricing_plan_id":"free"},{"bike_id":"e7b2e387-a1f8-49a8-8294-eef9a87a98d9","system_id":"levelo_inurba_marseille","lat":43.294162,"lon":5.386292,"is_reserved":false,"is_disabled":false,"rental_uris":{"android":"levelo://app?vid=e7b2e387-a1f8-49a8-8294-eef9a87a98d9","ios":"levelo://app?vid=e7b2e387-a1f8-49a8-8294-eef9a87a98d9"},"vehicle_type_id":"4","last_reported":1703275638,"current_range_meters":25200,"station_id":"ce4bh2h2rcd13ifvqdh0","pricing_plan_id":"free"},{"bike_id":"bb7b116d-3237-47af-be86-a72d107efc27","system_id":"levelo_inurba_marseille","lat":43.29793,"lon":5.39335,"is_reserved":false,"is_disabled":false,"rental_uris":{"android":"levelo://app?vid=bb7b116d-3237-47af-be86-a72d107efc27","ios":"levelo://app?vid=bb7b116d-3237-47af-be86-a72d107efc27"},"vehicle_type_id":"4","last_reported":1703275638,"current_range_meters":13200,"station_id":"chh1huq6cuj3fo74tm60","pricing_plan_id":"free"},{"bike_id":"28bd0799-2d1f-44f9-bb5d-3b37f12e8dd4","system_id":"levelo_inurba_marseille","lat":43.297827,"lon":5.393317,"is_reserved":false,"is_disabled":false,"rental_uris":{"android":"levelo://app?vid=28bd0799-2d1f-44f9-bb5d-3b37f12e8dd4","ios":"levelo://app?vid=28bd0799-2d1f-44f9-bb5d-3b37f12e8dd4"},"vehicle_type_id":"4","last_reported":1703275638,"current_range_meters":0,"station_id":"chh1huq6cuj3fo74tm60","pricing_plan_id":"free"},{"bike_id":"d3456a4e-a9e0-4fc7-b3df-0515be5ca2a6","system_id":"levelo_inurba_marseille","lat":43.29779,"lon":5.39335,"is_reserved":false,"is_disabled":false,"rental_uris":{"android":"levelo://app?vid=d3456a4e-a9e0-4fc7-b3df-0515be5ca2a6","ios":"levelo://app?vid=d3456a4e-a9e0-4fc7-b3df-0515be5ca2a6"},"vehicle_type_id":"4","last_reported":1703275638,"current_range_meters":0,"station_id":"chh1huq6cuj3fo74tm60","pricing_plan_id":"free"},{"bike_id":"f55f0520-6a6f-421a-8f9f-ad6437be90db","system_id":"levelo_inurba_marseille","lat":43.29782,"lon":5.39339,"is_reserved":false,"is_disabled":false,"rental_uris":{"android":"levelo://app?vid=f55f0520-6a6f-421a-8f9f-ad6437be90db","ios":"levelo://app?vid=f55f0520-6a6f-421a-8f9f-ad6437be90db"},"vehicle_type_id":"4","last_reported":1703275638,"current_range_meters":9200,"station_id":"chh1huq6cuj3fo74tm60","pricing_plan_id":"free"},{"bike_id":"34e339cb-cec2-4213-a0dc-a9babc90b632","system_id":"levelo_inurba_marseille","lat":43.297815,"lon":5.393548,"is_reserved":false,"is_disabled":false,"rental_uris":{"android":"levelo://app?vid=34e339cb-cec2-4213-a0dc-a9babc90b632","ios":"levelo://app?vid=34e339cb-cec2-4213-a0dc-a9babc90b632"},"vehicle_type_id":"4","last_reported":1703275638,"current_range_meters":24000,"station_id":"chh1huq6cuj3fo74tm60","pricing_plan_id":"free"},{"bike_id":"9650fdd3-2bba-4c7b-8d7d-9c89c9bf7bcc","system_id":"levelo_inurba_marseille","lat":43.297815,"lon":5.393548,"is_reserved":false,"is_disabled":false,"rental_uris":{"android":"levelo://app?vid=9650fdd3-2bba-4c7b-8d7d-9c89c9bf7bcc","ios":"levelo://app?vid=9650fdd3-2bba-4c7b-8d7d-9c89c9bf7bcc"},"vehicle_type_id":"4","last_reported":1703275638,"current_range_meters":25200,"station_id":"chh1huq6cuj3fo74tm60","pricing_plan_id":"free"},{"bike_id":"dfede933-d090-4959-9ccc-866122971680","system_id":"levelo_inurba_marseille","lat":43.295169,"lon":5.390426,"is_reserved":false,"is_disabled":false,"rental_uris":{"android":"levelo://app?vid=dfede933-d090-4959-9ccc-866122971680","ios":"levelo://app?vid=dfede933-d090-4959-9ccc-866122971680"},"vehicle_type_id":"4","last_reported":1703275638,"current_range_meters":23200,"station_id":"ce4bh3p2rcd13ifvqdp0","pricing_plan_id":"free"},{"bike_id":"380b5fb8-f35b-4de6-ab77-4298ae0cfb0e","system_id":"levelo_inurba_marseille","lat":43.297815,"lon":5.393548,"is_reserved":false,"is_disabled":false,"rental_uris":{"android":"levelo://app?vid=380b5fb8-f35b-4de6-ab77-4298ae0cfb0e","ios":"levelo://app?vid=380b5fb8-f35b-4de6-ab77-4298ae0cfb0e"},"vehicle_type_id":"4","last_reported":1703275638,"current_range_meters":6800,"station_id":"chh1huq6cuj3fo74tm60","pricing_plan_id":"free"},{"bike_id":"3322c93c-5c46-43e9-bc3f-13d5afb29a5f","system_id":"levelo_inurba_marseille","lat":43.28856,"lon":5.358371,"is_reserved":false,"is_disabled":false,"rental_uris":{"android":"levelo://app?vid=3322c93c-5c46-43e9-bc3f-13d5afb29a5f","ios":"levelo://app?vid=3322c93c-5c46-43e9-bc3f-13d5afb29a5f"},"vehicle_type_id":"4","last_reported":1703275638,"current_range_meters":2800,"station_id":"ce4bhb12rcd13ifvqem0","pricing_plan_id":"free"},{"bike_id":"aaf5e7f0-8679-4467-89d0-41db2541f8e6","system_id":"levelo_inurba_marseille","lat":43.290094,"lon":5.381264,"is_reserved":false,"is_disabled":false,"rental_uris":{"android":"levelo://app?vid=aaf5e7f0-8679-4467-89d0-41db2541f8e6","ios":"levelo://app?vid=aaf5e7f0-8679-4467-89d0-41db2541f8e6"},"vehicle_type_id":"4","last_reported":1703275638,"current_range_meters":20800,"station_id":"ce4bh4p2rcd13ifvqe1g","pricing_plan_id":"free"},{"bike_id":"809c0ed7-c360-4679-96e7-b80ae5a08475","system_id":"levelo_inurba_marseille","lat":43.28856,"lon":5.358371,"is_reserved":false,"is_disabled":false,"rental_uris":{"android":"levelo://app?vid=809c0ed7-c360-4679-96e7-b80ae5a08475","ios":"levelo://app?vid=809c0ed7-c360-4679-96e7-b80ae5a08475"},"vehicle_type_id":"4","last_reported":1703275638,"current_range_meters":25200,"station_id":"ce4bhb12rcd13ifvqem0","pricing_plan_id":"free"},{"bike_id":"7fb09859-4acb-434f-98fb-0d9eee341993","system_id":"levelo_inurba_marseille","lat":43.28856,"lon":5.358371,"is_reserved":false,"is_disabled":false,"rental_uris":{"android":"levelo://app?vid=7fb09859-4acb-434f-98fb-0d9eee341993","ios":"levelo://app?vid=7fb09859-4acb-434f-98fb-0d9eee341993"},"vehicle_type_id":"4","last_reported":1703275638,"current_range_meters":19600,"station_id":"ce4bhb12rcd13ifvqem0","pricing_plan_id":"free"},{"bike_id":"f61deeec-d31b-4349-b677-8bd5c5176c68","system_id":"levelo_inurba_marseille","lat":43.28856,"lon":5.358371,"is_reserved":false,"is_disabled":false,"rental_uris":{"android":"levelo://app?vid=f61deeec-d31b-4349-b677-8bd5c5176c68","ios":"levelo://app?vid=f61deeec-d31b-4349-b677-8bd5c5176c68"},"vehicle_type_id":"4","last_reported":1703275638,"current_range_meters":0,"station_id":"ce4bhb12rcd13ifvqem0","pricing_plan_id":"free"},{"bike_id":"7c777684-c600-4edf-a352-1e5c1051b77f","system_id":"levelo_inurba_marseille","lat":43.309371,"lon":5.401449,"is_reserved":false,"is_disabled":false,"rental_uris":{"android":"levelo://app?vid=7c777684-c600-4edf-a352-1e5c1051b77f","ios":"levelo://app?vid=7c777684-c600-4edf-a352-1e5c1051b77f"},"vehicle_type_id":"4","last_reported":1703275638,"current_range_meters":14800,"station_id":"ce4bgvp2rcd13ifvqct0","pricing_plan_id":"free"},{"bike_id":"aa2bb981-e08f-448f-a65e-a15a6461a4f7","system_id":"levelo_inurba_marseille","lat":43.337567,"lon":5.374355,"is_reserved":false,"is_disabled":false,"rental_uris":{"android":"levelo://app?vid=aa2bb981-e08f-448f-a65e-a15a6461a4f7","ios":"levelo://app?vid=aa2bb981-e08f-448f-a65e-a15a6461a4f7"},"vehicle_type_id":"4","last_reported":1703275638,"current_range_meters":25600,"station_id":"ce4rr2p2rcd13i802rgg","pricing_plan_id":"free"},{"bike_id":"8516412d-ed1b-43c4-bd1e-951e035510a0","system_id":"levelo_inurba_marseille","lat":43.337589,"lon":5.374301,"is_reserved":false,"is_disabled":false,"rental_uris":{"android":"levelo://app?vid=8516412d-ed1b-43c4-bd1e-951e035510a0","ios":"levelo://app?vid=8516412d-ed1b-43c4-bd1e-951e035510a0"},"vehicle_type_id":"4","last_reported":1703275638,"current_range_meters":10400,"station_id":"ce4rr2p2rcd13i802rgg","pricing_plan_id":"free"},{"bike_id":"e3b05bb2-3bf6-4e93-a935-8d00a3036fa0","system_id":"levelo_inurba_marseille","lat":43.337595,"lon":5.374415,"is_reserved":false,"is_disabled":false,"rental_uris":{"android":"levelo://app?vid=e3b05bb2-3bf6-4e93-a935-8d00a3036fa0","ios":"levelo://app?vid=e3b05bb2-3bf6-4e93-a935-8d00a3036fa0"},"vehicle_type_id":"4","last_reported":1703275638,"current_range_meters":20400,"station_id":"ce4rr2p2rcd13i802rgg","pricing_plan_id":"free"},{"bike_id":"af782aaf-55ff-4275-9a35-1eaf63c3c50f","system_id":"levelo_inurba_marseille","lat":43.337631,"lon":5.374354,"is_reserved":false,"is_disabled":false,"rental_uris":{"android":"levelo://app?vid=af782aaf-55ff-4275-9a35-1eaf63c3c50f","ios":"levelo://app?vid=af782aaf-55ff-4275-9a35-1eaf63c3c50f"},"vehicle_type_id":"4","last_reported":1703275638,"current_range_meters":28400,"station_id":"ce4rr2p2rcd13i802rgg","pricing_plan_id":"free"},{"bike_id":"5ead1464-77c6-4df9-9688-a6faea1fbd31","system_id":"levelo_inurba_marseille","lat":43.30642,"lon":5.401031,"is_reserved":false,"is_disabled":false,"rental_uris":{"android":"levelo://app?vid=5ead1464-77c6-4df9-9688-a6faea1fbd31","ios":"levelo://app?vid=5ead1464-77c6-4df9-9688-a6faea1fbd31"},"vehicle_type_id":"4","last_reported":1703275638,"current_range_meters":8800,"station_id":"ce4bh112rcd13ifvqda0","pricing_plan_id":"free"},{"bike_id":"48361e8a-6fad-43b0-9b77-4696a50c3aea","system_id":"levelo_inurba_marseille","lat":43.337642,"lon":5.374339,"is_reserved":false,"is_disabled":false,"rental_uris":{"android":"levelo://app?vid=48361e8a-6fad-43b0-9b77-4696a50c3aea","ios":"levelo://app?vid=48361e8a-6fad-43b0-9b77-4696a50c3aea"},"vehicle_type_id":"4","last_reported":1703275638,"current_range_meters":24000,"station_id":"ce4rr2p2rcd13i802rgg","pricing_plan_id":"free"},{"bike_id":"b9c8fefe-fcf2-4e1c-95c9-c0ffed42221d","system_id":"levelo_inurba_marseille","lat":43.337684,"lon":5.374241,"is_reserved":false,"is_disabled":false,"rental_uris":{"android":"levelo://app?vid=b9c8fefe-fcf2-4e1c-95c9-c0ffed42221d","ios":"levelo://app?vid=b9c8fefe-fcf2-4e1c-95c9-c0ffed42221d"},"vehicle_type_id":"4","last_reported":1703275638,"current_range_meters":13200,"station_id":"ce4rr2p2rcd13i802rgg","pricing_plan_id":"free"},{"bike_id":"db5ccab8-7a8a-4751-a062-0c2ba2bfc08b","system_id":"levelo_inurba_marseille","lat":43.337674,"lon":5.374331,"is_reserved":false,"is_disabled":false,"rental_uris":{"android":"levelo://app?vid=db5ccab8-7a8a-4751-a062-0c2ba2bfc08b","ios":"levelo://app?vid=db5ccab8-7a8a-4751-a062-0c2ba2bfc08b"},"vehicle_type_id":"4","last_reported":1703275638,"current_range_meters":16800,"station_id":"","pricing_plan_id":"free"},{"bike_id":"33ce2eef-8fb6-430f-93e8-2d6c94575d8c","system_id":"levelo_inurba_marseille","lat":43.30642,"lon":5.401031,"is_reserved":false,"is_disabled":false,"rental_uris":{"android":"levelo://app?vid=33ce2eef-8fb6-430f-93e8-2d6c94575d8c","ios":"levelo://app?vid=33ce2eef-8fb6-430f-93e8-2d6c94575d8c"},"vehicle_type_id":"4","last_reported":1703275638,"current_range_meters":9200,"station_id":"ce4bh112rcd13ifvqda0","pricing_plan_id":"free"},{"bike_id":"5f6df711-5c47-41c8-b2e0-ca21db0773eb","system_id":"levelo_inurba_marseille","lat":43.337725,"lon":5.374348,"is_reserved":false,"is_disabled":false,"rental_uris":{"android":"levelo://app?vid=5f6df711-5c47-41c8-b2e0-ca21db0773eb","ios":"levelo://app?vid=5f6df711-5c47-41c8-b2e0-ca21db0773eb"},"vehicle_type_id":"4","last_reported":1703275638,"current_range_meters":22800,"station_id":"","pricing_plan_id":"free"},{"bike_id":"9ffd9831-18da-4471-8bbe-9e909aaccf63","system_id":"levelo_inurba_marseille","lat":43.30642,"lon":5.401031,"is_reserved":false,"is_disabled":false,"rental_uris":{"android":"levelo://app?vid=9ffd9831-18da-4471-8bbe-9e909aaccf63","ios":"levelo://app?vid=9ffd9831-18da-4471-8bbe-9e909aaccf63"},"vehicle_type_id":"4","last_reported":1703275638,"current_range_meters":19200,"station_id":"ce4bh112rcd13ifvqda0","pricing_plan_id":"free"},{"bike_id":"aee6f719-63f3-4a9e-8250-9bade352e225","system_id":"levelo_inurba_marseille","lat":43.306412,"lon":5.401035,"is_reserved":false,"is_disabled":false,"rental_uris":{"android":"levelo://app?vid=aee6f719-63f3-4a9e-8250-9bade352e225","ios":"levelo://app?vid=aee6f719-63f3-4a9e-8250-9bade352e225"},"vehicle_type_id":"4","last_reported":1703275638,"current_range_meters":10000,"station_id":"ce4bh112rcd13ifvqda0","pricing_plan_id":"free"},{"bike_id":"4dfd2fe6-d396-45fe-a9f3-2cf80069454a","system_id":"levelo_inurba_marseille","lat":43.337798,"lon":5.374328,"is_reserved":false,"is_disabled":false,"rental_uris":{"android":"levelo://app?vid=4dfd2fe6-d396-45fe-a9f3-2cf80069454a","ios":"levelo://app?vid=4dfd2fe6-d396-45fe-a9f3-2cf80069454a"},"vehicle_type_id":"4","last_reported":1703275638,"current_range_meters":25600,"station_id":"ce4rr2p2rcd13i802rgg","pricing_plan_id":"free"},{"bike_id":"8ed93715-ec1e-4703-acb2-7183fed943a4","system_id":"levelo_inurba_marseille","lat":43.337851,"lon":5.374409,"is_reserved":false,"is_disabled":false,"rental_uris":{"android":"levelo://app?vid=8ed93715-ec1e-4703-acb2-7183fed943a4","ios":"levelo://app?vid=8ed93715-ec1e-4703-acb2-7183fed943a4"},"vehicle_type_id":"4","last_reported":1703275638,"current_range_meters":22000,"station_id":"ce4rr2p2rcd13i802rgg","pricing_plan_id":"free"},{"bike_id":"34ef5dd4-1c17-4737-883d-076a64772ac2","system_id":"levelo_inurba_marseille","lat":43.298681,"lon":5.397225,"is_reserved":false,"is_disabled":false,"rental_uris":{"android":"levelo://app?vid=34ef5dd4-1c17-4737-883d-076a64772ac2","ios":"levelo://app?vid=34ef5dd4-1c17-4737-883d-076a64772ac2"},"vehicle_type_id":"4","last_reported":1703275638,"current_range_meters":20800,"station_id":"ce4bh0h2rcd13ifvqd50","pricing_plan_id":"free"},{"bike_id":"f7656d93-9c5a-4918-9ac1-855cabca9f04","system_id":"levelo_inurba_marseille","lat":43.298758,"lon":5.397395,"is_reserved":false,"is_disabled":false,"rental_uris":{"android":"levelo://app?vid=f7656d93-9c5a-4918-9ac1-855cabca9f04","ios":"levelo://app?vid=f7656d93-9c5a-4918-9ac1-855cabca9f04"},"vehicle_type_id":"4","last_reported":1703275638,"current_range_meters":0,"station_id":"ce4bh0h2rcd13ifvqd50","pricing_plan_id":"free"},{"bike_id":"61a1dc70-bc21-4dea-b1e1-cddb9f224ee9","system_id":"levelo_inurba_marseille","lat":43.298644,"lon":5.397317,"is_reserved":false,"is_disabled":false,"rental_uris":{"android":"levelo://app?vid=61a1dc70-bc21-4dea-b1e1-cddb9f224ee9","ios":"levelo://app?vid=61a1dc70-bc21-4dea-b1e1-cddb9f224ee9"},"vehicle_type_id":"4","last_reported":1703275638,"current_range_meters":0,"station_id":"ce4bh0h2rcd13ifvqd50","pricing_plan_id":"free"},{"bike_id":"98e48ef2-398c-425e-851f-0b6ac0708f0c","system_id":"levelo_inurba_marseille","lat":43.286961,"lon":5.373785,"is_reserved":false,"is_disabled":false,"rental_uris":{"android":"levelo://app?vid=98e48ef2-398c-425e-851f-0b6ac0708f0c","ios":"levelo://app?vid=98e48ef2-398c-425e-851f-0b6ac0708f0c"},"vehicle_type_id":"4","last_reported":1703275638,"current_range_meters":24000,"station_id":"ce4bh3p2rcd13ifvqdq0","pricing_plan_id":"free"},{"bike_id":"a6efb37b-2ef6-49dc-872c-d915832fefb8","system_id":"levelo_inurba_marseille","lat":43.286961,"lon":5.373785,"is_reserved":false,"is_disabled":false,"rental_uris":{"android":"levelo://app?vid=a6efb37b-2ef6-49dc-872c-d915832fefb8","ios":"levelo://app?vid=a6efb37b-2ef6-49dc-872c-d915832fefb8"},"vehicle_type_id":"4","last_reported":1703275638,"current_range_meters":27200,"station_id":"ce4bh3p2rcd13ifvqdq0","pricing_plan_id":"free"},{"bike_id":"180aabb0-70d8-4d51-9c1b-29d82762c3c9","system_id":"levelo_inurba_marseille","lat":43.286961,"lon":5.373785,"is_reserved":false,"is_disabled":false,"rental_uris":{"android":"levelo://app?vid=180aabb0-70d8-4d51-9c1b-29d82762c3c9","ios":"levelo://app?vid=180aabb0-70d8-4d51-9c1b-29d82762c3c9"},"vehicle_type_id":"4","last_reported":1703275638,"current_range_meters":6800,"station_id":"ce4bh3p2rcd13ifvqdq0","pricing_plan_id":"free"},{"bike_id":"6b708ee1-be1f-4d06-b1c0-2d4a665f85cf","system_id":"levelo_inurba_marseille","lat":43.295196,"lon":5.39397,"is_reserved":false,"is_disabled":false,"rental_uris":{"android":"levelo://app?vid=6b708ee1-be1f-4d06-b1c0-2d4a665f85cf","ios":"levelo://app?vid=6b708ee1-be1f-4d06-b1c0-2d4a665f85cf"},"vehicle_type_id":"4","last_reported":1703275638,"current_range_meters":12400,"station_id":"ce4bh292rcd13ifvqdf0","pricing_plan_id":"free"},{"bike_id":"95558da8-ebda-4694-adf5-85fc69456ec6","system_id":"levelo_inurba_marseille","lat":43.302759,"lon":5.400793,"is_reserved":false,"is_disabled":false,"rental_uris":{"android":"levelo://app?vid=95558da8-ebda-4694-adf5-85fc69456ec6","ios":"levelo://app?vid=95558da8-ebda-4694-adf5-85fc69456ec6"},"vehicle_type_id":"4","last_reported":1703275638,"current_range_meters":800,"station_id":"ce4bgvh2rcd13ifvqcs0","pricing_plan_id":"free"},{"bike_id":"592c022a-661a-4c49-8f29-ccaede77411c","system_id":"levelo_inurba_marseille","lat":43.302759,"lon":5.400793,"is_reserved":false,"is_disabled":false,"rental_uris":{"android":"levelo://app?vid=592c022a-661a-4c49-8f29-ccaede77411c","ios":"levelo://app?vid=592c022a-661a-4c49-8f29-ccaede77411c"},"vehicle_type_id":"4","last_reported":1703275638,"current_range_meters":26800,"station_id":"ce4bgvh2rcd13ifvqcs0","pricing_plan_id":"free"},{"bike_id":"5249aa25-de7c-4173-b173-616189f3bbb1","system_id":"levelo_inurba_marseille","lat":43.290336,"lon":5.386425,"is_reserved":false,"is_disabled":false,"rental_uris":{"android":"levelo://app?vid=5249aa25-de7c-4173-b173-616189f3bbb1","ios":"levelo://app?vid=5249aa25-de7c-4173-b173-616189f3bbb1"},"vehicle_type_id":"4","last_reported":1703275638,"current_range_meters":0,"station_id":"ce4bh4p2rcd13ifvqe0g","pricing_plan_id":"free"},{"bike_id":"3123620a-89a4-4b60-8161-d87cd8cc7a7e","system_id":"levelo_inurba_marseille","lat":43.3025,"lon":5.40069,"is_reserved":false,"is_disabled":false,"rental_uris":{"android":"levelo://app?vid=3123620a-89a4-4b60-8161-d87cd8cc7a7e","ios":"levelo://app?vid=3123620a-89a4-4b60-8161-d87cd8cc7a7e"},"vehicle_type_id":"4","last_reported":1703275638,"current_range_meters":1200,"station_id":"ce4bgvh2rcd13ifvqcs0","pricing_plan_id":"free"},{"bike_id":"4e71b08e-f33a-49d9-ba8d-698ce8ffbba5","system_id":"levelo_inurba_marseille","lat":43.302759,"lon":5.400793,"is_reserved":false,"is_disabled":false,"rental_uris":{"android":"levelo://app?vid=4e71b08e-f33a-49d9-ba8d-698ce8ffbba5","ios":"levelo://app?vid=4e71b08e-f33a-49d9-ba8d-698ce8ffbba5"},"vehicle_type_id":"4","last_reported":1703275638,"current_range_meters":31200,"station_id":"ce4bgvh2rcd13ifvqcs0","pricing_plan_id":"free"},{"bike_id":"48ddc2ca-5e8b-4715-913f-1f808556fb3a","system_id":"levelo_inurba_marseille","lat":43.286039,"lon":5.370679,"is_reserved":false,"is_disabled":false,"rental_uris":{"android":"levelo://app?vid=48ddc2ca-5e8b-4715-913f-1f808556fb3a","ios":"levelo://app?vid=48ddc2ca-5e8b-4715-913f-1f808556fb3a"},"vehicle_type_id":"4","last_reported":1703275638,"current_range_meters":18400,"station_id":"ce4bht12rcd13ifvqi60","pricing_plan_id":"free"},{"bike_id":"25f8d132-9476-482a-ba1f-953a50c4ca02","system_id":"levelo_inurba_marseille","lat":43.291994,"lon":5.392907,"is_reserved":false,"is_disabled":false,"rental_uris":{"android":"levelo://app?vid=25f8d132-9476-482a-ba1f-953a50c4ca02","ios":"levelo://app?vid=25f8d132-9476-482a-ba1f-953a50c4ca02"},"vehicle_type_id":"4","last_reported":1703275638,"current_range_meters":9600,"station_id":"ce4bh192rcd13ifvqdd0","pricing_plan_id":"free"},{"bike_id":"e2adfa7c-882e-48a1-9ee4-b36e6186ebbf","system_id":"levelo_inurba_marseille","lat":43.330912,"lon":5.396935,"is_reserved":false,"is_disabled":false,"rental_uris":{"android":"levelo://app?vid=e2adfa7c-882e-48a1-9ee4-b36e6186ebbf","ios":"levelo://app?vid=e2adfa7c-882e-48a1-9ee4-b36e6186ebbf"},"vehicle_type_id":"4","last_reported":1703275638,"current_range_meters":17200,"station_id":"","pricing_plan_id":"free"},{"bike_id":"6681f091-8cae-40db-82be-2afedc79afec","system_id":"levelo_inurba_marseille","lat":43.29787,"lon":5.400698,"is_reserved":false,"is_disabled":false,"rental_uris":{"android":"levelo://app?vid=6681f091-8cae-40db-82be-2afedc79afec","ios":"levelo://app?vid=6681f091-8cae-40db-82be-2afedc79afec"},"vehicle_type_id":"4","last_reported":1703275638,"current_range_meters":4800,"station_id":"","pricing_plan_id":"free"},{"bike_id":"924533ae-2896-4d73-b37a-2936fb14ac9e","system_id":"levelo_inurba_marseille","lat":43.285856,"lon":5.350771,"is_reserved":false,"is_disabled":false,"rental_uris":{"android":"levelo://app?vid=924533ae-2896-4d73-b37a-2936fb14ac9e","ios":"levelo://app?vid=924533ae-2896-4d73-b37a-2936fb14ac9e"},"vehicle_type_id":"4","last_reported":1703275638,"current_range_meters":22000,"station_id":"ce4bhch2rcd13ifvqeug","pricing_plan_id":"free"},{"bike_id":"332c11d5-f538-4df8-8bc3-ad949227abe2","system_id":"levelo_inurba_marseille","lat":43.283998,"lon":5.375062,"is_reserved":false,"is_disabled":false,"rental_uris":{"android":"levelo://app?vid=332c11d5-f538-4df8-8bc3-ad949227abe2","ios":"levelo://app?vid=332c11d5-f538-4df8-8bc3-ad949227abe2"},"vehicle_type_id":"4","last_reported":1703275638,"current_range_meters":14800,"station_id":"ce4bh412rcd13ifvqds0","pricing_plan_id":"free"},{"bike_id":"ac64e572-9398-43ec-97c7-65ba37c2aa0f","system_id":"levelo_inurba_marseille","lat":43.295713,"lon":5.399639,"is_reserved":false,"is_disabled":false,"rental_uris":{"android":"levelo://app?vid=ac64e572-9398-43ec-97c7-65ba37c2aa0f","ios":"levelo://app?vid=ac64e572-9398-43ec-97c7-65ba37c2aa0f"},"vehicle_type_id":"4","last_reported":1703275638,"current_range_meters":14800,"station_id":"ce4bh312rcd13ifvqdj0","pricing_plan_id":"free"},{"bike_id":"95e00391-2e5e-4f79-96e7-df134e8a9384","system_id":"levelo_inurba_marseille","lat":43.295713,"lon":5.399639,"is_reserved":false,"is_disabled":false,"rental_uris":{"android":"levelo://app?vid=95e00391-2e5e-4f79-96e7-df134e8a9384","ios":"levelo://app?vid=95e00391-2e5e-4f79-96e7-df134e8a9384"},"vehicle_type_id":"4","last_reported":1703275638,"current_range_meters":9600,"station_id":"ce4bh312rcd13ifvqdj0","pricing_plan_id":"free"},{"bike_id":"aa7362a4-f56c-4e32-be08-7bea6c6e7c6a","system_id":"levelo_inurba_marseille","lat":43.28671,"lon":5.38678,"is_reserved":false,"is_disabled":false,"rental_uris":{"android":"levelo://app?vid=aa7362a4-f56c-4e32-be08-7bea6c6e7c6a","ios":"levelo://app?vid=aa7362a4-f56c-4e32-be08-7bea6c6e7c6a"},"vehicle_type_id":"4","last_reported":1703275638,"current_range_meters":7200,"station_id":"ce4bh492rcd13ifvqdug","pricing_plan_id":"free"},{"bike_id":"78abf6c9-eb72-4711-8b4c-10fe69dc5d8c","system_id":"levelo_inurba_marseille","lat":43.286595,"lon":5.386795,"is_reserved":false,"is_disabled":false,"rental_uris":{"android":"levelo://app?vid=78abf6c9-eb72-4711-8b4c-10fe69dc5d8c","ios":"levelo://app?vid=78abf6c9-eb72-4711-8b4c-10fe69dc5d8c"},"vehicle_type_id":"4","last_reported":1703275638,"current_range_meters":25600,"station_id":"ce4bh492rcd13ifvqdug","pricing_plan_id":"free"},{"bike_id":"3b7e3ec0-988e-4aeb-bcf3-3017c628b5d3","system_id":"levelo_inurba_marseille","lat":43.33717,"lon":5.391857,"is_reserved":false,"is_disabled":false,"rental_uris":{"android":"levelo://app?vid=3b7e3ec0-988e-4aeb-bcf3-3017c628b5d3","ios":"levelo://app?vid=3b7e3ec0-988e-4aeb-bcf3-3017c628b5d3"},"vehicle_type_id":"4","last_reported":1703275638,"current_range_meters":30000,"station_id":"ce4bhr92rcd13ifvqhsg","pricing_plan_id":"free"},{"bike_id":"b7c71217-6fce-490c-9bd4-073ff8143718","system_id":"levelo_inurba_marseille","lat":43.33717,"lon":5.391857,"is_reserved":false,"is_disabled":false,"rental_uris":{"android":"levelo://app?vid=b7c71217-6fce-490c-9bd4-073ff8143718","ios":"levelo://app?vid=b7c71217-6fce-490c-9bd4-073ff8143718"},"vehicle_type_id":"4","last_reported":1703275638,"current_range_meters":30400,"station_id":"ce4bhr92rcd13ifvqhsg","pricing_plan_id":"free"},{"bike_id":"b306bef3-61ce-4097-b249-eebc7da08ee6","system_id":"levelo_inurba_marseille","lat":43.323464,"lon":5.406297,"is_reserved":false,"is_disabled":false,"rental_uris":{"android":"levelo://app?vid=b306bef3-61ce-4097-b249-eebc7da08ee6","ios":"levelo://app?vid=b306bef3-61ce-4097-b249-eebc7da08ee6"},"vehicle_type_id":"4","last_reported":1703275638,"current_range_meters":27200,"station_id":"ce4bhq92rcd13ifvqhjg","pricing_plan_id":"free"},{"bike_id":"61167f01-e056-4546-8e0f-61c19ce8f160","system_id":"levelo_inurba_marseille","lat":43.28479,"lon":5.38407,"is_reserved":false,"is_disabled":false,"rental_uris":{"android":"levelo://app?vid=61167f01-e056-4546-8e0f-61c19ce8f160","ios":"levelo://app?vid=61167f01-e056-4546-8e0f-61c19ce8f160"},"vehicle_type_id":"4","last_reported":1703275638,"current_range_meters":0,"station_id":"ce4bh512rcd13ifvqe3g","pricing_plan_id":"free"},{"bike_id":"da77c9d5-a008-4d49-bab4-014a8af2a999","system_id":"levelo_inurba_marseille","lat":43.28472,"lon":5.38409,"is_reserved":false,"is_disabled":false,"rental_uris":{"android":"levelo://app?vid=da77c9d5-a008-4d49-bab4-014a8af2a999","ios":"levelo://app?vid=da77c9d5-a008-4d49-bab4-014a8af2a999"},"vehicle_type_id":"4","last_reported":1703275638,"current_range_meters":0,"station_id":"ce4bh512rcd13ifvqe3g","pricing_plan_id":"free"},{"bike_id":"d8ac22c3-c829-4cdd-adfc-7c5c0ec03fdb","system_id":"levelo_inurba_marseille","lat":43.28862,"lon":5.39303,"is_reserved":false,"is_disabled":false,"rental_uris":{"android":"levelo://app?vid=d8ac22c3-c829-4cdd-adfc-7c5c0ec03fdb","ios":"levelo://app?vid=d8ac22c3-c829-4cdd-adfc-7c5c0ec03fdb"},"vehicle_type_id":"4","last_reported":1703275638,"current_range_meters":10400,"station_id":"ce4bh2p2rcd13ifvqdi0","pricing_plan_id":"free"},{"bike_id":"2e82d07e-f875-461f-9eda-8a37602bdde6","system_id":"levelo_inurba_marseille","lat":43.297946,"lon":5.404063,"is_reserved":false,"is_disabled":false,"rental_uris":{"android":"levelo://app?vid=2e82d07e-f875-461f-9eda-8a37602bdde6","ios":"levelo://app?vid=2e82d07e-f875-461f-9eda-8a37602bdde6"},"vehicle_type_id":"4","last_reported":1703275638,"current_range_meters":8400,"station_id":"ce4bh112rcd13ifvqd90","pricing_plan_id":"free"},{"bike_id":"be8bbf5c-d83d-4a3f-b4a3-d2c596d20664","system_id":"levelo_inurba_marseille","lat":43.297946,"lon":5.404063,"is_reserved":false,"is_disabled":false,"rental_uris":{"android":"levelo://app?vid=be8bbf5c-d83d-4a3f-b4a3-d2c596d20664","ios":"levelo://app?vid=be8bbf5c-d83d-4a3f-b4a3-d2c596d20664"},"vehicle_type_id":"4","last_reported":1703275638,"current_range_meters":22000,"station_id":"ce4bh112rcd13ifvqd90","pricing_plan_id":"free"},{"bike_id":"a9151b7f-b392-4d6f-b106-4805dc2c222d","system_id":"levelo_inurba_marseille","lat":43.288501,"lon":5.393087,"is_reserved":false,"is_disabled":false,"rental_uris":{"android":"levelo://app?vid=a9151b7f-b392-4d6f-b106-4805dc2c222d","ios":"levelo://app?vid=a9151b7f-b392-4d6f-b106-4805dc2c222d"},"vehicle_type_id":"4","last_reported":1703275638,"current_range_meters":800,"station_id":"ce4bh2p2rcd13ifvqdi0","pricing_plan_id":"free"},{"bike_id":"e5145a44-688c-421a-9e99-b1d2f4d16973","system_id":"levelo_inurba_marseille","lat":43.29795,"lon":5.404086,"is_reserved":false,"is_disabled":false,"rental_uris":{"android":"levelo://app?vid=e5145a44-688c-421a-9e99-b1d2f4d16973","ios":"levelo://app?vid=e5145a44-688c-421a-9e99-b1d2f4d16973"},"vehicle_type_id":"4","last_reported":1703275638,"current_range_meters":27200,"station_id":"ce4bh112rcd13ifvqd90","pricing_plan_id":"free"},{"bike_id":"1dc67a5d-cea0-4286-9b69-d2c365c32665","system_id":"levelo_inurba_marseille","lat":43.288501,"lon":5.393087,"is_reserved":false,"is_disabled":false,"rental_uris":{"android":"levelo://app?vid=1dc67a5d-cea0-4286-9b69-d2c365c32665","ios":"levelo://app?vid=1dc67a5d-cea0-4286-9b69-d2c365c32665"},"vehicle_type_id":"4","last_reported":1703275638,"current_range_meters":22800,"station_id":"ce4bh2p2rcd13ifvqdi0","pricing_plan_id":"free"},{"bike_id":"e4d77704-cf8a-4866-a16c-ac5ebb4e7e14","system_id":"levelo_inurba_marseille","lat":43.288501,"lon":5.393087,"is_reserved":false,"is_disabled":false,"rental_uris":{"android":"levelo://app?vid=e4d77704-cf8a-4866-a16c-ac5ebb4e7e14","ios":"levelo://app?vid=e4d77704-cf8a-4866-a16c-ac5ebb4e7e14"},"vehicle_type_id":"4","last_reported":1703275638,"current_range_meters":2800,"station_id":"ce4bh2p2rcd13ifvqdi0","pricing_plan_id":"free"},{"bike_id":"1c315f12-51bf-4722-aa76-48e729c89656","system_id":"levelo_inurba_marseille","lat":43.288501,"lon":5.393087,"is_reserved":false,"is_disabled":false,"rental_uris":{"android":"levelo://app?vid=1c315f12-51bf-4722-aa76-48e729c89656","ios":"levelo://app?vid=1c315f12-51bf-4722-aa76-48e729c89656"},"vehicle_type_id":"4","last_reported":1703275638,"current_range_meters":0,"station_id":"ce4bh2p2rcd13ifvqdi0","pricing_plan_id":"free"},{"bike_id":"527efc97-808b-4470-bc3c-b4adfaa3765b","system_id":"levelo_inurba_marseille","lat":43.288346,"lon":5.393205,"is_reserved":false,"is_disabled":false,"rental_uris":{"android":"levelo://app?vid=527efc97-808b-4470-bc3c-b4adfaa3765b","ios":"levelo://app?vid=527efc97-808b-4470-bc3c-b4adfaa3765b"},"vehicle_type_id":"4","last_reported":1703275638,"current_range_meters":3600,"station_id":"","pricing_plan_id":"free"},{"bike_id":"b9c3ee26-ebde-4464-a27c-db7a20a2b420","system_id":"levelo_inurba_marseille","lat":43.284219,"lon":5.3497,"is_reserved":false,"is_disabled":false,"rental_uris":{"android":"levelo://app?vid=b9c3ee26-ebde-4464-a27c-db7a20a2b420","ios":"levelo://app?vid=b9c3ee26-ebde-4464-a27c-db7a20a2b420"},"vehicle_type_id":"4","last_reported":1703275638,"current_range_meters":28000,"station_id":"ce4bhbh2rcd13ifvqepg","pricing_plan_id":"free"},{"bike_id":"0c07039d-f042-4577-ad3b-2eb17b5732ec","system_id":"levelo_inurba_marseille","lat":43.28269,"lon":5.35074,"is_reserved":false,"is_disabled":false,"rental_uris":{"android":"levelo://app?vid=0c07039d-f042-4577-ad3b-2eb17b5732ec","ios":"levelo://app?vid=0c07039d-f042-4577-ad3b-2eb17b5732ec"},"vehicle_type_id":"4","last_reported":1703275638,"current_range_meters":10800,"station_id":"ce4bhbp2rcd13ifvqerg","pricing_plan_id":"free"},{"bike_id":"5dfbda82-9999-48e9-9779-7781fbf040e2","system_id":"levelo_inurba_marseille","lat":43.2827,"lon":5.3507,"is_reserved":false,"is_disabled":false,"rental_uris":{"android":"levelo://app?vid=5dfbda82-9999-48e9-9779-7781fbf040e2","ios":"levelo://app?vid=5dfbda82-9999-48e9-9779-7781fbf040e2"},"vehicle_type_id":"4","last_reported":1703275638,"current_range_meters":30000,"station_id":"ce4bhbp2rcd13ifvqerg","pricing_plan_id":"free"},{"bike_id":"8c390459-bc7b-427a-9b73-2c1c9e96a676","system_id":"levelo_inurba_marseille","lat":43.282744,"lon":5.350533,"is_reserved":false,"is_disabled":false,"rental_uris":{"android":"levelo://app?vid=8c390459-bc7b-427a-9b73-2c1c9e96a676","ios":"levelo://app?vid=8c390459-bc7b-427a-9b73-2c1c9e96a676"},"vehicle_type_id":"4","last_reported":1703275638,"current_range_meters":19600,"station_id":"ce4bhbp2rcd13ifvqerg","pricing_plan_id":"free"},{"bike_id":"9055ca72-0b15-41da-abc1-0d01dd44c2f7","system_id":"levelo_inurba_marseille","lat":43.28268,"lon":5.3507,"is_reserved":false,"is_disabled":false,"rental_uris":{"android":"levelo://app?vid=9055ca72-0b15-41da-abc1-0d01dd44c2f7","ios":"levelo://app?vid=9055ca72-0b15-41da-abc1-0d01dd44c2f7"},"vehicle_type_id":"4","last_reported":1703275638,"current_range_meters":24800,"station_id":"ce4bhbp2rcd13ifvqerg","pricing_plan_id":"free"},{"bike_id":"7555cd70-6108-4c02-b653-f4690ab3629f","system_id":"levelo_inurba_marseille","lat":43.283502,"lon":5.386471,"is_reserved":false,"is_disabled":false,"rental_uris":{"android":"levelo://app?vid=7555cd70-6108-4c02-b653-f4690ab3629f","ios":"levelo://app?vid=7555cd70-6108-4c02-b653-f4690ab3629f"},"vehicle_type_id":"4","last_reported":1703275638,"current_range_meters":30400,"station_id":"ce4bh492rcd13ifvqdvg","pricing_plan_id":"free"},{"bike_id":"0bb11488-f524-43ac-b0ef-26d7b8df5763","system_id":"levelo_inurba_marseille","lat":43.28265,"lon":5.35058,"is_reserved":false,"is_disabled":false,"rental_uris":{"android":"levelo://app?vid=0bb11488-f524-43ac-b0ef-26d7b8df5763","ios":"levelo://app?vid=0bb11488-f524-43ac-b0ef-26d7b8df5763"},"vehicle_type_id":"4","last_reported":1703275638,"current_range_meters":12000,"station_id":"ce4bhbp2rcd13ifvqerg","pricing_plan_id":"free"},{"bike_id":"9ffa4a69-810c-42c6-9d79-aa115e6abcaf","system_id":"levelo_inurba_marseille","lat":43.28039,"lon":5.369297,"is_reserved":false,"is_disabled":false,"rental_uris":{"android":"levelo://app?vid=9ffa4a69-810c-42c6-9d79-aa115e6abcaf","ios":"levelo://app?vid=9ffa4a69-810c-42c6-9d79-aa115e6abcaf"},"vehicle_type_id":"4","last_reported":1703275638,"current_range_meters":4000,"station_id":"ce4bha12rcd13ifvqef0","pricing_plan_id":"free"},{"bike_id":"4eef49c0-0c90-4442-8ed3-697eff8d5ad9","system_id":"levelo_inurba_marseille","lat":43.28039,"lon":5.369297,"is_reserved":false,"is_disabled":false,"rental_uris":{"android":"levelo://app?vid=4eef49c0-0c90-4442-8ed3-697eff8d5ad9","ios":"levelo://app?vid=4eef49c0-0c90-4442-8ed3-697eff8d5ad9"},"vehicle_type_id":"4","last_reported":1703275638,"current_range_meters":4000,"station_id":"ce4bha12rcd13ifvqef0","pricing_plan_id":"free"},{"bike_id":"2024a61b-7173-4785-8359-84679011d211","system_id":"levelo_inurba_marseille","lat":43.280382,"lon":5.369291,"is_reserved":false,"is_disabled":false,"rental_uris":{"android":"levelo://app?vid=2024a61b-7173-4785-8359-84679011d211","ios":"levelo://app?vid=2024a61b-7173-4785-8359-84679011d211"},"vehicle_type_id":"4","last_reported":1703275638,"current_range_meters":4400,"station_id":"ce4bha12rcd13ifvqef0","pricing_plan_id":"free"},{"bike_id":"1bb9feff-3e8b-46d2-8c5c-420eb3be4d2c","system_id":"levelo_inurba_marseille","lat":43.28039,"lon":5.369297,"is_reserved":false,"is_disabled":false,"rental_uris":{"android":"levelo://app?vid=1bb9feff-3e8b-46d2-8c5c-420eb3be4d2c","ios":"levelo://app?vid=1bb9feff-3e8b-46d2-8c5c-420eb3be4d2c"},"vehicle_type_id":"4","last_reported":1703275638,"current_range_meters":28800,"station_id":"ce4bha12rcd13ifvqef0","pricing_plan_id":"free"},{"bike_id":"ec771f13-a6f7-4502-b81f-19d6b7b2be5f","system_id":"levelo_inurba_marseille","lat":43.28039,"lon":5.369297,"is_reserved":false,"is_disabled":false,"rental_uris":{"android":"levelo://app?vid=ec771f13-a6f7-4502-b81f-19d6b7b2be5f","ios":"levelo://app?vid=ec771f13-a6f7-4502-b81f-19d6b7b2be5f"},"vehicle_type_id":"4","last_reported":1703275638,"current_range_meters":24800,"station_id":"ce4bha12rcd13ifvqef0","pricing_plan_id":"free"},{"bike_id":"97c26d31-a99e-486b-8549-d3bffe858492","system_id":"levelo_inurba_marseille","lat":43.296263,"lon":5.40601,"is_reserved":false,"is_disabled":false,"rental_uris":{"android":"levelo://app?vid=97c26d31-a99e-486b-8549-d3bffe858492","ios":"levelo://app?vid=97c26d31-a99e-486b-8549-d3bffe858492"},"vehicle_type_id":"4","last_reported":1703275638,"current_range_meters":16400,"station_id":"ce4bh0h2rcd13ifvqd60","pricing_plan_id":"free"},{"bike_id":"4320746b-6cac-47e9-ac6c-a58045acbca4","system_id":"levelo_inurba_marseille","lat":43.281044,"lon":5.378308,"is_reserved":false,"is_disabled":false,"rental_uris":{"android":"levelo://app?vid=4320746b-6cac-47e9-ac6c-a58045acbca4","ios":"levelo://app?vid=4320746b-6cac-47e9-ac6c-a58045acbca4"},"vehicle_type_id":"4","last_reported":1703275638,"current_range_meters":28000,"station_id":"ce4bha12rcd13ifvqee0","pricing_plan_id":"free"},{"bike_id":"62292c08-3fbd-4718-809a-fcccea89977d","system_id":"levelo_inurba_marseille","lat":43.296263,"lon":5.40601,"is_reserved":false,"is_disabled":false,"rental_uris":{"android":"levelo://app?vid=62292c08-3fbd-4718-809a-fcccea89977d","ios":"levelo://app?vid=62292c08-3fbd-4718-809a-fcccea89977d"},"vehicle_type_id":"4","last_reported":1703275638,"current_range_meters":15600,"station_id":"ce4bh0h2rcd13ifvqd60","pricing_plan_id":"free"},{"bike_id":"9a5a1653-b317-4faa-bbb3-df0508f284fc","system_id":"levelo_inurba_marseille","lat":43.284462,"lon":5.392121,"is_reserved":false,"is_disabled":false,"rental_uris":{"android":"levelo://app?vid=9a5a1653-b317-4faa-bbb3-df0508f284fc","ios":"levelo://app?vid=9a5a1653-b317-4faa-bbb3-df0508f284fc"},"vehicle_type_id":"4","last_reported":1703275638,"current_range_meters":24800,"station_id":"ce4bhoh2rcd13ifvqh5g","pricing_plan_id":"free"},{"bike_id":"a545799f-32b6-49a1-a402-b28e147f7149","system_id":"levelo_inurba_marseille","lat":43.28573,"lon":5.39491,"is_reserved":false,"is_disabled":false,"rental_uris":{"android":"levelo://app?vid=a545799f-32b6-49a1-a402-b28e147f7149","ios":"levelo://app?vid=a545799f-32b6-49a1-a402-b28e147f7149"},"vehicle_type_id":"4","last_reported":1703275638,"current_range_meters":15600,"station_id":"ce4bh292rcd13ifvqdg0","pricing_plan_id":"free"},{"bike_id":"8da18bc5-dd8e-4c4b-af1d-0a85664dcaf8","system_id":"levelo_inurba_marseille","lat":43.28573,"lon":5.394992,"is_reserved":false,"is_disabled":false,"rental_uris":{"android":"levelo://app?vid=8da18bc5-dd8e-4c4b-af1d-0a85664dcaf8","ios":"levelo://app?vid=8da18bc5-dd8e-4c4b-af1d-0a85664dcaf8"},"vehicle_type_id":"4","last_reported":1703275638,"current_range_meters":10800,"station_id":"ce4bh292rcd13ifvqdg0","pricing_plan_id":"free"},{"bike_id":"07915d1e-dc07-4e56-afb9-9d66caf9a477","system_id":"levelo_inurba_marseille","lat":43.28573,"lon":5.394992,"is_reserved":false,"is_disabled":false,"rental_uris":{"android":"levelo://app?vid=07915d1e-dc07-4e56-afb9-9d66caf9a477","ios":"levelo://app?vid=07915d1e-dc07-4e56-afb9-9d66caf9a477"},"vehicle_type_id":"4","last_reported":1703275638,"current_range_meters":23200,"station_id":"ce4bh292rcd13ifvqdg0","pricing_plan_id":"free"},{"bike_id":"6421c02a-3797-44ae-a39a-55ccb6161218","system_id":"levelo_inurba_marseille","lat":43.28566,"lon":5.39495,"is_reserved":false,"is_disabled":false,"rental_uris":{"android":"levelo://app?vid=6421c02a-3797-44ae-a39a-55ccb6161218","ios":"levelo://app?vid=6421c02a-3797-44ae-a39a-55ccb6161218"},"vehicle_type_id":"4","last_reported":1703275638,"current_range_meters":2400,"station_id":"ce4bh292rcd13ifvqdg0","pricing_plan_id":"free"},{"bike_id":"921b424d-ad0d-4c7a-9d74-66e3a49bfa19","system_id":"levelo_inurba_marseille","lat":43.326605,"lon":5.409903,"is_reserved":false,"is_disabled":false,"rental_uris":{"android":"levelo://app?vid=921b424d-ad0d-4c7a-9d74-66e3a49bfa19","ios":"levelo://app?vid=921b424d-ad0d-4c7a-9d74-66e3a49bfa19"},"vehicle_type_id":"4","last_reported":1703275638,"current_range_meters":6400,"station_id":"ce4bhpp2rcd13ifvqhgg","pricing_plan_id":"free"},{"bike_id":"2dce41b4-f1e9-4565-979b-d206af37124f","system_id":"levelo_inurba_marseille","lat":43.326605,"lon":5.409903,"is_reserved":false,"is_disabled":false,"rental_uris":{"android":"levelo://app?vid=2dce41b4-f1e9-4565-979b-d206af37124f","ios":"levelo://app?vid=2dce41b4-f1e9-4565-979b-d206af37124f"},"vehicle_type_id":"4","last_reported":1703275638,"current_range_meters":30400,"station_id":"ce4bhpp2rcd13ifvqhgg","pricing_plan_id":"free"},{"bike_id":"49d73e02-e5c2-4882-b44f-d8c5e2af2b78","system_id":"levelo_inurba_marseille","lat":43.326605,"lon":5.409903,"is_reserved":false,"is_disabled":false,"rental_uris":{"android":"levelo://app?vid=49d73e02-e5c2-4882-b44f-d8c5e2af2b78","ios":"levelo://app?vid=49d73e02-e5c2-4882-b44f-d8c5e2af2b78"},"vehicle_type_id":"4","last_reported":1703275638,"current_range_meters":10800,"station_id":"ce4bhpp2rcd13ifvqhgg","pricing_plan_id":"free"},{"bike_id":"e2543a4e-e066-488e-bfbe-4955c2c6c028","system_id":"levelo_inurba_marseille","lat":43.304188,"lon":5.412904,"is_reserved":false,"is_disabled":false,"rental_uris":{"android":"levelo://app?vid=e2543a4e-e066-488e-bfbe-4955c2c6c028","ios":"levelo://app?vid=e2543a4e-e066-488e-bfbe-4955c2c6c028"},"vehicle_type_id":"4","last_reported":1703275638,"current_range_meters":23200,"station_id":"ce4bhop2rcd13ifvqh8g","pricing_plan_id":"free"},{"bike_id":"7f89473b-4ee2-4ba8-86bf-bc53e18d4702","system_id":"levelo_inurba_marseille","lat":43.304188,"lon":5.412904,"is_reserved":false,"is_disabled":false,"rental_uris":{"android":"levelo://app?vid=7f89473b-4ee2-4ba8-86bf-bc53e18d4702","ios":"levelo://app?vid=7f89473b-4ee2-4ba8-86bf-bc53e18d4702"},"vehicle_type_id":"4","last_reported":1703275638,"current_range_meters":3600,"station_id":"ce4bhop2rcd13ifvqh8g","pricing_plan_id":"free"},{"bike_id":"f2a735b9-b183-4b03-acbe-8b823bd40b24","system_id":"levelo_inurba_marseille","lat":43.304188,"lon":5.412904,"is_reserved":false,"is_disabled":false,"rental_uris":{"android":"levelo://app?vid=f2a735b9-b183-4b03-acbe-8b823bd40b24","ios":"levelo://app?vid=f2a735b9-b183-4b03-acbe-8b823bd40b24"},"vehicle_type_id":"4","last_reported":1703275638,"current_range_meters":31200,"station_id":"ce4bhop2rcd13ifvqh8g","pricing_plan_id":"free"},{"bike_id":"2994219f-f282-434d-a4a5-dcac2f9151e5","system_id":"levelo_inurba_marseille","lat":43.304188,"lon":5.412904,"is_reserved":false,"is_disabled":false,"rental_uris":{"android":"levelo://app?vid=2994219f-f282-434d-a4a5-dcac2f9151e5","ios":"levelo://app?vid=2994219f-f282-434d-a4a5-dcac2f9151e5"},"vehicle_type_id":"4","last_reported":1703275638,"current_range_meters":14400,"station_id":"ce4bhop2rcd13ifvqh8g","pricing_plan_id":"free"},{"bike_id":"3facbe4d-388c-40d0-82e4-59c677c06a34","system_id":"levelo_inurba_marseille","lat":43.304188,"lon":5.412904,"is_reserved":false,"is_disabled":false,"rental_uris":{"android":"levelo://app?vid=3facbe4d-388c-40d0-82e4-59c677c06a34","ios":"levelo://app?vid=3facbe4d-388c-40d0-82e4-59c677c06a34"},"vehicle_type_id":"4","last_reported":1703275638,"current_range_meters":5200,"station_id":"ce4bhop2rcd13ifvqh8g","pricing_plan_id":"free"},{"bike_id":"4fc3eaa3-b5e5-4ef0-972e-8a11d75e9279","system_id":"levelo_inurba_marseille","lat":43.279087,"lon":5.380114,"is_reserved":false,"is_disabled":false,"rental_uris":{"android":"levelo://app?vid=4fc3eaa3-b5e5-4ef0-972e-8a11d75e9279","ios":"levelo://app?vid=4fc3eaa3-b5e5-4ef0-972e-8a11d75e9279"},"vehicle_type_id":"4","last_reported":1703275638,"current_range_meters":19200,"station_id":"ce4bhf92rcd13ifvqf50","pricing_plan_id":"free"},{"bike_id":"6c4fc49e-5505-4646-a9f6-d50687341480","system_id":"levelo_inurba_marseille","lat":43.27618,"lon":5.361009,"is_reserved":false,"is_disabled":false,"rental_uris":{"android":"levelo://app?vid=6c4fc49e-5505-4646-a9f6-d50687341480","ios":"levelo://app?vid=6c4fc49e-5505-4646-a9f6-d50687341480"},"vehicle_type_id":"4","last_reported":1703275638,"current_range_meters":10000,"station_id":"ce4bgj92rcd13ifvqbe0","pricing_plan_id":"free"},{"bike_id":"3c990e90-1eed-4343-9b72-6fb2ce5c8fda","system_id":"levelo_inurba_marseille","lat":43.27618,"lon":5.361009,"is_reserved":false,"is_disabled":false,"rental_uris":{"android":"levelo://app?vid=3c990e90-1eed-4343-9b72-6fb2ce5c8fda","ios":"levelo://app?vid=3c990e90-1eed-4343-9b72-6fb2ce5c8fda"},"vehicle_type_id":"4","last_reported":1703275638,"current_range_meters":3200,"station_id":"ce4bgj92rcd13ifvqbe0","pricing_plan_id":"free"},{"bike_id":"db2046b0-697a-4d2e-8814-6af0aeab90a8","system_id":"levelo_inurba_marseille","lat":43.276179,"lon":5.361009,"is_reserved":false,"is_disabled":false,"rental_uris":{"android":"levelo://app?vid=db2046b0-697a-4d2e-8814-6af0aeab90a8","ios":"levelo://app?vid=db2046b0-697a-4d2e-8814-6af0aeab90a8"},"vehicle_type_id":"4","last_reported":1703275638,"current_range_meters":6000,"station_id":"ce4bgj92rcd13ifvqbe0","pricing_plan_id":"free"},{"bike_id":"4e72d90d-7d3b-436c-8334-e273c7a0cd8e","system_id":"levelo_inurba_marseille","lat":43.280784,"lon":5.396622,"is_reserved":false,"is_disabled":false,"rental_uris":{"android":"levelo://app?vid=4e72d90d-7d3b-436c-8334-e273c7a0cd8e","ios":"levelo://app?vid=4e72d90d-7d3b-436c-8334-e273c7a0cd8e"},"vehicle_type_id":"4","last_reported":1703275638,"current_range_meters":15600,"station_id":"ce4bho12rcd13ifvqh2g","pricing_plan_id":"free"},{"bike_id":"e5af3670-68f2-4e5c-9bf4-21ce1330df16","system_id":"levelo_inurba_marseille","lat":43.280784,"lon":5.396622,"is_reserved":false,"is_disabled":false,"rental_uris":{"android":"levelo://app?vid=e5af3670-68f2-4e5c-9bf4-21ce1330df16","ios":"levelo://app?vid=e5af3670-68f2-4e5c-9bf4-21ce1330df16"},"vehicle_type_id":"4","last_reported":1703275638,"current_range_meters":30800,"station_id":"ce4bho12rcd13ifvqh2g","pricing_plan_id":"free"},{"bike_id":"03b14f24-ad2a-40bf-a8a4-d789d50cd69a","system_id":"levelo_inurba_marseille","lat":43.303837,"lon":5.418724,"is_reserved":false,"is_disabled":false,"rental_uris":{"android":"levelo://app?vid=03b14f24-ad2a-40bf-a8a4-d789d50cd69a","ios":"levelo://app?vid=03b14f24-ad2a-40bf-a8a4-d789d50cd69a"},"vehicle_type_id":"4","last_reported":1703275638,"current_range_meters":30000,"station_id":"ce4bhop2rcd13ifvqh7g","pricing_plan_id":"free"},{"bike_id":"af1e797f-c8ab-4cd7-8381-d2fddc707b27","system_id":"levelo_inurba_marseille","lat":43.278399,"lon":5.392139,"is_reserved":false,"is_disabled":false,"rental_uris":{"android":"levelo://app?vid=af1e797f-c8ab-4cd7-8381-d2fddc707b27","ios":"levelo://app?vid=af1e797f-c8ab-4cd7-8381-d2fddc707b27"},"vehicle_type_id":"4","last_reported":1703275638,"current_range_meters":22800,"station_id":"ce4bhjp2rcd13ifvqga0","pricing_plan_id":"free"},{"bike_id":"7a543aea-4a6b-4d78-ac57-2d68328ba984","system_id":"levelo_inurba_marseille","lat":43.275625,"lon":5.384392,"is_reserved":false,"is_disabled":false,"rental_uris":{"android":"levelo://app?vid=7a543aea-4a6b-4d78-ac57-2d68328ba984","ios":"levelo://app?vid=7a543aea-4a6b-4d78-ac57-2d68328ba984"},"vehicle_type_id":"4","last_reported":1703275638,"current_range_meters":18000,"station_id":"ce4bhh92rcd13ifvqfi0","pricing_plan_id":"free"},{"bike_id":"48cb72d6-5769-46dd-a4f2-54dfd0bfb283","system_id":"levelo_inurba_marseille","lat":43.273613,"lon":5.362705,"is_reserved":false,"is_disabled":false,"rental_uris":{"android":"levelo://app?vid=48cb72d6-5769-46dd-a4f2-54dfd0bfb283","ios":"levelo://app?vid=48cb72d6-5769-46dd-a4f2-54dfd0bfb283"},"vehicle_type_id":"4","last_reported":1703275638,"current_range_meters":28800,"station_id":"ce4bhbh2rcd13ifvqeo0","pricing_plan_id":"free"},{"bike_id":"843de36b-095c-4afd-830d-de0e9d07ea09","system_id":"levelo_inurba_marseille","lat":43.273613,"lon":5.362705,"is_reserved":false,"is_disabled":false,"rental_uris":{"android":"levelo://app?vid=843de36b-095c-4afd-830d-de0e9d07ea09","ios":"levelo://app?vid=843de36b-095c-4afd-830d-de0e9d07ea09"},"vehicle_type_id":"4","last_reported":1703275638,"current_range_meters":30400,"station_id":"ce4bhbh2rcd13ifvqeo0","pricing_plan_id":"free"},{"bike_id":"e09a6d18-e62b-45bc-ba72-f8db6df2fcf5","system_id":"levelo_inurba_marseille","lat":43.273609,"lon":5.362708,"is_reserved":false,"is_disabled":false,"rental_uris":{"android":"levelo://app?vid=e09a6d18-e62b-45bc-ba72-f8db6df2fcf5","ios":"levelo://app?vid=e09a6d18-e62b-45bc-ba72-f8db6df2fcf5"},"vehicle_type_id":"4","last_reported":1703275638,"current_range_meters":31200,"station_id":"ce4bhbh2rcd13ifvqeo0","pricing_plan_id":"free"},{"bike_id":"92495b89-a8a0-4296-9885-51742c225068","system_id":"levelo_inurba_marseille","lat":43.275625,"lon":5.384392,"is_reserved":false,"is_disabled":false,"rental_uris":{"android":"levelo://app?vid=92495b89-a8a0-4296-9885-51742c225068","ios":"levelo://app?vid=92495b89-a8a0-4296-9885-51742c225068"},"vehicle_type_id":"4","last_reported":1703275638,"current_range_meters":15600,"station_id":"ce4bhh92rcd13ifvqfi0","pricing_plan_id":"free"},{"bike_id":"fe4b04f4-a4ff-43a2-8569-58a03e913efb","system_id":"levelo_inurba_marseille","lat":43.279975,"lon":5.40009,"is_reserved":false,"is_disabled":false,"rental_uris":{"android":"levelo://app?vid=fe4b04f4-a4ff-43a2-8569-58a03e913efb","ios":"levelo://app?vid=fe4b04f4-a4ff-43a2-8569-58a03e913efb"},"vehicle_type_id":"4","last_reported":1703275638,"current_range_meters":6400,"station_id":"ce4bho92rcd13ifvqh4g","pricing_plan_id":"free"},{"bike_id":"11655531-75bf-4e0f-b0fd-b9da7a20bb97","system_id":"levelo_inurba_marseille","lat":43.279952,"lon":5.400085,"is_reserved":false,"is_disabled":false,"rental_uris":{"android":"levelo://app?vid=11655531-75bf-4e0f-b0fd-b9da7a20bb97","ios":"levelo://app?vid=11655531-75bf-4e0f-b0fd-b9da7a20bb97"},"vehicle_type_id":"4","last_reported":1703275638,"current_range_meters":10000,"station_id":"ce4bho92rcd13ifvqh4g","pricing_plan_id":"free"},{"bike_id":"5e7bdcdf-40fc-45a0-8691-42e94f0b15ad","system_id":"levelo_inurba_marseille","lat":43.279952,"lon":5.400085,"is_reserved":false,"is_disabled":false,"rental_uris":{"android":"levelo://app?vid=5e7bdcdf-40fc-45a0-8691-42e94f0b15ad","ios":"levelo://app?vid=5e7bdcdf-40fc-45a0-8691-42e94f0b15ad"},"vehicle_type_id":"4","last_reported":1703275638,"current_range_meters":6000,"station_id":"ce4bho92rcd13ifvqh4g","pricing_plan_id":"free"},{"bike_id":"9e611467-fb9e-43f8-9d58-8ffea1e2ab41","system_id":"levelo_inurba_marseille","lat":43.279952,"lon":5.400085,"is_reserved":false,"is_disabled":false,"rental_uris":{"android":"levelo://app?vid=9e611467-fb9e-43f8-9d58-8ffea1e2ab41","ios":"levelo://app?vid=9e611467-fb9e-43f8-9d58-8ffea1e2ab41"},"vehicle_type_id":"4","last_reported":1703275638,"current_range_meters":4400,"station_id":"ce4bho92rcd13ifvqh4g","pricing_plan_id":"free"},{"bike_id":"9b0d45a3-92fe-406a-8701-e2182a273315","system_id":"levelo_inurba_marseille","lat":43.279952,"lon":5.400085,"is_reserved":false,"is_disabled":false,"rental_uris":{"android":"levelo://app?vid=9b0d45a3-92fe-406a-8701-e2182a273315","ios":"levelo://app?vid=9b0d45a3-92fe-406a-8701-e2182a273315"},"vehicle_type_id":"4","last_reported":1703275638,"current_range_meters":4400,"station_id":"ce4bho92rcd13ifvqh4g","pricing_plan_id":"free"},{"bike_id":"4e7c720f-a163-40bc-90c8-0f58c96c2a52","system_id":"levelo_inurba_marseille","lat":43.279975,"lon":5.40009,"is_reserved":false,"is_disabled":false,"rental_uris":{"android":"levelo://app?vid=4e7c720f-a163-40bc-90c8-0f58c96c2a52","ios":"levelo://app?vid=4e7c720f-a163-40bc-90c8-0f58c96c2a52"},"vehicle_type_id":"4","last_reported":1703275638,"current_range_meters":15600,"station_id":"ce4bho92rcd13ifvqh4g","pricing_plan_id":"free"},{"bike_id":"744d2255-f40e-4d97-99d3-32b2cec2531f","system_id":"levelo_inurba_marseille","lat":43.279975,"lon":5.40009,"is_reserved":false,"is_disabled":false,"rental_uris":{"android":"levelo://app?vid=744d2255-f40e-4d97-99d3-32b2cec2531f","ios":"levelo://app?vid=744d2255-f40e-4d97-99d3-32b2cec2531f"},"vehicle_type_id":"4","last_reported":1703275638,"current_range_meters":9600,"station_id":"ce4bho92rcd13ifvqh4g","pricing_plan_id":"free"},{"bike_id":"9d8a300c-7356-461f-8e60-7c138328974e","system_id":"levelo_inurba_marseille","lat":43.317121,"lon":5.423936,"is_reserved":false,"is_disabled":false,"rental_uris":{"android":"levelo://app?vid=9d8a300c-7356-461f-8e60-7c138328974e","ios":"levelo://app?vid=9d8a300c-7356-461f-8e60-7c138328974e"},"vehicle_type_id":"4","last_reported":1703275638,"current_range_meters":27600,"station_id":"ce4bhp92rcd13ifvqhbg","pricing_plan_id":"free"},{"bike_id":"7c92ac06-9f8b-4771-8927-7d3efcae43ac","system_id":"levelo_inurba_marseille","lat":43.310785,"lon":5.424305,"is_reserved":false,"is_disabled":false,"rental_uris":{"android":"levelo://app?vid=7c92ac06-9f8b-4771-8927-7d3efcae43ac","ios":"levelo://app?vid=7c92ac06-9f8b-4771-8927-7d3efcae43ac"},"vehicle_type_id":"4","last_reported":1703275638,"current_range_meters":10800,"station_id":"ce4bhp92rcd13ifvqhag","pricing_plan_id":"free"},{"bike_id":"b2bae555-70b7-4476-bc50-e1d2a40076e2","system_id":"levelo_inurba_marseille","lat":43.295511,"lon":5.422926,"is_reserved":false,"is_disabled":false,"rental_uris":{"android":"levelo://app?vid=b2bae555-70b7-4476-bc50-e1d2a40076e2","ios":"levelo://app?vid=b2bae555-70b7-4476-bc50-e1d2a40076e2"},"vehicle_type_id":"4","last_reported":1703275638,"current_range_meters":18800,"station_id":"ce4bhph2rcd13ifvqhdg","pricing_plan_id":"free"},{"bike_id":"451a1f8d-44a7-4e1b-b27e-a5fe261677ca","system_id":"levelo_inurba_marseille","lat":43.27208,"lon":5.39178,"is_reserved":false,"is_disabled":false,"rental_uris":{"android":"levelo://app?vid=451a1f8d-44a7-4e1b-b27e-a5fe261677ca","ios":"levelo://app?vid=451a1f8d-44a7-4e1b-b27e-a5fe261677ca"},"vehicle_type_id":"4","last_reported":1703275638,"current_range_meters":24000,"station_id":"","pricing_plan_id":"free"},{"bike_id":"aae3d177-3e9e-405a-bda1-ee0a0d357d08","system_id":"levelo_inurba_marseille","lat":43.27207,"lon":5.39192,"is_reserved":false,"is_disabled":false,"rental_uris":{"android":"levelo://app?vid=aae3d177-3e9e-405a-bda1-ee0a0d357d08","ios":"levelo://app?vid=aae3d177-3e9e-405a-bda1-ee0a0d357d08"},"vehicle_type_id":"4","last_reported":1703275638,"current_range_meters":0,"station_id":"ce4bhhp2rcd13ifvqfm0","pricing_plan_id":"free"},