{"last_updated":1720807806,"ttl":30,"version":"2.2","data":{"bikes":[{"bike_id":"cb5853a3-7711-4283-936c-f6d004913dd5","system_id":"levelo_inurba_marseille","lat":43.313391,"lon":5.36706,"is_reserved":false,"is_disabled":false,"rental_uris":{"android":"levelo://app?vid=cb5853a3-7711-4283-936c-f6d004913dd5","ios":"levelo://app?vid=cb5853a3-7711-4283-936c-f6d004913dd5"},"vehicle_type_id":"4","last_reported":1720807806,"current_range_meters":0,"station_id":"ce4bgr92rcd13ifvqc6g","pricing_plan_id":"cebpf4jnsgd1na2vs0mg"},{"bike_id":"737b4a9f-eca1-4f4f-9509-bd3ddc92a32a","system_id":"levelo_inurba_marseille","lat":43.312233,"lon":5.368253,"is_reserved":false,"is_disabled":false,"rental_uris":{"android":"levelo://app?vid=737b4a9f-eca1-4f4f-9509-bd3ddc92a32a","ios":"levelo://app?vid=737b4a9f-eca1-4f4f-9509-bd3ddc92a32a"},"vehicle_type_id":"4","last_reported":1720807806,"current_range_meters":14400,"station_id":"ce4bgl92rcd13ifvqbq0","pricing_plan_id":"cebpf4jnsgd1na2vs0mg"},{"bike_id":"fe680f37-4725-4dd3-93a3-cdc889af202b","system_id":"levelo_inurba_marseille","lat":43.312239,"lon":5.368562,"is_reserved":false,"is_disabled":false,"rental_uris":{"android":"levelo://app?vid=fe680f37-4725-4dd3-93a3-cdc889af202b","ios":"levelo://app?vid=fe680f37-4725-4dd3-93a3-cdc889af202b"},"vehicle_type_id":"4","last_reported":1720807806,"current_range_meters":26800,"station_id":"ce4bgl92rcd13ifvqbq0","pricing_plan_id":"cebpf4jnsgd1na2vs0mg"},{"bike_id":"ad34eb1d-7d3c-4e04-8e3f-05d9e76ceb2a","system_id":"levelo_inurba_marseille","lat":43.31371,"lon":5.368123,"is_reserved":false,"is_disabled":false,"rental_uris":{"android":"levelo://app?vid=ad34eb1d-7d3c-4e04-8e3f-05d9e76ceb2a","ios":"levelo://app?vid=ad34eb1d-7d3c-4e04-8e3f-05d9e76ceb2a"},"vehicle_type_id":"4","last_reported":1720807806,"current_range_meters":0,"station_id":"","pricing_plan_id":"cebpf4jnsgd1na2vs0mg"},{"bike_id":"a9efe478-64a7-4560-bece-633023dda35c","system_id":"levelo_inurba_marseille","lat":43.31218,"lon":5.36855,"is_reserved":false,"is_disabled":false,"rental_uris":{"android":"levelo://app?vid=a9efe478-64a7-4560-bece-633023dda35c","ios":"levelo://app?vid=a9efe478-64a7-4560-bece-633023dda35c"},"vehicle_type_id":"4","last_reported":1720807806,"current_range_meters":26800,"station_id":"ce4bgl92rcd13ifvqbq0","pricing_plan_id":"cebpf4jnsgd1na2vs0mg"},{"bike_id":"50ef5fe0-2653-4ce9-8524-968bc25e4b44","system_id":"levelo_inurba_marseille","lat":43.314811,"lon":5.373103,"is_reserved":false,"is_disabled":false,"rental_uris":{"android":"levelo://app?vid=50ef5fe0-2653-4ce9-8524-968bc25e4b44","ios":"levelo://app?vid=50ef5fe0-2653-4ce9-8524-968bc25e4b44"},"vehicle_type_id":"4","last_reported":1720807806,"current_range_meters":0,"station_id":"ce4bgt12rcd13ifvqcd0","pricing_plan_id":"cebpf4jnsgd1na2vs0mg"},{"bike_id":"424b70bd-ce6e-4c97-86b3-07a1bef983be","system_id":"levelo_inurba_marseille","lat":43.31501,"lon":5.37307,"is_reserved":false,"is_disabled":false,"rental_uris":{"android":"levelo://app?vid=424b70bd-ce6e-4c97-86b3-07a1bef983be","ios":"levelo://app?vid=424b70bd-ce6e-4c97-86b3-07a1bef983be"},"vehicle_type_id":"4","last_reported":1720807806,"current_range_meters":0,"station_id":"ce4bgt12rcd13ifvqcd0","pricing_plan_id":"cebpf4jnsgd1na2vs0mg"},{"bike_id":"586f9110-f07e-4563-8317-50ffe5e46bd2","system_id":"levelo_inurba_marseille","lat":43.30892,"lon":5.37184,"is_reserved":false,"is_disabled":false,"rental_uris":{"android":"levelo://app?vid=586f9110-f07e-4563-8317-50ffe5e46bd2","ios":"levelo://app?vid=586f9110-f07e-4563-8317-50ffe5e46bd2"},"vehicle_type_id":"4","last_reported":1720807806,"current_range_meters":18000,"station_id":"ce4bguh2rcd13ifvqckg","pricing_plan_id":"cebpf4jnsgd1na2vs0mg"},{"bike_id":"c9e34788-7e6d-4b23-b152-a64782a40e76","system_id":"levelo_inurba_marseille","lat":43.3054,"lon":5.36642,"is_reserved":false,"is_disabled":false,"rental_uris":{"android":"levelo://app?vid=c9e34788-7e6d-4b23-b152-a64782a40e76","ios":"levelo://app?vid=c9e34788-7e6d-4b23-b152-a64782a40e76"},"vehicle_type_id":"4","last_reported":1720807806,"current_range_meters":1200,"station_id":"","pricing_plan_id":"cebpf4jnsgd1na2vs0mg"},{"bike_id":"715b15bd-960f-4048-8844-47b48bd4eecf","system_id":"levelo_inurba_marseille","lat":43.30539,"lon":5.36661,"is_reserved":false,"is_disabled":false,"rental_uris":{"android":"levelo://app?vid=715b15bd-960f-4048-8844-47b48bd4eecf","ios":"levelo://app?vid=715b15bd-960f-4048-8844-47b48bd4eecf"},"vehicle_type_id":"4","last_reported":1720807806,"current_range_meters":8400,"station_id":"","pricing_plan_id":"cebpf4jnsgd1na2vs0mg"},{"bike_id":"ff930445-c7b3-4d25-9809-426b01c841c4","system_id":"levelo_inurba_marseille","lat":43.304707,"lon":5.365922,"is_reserved":false,"is_disabled":false,"rental_uris":{"android":"levelo://app?vid=ff930445-c7b3-4d25-9809-426b01c841c4","ios":"levelo://app?vid=ff930445-c7b3-4d25-9809-426b01c841c4"},"vehicle_type_id":"4","last_reported":1720807806,"current_range_meters":9200,"station_id":"","pricing_plan_id":"cebpf4jnsgd1na2vs0mg"},{"bike_id":"cf12507a-fd67-4c80-856c-2bd3e2166a13","system_id":"levelo_inurba_marseille","lat":43.30785,"lon":5.37655,"is_reserved":false,"is_disabled":false,"rental_uris":{"android":"levelo://app?vid=cf12507a-fd67-4c80-856c-2bd3e2166a13","ios":"levelo://app?vid=cf12507a-fd67-4c80-856c-2bd3e2166a13"},"vehicle_type_id":"4","last_reported":1720807806,"current_range_meters":31200,"station_id":"ce4bgv92rcd13ifvqcq0","pricing_plan_id":"cebpf4jnsgd1na2vs0mg"},{"bike_id":"f9bac42d-5c2c-4e55-9de1-2d2cd2b99646","system_id":"levelo_inurba_marseille","lat":43.307945,"lon":5.376487,"is_reserved":false,"is_disabled":false,"rental_uris":{"android":"levelo://app?vid=f9bac42d-5c2c-4e55-9de1-2d2cd2b99646","ios":"levelo://app?vid=f9bac42d-5c2c-4e55-9de1-2d2cd2b99646"},"vehicle_type_id":"4","last_reported":1720807806,"current_range_meters":31200,"station_id":"ce4bgv92rcd13ifvqcq0","pricing_plan_id":"cebpf4jnsgd1na2vs0mg"},{"bike_id":"2b4da476-2e26-40be-9aee-5dbf144bd864","system_id":"levelo_inurba_marseille","lat":43.30943,"lon":5.3798,"is_reserved":false,"is_disabled":false,"rental_uris":{"android":"levelo://app?vid=2b4da476-2e26-40be-9aee-5dbf144bd864","ios":"levelo://app?vid=2b4da476-2e26-40be-9aee-5dbf144bd864"},"vehicle_type_id":"4","last_reported":1720807806,"current_range_meters":11200,"station_id":"","pricing_plan_id":"cebpf4jnsgd1na2vs0mg"},{"bike_id":"a5602299-a2c0-41e2-8e6d-eeadae246b5f","system_id":"levelo_inurba_marseille","lat":43.301939,"lon":5.366286,"is_reserved":false,"is_disabled":false,"rental_uris":{"android":"levelo://app?vid=a5602299-a2c0-41e2-8e6d-eeadae246b5f","ios":"levelo://app?vid=a5602299-a2c0-41e2-8e6d-eeadae246b5f"},"vehicle_type_id":"4","last_reported":1720807806,"current_range_meters":28800,"station_id":"ce4bgrh2rcd13ifvqc8g","pricing_plan_id":"cebpf4jnsgd1na2vs0mg"},{"bike_id":"3ff33a4f-d3ec-432c-8169-81684ec87836","system_id":"levelo_inurba_marseille","lat":43.308012,"lon":5.381511,"is_reserved":false,"is_disabled":false,"rental_uris":{"android":"levelo://app?vid=3ff33a4f-d3ec-432c-8169-81684ec87836","ios":"levelo://app?vid=3ff33a4f-d3ec-432c-8169-81684ec87836"},"vehicle_type_id":"4","last_reported":1720807806,"current_range_meters":28400,"station_id":"ce4bgt12rcd13ifvqce0","pricing_plan_id":"cebpf4jnsgd1na2vs0mg"},{"bike_id":"4e624164-2605-48e0-acf2-d0a732428c2a","system_id":"levelo_inurba_marseille","lat":43.324771,"lon":5.36557,"is_reserved":false,"is_disabled":false,"rental_uris":{"android":"levelo://app?vid=4e624164-2605-48e0-acf2-d0a732428c2a","ios":"levelo://app?vid=4e624164-2605-48e0-acf2-d0a732428c2a"},"vehicle_type_id":"4","last_reported":1720807806,"current_range_meters":29200,"station_id":"ce4bhs12rcd13ifvqhvg","pricing_plan_id":"cebpf4jnsgd1na2vs0mg"},{"bike_id":"c53e9829-a3a9-4e4e-8a81-ce3165d11b49","system_id":"levelo_inurba_marseille","lat":43.324771,"lon":5.36557,"is_reserved":false,"is_disabled":false,"rental_uris":{"android":"levelo://app?vid=c53e9829-a3a9-4e4e-8a81-ce3165d11b49","ios":"levelo://app?vid=c53e9829-a3a9-4e4e-8a81-ce3165d11b49"},"vehicle_type_id":"4","last_reported":1720807806,"current_range_meters":14000,"station_id":"ce4bhs12rcd13ifvqhvg","pricing_plan_id":"cebpf4jnsgd1na2vs0mg"},{"bike_id":"e6c0fcdf-818e-4586-be45-3e920c994d01","system_id":"levelo_inurba_marseille","lat":43.324771,"lon":5.36557,"is_reserved":false,"is_disabled":false,"rental_uris":{"android":"levelo://app?vid=e6c0fcdf-818e-4586-be45-3e920c994d01","ios":"levelo://app?vid=e6c0fcdf-818e-4586-be45-3e920c994d01"},"vehicle_type_id":"4","last_reported":1720807806,"current_range_meters":18000,"station_id":"ce4bhs12rcd13ifvqhvg","pricing_plan_id":"cebpf4jnsgd1na2vs0mg"},{"bike_id":"b7075c7b-2c25-42ab-883a-e6ad095eb7ec","system_id":"levelo_inurba_marseille","lat":43.324771,"lon":5.36557,"is_reserved":false,"is_disabled":false,"rental_uris":{"android":"levelo://app?vid=b7075c7b-2c25-42ab-883a-e6ad095eb7ec","ios":"levelo://app?vid=b7075c7b-2c25-42ab-883a-e6ad095eb7ec"},"vehicle_type_id":"4","last_reported":1720807806,"current_range_meters":6800,"station_id":"ce4bhs12rcd13ifvqhvg","pricing_plan_id":"cebpf4jnsgd1na2vs0mg"},{"bike_id":"50b67951-f4db-4738-8c48-e3a67b6e799e","system_id":"levelo_inurba_marseille","lat":43.324771,"lon":5.36557,"is_reserved":false,"is_disabled":false,"rental_uris":{"android":"levelo://app?vid=50b67951-f4db-4738-8c48-e3a67b6e799e","ios":"levelo://app?vid=50b67951-f4db-4738-8c48-e3a67b6e799e"},"vehicle_type_id":"4","last_reported":1720807806,"current_range_meters":31200,"station_id":"ce4bhs12rcd13ifvqhvg","pricing_plan_id":"cebpf4jnsgd1na2vs0mg"},{"bike_id":"8cef89db-5f5e-49ee-9ae1-a8cf17c4a2ad","system_id":"levelo_inurba_marseille","lat":43.324771,"lon":5.36557,"is_reserved":false,"is_disabled":false,"rental_uris":{"android":"levelo://app?vid=8cef89db-5f5e-49ee-9ae1-a8cf17c4a2ad","ios":"levelo://app?vid=8cef89db-5f5e-49ee-9ae1-a8cf17c4a2ad"},"vehicle_type_id":"4","last_reported":1720807806,"current_range_meters":4400,"station_id":"ce4bhs12rcd13ifvqhvg","pricing_plan_id":"cebpf4jnsgd1na2vs0mg"},{"bike_id":"21252025-cf9c-4852-ab78-01d2cbced8b0","system_id":"levelo_inurba_marseille","lat":43.324771,"lon":5.36557,"is_reserved":false,"is_disabled":false,"rental_uris":{"android":"levelo://app?vid=21252025-cf9c-4852-ab78-01d2cbced8b0","ios":"levelo://app?vid=21252025-cf9c-4852-ab78-01d2cbced8b0"},"vehicle_type_id":"4","last_reported":1720807806,"current_range_meters":0,"station_id":"ce4bhs12rcd13ifvqhvg","pricing_plan_id":"cebpf4jnsgd1na2vs0mg"},{"bike_id":"0cfcb821-60d5-42be-bf43-c21e85f23d88","system_id":"levelo_inurba_marseille","lat":43.310804,"lon":5.38359,"is_reserved":false,"is_disabled":false,"rental_uris":{"android":"levelo://app?vid=0cfcb821-60d5-42be-bf43-c21e85f23d88","ios":"levelo://app?vid=0cfcb821-60d5-42be-bf43-c21e85f23d88"},"vehicle_type_id":"4","last_reported":1720807806,"current_range_meters":22400,"station_id":"ce4bgv92rcd13ifvqcr0","pricing_plan_id":"cebpf4jnsgd1na2vs0mg"},{"bike_id":"6eff985c-8c44-4e14-b6bc-39a0263d5b90","system_id":"levelo_inurba_marseille","lat":43.310804,"lon":5.38359,"is_reserved":false,"is_disabled":false,"rental_uris":{"android":"levelo://app?vid=6eff985c-8c44-4e14-b6bc-39a0263d5b90","ios":"levelo://app?vid=6eff985c-8c44-4e14-b6bc-39a0263d5b90"},"vehicle_type_id":"4","last_reported":1720807806,"current_range_meters":17200,"station_id":"ce4bgv92rcd13ifvqcr0","pricing_plan_id":"cebpf4jnsgd1na2vs0mg"},{"bike_id":"7b4d841b-9a4a-4942-813f-deae05230b41","system_id":"levelo_inurba_marseille","lat":43.30143,"lon":5.37413,"is_reserved":false,"is_disabled":false,"rental_uris":{"android":"levelo://app?vid=7b4d841b-9a4a-4942-813f-deae05230b41","ios":"levelo://app?vid=7b4d841b-9a4a-4942-813f-deae05230b41"},"vehicle_type_id":"4","last_reported":1720807806,"current_range_meters":0,"station_id":"ce4bgs92rcd13ifvqcc0","pricing_plan_id":"cebpf4jnsgd1na2vs0mg"},{"bike_id":"b30ee835-fac7-4ccd-9dba-4a9276a29180","system_id":"levelo_inurba_marseille","lat":43.319935,"lon":5.381699,"is_reserved":false,"is_disabled":false,"rental_uris":{"android":"levelo://app?vid=b30ee835-fac7-4ccd-9dba-4a9276a29180","ios":"levelo://app?vid=b30ee835-fac7-4ccd-9dba-4a9276a29180"},"vehicle_type_id":"4","last_reported":1720807806,"current_range_meters":21600,"station_id":"ce4bhr12rcd13ifvqhpg","pricing_plan_id":"cebpf4jnsgd1na2vs0mg"},{"bike_id":"ac868315-b69d-48fc-9339-b183e3c06379","system_id":"levelo_inurba_marseille","lat":43.313571,"lon":5.384829,"is_reserved":false,"is_disabled":false,"rental_uris":{"android":"levelo://app?vid=ac868315-b69d-48fc-9339-b183e3c06379","ios":"levelo://app?vid=ac868315-b69d-48fc-9339-b183e3c06379"},"vehicle_type_id":"4","last_reported":1720807806,"current_range_meters":4000,"station_id":"ce4bgt92rcd13ifvqcf0","pricing_plan_id":"cebpf4jnsgd1na2vs0mg"},{"bike_id":"6b307b1a-5217-4e5e-8a6c-27490952b286","system_id":"levelo_inurba_marseille","lat":43.313571,"lon":5.384829,"is_reserved":false,"is_disabled":false,"rental_uris":{"android":"levelo://app?vid=6b307b1a-5217-4e5e-8a6c-27490952b286","ios":"levelo://app?vid=6b307b1a-5217-4e5e-8a6c-27490952b286"},"vehicle_type_id":"4","last_reported":1720807806,"current_range_meters":20000,"station_id":"ce4bgt92rcd13ifvqcf0","pricing_plan_id":"cebpf4jnsgd1na2vs0mg"},{"bike_id":"48a0783f-7fa3-45b9-8e9f-3ff71ccc2fc4","system_id":"levelo_inurba_marseille","lat":43.313571,"lon":5.384829,"is_reserved":false,"is_disabled":false,"rental_uris":{"android":"levelo://app?vid=48a0783f-7fa3-45b9-8e9f-3ff71ccc2fc4","ios":"levelo://app?vid=48a0783f-7fa3-45b9-8e9f-3ff71ccc2fc4"},"vehicle_type_id":"4","last_reported":1720807806,"current_range_meters":4000,"station_id":"ce4bgt92rcd13ifvqcf0","pricing_plan_id":"cebpf4jnsgd1na2vs0mg"},{"bike_id":"c795cc43-3c17-4a61-89fc-1d336471534d","system_id":"levelo_inurba_marseille","lat":43.308012,"lon":5.381511,"is_reserved":false,"is_disabled":false,"rental_uris":{"android":"levelo://app?vid=c795cc43-3c17-4a61-89fc-1d336471534d","ios":"levelo://app?vid=c795cc43-3c17-4a61-89fc-1d336471534d"},"vehicle_type_id":"4","last_reported":1720807806,"current_range_meters":4800,"station_id":"ce4bgt12rcd13ifvqce0","pricing_plan_id":"cebpf4jnsgd1na2vs0mg"},{"bike_id":"f1adccbb-6767-47f7-b9cb-a9e9d375fdea","system_id":"levelo_inurba_marseille","lat":43.313571,"lon":5.384829,"is_reserved":false,"is_disabled":false,"rental_uris":{"android":"levelo://app?vid=f1adccbb-6767-47f7-b9cb-a9e9d375fdea","ios":"levelo://app?vid=f1adccbb-6767-47f7-b9cb-a9e9d375fdea"},"vehicle_type_id":"4","last_reported":1720807806,"current_range_meters":8400,"station_id":"ce4bgt92rcd13ifvqcf0","pricing_plan_id":"cebpf4jnsgd1na2vs0mg"},{"bike_id":"d79663e1-2e50-4ae5-985a-b8a1ffad9aaf","system_id":"levelo_inurba_marseille","lat":43.3066,"lon":5.38346,"is_reserved":false,"is_disabled":false,"rental_uris":{"android":"levelo://app?vid=d79663e1-2e50-4ae5-985a-b8a1ffad9aaf","ios":"levelo://app?vid=d79663e1-2e50-4ae5-985a-b8a1ffad9aaf"},"vehicle_type_id":"4","last_reported":1720807806,"current_range_meters":18400,"station_id":"","pricing_plan_id":"cebpf4jnsgd1na2vs0mg"},{"bike_id":"4e851c75-a0b4-40a4-9293-64f2295261af","system_id":"levelo_inurba_marseille","lat":43.299724,"lon":5.371829,"is_reserved":false,"is_disabled":false,"rental_uris":{"android":"levelo://app?vid=4e851c75-a0b4-40a4-9293-64f2295261af","ios":"levelo://app?vid=4e851c75-a0b4-40a4-9293-64f2295261af"},"vehicle_type_id":"4","last_reported":1720807806,"current_range_meters":4800,"station_id":"ce4bgr92rcd13ifvqc7g","pricing_plan_id":"cebpf4jnsgd1na2vs0mg"},{"bike_id":"19245e25-7c39-49d7-9be7-ed71837823a8","system_id":"levelo_inurba_marseille","lat":43.29953,"lon":5.3739,"is_reserved":false,"is_disabled":false,"rental_uris":{"android":"levelo://app?vid=19245e25-7c39-49d7-9be7-ed71837823a8","ios":"levelo://app?vid=19245e25-7c39-49d7-9be7-ed71837823a8"},"vehicle_type_id":"4","last_reported":1720807806,"current_range_meters":15200,"station_id":"","pricing_plan_id":"cebpf4jnsgd1na2vs0mg"},{"bike_id":"c309e1da-aa3b-486e-9232-82d027b734cf","system_id":"levelo_inurba_marseille","lat":43.29836,"lon":5.36471,"is_reserved":false,"is_disabled":false,"rental_uris":{"android":"levelo://app?vid=c309e1da-aa3b-486e-9232-82d027b734cf","ios":"levelo://app?vid=c309e1da-aa3b-486e-9232-82d027b734cf"},"vehicle_type_id":"4","last_reported":1720807806,"current_range_meters":14800,"station_id":"","pricing_plan_id":"cebpf4jnsgd1na2vs0mg"},{"bike_id":"9932bf71-5d20-4fce-a8c3-9f82ddf1139c","system_id":"levelo_inurba_marseille","lat":43.305364,"lon":5.384119,"is_reserved":false,"is_disabled":false,"rental_uris":{"android":"levelo://app?vid=9932bf71-5d20-4fce-a8c3-9f82ddf1139c","ios":"levelo://app?vid=9932bf71-5d20-4fce-a8c3-9f82ddf1139c"},"vehicle_type_id":"4","last_reported":1720807806,"current_range_meters":0,"station_id":"ce4bgg92rcd13ifvqb30","pricing_plan_id":"cebpf4jnsgd1na2vs0mg"},{"bike_id":"35366df1-58a5-417d-aa9d-b8804909d999","system_id":"levelo_inurba_marseille","lat":43.299243,"lon":5.374807,"is_reserved":false,"is_disabled":false,"rental_uris":{"android":"levelo://app?vid=35366df1-58a5-417d-aa9d-b8804909d999","ios":"levelo://app?vid=35366df1-58a5-417d-aa9d-b8804909d999"},"vehicle_type_id":"4","last_reported":1720807806,"current_range_meters":31600,"station_id":"ce4bgjh2rcd13ifvqbg0","pricing_plan_id":"cebpf4jnsgd1na2vs0mg"},{"bike_id":"e0b4b500-168c-4d80-af96-8f9a84ea70c5","system_id":"levelo_inurba_marseille","lat":43.311722,"lon":5.387247,"is_reserved":false,"is_disabled":false,"rental_uris":{"android":"levelo://app?vid=e0b4b500-168c-4d80-af96-8f9a84ea70c5","ios":"levelo://app?vid=e0b4b500-168c-4d80-af96-8f9a84ea70c5"},"vehicle_type_id":"4","last_reported":1720807806,"current_range_meters":800,"station_id":"ce4bgv12rcd13ifvqcp0","pricing_plan_id":"cebpf4jnsgd1na2vs0mg"},{"bike_id":"3b9e75dd-ac84-4859-8c4b-8ddcaa03e561","system_id":"levelo_inurba_marseille","lat":43.297794,"lon":5.370888,"is_reserved":false,"is_disabled":false,"rental_uris":{"android":"levelo://app?vid=3b9e75dd-ac84-4859-8c4b-8ddcaa03e561","ios":"levelo://app?vid=3b9e75dd-ac84-4859-8c4b-8ddcaa03e561"},"vehicle_type_id":"4","last_reported":1720807806,"current_range_meters":3600,"station_id":"ce4bgop2rcd13ifvqc1g","pricing_plan_id":"cebpf4jnsgd1na2vs0mg"},{"bike_id":"52cebb46-7562-4a10-b8c4-b89cc803e558","system_id":"levelo_inurba_marseille","lat":43.297774,"lon":5.370875,"is_reserved":false,"is_disabled":false,"rental_uris":{"android":"levelo://app?vid=52cebb46-7562-4a10-b8c4-b89cc803e558","ios":"levelo://app?vid=52cebb46-7562-4a10-b8c4-b89cc803e558"},"vehicle_type_id":"4","last_reported":1720807806,"current_range_meters":0,"station_id":"ce4bgop2rcd13ifvqc1g","pricing_plan_id":"cebpf4jnsgd1na2vs0mg"},{"bike_id":"68c569a6-c83b-492b-b555-476d448e9d08","system_id":"levelo_inurba_marseille","lat":43.297794,"lon":5.370888,"is_reserved":false,"is_disabled":false,"rental_uris":{"android":"levelo://app?vid=68c569a6-c83b-492b-b555-476d448e9d08","ios":"levelo://app?vid=68c569a6-c83b-492b-b555-476d448e9d08"},"vehicle_type_id":"4","last_reported":1720807806,"current_range_meters":8000,"station_id":"ce4bgop2rcd13ifvqc1g","pricing_plan_id":"cebpf4jnsgd1na2vs0mg"},{"bike_id":"e8c32059-a562-4fdf-a2bc-d95f9fe7d940","system_id":"levelo_inurba_marseille","lat":43.29781,"lon":5.37097,"is_reserved":false,"is_disabled":false,"rental_uris":{"android":"levelo://app?vid=e8c32059-a562-4fdf-a2bc-d95f9fe7d940","ios":"levelo://app?vid=e8c32059-a562-4fdf-a2bc-d95f9fe7d940"},"vehicle_type_id":"4","last_reported":1720807806,"current_range_meters":0,"station_id":"ce4bgop2rcd13ifvqc1g","pricing_plan_id":"cebpf4jnsgd1na2vs0mg"},{"bike_id":"b797d313-a3e5-4922-baf9-4754d7c727cd","system_id":"levelo_inurba_marseille","lat":43.32294,"lon":5.38259,"is_reserved":false,"is_disabled":false,"rental_uris":{"android":"levelo://app?vid=b797d313-a3e5-4922-baf9-4754d7c727cd","ios":"levelo://app?vid=b797d313-a3e5-4922-baf9-4754d7c727cd"},"vehicle_type_id":"4","last_reported":1720807806,"current_range_meters":24400,"station_id":"ce4bhr12rcd13ifvqhqg","pricing_plan_id":"cebpf4jnsgd1na2vs0mg"},{"bike_id":"4a7b323c-34e5-4105-bf51-5c1649faba36","system_id":"levelo_inurba_marseille","lat":43.29712,"lon":5.36604,"is_reserved":false,"is_disabled":false,"rental_uris":{"android":"levelo://app?vid=4a7b323c-34e5-4105-bf51-5c1649faba36","ios":"levelo://app?vid=4a7b323c-34e5-4105-bf51-5c1649faba36"},"vehicle_type_id":"4","last_reported":1720807806,"current_range_meters":0,"station_id":"ce4bgn12rcd13ifvqbt0","pricing_plan_id":"cebpf4jnsgd1na2vs0mg"},{"bike_id":"fe1683c0-a700-41f6-962f-9683cda2f27a","system_id":"levelo_inurba_marseille","lat":43.31109,"lon":5.388407,"is_reserved":false,"is_disabled":false,"rental_uris":{"android":"levelo://app?vid=fe1683c0-a700-41f6-962f-9683cda2f27a","ios":"levelo://app?vid=fe1683c0-a700-41f6-962f-9683cda2f27a"},"vehicle_type_id":"4","last_reported":1720807806,"current_range_meters":17200,"station_id":"","pricing_plan_id":"cebpf4jnsgd1na2vs0mg"},{"bike_id":"52aa8b8d-052c-498c-8946-614a7312adb4","system_id":"levelo_inurba_marseille","lat":43.2968,"lon":5.37291,"is_reserved":false,"is_disabled":false,"rental_uris":{"android":"levelo://app?vid=52aa8b8d-052c-498c-8946-614a7312adb4","ios":"levelo://app?vid=52aa8b8d-052c-498c-8946-614a7312adb4"},"vehicle_type_id":"4","last_reported":1720807806,"current_range_meters":19200,"station_id":"ce4bgk12rcd13ifvqbj0","pricing_plan_id":"cebpf4jnsgd1na2vs0mg"},{"bike_id":"a82f7070-a6fb-4a1c-a11e-5c6beb7c519c","system_id":"levelo_inurba_marseille","lat":43.2968,"lon":5.37291,"is_reserved":false,"is_disabled":false,"rental_uris":{"android":"levelo://app?vid=a82f7070-a6fb-4a1c-a11e-5c6beb7c519c","ios":"levelo://app?vid=a82f7070-a6fb-4a1c-a11e-5c6beb7c519c"},"vehicle_type_id":"4","last_reported":1720807806,"current_range_meters":26800,"station_id":"ce4bgk12rcd13ifvqbj0","pricing_plan_id":"cebpf4jnsgd1na2vs0mg"},{"bike_id":"889e4654-380c-4799-a2e4-0d429e17ff01","system_id":"levelo_inurba_marseille","lat":43.2968,"lon":5.37291,"is_reserved":false,"is_disabled":false,"rental_uris":{"android":"levelo://app?vid=889e4654-380c-4799-a2e4-0d429e17ff01","ios":"levelo://app?vid=889e4654-380c-4799-a2e4-0d429e17ff01"},"vehicle_type_id":"4","last_reported":1720807806,"current_range_meters":0,"station_id":"ce4bgk12rcd13ifvqbj0","pricing_plan_id":"cebpf4jnsgd1na2vs0mg"},{"bike_id":"a47285e7-2616-4dee-abb3-999bd832caf8","system_id":"levelo_inurba_marseille","lat":43.29648,"lon":5.3627,"is_reserved":false,"is_disabled":false,"rental_uris":{"android":"levelo://app?vid=a47285e7-2616-4dee-abb3-999bd832caf8","ios":"levelo://app?vid=a47285e7-2616-4dee-abb3-999bd832caf8"},"vehicle_type_id":"4","last_reported":1720807806,"current_range_meters":13600,"station_id":"","pricing_plan_id":"cebpf4jnsgd1na2vs0mg"},{"bike_id":"f17f715e-774b-48f0-b3af-00ac86f1a17c","system_id":"levelo_inurba_marseille","lat":43.296935,"lon":5.376544,"is_reserved":false,"is_disabled":false,"rental_uris":{"android":"levelo://app?vid=f17f715e-774b-48f0-b3af-00ac86f1a17c","ios":"levelo://app?vid=f17f715e-774b-48f0-b3af-00ac86f1a17c"},"vehicle_type_id":"4","last_reported":1720807806,"current_range_meters":0,"station_id":"ce4bgkh2rcd13ifvqbl0","pricing_plan_id":"cebpf4jnsgd1na2vs0mg"},{"bike_id":"9ac80a12-2767-477e-a15d-e0b147139c65","system_id":"levelo_inurba_marseille","lat":43.299028,"lon":5.381509,"is_reserved":false,"is_disabled":false,"rental_uris":{"android":"levelo://app?vid=9ac80a12-2767-477e-a15d-e0b147139c65","ios":"levelo://app?vid=9ac80a12-2767-477e-a15d-e0b147139c65"},"vehicle_type_id":"4","last_reported":1720807806,"current_range_meters":7600,"station_id":"ce4bgj12rcd13ifvqbc0","pricing_plan_id":"cebpf4jnsgd1na2vs0mg"},{"bike_id":"0e9b3d2f-4ebd-441c-99c7-1b9a050d434b","system_id":"levelo_inurba_marseille","lat":43.299028,"lon":5.381509,"is_reserved":false,"is_disabled":false,"rental_uris":{"android":"levelo://app?vid=0e9b3d2f-4ebd-441c-99c7-1b9a050d434b","ios":"levelo://app?vid=0e9b3d2f-4ebd-441c-99c7-1b9a050d434b"},"vehicle_type_id":"4","last_reported":1720807806,"current_range_meters":4000,"station_id":"ce4bgj12rcd13ifvqbc0","pricing_plan_id":"cebpf4jnsgd1na2vs0mg"},{"bike_id":"5a7376c4-9d94-422a-9ddf-39e3a150469f","system_id":"levelo_inurba_marseille","lat":43.299028,"lon":5.381509,"is_reserved":false,"is_disabled":false,"rental_uris":{"android":"levelo://app?vid=5a7376c4-9d94-422a-9ddf-39e3a150469f","ios":"levelo://app?vid=5a7376c4-9d94-422a-9ddf-39e3a150469f"},"vehicle_type_id":"4","last_reported":1720807806,"current_range_meters":31200,"station_id":"ce4bgj12rcd13ifvqbc0","pricing_plan_id":"cebpf4jnsgd1na2vs0mg"},{"bike_id":"7cdd0d1b-cf7b-49f2-bb52-1c3c1942f8a4","system_id":"levelo_inurba_marseille","lat":43.309589,"lon":5.390258,"is_reserved":false,"is_disabled":false,"rental_uris":{"android":"levelo://app?vid=7cdd0d1b-cf7b-49f2-bb52-1c3c1942f8a4","ios":"levelo://app?vid=7cdd0d1b-cf7b-49f2-bb52-1c3c1942f8a4"},"vehicle_type_id":"4","last_reported":1720807806,"current_range_meters":28400,"station_id":"ce4bgup2rcd13ifvqco0","pricing_plan_id":"cebpf4jnsgd1na2vs0mg"},{"bike_id":"6fb8c382-c1d1-4759-840c-470bf5dc273f","system_id":"levelo_inurba_marseille","lat":43.30962,"lon":5.39041,"is_reserved":false,"is_disabled":false,"rental_uris":{"android":"levelo://app?vid=6fb8c382-c1d1-4759-840c-470bf5dc273f","ios":"levelo://app?vid=6fb8c382-c1d1-4759-840c-470bf5dc273f"},"vehicle_type_id":"4","last_reported":1720807806,"current_range_meters":0,"station_id":"ce4bgup2rcd13ifvqco0","pricing_plan_id":"cebpf4jnsgd1na2vs0mg"},{"bike_id":"3c5e8719-c63f-4f4d-9592-0beeceac9c3b","system_id":"levelo_inurba_marseille","lat":43.29586,"lon":5.37502,"is_reserved":false,"is_disabled":false,"rental_uris":{"android":"levelo://app?vid=3c5e8719-c63f-4f4d-9592-0beeceac9c3b","ios":"levelo://app?vid=3c5e8719-c63f-4f4d-9592-0beeceac9c3b"},"vehicle_type_id":"4","last_reported":1720807806,"current_range_meters":5600,"station_id":"ce4bgh92rcd13ifvqb50","pricing_plan_id":"cebpf4jnsgd1na2vs0mg"},{"bike_id":"49e66966-80fe-492b-9830-915ea614df06","system_id":"levelo_inurba_marseille","lat":43.29581,"lon":5.37507,"is_reserved":false,"is_disabled":false,"rental_uris":{"android":"levelo://app?vid=49e66966-80fe-492b-9830-915ea614df06","ios":"levelo://app?vid=49e66966-80fe-492b-9830-915ea614df06"},"vehicle_type_id":"4","last_reported":1720807806,"current_range_meters":0,"station_id":"ce4bgh92rcd13ifvqb50","pricing_plan_id":"cebpf4jnsgd1na2vs0mg"},{"bike_id":"c59ce1ec-1184-496b-8658-fdd3f7ee11d5","system_id":"levelo_inurba_marseille","lat":43.309589,"lon":5.390258,"is_reserved":false,"is_disabled":false,"rental_uris":{"android":"levelo://app?vid=c59ce1ec-1184-496b-8658-fdd3f7ee11d5","ios":"levelo://app?vid=c59ce1ec-1184-496b-8658-fdd3f7ee11d5"},"vehicle_type_id":"4","last_reported":1720807806,"current_range_meters":1600,"station_id":"ce4bgup2rcd13ifvqco0","pricing_plan_id":"cebpf4jnsgd1na2vs0mg"},{"bike_id":"eca51af5-e5ba-4272-b959-6d54d3d9eb61","system_id":"levelo_inurba_marseille","lat":43.297985,"lon":5.380974,"is_reserved":false,"is_disabled":false,"rental_uris":{"android":"levelo://app?vid=eca51af5-e5ba-4272-b959-6d54d3d9eb61","ios":"levelo://app?vid=eca51af5-e5ba-4272-b959-6d54d3d9eb61"},"vehicle_type_id":"4","last_reported":1720807806,"current_range_meters":0,"station_id":"","pricing_plan_id":"cebpf4jnsgd1na2vs0mg"},{"bike_id":"c9e1658b-7512-4c60-b02b-131c43ce4793","system_id":"levelo_inurba_marseille","lat":43.295748,"lon":5.37522,"is_reserved":false,"is_disabled":false,"rental_uris":{"android":"levelo://app?vid=c9e1658b-7512-4c60-b02b-131c43ce4793","ios":"levelo://app?vid=c9e1658b-7512-4c60-b02b-131c43ce4793"},"vehicle_type_id":"4","last_reported":1720807806,"current_range_meters":0,"station_id":"ce4bgh92rcd13ifvqb50","pricing_plan_id":"cebpf4jnsgd1na2vs0mg"},{"bike_id":"1a672759-201f-4078-be24-20abcbad77ae","system_id":"levelo_inurba_marseille","lat":43.29577,"lon":5.37515,"is_reserved":false,"is_disabled":false,"rental_uris":{"android":"levelo://app?vid=1a672759-201f-4078-be24-20abcbad77ae","ios":"levelo://app?vid=1a672759-201f-4078-be24-20abcbad77ae"},"vehicle_type_id":"4","last_reported":1720807806,"current_range_meters":0,"station_id":"ce4bgh92rcd13ifvqb50","pricing_plan_id":"cebpf4jnsgd1na2vs0mg"},{"bike_id":"e934f98e-3aa0-46f4-9959-caa8675cdafb","system_id":"levelo_inurba_marseille","lat":43.298037,"lon":5.381066,"is_reserved":false,"is_disabled":false,"rental_uris":{"android":"levelo://app?vid=e934f98e-3aa0-46f4-9959-caa8675cdafb","ios":"levelo://app?vid=e934f98e-3aa0-46f4-9959-caa8675cdafb"},"vehicle_type_id":"4","last_reported":1720807806,"current_range_meters":4800,"station_id":"ce4bgip2rcd13ifvqbb0","pricing_plan_id":"cebpf4jnsgd1na2vs0mg"},{"bike_id":"eca60fe7-cfb4-4bc7-8485-7040651b9ccc","system_id":"levelo_inurba_marseille","lat":43.298913,"lon":5.383077,"is_reserved":false,"is_disabled":false,"rental_uris":{"android":"levelo://app?vid=eca60fe7-cfb4-4bc7-8485-7040651b9ccc","ios":"levelo://app?vid=eca60fe7-cfb4-4bc7-8485-7040651b9ccc"},"vehicle_type_id":"4","last_reported":1720807806,"current_range_meters":0,"station_id":"","pricing_plan_id":"cebpf4jnsgd1na2vs0mg"},{"bike_id":"e33b8b30-a07a-4708-9f73-37a08b305a49","system_id":"levelo_inurba_marseille","lat":43.296277,"lon":5.377108,"is_reserved":false,"is_disabled":false,"rental_uris":{"android":"levelo://app?vid=e33b8b30-a07a-4708-9f73-37a08b305a49","ios":"levelo://app?vid=e33b8b30-a07a-4708-9f73-37a08b305a49"},"vehicle_type_id":"4","last_reported":1720807806,"current_range_meters":0,"station_id":"ce4bgi92rcd13ifvqb90","pricing_plan_id":"cebpf4jnsgd1na2vs0mg"},{"bike_id":"c2b47e96-2d31-4c84-af32-5ce2806826e2","system_id":"levelo_inurba_marseille","lat":43.29537,"lon":5.37494,"is_reserved":false,"is_disabled":false,"rental_uris":{"android":"levelo://app?vid=c2b47e96-2d31-4c84-af32-5ce2806826e2","ios":"levelo://app?vid=c2b47e96-2d31-4c84-af32-5ce2806826e2"},"vehicle_type_id":"4","last_reported":1720807806,"current_range_meters":0,"station_id":"ce4bgkp2rcd13ifvqbmg","pricing_plan_id":"cebpf4jnsgd1na2vs0mg"},{"bike_id":"616b2b12-7482-47d4-8648-80a2742929dc","system_id":"levelo_inurba_marseille","lat":43.299833,"lon":5.384923,"is_reserved":false,"is_disabled":false,"rental_uris":{"android":"levelo://app?vid=616b2b12-7482-47d4-8648-80a2742929dc","ios":"levelo://app?vid=616b2b12-7482-47d4-8648-80a2742929dc"},"vehicle_type_id":"4","last_reported":1720807806,"current_range_meters":31200,"station_id":"ce4bgj92rcd13ifvqbd0","pricing_plan_id":"cebpf4jnsgd1na2vs0mg"},{"bike_id":"b51419b9-aa1d-4695-a374-ab3dd4d80bb7","system_id":"levelo_inurba_marseille","lat":43.295279,"lon":5.375048,"is_reserved":false,"is_disabled":false,"rental_uris":{"android":"levelo://app?vid=b51419b9-aa1d-4695-a374-ab3dd4d80bb7","ios":"levelo://app?vid=b51419b9-aa1d-4695-a374-ab3dd4d80bb7"},"vehicle_type_id":"4","last_reported":1720807806,"current_range_meters":1200,"station_id":"ce4bgkp2rcd13ifvqbmg","pricing_plan_id":"cebpf4jnsgd1na2vs0mg"},{"bike_id":"f71a361a-46ed-4299-8b05-6294f2915722","system_id":"levelo_inurba_marseille","lat":43.299707,"lon":5.384859,"is_reserved":false,"is_disabled":false,"rental_uris":{"android":"levelo://app?vid=f71a361a-46ed-4299-8b05-6294f2915722","ios":"levelo://app?vid=f71a361a-46ed-4299-8b05-6294f2915722"},"vehicle_type_id":"4","last_reported":1720807806,"current_range_meters":31200,"station_id":"ce4bgj92rcd13ifvqbd0","pricing_plan_id":"cebpf4jnsgd1na2vs0mg"},{"bike_id":"8a209b1d-4c45-4b70-8d3d-3f9322723b04","system_id":"levelo_inurba_marseille","lat":43.296263,"lon":5.377094,"is_reserved":false,"is_disabled":false,"rental_uris":{"android":"levelo://app?vid=8a209b1d-4c45-4b70-8d3d-3f9322723b04","ios":"levelo://app?vid=8a209b1d-4c45-4b70-8d3d-3f9322723b04"},"vehicle_type_id":"4","last_reported":1720807806,"current_range_meters":0,"station_id":"ce4bgi92rcd13ifvqb90","pricing_plan_id":"cebpf4jnsgd1na2vs0mg"},{"bike_id":"da0ebde2-4902-4b32-8129-c639373e32e9","system_id":"levelo_inurba_marseille","lat":43.301396,"lon":5.387812,"is_reserved":false,"is_disabled":false,"rental_uris":{"android":"levelo://app?vid=da0ebde2-4902-4b32-8129-c639373e32e9","ios":"levelo://app?vid=da0ebde2-4902-4b32-8129-c639373e32e9"},"vehicle_type_id":"4","last_reported":1720807806,"current_range_meters":10000,"station_id":"ce4bghh2rcd13ifvqb60","pricing_plan_id":"cebpf4jnsgd1na2vs0mg"},{"bike_id":"4358a498-d76e-4d23-a704-47e3856ffb66","system_id":"levelo_inurba_marseille","lat":43.29421,"lon":5.37414,"is_reserved":false,"is_disabled":false,"rental_uris":{"android":"levelo://app?vid=4358a498-d76e-4d23-a704-47e3856ffb66","ios":"levelo://app?vid=4358a498-d76e-4d23-a704-47e3856ffb66"},"vehicle_type_id":"4","last_reported":1720807806,"current_range_meters":400,"station_id":"","pricing_plan_id":"cebpf4jnsgd1na2vs0mg"},{"bike_id":"eda3f9e5-e424-4959-a9bd-c01fc6b0120a","system_id":"levelo_inurba_marseille","lat":43.32367,"lon":5.388836,"is_reserved":false,"is_disabled":false,"rental_uris":{"android":"levelo://app?vid=eda3f9e5-e424-4959-a9bd-c01fc6b0120a","ios":"levelo://app?vid=eda3f9e5-e424-4959-a9bd-c01fc6b0120a"},"vehicle_type_id":"4","last_reported":1720807806,"current_range_meters":18400,"station_id":"ce4bhqp2rcd13ifvqhog","pricing_plan_id":"cebpf4jnsgd1na2vs0mg"},{"bike_id":"1b0dc916-33eb-4b2f-9e9b-0d9d6c244bb5","system_id":"levelo_inurba_marseille","lat":43.32367,"lon":5.388836,"is_reserved":false,"is_disabled":false,"rental_uris":{"android":"levelo://app?vid=1b0dc916-33eb-4b2f-9e9b-0d9d6c244bb5","ios":"levelo://app?vid=1b0dc916-33eb-4b2f-9e9b-0d9d6c244bb5"},"vehicle_type_id":"4","last_reported":1720807806,"current_range_meters":0,"station_id":"ce4bhqp2rcd13ifvqhog","pricing_plan_id":"cebpf4jnsgd1na2vs0mg"},{"bike_id":"2cd6bf21-13ab-4750-8176-c32414372f81","system_id":"levelo_inurba_marseille","lat":43.32367,"lon":5.388836,"is_reserved":false,"is_disabled":false,"rental_uris":{"android":"levelo://app?vid=2cd6bf21-13ab-4750-8176-c32414372f81","ios":"levelo://app?vid=2cd6bf21-13ab-4750-8176-c32414372f81"},"vehicle_type_id":"4","last_reported":1720807806,"current_range_meters":26000,"station_id":"ce4bhqp2rcd13ifvqhog","pricing_plan_id":"cebpf4jnsgd1na2vs0mg"},{"bike_id":"c096bac0-93a7-4b0b-964e-2ff1ee890288","system_id":"levelo_inurba_marseille","lat":43.32367,"lon":5.388836,"is_reserved":false,"is_disabled":false,"rental_uris":{"android":"levelo://app?vid=c096bac0-93a7-4b0b-964e-2ff1ee890288","ios":"levelo://app?vid=c096bac0-93a7-4b0b-964e-2ff1ee890288"},"vehicle_type_id":"4","last_reported":1720807806,"current_range_meters":0,"station_id":"ce4bhqp2rcd13ifvqhog","pricing_plan_id":"cebpf4jnsgd1na2vs0mg"},{"bike_id":"4c8affa2-3f60-4ad3-9b47-445604f66ec7","system_id":"levelo_inurba_marseille","lat":43.298037,"lon":5.381066,"is_reserved":false,"is_disabled":false,"rental_uris":{"android":"levelo://app?vid=4c8affa2-3f60-4ad3-9b47-445604f66ec7","ios":"levelo://app?vid=4c8affa2-3f60-4ad3-9b47-445604f66ec7"},"vehicle_type_id":"4","last_reported":1720807806,"current_range_meters":18800,"station_id":"ce4bgip2rcd13ifvqbb0","pricing_plan_id":"cebpf4jnsgd1na2vs0mg"},{"bike_id":"b396be5a-2abb-4e23-9eda-bc8f6d46cb00","system_id":"levelo_inurba_marseille","lat":43.293259,"lon":5.371586,"is_reserved":false,"is_disabled":false,"rental_uris":{"android":"levelo://app?vid=b396be5a-2abb-4e23-9eda-bc8f6d46cb00","ios":"levelo://app?vid=b396be5a-2abb-4e23-9eda-bc8f6d46cb00"},"vehicle_type_id":"4","last_reported":1720807806,"current_range_meters":0,"station_id":"ce4bgh92rcd13ifvqb40","pricing_plan_id":"cebpf4jnsgd1na2vs0mg"},{"bike_id":"2b663512-3d4d-4ec2-ba4c-17228a680663","system_id":"levelo_inurba_marseille","lat":43.29304,"lon":5.37177,"is_reserved":false,"is_disabled":false,"rental_uris":{"android":"levelo://app?vid=2b663512-3d4d-4ec2-ba4c-17228a680663","ios":"levelo://app?vid=2b663512-3d4d-4ec2-ba4c-17228a680663"},"vehicle_type_id":"4","last_reported":1720807806,"current_range_meters":0,"station_id":"ce4bgh92rcd13ifvqb40","pricing_plan_id":"cebpf4jnsgd1na2vs0mg"},{"bike_id":"83ee8d59-2ca5-40fe-9671-4cc953b1b059","system_id":"levelo_inurba_marseille","lat":43.293009,"lon":5.374584,"is_reserved":false,"is_disabled":false,"rental_uris":{"android":"levelo://app?vid=83ee8d59-2ca5-40fe-9671-4cc953b1b059","ios":"levelo://app?vid=83ee8d59-2ca5-40fe-9671-4cc953b1b059"},"vehicle_type_id":"4","last_reported":1720807806,"current_range_meters":0,"station_id":"ce4bgi12rcd13ifvqb70","pricing_plan_id":"cebpf4jnsgd1na2vs0mg"},{"bike_id":"b9fc10f6-5e47-4cfd-88c1-6f823df93e6f","system_id":"levelo_inurba_marseille","lat":43.305994,"lon":5.393687,"is_reserved":false,"is_disabled":false,"rental_uris":{"android":"levelo://app?vid=b9fc10f6-5e47-4cfd-88c1-6f823df93e6f","ios":"levelo://app?vid=b9fc10f6-5e47-4cfd-88c1-6f823df93e6f"},"vehicle_type_id":"4","last_reported":1720807806,"current_range_meters":21600,"station_id":"ce4bh0p2rcd13ifvqd80","pricing_plan_id":"cebpf4jnsgd1na2vs0mg"},{"bike_id":"8bf84428-27cd-4470-82a2-4f962e69a7b7","system_id":"levelo_inurba_marseille","lat":43.29295,"lon":5.37448,"is_reserved":false,"is_disabled":false,"rental_uris":{"android":"levelo://app?vid=8bf84428-27cd-4470-82a2-4f962e69a7b7","ios":"levelo://app?vid=8bf84428-27cd-4470-82a2-4f962e69a7b7"},"vehicle_type_id":"4","last_reported":1720807806,"current_range_meters":0,"station_id":"ce4bgi12rcd13ifvqb70","pricing_plan_id":"cebpf4jnsgd1na2vs0mg"},{"bike_id":"e3108c80-f368-4142-81ae-6b639e3f3967","system_id":"levelo_inurba_marseille","lat":43.293009,"lon":5.374584,"is_reserved":false,"is_disabled":false,"rental_uris":{"android":"levelo://app?vid=e3108c80-f368-4142-81ae-6b639e3f3967","ios":"levelo://app?vid=e3108c80-f368-4142-81ae-6b639e3f3967"},"vehicle_type_id":"4","last_reported":1720807806,"current_range_meters":0,"station_id":"ce4bgi12rcd13ifvqb70","pricing_plan_id":"cebpf4jnsgd1na2vs0mg"},{"bike_id":"feccb8a8-427f-4294-92c9-17b839ed715f","system_id":"levelo_inurba_marseille","lat":43.303002,"lon":5.392142,"is_reserved":false,"is_disabled":false,"rental_uris":{"android":"levelo://app?vid=feccb8a8-427f-4294-92c9-17b839ed715f","ios":"levelo://app?vid=feccb8a8-427f-4294-92c9-17b839ed715f"},"vehicle_type_id":"4","last_reported":1720807806,"current_range_meters":0,"station_id":"ce4bgkh2rcd13ifvqbk0","pricing_plan_id":"cebpf4jnsgd1na2vs0mg"},{"bike_id":"50458531-cd28-435b-819e-6c07410e6df2","system_id":"levelo_inurba_marseille","lat":43.303002,"lon":5.392142,"is_reserved":false,"is_disabled":false,"rental_uris":{"android":"levelo://app?vid=50458531-cd28-435b-819e-6c07410e6df2","ios":"levelo://app?vid=50458531-cd28-435b-819e-6c07410e6df2"},"vehicle_type_id":"4","last_reported":1720807806,"current_range_meters":24800,"station_id":"ce4bgkh2rcd13ifvqbk0","pricing_plan_id":"cebpf4jnsgd1na2vs0mg"},{"bike_id":"a9138643-9ee5-466d-b0df-13d9abac42b3","system_id":"levelo_inurba_marseille","lat":43.2936,"lon":5.37835,"is_reserved":false,"is_disabled":false,"rental_uris":{"android":"levelo://app?vid=a9138643-9ee5-466d-b0df-13d9abac42b3","ios":"levelo://app?vid=a9138643-9ee5-466d-b0df-13d9abac42b3"},"vehicle_type_id":"4","last_reported":1720807806,"current_range_meters":1200,"station_id":"ce4bgjh2rcd13ifvqbf0","pricing_plan_id":"cebpf4jnsgd1na2vs0mg"},{"bike_id":"6d783db5-fcab-47b5-8493-3fc0c47f0c03","system_id":"levelo_inurba_marseille","lat":43.2936,"lon":5.37835,"is_reserved":false,"is_disabled":false,"rental_uris":{"android":"levelo://app?vid=6d783db5-fcab-47b5-8493-3fc0c47f0c03","ios":"levelo://app?vid=6d783db5-fcab-47b5-8493-3fc0c47f0c03"},"vehicle_type_id":"4","last_reported":1720807806,"current_range_meters":12800,"station_id":"ce4bgjh2rcd13ifvqbf0","pricing_plan_id":"cebpf4jnsgd1na2vs0mg"},{"bike_id":"7d7f13e9-aaeb-4f96-a64e-124974af66c7","system_id":"levelo_inurba_marseille","lat":43.2936,"lon":5.37835,"is_reserved":false,"is_disabled":false,"rental_uris":{"android":"levelo://app?vid=7d7f13e9-aaeb-4f96-a64e-124974af66c7","ios":"levelo://app?vid=7d7f13e9-aaeb-4f96-a64e-124974af66c7"},"vehicle_type_id":"4","last_reported":1720807806,"current_range_meters":16800,"station_id":"ce4bgjh2rcd13ifvqbf0","pricing_plan_id":"cebpf4jnsgd1na2vs0mg"},{"bike_id":"2192a512-edf5-4f58-8767-30bb8d91f57f","system_id":"levelo_inurba_marseille","lat":43.2936,"lon":5.37835,"is_reserved":false,"is_disabled":false,"rental_uris":{"android":"levelo://app?vid=2192a512-edf5-4f58-8767-30bb8d91f57f","ios":"levelo://app?vid=2192a512-edf5-4f58-8767-30bb8d91f57f"},"vehicle_type_id":"4","last_reported":1720807806,"current_range_meters":19200,"station_id":"ce4bgjh2rcd13ifvqbf0","pricing_plan_id":"cebpf4jnsgd1na2vs0mg"},{"bike_id":"b641477c-045c-4aa3-bc9d-9739cd56ade7","system_id":"levelo_inurba_marseille","lat":43.2936,"lon":5.37835,"is_reserved":false,"is_disabled":false,"rental_uris":{"android":"levelo://app?vid=b641477c-045c-4aa3-bc9d-9739cd56ade7","ios":"levelo://app?vid=b641477c-045c-4aa3-bc9d-9739cd56ade7"},"vehicle_type_id":"4","last_reported":1720807806,"current_range_meters":400,"station_id":"ce4bgjh2rcd13ifvqbf0","pricing_plan_id":"cebpf4jnsgd1na2vs0mg"},{"bike_id":"56e5a668-b28a-49b7-950a-49987f2da033","system_id":"levelo_inurba_marseille","lat":43.2936,"lon":5.3786,"is_reserved":false,"is_disabled":false,"rental_uris":{"android":"levelo://app?vid=56e5a668-b28a-49b7-950a-49987f2da033","ios":"levelo://app?vid=56e5a668-b28a-49b7-950a-49987f2da033"},"vehicle_type_id":"4","last_reported":1720807806,"current_range_meters":0,"station_id":"ce4bgjh2rcd13ifvqbf0","pricing_plan_id":"cebpf4jnsgd1na2vs0mg"},{"bike_id":"76f9d505-4148-44a4-bb4a-9e7656c400ec","system_id":"levelo_inurba_marseille","lat":43.29227,"lon":5.36053,"is_reserved":false,"is_disabled":false,"rental_uris":{"android":"levelo://app?vid=76f9d505-4148-44a4-bb4a-9e7656c400ec","ios":"levelo://app?vid=76f9d505-4148-44a4-bb4a-9e7656c400ec"},"vehicle_type_id":"4","last_reported":1720807806,"current_range_meters":0,"station_id":"ce4bhbh2rcd13ifvqeqg","pricing_plan_id":"cebpf4jnsgd1na2vs0mg"},{"bike_id":"21e520f9-5664-4c1b-bc61-964d9a1d201c","system_id":"levelo_inurba_marseille","lat":43.29225,"lon":5.36046,"is_reserved":false,"is_disabled":false,"rental_uris":{"android":"levelo://app?vid=21e520f9-5664-4c1b-bc61-964d9a1d201c","ios":"levelo://app?vid=21e520f9-5664-4c1b-bc61-964d9a1d201c"},"vehicle_type_id":"4","last_reported":1720807806,"current_range_meters":0,"station_id":"ce4bhbh2rcd13ifvqeqg","pricing_plan_id":"cebpf4jnsgd1na2vs0mg"},{"bike_id":"a0a0eea7-ddc8-4928-86cd-a4c5c9848dd8","system_id":"levelo_inurba_marseille","lat":43.300852,"lon":5.390859,"is_reserved":false,"is_disabled":false,"rental_uris":{"android":"levelo://app?vid=a0a0eea7-ddc8-4928-86cd-a4c5c9848dd8","ios":"levelo://app?vid=a0a0eea7-ddc8-4928-86cd-a4c5c9848dd8"},"vehicle_type_id":"4","last_reported":1720807806,"current_range_meters":0,"station_id":"ce4bh192rcd13ifvqdb0","pricing_plan_id":"cebpf4jnsgd1na2vs0mg"},{"bike_id":"2e650868-a037-4340-8a79-f8279314b614","system_id":"levelo_inurba_marseille","lat":43.30085,"lon":5.390856,"is_reserved":false,"is_disabled":false,"rental_uris":{"android":"levelo://app?vid=2e650868-a037-4340-8a79-f8279314b614","ios":"levelo://app?vid=2e650868-a037-4340-8a79-f8279314b614"},"vehicle_type_id":"4","last_reported":1720807806,"current_range_meters":26400,"station_id":"ce4bh192rcd13ifvqdb0","pricing_plan_id":"cebpf4jnsgd1na2vs0mg"},{"bike_id":"bf7f167b-9127-4a19-b43e-35bcf7debd62","system_id":"levelo_inurba_marseille","lat":43.292194,"lon":5.360522,"is_reserved":false,"is_disabled":false,"rental_uris":{"android":"levelo://app?vid=bf7f167b-9127-4a19-b43e-35bcf7debd62","ios":"levelo://app?vid=bf7f167b-9127-4a19-b43e-35bcf7debd62"},"vehicle_type_id":"4","last_reported":1720807806,"current_range_meters":25200,"station_id":"ce4bhbh2rcd13ifvqeqg","pricing_plan_id":"cebpf4jnsgd1na2vs0mg"},{"bike_id":"82eccf1c-82a5-4199-94cc-1b1f22c1e51f","system_id":"levelo_inurba_marseille","lat":43.29219,"lon":5.360523,"is_reserved":false,"is_disabled":false,"rental_uris":{"android":"levelo://app?vid=82eccf1c-82a5-4199-94cc-1b1f22c1e51f","ios":"levelo://app?vid=82eccf1c-82a5-4199-94cc-1b1f22c1e51f"},"vehicle_type_id":"4","last_reported":1720807806,"current_range_meters":29200,"station_id":"ce4bhbh2rcd13ifvqeqg","pricing_plan_id":"cebpf4jnsgd1na2vs0mg"},{"bike_id":"40dbf66f-cda8-4f36-9d0b-cb9c728078b4","system_id":"levelo_inurba_marseille","lat":43.291671,"lon":5.371575,"is_reserved":false,"is_disabled":false,"rental_uris":{"android":"levelo://app?vid=40dbf66f-cda8-4f36-9d0b-cb9c728078b4","ios":"levelo://app?vid=40dbf66f-cda8-4f36-9d0b-cb9c728078b4"},"vehicle_type_id":"4","last_reported":1720807806,"current_range_meters":4400,"station_id":"ce4bha92rcd13ifvqeh0","pricing_plan_id":"cebpf4jnsgd1na2vs0mg"},{"bike_id":"5938bf3e-677b-47b7-ab84-11ca37b575d9","system_id":"levelo_inurba_marseille","lat":43.291627,"lon":5.371517,"is_reserved":false,"is_disabled":false,"rental_uris":{"android":"levelo://app?vid=5938bf3e-677b-47b7-ab84-11ca37b575d9","ios":"levelo://app?vid=5938bf3e-677b-47b7-ab84-11ca37b575d9"},"vehicle_type_id":"4","last_reported":1720807806,"current_range_meters":0,"station_id":"ce4bha92rcd13ifvqeh0","pricing_plan_id":"cebpf4jnsgd1na2vs0mg"},{"bike_id":"c0e93cf6-76d2-4eb3-8fb6-7b3e07539a0f","system_id":"levelo_inurba_marseille","lat":43.30881,"lon":5.39632,"is_reserved":false,"is_disabled":false,"rental_uris":{"android":"levelo://app?vid=c0e93cf6-76d2-4eb3-8fb6-7b3e07539a0f","ios":"levelo://app?vid=c0e93cf6-76d2-4eb3-8fb6-7b3e07539a0f"},"vehicle_type_id":"4","last_reported":1720807806,"current_range_meters":4800,"station_id":"ce4bh012rcd13ifvqcv0","pricing_plan_id":"cebpf4jnsgd1na2vs0mg"},{"bike_id":"6c367704-14c0-4bce-b00c-a46244eadce5","system_id":"levelo_inurba_marseille","lat":43.291994,"lon":5.357886,"is_reserved":false,"is_disabled":false,"rental_uris":{"android":"levelo://app?vid=6c367704-14c0-4bce-b00c-a46244eadce5","ios":"levelo://app?vid=6c367704-14c0-4bce-b00c-a46244eadce5"},"vehicle_type_id":"4","last_reported":1720807806,"current_range_meters":0,"station_id":"ce4bhb12rcd13ifvqel0","pricing_plan_id":"cebpf4jnsgd1na2vs0mg"},{"bike_id":"366acdac-87f0-48e4-bb58-aa932bfe185e","system_id":"levelo_inurba_marseille","lat":43.313291,"lon":5.396838,"is_reserved":false,"is_disabled":false,"rental_uris":{"android":"levelo://app?vid=366acdac-87f0-48e4-bb58-aa932bfe185e","ios":"levelo://app?vid=366acdac-87f0-48e4-bb58-aa932bfe185e"},"vehicle_type_id":"4","last_reported":1720807806,"current_range_meters":23200,"station_id":"ce4bgvp2rcd13ifvqcu0","pricing_plan_id":"cebpf4jnsgd1na2vs0mg"},{"bike_id":"c77d75c4-9059-4c30-9242-f243c1a18b15","system_id":"levelo_inurba_marseille","lat":43.31335,"lon":5.39691,"is_reserved":false,"is_disabled":false,"rental_uris":{"android":"levelo://app?vid=c77d75c4-9059-4c30-9242-f243c1a18b15","ios":"levelo://app?vid=c77d75c4-9059-4c30-9242-f243c1a18b15"},"vehicle_type_id":"4","last_reported":1720807806,"current_range_meters":11200,"station_id":"ce4bgvp2rcd13ifvqcu0","pricing_plan_id":"cebpf4jnsgd1na2vs0mg"},{"bike_id":"a98b637d-7e38-4551-a5bd-c141687ef041","system_id":"levelo_inurba_marseille","lat":43.309038,"lon":5.396546,"is_reserved":false,"is_disabled":false,"rental_uris":{"android":"levelo://app?vid=a98b637d-7e38-4551-a5bd-c141687ef041","ios":"levelo://app?vid=a98b637d-7e38-4551-a5bd-c141687ef041"},"vehicle_type_id":"4","last_reported":1720807806,"current_range_meters":2400,"station_id":"ce4bh012rcd13ifvqcv0","pricing_plan_id":"cebpf4jnsgd1na2vs0mg"},{"bike_id":"5ac482c7-03f7-4a31-b2fb-a17e6eea8aea","system_id":"levelo_inurba_marseille","lat":43.313291,"lon":5.396838,"is_reserved":false,"is_disabled":false,"rental_uris":{"android":"levelo://app?vid=5ac482c7-03f7-4a31-b2fb-a17e6eea8aea","ios":"levelo://app?vid=5ac482c7-03f7-4a31-b2fb-a17e6eea8aea"},"vehicle_type_id":"4","last_reported":1720807806,"current_range_meters":4000,"station_id":"ce4bgvp2rcd13ifvqcu0","pricing_plan_id":"cebpf4jnsgd1na2vs0mg"},{"bike_id":"764e7473-e26a-4c38-856b-bef1c2f79b70","system_id":"levelo_inurba_marseille","lat":43.309047,"lon":5.396551,"is_reserved":false,"is_disabled":false,"rental_uris":{"android":"levelo://app?vid=764e7473-e26a-4c38-856b-bef1c2f79b70","ios":"levelo://app?vid=764e7473-e26a-4c38-856b-bef1c2f79b70"},"vehicle_type_id":"4","last_reported":1720807806,"current_range_meters":4000,"station_id":"ce4bh012rcd13ifvqcv0","pricing_plan_id":"cebpf4jnsgd1na2vs0mg"},{"bike_id":"51eadf4a-2517-4b40-b676-d68835097c1a","system_id":"levelo_inurba_marseille","lat":43.31331,"lon":5.39699,"is_reserved":false,"is_disabled":false,"rental_uris":{"android":"levelo://app?vid=51eadf4a-2517-4b40-b676-d68835097c1a","ios":"levelo://app?vid=51eadf4a-2517-4b40-b676-d68835097c1a"},"vehicle_type_id":"4","last_reported":1720807806,"current_range_meters":21600,"station_id":"ce4bgvp2rcd13ifvqcu0","pricing_plan_id":"cebpf4jnsgd1na2vs0mg"},{"bike_id":"f60ced42-6c9e-41cf-8740-4ea625f1b0ce","system_id":"levelo_inurba_marseille","lat":43.33235,"lon":5.3804,"is_reserved":false,"is_disabled":false,"rental_uris":{"android":"levelo://app?vid=f60ced42-6c9e-41cf-8740-4ea625f1b0ce","ios":"levelo://app?vid=f60ced42-6c9e-41cf-8740-4ea625f1b0ce"},"vehicle_type_id":"4","last_reported":1720807806,"current_range_meters":6800,"station_id":"","pricing_plan_id":"cebpf4jnsgd1na2vs0mg"},{"bike_id":"9a2c1c86-7b29-4ca1-8b72-ce21071aeeea","system_id":"levelo_inurba_marseille","lat":43.29529,"lon":5.385581,"is_reserved":false,"is_disabled":false,"rental_uris":{"android":"levelo://app?vid=9a2c1c86-7b29-4ca1-8b72-ce21071aeeea","ios":"levelo://app?vid=9a2c1c86-7b29-4ca1-8b72-ce21071aeeea"},"vehicle_type_id":"4","last_reported":1720807806,"current_range_meters":400,"station_id":"ce4bgih2rcd13ifvqba0","pricing_plan_id":"cebpf4jnsgd1na2vs0mg"},{"bike_id":"5f04bc64-01fa-48e9-af1c-bd37864f09c5","system_id":"levelo_inurba_marseille","lat":43.29529,"lon":5.385581,"is_reserved":false,"is_disabled":false,"rental_uris":{"android":"levelo://app?vid=5f04bc64-01fa-48e9-af1c-bd37864f09c5","ios":"levelo://app?vid=5f04bc64-01fa-48e9-af1c-bd37864f09c5"},"vehicle_type_id":"4","last_reported":1720807806,"current_range_meters":2400,"station_id":"ce4bgih2rcd13ifvqba0","pricing_plan_id":"cebpf4jnsgd1na2vs0mg"},{"bike_id":"08ff51cf-0e31-47fb-9e34-9413be92b559","system_id":"levelo_inurba_marseille","lat":43.29529,"lon":5.385581,"is_reserved":false,"is_disabled":false,"rental_uris":{"android":"levelo://app?vid=08ff51cf-0e31-47fb-9e34-9413be92b559","ios":"levelo://app?vid=08ff51cf-0e31-47fb-9e34-9413be92b559"},"vehicle_type_id":"4","last_reported":1720807806,"current_range_meters":0,"station_id":"ce4bgih2rcd13ifvqba0","pricing_plan_id":"cebpf4jnsgd1na2vs0mg"},{"bike_id":"c3dd9e8a-1646-4364-a537-027dd6c4fdd8","system_id":"levelo_inurba_marseille","lat":43.290779,"lon":5.371482,"is_reserved":false,"is_disabled":false,"rental_uris":{"android":"levelo://app?vid=c3dd9e8a-1646-4364-a537-027dd6c4fdd8","ios":"levelo://app?vid=c3dd9e8a-1646-4364-a537-027dd6c4fdd8"},"vehicle_type_id":"4","last_reported":1720807806,"current_range_meters":0,"station_id":"ce4bh5p2rcd13ifvqe4g","pricing_plan_id":"cebpf4jnsgd1na2vs0mg"},{"bike_id":"8c8b81e4-a288-4c8a-8b6e-cb34edcb6260","system_id":"levelo_inurba_marseille","lat":43.302008,"lon":5.394694,"is_reserved":false,"is_disabled":false,"rental_uris":{"android":"levelo://app?vid=8c8b81e4-a288-4c8a-8b6e-cb34edcb6260","ios":"levelo://app?vid=8c8b81e4-a288-4c8a-8b6e-cb34edcb6260"},"vehicle_type_id":"4","last_reported":1720807806,"current_range_meters":28000,"station_id":"ce4bh0p2rcd13ifvqd70","pricing_plan_id":"cebpf4jnsgd1na2vs0mg"},{"bike_id":"3fc8522d-576d-41f2-8795-9a1481c9a6dd","system_id":"levelo_inurba_marseille","lat":43.290624,"lon":5.359245,"is_reserved":false,"is_disabled":false,"rental_uris":{"android":"levelo://app?vid=3fc8522d-576d-41f2-8795-9a1481c9a6dd","ios":"levelo://app?vid=3fc8522d-576d-41f2-8795-9a1481c9a6dd"},"vehicle_type_id":"4","last_reported":1720807806,"current_range_meters":21600,"station_id":"ce4bha92rcd13ifvqeg0","pricing_plan_id":"cebpf4jnsgd1na2vs0mg"},{"bike_id":"c2eea55c-0e3e-47af-b5ff-cd4e518f56cf","system_id":"levelo_inurba_marseille","lat":43.290327,"lon":5.375711,"is_reserved":false,"is_disabled":false,"rental_uris":{"android":"levelo://app?vid=c2eea55c-0e3e-47af-b5ff-cd4e518f56cf","ios":"levelo://app?vid=c2eea55c-0e3e-47af-b5ff-cd4e518f56cf"},"vehicle_type_id":"4","last_reported":1720807806,"current_range_meters":20000,"station_id":"ce4bh692rcd13ifvqe90","pricing_plan_id":"cebpf4jnsgd1na2vs0mg"},{"bike_id":"ff9d52b5-a6db-4638-9a52-c3f6656955e1","system_id":"levelo_inurba_marseille","lat":43.28947,"lon":5.36632,"is_reserved":false,"is_disabled":false,"rental_uris":{"android":"levelo://app?vid=ff9d52b5-a6db-4638-9a52-c3f6656955e1","ios":"levelo://app?vid=ff9d52b5-a6db-4638-9a52-c3f6656955e1"},"vehicle_type_id":"4","last_reported":1720807806,"current_range_meters":6000,"station_id":"ce4bhap2rcd13ifvqek0","pricing_plan_id":"cebpf4jnsgd1na2vs0mg"},{"bike_id":"21f0e5fd-f533-469f-8743-b8cf7a5544ce","system_id":"levelo_inurba_marseille","lat":43.29422,"lon":5.3863,"is_reserved":false,"is_disabled":false,"rental_uris":{"android":"levelo://app?vid=21f0e5fd-f533-469f-8743-b8cf7a5544ce","ios":"levelo://app?vid=21f0e5fd-f533-469f-8743-b8cf7a5544ce"},"vehicle_type_id":"4","last_reported":1720807806,"current_range_meters":30400,"station_id":"ce4bh2h2rcd13ifvqdh0","pricing_plan_id":"cebpf4jnsgd1na2vs0mg"},{"bike_id":"43895dba-e588-4ab0-91b6-756dc4c549f5","system_id":"levelo_inurba_marseille","lat":43.290319,"lon":5.375732,"is_reserved":false,"is_disabled":false,"rental_uris":{"android":"levelo://app?vid=43895dba-e588-4ab0-91b6-756dc4c549f5","ios":"levelo://app?vid=43895dba-e588-4ab0-91b6-756dc4c549f5"},"vehicle_type_id":"4","last_reported":1720807806,"current_range_meters":29600,"station_id":"ce4bh692rcd13ifvqe90","pricing_plan_id":"cebpf4jnsgd1na2vs0mg"},{"bike_id":"5d779850-140d-4687-80c5-8c0f229c414f","system_id":"levelo_inurba_marseille","lat":43.28727,"lon":5.36078,"is_reserved":false,"is_disabled":false,"rental_uris":{"android":"levelo://app?vid=5d779850-140d-4687-80c5-8c0f229c414f","ios":"levelo://app?vid=5d779850-140d-4687-80c5-8c0f229c414f"},"vehicle_type_id":"4","last_reported":1720807806,"current_range_meters":16800,"station_id":"cki0cbj6b192h4jlfktg","pricing_plan_id":"cebpf4jnsgd1na2vs0mg"},{"bike_id":"969dd62f-998d-4edc-b2c6-812c1e363097","system_id":"levelo_inurba_marseille","lat":43.289184,"lon":5.366408,"is_reserved":false,"is_disabled":false,"rental_uris":{"android":"levelo://app?vid=969dd62f-998d-4edc-b2c6-812c1e363097","ios":"levelo://app?vid=969dd62f-998d-4edc-b2c6-812c1e363097"},"vehicle_type_id":"4","last_reported":1720807806,"current_range_meters":5200,"station_id":"ce4bhap2rcd13ifvqek0","pricing_plan_id":"cebpf4jnsgd1na2vs0mg"},{"bike_id":"ff303427-0ab9-42fa-8ace-73444c465da7","system_id":"levelo_inurba_marseille","lat":43.289184,"lon":5.366408,"is_reserved":false,"is_disabled":false,"rental_uris":{"android":"levelo://app?vid=ff303427-0ab9-42fa-8ace-73444c465da7","ios":"levelo://app?vid=ff303427-0ab9-42fa-8ace-73444c465da7"},"vehicle_type_id":"4","last_reported":1720807806,"current_range_meters":0,"station_id":"ce4bhap2rcd13ifvqek0","pricing_plan_id":"cebpf4jnsgd1na2vs0mg"},{"bike_id":"12bb3386-5021-4b10-8147-adec98aa1af8","system_id":"levelo_inurba_marseille","lat":43.28941,"lon":5.36632,"is_reserved":false,"is_disabled":false,"rental_uris":{"android":"levelo://app?vid=12bb3386-5021-4b10-8147-adec98aa1af8","ios":"levelo://app?vid=12bb3386-5021-4b10-8147-adec98aa1af8"},"vehicle_type_id":"4","last_reported":1720807806,"current_range_meters":17200,"station_id":"ce4bhap2rcd13ifvqek0","pricing_plan_id":"cebpf4jnsgd1na2vs0mg"},{"bike_id":"9d4c6bb1-5f08-4788-8984-22827d936156","system_id":"levelo_inurba_marseille","lat":43.29413,"lon":5.38629,"is_reserved":false,"is_disabled":false,"rental_uris":{"android":"levelo://app?vid=9d4c6bb1-5f08-4788-8984-22827d936156","ios":"levelo://app?vid=9d4c6bb1-5f08-4788-8984-22827d936156"},"vehicle_type_id":"4","last_reported":1720807806,"current_range_meters":0,"station_id":"ce4bh2h2rcd13ifvqdh0","pricing_plan_id":"cebpf4jnsgd1na2vs0mg"},{"bike_id":"f28477aa-f5db-4f1a-a9f2-9b84fd899afc","system_id":"levelo_inurba_marseille","lat":43.294162,"lon":5.386292,"is_reserved":false,"is_disabled":false,"rental_uris":{"android":"levelo://app?vid=f28477aa-f5db-4f1a-a9f2-9b84fd899afc","ios":"levelo://app?vid=f28477aa-f5db-4f1a-a9f2-9b84fd899afc"},"vehicle_type_id":"4","last_reported":1720807806,"current_range_meters":0,"station_id":"ce4bh2h2rcd13ifvqdh0","pricing_plan_id":"cebpf4jnsgd1na2vs0mg"},{"bike_id":"63c44499-4206-43d3-ae99-2396043e8a0c","system_id":"levelo_inurba_marseille","lat":43.289184,"lon":5.366408,"is_reserved":false,"is_disabled":false,"rental_uris":{"android":"levelo://app?vid=63c44499-4206-43d3-ae99-2396043e8a0c","ios":"levelo://app?vid=63c44499-4206-43d3-ae99-2396043e8a0c"},"vehicle_type_id":"4","last_reported":1720807806,"current_range_meters":2400,"station_id":"ce4bhap2rcd13ifvqek0","pricing_plan_id":"cebpf4jnsgd1na2vs0mg"},{"bike_id":"ce90e33b-8a60-4606-aeac-58795ff6b68c","system_id":"levelo_inurba_marseille","lat":43.28936,"lon":5.36629,"is_reserved":false,"is_disabled":false,"rental_uris":{"android":"levelo://app?vid=ce90e33b-8a60-4606-aeac-58795ff6b68c","ios":"levelo://app?vid=ce90e33b-8a60-4606-aeac-58795ff6b68c"},"vehicle_type_id":"4","last_reported":1720807806,"current_range_meters":0,"station_id":"ce4bhap2rcd13ifvqek0","pricing_plan_id":"cebpf4jnsgd1na2vs0mg"},{"bike_id":"10ea7da2-e1e2-4ddb-9172-9a3087759f37","system_id":"levelo_inurba_marseille","lat":43.28934,"lon":5.36626,"is_reserved":false,"is_disabled":false,"rental_uris":{"android":"levelo://app?vid=10ea7da2-e1e2-4ddb-9172-9a3087759f37","ios":"levelo://app?vid=10ea7da2-e1e2-4ddb-9172-9a3087759f37"},"vehicle_type_id":"4","last_reported":1720807806,"current_range_meters":0,"station_id":"ce4bhap2rcd13ifvqek0","pricing_plan_id":"cebpf4jnsgd1na2vs0mg"},{"bike_id":"1b029fe5-7eb4-4fe2-b5bf-a5cc2f4f0833","system_id":"levelo_inurba_marseille","lat":43.289184,"lon":5.366408,"is_reserved":false,"is_disabled":false,"rental_uris":{"android":"levelo://app?vid=1b029fe5-7eb4-4fe2-b5bf-a5cc2f4f0833","ios":"levelo://app?vid=1b029fe5-7eb4-4fe2-b5bf-a5cc2f4f0833"},"vehicle_type_id":"4","last_reported":1720807806,"current_range_meters":400,"station_id":"ce4bhap2rcd13ifvqek0","pricing_plan_id":"cebpf4jnsgd1na2vs0mg"},{"bike_id":"a923f937-94d2-48fb-9616-34ce89594b38","system_id":"levelo_inurba_marseille","lat":43.304296,"lon":5.397513,"is_reserved":false,"is_disabled":false,"rental_uris":{"android":"levelo://app?vid=a923f937-94d2-48fb-9616-34ce89594b38","ios":"levelo://app?vid=a923f937-94d2-48fb-9616-34ce89594b38"},"vehicle_type_id":"4","last_reported":1720807806,"current_range_meters":30000,"station_id":"ce4bh092rcd13ifvqd20","pricing_plan_id":"cebpf4jnsgd1na2vs0mg"},{"bike_id":"6cc88fec-0381-45c4-904f-934ce1cf7fbc","system_id":"levelo_inurba_marseille","lat":43.304274,"lon":5.397513,"is_reserved":false,"is_disabled":false,"rental_uris":{"android":"levelo://app?vid=6cc88fec-0381-45c4-904f-934ce1cf7fbc","ios":"levelo://app?vid=6cc88fec-0381-45c4-904f-934ce1cf7fbc"},"vehicle_type_id":"4","last_reported":1720807806,"current_range_meters":26000,"station_id":"ce4bh092rcd13ifvqd20","pricing_plan_id":"cebpf4jnsgd1na2vs0mg"},{"bike_id":"a9201d90-5a6d-438c-8a49-0e387fb0440c","system_id":"levelo_inurba_marseille","lat":43.292644,"lon":5.384257,"is_reserved":false,"is_disabled":false,"rental_uris":{"android":"levelo://app?vid=a9201d90-5a6d-438c-8a49-0e387fb0440c","ios":"levelo://app?vid=a9201d90-5a6d-438c-8a49-0e387fb0440c"},"vehicle_type_id":"4","last_reported":1720807806,"current_range_meters":4400,"station_id":"ce4bh692rcd13ifvqea0","pricing_plan_id":"cebpf4jnsgd1na2vs0mg"},{"bike_id":"60e7d247-600f-4a57-832e-76e07ee863fb","system_id":"levelo_inurba_marseille","lat":43.292644,"lon":5.384257,"is_reserved":false,"is_disabled":false,"rental_uris":{"android":"levelo://app?vid=60e7d247-600f-4a57-832e-76e07ee863fb","ios":"levelo://app?vid=60e7d247-600f-4a57-832e-76e07ee863fb"},"vehicle_type_id":"4","last_reported":1720807806,"current_range_meters":2400,"station_id":"ce4bh692rcd13ifvqea0","pricing_plan_id":"cebpf4jnsgd1na2vs0mg"},{"bike_id":"8806bc5b-6d57-4243-af08-8fee2e90650e","system_id":"levelo_inurba_marseille","lat":43.29255,"lon":5.38448,"is_reserved":false,"is_disabled":false,"rental_uris":{"android":"levelo://app?vid=8806bc5b-6d57-4243-af08-8fee2e90650e","ios":"levelo://app?vid=8806bc5b-6d57-4243-af08-8fee2e90650e"},"vehicle_type_id":"4","last_reported":1720807806,"current_range_meters":0,"station_id":"ce4bh692rcd13ifvqea0","pricing_plan_id":"cebpf4jnsgd1na2vs0mg"},{"bike_id":"699df3c0-92bc-49f0-be20-dbff571930e3","system_id":"levelo_inurba_marseille","lat":43.290103,"lon":5.356114,"is_reserved":false,"is_disabled":false,"rental_uris":{"android":"levelo://app?vid=699df3c0-92bc-49f0-be20-dbff571930e3","ios":"levelo://app?vid=699df3c0-92bc-49f0-be20-dbff571930e3"},"vehicle_type_id":"4","last_reported":1720807806,"current_range_meters":2000,"station_id":"ce4bhb92rcd13ifvqen0","pricing_plan_id":"cebpf4jnsgd1na2vs0mg"},{"bike_id":"6f439c20-e625-4f2e-91d2-ef1b92c8d973","system_id":"levelo_inurba_marseille","lat":43.29255,"lon":5.38452,"is_reserved":false,"is_disabled":false,"rental_uris":{"android":"levelo://app?vid=6f439c20-e625-4f2e-91d2-ef1b92c8d973","ios":"levelo://app?vid=6f439c20-e625-4f2e-91d2-ef1b92c8d973"},"vehicle_type_id":"4","last_reported":1720807806,"current_range_meters":0,"station_id":"ce4bh692rcd13ifvqea0","pricing_plan_id":"cebpf4jnsgd1na2vs0mg"},{"bike_id":"80da9717-5a1f-4097-9682-bad91ba02542","system_id":"levelo_inurba_marseille","lat":43.29009,"lon":5.35613,"is_reserved":false,"is_disabled":false,"rental_uris":{"android":"levelo://app?vid=80da9717-5a1f-4097-9682-bad91ba02542","ios":"levelo://app?vid=80da9717-5a1f-4097-9682-bad91ba02542"},"vehicle_type_id":"4","last_reported":1720807806,"current_range_meters":0,"station_id":"ce4bhb92rcd13ifvqen0","pricing_plan_id":"cebpf4jnsgd1na2vs0mg"},{"bike_id":"5ce48eb3-f68a-4bc2-b56f-a18bca33fe9b","system_id":"levelo_inurba_marseille","lat":43.290104,"lon":5.356111,"is_reserved":false,"is_disabled":false,"rental_uris":{"android":"levelo://app?vid=5ce48eb3-f68a-4bc2-b56f-a18bca33fe9b","ios":"levelo://app?vid=5ce48eb3-f68a-4bc2-b56f-a18bca33fe9b"},"vehicle_type_id":"4","last_reported":1720807806,"current_range_meters":0,"station_id":"ce4bhb92rcd13ifvqen0","pricing_plan_id":"cebpf4jnsgd1na2vs0mg"},{"bike_id":"d695b906-ffa9-48e1-9292-cded2d3bdcb4","system_id":"levelo_inurba_marseille","lat":43.290104,"lon":5.356111,"is_reserved":false,"is_disabled":false,"rental_uris":{"android":"levelo://app?vid=d695b906-ffa9-48e1-9292-cded2d3bdcb4","ios":"levelo://app?vid=d695b906-ffa9-48e1-9292-cded2d3bdcb4"},"vehicle_type_id":"4","last_reported":1720807806,"current_range_meters":0,"station_id":"ce4bhb92rcd13ifvqen0","pricing_plan_id":"cebpf4jnsgd1na2vs0mg"},{"bike_id":"5b1e5441-6388-4507-84e2-b94357aaacb4","system_id":"levelo_inurba_marseille","lat":43.29008,"lon":5.35612,"is_reserved":false,"is_disabled":false,"rental_uris":{"android":"levelo://app?vid=5b1e5441-6388-4507-84e2-b94357aaacb4","ios":"levelo://app?vid=5b1e5441-6388-4507-84e2-b94357aaacb4"},"vehicle_type_id":"4","last_reported":1720807806,"current_range_meters":0,"station_id":"ce4bhb92rcd13ifvqen0","pricing_plan_id":"cebpf4jnsgd1na2vs0mg"},{"bike_id":"80e9c40a-19e9-4130-a9be-889aaa5221bc","system_id":"levelo_inurba_marseille","lat":43.28907,"lon":5.36159,"is_reserved":false,"is_disabled":false,"rental_uris":{"android":"levelo://app?vid=80e9c40a-19e9-4130-a9be-889aaa5221bc","ios":"levelo://app?vid=80e9c40a-19e9-4130-a9be-889aaa5221bc"},"vehicle_type_id":"4","last_reported":1720807806,"current_range_meters":0,"station_id":"","pricing_plan_id":"cebpf4jnsgd1na2vs0mg"},{"bike_id":"3f7eb62f-a61a-477a-9710-dab9db6e6c4b","system_id":"levelo_inurba_marseille","lat":43.29007,"lon":5.35611,"is_reserved":false,"is_disabled":false,"rental_uris":{"android":"levelo://app?vid=3f7eb62f-a61a-477a-9710-dab9db6e6c4b","ios":"levelo://app?vid=3f7eb62f-a61a-477a-9710-dab9db6e6c4b"},"vehicle_type_id":"4","last_reported":1720807806,"current_range_meters":0,"station_id":"ce4bhb92rcd13ifvqen0","pricing_plan_id":"cebpf4jnsgd1na2vs0mg"},{"bike_id":"91478110-218c-453b-919b-05ee30b70c49","system_id":"levelo_inurba_marseille","lat":43.290104,"lon":5.356111,"is_reserved":false,"is_disabled":false,"rental_uris":{"android":"levelo://app?vid=91478110-218c-453b-919b-05ee30b70c49","ios":"levelo://app?vid=91478110-218c-453b-919b-05ee30b70c49"},"vehicle_type_id":"4","last_reported":1720807806,"current_range_meters":0,"station_id":"ce4bhb92rcd13ifvqen0","pricing_plan_id":"cebpf4jnsgd1na2vs0mg"},{"bike_id":"374d43ef-86c1-45d6-9a82-cd68096077d8","system_id":"levelo_inurba_marseille","lat":43.28994,"lon":5.35646,"is_reserved":false,"is_disabled":false,"rental_uris":{"android":"levelo://app?vid=374d43ef-86c1-45d6-9a82-cd68096077d8","ios":"levelo://app?vid=374d43ef-86c1-45d6-9a82-cd68096077d8"},"vehicle_type_id":"4","last_reported":1720807806,"current_range_meters":2000,"station_id":"ce4bhb92rcd13ifvqen0","pricing_plan_id":"cebpf4jnsgd1na2vs0mg"},{"bike_id":"0dd11c76-a993-41cf-af6d-3f6c458561a9","system_id":"levelo_inurba_marseille","lat":43.290014,"lon":5.356155,"is_reserved":false,"is_disabled":false,"rental_uris":{"android":"levelo://app?vid=0dd11c76-a993-41cf-af6d-3f6c458561a9","ios":"levelo://app?vid=0dd11c76-a993-41cf-af6d-3f6c458561a9"},"vehicle_type_id":"4","last_reported":1720807806,"current_range_meters":23200,"station_id":"ce4bhb92rcd13ifvqen0","pricing_plan_id":"cebpf4jnsgd1na2vs0mg"},{"bike_id":"efe383bf-c16f-4dbb-a9ff-f33339944f12","system_id":"levelo_inurba_marseille","lat":43.29001,"lon":5.35617,"is_reserved":false,"is_disabled":false,"rental_uris":{"android":"levelo://app?vid=efe383bf-c16f-4dbb-a9ff-f33339944f12","ios":"levelo://app?vid=efe383bf-c16f-4dbb-a9ff-f33339944f12"},"vehicle_type_id":"4","last_reported":1720807806,"current_range_meters":0,"station_id":"ce4bhb92rcd13ifvqen0","pricing_plan_id":"cebpf4jnsgd1na2vs0mg"},{"bike_id":"0ccd0b96-6fe4-469b-ae04-7a284664fa6d","system_id":"levelo_inurba_marseille","lat":43.29,"lon":5.35615,"is_reserved":false,"is_disabled":false,"rental_uris":{"android":"levelo://app?vid=0ccd0b96-6fe4-469b-ae04-7a284664fa6d","ios":"levelo://app?vid=0ccd0b96-6fe4-469b-ae04-7a284664fa6d"},"vehicle_type_id":"4","last_reported":1720807806,"current_range_meters":31200,"station_id":"ce4bhb92rcd13ifvqen0","pricing_plan_id":"cebpf4jnsgd1na2vs0mg"},{"bike_id":"9f3e8e73-1ef9-4c9d-8eea-f4233b1e22a0","system_id":"levelo_inurba_marseille","lat":43.290094,"lon":5.381264,"is_reserved":false,"is_disabled":false,"rental_uris":{"android":"levelo://app?vid=9f3e8e73-1ef9-4c9d-8eea-f4233b1e22a0","ios":"levelo://app?vid=9f3e8e73-1ef9-4c9d-8eea-f4233b1e22a0"},"vehicle_type_id":"4","last_reported":1720807806,"current_range_meters":26400,"station_id":"ce4bh4p2rcd13ifvqe1g","pricing_plan_id":"cebpf4jnsgd1na2vs0mg"},{"bike_id":"37fe1cea-e0c1-4c70-9fc6-23608e407865","system_id":"levelo_inurba_marseille","lat":43.29796,"lon":5.39342,"is_reserved":false,"is_disabled":false,"rental_uris":{"android":"levelo://app?vid=37fe1cea-e0c1-4c70-9fc6-23608e407865","ios":"levelo://app?vid=37fe1cea-e0c1-4c70-9fc6-23608e407865"},"vehicle_type_id":"4","last_reported":1720807806,"current_range_meters":3200,"station_id":"chh1huq6cuj3fo74tm60","pricing_plan_id":"cebpf4jnsgd1na2vs0mg"},{"bike_id":"2bc86392-c2c0-4be6-bdfc-b48e1b8cba4e","system_id":"levelo_inurba_marseille","lat":43.33016,"lon":5.39038,"is_reserved":false,"is_disabled":false,"rental_uris":{"android":"levelo://app?vid=2bc86392-c2c0-4be6-bdfc-b48e1b8cba4e","ios":"levelo://app?vid=2bc86392-c2c0-4be6-bdfc-b48e1b8cba4e"},"vehicle_type_id":"4","last_reported":1720807806,"current_range_meters":26800,"station_id":"ce4bhr92rcd13ifvqhrg","pricing_plan_id":"cebpf4jnsgd1na2vs0mg"},{"bike_id":"8114ef77-6036-4daa-aac7-bcb5b5c61dda","system_id":"levelo_inurba_marseille","lat":43.330442,"lon":5.389148,"is_reserved":false,"is_disabled":false,"rental_uris":{"android":"levelo://app?vid=8114ef77-6036-4daa-aac7-bcb5b5c61dda","ios":"levelo://app?vid=8114ef77-6036-4daa-aac7-bcb5b5c61dda"},"vehicle_type_id":"4","last_reported":1720807806,"current_range_meters":1200,"station_id":"ce4bhr92rcd13ifvqhrg","pricing_plan_id":"cebpf4jnsgd1na2vs0mg"},{"bike_id":"93811554-3038-4573-adee-278615777e24","system_id":"levelo_inurba_marseille","lat":43.295169,"lon":5.390426,"is_reserved":false,"is_disabled":false,"rental_uris":{"android":"levelo://app?vid=93811554-3038-4573-adee-278615777e24","ios":"levelo://app?vid=93811554-3038-4573-adee-278615777e24"},"vehicle_type_id":"4","last_reported":1720807806,"current_range_meters":800,"station_id":"ce4bh3p2rcd13ifvqdp0","pricing_plan_id":"cebpf4jnsgd1na2vs0mg"},{"bike_id":"69619ed8-7a65-40b9-b5fd-7a5057c1edd2","system_id":"levelo_inurba_marseille","lat":43.295169,"lon":5.390426,"is_reserved":false,"is_disabled":false,"rental_uris":{"android":"levelo://app?vid=69619ed8-7a65-40b9-b5fd-7a5057c1edd2","ios":"levelo://app?vid=69619ed8-7a65-40b9-b5fd-7a5057c1edd2"},"vehicle_type_id":"4","last_reported":1720807806,"current_range_meters":0,"station_id":"ce4bh3p2rcd13ifvqdp0","pricing_plan_id":"cebpf4jnsgd1na2vs0mg"},{"bike_id":"659e07fc-b850-4235-8f9a-addbf43e3220","system_id":"levelo_inurba_marseille","lat":43.330442,"lon":5.389148,"is_reserved":false,"is_disabled":false,"rental_uris":{"android":"levelo://app?vid=659e07fc-b850-4235-8f9a-addbf43e3220","ios":"levelo://app?vid=659e07fc-b850-4235-8f9a-addbf43e3220"},"vehicle_type_id":"4","last_reported":1720807806,"current_range_meters":1600,"station_id":"ce4bhr92rcd13ifvqhrg","pricing_plan_id":"cebpf4jnsgd1na2vs0mg"},{"bike_id":"4b884fa3-48ec-4699-8028-5cc31b768039","system_id":"levelo_inurba_marseille","lat":43.330442,"lon":5.389148,"is_reserved":false,"is_disabled":false,"rental_uris":{"android":"levelo://app?vid=4b884fa3-48ec-4699-8028-5cc31b768039","ios":"levelo://app?vid=4b884fa3-48ec-4699-8028-5cc31b768039"},"vehicle_type_id":"4","last_reported":1720807806,"current_range_meters":3200,"station_id":"ce4bhr92rcd13ifvqhrg","pricing_plan_id":"cebpf4jnsgd1na2vs0mg"},{"bike_id":"0a0003bc-c999-469c-a4fa-8528aa9325d2","system_id":"levelo_inurba_marseille","lat":43.330442,"lon":5.389148,"is_reserved":false,"is_disabled":false,"rental_uris":{"android":"levelo://app?vid=0a0003bc-c999-469c-a4fa-8528aa9325d2","ios":"levelo://app?vid=0a0003bc-c999-469c-a4fa-8528aa9325d2"},"vehicle_type_id":"4","last_reported":1720807806,"current_range_meters":24000,"station_id":"ce4bhr92rcd13ifvqhrg","pricing_plan_id":"cebpf4jnsgd1na2vs0mg"},{"bike_id":"8c22ae32-c5a9-4560-8bb5-fa4324642b65","system_id":"levelo_inurba_marseille","lat":43.330442,"lon":5.389148,"is_reserved":false,"is_disabled":false,"rental_uris":{"android":"levelo://app?vid=8c22ae32-c5a9-4560-8bb5-fa4324642b65","ios":"levelo://app?vid=8c22ae32-c5a9-4560-8bb5-fa4324642b65"},"vehicle_type_id":"4","last_reported":1720807806,"current_range_meters":16400,"station_id":"ce4bhr92rcd13ifvqhrg","pricing_plan_id":"cebpf4jnsgd1na2vs0mg"},{"bike_id":"caad35c3-db6f-48c6-9531-e70913fe3868","system_id":"levelo_inurba_marseille","lat":43.28973,"lon":5.37833,"is_reserved":false,"is_disabled":false,"rental_uris":{"android":"levelo://app?vid=caad35c3-db6f-48c6-9531-e70913fe3868","ios":"levelo://app?vid=caad35c3-db6f-48c6-9531-e70913fe3868"},"vehicle_type_id":"4","last_reported":1720807806,"current_range_meters":0,"station_id":"ce4bh9p2rcd13ifvqed0","pricing_plan_id":"cebpf4jnsgd1na2vs0mg"},{"bike_id":"4d3782d9-6880-40c9-be33-e1324cf762dd","system_id":"levelo_inurba_marseille","lat":43.295169,"lon":5.390426,"is_reserved":false,"is_disabled":false,"rental_uris":{"android":"levelo://app?vid=4d3782d9-6880-40c9-be33-e1324cf762dd","ios":"levelo://app?vid=4d3782d9-6880-40c9-be33-e1324cf762dd"},"vehicle_type_id":"4","last_reported":1720807806,"current_range_meters":4400,"station_id":"ce4bh3p2rcd13ifvqdp0","pricing_plan_id":"cebpf4jnsgd1na2vs0mg"},{"bike_id":"d0b3a22b-c767-47bd-bc44-0d2387711cd5","system_id":"levelo_inurba_marseille","lat":43.330442,"lon":5.389148,"is_reserved":false,"is_disabled":false,"rental_uris":{"android":"levelo://app?vid=d0b3a22b-c767-47bd-bc44-0d2387711cd5","ios":"levelo://app?vid=d0b3a22b-c767-47bd-bc44-0d2387711cd5"},"vehicle_type_id":"4","last_reported":1720807806,"current_range_meters":28000,"station_id":"ce4bhr92rcd13ifvqhrg","pricing_plan_id":"cebpf4jnsgd1na2vs0mg"},{"bike_id":"231bcc60-b57e-4a56-8ce6-9504ea01aaed","system_id":"levelo_inurba_marseille","lat":43.295169,"lon":5.390426,"is_reserved":false,"is_disabled":false,"rental_uris":{"android":"levelo://app?vid=231bcc60-b57e-4a56-8ce6-9504ea01aaed","ios":"levelo://app?vid=231bcc60-b57e-4a56-8ce6-9504ea01aaed"},"vehicle_type_id":"4","last_reported":1720807806,"current_range_meters":1200,"station_id":"ce4bh3p2rcd13ifvqdp0","pricing_plan_id":"cebpf4jnsgd1na2vs0mg"},{"bike_id":"050bb10a-811a-4cf2-8c2f-f183afe95bd5","system_id":"levelo_inurba_marseille","lat":43.330442,"lon":5.389148,"is_reserved":false,"is_disabled":false,"rental_uris":{"android":"levelo://app?vid=050bb10a-811a-4cf2-8c2f-f183afe95bd5","ios":"levelo://app?vid=050bb10a-811a-4cf2-8c2f-f183afe95bd5"},"vehicle_type_id":"4","last_reported":1720807806,"current_range_meters":12800,"station_id":"ce4bhr92rcd13ifvqhrg","pricing_plan_id":"cebpf4jnsgd1na2vs0mg"},{"bike_id":"0bddbd90-c505-49b8-ae99-221a86191353","system_id":"levelo_inurba_marseille","lat":43.29517,"lon":5.39039,"is_reserved":false,"is_disabled":false,"rental_uris":{"android":"levelo://app?vid=0bddbd90-c505-49b8-ae99-221a86191353","ios":"levelo://app?vid=0bddbd90-c505-49b8-ae99-221a86191353"},"vehicle_type_id":"4","last_reported":1720807806,"current_range_meters":0,"station_id":"ce4bh3p2rcd13ifvqdp0","pricing_plan_id":"cebpf4jnsgd1na2vs0mg"},{"bike_id":"6dd91fce-db9a-45ab-ad3c-a70e7bd59ddd","system_id":"levelo_inurba_marseille","lat":43.330442,"lon":5.389148,"is_reserved":false,"is_disabled":false,"rental_uris":{"android":"levelo://app?vid=6dd91fce-db9a-45ab-ad3c-a70e7bd59ddd","ios":"levelo://app?vid=6dd91fce-db9a-45ab-ad3c-a70e7bd59ddd"},"vehicle_type_id":"4","last_reported":1720807806,"current_range_meters":23600,"station_id":"ce4bhr92rcd13ifvqhrg","pricing_plan_id":"cebpf4jnsgd1na2vs0mg"},{"bike_id":"b4f3fa21-ac41-4796-9769-d8bfc000a535","system_id":"levelo_inurba_marseille","lat":43.295169,"lon":5.390426,"is_reserved":false,"is_disabled":false,"rental_uris":{"android":"levelo://app?vid=b4f3fa21-ac41-4796-9769-d8bfc000a535","ios":"levelo://app?vid=b4f3fa21-ac41-4796-9769-d8bfc000a535"},"vehicle_type_id":"4","last_reported":1720807806,"current_range_meters":21200,"station_id":"ce4bh3p2rcd13ifvqdp0","pricing_plan_id":"cebpf4jnsgd1na2vs0mg"},{"bike_id":"361d4f04-57f4-46c9-b48d-cb9d14498897","system_id":"levelo_inurba_marseille","lat":43.295169,"lon":5.390426,"is_reserved":false,"is_disabled":false,"rental_uris":{"android":"levelo://app?vid=361d4f04-57f4-46c9-b48d-cb9d14498897","ios":"levelo://app?vid=361d4f04-57f4-46c9-b48d-cb9d14498897"},"vehicle_type_id":"4","last_reported":1720807806,"current_range_meters":1200,"station_id":"ce4bh3p2rcd13ifvqdp0","pricing_plan_id":"cebpf4jnsgd1na2vs0mg"},{"bike_id":"47840b8e-610d-4c39-952b-773caaf000af","system_id":"levelo_inurba_marseille","lat":43.2901,"lon":5.381269,"is_reserved":false,"is_disabled":false,"rental_uris":{"android":"levelo://app?vid=47840b8e-610d-4c39-952b-773caaf000af","ios":"levelo://app?vid=47840b8e-610d-4c39-952b-773caaf000af"},"vehicle_type_id":"4","last_reported":1720807806,"current_range_meters":800,"station_id":"ce4bh4p2rcd13ifvqe1g","pricing_plan_id":"cebpf4jnsgd1na2vs0mg"},{"bike_id":"6222df12-c9d2-487c-b356-15712eb02d60","system_id":"levelo_inurba_marseille","lat":43.28848,"lon":5.35842,"is_reserved":false,"is_disabled":false,"rental_uris":{"android":"levelo://app?vid=6222df12-c9d2-487c-b356-15712eb02d60","ios":"levelo://app?vid=6222df12-c9d2-487c-b356-15712eb02d60"},"vehicle_type_id":"4","last_reported":1720807806,"current_range_meters":0,"station_id":"ce4bhb12rcd13ifvqem0","pricing_plan_id":"cebpf4jnsgd1na2vs0mg"},{"bike_id":"f4c04bcf-549c-4d36-9000-9e46a10f4c22","system_id":"levelo_inurba_marseille","lat":43.28828,"lon":5.35844,"is_reserved":false,"is_disabled":false,"rental_uris":{"android":"levelo://app?vid=f4c04bcf-549c-4d36-9000-9e46a10f4c22","ios":"levelo://app?vid=f4c04bcf-549c-4d36-9000-9e46a10f4c22"},"vehicle_type_id":"4","last_reported":1720807806,"current_range_meters":0,"station_id":"ce4bhb12rcd13ifvqem0","pricing_plan_id":"cebpf4jnsgd1na2vs0mg"},{"bike_id":"7702b6b1-b283-4791-9c1f-31de4a739324","system_id":"levelo_inurba_marseille","lat":43.31279,"lon":5.40164,"is_reserved":false,"is_disabled":false,"rental_uris":{"android":"levelo://app?vid=7702b6b1-b283-4791-9c1f-31de4a739324","ios":"levelo://app?vid=7702b6b1-b283-4791-9c1f-31de4a739324"},"vehicle_type_id":"4","last_reported":1720807806,"current_range_meters":0,"station_id":"ce4bh092rcd13ifvqd30","pricing_plan_id":"cebpf4jnsgd1na2vs0mg"},{"bike_id":"6e136d8c-2cb8-40e0-b925-fa6bc58ec452","system_id":"levelo_inurba_marseille","lat":43.336624,"lon":5.355574,"is_reserved":false,"is_disabled":false,"rental_uris":{"android":"levelo://app?vid=6e136d8c-2cb8-40e0-b925-fa6bc58ec452","ios":"levelo://app?vid=6e136d8c-2cb8-40e0-b925-fa6bc58ec452"},"vehicle_type_id":"4","last_reported":1720807806,"current_range_meters":15200,"station_id":"","pricing_plan_id":"cebpf4jnsgd1na2vs0mg"},{"bike_id":"c1572583-79cb-42c2-8578-cf987cde059e","system_id":"levelo_inurba_marseille","lat":43.31276,"lon":5.40167,"is_reserved":false,"is_disabled":false,"rental_uris":{"android":"levelo://app?vid=c1572583-79cb-42c2-8578-cf987cde059e","ios":"levelo://app?vid=c1572583-79cb-42c2-8578-cf987cde059e"},"vehicle_type_id":"4","last_reported":1720807806,"current_range_meters":0,"station_id":"ce4bh092rcd13ifvqd30","pricing_plan_id":"cebpf4jnsgd1na2vs0mg"},{"bike_id":"352165a4-8c45-473f-b92d-18d84d058a1e","system_id":"levelo_inurba_marseille","lat":43.30924,"lon":5.40138,"is_reserved":false,"is_disabled":false,"rental_uris":{"android":"levelo://app?vid=352165a4-8c45-473f-b92d-18d84d058a1e","ios":"levelo://app?vid=352165a4-8c45-473f-b92d-18d84d058a1e"},"vehicle_type_id":"4","last_reported":1720807806,"current_range_meters":1600,"station_id":"ce4bgvp2rcd13ifvqct0","pricing_plan_id":"cebpf4jnsgd1na2vs0mg"},{"bike_id":"7eda1e7d-b15c-4507-a807-6a77db903ee7","system_id":"levelo_inurba_marseille","lat":43.337466,"lon":5.374504,"is_reserved":false,"is_disabled":false,"rental_uris":{"android":"levelo://app?vid=7eda1e7d-b15c-4507-a807-6a77db903ee7","ios":"levelo://app?vid=7eda1e7d-b15c-4507-a807-6a77db903ee7"},"vehicle_type_id":"4","last_reported":1720807806,"current_range_meters":7600,"station_id":"","pricing_plan_id":"cebpf4jnsgd1na2vs0mg"},{"bike_id":"52871d14-ab8e-4719-b524-62d736cda021","system_id":"levelo_inurba_marseille","lat":43.309371,"lon":5.401449,"is_reserved":false,"is_disabled":false,"rental_uris":{"android":"levelo://app?vid=52871d14-ab8e-4719-b524-62d736cda021","ios":"levelo://app?vid=52871d14-ab8e-4719-b524-62d736cda021"},"vehicle_type_id":"4","last_reported":1720807806,"current_range_meters":0,"station_id":"ce4bgvp2rcd13ifvqct0","pricing_plan_id":"cebpf4jnsgd1na2vs0mg"},{"bike_id":"6006f7fe-9937-4913-8c90-e115ebc34e22","system_id":"levelo_inurba_marseille","lat":43.309371,"lon":5.401449,"is_reserved":false,"is_disabled":false,"rental_uris":{"android":"levelo://app?vid=6006f7fe-9937-4913-8c90-e115ebc34e22","ios":"levelo://app?vid=6006f7fe-9937-4913-8c90-e115ebc34e22"},"vehicle_type_id":"4","last_reported":1720807806,"current_range_meters":6000,"station_id":"ce4bgvp2rcd13ifvqct0","pricing_plan_id":"cebpf4jnsgd1na2vs0mg"},{"bike_id":"7db14a83-5996-4107-aac5-8660c0fb36ae","system_id":"levelo_inurba_marseille","lat":43.337583,"lon":5.374813,"is_reserved":false,"is_disabled":false,"rental_uris":{"android":"levelo://app?vid=7db14a83-5996-4107-aac5-8660c0fb36ae","ios":"levelo://app?vid=7db14a83-5996-4107-aac5-8660c0fb36ae"},"vehicle_type_id":"4","last_reported":1720807806,"current_range_meters":4000,"station_id":"","pricing_plan_id":"cebpf4jnsgd1na2vs0mg"},{"bike_id":"d26c162e-ade4-4b97-b814-0e4be1ff29cc","system_id":"levelo_inurba_marseille","lat":43.301117,"lon":5.398795,"is_reserved":false,"is_disabled":false,"rental_uris":{"android":"levelo://app?vid=d26c162e-ade4-4b97-b814-0e4be1ff29cc","ios":"levelo://app?vid=d26c162e-ade4-4b97-b814-0e4be1ff29cc"},"vehicle_type_id":"4","last_reported":1720807806,"current_range_meters":26800,"station_id":"ce4bh0h2rcd13ifvqd40","pricing_plan_id":"cebpf4jnsgd1na2vs0mg"},{"bike_id":"57ba5ed7-a2ab-43fa-b0cd-9387cdace068","system_id":"levelo_inurba_marseille","lat":43.301117,"lon":5.398795,"is_reserved":false,"is_disabled":false,"rental_uris":{"android":"levelo://app?vid=57ba5ed7-a2ab-43fa-b0cd-9387cdace068","ios":"levelo://app?vid=57ba5ed7-a2ab-43fa-b0cd-9387cdace068"},"vehicle_type_id":"4","last_reported":1720807806,"current_range_meters":16800,"station_id":"ce4bh0h2rcd13ifvqd40","pricing_plan_id":"cebpf4jnsgd1na2vs0mg"},{"bike_id":"f7aaa88c-ed36-4a78-b9a9-97553b5cb7e6","system_id":"levelo_inurba_marseille","lat":43.301117,"lon":5.398795,"is_reserved":false,"is_disabled":false,"rental_uris":{"android":"levelo://app?vid=f7aaa88c-ed36-4a78-b9a9-97553b5cb7e6","ios":"levelo://app?vid=f7aaa88c-ed36-4a78-b9a9-97553b5cb7e6"},"vehicle_type_id":"4","last_reported":1720807806,"current_range_meters":31200,"station_id":"ce4bh0h2rcd13ifvqd40","pricing_plan_id":"cebpf4jnsgd1na2vs0mg"},{"bike_id":"cf064d0e-79f0-430b-8f2b-703d1247aa81","system_id":"levelo_inurba_marseille","lat":43.301117,"lon":5.398795,"is_reserved":false,"is_disabled":false,"rental_uris":{"android":"levelo://app?vid=cf064d0e-79f0-430b-8f2b-703d1247aa81","ios":"levelo://app?vid=cf064d0e-79f0-430b-8f2b-703d1247aa81"},"vehicle_type_id":"4","last_reported":1720807806,"current_range_meters":29600,"station_id":"ce4bh0h2rcd13ifvqd40","pricing_plan_id":"cebpf4jnsgd1na2vs0mg"},{"bike_id":"f66dd324-43b3-431c-b7fa-e20ecabd4794","system_id":"levelo_inurba_marseille","lat":43.301117,"lon":5.398795,"is_reserved":false,"is_disabled":false,"rental_uris":{"android":"levelo://app?vid=f66dd324-43b3-431c-b7fa-e20ecabd4794","ios":"levelo://app?vid=f66dd324-43b3-431c-b7fa-e20ecabd4794"},"vehicle_type_id":"4","last_reported":1720807806,"current_range_meters":10800,"station_id":"ce4bh0h2rcd13ifvqd40","pricing_plan_id":"cebpf4jnsgd1na2vs0mg"},{"bike_id":"839ff212-0ad9-4d5d-a85b-d1580547e253","system_id":"levelo_inurba_marseille","lat":43.3381,"lon":5.3742,"is_reserved":false,"is_disabled":false,"rental_uris":{"android":"levelo://app?vid=839ff212-0ad9-4d5d-a85b-d1580547e253","ios":"levelo://app?vid=839ff212-0ad9-4d5d-a85b-d1580547e253"},"vehicle_type_id":"4","last_reported":1720807806,"current_range_meters":25600,"station_id":"","pricing_plan_id":"cebpf4jnsgd1na2vs0mg"},{"bike_id":"b0392957-e78f-4e03-9383-0533f939c6d9","system_id":"levelo_inurba_marseille","lat":43.286591,"lon":5.363346,"is_reserved":false,"is_disabled":false,"rental_uris":{"android":"levelo://app?vid=b0392957-e78f-4e03-9383-0533f939c6d9","ios":"levelo://app?vid=b0392957-e78f-4e03-9383-0533f939c6d9"},"vehicle_type_id":"4","last_reported":1720807806,"current_range_meters":3200,"station_id":"ce4bhah2rcd13ifvqej0","pricing_plan_id":"cebpf4jnsgd1na2vs0mg"},{"bike_id":"4b344de4-0a38-43a9-813e-81a5f22420a4","system_id":"levelo_inurba_marseille","lat":43.286593,"lon":5.363346,"is_reserved":false,"is_disabled":false,"rental_uris":{"android":"levelo://app?vid=4b344de4-0a38-43a9-813e-81a5f22420a4","ios":"levelo://app?vid=4b344de4-0a38-43a9-813e-81a5f22420a4"},"vehicle_type_id":"4","last_reported":1720807806,"current_range_meters":2000,"station_id":"ce4bhah2rcd13ifvqej0","pricing_plan_id":"cebpf4jnsgd1na2vs0mg"},{"bike_id":"6aed8c7e-2945-43dc-bc96-7e16590e9931","system_id":"levelo_inurba_marseille","lat":43.286593,"lon":5.363346,"is_reserved":false,"is_disabled":false,"rental_uris":{"android":"levelo://app?vid=6aed8c7e-2945-43dc-bc96-7e16590e9931","ios":"levelo://app?vid=6aed8c7e-2945-43dc-bc96-7e16590e9931"},"vehicle_type_id":"4","last_reported":1720807806,"current_range_meters":31200,"station_id":"ce4bhah2rcd13ifvqej0","pricing_plan_id":"cebpf4jnsgd1na2vs0mg"},{"bike_id":"865812eb-4a82-4caf-b48a-81308a83b0dc","system_id":"levelo_inurba_marseille","lat":43.28661,"lon":5.36356,"is_reserved":false,"is_disabled":false,"rental_uris":{"android":"levelo://app?vid=865812eb-4a82-4caf-b48a-81308a83b0dc","ios":"levelo://app?vid=865812eb-4a82-4caf-b48a-81308a83b0dc"},"vehicle_type_id":"4","last_reported":1720807806,"current_range_meters":0,"station_id":"ce4bhah2rcd13ifvqej0","pricing_plan_id":"cebpf4jnsgd1na2vs0mg"},{"bike_id":"62b8765c-5a4a-4774-8d53-bbeb61b22247","system_id":"levelo_inurba_marseille","lat":43.286961,"lon":5.373785,"is_reserved":false,"is_disabled":false,"rental_uris":{"android":"levelo://app?vid=62b8765c-5a4a-4774-8d53-bbeb61b22247","ios":"levelo://app?vid=62b8765c-5a4a-4774-8d53-bbeb61b22247"},"vehicle_type_id":"4","last_reported":1720807806,"current_range_meters":0,"station_id":"ce4bh3p2rcd13ifvqdq0","pricing_plan_id":"cebpf4jnsgd1na2vs0mg"},{"bike_id":"6ba6b941-d852-4ff8-879d-13cefcc3e850","system_id":"levelo_inurba_marseille","lat":43.286961,"lon":5.373785,"is_reserved":false,"is_disabled":false,"rental_uris":{"android":"levelo://app?vid=6ba6b941-d852-4ff8-879d-13cefcc3e850","ios":"levelo://app?vid=6ba6b941-d852-4ff8-879d-13cefcc3e850"},"vehicle_type_id":"4","last_reported":1720807806,"current_range_meters":18000,"station_id":"ce4bh3p2rcd13ifvqdq0","pricing_plan_id":"cebpf4jnsgd1na2vs0mg"},{"bike_id":"5fd8a54a-a80f-495d-ab62-564a6833868a","system_id":"levelo_inurba_marseille","lat":43.295196,"lon":5.39397,"is_reserved":false,"is_disabled":false,"rental_uris":{"android":"levelo://app?vid=5fd8a54a-a80f-495d-ab62-564a6833868a","ios":"levelo://app?vid=5fd8a54a-a80f-495d-ab62-564a6833868a"},"vehicle_type_id":"4","last_reported":1720807806,"current_range_meters":28400,"station_id":"ce4bh292rcd13ifvqdf0","pricing_plan_id":"cebpf4jnsgd1na2vs0mg"},{"bike_id":"2e13247f-7343-40c5-8fee-ee7fccd4a260","system_id":"levelo_inurba_marseille","lat":43.29521,"lon":5.39407,"is_reserved":false,"is_disabled":false,"rental_uris":{"android":"levelo://app?vid=2e13247f-7343-40c5-8fee-ee7fccd4a260","ios":"levelo://app?vid=2e13247f-7343-40c5-8fee-ee7fccd4a260"},"vehicle_type_id":"4","last_reported":1720807806,"current_range_meters":0,"station_id":"ce4bh292rcd13ifvqdf0","pricing_plan_id":"cebpf4jnsgd1na2vs0mg"},{"bike_id":"c212eeb4-f36d-43b3-8e4c-2b2db8081207","system_id":"levelo_inurba_marseille","lat":43.28931,"lon":5.38394,"is_reserved":false,"is_disabled":false,"rental_uris":{"android":"levelo://app?vid=c212eeb4-f36d-43b3-8e4c-2b2db8081207","ios":"levelo://app?vid=c212eeb4-f36d-43b3-8e4c-2b2db8081207"},"vehicle_type_id":"4","last_reported":1720807806,"current_range_meters":6800,"station_id":"ce4bh612rcd13ifvqe6g","pricing_plan_id":"cebpf4jnsgd1na2vs0mg"},{"bike_id":"b497563e-b265-4130-8af5-21c64c2bc330","system_id":"levelo_inurba_marseille","lat":43.289307,"lon":5.38406,"is_reserved":false,"is_disabled":false,"rental_uris":{"android":"levelo://app?vid=b497563e-b265-4130-8af5-21c64c2bc330","ios":"levelo://app?vid=b497563e-b265-4130-8af5-21c64c2bc330"},"vehicle_type_id":"4","last_reported":1720807806,"current_range_meters":0,"station_id":"ce4bh612rcd13ifvqe6g","pricing_plan_id":"cebpf4jnsgd1na2vs0mg"},{"bike_id":"75d2bef3-b358-4cd0-86af-d6ee665382f2","system_id":"levelo_inurba_marseille","lat":43.29027,"lon":5.3863,"is_reserved":false,"is_disabled":false,"rental_uris":{"android":"levelo://app?vid=75d2bef3-b358-4cd0-86af-d6ee665382f2","ios":"levelo://app?vid=75d2bef3-b358-4cd0-86af-d6ee665382f2"},"vehicle_type_id":"4","last_reported":1720807806,"current_range_meters":0,"station_id":"ce4bh4p2rcd13ifvqe0g","pricing_plan_id":"cebpf4jnsgd1na2vs0mg"},{"bike_id":"532bbd7f-27d4-40ba-bb61-7044a7055c6f","system_id":"levelo_inurba_marseille","lat":43.2903,"lon":5.38637,"is_reserved":false,"is_disabled":false,"rental_uris":{"android":"levelo://app?vid=532bbd7f-27d4-40ba-bb61-7044a7055c6f","ios":"levelo://app?vid=532bbd7f-27d4-40ba-bb61-7044a7055c6f"},"vehicle_type_id":"4","last_reported":1720807806,"current_range_meters":0,"station_id":"ce4bh4p2rcd13ifvqe0g","pricing_plan_id":"cebpf4jnsgd1na2vs0mg"},{"bike_id":"7bdcc583-a848-4b92-b3ba-33defaa42dcd","system_id":"levelo_inurba_marseille","lat":43.28923,"lon":5.38399,"is_reserved":false,"is_disabled":false,"rental_uris":{"android":"levelo://app?vid=7bdcc583-a848-4b92-b3ba-33defaa42dcd","ios":"levelo://app?vid=7bdcc583-a848-4b92-b3ba-33defaa42dcd"},"vehicle_type_id":"4","last_reported":1720807806,"current_range_meters":0,"station_id":"ce4bh612rcd13ifvqe6g","pricing_plan_id":"cebpf4jnsgd1na2vs0mg"},{"bike_id":"e300a462-e16d-461b-99f2-9f59c1627253","system_id":"levelo_inurba_marseille","lat":43.290336,"lon":5.386425,"is_reserved":false,"is_disabled":false,"rental_uris":{"android":"levelo://app?vid=e300a462-e16d-461b-99f2-9f59c1627253","ios":"levelo://app?vid=e300a462-e16d-461b-99f2-9f59c1627253"},"vehicle_type_id":"4","last_reported":1720807806,"current_range_meters":11600,"station_id":"ce4bh4p2rcd13ifvqe0g","pricing_plan_id":"cebpf4jnsgd1na2vs0mg"},{"bike_id":"0f26a7c2-bcb4-4fe7-8a91-4585480c29e0","system_id":"levelo_inurba_marseille","lat":43.28719,"lon":5.37941,"is_reserved":false,"is_disabled":false,"rental_uris":{"android":"levelo://app?vid=0f26a7c2-bcb4-4fe7-8a91-4585480c29e0","ios":"levelo://app?vid=0f26a7c2-bcb4-4fe7-8a91-4585480c29e0"},"vehicle_type_id":"4","last_reported":1720807806,"current_range_meters":25600,"station_id":"ce4bh9p2rcd13ifvqec0","pricing_plan_id":"cebpf4jnsgd1na2vs0mg"},{"bike_id":"12b87f8a-9756-4403-95c3-3c7d2b9f3055","system_id":"levelo_inurba_marseille","lat":43.28719,"lon":5.37941,"is_reserved":false,"is_disabled":false,"rental_uris":{"android":"levelo://app?vid=12b87f8a-9756-4403-95c3-3c7d2b9f3055","ios":"levelo://app?vid=12b87f8a-9756-4403-95c3-3c7d2b9f3055"},"vehicle_type_id":"4","last_reported":1720807806,"current_range_meters":24800,"station_id":"","pricing_plan_id":"cebpf4jnsgd1na2vs0mg"},{"bike_id":"9c2cf684-59a9-46f8-a2cb-444cec565800","system_id":"levelo_inurba_marseille","lat":43.317,"lon":5.40479,"is_reserved":false,"is_disabled":false,"rental_uris":{"android":"levelo://app?vid=9c2cf684-59a9-46f8-a2cb-444cec565800","ios":"levelo://app?vid=9c2cf684-59a9-46f8-a2cb-444cec565800"},"vehicle_type_id":"4","last_reported":1720807806,"current_range_meters":0,"station_id":"ce4bh012rcd13ifvqd00","pricing_plan_id":"cebpf4jnsgd1na2vs0mg"},{"bike_id":"503b1aa4-8f98-4418-a0ff-ece08e1a053b","system_id":"levelo_inurba_marseille","lat":43.291994,"lon":5.392907,"is_reserved":false,"is_disabled":false,"rental_uris":{"android":"levelo://app?vid=503b1aa4-8f98-4418-a0ff-ece08e1a053b","ios":"levelo://app?vid=503b1aa4-8f98-4418-a0ff-ece08e1a053b"},"vehicle_type_id":"4","last_reported":1720807806,"current_range_meters":4400,"station_id":"ce4bh192rcd13ifvqdd0","pricing_plan_id":"cebpf4jnsgd1na2vs0mg"},{"bike_id":"5711ac39-5332-4453-9b0e-3b68ee8c07c3","system_id":"levelo_inurba_marseille","lat":43.283998,"lon":5.375062,"is_reserved":false,"is_disabled":false,"rental_uris":{"android":"levelo://app?vid=5711ac39-5332-4453-9b0e-3b68ee8c07c3","ios":"levelo://app?vid=5711ac39-5332-4453-9b0e-3b68ee8c07c3"},"vehicle_type_id":"4","last_reported":1720807806,"current_range_meters":0,"station_id":"ce4bh412rcd13ifvqds0","pricing_plan_id":"cebpf4jnsgd1na2vs0mg"},{"bike_id":"3a93c8dd-09d2-425b-8e2b-a914365e0fdb","system_id":"levelo_inurba_marseille","lat":43.294314,"lon":5.397498,"is_reserved":false,"is_disabled":false,"rental_uris":{"android":"levelo://app?vid=3a93c8dd-09d2-425b-8e2b-a914365e0fdb","ios":"levelo://app?vid=3a93c8dd-09d2-425b-8e2b-a914365e0fdb"},"vehicle_type_id":"4","last_reported":1720807806,"current_range_meters":18400,"station_id":"ce4bh3h2rcd13ifvqdo0","pricing_plan_id":"cebpf4jnsgd1na2vs0mg"},{"bike_id":"0634185e-56e6-4742-879a-ee4b30a29f63","system_id":"levelo_inurba_marseille","lat":43.284534,"lon":5.358662,"is_reserved":false,"is_disabled":false,"rental_uris":{"android":"levelo://app?vid=0634185e-56e6-4742-879a-ee4b30a29f63","ios":"levelo://app?vid=0634185e-56e6-4742-879a-ee4b30a29f63"},"vehicle_type_id":"4","last_reported":1720807806,"current_range_meters":31200,"station_id":"ce4bhah2rcd13ifvqei0","pricing_plan_id":"cebpf4jnsgd1na2vs0mg"},{"bike_id":"122100b5-d32d-4459-848f-b8b7faa3a0e1","system_id":"levelo_inurba_marseille","lat":43.294314,"lon":5.397498,"is_reserved":false,"is_disabled":false,"rental_uris":{"android":"levelo://app?vid=122100b5-d32d-4459-848f-b8b7faa3a0e1","ios":"levelo://app?vid=122100b5-d32d-4459-848f-b8b7faa3a0e1"},"vehicle_type_id":"4","last_reported":1720807806,"current_range_meters":0,"station_id":"ce4bh3h2rcd13ifvqdo0","pricing_plan_id":"cebpf4jnsgd1na2vs0mg"},{"bike_id":"9f217070-c7e7-4dcc-8ab8-222590f4cfba","system_id":"levelo_inurba_marseille","lat":43.294314,"lon":5.397498,"is_reserved":false,"is_disabled":false,"rental_uris":{"android":"levelo://app?vid=9f217070-c7e7-4dcc-8ab8-222590f4cfba","ios":"levelo://app?vid=9f217070-c7e7-4dcc-8ab8-222590f4cfba"},"vehicle_type_id":"4","last_reported":1720807806,"current_range_meters":8800,"station_id":"ce4bh3h2rcd13ifvqdo0","pricing_plan_id":"cebpf4jnsgd1na2vs0mg"},{"bike_id":"592d1071-0dfa-410b-ab28-95672b5c0fc6","system_id":"levelo_inurba_marseille","lat":43.286223,"lon":5.35106,"is_reserved":false,"is_disabled":false,"rental_uris":{"android":"levelo://app?vid=592d1071-0dfa-410b-ab28-95672b5c0fc6","ios":"levelo://app?vid=592d1071-0dfa-410b-ab28-95672b5c0fc6"},"vehicle_type_id":"4","last_reported":1720807806,"current_range_meters":400,"station_id":"ce4bhch2rcd13ifvqeug","pricing_plan_id":"cebpf4jnsgd1na2vs0mg"},{"bike_id":"174b0aaf-95ec-4764-8eb8-6e57c6a0a538","system_id":"levelo_inurba_marseille","lat":43.285856,"lon":5.350771,"is_reserved":false,"is_disabled":false,"rental_uris":{"android":"levelo://app?vid=174b0aaf-95ec-4764-8eb8-6e57c6a0a538","ios":"levelo://app?vid=174b0aaf-95ec-4764-8eb8-6e57c6a0a538"},"vehicle_type_id":"4","last_reported":1720807806,"current_range_meters":16000,"station_id":"ce4bhch2rcd13ifvqeug","pricing_plan_id":"cebpf4jnsgd1na2vs0mg"},{"bike_id":"c215398f-fc29-4b18-8fda-ac98321078f6","system_id":"levelo_inurba_marseille","lat":43.28621,"lon":5.35108,"is_reserved":false,"is_disabled":false,"rental_uris":{"android":"levelo://app?vid=c215398f-fc29-4b18-8fda-ac98321078f6","ios":"levelo://app?vid=c215398f-fc29-4b18-8fda-ac98321078f6"},"vehicle_type_id":"4","last_reported":1720807806,"current_range_meters":23200,"station_id":"ce4bhch2rcd13ifvqeug","pricing_plan_id":"cebpf4jnsgd1na2vs0mg"},{"bike_id":"2d0aa31f-e3ac-4ce3-b751-9598eb391b09","system_id":"levelo_inurba_marseille","lat":43.285856,"lon":5.350771,"is_reserved":false,"is_disabled":false,"rental_uris":{"android":"levelo://app?vid=2d0aa31f-e3ac-4ce3-b751-9598eb391b09","ios":"levelo://app?vid=2d0aa31f-e3ac-4ce3-b751-9598eb391b09"},"vehicle_type_id":"4","last_reported":1720807806,"current_range_meters":13600,"station_id":"ce4bhch2rcd13ifvqeug","pricing_plan_id":"cebpf4jnsgd1na2vs0mg"},{"bike_id":"a5bb969c-f1c0-4a31-b596-14e37e531c8f","system_id":"levelo_inurba_marseille","lat":43.28618,"lon":5.35106,"is_reserved":false,"is_disabled":false,"rental_uris":{"android":"levelo://app?vid=a5bb969c-f1c0-4a31-b596-14e37e531c8f","ios":"levelo://app?vid=a5bb969c-f1c0-4a31-b596-14e37e531c8f"},"vehicle_type_id":"4","last_reported":1720807806,"current_range_meters":31200,"station_id":"ce4bhch2rcd13ifvqeug","pricing_plan_id":"cebpf4jnsgd1na2vs0mg"},{"bike_id":"93a95781-2dcb-4389-a271-675bb0ae2279","system_id":"levelo_inurba_marseille","lat":43.285856,"lon":5.350771,"is_reserved":false,"is_disabled":false,"rental_uris":{"android":"levelo://app?vid=93a95781-2dcb-4389-a271-675bb0ae2279","ios":"levelo://app?vid=93a95781-2dcb-4389-a271-675bb0ae2279"},"vehicle_type_id":"4","last_reported":1720807806,"current_range_meters":13600,"station_id":"ce4bhch2rcd13ifvqeug","pricing_plan_id":"cebpf4jnsgd1na2vs0mg"},{"bike_id":"db72c137-9aa6-4739-b7e5-4c92b5e3a5ca","system_id":"levelo_inurba_marseille","lat":43.28617,"lon":5.35108,"is_reserved":false,"is_disabled":false,"rental_uris":{"android":"levelo://app?vid=db72c137-9aa6-4739-b7e5-4c92b5e3a5ca","ios":"levelo://app?vid=db72c137-9aa6-4739-b7e5-4c92b5e3a5ca"},"vehicle_type_id":"4","last_reported":1720807806,"current_range_meters":31200,"station_id":"ce4bhch2rcd13ifvqeug","pricing_plan_id":"cebpf4jnsgd1na2vs0mg"},{"bike_id":"a1ef34f1-734e-47ce-8229-56ccd0879fe4","system_id":"levelo_inurba_marseille","lat":43.28617,"lon":5.35107,"is_reserved":false,"is_disabled":false,"rental_uris":{"android":"levelo://app?vid=a1ef34f1-734e-47ce-8229-56ccd0879fe4","ios":"levelo://app?vid=a1ef34f1-734e-47ce-8229-56ccd0879fe4"},"vehicle_type_id":"4","last_reported":1720807806,"current_range_meters":31200,"station_id":"ce4bhch2rcd13ifvqeug","pricing_plan_id":"cebpf4jnsgd1na2vs0mg"},{"bike_id":"fc04f12e-3666-469c-8cae-cd25fe4cb1c0","system_id":"levelo_inurba_marseille","lat":43.285856,"lon":5.350771,"is_reserved":false,"is_disabled":false,"rental_uris":{"android":"levelo://app?vid=fc04f12e-3666-469c-8cae-cd25fe4cb1c0","ios":"levelo://app?vid=fc04f12e-3666-469c-8cae-cd25fe4cb1c0"},"vehicle_type_id":"4","last_reported":1720807806,"current_range_meters":0,"station_id":"ce4bhch2rcd13ifvqeug","pricing_plan_id":"cebpf4jnsgd1na2vs0mg"},{"bike_id":"e8fff5e6-c4ab-46ca-b000-7c2494d913f6","system_id":"levelo_inurba_marseille","lat":43.286165,"lon":5.351038,"is_reserved":false,"is_disabled":false,"rental_uris":{"android":"levelo://app?vid=e8fff5e6-c4ab-46ca-b000-7c2494d913f6","ios":"levelo://app?vid=e8fff5e6-c4ab-46ca-b000-7c2494d913f6"},"vehicle_type_id":"4","last_reported":1720807806,"current_range_meters":29600,"station_id":"ce4bhch2rcd13ifvqeug","pricing_plan_id":"cebpf4jnsgd1na2vs0mg"},{"bike_id":"191fba11-2980-4c7e-abeb-b5c4012078a1","system_id":"levelo_inurba_marseille","lat":43.28618,"lon":5.35098,"is_reserved":false,"is_disabled":false,"rental_uris":{"android":"levelo://app?vid=191fba11-2980-4c7e-abeb-b5c4012078a1","ios":"levelo://app?vid=191fba11-2980-4c7e-abeb-b5c4012078a1"},"vehicle_type_id":"4","last_reported":1720807806,"current_range_meters":31200,"station_id":"ce4bhch2rcd13ifvqeug","pricing_plan_id":"cebpf4jnsgd1na2vs0mg"},{"bike_id":"525f7ddb-79d4-443a-96c6-7d59502a276f","system_id":"levelo_inurba_marseille","lat":43.28617,"lon":5.35101,"is_reserved":false,"is_disabled":false,"rental_uris":{"android":"levelo://app?vid=525f7ddb-79d4-443a-96c6-7d59502a276f","ios":"levelo://app?vid=525f7ddb-79d4-443a-96c6-7d59502a276f"},"vehicle_type_id":"4","last_reported":1720807806,"current_range_meters":12000,"station_id":"ce4bhch2rcd13ifvqeug","pricing_plan_id":"cebpf4jnsgd1na2vs0mg"},{"bike_id":"baa40f0e-74a4-48b1-9408-ad47c94ae23f","system_id":"levelo_inurba_marseille","lat":43.285856,"lon":5.350771,"is_reserved":false,"is_disabled":false,"rental_uris":{"android":"levelo://app?vid=baa40f0e-74a4-48b1-9408-ad47c94ae23f","ios":"levelo://app?vid=baa40f0e-74a4-48b1-9408-ad47c94ae23f"},"vehicle_type_id":"4","last_reported":1720807806,"current_range_meters":28800,"station_id":"ce4bhch2rcd13ifvqeug","pricing_plan_id":"cebpf4jnsgd1na2vs0mg"},{"bike_id":"67514173-c3a0-46a1-955b-cee9dd0629ad","system_id":"levelo_inurba_marseille","lat":43.28616,"lon":5.35104,"is_reserved":false,"is_disabled":false,"rental_uris":{"android":"levelo://app?vid=67514173-c3a0-46a1-955b-cee9dd0629ad","ios":"levelo://app?vid=67514173-c3a0-46a1-955b-cee9dd0629ad"},"vehicle_type_id":"4","last_reported":1720807806,"current_range_meters":8400,"station_id":"ce4bhch2rcd13ifvqeug","pricing_plan_id":"cebpf4jnsgd1na2vs0mg"},{"bike_id":"9bec313c-3fce-40e4-a658-735addbaabee","system_id":"levelo_inurba_marseille","lat":43.28615,"lon":5.35101,"is_reserved":false,"is_disabled":false,"rental_uris":{"android":"levelo://app?vid=9bec313c-3fce-40e4-a658-735addbaabee","ios":"levelo://app?vid=9bec313c-3fce-40e4-a658-735addbaabee"},