{"last_updated":1728324747,"ttl":60,"version":"2.2","data":{"bikes":[{"bike_id":"3d909657-dd45-4f4e-840b-ac1c0ec97515","system_id":"levelo_inurba_marseille","lat":43.25571,"lon":5.382425,"is_reserved":false,"is_disabled":false,"rental_uris":{"android":"levelo://app?vid=3d909657-dd45-4f4e-840b-ac1c0ec97515","ios":"levelo://app?vid=3d909657-dd45-4f4e-840b-ac1c0ec97515"},"vehicle_type_id":"4","last_reported":1728324747,"current_range_meters":34800,"station_id":"ce4bhih2rcd13ifvqfs0","pricing_plan_id":"cebpf4jnsgd1na2vs0mg"},{"bike_id":"f388f7a0-ce81-424e-81ff-f56071b4276d","system_id":"levelo_inurba_marseille","lat":43.25711,"lon":5.41098,"is_reserved":false,"is_disabled":false,"rental_uris":{"android":"levelo://app?vid=f388f7a0-ce81-424e-81ff-f56071b4276d","ios":"levelo://app?vid=f388f7a0-ce81-424e-81ff-f56071b4276d"},"vehicle_type_id":"4","last_reported":1728324747,"current_range_meters":34800,"station_id":"ce4bhkp2rcd13ifvqgd0","pricing_plan_id":"cebpf4jnsgd1na2vs0mg"},{"bike_id":"2f22a104-ef32-469a-83ca-1237352b92f9","system_id":"levelo_inurba_marseille","lat":43.28153,"lon":5.42644,"is_reserved":false,"is_disabled":false,"rental_uris":{"android":"levelo://app?vid=2f22a104-ef32-469a-83ca-1237352b92f9","ios":"levelo://app?vid=2f22a104-ef32-469a-83ca-1237352b92f9"},"vehicle_type_id":"4","last_reported":1728324747,"current_range_meters":3600,"station_id":"ce4bhnh2rcd13ifvqgug","pricing_plan_id":"cebpf4jnsgd1na2vs0mg"},{"bike_id":"9c4c72c6-a204-4ec6-b60f-4072f9a90ddd","system_id":"levelo_inurba_marseille","lat":43.28691,"lon":5.37387,"is_reserved":false,"is_disabled":false,"rental_uris":{"android":"levelo://app?vid=9c4c72c6-a204-4ec6-b60f-4072f9a90ddd","ios":"levelo://app?vid=9c4c72c6-a204-4ec6-b60f-4072f9a90ddd"},"vehicle_type_id":"4","last_reported":1728324747,"current_range_meters":8000,"station_id":"ce4bh3p2rcd13ifvqdq0","pricing_plan_id":"cebpf4jnsgd1na2vs0mg"},{"bike_id":"7a8bdbe4-1226-410e-9e6e-e24efc4cd6f5","system_id":"levelo_inurba_marseille","lat":43.29464,"lon":5.37807,"is_reserved":false,"is_disabled":false,"rental_uris":{"android":"levelo://app?vid=7a8bdbe4-1226-410e-9e6e-e24efc4cd6f5","ios":"levelo://app?vid=7a8bdbe4-1226-410e-9e6e-e24efc4cd6f5"},"vehicle_type_id":"4","last_reported":1728324747,"current_range_meters":27200,"station_id":"ce4bgjh2rcd13ifvqbf0","pricing_plan_id":"cebpf4jnsgd1na2vs0mg"},{"bike_id":"3edccbad-c604-40df-acb2-6e9d91b67298","system_id":"levelo_inurba_marseille","lat":43.23058,"lon":5.35486,"is_reserved":false,"is_disabled":false,"rental_uris":{"android":"levelo://app?vid=3edccbad-c604-40df-acb2-6e9d91b67298","ios":"levelo://app?vid=3edccbad-c604-40df-acb2-6e9d91b67298"},"vehicle_type_id":"4","last_reported":1728324747,"current_range_meters":19200,"station_id":"cpo3342slgdg3j2ifvpg","pricing_plan_id":"cebpf4jnsgd1na2vs0mg"},{"bike_id":"56d3a2c1-cbab-4447-a367-83dfb2dbdacd","system_id":"levelo_inurba_marseille","lat":43.30873,"lon":5.39642,"is_reserved":false,"is_disabled":false,"rental_uris":{"android":"levelo://app?vid=56d3a2c1-cbab-4447-a367-83dfb2dbdacd","ios":"levelo://app?vid=56d3a2c1-cbab-4447-a367-83dfb2dbdacd"},"vehicle_type_id":"4","last_reported":1728324747,"current_range_meters":16400,"station_id":"ce4bh012rcd13ifvqcv0","pricing_plan_id":"cebpf4jnsgd1na2vs0mg"},{"bike_id":"12ad23be-340b-4dab-9733-7e783975d83d","system_id":"levelo_inurba_marseille","lat":43.30797,"lon":5.38154,"is_reserved":false,"is_disabled":false,"rental_uris":{"android":"levelo://app?vid=12ad23be-340b-4dab-9733-7e783975d83d","ios":"levelo://app?vid=12ad23be-340b-4dab-9733-7e783975d83d"},"vehicle_type_id":"4","last_reported":1728324747,"current_range_meters":28000,"station_id":"ce4bgt12rcd13ifvqce0","pricing_plan_id":"cebpf4jnsgd1na2vs0mg"},{"bike_id":"a1d278cd-c78d-453b-9867-bdeba0125dfb","system_id":"levelo_inurba_marseille","lat":43.24808,"lon":5.3746,"is_reserved":false,"is_disabled":false,"rental_uris":{"android":"levelo://app?vid=a1d278cd-c78d-453b-9867-bdeba0125dfb","ios":"levelo://app?vid=a1d278cd-c78d-453b-9867-bdeba0125dfb"},"vehicle_type_id":"4","last_reported":1728324747,"current_range_meters":8000,"station_id":"ce4bhgh2rcd13ifvqfb0","pricing_plan_id":"cebpf4jnsgd1na2vs0mg"},{"bike_id":"1723d412-245a-456a-ad4c-0d96e770da59","system_id":"levelo_inurba_marseille","lat":43.28078,"lon":5.39672,"is_reserved":false,"is_disabled":false,"rental_uris":{"android":"levelo://app?vid=1723d412-245a-456a-ad4c-0d96e770da59","ios":"levelo://app?vid=1723d412-245a-456a-ad4c-0d96e770da59"},"vehicle_type_id":"4","last_reported":1728324747,"current_range_meters":38400,"station_id":"ce4bho12rcd13ifvqh2g","pricing_plan_id":"cebpf4jnsgd1na2vs0mg"},{"bike_id":"5807f393-4615-40e7-9211-2b87e23a2fb9","system_id":"levelo_inurba_marseille","lat":43.29708,"lon":5.36607,"is_reserved":false,"is_disabled":false,"rental_uris":{"android":"levelo://app?vid=5807f393-4615-40e7-9211-2b87e23a2fb9","ios":"levelo://app?vid=5807f393-4615-40e7-9211-2b87e23a2fb9"},"vehicle_type_id":"4","last_reported":1728324747,"current_range_meters":20000,"station_id":"ce4bgn12rcd13ifvqbt0","pricing_plan_id":"cebpf4jnsgd1na2vs0mg"},{"bike_id":"5cbc9c45-d090-40f0-bf46-98bb0454ae1f","system_id":"levelo_inurba_marseille","lat":43.29193,"lon":5.39315,"is_reserved":false,"is_disabled":false,"rental_uris":{"android":"levelo://app?vid=5cbc9c45-d090-40f0-bf46-98bb0454ae1f","ios":"levelo://app?vid=5cbc9c45-d090-40f0-bf46-98bb0454ae1f"},"vehicle_type_id":"4","last_reported":1728324747,"current_range_meters":38800,"station_id":"ce4bh192rcd13ifvqdd0","pricing_plan_id":"cebpf4jnsgd1na2vs0mg"},{"bike_id":"c7159f54-4b89-435e-ada5-191e3c5111b0","system_id":"levelo_inurba_marseille","lat":43.28573,"lon":5.39505,"is_reserved":false,"is_disabled":false,"rental_uris":{"android":"levelo://app?vid=c7159f54-4b89-435e-ada5-191e3c5111b0","ios":"levelo://app?vid=c7159f54-4b89-435e-ada5-191e3c5111b0"},"vehicle_type_id":"4","last_reported":1728324747,"current_range_meters":4000,"station_id":"ce4bh292rcd13ifvqdg0","pricing_plan_id":"cebpf4jnsgd1na2vs0mg"},{"bike_id":"11b35691-6b69-4e44-9896-778a89c5f594","system_id":"levelo_inurba_marseille","lat":43.28825,"lon":5.35877,"is_reserved":false,"is_disabled":false,"rental_uris":{"android":"levelo://app?vid=11b35691-6b69-4e44-9896-778a89c5f594","ios":"levelo://app?vid=11b35691-6b69-4e44-9896-778a89c5f594"},"vehicle_type_id":"4","last_reported":1728324747,"current_range_meters":22800,"station_id":"ce4bhb12rcd13ifvqem0","pricing_plan_id":"cebpf4jnsgd1na2vs0mg"},{"bike_id":"81b07a05-4c57-4e76-99d6-5f6e3acbb201","system_id":"levelo_inurba_marseille","lat":43.23057,"lon":5.35499,"is_reserved":false,"is_disabled":false,"rental_uris":{"android":"levelo://app?vid=81b07a05-4c57-4e76-99d6-5f6e3acbb201","ios":"levelo://app?vid=81b07a05-4c57-4e76-99d6-5f6e3acbb201"},"vehicle_type_id":"4","last_reported":1728324747,"current_range_meters":10800,"station_id":"cpo3342slgdg3j2ifvpg","pricing_plan_id":"cebpf4jnsgd1na2vs0mg"},{"bike_id":"ff078672-b145-4a1e-a0a8-b2fddee24ef9","system_id":"levelo_inurba_marseille","lat":43.28941,"lon":5.36414,"is_reserved":false,"is_disabled":false,"rental_uris":{"android":"levelo://app?vid=ff078672-b145-4a1e-a0a8-b2fddee24ef9","ios":"levelo://app?vid=ff078672-b145-4a1e-a0a8-b2fddee24ef9"},"vehicle_type_id":"4","last_reported":1728324747,"current_range_meters":16400,"station_id":"ce4bhc92rcd13ifvqetg","pricing_plan_id":"cebpf4jnsgd1na2vs0mg"},{"bike_id":"f6f735b2-2c7f-4bda-80c2-a88a32bd651a","system_id":"levelo_inurba_marseille","lat":43.28448,"lon":5.35893,"is_reserved":false,"is_disabled":false,"rental_uris":{"android":"levelo://app?vid=f6f735b2-2c7f-4bda-80c2-a88a32bd651a","ios":"levelo://app?vid=f6f735b2-2c7f-4bda-80c2-a88a32bd651a"},"vehicle_type_id":"4","last_reported":1728324747,"current_range_meters":3600,"station_id":"ce4bhah2rcd13ifvqei0","pricing_plan_id":"cebpf4jnsgd1na2vs0mg"},{"bike_id":"ca0b4b9e-57d9-45c3-babe-e529cab62d96","system_id":"levelo_inurba_marseille","lat":43.30538,"lon":5.38435,"is_reserved":false,"is_disabled":false,"rental_uris":{"android":"levelo://app?vid=ca0b4b9e-57d9-45c3-babe-e529cab62d96","ios":"levelo://app?vid=ca0b4b9e-57d9-45c3-babe-e529cab62d96"},"vehicle_type_id":"4","last_reported":1728324747,"current_range_meters":17200,"station_id":"ce4bgg92rcd13ifvqb30","pricing_plan_id":"cebpf4jnsgd1na2vs0mg"},{"bike_id":"2b8845f4-edeb-443d-a8e9-75052263bb1c","system_id":"levelo_inurba_marseille","lat":43.27959,"lon":5.41781,"is_reserved":false,"is_disabled":false,"rental_uris":{"android":"levelo://app?vid=2b8845f4-edeb-443d-a8e9-75052263bb1c","ios":"levelo://app?vid=2b8845f4-edeb-443d-a8e9-75052263bb1c"},"vehicle_type_id":"4","last_reported":1728324747,"current_range_meters":14000,"station_id":"","pricing_plan_id":"cebpf4jnsgd1na2vs0mg"},{"bike_id":"1ee4ee82-f467-4ea0-a508-0e321ce397ce","system_id":"levelo_inurba_marseille","lat":43.29272,"lon":5.38449,"is_reserved":false,"is_disabled":false,"rental_uris":{"android":"levelo://app?vid=1ee4ee82-f467-4ea0-a508-0e321ce397ce","ios":"levelo://app?vid=1ee4ee82-f467-4ea0-a508-0e321ce397ce"},"vehicle_type_id":"4","last_reported":1728324747,"current_range_meters":7200,"station_id":"ce4bh692rcd13ifvqea0","pricing_plan_id":"cebpf4jnsgd1na2vs0mg"},{"bike_id":"1030ebe7-1c50-46bb-baa0-7da742c6eceb","system_id":"levelo_inurba_marseille","lat":43.30906,"lon":5.36847,"is_reserved":false,"is_disabled":false,"rental_uris":{"android":"levelo://app?vid=1030ebe7-1c50-46bb-baa0-7da742c6eceb","ios":"levelo://app?vid=1030ebe7-1c50-46bb-baa0-7da742c6eceb"},"vehicle_type_id":"4","last_reported":1728324747,"current_range_meters":27600,"station_id":"ce4bgn92rcd13ifvqbvg","pricing_plan_id":"cebpf4jnsgd1na2vs0mg"},{"bike_id":"30a8d015-6cfe-4df9-91a9-e42a86cecfed","system_id":"levelo_inurba_marseille","lat":43.28103,"lon":5.37842,"is_reserved":false,"is_disabled":false,"rental_uris":{"android":"levelo://app?vid=30a8d015-6cfe-4df9-91a9-e42a86cecfed","ios":"levelo://app?vid=30a8d015-6cfe-4df9-91a9-e42a86cecfed"},"vehicle_type_id":"4","last_reported":1728324747,"current_range_meters":22000,"station_id":"ce4bha12rcd13ifvqee0","pricing_plan_id":"cebpf4jnsgd1na2vs0mg"},{"bike_id":"663d807d-5236-4795-8907-d41427101515","system_id":"levelo_inurba_marseille","lat":43.33028,"lon":5.39042,"is_reserved":false,"is_disabled":false,"rental_uris":{"android":"levelo://app?vid=663d807d-5236-4795-8907-d41427101515","ios":"levelo://app?vid=663d807d-5236-4795-8907-d41427101515"},"vehicle_type_id":"4","last_reported":1728324747,"current_range_meters":32000,"station_id":"ce4bhr92rcd13ifvqhrg","pricing_plan_id":"cebpf4jnsgd1na2vs0mg"},{"bike_id":"0190a491-52c0-46a5-be20-b72d156a36de","system_id":"levelo_inurba_marseille","lat":43.31263,"lon":5.40167,"is_reserved":false,"is_disabled":false,"rental_uris":{"android":"levelo://app?vid=0190a491-52c0-46a5-be20-b72d156a36de","ios":"levelo://app?vid=0190a491-52c0-46a5-be20-b72d156a36de"},"vehicle_type_id":"4","last_reported":1728324747,"current_range_meters":30000,"station_id":"ce4bh092rcd13ifvqd30","pricing_plan_id":"cebpf4jnsgd1na2vs0mg"},{"bike_id":"57200848-7607-401d-a589-e41c66a9c601","system_id":"levelo_inurba_marseille","lat":43.31355,"lon":5.38508,"is_reserved":false,"is_disabled":false,"rental_uris":{"android":"levelo://app?vid=57200848-7607-401d-a589-e41c66a9c601","ios":"levelo://app?vid=57200848-7607-401d-a589-e41c66a9c601"},"vehicle_type_id":"4","last_reported":1728324747,"current_range_meters":18800,"station_id":"ce4bgt92rcd13ifvqcf0","pricing_plan_id":"cebpf4jnsgd1na2vs0mg"},{"bike_id":"f0cc2c18-a0e0-4566-8682-584aa372931f","system_id":"levelo_inurba_marseille","lat":43.29573,"lon":5.37505,"is_reserved":false,"is_disabled":false,"rental_uris":{"android":"levelo://app?vid=f0cc2c18-a0e0-4566-8682-584aa372931f","ios":"levelo://app?vid=f0cc2c18-a0e0-4566-8682-584aa372931f"},"vehicle_type_id":"4","last_reported":1728324747,"current_range_meters":12400,"station_id":"ce4bgh92rcd13ifvqb50","pricing_plan_id":"cebpf4jnsgd1na2vs0mg"},{"bike_id":"35db5aab-a536-4286-87d7-90ec43783f24","system_id":"levelo_inurba_marseille","lat":43.23193,"lon":5.35557,"is_reserved":false,"is_disabled":false,"rental_uris":{"android":"levelo://app?vid=35db5aab-a536-4286-87d7-90ec43783f24","ios":"levelo://app?vid=35db5aab-a536-4286-87d7-90ec43783f24"},"vehicle_type_id":"4","last_reported":1728324747,"current_range_meters":35200,"station_id":"ce4bhu92rcd13ifvqi70","pricing_plan_id":"cebpf4jnsgd1na2vs0mg"},{"bike_id":"f10f48c8-b9a8-4cb2-99ee-738a0013af7b","system_id":"levelo_inurba_marseille","lat":43.27811,"lon":5.40716,"is_reserved":false,"is_disabled":false,"rental_uris":{"android":"levelo://app?vid=f10f48c8-b9a8-4cb2-99ee-738a0013af7b","ios":"levelo://app?vid=f10f48c8-b9a8-4cb2-99ee-738a0013af7b"},"vehicle_type_id":"4","last_reported":1728324747,"current_range_meters":2000,"station_id":"ce4bhnh2rcd13ifvqgtg","pricing_plan_id":"cebpf4jnsgd1na2vs0mg"},{"bike_id":"62dfd99c-f976-4937-b2d0-5b50f5ae699f","system_id":"levelo_inurba_marseille","lat":43.24175,"lon":5.364,"is_reserved":false,"is_disabled":false,"rental_uris":{"android":"levelo://app?vid=62dfd99c-f976-4937-b2d0-5b50f5ae699f","ios":"levelo://app?vid=62dfd99c-f976-4937-b2d0-5b50f5ae699f"},"vehicle_type_id":"4","last_reported":1728324747,"current_range_meters":9200,"station_id":"cpo36qri1sfpv3e86is0","pricing_plan_id":"cebpf4jnsgd1na2vs0mg"},{"bike_id":"62799cf0-57a7-448d-a45c-abeaa0009dad","system_id":"levelo_inurba_marseille","lat":43.28106,"lon":5.37846,"is_reserved":false,"is_disabled":false,"rental_uris":{"android":"levelo://app?vid=62799cf0-57a7-448d-a45c-abeaa0009dad","ios":"levelo://app?vid=62799cf0-57a7-448d-a45c-abeaa0009dad"},"vehicle_type_id":"4","last_reported":1728324747,"current_range_meters":6000,"station_id":"ce4bha12rcd13ifvqee0","pricing_plan_id":"cebpf4jnsgd1na2vs0mg"},{"bike_id":"e2ccd035-e2f6-4b13-8c3b-407f63e2c6d1","system_id":"levelo_inurba_marseille","lat":43.33022,"lon":5.39039,"is_reserved":false,"is_disabled":false,"rental_uris":{"android":"levelo://app?vid=e2ccd035-e2f6-4b13-8c3b-407f63e2c6d1","ios":"levelo://app?vid=e2ccd035-e2f6-4b13-8c3b-407f63e2c6d1"},"vehicle_type_id":"4","last_reported":1728324747,"current_range_meters":6800,"station_id":"ce4bhr92rcd13ifvqhrg","pricing_plan_id":"cebpf4jnsgd1na2vs0mg"},{"bike_id":"1f4db84a-8d3e-40a3-ae4f-07a4f39299d0","system_id":"levelo_inurba_marseille","lat":43.29564,"lon":5.39979,"is_reserved":false,"is_disabled":false,"rental_uris":{"android":"levelo://app?vid=1f4db84a-8d3e-40a3-ae4f-07a4f39299d0","ios":"levelo://app?vid=1f4db84a-8d3e-40a3-ae4f-07a4f39299d0"},"vehicle_type_id":"4","last_reported":1728324747,"current_range_meters":6400,"station_id":"ce4bh312rcd13ifvqdj0","pricing_plan_id":"cebpf4jnsgd1na2vs0mg"},{"bike_id":"e7ca1121-dfae-49ab-95f7-00c35a3a4f04","system_id":"levelo_inurba_marseille","lat":43.30776,"lon":5.37659,"is_reserved":false,"is_disabled":false,"rental_uris":{"android":"levelo://app?vid=e7ca1121-dfae-49ab-95f7-00c35a3a4f04","ios":"levelo://app?vid=e7ca1121-dfae-49ab-95f7-00c35a3a4f04"},"vehicle_type_id":"4","last_reported":1728324747,"current_range_meters":38800,"station_id":"ce4bgv92rcd13ifvqcq0","pricing_plan_id":"cebpf4jnsgd1na2vs0mg"},{"bike_id":"a854f9eb-d697-4507-b33a-9376691b2f9b","system_id":"levelo_inurba_marseille","lat":43.27991,"lon":5.40022,"is_reserved":false,"is_disabled":false,"rental_uris":{"android":"levelo://app?vid=a854f9eb-d697-4507-b33a-9376691b2f9b","ios":"levelo://app?vid=a854f9eb-d697-4507-b33a-9376691b2f9b"},"vehicle_type_id":"4","last_reported":1728324747,"current_range_meters":39200,"station_id":"ce4bho92rcd13ifvqh4g","pricing_plan_id":"cebpf4jnsgd1na2vs0mg"},{"bike_id":"dc2e07b6-2d88-4c3a-9e54-908d68323f78","system_id":"levelo_inurba_marseille","lat":43.29529,"lon":5.39397,"is_reserved":false,"is_disabled":false,"rental_uris":{"android":"levelo://app?vid=dc2e07b6-2d88-4c3a-9e54-908d68323f78","ios":"levelo://app?vid=dc2e07b6-2d88-4c3a-9e54-908d68323f78"},"vehicle_type_id":"4","last_reported":1728324747,"current_range_meters":38400,"station_id":"ce4bh292rcd13ifvqdf0","pricing_plan_id":"cebpf4jnsgd1na2vs0mg"},{"bike_id":"97519c5e-fd79-4e69-af3e-dbda834c900c","system_id":"levelo_inurba_marseille","lat":43.29811,"lon":5.40407,"is_reserved":false,"is_disabled":false,"rental_uris":{"android":"levelo://app?vid=97519c5e-fd79-4e69-af3e-dbda834c900c","ios":"levelo://app?vid=97519c5e-fd79-4e69-af3e-dbda834c900c"},"vehicle_type_id":"4","last_reported":1728324747,"current_range_meters":6800,"station_id":"ce4bh112rcd13ifvqd90","pricing_plan_id":"cebpf4jnsgd1na2vs0mg"},{"bike_id":"4af55307-045f-4c66-a045-a91d88bb4c16","system_id":"levelo_inurba_marseille","lat":43.22933,"lon":5.3538,"is_reserved":false,"is_disabled":false,"rental_uris":{"android":"levelo://app?vid=4af55307-045f-4c66-a045-a91d88bb4c16","ios":"levelo://app?vid=4af55307-045f-4c66-a045-a91d88bb4c16"},"vehicle_type_id":"4","last_reported":1728324747,"current_range_meters":25600,"station_id":"cpo3532slgdg3j2ikp40","pricing_plan_id":"cebpf4jnsgd1na2vs0mg"},{"bike_id":"aa598db1-3c3a-48c0-acd0-1929a2b13407","system_id":"levelo_inurba_marseille","lat":43.31716,"lon":5.43709,"is_reserved":false,"is_disabled":false,"rental_uris":{"android":"levelo://app?vid=aa598db1-3c3a-48c0-acd0-1929a2b13407","ios":"levelo://app?vid=aa598db1-3c3a-48c0-acd0-1929a2b13407"},"vehicle_type_id":"4","last_reported":1728324747,"current_range_meters":39200,"station_id":"ce4bhp92rcd13ifvqhcg","pricing_plan_id":"cebpf4jnsgd1na2vs0mg"},{"bike_id":"47efe985-66e3-4fb1-a00d-60851f779f19","system_id":"levelo_inurba_marseille","lat":43.32543,"lon":5.41435,"is_reserved":false,"is_disabled":false,"rental_uris":{"android":"levelo://app?vid=47efe985-66e3-4fb1-a00d-60851f779f19","ios":"levelo://app?vid=47efe985-66e3-4fb1-a00d-60851f779f19"},"vehicle_type_id":"4","last_reported":1728324747,"current_range_meters":28800,"station_id":"ce4bhq12rcd13ifvqhhg","pricing_plan_id":"cebpf4jnsgd1na2vs0mg"},{"bike_id":"6482b1fb-67cb-4384-a7c9-6c0a7b56e3b4","system_id":"levelo_inurba_marseille","lat":43.28846,"lon":5.43323,"is_reserved":false,"is_disabled":false,"rental_uris":{"android":"levelo://app?vid=6482b1fb-67cb-4384-a7c9-6c0a7b56e3b4","ios":"levelo://app?vid=6482b1fb-67cb-4384-a7c9-6c0a7b56e3b4"},"vehicle_type_id":"4","last_reported":1728324747,"current_range_meters":4000,"station_id":"","pricing_plan_id":"cebpf4jnsgd1na2vs0mg"},{"bike_id":"263117f4-d4af-4ba4-9b06-a54ec9abf013","system_id":"levelo_inurba_marseille","lat":43.315202,"lon":5.373052,"is_reserved":false,"is_disabled":false,"rental_uris":{"android":"levelo://app?vid=263117f4-d4af-4ba4-9b06-a54ec9abf013","ios":"levelo://app?vid=263117f4-d4af-4ba4-9b06-a54ec9abf013"},"vehicle_type_id":"4","last_reported":1728324747,"current_range_meters":38800,"station_id":"ce4bgt12rcd13ifvqcd0","pricing_plan_id":"cebpf4jnsgd1na2vs0mg"},{"bike_id":"c12c46a4-bd86-493d-803e-5d507cd7924b","system_id":"levelo_inurba_marseille","lat":43.23199,"lon":5.35549,"is_reserved":false,"is_disabled":false,"rental_uris":{"android":"levelo://app?vid=c12c46a4-bd86-493d-803e-5d507cd7924b","ios":"levelo://app?vid=c12c46a4-bd86-493d-803e-5d507cd7924b"},"vehicle_type_id":"4","last_reported":1728324747,"current_range_meters":30800,"station_id":"ce4bhu92rcd13ifvqi70","pricing_plan_id":"cebpf4jnsgd1na2vs0mg"},{"bike_id":"1e22ea5d-d406-4b63-92d6-06a783dc0af8","system_id":"levelo_inurba_marseille","lat":43.23185,"lon":5.39983,"is_reserved":false,"is_disabled":false,"rental_uris":{"android":"levelo://app?vid=1e22ea5d-d406-4b63-92d6-06a783dc0af8","ios":"levelo://app?vid=1e22ea5d-d406-4b63-92d6-06a783dc0af8"},"vehicle_type_id":"4","last_reported":1728324747,"current_range_meters":22800,"station_id":"ce4bhn12rcd13ifvqgqg","pricing_plan_id":"cebpf4jnsgd1na2vs0mg"},{"bike_id":"e0ef52ca-c7fa-41d7-a3ea-c3e5235a2597","system_id":"levelo_inurba_marseille","lat":43.25086,"lon":5.39532,"is_reserved":false,"is_disabled":false,"rental_uris":{"android":"levelo://app?vid=e0ef52ca-c7fa-41d7-a3ea-c3e5235a2597","ios":"levelo://app?vid=e0ef52ca-c7fa-41d7-a3ea-c3e5235a2597"},"vehicle_type_id":"4","last_reported":1728324747,"current_range_meters":30000,"station_id":"ce4bhm12rcd13ifvqgkg","pricing_plan_id":"cebpf4jnsgd1na2vs0mg"},{"bike_id":"9272e771-66be-4b16-95ef-64aedd3f05ea","system_id":"levelo_inurba_marseille","lat":43.2549,"lon":5.37656,"is_reserved":false,"is_disabled":false,"rental_uris":{"android":"levelo://app?vid=9272e771-66be-4b16-95ef-64aedd3f05ea","ios":"levelo://app?vid=9272e771-66be-4b16-95ef-64aedd3f05ea"},"vehicle_type_id":"4","last_reported":1728324747,"current_range_meters":38000,"station_id":"ce4bhh12rcd13ifvqff0","pricing_plan_id":"cebpf4jnsgd1na2vs0mg"},{"bike_id":"13bc0cf6-76ec-4dff-9bba-7a89dc891d6b","system_id":"levelo_inurba_marseille","lat":43.31335,"lon":5.39693,"is_reserved":false,"is_disabled":false,"rental_uris":{"android":"levelo://app?vid=13bc0cf6-76ec-4dff-9bba-7a89dc891d6b","ios":"levelo://app?vid=13bc0cf6-76ec-4dff-9bba-7a89dc891d6b"},"vehicle_type_id":"4","last_reported":1728324747,"current_range_meters":20000,"station_id":"ce4bgvp2rcd13ifvqcu0","pricing_plan_id":"cebpf4jnsgd1na2vs0mg"},{"bike_id":"85a8b07e-682b-4725-800e-b0749654fba5","system_id":"levelo_inurba_marseille","lat":43.24164,"lon":5.36404,"is_reserved":false,"is_disabled":false,"rental_uris":{"android":"levelo://app?vid=85a8b07e-682b-4725-800e-b0749654fba5","ios":"levelo://app?vid=85a8b07e-682b-4725-800e-b0749654fba5"},"vehicle_type_id":"4","last_reported":1728324747,"current_range_meters":22800,"station_id":"cpo36qri1sfpv3e86is0","pricing_plan_id":"cebpf4jnsgd1na2vs0mg"},{"bike_id":"25a569a7-5115-4e62-8beb-c317ea7b9e04","system_id":"levelo_inurba_marseille","lat":43.30617,"lon":5.37221,"is_reserved":false,"is_disabled":false,"rental_uris":{"android":"levelo://app?vid=25a569a7-5115-4e62-8beb-c317ea7b9e04","ios":"levelo://app?vid=25a569a7-5115-4e62-8beb-c317ea7b9e04"},"vehicle_type_id":"4","last_reported":1728324747,"current_range_meters":39200,"station_id":"ce4bgqh2rcd13ifvqc4g","pricing_plan_id":"cebpf4jnsgd1na2vs0mg"},{"bike_id":"b6640f17-7ab3-4932-bbd1-5fe22e83845e","system_id":"levelo_inurba_marseille","lat":43.32286,"lon":5.38269,"is_reserved":false,"is_disabled":false,"rental_uris":{"android":"levelo://app?vid=b6640f17-7ab3-4932-bbd1-5fe22e83845e","ios":"levelo://app?vid=b6640f17-7ab3-4932-bbd1-5fe22e83845e"},"vehicle_type_id":"4","last_reported":1728324747,"current_range_meters":24400,"station_id":"ce4bhr12rcd13ifvqhqg","pricing_plan_id":"cebpf4jnsgd1na2vs0mg"},{"bike_id":"6a5b0381-8a8a-43a9-b1d2-3a349783fb41","system_id":"levelo_inurba_marseille","lat":43.29957,"lon":5.37181,"is_reserved":false,"is_disabled":false,"rental_uris":{"android":"levelo://app?vid=6a5b0381-8a8a-43a9-b1d2-3a349783fb41","ios":"levelo://app?vid=6a5b0381-8a8a-43a9-b1d2-3a349783fb41"},"vehicle_type_id":"4","last_reported":1728324747,"current_range_meters":32800,"station_id":"ce4bgr92rcd13ifvqc7g","pricing_plan_id":"cebpf4jnsgd1na2vs0mg"},{"bike_id":"11f75a73-c47b-4010-8c47-a8210848170a","system_id":"levelo_inurba_marseille","lat":43.27945,"lon":5.41045,"is_reserved":false,"is_disabled":false,"rental_uris":{"android":"levelo://app?vid=11f75a73-c47b-4010-8c47-a8210848170a","ios":"levelo://app?vid=11f75a73-c47b-4010-8c47-a8210848170a"},"vehicle_type_id":"4","last_reported":1728324747,"current_range_meters":11200,"station_id":"ce4bhnp2rcd13ifvqh0g","pricing_plan_id":"cebpf4jnsgd1na2vs0mg"},{"bike_id":"7b25e8dc-71e1-410c-92e1-019a9523da62","system_id":"levelo_inurba_marseille","lat":43.26503,"lon":5.39539,"is_reserved":false,"is_disabled":false,"rental_uris":{"android":"levelo://app?vid=7b25e8dc-71e1-410c-92e1-019a9523da62","ios":"levelo://app?vid=7b25e8dc-71e1-410c-92e1-019a9523da62"},"vehicle_type_id":"4","last_reported":1728324747,"current_range_meters":8800,"station_id":"ce4bhi12rcd13ifvqfq0","pricing_plan_id":"cebpf4jnsgd1na2vs0mg"},{"bike_id":"76624c3f-12a1-4d01-be63-cf452300406b","system_id":"levelo_inurba_marseille","lat":43.298939,"lon":5.388172,"is_reserved":false,"is_disabled":false,"rental_uris":{"android":"levelo://app?vid=76624c3f-12a1-4d01-be63-cf452300406b","ios":"levelo://app?vid=76624c3f-12a1-4d01-be63-cf452300406b"},"vehicle_type_id":"4","last_reported":1728324747,"current_range_meters":6800,"station_id":"ce4bh392rcd13ifvqdl0","pricing_plan_id":"cebpf4jnsgd1na2vs0mg"},{"bike_id":"f87c1dd0-d204-4a41-ae92-687c3cddfed1","system_id":"levelo_inurba_marseille","lat":43.24669,"lon":5.38166,"is_reserved":false,"is_disabled":false,"rental_uris":{"android":"levelo://app?vid=f87c1dd0-d204-4a41-ae92-687c3cddfed1","ios":"levelo://app?vid=f87c1dd0-d204-4a41-ae92-687c3cddfed1"},"vehicle_type_id":"4","last_reported":1728324747,"current_range_meters":6800,"station_id":"ce4bhih2rcd13ifvqfr0","pricing_plan_id":"cebpf4jnsgd1na2vs0mg"},{"bike_id":"6fb60552-006f-44f8-b478-bde775432565","system_id":"levelo_inurba_marseille","lat":43.24644,"lon":5.3892,"is_reserved":false,"is_disabled":false,"rental_uris":{"android":"levelo://app?vid=6fb60552-006f-44f8-b478-bde775432565","ios":"levelo://app?vid=6fb60552-006f-44f8-b478-bde775432565"},"vehicle_type_id":"4","last_reported":1728324747,"current_range_meters":11200,"station_id":"ce4bhg12rcd13ifvqf60","pricing_plan_id":"cebpf4jnsgd1na2vs0mg"},{"bike_id":"62c20907-37b0-4a30-9212-04239ba69697","system_id":"levelo_inurba_marseille","lat":43.31331,"lon":5.39702,"is_reserved":false,"is_disabled":false,"rental_uris":{"android":"levelo://app?vid=62c20907-37b0-4a30-9212-04239ba69697","ios":"levelo://app?vid=62c20907-37b0-4a30-9212-04239ba69697"},"vehicle_type_id":"4","last_reported":1728324747,"current_range_meters":39200,"station_id":"ce4bgvp2rcd13ifvqcu0","pricing_plan_id":"cebpf4jnsgd1na2vs0mg"},{"bike_id":"d00a3477-782a-4de0-b711-15ed9dd434f4","system_id":"levelo_inurba_marseille","lat":43.23052,"lon":5.35497,"is_reserved":false,"is_disabled":false,"rental_uris":{"android":"levelo://app?vid=d00a3477-782a-4de0-b711-15ed9dd434f4","ios":"levelo://app?vid=d00a3477-782a-4de0-b711-15ed9dd434f4"},"vehicle_type_id":"4","last_reported":1728324747,"current_range_meters":8400,"station_id":"cpo3342slgdg3j2ifvpg","pricing_plan_id":"cebpf4jnsgd1na2vs0mg"},{"bike_id":"9c5d863a-5a7e-4174-aa67-2817a0e74f57","system_id":"levelo_inurba_marseille","lat":43.28454,"lon":5.35887,"is_reserved":false,"is_disabled":false,"rental_uris":{"android":"levelo://app?vid=9c5d863a-5a7e-4174-aa67-2817a0e74f57","ios":"levelo://app?vid=9c5d863a-5a7e-4174-aa67-2817a0e74f57"},"vehicle_type_id":"4","last_reported":1728324747,"current_range_meters":19200,"station_id":"ce4bhah2rcd13ifvqei0","pricing_plan_id":"cebpf4jnsgd1na2vs0mg"},{"bike_id":"f51379f2-6a62-4ca8-bc0d-270effc5c500","system_id":"levelo_inurba_marseille","lat":43.31366,"lon":5.38488,"is_reserved":false,"is_disabled":false,"rental_uris":{"android":"levelo://app?vid=f51379f2-6a62-4ca8-bc0d-270effc5c500","ios":"levelo://app?vid=f51379f2-6a62-4ca8-bc0d-270effc5c500"},"vehicle_type_id":"4","last_reported":1728324747,"current_range_meters":12800,"station_id":"ce4bgt92rcd13ifvqcf0","pricing_plan_id":"cebpf4jnsgd1na2vs0mg"},{"bike_id":"0addcf89-f5f6-4899-92b3-5cd2981eb4de","system_id":"levelo_inurba_marseille","lat":43.31717,"lon":5.37753,"is_reserved":false,"is_disabled":false,"rental_uris":{"android":"levelo://app?vid=0addcf89-f5f6-4899-92b3-5cd2981eb4de","ios":"levelo://app?vid=0addcf89-f5f6-4899-92b3-5cd2981eb4de"},"vehicle_type_id":"4","last_reported":1728324747,"current_range_meters":38800,"station_id":"ce4bgth2rcd13ifvqch0","pricing_plan_id":"cebpf4jnsgd1na2vs0mg"},{"bike_id":"383e6238-5106-499a-8e26-d16b81b00a77","system_id":"levelo_inurba_marseille","lat":43.299626,"lon":5.413329,"is_reserved":false,"is_disabled":false,"rental_uris":{"android":"levelo://app?vid=383e6238-5106-499a-8e26-d16b81b00a77","ios":"levelo://app?vid=383e6238-5106-499a-8e26-d16b81b00a77"},"vehicle_type_id":"4","last_reported":1728324747,"current_range_meters":20400,"station_id":"ce4bhp12rcd13ifvqh9g","pricing_plan_id":"cebpf4jnsgd1na2vs0mg"},{"bike_id":"e8f38f77-6572-42be-9296-0cbe6e7cb972","system_id":"levelo_inurba_marseille","lat":43.23054,"lon":5.35492,"is_reserved":false,"is_disabled":false,"rental_uris":{"android":"levelo://app?vid=e8f38f77-6572-42be-9296-0cbe6e7cb972","ios":"levelo://app?vid=e8f38f77-6572-42be-9296-0cbe6e7cb972"},"vehicle_type_id":"4","last_reported":1728324747,"current_range_meters":36000,"station_id":"cpo3342slgdg3j2ifvpg","pricing_plan_id":"cebpf4jnsgd1na2vs0mg"},{"bike_id":"da2bef50-9604-4ee2-b6fe-7fbad7a1e331","system_id":"levelo_inurba_marseille","lat":43.31709,"lon":5.37774,"is_reserved":false,"is_disabled":false,"rental_uris":{"android":"levelo://app?vid=da2bef50-9604-4ee2-b6fe-7fbad7a1e331","ios":"levelo://app?vid=da2bef50-9604-4ee2-b6fe-7fbad7a1e331"},"vehicle_type_id":"4","last_reported":1728324747,"current_range_meters":39200,"station_id":"ce4bgth2rcd13ifvqch0","pricing_plan_id":"cebpf4jnsgd1na2vs0mg"},{"bike_id":"12db2f57-2fa9-4daa-8f36-af1e2ff058b3","system_id":"levelo_inurba_marseille","lat":43.33028,"lon":5.39043,"is_reserved":false,"is_disabled":false,"rental_uris":{"android":"levelo://app?vid=12db2f57-2fa9-4daa-8f36-af1e2ff058b3","ios":"levelo://app?vid=12db2f57-2fa9-4daa-8f36-af1e2ff058b3"},"vehicle_type_id":"4","last_reported":1728324747,"current_range_meters":10000,"station_id":"ce4bhr92rcd13ifvqhrg","pricing_plan_id":"cebpf4jnsgd1na2vs0mg"},{"bike_id":"6383107e-a90b-48e5-ad67-a00f3da06e6b","system_id":"levelo_inurba_marseille","lat":43.28079,"lon":5.39665,"is_reserved":false,"is_disabled":false,"rental_uris":{"android":"levelo://app?vid=6383107e-a90b-48e5-ad67-a00f3da06e6b","ios":"levelo://app?vid=6383107e-a90b-48e5-ad67-a00f3da06e6b"},"vehicle_type_id":"4","last_reported":1728324747,"current_range_meters":17200,"station_id":"ce4bho12rcd13ifvqh2g","pricing_plan_id":"cebpf4jnsgd1na2vs0mg"},{"bike_id":"f8efb768-c30e-4357-b782-80da3f19445d","system_id":"levelo_inurba_marseille","lat":43.29535,"lon":5.39397,"is_reserved":false,"is_disabled":false,"rental_uris":{"android":"levelo://app?vid=f8efb768-c30e-4357-b782-80da3f19445d","ios":"levelo://app?vid=f8efb768-c30e-4357-b782-80da3f19445d"},"vehicle_type_id":"4","last_reported":1728324747,"current_range_meters":38400,"station_id":"","pricing_plan_id":"cebpf4jnsgd1na2vs0mg"},{"bike_id":"2ee5889b-53f5-40d5-8270-a63ef7f531aa","system_id":"levelo_inurba_marseille","lat":43.287,"lon":5.39987,"is_reserved":false,"is_disabled":false,"rental_uris":{"android":"levelo://app?vid=2ee5889b-53f5-40d5-8270-a63ef7f531aa","ios":"levelo://app?vid=2ee5889b-53f5-40d5-8270-a63ef7f531aa"},"vehicle_type_id":"4","last_reported":1728324747,"current_range_meters":9600,"station_id":"ce4bho92rcd13ifvqh3g","pricing_plan_id":"cebpf4jnsgd1na2vs0mg"},{"bike_id":"020b61c5-7f74-4574-bc9d-d9103061a65e","system_id":"levelo_inurba_marseille","lat":43.31119,"lon":5.37773,"is_reserved":false,"is_disabled":false,"rental_uris":{"android":"levelo://app?vid=020b61c5-7f74-4574-bc9d-d9103061a65e","ios":"levelo://app?vid=020b61c5-7f74-4574-bc9d-d9103061a65e"},"vehicle_type_id":"4","last_reported":1728324747,"current_range_meters":38400,"station_id":"ce4bgt92rcd13ifvqcg0","pricing_plan_id":"cebpf4jnsgd1na2vs0mg"},{"bike_id":"9f72c76a-fefc-4dd0-9191-d7a5fd63a001","system_id":"levelo_inurba_marseille","lat":43.33604,"lon":5.39856,"is_reserved":false,"is_disabled":false,"rental_uris":{"android":"levelo://app?vid=9f72c76a-fefc-4dd0-9191-d7a5fd63a001","ios":"levelo://app?vid=9f72c76a-fefc-4dd0-9191-d7a5fd63a001"},"vehicle_type_id":"4","last_reported":1728324747,"current_range_meters":4000,"station_id":"","pricing_plan_id":"cebpf4jnsgd1na2vs0mg"},{"bike_id":"2fe9a872-9d35-432b-917d-ada3867c3c80","system_id":"levelo_inurba_marseille","lat":43.31528,"lon":5.3803,"is_reserved":false,"is_disabled":false,"rental_uris":{"android":"levelo://app?vid=2fe9a872-9d35-432b-917d-ada3867c3c80","ios":"levelo://app?vid=2fe9a872-9d35-432b-917d-ada3867c3c80"},"vehicle_type_id":"4","last_reported":1728324747,"current_range_meters":29600,"station_id":"ce4bhsp2rcd13ifvqi50","pricing_plan_id":"cebpf4jnsgd1na2vs0mg"},{"bike_id":"60b57eaf-66f9-4ab9-b225-ce86cb95389a","system_id":"levelo_inurba_marseille","lat":43.30098,"lon":5.39084,"is_reserved":false,"is_disabled":false,"rental_uris":{"android":"levelo://app?vid=60b57eaf-66f9-4ab9-b225-ce86cb95389a","ios":"levelo://app?vid=60b57eaf-66f9-4ab9-b225-ce86cb95389a"},"vehicle_type_id":"4","last_reported":1728324747,"current_range_meters":37600,"station_id":"ce4bh192rcd13ifvqdb0","pricing_plan_id":"cebpf4jnsgd1na2vs0mg"},{"bike_id":"fc1eabbd-402f-4a01-9cfa-d7a7780c46ff","system_id":"levelo_inurba_marseille","lat":43.31489,"lon":5.37312,"is_reserved":false,"is_disabled":false,"rental_uris":{"android":"levelo://app?vid=fc1eabbd-402f-4a01-9cfa-d7a7780c46ff","ios":"levelo://app?vid=fc1eabbd-402f-4a01-9cfa-d7a7780c46ff"},"vehicle_type_id":"4","last_reported":1728324747,"current_range_meters":15200,"station_id":"ce4bgt12rcd13ifvqcd0","pricing_plan_id":"cebpf4jnsgd1na2vs0mg"},{"bike_id":"a6d15f69-b5d7-4b3f-ac73-256df681b044","system_id":"levelo_inurba_marseille","lat":43.28711,"lon":5.39995,"is_reserved":false,"is_disabled":false,"rental_uris":{"android":"levelo://app?vid=a6d15f69-b5d7-4b3f-ac73-256df681b044","ios":"levelo://app?vid=a6d15f69-b5d7-4b3f-ac73-256df681b044"},"vehicle_type_id":"4","last_reported":1728324747,"current_range_meters":27200,"station_id":"ce4bho92rcd13ifvqh3g","pricing_plan_id":"cebpf4jnsgd1na2vs0mg"},{"bike_id":"6d4525a1-4df9-4bde-8481-acf85ddf64a9","system_id":"levelo_inurba_marseille","lat":43.31724,"lon":5.42406,"is_reserved":false,"is_disabled":false,"rental_uris":{"android":"levelo://app?vid=6d4525a1-4df9-4bde-8481-acf85ddf64a9","ios":"levelo://app?vid=6d4525a1-4df9-4bde-8481-acf85ddf64a9"},"vehicle_type_id":"4","last_reported":1728324747,"current_range_meters":9200,"station_id":"ce4bhp92rcd13ifvqhbg","pricing_plan_id":"cebpf4jnsgd1na2vs0mg"},{"bike_id":"4356c4c7-8826-4836-8b64-1bb436d9ada2","system_id":"levelo_inurba_marseille","lat":43.31494,"lon":5.37317,"is_reserved":false,"is_disabled":false,"rental_uris":{"android":"levelo://app?vid=4356c4c7-8826-4836-8b64-1bb436d9ada2","ios":"levelo://app?vid=4356c4c7-8826-4836-8b64-1bb436d9ada2"},"vehicle_type_id":"4","last_reported":1728324747,"current_range_meters":38800,"station_id":"ce4bgt12rcd13ifvqcd0","pricing_plan_id":"cebpf4jnsgd1na2vs0mg"},{"bike_id":"4378a0dd-7ddd-4246-9294-1e2af02e0700","system_id":"levelo_inurba_marseille","lat":43.23198,"lon":5.35554,"is_reserved":false,"is_disabled":false,"rental_uris":{"android":"levelo://app?vid=4378a0dd-7ddd-4246-9294-1e2af02e0700","ios":"levelo://app?vid=4378a0dd-7ddd-4246-9294-1e2af02e0700"},"vehicle_type_id":"4","last_reported":1728324747,"current_range_meters":3200,"station_id":"ce4bhu92rcd13ifvqi70","pricing_plan_id":"cebpf4jnsgd1na2vs0mg"},{"bike_id":"efb4c3cb-ebfb-40a0-8378-3a8d13c37613","system_id":"levelo_inurba_marseille","lat":43.31894,"lon":5.40734,"is_reserved":false,"is_disabled":false,"rental_uris":{"android":"levelo://app?vid=efb4c3cb-ebfb-40a0-8378-3a8d13c37613","ios":"levelo://app?vid=efb4c3cb-ebfb-40a0-8378-3a8d13c37613"},"vehicle_type_id":"4","last_reported":1728324747,"current_range_meters":27600,"station_id":"ce4bhq12rcd13ifvqhig","pricing_plan_id":"cebpf4jnsgd1na2vs0mg"},{"bike_id":"4413ce99-a420-4c3d-9b71-d27ed8bf9b56","system_id":"levelo_inurba_marseille","lat":43.27619,"lon":5.36109,"is_reserved":false,"is_disabled":false,"rental_uris":{"android":"levelo://app?vid=4413ce99-a420-4c3d-9b71-d27ed8bf9b56","ios":"levelo://app?vid=4413ce99-a420-4c3d-9b71-d27ed8bf9b56"},"vehicle_type_id":"4","last_reported":1728324747,"current_range_meters":30000,"station_id":"ce4bgj92rcd13ifvqbe0","pricing_plan_id":"cebpf4jnsgd1na2vs0mg"},{"bike_id":"51861e1c-2225-4698-bf05-578de787e85d","system_id":"levelo_inurba_marseille","lat":43.31233,"lon":5.36849,"is_reserved":false,"is_disabled":false,"rental_uris":{"android":"levelo://app?vid=51861e1c-2225-4698-bf05-578de787e85d","ios":"levelo://app?vid=51861e1c-2225-4698-bf05-578de787e85d"},"vehicle_type_id":"4","last_reported":1728324747,"current_range_meters":35200,"station_id":"ce4bgl92rcd13ifvqbq0","pricing_plan_id":"cebpf4jnsgd1na2vs0mg"},{"bike_id":"93d45870-2e1c-4ed1-9664-7b219a4ed443","system_id":"levelo_inurba_marseille","lat":43.22931,"lon":5.35382,"is_reserved":false,"is_disabled":false,"rental_uris":{"android":"levelo://app?vid=93d45870-2e1c-4ed1-9664-7b219a4ed443","ios":"levelo://app?vid=93d45870-2e1c-4ed1-9664-7b219a4ed443"},"vehicle_type_id":"4","last_reported":1728324747,"current_range_meters":36000,"station_id":"cpo3532slgdg3j2ikp40","pricing_plan_id":"cebpf4jnsgd1na2vs0mg"},{"bike_id":"d4dfa52e-76b8-410b-b129-46d068df677c","system_id":"levelo_inurba_marseille","lat":43.31523,"lon":5.38045,"is_reserved":false,"is_disabled":false,"rental_uris":{"android":"levelo://app?vid=d4dfa52e-76b8-410b-b129-46d068df677c","ios":"levelo://app?vid=d4dfa52e-76b8-410b-b129-46d068df677c"},"vehicle_type_id":"4","last_reported":1728324747,"current_range_meters":28400,"station_id":"ce4bhsp2rcd13ifvqi50","pricing_plan_id":"cebpf4jnsgd1na2vs0mg"},{"bike_id":"6586e831-9b77-4338-a1d7-9d4f4ab6259f","system_id":"levelo_inurba_marseille","lat":43.30728,"lon":5.42414,"is_reserved":false,"is_disabled":false,"rental_uris":{"android":"levelo://app?vid=6586e831-9b77-4338-a1d7-9d4f4ab6259f","ios":"levelo://app?vid=6586e831-9b77-4338-a1d7-9d4f4ab6259f"},"vehicle_type_id":"4","last_reported":1728324747,"current_range_meters":34800,"station_id":"ce4bhp92rcd13ifvqhcg","pricing_plan_id":"cebpf4jnsgd1na2vs0mg"},{"bike_id":"6e512044-ef12-457b-bcca-26bd86c5618a","system_id":"levelo_inurba_marseille","lat":43.23061,"lon":5.3549,"is_reserved":false,"is_disabled":false,"rental_uris":{"android":"levelo://app?vid=6e512044-ef12-457b-bcca-26bd86c5618a","ios":"levelo://app?vid=6e512044-ef12-457b-bcca-26bd86c5618a"},"vehicle_type_id":"4","last_reported":1728324747,"current_range_meters":36000,"station_id":"cpo3342slgdg3j2ifvpg","pricing_plan_id":"cebpf4jnsgd1na2vs0mg"},{"bike_id":"45d047a0-c610-4788-b146-bc4c5299234b","system_id":"levelo_inurba_marseille","lat":43.30891,"lon":5.3719,"is_reserved":false,"is_disabled":false,"rental_uris":{"android":"levelo://app?vid=45d047a0-c610-4788-b146-bc4c5299234b","ios":"levelo://app?vid=45d047a0-c610-4788-b146-bc4c5299234b"},"vehicle_type_id":"4","last_reported":1728324747,"current_range_meters":28000,"station_id":"ce4bguh2rcd13ifvqckg","pricing_plan_id":"cebpf4jnsgd1na2vs0mg"},{"bike_id":"270b90ca-7521-4165-af49-e1c727e5fa34","system_id":"levelo_inurba_marseille","lat":43.24167,"lon":5.36398,"is_reserved":false,"is_disabled":false,"rental_uris":{"android":"levelo://app?vid=270b90ca-7521-4165-af49-e1c727e5fa34","ios":"levelo://app?vid=270b90ca-7521-4165-af49-e1c727e5fa34"},"vehicle_type_id":"4","last_reported":1728324747,"current_range_meters":28000,"station_id":"cpo36qri1sfpv3e86is0","pricing_plan_id":"cebpf4jnsgd1na2vs0mg"},{"bike_id":"1c6c58c3-e803-47d0-aae9-62fa2a62056c","system_id":"levelo_inurba_marseille","lat":43.2306,"lon":5.35498,"is_reserved":false,"is_disabled":false,"rental_uris":{"android":"levelo://app?vid=1c6c58c3-e803-47d0-aae9-62fa2a62056c","ios":"levelo://app?vid=1c6c58c3-e803-47d0-aae9-62fa2a62056c"},"vehicle_type_id":"4","last_reported":1728324747,"current_range_meters":24400,"station_id":"cpo3342slgdg3j2ifvpg","pricing_plan_id":"cebpf4jnsgd1na2vs0mg"},{"bike_id":"bf435005-a6cf-423a-8cc2-08ce8a5ce9cc","system_id":"levelo_inurba_marseille","lat":43.28076,"lon":5.39664,"is_reserved":false,"is_disabled":false,"rental_uris":{"android":"levelo://app?vid=bf435005-a6cf-423a-8cc2-08ce8a5ce9cc","ios":"levelo://app?vid=bf435005-a6cf-423a-8cc2-08ce8a5ce9cc"},"vehicle_type_id":"4","last_reported":1728324747,"current_range_meters":12400,"station_id":"ce4bho12rcd13ifvqh2g","pricing_plan_id":"cebpf4jnsgd1na2vs0mg"},{"bike_id":"f24801db-07fb-4693-afa8-e9cefa0187af","system_id":"levelo_inurba_marseille","lat":43.25004,"lon":5.38918,"is_reserved":false,"is_disabled":false,"rental_uris":{"android":"levelo://app?vid=f24801db-07fb-4693-afa8-e9cefa0187af","ios":"levelo://app?vid=f24801db-07fb-4693-afa8-e9cefa0187af"},"vehicle_type_id":"4","last_reported":1728324747,"current_range_meters":38800,"station_id":"ce4bhgp2rcd13ifvqfd0","pricing_plan_id":"cebpf4jnsgd1na2vs0mg"},{"bike_id":"83e845b9-84ea-4511-b28f-2ee8c3d2ac76","system_id":"levelo_inurba_marseille","lat":43.3302,"lon":5.39038,"is_reserved":false,"is_disabled":false,"rental_uris":{"android":"levelo://app?vid=83e845b9-84ea-4511-b28f-2ee8c3d2ac76","ios":"levelo://app?vid=83e845b9-84ea-4511-b28f-2ee8c3d2ac76"},"vehicle_type_id":"4","last_reported":1728324747,"current_range_meters":20400,"station_id":"ce4bhr92rcd13ifvqhrg","pricing_plan_id":"cebpf4jnsgd1na2vs0mg"},{"bike_id":"0fbac764-4365-43be-9c75-c0af399eb618","system_id":"levelo_inurba_marseille","lat":43.30186,"lon":5.36612,"is_reserved":false,"is_disabled":false,"rental_uris":{"android":"levelo://app?vid=0fbac764-4365-43be-9c75-c0af399eb618","ios":"levelo://app?vid=0fbac764-4365-43be-9c75-c0af399eb618"},"vehicle_type_id":"4","last_reported":1728324747,"current_range_meters":11200,"station_id":"ce4bgrh2rcd13ifvqc8g","pricing_plan_id":"cebpf4jnsgd1na2vs0mg"},{"bike_id":"e16e8d7e-d7f9-444a-833f-dc9af214c16f","system_id":"levelo_inurba_marseille","lat":43.33601,"lon":5.41038,"is_reserved":false,"is_disabled":false,"rental_uris":{"android":"levelo://app?vid=e16e8d7e-d7f9-444a-833f-dc9af214c16f","ios":"levelo://app?vid=e16e8d7e-d7f9-444a-833f-dc9af214c16f"},"vehicle_type_id":"4","last_reported":1728324747,"current_range_meters":14400,"station_id":"ce4bhqh2rcd13ifvqhmg","pricing_plan_id":"cebpf4jnsgd1na2vs0mg"},{"bike_id":"5ee7c1eb-409e-4cde-9313-806f49d681da","system_id":"levelo_inurba_marseille","lat":43.30432,"lon":5.39753,"is_reserved":false,"is_disabled":false,"rental_uris":{"android":"levelo://app?vid=5ee7c1eb-409e-4cde-9313-806f49d681da","ios":"levelo://app?vid=5ee7c1eb-409e-4cde-9313-806f49d681da"},"vehicle_type_id":"4","last_reported":1728324747,"current_range_meters":31200,"station_id":"ce4bh092rcd13ifvqd20","pricing_plan_id":"cebpf4jnsgd1na2vs0mg"},{"bike_id":"bfac3917-e821-4966-a120-7aa0752cb288","system_id":"levelo_inurba_marseille","lat":43.28932,"lon":5.38411,"is_reserved":false,"is_disabled":false,"rental_uris":{"android":"levelo://app?vid=bfac3917-e821-4966-a120-7aa0752cb288","ios":"levelo://app?vid=bfac3917-e821-4966-a120-7aa0752cb288"},"vehicle_type_id":"4","last_reported":1728324747,"current_range_meters":16800,"station_id":"ce4bh612rcd13ifvqe6g","pricing_plan_id":"cebpf4jnsgd1na2vs0mg"},{"bike_id":"f02b00b8-0b11-4be0-9546-27b0c8f9a93a","system_id":"levelo_inurba_marseille","lat":43.30603,"lon":5.37203,"is_reserved":false,"is_disabled":false,"rental_uris":{"android":"levelo://app?vid=f02b00b8-0b11-4be0-9546-27b0c8f9a93a","ios":"levelo://app?vid=f02b00b8-0b11-4be0-9546-27b0c8f9a93a"},"vehicle_type_id":"4","last_reported":1728324747,"current_range_meters":38800,"station_id":"ce4bgqh2rcd13ifvqc4g","pricing_plan_id":"cebpf4jnsgd1na2vs0mg"},{"bike_id":"ab0ef8f6-2d64-477f-ab35-7e54daa51f0f","system_id":"levelo_inurba_marseille","lat":43.31712,"lon":5.4371,"is_reserved":false,"is_disabled":false,"rental_uris":{"android":"levelo://app?vid=ab0ef8f6-2d64-477f-ab35-7e54daa51f0f","ios":"levelo://app?vid=ab0ef8f6-2d64-477f-ab35-7e54daa51f0f"},"vehicle_type_id":"4","last_reported":1728324747,"current_range_meters":24800,"station_id":"ce4bhp92rcd13ifvqhcg","pricing_plan_id":"cebpf4jnsgd1na2vs0mg"},{"bike_id":"c45340a7-5257-408a-897a-01994bd38219","system_id":"levelo_inurba_marseille","lat":43.28455,"lon":5.35895,"is_reserved":false,"is_disabled":false,"rental_uris":{"android":"levelo://app?vid=c45340a7-5257-408a-897a-01994bd38219","ios":"levelo://app?vid=c45340a7-5257-408a-897a-01994bd38219"},"vehicle_type_id":"4","last_reported":1728324747,"current_range_meters":5600,"station_id":"ce4bhah2rcd13ifvqei0","pricing_plan_id":"cebpf4jnsgd1na2vs0mg"},{"bike_id":"251fcbb0-8761-4182-a382-9b50398d6f3c","system_id":"levelo_inurba_marseille","lat":43.30644,"lon":5.40093,"is_reserved":false,"is_disabled":false,"rental_uris":{"android":"levelo://app?vid=251fcbb0-8761-4182-a382-9b50398d6f3c","ios":"levelo://app?vid=251fcbb0-8761-4182-a382-9b50398d6f3c"},"vehicle_type_id":"4","last_reported":1728324747,"current_range_meters":20000,"station_id":"ce4bh112rcd13ifvqda0","pricing_plan_id":"cebpf4jnsgd1na2vs0mg"},{"bike_id":"b9644df2-b234-4f72-b771-b50713752d5c","system_id":"levelo_inurba_marseille","lat":43.31066,"lon":5.40103,"is_reserved":false,"is_disabled":false,"rental_uris":{"android":"levelo://app?vid=b9644df2-b234-4f72-b771-b50713752d5c","ios":"levelo://app?vid=b9644df2-b234-4f72-b771-b50713752d5c"},"vehicle_type_id":"4","last_reported":1728324747,"current_range_meters":3200,"station_id":"","pricing_plan_id":"cebpf4jnsgd1na2vs0mg"},{"bike_id":"f7612392-4f4b-453b-a64c-499de3c2600f","system_id":"levelo_inurba_marseille","lat":43.24164,"lon":5.36397,"is_reserved":false,"is_disabled":false,"rental_uris":{"android":"levelo://app?vid=f7612392-4f4b-453b-a64c-499de3c2600f","ios":"levelo://app?vid=f7612392-4f4b-453b-a64c-499de3c2600f"},"vehicle_type_id":"4","last_reported":1728324747,"current_range_meters":35600,"station_id":"cpo36qri1sfpv3e86is0","pricing_plan_id":"cebpf4jnsgd1na2vs0mg"},{"bike_id":"b9f7e217-2396-4f17-99e6-316574934f3f","system_id":"levelo_inurba_marseille","lat":43.28455,"lon":5.35886,"is_reserved":false,"is_disabled":false,"rental_uris":{"android":"levelo://app?vid=b9f7e217-2396-4f17-99e6-316574934f3f","ios":"levelo://app?vid=b9f7e217-2396-4f17-99e6-316574934f3f"},"vehicle_type_id":"4","last_reported":1728324747,"current_range_meters":40000,"station_id":"ce4bhah2rcd13ifvqei0","pricing_plan_id":"cebpf4jnsgd1na2vs0mg"},{"bike_id":"9a873b21-4325-4346-9f74-80b6d80ab720","system_id":"levelo_inurba_marseille","lat":43.26949,"lon":5.38634,"is_reserved":false,"is_disabled":false,"rental_uris":{"android":"levelo://app?vid=9a873b21-4325-4346-9f74-80b6d80ab720","ios":"levelo://app?vid=9a873b21-4325-4346-9f74-80b6d80ab720"},"vehicle_type_id":"4","last_reported":1728324747,"current_range_meters":22000,"station_id":"ce4bhh92rcd13ifvqfh0","pricing_plan_id":"cebpf4jnsgd1na2vs0mg"},{"bike_id":"2c885102-f244-4e91-8386-5c39447fab00","system_id":"levelo_inurba_marseille","lat":43.29973,"lon":5.38497,"is_reserved":false,"is_disabled":false,"rental_uris":{"android":"levelo://app?vid=2c885102-f244-4e91-8386-5c39447fab00","ios":"levelo://app?vid=2c885102-f244-4e91-8386-5c39447fab00"},"vehicle_type_id":"4","last_reported":1728324747,"current_range_meters":39200,"station_id":"ce4bgj92rcd13ifvqbd0","pricing_plan_id":"cebpf4jnsgd1na2vs0mg"},{"bike_id":"54b54bb0-297c-469b-b69a-e5dcf22565a9","system_id":"levelo_inurba_marseille","lat":43.280075,"lon":5.400212,"is_reserved":false,"is_disabled":false,"rental_uris":{"android":"levelo://app?vid=54b54bb0-297c-469b-b69a-e5dcf22565a9","ios":"levelo://app?vid=54b54bb0-297c-469b-b69a-e5dcf22565a9"},"vehicle_type_id":"4","last_reported":1728324747,"current_range_meters":11600,"station_id":"ce4bho92rcd13ifvqh4g","pricing_plan_id":"cebpf4jnsgd1na2vs0mg"},{"bike_id":"e592fa8f-aa5a-46f1-b2f4-aa0aa5f30808","system_id":"levelo_inurba_marseille","lat":43.24683,"lon":5.3815,"is_reserved":false,"is_disabled":false,"rental_uris":{"android":"levelo://app?vid=e592fa8f-aa5a-46f1-b2f4-aa0aa5f30808","ios":"levelo://app?vid=e592fa8f-aa5a-46f1-b2f4-aa0aa5f30808"},"vehicle_type_id":"4","last_reported":1728324747,"current_range_meters":19200,"station_id":"ce4bhih2rcd13ifvqfr0","pricing_plan_id":"cebpf4jnsgd1na2vs0mg"},{"bike_id":"16f2623b-8d6e-4528-b0c1-3479f17c28a9","system_id":"levelo_inurba_marseille","lat":43.2781,"lon":5.40719,"is_reserved":false,"is_disabled":false,"rental_uris":{"android":"levelo://app?vid=16f2623b-8d6e-4528-b0c1-3479f17c28a9","ios":"levelo://app?vid=16f2623b-8d6e-4528-b0c1-3479f17c28a9"},"vehicle_type_id":"4","last_reported":1728324747,"current_range_meters":27200,"station_id":"ce4bhnh2rcd13ifvqgtg","pricing_plan_id":"cebpf4jnsgd1na2vs0mg"},{"bike_id":"d7516ceb-154e-4d0b-bc61-d1eb232c5c17","system_id":"levelo_inurba_marseille","lat":43.27056,"lon":5.40263,"is_reserved":false,"is_disabled":false,"rental_uris":{"android":"levelo://app?vid=d7516ceb-154e-4d0b-bc61-d1eb232c5c17","ios":"levelo://app?vid=d7516ceb-154e-4d0b-bc61-d1eb232c5c17"},"vehicle_type_id":"4","last_reported":1728324747,"current_range_meters":2800,"station_id":"ce4bhk92rcd13ifvqgc0","pricing_plan_id":"cebpf4jnsgd1na2vs0mg"},{"bike_id":"c256f8b9-799c-4341-be9c-c3f5ca1ad71a","system_id":"levelo_inurba_marseille","lat":43.30648,"lon":5.40092,"is_reserved":false,"is_disabled":false,"rental_uris":{"android":"levelo://app?vid=c256f8b9-799c-4341-be9c-c3f5ca1ad71a","ios":"levelo://app?vid=c256f8b9-799c-4341-be9c-c3f5ca1ad71a"},"vehicle_type_id":"4","last_reported":1728324747,"current_range_meters":32000,"station_id":"ce4bh112rcd13ifvqda0","pricing_plan_id":"cebpf4jnsgd1na2vs0mg"},{"bike_id":"12cfbe49-322e-4e6e-8e64-3f34de285b4f","system_id":"levelo_inurba_marseille","lat":43.31327,"lon":5.397,"is_reserved":false,"is_disabled":false,"rental_uris":{"android":"levelo://app?vid=12cfbe49-322e-4e6e-8e64-3f34de285b4f","ios":"levelo://app?vid=12cfbe49-322e-4e6e-8e64-3f34de285b4f"},"vehicle_type_id":"4","last_reported":1728324747,"current_range_meters":20400,"station_id":"ce4bgvp2rcd13ifvqcu0","pricing_plan_id":"cebpf4jnsgd1na2vs0mg"},{"bike_id":"053de70d-a020-44eb-870c-70bb4ad55497","system_id":"levelo_inurba_marseille","lat":43.31366,"lon":5.38495,"is_reserved":false,"is_disabled":false,"rental_uris":{"android":"levelo://app?vid=053de70d-a020-44eb-870c-70bb4ad55497","ios":"levelo://app?vid=053de70d-a020-44eb-870c-70bb4ad55497"},"vehicle_type_id":"4","last_reported":1728324747,"current_range_meters":4000,"station_id":"ce4bgt92rcd13ifvqcf0","pricing_plan_id":"cebpf4jnsgd1na2vs0mg"},{"bike_id":"be6efb97-6224-4afc-8bb9-efe846973849","system_id":"levelo_inurba_marseille","lat":43.295677,"lon":5.39979,"is_reserved":false,"is_disabled":false,"rental_uris":{"android":"levelo://app?vid=be6efb97-6224-4afc-8bb9-efe846973849","ios":"levelo://app?vid=be6efb97-6224-4afc-8bb9-efe846973849"},"vehicle_type_id":"4","last_reported":1728324747,"current_range_meters":3200,"station_id":"ce4bh312rcd13ifvqdj0","pricing_plan_id":"cebpf4jnsgd1na2vs0mg"},{"bike_id":"156938fc-0862-4055-a42a-7cb0dfa831ba","system_id":"levelo_inurba_marseille","lat":43.31086,"lon":5.42427,"is_reserved":false,"is_disabled":false,"rental_uris":{"android":"levelo://app?vid=156938fc-0862-4055-a42a-7cb0dfa831ba","ios":"levelo://app?vid=156938fc-0862-4055-a42a-7cb0dfa831ba"},"vehicle_type_id":"4","last_reported":1728324747,"current_range_meters":16400,"station_id":"ce4bhp92rcd13ifvqhag","pricing_plan_id":"cebpf4jnsgd1na2vs0mg"},{"bike_id":"6f0112a6-6fb6-4acc-bb05-f0c322e76587","system_id":"levelo_inurba_marseille","lat":43.31711,"lon":5.43709,"is_reserved":false,"is_disabled":false,"rental_uris":{"android":"levelo://app?vid=6f0112a6-6fb6-4acc-bb05-f0c322e76587","ios":"levelo://app?vid=6f0112a6-6fb6-4acc-bb05-f0c322e76587"},"vehicle_type_id":"4","last_reported":1728324747,"current_range_meters":3200,"station_id":"ce4bhp92rcd13ifvqhcg","pricing_plan_id":"cebpf4jnsgd1na2vs0mg"},{"bike_id":"9d3dd6ee-fc7a-47c0-8f6a-25c17db43a03","system_id":"levelo_inurba_marseille","lat":43.29628,"lon":5.406,"is_reserved":false,"is_disabled":false,"rental_uris":{"android":"levelo://app?vid=9d3dd6ee-fc7a-47c0-8f6a-25c17db43a03","ios":"levelo://app?vid=9d3dd6ee-fc7a-47c0-8f6a-25c17db43a03"},"vehicle_type_id":"4","last_reported":1728324747,"current_range_meters":10000,"station_id":"ce4bgvp2rcd13ifvqct0","pricing_plan_id":"cebpf4jnsgd1na2vs0mg"},{"bike_id":"83339be4-75a1-4ed9-8b58-3351fcd47122","system_id":"levelo_inurba_marseille","lat":43.2955,"lon":5.42291,"is_reserved":false,"is_disabled":false,"rental_uris":{"android":"levelo://app?vid=83339be4-75a1-4ed9-8b58-3351fcd47122","ios":"levelo://app?vid=83339be4-75a1-4ed9-8b58-3351fcd47122"},"vehicle_type_id":"4","last_reported":1728324747,"current_range_meters":38800,"station_id":"ce4bhph2rcd13ifvqhdg","pricing_plan_id":"cebpf4jnsgd1na2vs0mg"},{"bike_id":"a774f550-3ce3-43eb-9d80-b5fdc228d567","system_id":"levelo_inurba_marseille","lat":43.31072,"lon":5.38351,"is_reserved":false,"is_disabled":false,"rental_uris":{"android":"levelo://app?vid=a774f550-3ce3-43eb-9d80-b5fdc228d567","ios":"levelo://app?vid=a774f550-3ce3-43eb-9d80-b5fdc228d567"},"vehicle_type_id":"4","last_reported":1728324747,"current_range_meters":38800,"station_id":"ce4bgv92rcd13ifvqcr0","pricing_plan_id":"cebpf4jnsgd1na2vs0mg"},{"bike_id":"035169f9-3688-40e7-b630-6e0665ca7977","system_id":"levelo_inurba_marseille","lat":43.27808,"lon":5.40726,"is_reserved":false,"is_disabled":false,"rental_uris":{"android":"levelo://app?vid=035169f9-3688-40e7-b630-6e0665ca7977","ios":"levelo://app?vid=035169f9-3688-40e7-b630-6e0665ca7977"},"vehicle_type_id":"4","last_reported":1728324747,"current_range_meters":28400,"station_id":"ce4bhnh2rcd13ifvqgtg","pricing_plan_id":"cebpf4jnsgd1na2vs0mg"},{"bike_id":"8f40e64f-7606-4344-9b10-8af5bb5398f2","system_id":"levelo_inurba_marseille","lat":43.29085,"lon":5.37159,"is_reserved":false,"is_disabled":false,"rental_uris":{"android":"levelo://app?vid=8f40e64f-7606-4344-9b10-8af5bb5398f2","ios":"levelo://app?vid=8f40e64f-7606-4344-9b10-8af5bb5398f2"},"vehicle_type_id":"4","last_reported":1728324747,"current_range_meters":30800,"station_id":"ce4bh5p2rcd13ifvqe4g","pricing_plan_id":"cebpf4jnsgd1na2vs0mg"},{"bike_id":"619e85eb-d3d3-4d69-b2ac-fcf6bebbdf03","system_id":"levelo_inurba_marseille","lat":43.31367,"lon":5.38498,"is_reserved":false,"is_disabled":false,"rental_uris":{"android":"levelo://app?vid=619e85eb-d3d3-4d69-b2ac-fcf6bebbdf03","ios":"levelo://app?vid=619e85eb-d3d3-4d69-b2ac-fcf6bebbdf03"},"vehicle_type_id":"4","last_reported":1728324747,"current_range_meters":29600,"station_id":"ce4bgt92rcd13ifvqcf0","pricing_plan_id":"cebpf4jnsgd1na2vs0mg"},{"bike_id":"2d543eca-c8bf-427c-a3fa-e17e301f5c9b","system_id":"levelo_inurba_marseille","lat":43.26088,"lon":5.40321,"is_reserved":false,"is_disabled":false,"rental_uris":{"android":"levelo://app?vid=2d543eca-c8bf-427c-a3fa-e17e301f5c9b","ios":"levelo://app?vid=2d543eca-c8bf-427c-a3fa-e17e301f5c9b"},"vehicle_type_id":"4","last_reported":1728324747,"current_range_meters":9600,"station_id":"","pricing_plan_id":"cebpf4jnsgd1na2vs0mg"},{"bike_id":"e9204f5a-b3f7-47f9-a6a3-89a1830ea3d1","system_id":"levelo_inurba_marseille","lat":43.25004,"lon":5.3893,"is_reserved":false,"is_disabled":false,"rental_uris":{"android":"levelo://app?vid=e9204f5a-b3f7-47f9-a6a3-89a1830ea3d1","ios":"levelo://app?vid=e9204f5a-b3f7-47f9-a6a3-89a1830ea3d1"},"vehicle_type_id":"4","last_reported":1728324747,"current_range_meters":32800,"station_id":"ce4bhgp2rcd13ifvqfd0","pricing_plan_id":"cebpf4jnsgd1na2vs0mg"},{"bike_id":"c1975eeb-029e-4d79-92b5-3c802b1901e0","system_id":"levelo_inurba_marseille","lat":43.28457,"lon":5.35895,"is_reserved":false,"is_disabled":false,"rental_uris":{"android":"levelo://app?vid=c1975eeb-029e-4d79-92b5-3c802b1901e0","ios":"levelo://app?vid=c1975eeb-029e-4d79-92b5-3c802b1901e0"},"vehicle_type_id":"4","last_reported":1728324747,"current_range_meters":34000,"station_id":"ce4bhah2rcd13ifvqei0","pricing_plan_id":"cebpf4jnsgd1na2vs0mg"},{"bike_id":"4e5946e6-407e-4701-9bc0-7c410a7ddd3b","system_id":"levelo_inurba_marseille","lat":43.33024,"lon":5.39042,"is_reserved":false,"is_disabled":false,"rental_uris":{"android":"levelo://app?vid=4e5946e6-407e-4701-9bc0-7c410a7ddd3b","ios":"levelo://app?vid=4e5946e6-407e-4701-9bc0-7c410a7ddd3b"},"vehicle_type_id":"4","last_reported":1728324747,"current_range_meters":23200,"station_id":"ce4bhr92rcd13ifvqhrg","pricing_plan_id":"cebpf4jnsgd1na2vs0mg"},{"bike_id":"6826c930-8aa2-4db5-96a6-4b67fd5214fe","system_id":"levelo_inurba_marseille","lat":43.2827,"lon":5.35084,"is_reserved":false,"is_disabled":false,"rental_uris":{"android":"levelo://app?vid=6826c930-8aa2-4db5-96a6-4b67fd5214fe","ios":"levelo://app?vid=6826c930-8aa2-4db5-96a6-4b67fd5214fe"},"vehicle_type_id":"4","last_reported":1728324747,"current_range_meters":9200,"station_id":"ce4bhbp2rcd13ifvqerg","pricing_plan_id":"cebpf4jnsgd1na2vs0mg"},{"bike_id":"c7c933ea-453c-4444-a304-2fa069327739","system_id":"levelo_inurba_marseille","lat":43.23066,"lon":5.3549,"is_reserved":false,"is_disabled":false,"rental_uris":{"android":"levelo://app?vid=c7c933ea-453c-4444-a304-2fa069327739","ios":"levelo://app?vid=c7c933ea-453c-4444-a304-2fa069327739"},"vehicle_type_id":"4","last_reported":1728324747,"current_range_meters":10000,"station_id":"cpo3342slgdg3j2ifvpg","pricing_plan_id":"cebpf4jnsgd1na2vs0mg"},{"bike_id":"a6d70310-27ce-49a4-a3c6-5ed786684119","system_id":"levelo_inurba_marseille","lat":43.28458,"lon":5.35884,"is_reserved":false,"is_disabled":false,"rental_uris":{"android":"levelo://app?vid=a6d70310-27ce-49a4-a3c6-5ed786684119","ios":"levelo://app?vid=a6d70310-27ce-49a4-a3c6-5ed786684119"},"vehicle_type_id":"4","last_reported":1728324747,"current_range_meters":12400,"station_id":"ce4bhah2rcd13ifvqei0","pricing_plan_id":"cebpf4jnsgd1na2vs0mg"},{"bike_id":"ddbdfd40-372e-4d21-96d9-e3b3570d5d19","system_id":"levelo_inurba_marseille","lat":43.29724,"lon":5.3769,"is_reserved":false,"is_disabled":false,"rental_uris":{"android":"levelo://app?vid=ddbdfd40-372e-4d21-96d9-e3b3570d5d19","ios":"levelo://app?vid=ddbdfd40-372e-4d21-96d9-e3b3570d5d19"},"vehicle_type_id":"4","last_reported":1728324747,"current_range_meters":38800,"station_id":"ce4bgkh2rcd13ifvqbl0","pricing_plan_id":"cebpf4jnsgd1na2vs0mg"},{"bike_id":"1e89ff62-86ea-4d9b-83e6-20ce97cfea76","system_id":"levelo_inurba_marseille","lat":43.2845,"lon":5.35887,"is_reserved":false,"is_disabled":false,"rental_uris":{"android":"levelo://app?vid=1e89ff62-86ea-4d9b-83e6-20ce97cfea76","ios":"levelo://app?vid=1e89ff62-86ea-4d9b-83e6-20ce97cfea76"},"vehicle_type_id":"4","last_reported":1728324747,"current_range_meters":40000,"station_id":"ce4bhah2rcd13ifvqei0","pricing_plan_id":"cebpf4jnsgd1na2vs0mg"},{"bike_id":"583a21c8-6989-4d24-873c-2cad4c8dced9","system_id":"levelo_inurba_marseille","lat":43.29567,"lon":5.39967,"is_reserved":false,"is_disabled":false,"rental_uris":{"android":"levelo://app?vid=583a21c8-6989-4d24-873c-2cad4c8dced9","ios":"levelo://app?vid=583a21c8-6989-4d24-873c-2cad4c8dced9"},"vehicle_type_id":"4","last_reported":1728324747,"current_range_meters":12400,"station_id":"ce4bh312rcd13ifvqdj0","pricing_plan_id":"cebpf4jnsgd1na2vs0mg"},{"bike_id":"c190b4a1-ea1d-47e2-b2e8-eefa3099f9cc","system_id":"levelo_inurba_marseille","lat":43.23191,"lon":5.35556,"is_reserved":false,"is_disabled":false,"rental_uris":{"android":"levelo://app?vid=c190b4a1-ea1d-47e2-b2e8-eefa3099f9cc","ios":"levelo://app?vid=c190b4a1-ea1d-47e2-b2e8-eefa3099f9cc"},"vehicle_type_id":"4","last_reported":1728324747,"current_range_meters":38800,"station_id":"ce4bhu92rcd13ifvqi70","pricing_plan_id":"cebpf4jnsgd1na2vs0mg"},{"bike_id":"38a20d7a-dae1-4df2-949c-4c41da90639b","system_id":"levelo_inurba_marseille","lat":43.28269,"lon":5.3508,"is_reserved":false,"is_disabled":false,"rental_uris":{"android":"levelo://app?vid=38a20d7a-dae1-4df2-949c-4c41da90639b","ios":"levelo://app?vid=38a20d7a-dae1-4df2-949c-4c41da90639b"},"vehicle_type_id":"4","last_reported":1728324747,"current_range_meters":16400,"station_id":"ce4bhbp2rcd13ifvqerg","pricing_plan_id":"cebpf4jnsgd1na2vs0mg"},{"bike_id":"1350fd2c-b9e9-43cd-9325-cd67b9835ac5","system_id":"levelo_inurba_marseille","lat":43.28449,"lon":5.3589,"is_reserved":false,"is_disabled":false,"rental_uris":{"android":"levelo://app?vid=1350fd2c-b9e9-43cd-9325-cd67b9835ac5","ios":"levelo://app?vid=1350fd2c-b9e9-43cd-9325-cd67b9835ac5"},"vehicle_type_id":"4","last_reported":1728324747,"current_range_meters":40000,"station_id":"ce4bhah2rcd13ifvqei0","pricing_plan_id":"cebpf4jnsgd1na2vs0mg"},{"bike_id":"f1a587de-a4d9-42a8-8fe6-d4518f6dd1b0","system_id":"levelo_inurba_marseille","lat":43.23063,"lon":5.35493,"is_reserved":false,"is_disabled":false,"rental_uris":{"android":"levelo://app?vid=f1a587de-a4d9-42a8-8fe6-d4518f6dd1b0","ios":"levelo://app?vid=f1a587de-a4d9-42a8-8fe6-d4518f6dd1b0"},"vehicle_type_id":"4","last_reported":1728324747,"current_range_meters":10800,"station_id":"cpo3342slgdg3j2ifvpg","pricing_plan_id":"cebpf4jnsgd1na2vs0mg"},{"bike_id":"6b4618ac-bf15-42bd-b8ce-f62f3e28352b","system_id":"levelo_inurba_marseille","lat":43.23193,"lon":5.35554,"is_reserved":false,"is_disabled":false,"rental_uris":{"android":"levelo://app?vid=6b4618ac-bf15-42bd-b8ce-f62f3e28352b","ios":"levelo://app?vid=6b4618ac-bf15-42bd-b8ce-f62f3e28352b"},"vehicle_type_id":"4","last_reported":1728324747,"current_range_meters":32000,"station_id":"ce4bhu92rcd13ifvqi70","pricing_plan_id":"cebpf4jnsgd1na2vs0mg"},{"bike_id":"8684bab1-2261-4ec8-8356-a57c2ecfdf5c","system_id":"levelo_inurba_marseille","lat":43.30314,"lon":5.39207,"is_reserved":false,"is_disabled":false,"rental_uris":{"android":"levelo://app?vid=8684bab1-2261-4ec8-8356-a57c2ecfdf5c","ios":"levelo://app?vid=8684bab1-2261-4ec8-8356-a57c2ecfdf5c"},"vehicle_type_id":"4","last_reported":1728324747,"current_range_meters":6800,"station_id":"ce4bgkh2rcd13ifvqbk0","pricing_plan_id":"cebpf4jnsgd1na2vs0mg"},{"bike_id":"62f27822-8303-44cb-8da2-7314e0b52bec","system_id":"levelo_inurba_marseille","lat":43.31756,"lon":5.39025,"is_reserved":false,"is_disabled":false,"rental_uris":{"android":"levelo://app?vid=62f27822-8303-44cb-8da2-7314e0b52bec","ios":"levelo://app?vid=62f27822-8303-44cb-8da2-7314e0b52bec"},"vehicle_type_id":"4","last_reported":1728324747,"current_range_meters":18800,"station_id":"ce4bhqp2rcd13ifvqhng","pricing_plan_id":"cebpf4jnsgd1na2vs0mg"},{"bike_id":"a69fd01b-3806-4b2c-a0dc-9fb7dfe4ac36","system_id":"levelo_inurba_marseille","lat":43.33026,"lon":5.39045,"is_reserved":false,"is_disabled":false,"rental_uris":{"android":"levelo://app?vid=a69fd01b-3806-4b2c-a0dc-9fb7dfe4ac36","ios":"levelo://app?vid=a69fd01b-3806-4b2c-a0dc-9fb7dfe4ac36"},"vehicle_type_id":"4","last_reported":1728324747,"current_range_meters":25200,"station_id":"ce4bhr92rcd13ifvqhrg","pricing_plan_id":"cebpf4jnsgd1na2vs0mg"},{"bike_id":"5cb07fad-9609-46b3-ad52-39ff30f85547","system_id":"levelo_inurba_marseille","lat":43.2873,"lon":5.36081,"is_reserved":false,"is_disabled":false,"rental_uris":{"android":"levelo://app?vid=5cb07fad-9609-46b3-ad52-39ff30f85547","ios":"levelo://app?vid=5cb07fad-9609-46b3-ad52-39ff30f85547"},"vehicle_type_id":"4","last_reported":1728324747,"current_range_meters":9200,"station_id":"cki0cbj6b192h4jlfktg","pricing_plan_id":"cebpf4jnsgd1na2vs0mg"},{"bike_id":"433deafa-d7d3-49df-9aec-653774bf0603","system_id":"levelo_inurba_marseille","lat":43.31896,"lon":5.40736,"is_reserved":false,"is_disabled":false,"rental_uris":{"android":"levelo://app?vid=433deafa-d7d3-49df-9aec-653774bf0603","ios":"levelo://app?vid=433deafa-d7d3-49df-9aec-653774bf0603"},"vehicle_type_id":"4","last_reported":1728324747,"current_range_meters":25600,"station_id":"ce4bhq12rcd13ifvqhig","pricing_plan_id":"cebpf4jnsgd1na2vs0mg"},{"bike_id":"0eb17b3c-30e6-49d7-9904-f05480828acc","system_id":"levelo_inurba_marseille","lat":43.298944,"lon":5.436737,"is_reserved":false,"is_disabled":false,"rental_uris":{"android":"levelo://app?vid=0eb17b3c-30e6-49d7-9904-f05480828acc","ios":"levelo://app?vid=0eb17b3c-30e6-49d7-9904-f05480828acc"},"vehicle_type_id":"4","last_reported":1728324747,"current_range_meters":4400,"station_id":"ce4bhph2rcd13ifvqheg","pricing_plan_id":"cebpf4jnsgd1na2vs0mg"},{"bike_id":"f70a52c3-19ed-4a8d-8448-4c95fe9d982a","system_id":"levelo_inurba_marseille","lat":43.24812,"lon":5.37464,"is_reserved":false,"is_disabled":false,"rental_uris":{"android":"levelo://app?vid=f70a52c3-19ed-4a8d-8448-4c95fe9d982a","ios":"levelo://app?vid=f70a52c3-19ed-4a8d-8448-4c95fe9d982a"},"vehicle_type_id":"4","last_reported":1728324747,"current_range_meters":27600,"station_id":"ce4bhgh2rcd13ifvqfb0","pricing_plan_id":"cebpf4jnsgd1na2vs0mg"},{"bike_id":"4dbc9b22-4c46-419e-b5a6-9c9438a9829f","system_id":"levelo_inurba_marseille","lat":43.31354,"lon":5.38508,"is_reserved":false,"is_disabled":false,"rental_uris":{"android":"levelo://app?vid=4dbc9b22-4c46-419e-b5a6-9c9438a9829f","ios":"levelo://app?vid=4dbc9b22-4c46-419e-b5a6-9c9438a9829f"},"vehicle_type_id":"4","last_reported":1728324747,"current_range_meters":37600,"station_id":"ce4bgt92rcd13ifvqcf0","pricing_plan_id":"cebpf4jnsgd1na2vs0mg"},{"bike_id":"866926b1-1b05-443a-828c-03cb0c9beb9d","system_id":"levelo_inurba_marseille","lat":43.30889,"lon":5.39132,"is_reserved":false,"is_disabled":false,"rental_uris":{"android":"levelo://app?vid=866926b1-1b05-443a-828c-03cb0c9beb9d","ios":"levelo://app?vid=866926b1-1b05-443a-828c-03cb0c9beb9d"},"vehicle_type_id":"4","last_reported":1728324747,"current_range_meters":10800,"station_id":"ce4bghh2rcd13ifvqb60","pricing_plan_id":"cebpf4jnsgd1na2vs0mg"},{"bike_id":"85d39ef9-432e-4d43-ae7b-641e02ca8310","system_id":"levelo_inurba_marseille","lat":43.25583,"lon":5.38226,"is_reserved":false,"is_disabled":false,"rental_uris":{"android":"levelo://app?vid=85d39ef9-432e-4d43-ae7b-641e02ca8310","ios":"levelo://app?vid=85d39ef9-432e-4d43-ae7b-641e02ca8310"},"vehicle_type_id":"4","last_reported":1728324747,"current_range_meters":2800,"station_id":"ce4bhih2rcd13ifvqfs0","pricing_plan_id":"cebpf4jnsgd1na2vs0mg"},{"bike_id":"ab4fde89-8953-44f4-8cf2-6fbe82bdc71e","system_id":"levelo_inurba_marseille","lat":43.26925,"lon":5.38926,"is_reserved":false,"is_disabled":false,"rental_uris":{"android":"levelo://app?vid=ab4fde89-8953-44f4-8cf2-6fbe82bdc71e","ios":"levelo://app?vid=ab4fde89-8953-44f4-8cf2-6fbe82bdc71e"},"vehicle_type_id":"4","last_reported":1728324747,"current_range_meters":20800,"station_id":"ce4bhhh2rcd13ifvqfl0","pricing_plan_id":"cebpf4jnsgd1na2vs0mg"},{"bike_id":"36e2632b-93dc-4466-8341-b0efc26df23e","system_id":"levelo_inurba_marseille","lat":43.31325,"lon":5.39692,"is_reserved":false,"is_disabled":false,"rental_uris":{"android":"levelo://app?vid=36e2632b-93dc-4466-8341-b0efc26df23e","ios":"levelo://app?vid=36e2632b-93dc-4466-8341-b0efc26df23e"},"vehicle_type_id":"4","last_reported":1728324747,"current_range_meters":6800,"station_id":"ce4bgvp2rcd13ifvqcu0","pricing_plan_id":"cebpf4jnsgd1na2vs0mg"},{"bike_id":"67f4faa5-409c-4226-bc58-5e49d5f8634d","system_id":"levelo_inurba_marseille","lat":43.29791,"lon":5.38109,"is_reserved":false,"is_disabled":false,"rental_uris":{"android":"levelo://app?vid=67f4faa5-409c-4226-bc58-5e49d5f8634d","ios":"levelo://app?vid=67f4faa5-409c-4226-bc58-5e49d5f8634d"},"vehicle_type_id":"4","last_reported":1728324747,"current_range_meters":6000,"station_id":"ce4bgip2rcd13ifvqbb0","pricing_plan_id":"cebpf4jnsgd1na2vs0mg"},{"bike_id":"926380f0-4ec2-45d5-8c58-de39b75f601e","system_id":"levelo_inurba_marseille","lat":43.23067,"lon":5.35489,"is_reserved":false,"is_disabled":false,"rental_uris":{"android":"levelo://app?vid=926380f0-4ec2-45d5-8c58-de39b75f601e","ios":"levelo://app?vid=926380f0-4ec2-45d5-8c58-de39b75f601e"},"vehicle_type_id":"4","last_reported":1728324747,"current_range_meters":14400,"station_id":"cpo3342slgdg3j2ifvpg","pricing_plan_id":"cebpf4jnsgd1na2vs0mg"},{"bike_id":"f0eddefc-389e-46d3-898f-cf448a52c98a","system_id":"levelo_inurba_marseille","lat":43.29882,"lon":5.39744,"is_reserved":false,"is_disabled":false,"rental_uris":{"android":"levelo://app?vid=f0eddefc-389e-46d3-898f-cf448a52c98a","ios":"levelo://app?vid=f0eddefc-389e-46d3-898f-cf448a52c98a"},"vehicle_type_id":"4","last_reported":1728324747,"current_range_meters":16400,"station_id":"ce4bh0h2rcd13ifvqd50","pricing_plan_id":"cebpf4jnsgd1na2vs0mg"},{"bike_id":"4277e319-3241-4732-b2a4-5298e526517a","system_id":"levelo_inurba_marseille","lat":43.29811,"lon":5.40414,"is_reserved":false,"is_disabled":false,"rental_uris":{"android":"levelo://app?vid=4277e319-3241-4732-b2a4-5298e526517a","ios":"levelo://app?vid=4277e319-3241-4732-b2a4-5298e526517a"},"vehicle_type_id":"4","last_reported":1728324747,"current_range_meters":38800,"station_id":"ce4bh112rcd13ifvqd90","pricing_plan_id":"cebpf4jnsgd1na2vs0mg"},{"bike_id":"404b4697-2249-46d0-afb0-44351c2d122f","system_id":"levelo_inurba_marseille","lat":43.29552,"lon":5.42286,"is_reserved":false,"is_disabled":false,"rental_uris":{"android":"levelo://app?vid=404b4697-2249-46d0-afb0-44351c2d122f","ios":"levelo://app?vid=404b4697-2249-46d0-afb0-44351c2d122f"},"vehicle_type_id":"4","last_reported":1728324747,"current_range_meters":21600,"station_id":"ce4bhph2rcd13ifvqhdg","pricing_plan_id":"cebpf4jnsgd1na2vs0mg"},{"bike_id":"e7fb5936-ea5d-4369-85a4-85843247cdd0","system_id":"levelo_inurba_marseille","lat":43.3121,"lon":5.37567,"is_reserved":false,"is_disabled":false,"rental_uris":{"android":"levelo://app?vid=e7fb5936-ea5d-4369-85a4-85843247cdd0","ios":"levelo://app?vid=e7fb5936-ea5d-4369-85a4-85843247cdd0"},"vehicle_type_id":"4","last_reported":1728324747,"current_range_meters":15200,"station_id":"","pricing_plan_id":"cebpf4jnsgd1na2vs0mg"},{"bike_id":"80cba1cf-0623-41c9-829a-3d860e526261","system_id":"levelo_inurba_marseille","lat":43.28611,"lon":5.37068,"is_reserved":false,"is_disabled":false,"rental_uris":{"android":"levelo://app?vid=80cba1cf-0623-41c9-829a-3d860e526261","ios":"levelo://app?vid=80cba1cf-0623-41c9-829a-3d860e526261"},"vehicle_type_id":"4","last_reported":1728324747,"current_range_meters":4000,"station_id":"ce4bht12rcd13ifvqi60","pricing_plan_id":"cebpf4jnsgd1na2vs0mg"},{"bike_id":"490de64e-42bf-4d16-b2ea-9ceb77db71e1","system_id":"levelo_inurba_marseille","lat":43.28843,"lon":5.39324,"is_reserved":false,"is_disabled":false,"rental_uris":{"android":"levelo://app?vid=490de64e-42bf-4d16-b2ea-9ceb77db71e1","ios":"levelo://app?vid=490de64e-42bf-4d16-b2ea-9ceb77db71e1"},"vehicle_type_id":"4","last_reported":1728324747,"current_range_meters":2800,"station_id":"ce4bh2p2rcd13ifvqdi0","pricing_plan_id":"cebpf4jnsgd1na2vs0mg"},{"bike_id":"8966bf1c-57eb-44af-b48e-60b64de47536","system_id":"levelo_inurba_marseille","lat":43.31068,"lon":5.38353,"is_reserved":false,"is_disabled":false,"rental_uris":{"android":"levelo://app?vid=8966bf1c-57eb-44af-b48e-60b64de47536","ios":"levelo://app?vid=8966bf1c-57eb-44af-b48e-60b64de47536"},"vehicle_type_id":"4","last_reported":1728324747,"current_range_meters":36800,"station_id":"ce4bgv92rcd13ifvqcr0","pricing_plan_id":"cebpf4jnsgd1na2vs0mg"},{"bike_id":"fa728258-68a4-4069-94dc-8b0a09461ec1","system_id":"levelo_inurba_marseille","lat":43.28697,"lon":5.37388,"is_reserved":false,"is_disabled":false,"rental_uris":{"android":"levelo://app?vid=fa728258-68a4-4069-94dc-8b0a09461ec1","ios":"levelo://app?vid=fa728258-68a4-4069-94dc-8b0a09461ec1"},"vehicle_type_id":"4","last_reported":1728324747,"current_range_meters":39200,"station_id":"ce4bh3p2rcd13ifvqdq0","pricing_plan_id":"cebpf4jnsgd1na2vs0mg"},{"bike_id":"a124bcaf-bb85-4e0c-9baa-bfe4b66788ed","system_id":"levelo_inurba_marseille","lat":43.2815,"lon":5.4265,"is_reserved":false,"is_disabled":false,"rental_uris":{"android":"levelo://app?vid=a124bcaf-bb85-4e0c-9baa-bfe4b66788ed","ios":"levelo://app?vid=a124bcaf-bb85-4e0c-9baa-bfe4b66788ed"},"vehicle_type_id":"4","last_reported":1728324747,"current_range_meters":36400,"station_id":"ce4bhnh2rcd13ifvqgug","pricing_plan_id":"cebpf4jnsgd1na2vs0mg"},{"bike_id":"52270bd0-914a-49ba-87fe-32887e78a76b","system_id":"levelo_inurba_marseille","lat":43.292,"lon":5.35801,"is_reserved":false,"is_disabled":false,"rental_uris":{"android":"levelo://app?vid=52270bd0-914a-49ba-87fe-32887e78a76b","ios":"levelo://app?vid=52270bd0-914a-49ba-87fe-32887e78a76b"},"vehicle_type_id":"4","last_reported":1728324747,"current_range_meters":2800,"station_id":"ce4bhb12rcd13ifvqel0","pricing_plan_id":"cebpf4jnsgd1na2vs0mg"},{"bike_id":"ac7e41b8-5f24-423c-8178-edaa3ee058e3","system_id":"levelo_inurba_marseille","lat":43.266787,"lon":5.382654,"is_reserved":false,"is_disabled":false,"rental_uris":{"android":"levelo://app?vid=ac7e41b8-5f24-423c-8178-edaa3ee058e3","ios":"levelo://app?vid=ac7e41b8-5f24-423c-8178-edaa3ee058e3"},"vehicle_type_id":"4","last_reported":1728324747,"current_range_meters":33200,"station_id":"ce4bhg92rcd13ifvqf90","pricing_plan_id":"cebpf4jnsgd1na2vs0mg"},{"bike_id":"aea101a8-668c-4872-8684-3251aa1622be","system_id":"levelo_inurba_marseille","lat":43.28869,"lon":5.35835,"is_reserved":false,"is_disabled":false,"rental_uris":{"android":"levelo://app?vid=aea101a8-668c-4872-8684-3251aa1622be","ios":"levelo://app?vid=aea101a8-668c-4872-8684-3251aa1622be"},"vehicle_type_id":"4","last_reported":1728324747,"current_range_meters":3200,"station_id":"ce4bhb12rcd13ifvqem0","pricing_plan_id":"cebpf4jnsgd1na2vs0mg"},{"bike_id":"58befbe4-437b-4ecd-8427-5b601e3b2bbf","system_id":"levelo_inurba_marseille","lat":43.28159,"lon":5.42647,"is_reserved":false,"is_disabled":false,"rental_uris":{"android":"levelo://app?vid=58befbe4-437b-4ecd-8427-5b601e3b2bbf","ios":"levelo://app?vid=58befbe4-437b-4ecd-8427-5b601e3b2bbf"},"vehicle_type_id":"4","last_reported":1728324747,"current_range_meters":25600,"station_id":"ce4bhnh2rcd13ifvqgug","pricing_plan_id":"cebpf4jnsgd1na2vs0mg"},{"bike_id":"7c7beb20-e192-4404-ad6c-3f6d86bd1293","system_id":"levelo_inurba_marseille","lat":43.31218,"lon":5.36859,"is_reserved":false,"is_disabled":false,"rental_uris":{"android":"levelo://app?vid=7c7beb20-e192-4404-ad6c-3f6d86bd1293","ios":"levelo://app?vid=7c7beb20-e192-4404-ad6c-3f6d86bd1293"},"vehicle_type_id":"4","last_reported":1728324747,"current_range_meters":3200,"station_id":"ce4bgl92rcd13ifvqbq0","pricing_plan_id":"cebpf4jnsgd1na2vs0mg"},{"bike_id":"fb23bc70-546f-4474-a139-7a0f725dcecc","system_id":"levelo_inurba_marseille","lat":43.3116,"lon":5.38732,"is_reserved":false,"is_disabled":false,"rental_uris":{"android":"levelo://app?vid=fb23bc70-546f-4474-a139-7a0f725dcecc","ios":"levelo://app?vid=fb23bc70-546f-4474-a139-7a0f725dcecc"},"vehicle_type_id":"4","last_reported":1728324747,"current_range_meters":37600,"station_id":"ce4bgv12rcd13ifvqcp0","pricing_plan_id":"cebpf4jnsgd1na2vs0mg"},{"bike_id":"9eb43029-ac30-4b70-9ecc-5507ba316699","system_id":"levelo_inurba_marseille","lat":43.29974,"lon":5.38495,"is_reserved":false,"is_disabled":false,"rental_uris":{"android":"levelo://app?vid=9eb43029-ac30-4b70-9ecc-5507ba316699","ios":"levelo://app?vid=9eb43029-ac30-4b70-9ecc-5507ba316699"},"vehicle_type_id":"4","last_reported":1728324747,"current_range_meters":39200,"station_id":"ce4bgj92rcd13ifvqbd0","pricing_plan_id":"cebpf4jnsgd1na2vs0mg"},{"bike_id":"af101257-97d8-427d-926c-bfd575a5c827","system_id":"levelo_inurba_marseille","lat":43.23067,"lon":5.35486,"is_reserved":false,"is_disabled":false,"rental_uris":{"android":"levelo://app?vid=af101257-97d8-427d-926c-bfd575a5c827","ios":"levelo://app?vid=af101257-97d8-427d-926c-bfd575a5c827"},"vehicle_type_id":"4","last_reported":1728324747,"current_range_meters":8800,"station_id":"cpo3342slgdg3j2ifvpg","pricing_plan_id":"cebpf4jnsgd1na2vs0mg"},{"bike_id":"79d4ce44-dde0-4856-adfb-9d048612b764","system_id":"levelo_inurba_marseille","lat":43.24167,"lon":5.36406,"is_reserved":false,"is_disabled":false,"rental_uris":{"android":"levelo://app?vid=79d4ce44-dde0-4856-adfb-9d048612b764","ios":"levelo://app?vid=79d4ce44-dde0-4856-adfb-9d048612b764"},"vehicle_type_id":"4","last_reported":1728324747,"current_range_meters":27600,"station_id":"cpo36qri1sfpv3e86is0","pricing_plan_id":"cebpf4jnsgd1na2vs0mg"},{"bike_id":"6362dd7e-711b-4b82-af8e-291ea8f6ea1e","system_id":"levelo_inurba_marseille","lat":43.23068,"lon":5.35493,"is_reserved":false,"is_disabled":false,"rental_uris":{"android":"levelo://app?vid=6362dd7e-711b-4b82-af8e-291ea8f6ea1e","ios":"levelo://app?vid=6362dd7e-711b-4b82-af8e-291ea8f6ea1e"},"vehicle_type_id":"4","last_reported":1728324747,"current_range_meters":25200,"station_id":"cpo3342slgdg3j2ifvpg","pricing_plan_id":"cebpf4jnsgd1na2vs0mg"},{"bike_id":"5113d289-e20c-492f-844f-6188ff718d88","system_id":"levelo_inurba_marseille","lat":43.22937,"lon":5.35385,"is_reserved":false,"is_disabled":false,"rental_uris":{"android":"levelo://app?vid=5113d289-e20c-492f-844f-6188ff718d88","ios":"levelo://app?vid=5113d289-e20c-492f-844f-6188ff718d88"},"vehicle_type_id":"4","last_reported":1728324747,"current_range_meters":32000,"station_id":"cpo3532slgdg3j2ikp40","pricing_plan_id":"cebpf4jnsgd1na2vs0mg"},{"bike_id":"92164e5a-f7e9-44f7-b82c-181ec1878f5b","system_id":"levelo_inurba_marseille","lat":43.28927,"lon":5.36638,"is_reserved":false,"is_disabled":false,"rental_uris":{"android":"levelo://app?vid=92164e5a-f7e9-44f7-b82c-181ec1878f5b","ios":"levelo://app?vid=92164e5a-f7e9-44f7-b82c-181ec1878f5b"},"vehicle_type_id":"4","last_reported":1728324747,"current_range_meters":6800,"station_id":"ce4bhap2rcd13ifvqek0","pricing_plan_id":"cebpf4jnsgd1na2vs0mg"},{"bike_id":"7384d5b8-3cc6-48b7-b9f3-61bae51efb51","system_id":"levelo_inurba_marseille","lat":43.2396,"lon":5.36632,"is_reserved":false,"is_disabled":false,"rental_uris":{"android":"levelo://app?vid=7384d5b8-3cc6-48b7-b9f3-61bae51efb51","ios":"levelo://app?vid=7384d5b8-3cc6-48b7-b9f3-61bae51efb51"},"vehicle_type_id":"4","last_reported":1728324747,"current_range_meters":8000,"station_id":"ce4bhi12rcd13ifvqfp0","pricing_plan_id":"cebpf4jnsgd1na2vs0mg"},{"bike_id":"c35fd4e7-3879-45a8-bc86-a3496f8feaf4","system_id":"levelo_inurba_marseille","lat":43.28455,"lon":5.359,"is_reserved":false,"is_disabled":false,"rental_uris":{"android":"levelo://app?vid=c35fd4e7-3879-45a8-bc86-a3496f8feaf4","ios":"levelo://app?vid=c35fd4e7-3879-45a8-bc86-a3496f8feaf4"},"vehicle_type_id":"4","last_reported":1728324747,"current_range_meters":4000,"station_id":"ce4bhah2rcd13ifvqei0","pricing_plan_id":"cebpf4jnsgd1na2vs0mg"},{"bike_id":"942b5deb-74ed-446b-8545-6665b5664951","system_id":"levelo_inurba_marseille","lat":43.30154,"lon":5.38083,"is_reserved":false,"is_disabled":false,"rental_uris":{"android":"levelo://app?vid=942b5deb-74ed-446b-8545-6665b5664951","ios":"levelo://app?vid=942b5deb-74ed-446b-8545-6665b5664951"},"vehicle_type_id":"4","last_reported":1728324747,"current_range_meters":16400,"station_id":"ce4bgjp2rcd13ifvqbh0","pricing_plan_id":"cebpf4jnsgd1na2vs0mg"},{"bike_id":"d2572ab8-f028-4d07-a831-c9cc2a806652","system_id":"levelo_inurba_marseille","lat":43.29977,"lon":5.38526,"is_reserved":false,"is_disabled":false,"rental_uris":{"android":"levelo://app?vid=d2572ab8-f028-4d07-a831-c9cc2a806652","ios":"levelo://app?vid=d2572ab8-f028-4d07-a831-c9cc2a806652"},"vehicle_type_id":"4","last_reported":1728324747,"current_range_meters":37600,"station_id":"ce4bgj92rcd13ifvqbd0","pricing_plan_id":"cebpf4jnsgd1na2vs0mg"},{"bike_id":"fbab334e-6568-46ac-88f7-b856d9d2d598","system_id":"levelo_inurba_marseille","lat":43.23196,"lon":5.35557,"is_reserved":false,"is_disabled":false,"rental_uris":{"android":"levelo://app?vid=fbab334e-6568-46ac-88f7-b856d9d2d598","ios":"levelo://app?vid=fbab334e-6568-46ac-88f7-b856d9d2d598"},"vehicle_type_id":"4","last_reported":1728324747,"current_range_meters":39200,"station_id":"ce4bhu92rcd13ifvqi70","pricing_plan_id":"cebpf4jnsgd1na2vs0mg"},{"bike_id":"ca06f500-fdb8-4316-9347-00462f47e52b","system_id":"levelo_inurba_marseille","lat":43.25491,"lon":5.37652,"is_reserved":false,"is_disabled":false,"rental_uris":{"android":"levelo://app?vid=ca06f500-fdb8-4316-9347-00462f47e52b","ios":"levelo://app?vid=ca06f500-fdb8-4316-9347-00462f47e52b"},"vehicle_type_id":"4","last_reported":1728324747,"current_range_meters":10000,"station_id":"ce4bhh12rcd13ifvqff0","pricing_plan_id":"cebpf4jnsgd1na2vs0mg"},{"bike_id":"0b4e6456-6f32-4cf0-9c21-f288d6cdc94f","system_id":"levelo_inurba_marseille","lat":43.29412,"lon":5.38629,"is_reserved":false,"is_disabled":false,"rental_uris":{"android":"levelo://app?vid=0b4e6456-6f32-4cf0-9c21-f288d6cdc94f","ios":"levelo://app?vid=0b4e6456-6f32-4cf0-9c21-f288d6cdc94f"},"vehicle_type_id":"4","last_reported":1728324747,"current_range_meters":15200,"station_id":"ce4bh2h2rcd13ifvqdh0","pricing_plan_id":"cebpf4jnsgd1na2vs0mg"},{"bike_id":"419425aa-b845-4a9a-9ae5-875b04eb54a8","system_id":"levelo_inurba_marseille","lat":43.29274,"lon":5.37564,"is_reserved":false,"is_disabled":false,"rental_uris":{"android":"levelo://app?vid=419425aa-b845-4a9a-9ae5-875b04eb54a8","ios":"levelo://app?vid=419425aa-b845-4a9a-9ae5-875b04eb54a8"},"vehicle_type_id":"4","last_reported":1728324747,"current_range_meters":34800,"station_id":"ce4bgi12rcd13ifvqb70","pricing_plan_id":"cebpf4jnsgd1na2vs0mg"},{"bike_id":"bd79a4ca-6083-4264-bd32-356e123cf494","system_id":"levelo_inurba_marseille","lat":43.29789,"lon":5.38137,"is_reserved":false,"is_disabled":false,"rental_uris":{"android":"levelo://app?vid=bd79a4ca-6083-4264-bd32-356e123cf494","ios":"levelo://app?vid=bd79a4ca-6083-4264-bd32-356e123cf494"},"vehicle_type_id":"4","last_reported":1728324747,"current_range_meters":7200,"station_id":"ce4bgip2rcd13ifvqbb0","pricing_plan_id":"cebpf4jnsgd1na2vs0mg"},{"bike_id":"096c3c52-ea66-4fc7-aedf-0f68535ced1d","system_id":"levelo_inurba_marseille","lat":43.23884,"lon":5.39532,"is_reserved":false,"is_disabled":false,"rental_uris":{"android":"levelo://app?vid=096c3c52-ea66-4fc7-aedf-0f68535ced1d","ios":"levelo://app?vid=096c3c52-ea66-4fc7-aedf-0f68535ced1d"},"vehicle_type_id":"4","last_reported":1728324747,"current_range_meters":4800,"station_id":"","pricing_plan_id":"cebpf4jnsgd1na2vs0mg"},{"bike_id":"ac63b881-53ef-4e4b-b5e6-9f4914bcf168","system_id":"levelo_inurba_marseille","lat":43.23054,"lon":5.35491,"is_reserved":false,"is_disabled":false,"rental_uris":{"android":"levelo://app?vid=ac63b881-53ef-4e4b-b5e6-9f4914bcf168","ios":"levelo://app?vid=ac63b881-53ef-4e4b-b5e6-9f4914bcf168"},"vehicle_type_id":"4","last_reported":1728324747,"current_range_meters":35600,"station_id":"cpo3342slgdg3j2ifvpg","pricing_plan_id":"cebpf4jnsgd1na2vs0mg"},{"bike_id":"027a5bc1-134e-494f-adf4-26c74aee2b29","system_id":"levelo_inurba_marseille","lat":43.24644,"lon":5.38903,"is_reserved":false,"is_disabled":false,"rental_uris":{"android":"levelo://app?vid=027a5bc1-134e-494f-adf4-26c74aee2b29","ios":"levelo://app?vid=027a5bc1-134e-494f-adf4-26c74aee2b29"},"vehicle_type_id":"4","last_reported":1728324747,"current_range_meters":14400,"station_id":"ce4bhg12rcd13ifvqf60","pricing_plan_id":"cebpf4jnsgd1na2vs0mg"},{"bike_id":"b278af6b-c143-4c09-9cfc-50a0f7fe0bac","system_id":"levelo_inurba_marseille","lat":43.31691,"lon":5.37736,"is_reserved":false,"is_disabled":false,"rental_uris":{"android":"levelo://app?vid=b278af6b-c143-4c09-9cfc-50a0f7fe0bac","ios":"levelo://app?vid=b278af6b-c143-4c09-9cfc-50a0f7fe0bac"},"vehicle_type_id":"4","last_reported":1728324747,"current_range_meters":12400,"station_id":"ce4bgth2rcd13ifvqch0","pricing_plan_id":"cebpf4jnsgd1na2vs0mg"},{"bike_id":"6d36d642-e52c-4415-83e0-82240028275a","system_id":"levelo_inurba_marseille","lat":43.28664,"lon":5.38661,"is_reserved":false,"is_disabled":false,"rental_uris":{"android":"levelo://app?vid=6d36d642-e52c-4415-83e0-82240028275a","ios":"levelo://app?vid=6d36d642-e52c-4415-83e0-82240028275a"},"vehicle_type_id":"4","last_reported":1728324747,"current_range_meters":18000,"station_id":"ce4bh492rcd13ifvqdug","pricing_plan_id":"cebpf4jnsgd1na2vs0mg"},{"bike_id":"db724972-e4fe-47e7-9b47-41e277e43d39","system_id":"levelo_inurba_marseille","lat":43.27997,"lon":5.40015,"is_reserved":false,"is_disabled":false,"rental_uris":{"android":"levelo://app?vid=db724972-e4fe-47e7-9b47-41e277e43d39","ios":"levelo://app?vid=db724972-e4fe-47e7-9b47-41e277e43d39"},"vehicle_type_id":"4","last_reported":1728324747,"current_range_meters":18000,"station_id":"ce4bho92rcd13ifvqh4g","pricing_plan_id":"cebpf4jnsgd1na2vs0mg"},{"bike_id":"71c94fb6-80ff-4ef8-a95b-b06b1532beb2","system_id":"levelo_inurba_marseille","lat":43.28569,"lon":5.39511,"is_reserved":false,"is_disabled":false,"rental_uris":{"android":"levelo://app?vid=71c94fb6-80ff-4ef8-a95b-b06b1532beb2","ios":"levelo://app?vid=71c94fb6-80ff-4ef8-a95b-b06b1532beb2"},"vehicle_type_id":"4","last_reported":1728324747,"current_range_meters":20400,"station_id":"ce4bh292rcd13ifvqdg0","pricing_plan_id":"cebpf4jnsgd1na2vs0mg"},{"bike_id":"d3f9ab99-1a87-4465-b6cf-21acfaea9fd3","system_id":"levelo_inurba_marseille","lat":43.31076,"lon":5.38351,"is_reserved":false,"is_disabled":false,"rental_uris":{"android":"levelo://app?vid=d3f9ab99-1a87-4465-b6cf-21acfaea9fd3","ios":"levelo://app?vid=d3f9ab99-1a87-4465-b6cf-21acfaea9fd3"},"vehicle_type_id":"4","last_reported":1728324747,"current_range_meters":24800,"station_id":"ce4bgv92rcd13ifvqcr0","pricing_plan_id":"cebpf4jnsgd1na2vs0mg"},{"bike_id":"6da24582-98b8-42d0-b5fc-205637709cbb","system_id":"levelo_inurba_marseille","lat":43.23963,"lon":5.36637,"is_reserved":false,"is_disabled":false,"rental_uris":{"android":"levelo://app?vid=6da24582-98b8-42d0-b5fc-205637709cbb","ios":"levelo://app?vid=6da24582-98b8-42d0-b5fc-205637709cbb"},"vehicle_type_id":"4","last_reported":1728324747,"current_range_meters":10800,"station_id":"ce4bhi12rcd13ifvqfp0","pricing_plan_id":"cebpf4jnsgd1na2vs0mg"},{"bike_id":"9e3fe2e1-eca8-4201-b615-2eaf2b4dc3f2","system_id":"levelo_inurba_marseille","lat":43.23197,"lon":5.35555,"is_reserved":false,"is_disabled":false,"rental_uris":{"android":"levelo://app?vid=9e3fe2e1-eca8-4201-b615-2eaf2b4dc3f2","ios":"levelo://app?vid=9e3fe2e1-eca8-4201-b615-2eaf2b4dc3f2"},"vehicle_type_id":"4","last_reported":1728324747,"current_range_meters":4800,"station_id":"ce4bhu92rcd13ifvqi70","pricing_plan_id":"cebpf4jnsgd1na2vs0mg"},{"bike_id":"5c56a3bd-eee6-46f6-9565-18e2d60b4a2a","system_id":"levelo_inurba_marseille","lat":43.24168,"lon":5.36397,"is_reserved":false,"is_disabled":false,"rental_uris":{"android":"levelo://app?vid=5c56a3bd-eee6-46f6-9565-18e2d60b4a2a","ios":"levelo://app?vid=5c56a3bd-eee6-46f6-9565-18e2d60b4a2a"},"vehicle_type_id":"4","last_reported":1728324747,"current_range_meters":29600,"station_id":"cpo36qri1sfpv3e86is0","pricing_plan_id":"cebpf4jnsgd1na2vs0mg"},{"bike_id":"31a36db1-6705-4df0-ae04-e3301e20c6c2","system_id":"levelo_inurba_marseille","lat":43.24647,"lon":5.38899,"is_reserved":false,"is_disabled":false,"rental_uris":{"android":"levelo://app?vid=31a36db1-6705-4df0-ae04-e3301e20c6c2","ios":"levelo://app?vid=31a36db1-6705-4df0-ae04-e3301e20c6c2"},"vehicle_type_id":"4","last_reported":1728324747,"current_range_meters":38400,"station_id":"ce4bhg12rcd13ifvqf60","pricing_plan_id":"cebpf4jnsgd1na2vs0mg"},{"bike_id":"379f32c6-e9d3-4078-90ab-3f222b299a87","system_id":"levelo_inurba_marseille","lat":43.28691,"lon":5.38667,"is_reserved":false,"is_disabled":false,"rental_uris":{"android":"levelo://app?vid=379f32c6-e9d3-4078-90ab-3f222b299a87","ios":"levelo://app?vid=379f32c6-e9d3-4078-90ab-3f222b299a87"},"vehicle_type_id":"4","last_reported":1728324747,"current_range_meters":8000,"station_id":"ce4bh492rcd13ifvqdug","pricing_plan_id":"cebpf4jnsgd1na2vs0mg"},{"bike_id":"0e4cc4c5-1304-4b86-b813-61b2b5b15d82","system_id":"levelo_inurba_marseille","lat":43.32288,"lon":5.38278,"is_reserved":false,"is_disabled":false,"rental_uris":{"android":"levelo://app?vid=0e4cc4c5-1304-4b86-b813-61b2b5b15d82","ios":"levelo://app?vid=0e4cc4c5-1304-4b86-b813-61b2b5b15d82"},"vehicle_type_id":"4","last_reported":1728324747,"current_range_meters":28800,"station_id":"ce4bhr12rcd13ifvqhqg","pricing_plan_id":"cebpf4jnsgd1na2vs0mg"},{"bike_id":"7f634d04-78c3-4042-aba0-bd4c3d03e3a9","system_id":"levelo_inurba_marseille","lat":43.29259,"lon":5.40903,"is_reserved":false,"is_disabled":false,"rental_uris":{"android":"levelo://app?vid=7f634d04-78c3-4042-aba0-bd4c3d03e3a9","ios":"levelo://app?vid=7f634d04-78c3-4042-aba0-bd4c3d03e3a9"},"vehicle_type_id":"4","last_reported":1728324747,"current_range_meters":36400,"station_id":"ce4bh192rcd13ifvqdc0","pricing_plan_id":"cebpf4jnsgd1na2vs0mg"},{"bike_id":"50bd1f23-d250-4178-83d0-84b11c40b918","system_id":"levelo_inurba_marseille","lat":43.31328,"lon":5.39694,"is_reserved":false,"is_disabled":false,"rental_uris":{"android":"levelo://app?vid=50bd1f23-d250-4178-83d0-84b11c40b918","ios":"levelo://app?vid=50bd1f23-d250-4178-83d0-84b11c40b918"},"vehicle_type_id":"4","last_reported":1728324747,"current_range_meters":16000,"station_id":"ce4bgvp2rcd13ifvqcu0","pricing_plan_id":"cebpf4jnsgd1na2vs0mg"},{"bike_id":"8b10cb9f-15d9-4eb9-a18e-896430cdcbda","system_id":"levelo_inurba_marseille","lat":43.320226,"lon":5.408103,"is_reserved":false,"is_disabled":false,"rental_uris":{"android":"levelo://app?vid=8b10cb9f-15d9-4eb9-a18e-896430cdcbda","ios":"levelo://app?vid=8b10cb9f-15d9-4eb9-a18e-896430cdcbda"},"vehicle_type_id":"4","last_reported":1728324747,"current_range_meters":32400,"station_id":"ce4bhq92rcd13ifvqhjg","pricing_plan_id":"cebpf4jnsgd1na2vs0mg"},{"bike_id":"041529c2-1803-4676-841c-5fddfc5c7980","system_id":"levelo_inurba_marseille","lat":43.31712,"lon":5.43708,"is_reserved":false,"is_disabled":false,"rental_uris":{"android":"levelo://app?vid=041529c2-1803-4676-841c-5fddfc5c7980","ios":"levelo://app?vid=041529c2-1803-4676-841c-5fddfc5c7980"},"vehicle_type_id":"4","last_reported":1728324747,"current_range_meters":18800,"station_id":"ce4bhp92rcd13ifvqhcg","pricing_plan_id":"cebpf4jnsgd1na2vs0mg"},{"bike_id":"cf18bd6b-8bbf-4968-a33f-564a5f7275f1","system_id":"levelo_inurba_marseille","lat":43.26495,"lon":5.39548,"is_reserved":false,"is_disabled":false,"rental_uris":{"android":"levelo://app?vid=cf18bd6b-8bbf-4968-a33f-564a5f7275f1","ios":"levelo://app?vid=cf18bd6b-8bbf-4968-a33f-564a5f7275f1"},"vehicle_type_id":"4","last_reported":1728324747,"current_range_meters":14800,"station_id":"ce4bhi12rcd13ifvqfq0","pricing_plan_id":"cebpf4jnsgd1na2vs0mg"},{"bike_id":"93b707e9-ad08-4c1a-920c-416ca8156691","system_id":"levelo_inurba_marseille","lat":43.30319,"lon":5.40446,"is_reserved":false,"is_disabled":false,"rental_uris":{"android":"levelo://app?vid=93b707e9-ad08-4c1a-920c-416ca8156691","ios":"levelo://app?vid=93b707e9-ad08-4c1a-920c-416ca8156691"},"vehicle_type_id":"4","last_reported":1728324747,"current_range_meters":36400,"station_id":"ce4bh012rcd13ifvqd10","pricing_plan_id":"cebpf4jnsgd1na2vs0mg"},{"bike_id":"cf6af4cc-3faf-4082-8bd6-1c3bed2e4bd0","system_id":"levelo_inurba_marseille","lat":43.27967,"lon":5.38708,"is_reserved":false,"is_disabled":false,"rental_uris":{"android":"levelo://app?vid=cf6af4cc-3faf-4082-8bd6-1c3bed2e4bd0","ios":"levelo://app?vid=cf6af4cc-3faf-4082-8bd6-1c3bed2e4bd0"},"vehicle_type_id":"4","last_reported":1728324747,"current_range_meters":2800,"station_id":"ce4bhg12rcd13ifvqf80","pricing_plan_id":"cebpf4jnsgd1na2vs0mg"},{"bike_id":"453acb5d-c897-4a67-ab6c-4198714aebc1","system_id":"levelo_inurba_marseille","lat":43.23066,"lon":5.35488,"is_reserved":false,"is_disabled":false,"rental_uris":{"android":"levelo://app?vid=453acb5d-c897-4a67-ab6c-4198714aebc1","ios":"levelo://app?vid=453acb5d-c897-4a67-ab6c-4198714aebc1"},"vehicle_type_id":"4","last_reported":1728324747,"current_range_meters":6400,"station_id":"cpo3342slgdg3j2ifvpg","pricing_plan_id":"cebpf4jnsgd1na2vs0mg"},{"bike_id":"200194d0-7674-448b-a83e-817a0af6df2d","system_id":"levelo_inurba_marseille","lat":43.30607,"lon":5.37232,"is_reserved":false,"is_disabled":false,"rental_uris":{"android":"levelo://app?vid=200194d0-7674-448b-a83e-817a0af6df2d","ios":"levelo://app?vid=200194d0-7674-448b-a83e-817a0af6df2d"},"vehicle_type_id":"4","last_reported":1728324747,"current_range_meters":39200,"station_id":"ce4bgqh2rcd13ifvqc4g","pricing_plan_id":"cebpf4jnsgd1na2vs0mg"},{"bike_id":"9442b23e-de23-4c02-b060-6afa7424b335","system_id":"levelo_inurba_marseille","lat":43.24653,"lon":5.38897,"is_reserved":false,"is_disabled":false,"rental_uris":{"android":"levelo://app?vid=9442b23e-de23-4c02-b060-6afa7424b335","ios":"levelo://app?vid=9442b23e-de23-4c02-b060-6afa7424b335"},"vehicle_type_id":"4","last_reported":1728324747,"current_range_meters":19600,"station_id":"ce4bhg12rcd13ifvqf60","pricing_plan_id":"cebpf4jnsgd1na2vs0mg"},{"bike_id":"85404f33-cdca-443d-98d4-fd37edb90e19","system_id":"levelo_inurba_marseille","lat":43.30185,"lon":5.38915,"is_reserved":false,"is_disabled":false,"rental_uris":{"android":"levelo://app?vid=85404f33-cdca-443d-98d4-fd37edb90e19","ios":"levelo://app?vid=85404f33-cdca-443d-98d4-fd37edb90e19"},"vehicle_type_id":"4","last_reported":1728324747,"current_range_meters":10000,"station_id":"","pricing_plan_id":"cebpf4jnsgd1na2vs0mg"},{"bike_id":"f997df17-27e4-4d1f-8d9c-0538b7575e96","system_id":"levelo_inurba_marseille","lat":43.28464,"lon":5.35897,"is_reserved":false,"is_disabled":false,"rental_uris":{"android":"levelo://app?vid=f997df17-27e4-4d1f-8d9c-0538b7575e96","ios":"levelo://app?vid=f997df17-27e4-4d1f-8d9c-0538b7575e96"},"vehicle_type_id":"4","last_reported":1728324747,"current_range_meters":38800,"station_id":"ce4bhah2rcd13ifvqei0","pricing_plan_id":"cebpf4jnsgd1na2vs0mg"},{"bike_id":"5d98e0b3-1c48-4bce-8ffe-0e2c2ea088a0","system_id":"levelo_inurba_marseille","lat":43.23056,"lon":5.35491,"is_reserved":false,"is_disabled":false,"rental_uris":{"android":"levelo://app?vid=5d98e0b3-1c48-4bce-8ffe-0e2c2ea088a0","ios":"levelo://app?vid=5d98e0b3-1c48-4bce-8ffe-0e2c2ea088a0"},"vehicle_type_id":"4","last_reported":1728324747,"current_range_meters":36000,"station_id":"cpo3342slgdg3j2ifvpg","pricing_plan_id":"cebpf4jnsgd1na2vs0mg"},{"bike_id":"8328faa6-7f3a-4032-a497-712446ea616e","system_id":"levelo_inurba_marseille","lat":43.33021,"lon":5.39044,"is_reserved":false,"is_disabled":false,"rental_uris":{"android":"levelo://app?vid=8328faa6-7f3a-4032-a497-712446ea616e","ios":"levelo://app?vid=8328faa6-7f3a-4032-a497-712446ea616e"},"vehicle_type_id":"4","last_reported":1728324747,"current_range_meters":17200,"station_id":"ce4bhr92rcd13ifvqhrg","pricing_plan_id":"cebpf4jnsgd1na2vs0mg"},{"bike_id":"06f1142f-7625-4505-81ca-c52eef447e5b","system_id":"levelo_inurba_marseille","lat":43.29529,"lon":5.38538,"is_reserved":false,"is_disabled":false,"rental_uris":{"android":"levelo://app?vid=06f1142f-7625-4505-81ca-c52eef447e5b","ios":"levelo://app?vid=06f1142f-7625-4505-81ca-c52eef447e5b"},"vehicle_type_id":"4","last_reported":1728324747,"current_range_meters":24000,"station_id":"ce4bgih2rcd13ifvqba0","pricing_plan_id":"cebpf4jnsgd1na2vs0mg"},{"bike_id":"e270a9ca-84e8-4848-a582-e495af1f14e2","system_id":"levelo_inurba_marseille","lat":43.30643,"lon":5.38011,"is_reserved":false,"is_disabled":false,"rental_uris":{"android":"levelo://app?vid=e270a9ca-84e8-4848-a582-e495af1f14e2","ios":"levelo://app?vid=e270a9ca-84e8-4848-a582-e495af1f14e2"},"vehicle_type_id":"4","last_reported":1728324747,"current_range_meters":12000,"station_id":"","pricing_plan_id":"cebpf4jnsgd1na2vs0mg"},{"bike_id":"2ee52c4f-aa7e-4a76-8e85-c2992ee19115","system_id":"levelo_inurba_marseille","lat":43.28931,"lon":5.38396,"is_reserved":false,"is_disabled":false,"rental_uris":{"android":"levelo://app?vid=2ee52c4f-aa7e-4a76-8e85-c2992ee19115","ios":"levelo://app?vid=2ee52c4f-aa7e-4a76-8e85-c2992ee19115"},"vehicle_type_id":"4","last_reported":1728324747,"current_range_meters":4000,"station_id":"ce4bh612rcd13ifvqe6g","pricing_plan_id":"cebpf4jnsgd1na2vs0mg"},{"bike_id":"de2279bc-d437-4704-97bd-b8daca96c769","system_id":"levelo_inurba_marseille","lat":43.27894,"lon":5.3801,"is_reserved":false,"is_disabled":false,"rental_uris":{"android":"levelo://app?vid=de2279bc-d437-4704-97bd-b8daca96c769","ios":"levelo://app?vid=de2279bc-d437-4704-97bd-b8daca96c769"},"vehicle_type_id":"4","last_reported":1728324747,"current_range_meters":39200,"station_id":"ce4bhf92rcd13ifvqf50","pricing_plan_id":"cebpf4jnsgd1na2vs0mg"},{"bike_id":"833def37-62e5-4b24-bc21-d0894ccad550","system_id":"levelo_inurba_marseille","lat":43.25088,"lon":5.39534,"is_reserved":false,"is_disabled":false,"rental_uris":{"android":"levelo://app?vid=833def37-62e5-4b24-bc21-d0894ccad550","ios":"levelo://app?vid=833def37-62e5-4b24-bc21-d0894ccad550"},"vehicle_type_id":"4","last_reported":1728324747,"current_range_meters":6000,"station_id":"ce4bhm12rcd13ifvqgkg","pricing_plan_id":"cebpf4jnsgd1na2vs0mg"},{"bike_id":"93eb450b-61da-457a-b8f2-c5aca727cacb","system_id":"levelo_inurba_marseille","lat":43.24447,"lon":5.4022,"is_reserved":false,"is_disabled":false,"rental_uris":{"android":"levelo://app?vid=93eb450b-61da-457a-b8f2-c5aca727cacb","ios":"levelo://app?vid=93eb450b-61da-457a-b8f2-c5aca727cacb"},"vehicle_type_id":"4","last_reported":1728324747,"current_range_meters":22000,"station_id":"","pricing_plan_id":"cebpf4jnsgd1na2vs0mg"},{"bike_id":"1086d1ea-94fb-4e2d-8e0d-980135dda10c","system_id":"levelo_inurba_marseille","lat":43.29527,"lon":5.37515,"is_reserved":false,"is_disabled":false,"rental_uris":{"android":"levelo://app?vid=1086d1ea-94fb-4e2d-8e0d-980135dda10c","ios":"levelo://app?vid=1086d1ea-94fb-4e2d-8e0d-980135dda10c"},"vehicle_type_id":"4","last_reported":1728324747,"current_range_meters":21600,"station_id":"ce4bgkp2rcd13ifvqbmg","pricing_plan_id":"cebpf4jnsgd1na2vs0mg"},{"bike_id":"2eb1180c-3c37-45a8-8c05-d2fd624d984f","system_id":"levelo_inurba_marseille","lat":43.23061,"lon":5.35499,"is_reserved":false,"is_disabled":false,"rental_uris":{"android":"levelo://app?vid=2eb1180c-3c37-45a8-8c05-d2fd624d984f","ios":"levelo://app?vid=2eb1180c-3c37-45a8-8c05-d2fd624d984f"},"vehicle_type_id":"4","last_reported":1728324747,"current_range_meters":24800,"station_id":"cpo3342slgdg3j2ifvpg","pricing_plan_id":"cebpf4jnsgd1na2vs0mg"},{"bike_id":"5850c62a-6540-4308-83bc-bb717d77a7c7","system_id":"levelo_inurba_marseille","lat":43.32001,"lon":5.3816,"is_reserved":false,"is_disabled":false,"rental_uris":{"android":"levelo://app?vid=5850c62a-6540-4308-83bc-bb717d77a7c7","ios":"levelo://app?vid=5850c62a-6540-4308-83bc-bb717d77a7c7"},"vehicle_type_id":"4","last_reported":1728324747,"current_range_meters":38800,"station_id":"ce4bhr12rcd13ifvqhpg","pricing_plan_id":"cebpf4jnsgd1na2vs0mg"},{"bike_id":"d32fe902-1afb-450b-99f0-c40d9ec8e8e6","system_id":"levelo_inurba_marseille","lat":43.2846,"lon":5.35895,"is_reserved":false,"is_disabled":false,"rental_uris":{"android":"levelo://app?vid=d32fe902-1afb-450b-99f0-c40d9ec8e8e6","ios":"levelo://app?vid=d32fe902-1afb-450b-99f0-c40d9ec8e8e6"},"vehicle_type_id":"4","last_reported":1728324747,"current_range_meters":3200,"station_id":"ce4bhah2rcd13ifvqei0","pricing_plan_id":"cebpf4jnsgd1na2vs0mg"},{"bike_id":"672e73f0-050d-4964-aff5-7aa53ccacca0","system_id":"levelo_inurba_marseille","lat":43.28154,"lon":5.4265,"is_reserved":false,"is_disabled":false,"rental_uris":{"android":"levelo://app?vid=672e73f0-050d-4964-aff5-7aa53ccacca0","ios":"levelo://app?vid=672e73f0-050d-4964-aff5-7aa53ccacca0"},"vehicle_type_id":"4","last_reported":1728324747,"current_range_meters":2800,"station_id":"ce4bhnh2rcd13ifvqgug","pricing_plan_id":"cebpf4jnsgd1na2vs0mg"},{"bike_id":"5fd65ad3-c3b6-4367-a6e1-efdf9caa34ae","system_id":"levelo_inurba_marseille","lat":43.24167,"lon":5.36394,"is_reserved":false,"is_disabled":false,"rental_uris":{"android":"levelo://app?vid=5fd65ad3-c3b6-4367-a6e1-efdf9caa34ae","ios":"levelo://app?vid=5fd65ad3-c3b6-4367-a6e1-efdf9caa34ae"},"vehicle_type_id":"4","last_reported":1728324747,"current_range_meters":30800,"station_id":"cpo36qri1sfpv3e86is0","pricing_plan_id":"cebpf4jnsgd1na2vs0mg"},{"bike_id":"f0397aef-7fa9-4f91-ab6a-4b224906d30a","system_id":"levelo_inurba_marseille","lat":43.30807,"lon":5.43522,"is_reserved":false,"is_disabled":false,"rental_uris":{"android":"levelo://app?vid=f0397aef-7fa9-4f91-ab6a-4b224906d30a","ios":"levelo://app?vid=f0397aef-7fa9-4f91-ab6a-4b224906d30a"},"vehicle_type_id":"4","last_reported":1728324747,"current_range_meters":14000,"station_id":"ce4bhph2rcd13ifvqheg","pricing_plan_id":"cebpf4jnsgd1na2vs0mg"},{"bike_id":"e6eff97f-e786-42d8-a4f8-d897e04af14e","system_id":"levelo_inurba_marseille","lat":43.30305,"lon":5.36877,"is_reserved":false,"is_disabled":false,"rental_uris":{"android":"levelo://app?vid=e6eff97f-e786-42d8-a4f8-d897e04af14e","ios":"levelo://app?vid=e6eff97f-e786-42d8-a4f8-d897e04af14e"},"vehicle_type_id":"4","last_reported":1728324747,"current_range_meters":17200,"station_id":"ce4bgqh2rcd13ifvqc5g","pricing_plan_id":"cebpf4jnsgd1na2vs0mg"},