{"last_updated":1751818267,"ttl":60,"version":"2.2","data":{"bikes":[{"bike_id":"3da29fb8-fc97-44c6-b9ac-31dd456b2fd4","system_id":"levelo_inurba_marseille","lat":43.33771,"lon":5.37424,"is_reserved":false,"is_disabled":true,"rental_uris":{"android":"levelo://app?vid=3da29fb8-fc97-44c6-b9ac-31dd456b2fd4","ios":"levelo://app?vid=3da29fb8-fc97-44c6-b9ac-31dd456b2fd4"},"vehicle_type_id":"4","last_reported":1751818267,"current_range_meters":0,"station_id":"","pricing_plan_id":"cebpf4jnsgd1na2vs0mg"},{"bike_id":"01861ad8-a8d7-4be6-816e-651927c87584","system_id":"levelo_inurba_marseille","lat":43.33751,"lon":5.37456,"is_reserved":false,"is_disabled":true,"rental_uris":{"android":"levelo://app?vid=01861ad8-a8d7-4be6-816e-651927c87584","ios":"levelo://app?vid=01861ad8-a8d7-4be6-816e-651927c87584"},"vehicle_type_id":"4","last_reported":1751818267,"current_range_meters":0,"station_id":"","pricing_plan_id":"cebpf4jnsgd1na2vs0mg"},{"bike_id":"c1af52b7-f892-4de0-adb4-fb0c70d1c4e6","system_id":"levelo_inurba_marseille","lat":43.32271,"lon":5.44021,"is_reserved":false,"is_disabled":true,"rental_uris":{"android":"levelo://app?vid=c1af52b7-f892-4de0-adb4-fb0c70d1c4e6","ios":"levelo://app?vid=c1af52b7-f892-4de0-adb4-fb0c70d1c4e6"},"vehicle_type_id":"4","last_reported":1751818267,"current_range_meters":0,"station_id":"","pricing_plan_id":"cebpf4jnsgd1na2vs0mg"},{"bike_id":"1ad7dec6-0d72-44b8-8a91-8bff1291b188","system_id":"levelo_inurba_marseille","lat":43.28877,"lon":5.46043,"is_reserved":false,"is_disabled":true,"rental_uris":{"android":"levelo://app?vid=1ad7dec6-0d72-44b8-8a91-8bff1291b188","ios":"levelo://app?vid=1ad7dec6-0d72-44b8-8a91-8bff1291b188"},"vehicle_type_id":"4","last_reported":1751818267,"current_range_meters":0,"station_id":"","pricing_plan_id":"cebpf4jnsgd1na2vs0mg"},{"bike_id":"5e4fccb6-1c76-4083-a352-a6af734b928a","system_id":"levelo_inurba_marseille","lat":43.32211,"lon":5.44021,"is_reserved":false,"is_disabled":true,"rental_uris":{"android":"levelo://app?vid=5e4fccb6-1c76-4083-a352-a6af734b928a","ios":"levelo://app?vid=5e4fccb6-1c76-4083-a352-a6af734b928a"},"vehicle_type_id":"4","last_reported":1751818267,"current_range_meters":0,"station_id":"","pricing_plan_id":"cebpf4jnsgd1na2vs0mg"},{"bike_id":"f2031e47-a3ff-4ab0-b033-ea16cdff8510","system_id":"levelo_inurba_marseille","lat":43.28561,"lon":5.38432,"is_reserved":false,"is_disabled":true,"rental_uris":{"android":"levelo://app?vid=f2031e47-a3ff-4ab0-b033-ea16cdff8510","ios":"levelo://app?vid=f2031e47-a3ff-4ab0-b033-ea16cdff8510"},"vehicle_type_id":"4","last_reported":1751818267,"current_range_meters":0,"station_id":"","pricing_plan_id":"cebpf4jnsgd1na2vs0mg"},{"bike_id":"e86ba8c9-208d-482c-a826-4c100938472a","system_id":"levelo_inurba_marseille","lat":43.21248,"lon":5.35134,"is_reserved":false,"is_disabled":true,"rental_uris":{"android":"levelo://app?vid=e86ba8c9-208d-482c-a826-4c100938472a","ios":"levelo://app?vid=e86ba8c9-208d-482c-a826-4c100938472a"},"vehicle_type_id":"4","last_reported":1751818267,"current_range_meters":0,"station_id":"","pricing_plan_id":"cebpf4jnsgd1na2vs0mg"},{"bike_id":"1c57a3c7-1fe2-49b4-93b2-29842e960d9b","system_id":"levelo_inurba_marseille","lat":43.25421,"lon":5.3815,"is_reserved":false,"is_disabled":true,"rental_uris":{"android":"levelo://app?vid=1c57a3c7-1fe2-49b4-93b2-29842e960d9b","ios":"levelo://app?vid=1c57a3c7-1fe2-49b4-93b2-29842e960d9b"},"vehicle_type_id":"4","last_reported":1751818267,"current_range_meters":0,"station_id":"","pricing_plan_id":"cebpf4jnsgd1na2vs0mg"},{"bike_id":"4ce9a064-53fd-4eb5-852c-d7f976265e16","system_id":"levelo_inurba_marseille","lat":43.30604,"lon":5.3723,"is_reserved":false,"is_disabled":true,"rental_uris":{"android":"levelo://app?vid=4ce9a064-53fd-4eb5-852c-d7f976265e16","ios":"levelo://app?vid=4ce9a064-53fd-4eb5-852c-d7f976265e16"},"vehicle_type_id":"4","last_reported":1751818267,"current_range_meters":0,"station_id":"ce4bgqh2rcd13ifvqc4g","pricing_plan_id":"cebpf4jnsgd1na2vs0mg"},{"bike_id":"f44f79d8-0743-4612-b01a-703f86e89beb","system_id":"levelo_inurba_marseille","lat":43.28391,"lon":5.37508,"is_reserved":false,"is_disabled":true,"rental_uris":{"android":"levelo://app?vid=f44f79d8-0743-4612-b01a-703f86e89beb","ios":"levelo://app?vid=f44f79d8-0743-4612-b01a-703f86e89beb"},"vehicle_type_id":"4","last_reported":1751818267,"current_range_meters":0,"station_id":"ce4bh412rcd13ifvqds0","pricing_plan_id":"cebpf4jnsgd1na2vs0mg"},{"bike_id":"62f080aa-437d-4126-a7d5-97a57b197c85","system_id":"levelo_inurba_marseille","lat":43.28415,"lon":5.37502,"is_reserved":false,"is_disabled":true,"rental_uris":{"android":"levelo://app?vid=62f080aa-437d-4126-a7d5-97a57b197c85","ios":"levelo://app?vid=62f080aa-437d-4126-a7d5-97a57b197c85"},"vehicle_type_id":"4","last_reported":1751818267,"current_range_meters":0,"station_id":"ce4bh412rcd13ifvqds0","pricing_plan_id":"cebpf4jnsgd1na2vs0mg"},{"bike_id":"4ff4c22e-a296-427e-94a4-ccc833119fc9","system_id":"levelo_inurba_marseille","lat":43.265509,"lon":5.372784,"is_reserved":false,"is_disabled":true,"rental_uris":{"android":"levelo://app?vid=4ff4c22e-a296-427e-94a4-ccc833119fc9","ios":"levelo://app?vid=4ff4c22e-a296-427e-94a4-ccc833119fc9"},"vehicle_type_id":"4","last_reported":1751818267,"current_range_meters":0,"station_id":"ce4bhb12rcd13ifvqel0","pricing_plan_id":"cebpf4jnsgd1na2vs0mg"},{"bike_id":"d99b1545-2bb8-4fe0-a0f5-eb042f836d57","system_id":"levelo_inurba_marseille","lat":43.24806,"lon":5.37456,"is_reserved":false,"is_disabled":true,"rental_uris":{"android":"levelo://app?vid=d99b1545-2bb8-4fe0-a0f5-eb042f836d57","ios":"levelo://app?vid=d99b1545-2bb8-4fe0-a0f5-eb042f836d57"},"vehicle_type_id":"4","last_reported":1751818267,"current_range_meters":0,"station_id":"ce4bhgh2rcd13ifvqfb0","pricing_plan_id":"cebpf4jnsgd1na2vs0mg"},{"bike_id":"83e8e194-1562-42ba-aabe-0f8481ebc074","system_id":"levelo_inurba_marseille","lat":43.26941,"lon":5.38651,"is_reserved":false,"is_disabled":true,"rental_uris":{"android":"levelo://app?vid=83e8e194-1562-42ba-aabe-0f8481ebc074","ios":"levelo://app?vid=83e8e194-1562-42ba-aabe-0f8481ebc074"},"vehicle_type_id":"4","last_reported":1751818267,"current_range_meters":0,"station_id":"ce4bhh92rcd13ifvqfh0","pricing_plan_id":"cebpf4jnsgd1na2vs0mg"},{"bike_id":"244ad032-500e-44da-aef8-7f4cf3e7ad54","system_id":"levelo_inurba_marseille","lat":43.239654,"lon":5.366344,"is_reserved":false,"is_disabled":true,"rental_uris":{"android":"levelo://app?vid=244ad032-500e-44da-aef8-7f4cf3e7ad54","ios":"levelo://app?vid=244ad032-500e-44da-aef8-7f4cf3e7ad54"},"vehicle_type_id":"4","last_reported":1751818267,"current_range_meters":0,"station_id":"ce4bhi12rcd13ifvqfp0","pricing_plan_id":"cebpf4jnsgd1na2vs0mg"},{"bike_id":"e7bf7879-45ba-4104-befd-ce8e669190a1","system_id":"levelo_inurba_marseille","lat":43.32369,"lon":5.36739,"is_reserved":false,"is_disabled":true,"rental_uris":{"android":"levelo://app?vid=e7bf7879-45ba-4104-befd-ce8e669190a1","ios":"levelo://app?vid=e7bf7879-45ba-4104-befd-ce8e669190a1"},"vehicle_type_id":"4","last_reported":1751818267,"current_range_meters":0,"station_id":"ce4bhsh2rcd13ifvqi2g","pricing_plan_id":"cebpf4jnsgd1na2vs0mg"},{"bike_id":"0bbec460-97cb-45ca-87a4-7deb3de002cb","system_id":"levelo_inurba_marseille","lat":43.26946,"lon":5.40241,"is_reserved":false,"is_disabled":true,"rental_uris":{"android":"levelo://app?vid=0bbec460-97cb-45ca-87a4-7deb3de002cb","ios":"levelo://app?vid=0bbec460-97cb-45ca-87a4-7deb3de002cb"},"vehicle_type_id":"4","last_reported":1751818267,"current_range_meters":0,"station_id":"cjm6bp8fraef2m0cb0m0","pricing_plan_id":"cebpf4jnsgd1na2vs0mg"},{"bike_id":"f71c84c2-847c-4b5f-8e2e-e9769a874d52","system_id":"levelo_inurba_marseille","lat":43.22928,"lon":5.35385,"is_reserved":false,"is_disabled":true,"rental_uris":{"android":"levelo://app?vid=f71c84c2-847c-4b5f-8e2e-e9769a874d52","ios":"levelo://app?vid=f71c84c2-847c-4b5f-8e2e-e9769a874d52"},"vehicle_type_id":"4","last_reported":1751818267,"current_range_meters":0,"station_id":"cpo3532slgdg3j2ikp40","pricing_plan_id":"cebpf4jnsgd1na2vs0mg"},{"bike_id":"d1444e94-489f-4fa9-9e06-4bdf6ba47149","system_id":"levelo_inurba_marseille","lat":43.22504,"lon":5.3478,"is_reserved":false,"is_disabled":true,"rental_uris":{"android":"levelo://app?vid=d1444e94-489f-4fa9-9e06-4bdf6ba47149","ios":"levelo://app?vid=d1444e94-489f-4fa9-9e06-4bdf6ba47149"},"vehicle_type_id":"4","last_reported":1751818267,"current_range_meters":0,"station_id":"st_cvj5dfep6f1abm77gieg","pricing_plan_id":"cebpf4jnsgd1na2vs0mg"},{"bike_id":"34982e0d-3864-470b-a989-cf9eb1bc1f10","system_id":"levelo_inurba_marseille","lat":43.22503,"lon":5.34775,"is_reserved":false,"is_disabled":true,"rental_uris":{"android":"levelo://app?vid=34982e0d-3864-470b-a989-cf9eb1bc1f10","ios":"levelo://app?vid=34982e0d-3864-470b-a989-cf9eb1bc1f10"},"vehicle_type_id":"4","last_reported":1751818267,"current_range_meters":0,"station_id":"st_cvj5dfep6f1abm77gieg","pricing_plan_id":"cebpf4jnsgd1na2vs0mg"},{"bike_id":"8e705061-bdf0-422d-b178-e50353401331","system_id":"levelo_inurba_marseille","lat":43.21747,"lon":5.345967,"is_reserved":false,"is_disabled":true,"rental_uris":{"android":"levelo://app?vid=8e705061-bdf0-422d-b178-e50353401331","ios":"levelo://app?vid=8e705061-bdf0-422d-b178-e50353401331"},"vehicle_type_id":"4","last_reported":1751818267,"current_range_meters":0,"station_id":"st_cvj6r9ubvosntc0bgbag","pricing_plan_id":"cebpf4jnsgd1na2vs0mg"},{"bike_id":"38918459-6c50-4544-8379-a4f9d1c35552","system_id":"levelo_inurba_marseille","lat":43.21748,"lon":5.34605,"is_reserved":false,"is_disabled":true,"rental_uris":{"android":"levelo://app?vid=38918459-6c50-4544-8379-a4f9d1c35552","ios":"levelo://app?vid=38918459-6c50-4544-8379-a4f9d1c35552"},"vehicle_type_id":"4","last_reported":1751818267,"current_range_meters":0,"station_id":"st_cvj6r9ubvosntc0bgbag","pricing_plan_id":"cebpf4jnsgd1na2vs0mg"},{"bike_id":"cd1b69f3-983e-4e3a-b585-8a68b3780105","system_id":"levelo_inurba_marseille","lat":43.21759,"lon":5.346053,"is_reserved":false,"is_disabled":true,"rental_uris":{"android":"levelo://app?vid=cd1b69f3-983e-4e3a-b585-8a68b3780105","ios":"levelo://app?vid=cd1b69f3-983e-4e3a-b585-8a68b3780105"},"vehicle_type_id":"4","last_reported":1751818267,"current_range_meters":0,"station_id":"st_cvj6r9ubvosntc0bgbag","pricing_plan_id":"cebpf4jnsgd1na2vs0mg"},{"bike_id":"01e7b5f2-8f67-4e49-aba6-db3c1b32897d","system_id":"levelo_inurba_marseille","lat":43.211991,"lon":5.350758,"is_reserved":false,"is_disabled":true,"rental_uris":{"android":"levelo://app?vid=01e7b5f2-8f67-4e49-aba6-db3c1b32897d","ios":"levelo://app?vid=01e7b5f2-8f67-4e49-aba6-db3c1b32897d"},"vehicle_type_id":"4","last_reported":1751818267,"current_range_meters":0,"station_id":"st_cvj6sg6p6f1abm77japg","pricing_plan_id":"cebpf4jnsgd1na2vs0mg"},{"bike_id":"c8c4de1a-846f-4f5b-aace-9fb14bf7ad52","system_id":"levelo_inurba_marseille","lat":43.21196,"lon":5.35047,"is_reserved":false,"is_disabled":true,"rental_uris":{"android":"levelo://app?vid=c8c4de1a-846f-4f5b-aace-9fb14bf7ad52","ios":"levelo://app?vid=c8c4de1a-846f-4f5b-aace-9fb14bf7ad52"},"vehicle_type_id":"4","last_reported":1751818267,"current_range_meters":0,"station_id":"st_cvj6sg6p6f1abm77japg","pricing_plan_id":"cebpf4jnsgd1na2vs0mg"},{"bike_id":"4aaad0bc-c153-4a09-8f5f-e2c5865e51ea","system_id":"levelo_inurba_marseille","lat":43.27948,"lon":5.38772,"is_reserved":false,"is_disabled":true,"rental_uris":{"android":"levelo://app?vid=4aaad0bc-c153-4a09-8f5f-e2c5865e51ea","ios":"levelo://app?vid=4aaad0bc-c153-4a09-8f5f-e2c5865e51ea"},"vehicle_type_id":"4","last_reported":1751818267,"current_range_meters":400,"station_id":"ce4bhg12rcd13ifvqf80","pricing_plan_id":"cebpf4jnsgd1na2vs0mg"},{"bike_id":"bfb455e5-e27a-42e5-9328-a16d4df5a347","system_id":"levelo_inurba_marseille","lat":43.22492,"lon":5.34793,"is_reserved":false,"is_disabled":true,"rental_uris":{"android":"levelo://app?vid=bfb455e5-e27a-42e5-9328-a16d4df5a347","ios":"levelo://app?vid=bfb455e5-e27a-42e5-9328-a16d4df5a347"},"vehicle_type_id":"4","last_reported":1751818267,"current_range_meters":400,"station_id":"st_cvj5dfep6f1abm77gieg","pricing_plan_id":"cebpf4jnsgd1na2vs0mg"},{"bike_id":"0c214b5c-c6b2-4568-8313-bcb1af973010","system_id":"levelo_inurba_marseille","lat":43.29293,"lon":5.40117,"is_reserved":false,"is_disabled":true,"rental_uris":{"android":"levelo://app?vid=0c214b5c-c6b2-4568-8313-bcb1af973010","ios":"levelo://app?vid=0c214b5c-c6b2-4568-8313-bcb1af973010"},"vehicle_type_id":"4","last_reported":1751818267,"current_range_meters":800,"station_id":"ce4bh312rcd13ifvqdk0","pricing_plan_id":"cebpf4jnsgd1na2vs0mg"},{"bike_id":"c3d463ee-319e-48c6-b5dd-09b6dac5fee8","system_id":"levelo_inurba_marseille","lat":43.29567,"lon":5.37525,"is_reserved":false,"is_disabled":true,"rental_uris":{"android":"levelo://app?vid=c3d463ee-319e-48c6-b5dd-09b6dac5fee8","ios":"levelo://app?vid=c3d463ee-319e-48c6-b5dd-09b6dac5fee8"},"vehicle_type_id":"4","last_reported":1751818267,"current_range_meters":1200,"station_id":"ce4bgh92rcd13ifvqb50","pricing_plan_id":"cebpf4jnsgd1na2vs0mg"},{"bike_id":"ad0cd0f9-bee8-4154-8ca0-356acc2fabce","system_id":"levelo_inurba_marseille","lat":43.21755,"lon":5.34597,"is_reserved":false,"is_disabled":true,"rental_uris":{"android":"levelo://app?vid=ad0cd0f9-bee8-4154-8ca0-356acc2fabce","ios":"levelo://app?vid=ad0cd0f9-bee8-4154-8ca0-356acc2fabce"},"vehicle_type_id":"4","last_reported":1751818267,"current_range_meters":1200,"station_id":"st_cvj6r9ubvosntc0bgbag","pricing_plan_id":"cebpf4jnsgd1na2vs0mg"},{"bike_id":"efbb5884-9be0-4d77-8676-e9fa671d4cf7","system_id":"levelo_inurba_marseille","lat":43.24811,"lon":5.37459,"is_reserved":false,"is_disabled":true,"rental_uris":{"android":"levelo://app?vid=efbb5884-9be0-4d77-8676-e9fa671d4cf7","ios":"levelo://app?vid=efbb5884-9be0-4d77-8676-e9fa671d4cf7"},"vehicle_type_id":"4","last_reported":1751818267,"current_range_meters":1600,"station_id":"ce4bhgh2rcd13ifvqfb0","pricing_plan_id":"cebpf4jnsgd1na2vs0mg"},{"bike_id":"013ac8ab-92cb-441b-9ba6-c0296074631c","system_id":"levelo_inurba_marseille","lat":43.30675,"lon":5.3964,"is_reserved":false,"is_disabled":true,"rental_uris":{"android":"levelo://app?vid=013ac8ab-92cb-441b-9ba6-c0296074631c","ios":"levelo://app?vid=013ac8ab-92cb-441b-9ba6-c0296074631c"},"vehicle_type_id":"4","last_reported":1751818267,"current_range_meters":2000,"station_id":"","pricing_plan_id":"cebpf4jnsgd1na2vs0mg"},{"bike_id":"b4cfca9b-6355-4902-a1b4-cbd47ef63668","system_id":"levelo_inurba_marseille","lat":43.29013,"lon":5.35622,"is_reserved":false,"is_disabled":false,"rental_uris":{"android":"levelo://app?vid=b4cfca9b-6355-4902-a1b4-cbd47ef63668","ios":"levelo://app?vid=b4cfca9b-6355-4902-a1b4-cbd47ef63668"},"vehicle_type_id":"4","last_reported":1751818267,"current_range_meters":2800,"station_id":"ce4bhb92rcd13ifvqen0","pricing_plan_id":"cebpf4jnsgd1na2vs0mg"},{"bike_id":"18a8675c-c964-40f3-9fd9-10dfee4aee11","system_id":"levelo_inurba_marseille","lat":43.28251,"lon":5.35044,"is_reserved":false,"is_disabled":false,"rental_uris":{"android":"levelo://app?vid=18a8675c-c964-40f3-9fd9-10dfee4aee11","ios":"levelo://app?vid=18a8675c-c964-40f3-9fd9-10dfee4aee11"},"vehicle_type_id":"4","last_reported":1751818267,"current_range_meters":2800,"station_id":"ce4bhbp2rcd13ifvqerg","pricing_plan_id":"cebpf4jnsgd1na2vs0mg"},{"bike_id":"6c8f2a94-b297-4068-9e65-735b429fb79e","system_id":"levelo_inurba_marseille","lat":43.25509,"lon":5.37653,"is_reserved":false,"is_disabled":false,"rental_uris":{"android":"levelo://app?vid=6c8f2a94-b297-4068-9e65-735b429fb79e","ios":"levelo://app?vid=6c8f2a94-b297-4068-9e65-735b429fb79e"},"vehicle_type_id":"4","last_reported":1751818267,"current_range_meters":2800,"station_id":"ce4bhh12rcd13ifvqff0","pricing_plan_id":"cebpf4jnsgd1na2vs0mg"},{"bike_id":"9ee73b21-219a-47a2-a416-2b0f7158dda7","system_id":"levelo_inurba_marseille","lat":43.262255,"lon":5.40433,"is_reserved":false,"is_disabled":false,"rental_uris":{"android":"levelo://app?vid=9ee73b21-219a-47a2-a416-2b0f7158dda7","ios":"levelo://app?vid=9ee73b21-219a-47a2-a416-2b0f7158dda7"},"vehicle_type_id":"4","last_reported":1751818267,"current_range_meters":2800,"station_id":"ce4bhmh2rcd13ifvqgmg","pricing_plan_id":"cebpf4jnsgd1na2vs0mg"},{"bike_id":"883a31b2-32d0-40ae-abfb-0a8cad9f140f","system_id":"levelo_inurba_marseille","lat":43.30907,"lon":5.38666,"is_reserved":false,"is_disabled":false,"rental_uris":{"android":"levelo://app?vid=883a31b2-32d0-40ae-abfb-0a8cad9f140f","ios":"levelo://app?vid=883a31b2-32d0-40ae-abfb-0a8cad9f140f"},"vehicle_type_id":"4","last_reported":1751818267,"current_range_meters":3200,"station_id":"","pricing_plan_id":"cebpf4jnsgd1na2vs0mg"},{"bike_id":"10081ed5-9d60-4fc0-b884-61d6112078d9","system_id":"levelo_inurba_marseille","lat":43.23973,"lon":5.36626,"is_reserved":false,"is_disabled":false,"rental_uris":{"android":"levelo://app?vid=10081ed5-9d60-4fc0-b884-61d6112078d9","ios":"levelo://app?vid=10081ed5-9d60-4fc0-b884-61d6112078d9"},"vehicle_type_id":"4","last_reported":1751818267,"current_range_meters":3200,"station_id":"ce4bhi12rcd13ifvqfp0","pricing_plan_id":"cebpf4jnsgd1na2vs0mg"},{"bike_id":"37d72ccb-fbf4-4241-91ad-47930ab2b93c","system_id":"levelo_inurba_marseille","lat":43.24646,"lon":5.38889,"is_reserved":false,"is_disabled":false,"rental_uris":{"android":"levelo://app?vid=37d72ccb-fbf4-4241-91ad-47930ab2b93c","ios":"levelo://app?vid=37d72ccb-fbf4-4241-91ad-47930ab2b93c"},"vehicle_type_id":"4","last_reported":1751818267,"current_range_meters":3600,"station_id":"ce4bhg12rcd13ifvqf60","pricing_plan_id":"cebpf4jnsgd1na2vs0mg"},{"bike_id":"f70d7586-3845-4326-9273-6a74511d82ab","system_id":"levelo_inurba_marseille","lat":43.27963,"lon":5.38766,"is_reserved":false,"is_disabled":false,"rental_uris":{"android":"levelo://app?vid=f70d7586-3845-4326-9273-6a74511d82ab","ios":"levelo://app?vid=f70d7586-3845-4326-9273-6a74511d82ab"},"vehicle_type_id":"4","last_reported":1751818267,"current_range_meters":4400,"station_id":"ce4bhg12rcd13ifvqf80","pricing_plan_id":"cebpf4jnsgd1na2vs0mg"},{"bike_id":"9f4c5afb-98b7-46cc-95ed-453de54bdd2f","system_id":"levelo_inurba_marseille","lat":43.2853,"lon":5.400293,"is_reserved":false,"is_disabled":false,"rental_uris":{"android":"levelo://app?vid=9f4c5afb-98b7-46cc-95ed-453de54bdd2f","ios":"levelo://app?vid=9f4c5afb-98b7-46cc-95ed-453de54bdd2f"},"vehicle_type_id":"4","last_reported":1751818267,"current_range_meters":4400,"station_id":"ce4bho92rcd13ifvqh4g","pricing_plan_id":"cebpf4jnsgd1na2vs0mg"},{"bike_id":"e332016a-eed1-4e58-bb37-6a7fd0151114","system_id":"levelo_inurba_marseille","lat":43.21755,"lon":5.34614,"is_reserved":false,"is_disabled":true,"rental_uris":{"android":"levelo://app?vid=e332016a-eed1-4e58-bb37-6a7fd0151114","ios":"levelo://app?vid=e332016a-eed1-4e58-bb37-6a7fd0151114"},"vehicle_type_id":"4","last_reported":1751818267,"current_range_meters":4400,"station_id":"st_cvj6r9ubvosntc0bgbag","pricing_plan_id":"cebpf4jnsgd1na2vs0mg"},{"bike_id":"b26fae72-751e-4090-a9c4-76ff5de1ad66","system_id":"levelo_inurba_marseille","lat":43.33271,"lon":5.38034,"is_reserved":false,"is_disabled":false,"rental_uris":{"android":"levelo://app?vid=b26fae72-751e-4090-a9c4-76ff5de1ad66","ios":"levelo://app?vid=b26fae72-751e-4090-a9c4-76ff5de1ad66"},"vehicle_type_id":"4","last_reported":1751818267,"current_range_meters":4800,"station_id":"","pricing_plan_id":"cebpf4jnsgd1na2vs0mg"},{"bike_id":"f0a19a9e-f150-4c1e-bcc6-db3195370cac","system_id":"levelo_inurba_marseille","lat":43.32698,"lon":5.43137,"is_reserved":false,"is_disabled":false,"rental_uris":{"android":"levelo://app?vid=f0a19a9e-f150-4c1e-bcc6-db3195370cac","ios":"levelo://app?vid=f0a19a9e-f150-4c1e-bcc6-db3195370cac"},"vehicle_type_id":"4","last_reported":1751818267,"current_range_meters":5600,"station_id":"","pricing_plan_id":"cebpf4jnsgd1na2vs0mg"},{"bike_id":"1c8ab180-05fd-405f-9922-b2b2c2d5142f","system_id":"levelo_inurba_marseille","lat":43.33774,"lon":5.38123,"is_reserved":false,"is_disabled":false,"rental_uris":{"android":"levelo://app?vid=1c8ab180-05fd-405f-9922-b2b2c2d5142f","ios":"levelo://app?vid=1c8ab180-05fd-405f-9922-b2b2c2d5142f"},"vehicle_type_id":"4","last_reported":1751818267,"current_range_meters":5600,"station_id":"","pricing_plan_id":"cebpf4jnsgd1na2vs0mg"},{"bike_id":"b3783367-a7a6-488c-a7d4-93d584424bb6","system_id":"levelo_inurba_marseille","lat":43.29311,"lon":5.371707,"is_reserved":false,"is_disabled":false,"rental_uris":{"android":"levelo://app?vid=b3783367-a7a6-488c-a7d4-93d584424bb6","ios":"levelo://app?vid=b3783367-a7a6-488c-a7d4-93d584424bb6"},"vehicle_type_id":"4","last_reported":1751818267,"current_range_meters":5600,"station_id":"ce4bgh92rcd13ifvqb40","pricing_plan_id":"cebpf4jnsgd1na2vs0mg"},{"bike_id":"69f45d29-066a-4c9f-8fec-50ffe7cd07cb","system_id":"levelo_inurba_marseille","lat":43.303102,"lon":5.376944,"is_reserved":false,"is_disabled":false,"rental_uris":{"android":"levelo://app?vid=69f45d29-066a-4c9f-8fec-50ffe7cd07cb","ios":"levelo://app?vid=69f45d29-066a-4c9f-8fec-50ffe7cd07cb"},"vehicle_type_id":"4","last_reported":1751818267,"current_range_meters":5600,"station_id":"ce4bguh2rcd13ifvqcj0","pricing_plan_id":"cebpf4jnsgd1na2vs0mg"},{"bike_id":"433d914f-f850-4170-af6a-6c6064bc9563","system_id":"levelo_inurba_marseille","lat":43.30323,"lon":5.40437,"is_reserved":false,"is_disabled":false,"rental_uris":{"android":"levelo://app?vid=433d914f-f850-4170-af6a-6c6064bc9563","ios":"levelo://app?vid=433d914f-f850-4170-af6a-6c6064bc9563"},"vehicle_type_id":"4","last_reported":1751818267,"current_range_meters":5600,"station_id":"ce4bh012rcd13ifvqd10","pricing_plan_id":"cebpf4jnsgd1na2vs0mg"},{"bike_id":"441175b7-82a1-49b4-a166-db67a2e2db5f","system_id":"levelo_inurba_marseille","lat":43.28705,"lon":5.399843,"is_reserved":false,"is_disabled":false,"rental_uris":{"android":"levelo://app?vid=441175b7-82a1-49b4-a166-db67a2e2db5f","ios":"levelo://app?vid=441175b7-82a1-49b4-a166-db67a2e2db5f"},"vehicle_type_id":"4","last_reported":1751818267,"current_range_meters":5600,"station_id":"ce4bho92rcd13ifvqh3g","pricing_plan_id":"cebpf4jnsgd1na2vs0mg"},{"bike_id":"ffd4de69-bfbf-45e3-b348-d5a07d20cf7d","system_id":"levelo_inurba_marseille","lat":43.297882,"lon":5.381188,"is_reserved":false,"is_disabled":false,"rental_uris":{"android":"levelo://app?vid=ffd4de69-bfbf-45e3-b348-d5a07d20cf7d","ios":"levelo://app?vid=ffd4de69-bfbf-45e3-b348-d5a07d20cf7d"},"vehicle_type_id":"4","last_reported":1751818267,"current_range_meters":6000,"station_id":"","pricing_plan_id":"cebpf4jnsgd1na2vs0mg"},{"bike_id":"18aaa672-b9f5-45e4-b4aa-afd83624f3e2","system_id":"levelo_inurba_marseille","lat":43.27622,"lon":5.36115,"is_reserved":false,"is_disabled":false,"rental_uris":{"android":"levelo://app?vid=18aaa672-b9f5-45e4-b4aa-afd83624f3e2","ios":"levelo://app?vid=18aaa672-b9f5-45e4-b4aa-afd83624f3e2"},"vehicle_type_id":"4","last_reported":1751818267,"current_range_meters":6000,"station_id":"ce4bgj92rcd13ifvqbe0","pricing_plan_id":"cebpf4jnsgd1na2vs0mg"},{"bike_id":"de9280d6-8879-4fd9-8e66-b315fbaaab7d","system_id":"levelo_inurba_marseille","lat":43.29376,"lon":5.37855,"is_reserved":false,"is_disabled":false,"rental_uris":{"android":"levelo://app?vid=de9280d6-8879-4fd9-8e66-b315fbaaab7d","ios":"levelo://app?vid=de9280d6-8879-4fd9-8e66-b315fbaaab7d"},"vehicle_type_id":"4","last_reported":1751818267,"current_range_meters":6000,"station_id":"ce4bgjh2rcd13ifvqbf0","pricing_plan_id":"cebpf4jnsgd1na2vs0mg"},{"bike_id":"bcfb6ac1-8b92-4a2b-b7fc-bcbcab1eb4cd","system_id":"levelo_inurba_marseille","lat":43.28037,"lon":5.36949,"is_reserved":false,"is_disabled":false,"rental_uris":{"android":"levelo://app?vid=bcfb6ac1-8b92-4a2b-b7fc-bcbcab1eb4cd","ios":"levelo://app?vid=bcfb6ac1-8b92-4a2b-b7fc-bcbcab1eb4cd"},"vehicle_type_id":"4","last_reported":1751818267,"current_range_meters":6000,"station_id":"ce4bha12rcd13ifvqef0","pricing_plan_id":"cebpf4jnsgd1na2vs0mg"},{"bike_id":"69c2280d-9883-47db-99f2-c073a6babae6","system_id":"levelo_inurba_marseille","lat":43.30855,"lon":5.37034,"is_reserved":false,"is_disabled":false,"rental_uris":{"android":"levelo://app?vid=69c2280d-9883-47db-99f2-c073a6babae6","ios":"levelo://app?vid=69c2280d-9883-47db-99f2-c073a6babae6"},"vehicle_type_id":"4","last_reported":1751818267,"current_range_meters":6400,"station_id":"","pricing_plan_id":"cebpf4jnsgd1na2vs0mg"},{"bike_id":"43f63e48-8fac-4234-97e5-82e22cbb38d2","system_id":"levelo_inurba_marseille","lat":43.29538,"lon":5.38532,"is_reserved":false,"is_disabled":false,"rental_uris":{"android":"levelo://app?vid=43f63e48-8fac-4234-97e5-82e22cbb38d2","ios":"levelo://app?vid=43f63e48-8fac-4234-97e5-82e22cbb38d2"},"vehicle_type_id":"4","last_reported":1751818267,"current_range_meters":6400,"station_id":"ce4bgih2rcd13ifvqba0","pricing_plan_id":"cebpf4jnsgd1na2vs0mg"},{"bike_id":"542d8066-c07a-4ade-a53d-15b2fff33af4","system_id":"levelo_inurba_marseille","lat":43.30183,"lon":5.36614,"is_reserved":false,"is_disabled":false,"rental_uris":{"android":"levelo://app?vid=542d8066-c07a-4ade-a53d-15b2fff33af4","ios":"levelo://app?vid=542d8066-c07a-4ade-a53d-15b2fff33af4"},"vehicle_type_id":"4","last_reported":1751818267,"current_range_meters":6400,"station_id":"ce4bgrh2rcd13ifvqc8g","pricing_plan_id":"cebpf4jnsgd1na2vs0mg"},{"bike_id":"c15e0577-2ed5-4e0f-ba59-83f04b9e885e","system_id":"levelo_inurba_marseille","lat":43.30542,"lon":5.36555,"is_reserved":false,"is_disabled":false,"rental_uris":{"android":"levelo://app?vid=c15e0577-2ed5-4e0f-ba59-83f04b9e885e","ios":"levelo://app?vid=c15e0577-2ed5-4e0f-ba59-83f04b9e885e"},"vehicle_type_id":"4","last_reported":1751818267,"current_range_meters":6400,"station_id":"ce4bgs12rcd13ifvqcag","pricing_plan_id":"cebpf4jnsgd1na2vs0mg"},{"bike_id":"4b8da722-ee9e-48a4-a5e5-3a8a10364708","system_id":"levelo_inurba_marseille","lat":43.31222,"lon":5.37823,"is_reserved":false,"is_disabled":false,"rental_uris":{"android":"levelo://app?vid=4b8da722-ee9e-48a4-a5e5-3a8a10364708","ios":"levelo://app?vid=4b8da722-ee9e-48a4-a5e5-3a8a10364708"},"vehicle_type_id":"4","last_reported":1751818267,"current_range_meters":6800,"station_id":"","pricing_plan_id":"cebpf4jnsgd1na2vs0mg"},{"bike_id":"71ae1b96-3c87-47f6-84c1-eb797576bd71","system_id":"levelo_inurba_marseille","lat":43.31563,"lon":5.38371,"is_reserved":false,"is_disabled":false,"rental_uris":{"android":"levelo://app?vid=71ae1b96-3c87-47f6-84c1-eb797576bd71","ios":"levelo://app?vid=71ae1b96-3c87-47f6-84c1-eb797576bd71"},"vehicle_type_id":"4","last_reported":1751818267,"current_range_meters":6800,"station_id":"","pricing_plan_id":"cebpf4jnsgd1na2vs0mg"},{"bike_id":"c548c3f7-9eb4-4420-820e-0c1307957641","system_id":"levelo_inurba_marseille","lat":43.28849,"lon":5.39314,"is_reserved":false,"is_disabled":false,"rental_uris":{"android":"levelo://app?vid=c548c3f7-9eb4-4420-820e-0c1307957641","ios":"levelo://app?vid=c548c3f7-9eb4-4420-820e-0c1307957641"},"vehicle_type_id":"4","last_reported":1751818267,"current_range_meters":6800,"station_id":"ce4bh2p2rcd13ifvqdi0","pricing_plan_id":"cebpf4jnsgd1na2vs0mg"},{"bike_id":"26a4d4f7-03b4-4fe3-896e-2b3a06c7f25e","system_id":"levelo_inurba_marseille","lat":43.29549,"lon":5.42299,"is_reserved":false,"is_disabled":false,"rental_uris":{"android":"levelo://app?vid=26a4d4f7-03b4-4fe3-896e-2b3a06c7f25e","ios":"levelo://app?vid=26a4d4f7-03b4-4fe3-896e-2b3a06c7f25e"},"vehicle_type_id":"4","last_reported":1751818267,"current_range_meters":6800,"station_id":"ce4bhph2rcd13ifvqhdg","pricing_plan_id":"cebpf4jnsgd1na2vs0mg"},{"bike_id":"70a0646c-bc3e-4c1d-b962-e8ba4ed21af8","system_id":"levelo_inurba_marseille","lat":43.27679,"lon":5.38874,"is_reserved":false,"is_disabled":false,"rental_uris":{"android":"levelo://app?vid=70a0646c-bc3e-4c1d-b962-e8ba4ed21af8","ios":"levelo://app?vid=70a0646c-bc3e-4c1d-b962-e8ba4ed21af8"},"vehicle_type_id":"4","last_reported":1751818267,"current_range_meters":7200,"station_id":"ce4bhi12rcd13ifvqfo0","pricing_plan_id":"cebpf4jnsgd1na2vs0mg"},{"bike_id":"1e04b9e2-27c6-4b30-b902-6c81e18716e2","system_id":"levelo_inurba_marseille","lat":43.31179,"lon":5.37754,"is_reserved":false,"is_disabled":false,"rental_uris":{"android":"levelo://app?vid=1e04b9e2-27c6-4b30-b902-6c81e18716e2","ios":"levelo://app?vid=1e04b9e2-27c6-4b30-b902-6c81e18716e2"},"vehicle_type_id":"4","last_reported":1751818267,"current_range_meters":8000,"station_id":"","pricing_plan_id":"cebpf4jnsgd1na2vs0mg"},{"bike_id":"5302f457-1441-42fe-b022-ae69ebef724a","system_id":"levelo_inurba_marseille","lat":43.30145,"lon":5.37421,"is_reserved":false,"is_disabled":false,"rental_uris":{"android":"levelo://app?vid=5302f457-1441-42fe-b022-ae69ebef724a","ios":"levelo://app?vid=5302f457-1441-42fe-b022-ae69ebef724a"},"vehicle_type_id":"4","last_reported":1751818267,"current_range_meters":8000,"station_id":"ce4bgs92rcd13ifvqcc0","pricing_plan_id":"cebpf4jnsgd1na2vs0mg"},{"bike_id":"b0e52dc1-c593-4aa1-910f-bcf77f364b8a","system_id":"levelo_inurba_marseille","lat":43.3151,"lon":5.37274,"is_reserved":false,"is_disabled":false,"rental_uris":{"android":"levelo://app?vid=b0e52dc1-c593-4aa1-910f-bcf77f364b8a","ios":"levelo://app?vid=b0e52dc1-c593-4aa1-910f-bcf77f364b8a"},"vehicle_type_id":"4","last_reported":1751818267,"current_range_meters":8000,"station_id":"ce4bgt12rcd13ifvqcd0","pricing_plan_id":"cebpf4jnsgd1na2vs0mg"},{"bike_id":"65a63a78-6cea-4e5e-813b-d0ca7dda8639","system_id":"levelo_inurba_marseille","lat":43.29044,"lon":5.39965,"is_reserved":false,"is_disabled":false,"rental_uris":{"android":"levelo://app?vid=65a63a78-6cea-4e5e-813b-d0ca7dda8639","ios":"levelo://app?vid=65a63a78-6cea-4e5e-813b-d0ca7dda8639"},"vehicle_type_id":"4","last_reported":1751818267,"current_range_meters":8000,"station_id":"ce4bh392rcd13ifvqdm0","pricing_plan_id":"cebpf4jnsgd1na2vs0mg"},{"bike_id":"51cec39b-eedb-4f53-9883-be8400345645","system_id":"levelo_inurba_marseille","lat":43.2797,"lon":5.3869,"is_reserved":false,"is_disabled":false,"rental_uris":{"android":"levelo://app?vid=51cec39b-eedb-4f53-9883-be8400345645","ios":"levelo://app?vid=51cec39b-eedb-4f53-9883-be8400345645"},"vehicle_type_id":"4","last_reported":1751818267,"current_range_meters":8000,"station_id":"ce4bhg12rcd13ifvqf80","pricing_plan_id":"cebpf4jnsgd1na2vs0mg"},{"bike_id":"edbec55e-9966-4790-9755-400fcedd7bc3","system_id":"levelo_inurba_marseille","lat":43.25499,"lon":5.37651,"is_reserved":false,"is_disabled":false,"rental_uris":{"android":"levelo://app?vid=edbec55e-9966-4790-9755-400fcedd7bc3","ios":"levelo://app?vid=edbec55e-9966-4790-9755-400fcedd7bc3"},"vehicle_type_id":"4","last_reported":1751818267,"current_range_meters":8000,"station_id":"ce4bhh12rcd13ifvqff0","pricing_plan_id":"cebpf4jnsgd1na2vs0mg"},{"bike_id":"54bc607a-dbe3-45b0-8f0f-0ff5ddf59489","system_id":"levelo_inurba_marseille","lat":43.26224,"lon":5.40459,"is_reserved":false,"is_disabled":false,"rental_uris":{"android":"levelo://app?vid=54bc607a-dbe3-45b0-8f0f-0ff5ddf59489","ios":"levelo://app?vid=54bc607a-dbe3-45b0-8f0f-0ff5ddf59489"},"vehicle_type_id":"4","last_reported":1751818267,"current_range_meters":8000,"station_id":"ce4bhmh2rcd13ifvqgmg","pricing_plan_id":"cebpf4jnsgd1na2vs0mg"},{"bike_id":"940ea0dd-1d22-4f3f-85b4-ae3c46691403","system_id":"levelo_inurba_marseille","lat":43.2844,"lon":5.39194,"is_reserved":false,"is_disabled":false,"rental_uris":{"android":"levelo://app?vid=940ea0dd-1d22-4f3f-85b4-ae3c46691403","ios":"levelo://app?vid=940ea0dd-1d22-4f3f-85b4-ae3c46691403"},"vehicle_type_id":"4","last_reported":1751818267,"current_range_meters":8000,"station_id":"ce4bhoh2rcd13ifvqh5g","pricing_plan_id":"cebpf4jnsgd1na2vs0mg"},{"bike_id":"7ddf8525-7e65-490b-8016-820d95ae3948","system_id":"levelo_inurba_marseille","lat":43.33018,"lon":5.39035,"is_reserved":false,"is_disabled":false,"rental_uris":{"android":"levelo://app?vid=7ddf8525-7e65-490b-8016-820d95ae3948","ios":"levelo://app?vid=7ddf8525-7e65-490b-8016-820d95ae3948"},"vehicle_type_id":"4","last_reported":1751818267,"current_range_meters":8000,"station_id":"ce4bhr92rcd13ifvqhrg","pricing_plan_id":"cebpf4jnsgd1na2vs0mg"},{"bike_id":"452e8211-4f44-45d0-814a-3e9e25b8c44e","system_id":"levelo_inurba_marseille","lat":43.21194,"lon":5.35073,"is_reserved":false,"is_disabled":false,"rental_uris":{"android":"levelo://app?vid=452e8211-4f44-45d0-814a-3e9e25b8c44e","ios":"levelo://app?vid=452e8211-4f44-45d0-814a-3e9e25b8c44e"},"vehicle_type_id":"4","last_reported":1751818267,"current_range_meters":8000,"station_id":"st_cvj6sg6p6f1abm77japg","pricing_plan_id":"cebpf4jnsgd1na2vs0mg"},{"bike_id":"8eb283fe-44c7-4bb1-836e-cde6c55f1adf","system_id":"levelo_inurba_marseille","lat":43.31804,"lon":5.36831,"is_reserved":false,"is_disabled":false,"rental_uris":{"android":"levelo://app?vid=8eb283fe-44c7-4bb1-836e-cde6c55f1adf","ios":"levelo://app?vid=8eb283fe-44c7-4bb1-836e-cde6c55f1adf"},"vehicle_type_id":"4","last_reported":1751818267,"current_range_meters":8400,"station_id":"","pricing_plan_id":"cebpf4jnsgd1na2vs0mg"},{"bike_id":"52cb017f-54af-43fe-9c7b-67d16e4b3c31","system_id":"levelo_inurba_marseille","lat":43.29565,"lon":5.37534,"is_reserved":false,"is_disabled":false,"rental_uris":{"android":"levelo://app?vid=52cb017f-54af-43fe-9c7b-67d16e4b3c31","ios":"levelo://app?vid=52cb017f-54af-43fe-9c7b-67d16e4b3c31"},"vehicle_type_id":"4","last_reported":1751818267,"current_range_meters":8400,"station_id":"ce4bgh92rcd13ifvqb50","pricing_plan_id":"cebpf4jnsgd1na2vs0mg"},{"bike_id":"f4d79d48-04aa-4684-b01b-e1a983ece898","system_id":"levelo_inurba_marseille","lat":43.25498,"lon":5.37649,"is_reserved":false,"is_disabled":false,"rental_uris":{"android":"levelo://app?vid=f4d79d48-04aa-4684-b01b-e1a983ece898","ios":"levelo://app?vid=f4d79d48-04aa-4684-b01b-e1a983ece898"},"vehicle_type_id":"4","last_reported":1751818267,"current_range_meters":8400,"station_id":"ce4bhh12rcd13ifvqff0","pricing_plan_id":"cebpf4jnsgd1na2vs0mg"},{"bike_id":"d80abce3-a364-4958-ab18-245812fe248e","system_id":"levelo_inurba_marseille","lat":43.27205,"lon":5.39187,"is_reserved":false,"is_disabled":false,"rental_uris":{"android":"levelo://app?vid=d80abce3-a364-4958-ab18-245812fe248e","ios":"levelo://app?vid=d80abce3-a364-4958-ab18-245812fe248e"},"vehicle_type_id":"4","last_reported":1751818267,"current_range_meters":8400,"station_id":"ce4bhhp2rcd13ifvqfm0","pricing_plan_id":"cebpf4jnsgd1na2vs0mg"},{"bike_id":"b1d40197-e49c-4962-8cd8-0babe05d31a6","system_id":"levelo_inurba_marseille","lat":43.21279,"lon":5.35301,"is_reserved":false,"is_disabled":false,"rental_uris":{"android":"levelo://app?vid=b1d40197-e49c-4962-8cd8-0babe05d31a6","ios":"levelo://app?vid=b1d40197-e49c-4962-8cd8-0babe05d31a6"},"vehicle_type_id":"4","last_reported":1751818267,"current_range_meters":8800,"station_id":"","pricing_plan_id":"cebpf4jnsgd1na2vs0mg"},{"bike_id":"14268f70-d4e1-47b7-af1f-d3918cacba77","system_id":"levelo_inurba_marseille","lat":43.295659,"lon":5.375221,"is_reserved":false,"is_disabled":false,"rental_uris":{"android":"levelo://app?vid=14268f70-d4e1-47b7-af1f-d3918cacba77","ios":"levelo://app?vid=14268f70-d4e1-47b7-af1f-d3918cacba77"},"vehicle_type_id":"4","last_reported":1751818267,"current_range_meters":8800,"station_id":"ce4bgk12rcd13ifvqbi0","pricing_plan_id":"cebpf4jnsgd1na2vs0mg"},{"bike_id":"ea822dc6-81d7-4cdf-8ac7-ab2b5a12a7ed","system_id":"levelo_inurba_marseille","lat":43.28697,"lon":5.37381,"is_reserved":false,"is_disabled":false,"rental_uris":{"android":"levelo://app?vid=ea822dc6-81d7-4cdf-8ac7-ab2b5a12a7ed","ios":"levelo://app?vid=ea822dc6-81d7-4cdf-8ac7-ab2b5a12a7ed"},"vehicle_type_id":"4","last_reported":1751818267,"current_range_meters":8800,"station_id":"ce4bh3p2rcd13ifvqdq0","pricing_plan_id":"cebpf4jnsgd1na2vs0mg"},{"bike_id":"9af7e436-e2e9-4559-86c3-5510f2f12d21","system_id":"levelo_inurba_marseille","lat":43.28347,"lon":5.38639,"is_reserved":false,"is_disabled":false,"rental_uris":{"android":"levelo://app?vid=9af7e436-e2e9-4559-86c3-5510f2f12d21","ios":"levelo://app?vid=9af7e436-e2e9-4559-86c3-5510f2f12d21"},"vehicle_type_id":"4","last_reported":1751818267,"current_range_meters":8800,"station_id":"ce4bh492rcd13ifvqdvg","pricing_plan_id":"cebpf4jnsgd1na2vs0mg"},{"bike_id":"77f343c6-2839-4f96-a292-9580d6a68c0b","system_id":"levelo_inurba_marseille","lat":43.22504,"lon":5.34774,"is_reserved":false,"is_disabled":true,"rental_uris":{"android":"levelo://app?vid=77f343c6-2839-4f96-a292-9580d6a68c0b","ios":"levelo://app?vid=77f343c6-2839-4f96-a292-9580d6a68c0b"},"vehicle_type_id":"4","last_reported":1751818267,"current_range_meters":8800,"station_id":"st_cvj5dfep6f1abm77gieg","pricing_plan_id":"cebpf4jnsgd1na2vs0mg"},{"bike_id":"d858b784-4fd9-41d7-8169-6d2f7e176251","system_id":"levelo_inurba_marseille","lat":43.300145,"lon":5.3782,"is_reserved":false,"is_disabled":false,"rental_uris":{"android":"levelo://app?vid=d858b784-4fd9-41d7-8169-6d2f7e176251","ios":"levelo://app?vid=d858b784-4fd9-41d7-8169-6d2f7e176251"},"vehicle_type_id":"4","last_reported":1751818267,"current_range_meters":9200,"station_id":"","pricing_plan_id":"cebpf4jnsgd1na2vs0mg"},{"bike_id":"86c92dc1-b4da-49d9-acb8-ba390f939865","system_id":"levelo_inurba_marseille","lat":43.330343,"lon":5.392339,"is_reserved":false,"is_disabled":false,"rental_uris":{"android":"levelo://app?vid=86c92dc1-b4da-49d9-acb8-ba390f939865","ios":"levelo://app?vid=86c92dc1-b4da-49d9-acb8-ba390f939865"},"vehicle_type_id":"4","last_reported":1751818267,"current_range_meters":9200,"station_id":"","pricing_plan_id":"cebpf4jnsgd1na2vs0mg"},{"bike_id":"e55cea4f-26d4-4f9c-bf7a-025fd9a4a22d","system_id":"levelo_inurba_marseille","lat":43.23433,"lon":5.35956,"is_reserved":false,"is_disabled":false,"rental_uris":{"android":"levelo://app?vid=e55cea4f-26d4-4f9c-bf7a-025fd9a4a22d","ios":"levelo://app?vid=e55cea4f-26d4-4f9c-bf7a-025fd9a4a22d"},"vehicle_type_id":"4","last_reported":1751818267,"current_range_meters":9200,"station_id":"","pricing_plan_id":"cebpf4jnsgd1na2vs0mg"},{"bike_id":"87209bfc-8c3a-422f-80b4-fcc59facb9c1","system_id":"levelo_inurba_marseille","lat":43.31348,"lon":5.38509,"is_reserved":false,"is_disabled":false,"rental_uris":{"android":"levelo://app?vid=87209bfc-8c3a-422f-80b4-fcc59facb9c1","ios":"levelo://app?vid=87209bfc-8c3a-422f-80b4-fcc59facb9c1"},"vehicle_type_id":"4","last_reported":1751818267,"current_range_meters":9200,"station_id":"ce4bgt92rcd13ifvqcf0","pricing_plan_id":"cebpf4jnsgd1na2vs0mg"},{"bike_id":"1b885544-9842-4e01-b975-7c8b17e87d84","system_id":"levelo_inurba_marseille","lat":43.2572,"lon":5.41116,"is_reserved":false,"is_disabled":false,"rental_uris":{"android":"levelo://app?vid=1b885544-9842-4e01-b975-7c8b17e87d84","ios":"levelo://app?vid=1b885544-9842-4e01-b975-7c8b17e87d84"},"vehicle_type_id":"4","last_reported":1751818267,"current_range_meters":9200,"station_id":"ce4bhkp2rcd13ifvqgd0","pricing_plan_id":"cebpf4jnsgd1na2vs0mg"},{"bike_id":"964cba90-4ae5-48a2-b83e-3972b0b768aa","system_id":"levelo_inurba_marseille","lat":43.32335,"lon":5.40622,"is_reserved":false,"is_disabled":false,"rental_uris":{"android":"levelo://app?vid=964cba90-4ae5-48a2-b83e-3972b0b768aa","ios":"levelo://app?vid=964cba90-4ae5-48a2-b83e-3972b0b768aa"},"vehicle_type_id":"4","last_reported":1751818267,"current_range_meters":9200,"station_id":"ce4bhq92rcd13ifvqhjg","pricing_plan_id":"cebpf4jnsgd1na2vs0mg"},{"bike_id":"adf1d38d-1f03-40cf-9b57-0a8f15f62b2d","system_id":"levelo_inurba_marseille","lat":43.329305,"lon":5.364204,"is_reserved":false,"is_disabled":false,"rental_uris":{"android":"levelo://app?vid=adf1d38d-1f03-40cf-9b57-0a8f15f62b2d","ios":"levelo://app?vid=adf1d38d-1f03-40cf-9b57-0a8f15f62b2d"},"vehicle_type_id":"4","last_reported":1751818267,"current_range_meters":9600,"station_id":"","pricing_plan_id":"cebpf4jnsgd1na2vs0mg"},{"bike_id":"70ce5529-93a9-4484-9a30-a124e4c68a72","system_id":"levelo_inurba_marseille","lat":43.25493,"lon":5.3765,"is_reserved":false,"is_disabled":false,"rental_uris":{"android":"levelo://app?vid=70ce5529-93a9-4484-9a30-a124e4c68a72","ios":"levelo://app?vid=70ce5529-93a9-4484-9a30-a124e4c68a72"},"vehicle_type_id":"4","last_reported":1751818267,"current_range_meters":9600,"station_id":"ce4bhh12rcd13ifvqff0","pricing_plan_id":"cebpf4jnsgd1na2vs0mg"},{"bike_id":"af49b832-1416-49c0-89a1-fdae241b06f6","system_id":"levelo_inurba_marseille","lat":43.298958,"lon":5.436565,"is_reserved":false,"is_disabled":false,"rental_uris":{"android":"levelo://app?vid=af49b832-1416-49c0-89a1-fdae241b06f6","ios":"levelo://app?vid=af49b832-1416-49c0-89a1-fdae241b06f6"},"vehicle_type_id":"4","last_reported":1751818267,"current_range_meters":9600,"station_id":"ce4bhpp2rcd13ifvqhfg","pricing_plan_id":"cebpf4jnsgd1na2vs0mg"},{"bike_id":"fe8ee84c-fdfc-40aa-a1c2-6e36409c0740","system_id":"levelo_inurba_marseille","lat":43.26788,"lon":5.39075,"is_reserved":false,"is_disabled":false,"rental_uris":{"android":"levelo://app?vid=fe8ee84c-fdfc-40aa-a1c2-6e36409c0740","ios":"levelo://app?vid=fe8ee84c-fdfc-40aa-a1c2-6e36409c0740"},"vehicle_type_id":"4","last_reported":1751818267,"current_range_meters":10000,"station_id":"","pricing_plan_id":"cebpf4jnsgd1na2vs0mg"},{"bike_id":"85d1a8f9-224b-4ef0-a551-81c04872bfb7","system_id":"levelo_inurba_marseille","lat":43.28694,"lon":5.39992,"is_reserved":false,"is_disabled":false,"rental_uris":{"android":"levelo://app?vid=85d1a8f9-224b-4ef0-a551-81c04872bfb7","ios":"levelo://app?vid=85d1a8f9-224b-4ef0-a551-81c04872bfb7"},"vehicle_type_id":"4","last_reported":1751818267,"current_range_meters":10000,"station_id":"ce4bho92rcd13ifvqh3g","pricing_plan_id":"cebpf4jnsgd1na2vs0mg"},{"bike_id":"f24de232-65c7-4be7-9e98-e4a9a828fd58","system_id":"levelo_inurba_marseille","lat":43.24278,"lon":5.38832,"is_reserved":false,"is_disabled":false,"rental_uris":{"android":"levelo://app?vid=f24de232-65c7-4be7-9e98-e4a9a828fd58","ios":"levelo://app?vid=f24de232-65c7-4be7-9e98-e4a9a828fd58"},"vehicle_type_id":"4","last_reported":1751818267,"current_range_meters":10800,"station_id":"","pricing_plan_id":"cebpf4jnsgd1na2vs0mg"},{"bike_id":"1259345e-bb3d-4e6b-9dcf-abcc4526b932","system_id":"levelo_inurba_marseille","lat":43.31268,"lon":5.40163,"is_reserved":false,"is_disabled":false,"rental_uris":{"android":"levelo://app?vid=1259345e-bb3d-4e6b-9dcf-abcc4526b932","ios":"levelo://app?vid=1259345e-bb3d-4e6b-9dcf-abcc4526b932"},"vehicle_type_id":"4","last_reported":1751818267,"current_range_meters":10800,"station_id":"ce4bh092rcd13ifvqd30","pricing_plan_id":"cebpf4jnsgd1na2vs0mg"},{"bike_id":"56aa68f6-6b03-415b-a725-cfa86db21b9b","system_id":"levelo_inurba_marseille","lat":43.28706,"lon":5.374,"is_reserved":false,"is_disabled":false,"rental_uris":{"android":"levelo://app?vid=56aa68f6-6b03-415b-a725-cfa86db21b9b","ios":"levelo://app?vid=56aa68f6-6b03-415b-a725-cfa86db21b9b"},"vehicle_type_id":"4","last_reported":1751818267,"current_range_meters":10800,"station_id":"ce4bh3p2rcd13ifvqdq0","pricing_plan_id":"cebpf4jnsgd1na2vs0mg"},{"bike_id":"164edd10-52bb-47a6-9a26-b0a4ebd87ce7","system_id":"levelo_inurba_marseille","lat":43.24815,"lon":5.37465,"is_reserved":false,"is_disabled":false,"rental_uris":{"android":"levelo://app?vid=164edd10-52bb-47a6-9a26-b0a4ebd87ce7","ios":"levelo://app?vid=164edd10-52bb-47a6-9a26-b0a4ebd87ce7"},"vehicle_type_id":"4","last_reported":1751818267,"current_range_meters":10800,"station_id":"ce4bhgh2rcd13ifvqfb0","pricing_plan_id":"cebpf4jnsgd1na2vs0mg"},{"bike_id":"d64b481b-a2ec-4c34-b9bc-4a94f1ea1ba0","system_id":"levelo_inurba_marseille","lat":43.25096,"lon":5.39511,"is_reserved":false,"is_disabled":false,"rental_uris":{"android":"levelo://app?vid=d64b481b-a2ec-4c34-b9bc-4a94f1ea1ba0","ios":"levelo://app?vid=d64b481b-a2ec-4c34-b9bc-4a94f1ea1ba0"},"vehicle_type_id":"4","last_reported":1751818267,"current_range_meters":10800,"station_id":"ce4bhm12rcd13ifvqgkg","pricing_plan_id":"cebpf4jnsgd1na2vs0mg"},{"bike_id":"ed290504-6948-4f69-8584-2e2b0286febf","system_id":"levelo_inurba_marseille","lat":43.21185,"lon":5.35084,"is_reserved":false,"is_disabled":false,"rental_uris":{"android":"levelo://app?vid=ed290504-6948-4f69-8584-2e2b0286febf","ios":"levelo://app?vid=ed290504-6948-4f69-8584-2e2b0286febf"},"vehicle_type_id":"4","last_reported":1751818267,"current_range_meters":10800,"station_id":"st_cvj6sg6p6f1abm77japg","pricing_plan_id":"cebpf4jnsgd1na2vs0mg"},{"bike_id":"fe780e6f-dfa0-4f49-8c6a-b5f47f61ad82","system_id":"levelo_inurba_marseille","lat":43.303301,"lon":5.404379,"is_reserved":false,"is_disabled":false,"rental_uris":{"android":"levelo://app?vid=fe780e6f-dfa0-4f49-8c6a-b5f47f61ad82","ios":"levelo://app?vid=fe780e6f-dfa0-4f49-8c6a-b5f47f61ad82"},"vehicle_type_id":"4","last_reported":1751818267,"current_range_meters":11200,"station_id":"ce4bh012rcd13ifvqd10","pricing_plan_id":"cebpf4jnsgd1na2vs0mg"},{"bike_id":"53a22d39-d0b0-44d4-be7a-c29d174e8f54","system_id":"levelo_inurba_marseille","lat":43.30637,"lon":5.40089,"is_reserved":false,"is_disabled":false,"rental_uris":{"android":"levelo://app?vid=53a22d39-d0b0-44d4-be7a-c29d174e8f54","ios":"levelo://app?vid=53a22d39-d0b0-44d4-be7a-c29d174e8f54"},"vehicle_type_id":"4","last_reported":1751818267,"current_range_meters":11200,"station_id":"ce4bh112rcd13ifvqda0","pricing_plan_id":"cebpf4jnsgd1na2vs0mg"},{"bike_id":"6c6555db-7005-4c8a-83d3-829f14885f24","system_id":"levelo_inurba_marseille","lat":43.29526,"lon":5.39398,"is_reserved":false,"is_disabled":false,"rental_uris":{"android":"levelo://app?vid=6c6555db-7005-4c8a-83d3-829f14885f24","ios":"levelo://app?vid=6c6555db-7005-4c8a-83d3-829f14885f24"},"vehicle_type_id":"4","last_reported":1751818267,"current_range_meters":11200,"station_id":"ce4bh292rcd13ifvqdf0","pricing_plan_id":"cebpf4jnsgd1na2vs0mg"},{"bike_id":"14b4b75c-6446-4c78-af5b-0ac2b82ad4b4","system_id":"levelo_inurba_marseille","lat":43.31167,"lon":5.38725,"is_reserved":false,"is_disabled":false,"rental_uris":{"android":"levelo://app?vid=14b4b75c-6446-4c78-af5b-0ac2b82ad4b4","ios":"levelo://app?vid=14b4b75c-6446-4c78-af5b-0ac2b82ad4b4"},"vehicle_type_id":"4","last_reported":1751818267,"current_range_meters":11600,"station_id":"ce4bgv12rcd13ifvqcp0","pricing_plan_id":"cebpf4jnsgd1na2vs0mg"},{"bike_id":"d14c659c-2165-4ed9-8a31-900923ad1b60","system_id":"levelo_inurba_marseille","lat":43.30608,"lon":5.37219,"is_reserved":false,"is_disabled":false,"rental_uris":{"android":"levelo://app?vid=d14c659c-2165-4ed9-8a31-900923ad1b60","ios":"levelo://app?vid=d14c659c-2165-4ed9-8a31-900923ad1b60"},"vehicle_type_id":"4","last_reported":1751818267,"current_range_meters":12000,"station_id":"ce4bgqh2rcd13ifvqc4g","pricing_plan_id":"cebpf4jnsgd1na2vs0mg"},{"bike_id":"addd27d9-91d2-4d45-a06e-53ce5cdbe337","system_id":"levelo_inurba_marseille","lat":43.31361,"lon":5.38497,"is_reserved":false,"is_disabled":false,"rental_uris":{"android":"levelo://app?vid=addd27d9-91d2-4d45-a06e-53ce5cdbe337","ios":"levelo://app?vid=addd27d9-91d2-4d45-a06e-53ce5cdbe337"},"vehicle_type_id":"4","last_reported":1751818267,"current_range_meters":12000,"station_id":"ce4bgt92rcd13ifvqcf0","pricing_plan_id":"cebpf4jnsgd1na2vs0mg"},{"bike_id":"09974754-5967-48d5-9fed-336861c46718","system_id":"levelo_inurba_marseille","lat":43.26188,"lon":5.37462,"is_reserved":false,"is_disabled":false,"rental_uris":{"android":"levelo://app?vid=09974754-5967-48d5-9fed-336861c46718","ios":"levelo://app?vid=09974754-5967-48d5-9fed-336861c46718"},"vehicle_type_id":"4","last_reported":1751818267,"current_range_meters":12000,"station_id":"ce4bhgp2rcd13ifvqfc0","pricing_plan_id":"cebpf4jnsgd1na2vs0mg"},{"bike_id":"c5f51cfb-00e7-42bc-90bd-fb84cad64c1c","system_id":"levelo_inurba_marseille","lat":43.2606,"lon":5.39389,"is_reserved":false,"is_disabled":false,"rental_uris":{"android":"levelo://app?vid=c5f51cfb-00e7-42bc-90bd-fb84cad64c1c","ios":"levelo://app?vid=c5f51cfb-00e7-42bc-90bd-fb84cad64c1c"},"vehicle_type_id":"4","last_reported":1751818267,"current_range_meters":12000,"station_id":"ce4bhh92rcd13ifvqfj0","pricing_plan_id":"cebpf4jnsgd1na2vs0mg"},{"bike_id":"5b56dc6f-4053-4e10-904d-0a9375f2337f","system_id":"levelo_inurba_marseille","lat":43.2586,"lon":5.39898,"is_reserved":false,"is_disabled":false,"rental_uris":{"android":"levelo://app?vid=5b56dc6f-4053-4e10-904d-0a9375f2337f","ios":"levelo://app?vid=5b56dc6f-4053-4e10-904d-0a9375f2337f"},"vehicle_type_id":"4","last_reported":1751818267,"current_range_meters":12000,"station_id":"ce4bhl92rcd13ifvqghg","pricing_plan_id":"cebpf4jnsgd1na2vs0mg"},{"bike_id":"55603304-29f5-4f06-8633-36f388fbc752","system_id":"levelo_inurba_marseille","lat":43.2937,"lon":5.37865,"is_reserved":false,"is_disabled":false,"rental_uris":{"android":"levelo://app?vid=55603304-29f5-4f06-8633-36f388fbc752","ios":"levelo://app?vid=55603304-29f5-4f06-8633-36f388fbc752"},"vehicle_type_id":"4","last_reported":1751818267,"current_range_meters":12400,"station_id":"ce4bgjh2rcd13ifvqbf0","pricing_plan_id":"cebpf4jnsgd1na2vs0mg"},{"bike_id":"87a559a7-a574-4747-80c0-c24c64481962","system_id":"levelo_inurba_marseille","lat":43.2926,"lon":5.38442,"is_reserved":false,"is_disabled":false,"rental_uris":{"android":"levelo://app?vid=87a559a7-a574-4747-80c0-c24c64481962","ios":"levelo://app?vid=87a559a7-a574-4747-80c0-c24c64481962"},"vehicle_type_id":"4","last_reported":1751818267,"current_range_meters":12400,"station_id":"ce4bh692rcd13ifvqea0","pricing_plan_id":"cebpf4jnsgd1na2vs0mg"},{"bike_id":"8722e0e2-3b85-4a55-beac-ba397357bb03","system_id":"levelo_inurba_marseille","lat":43.2573,"lon":5.41108,"is_reserved":false,"is_disabled":false,"rental_uris":{"android":"levelo://app?vid=8722e0e2-3b85-4a55-beac-ba397357bb03","ios":"levelo://app?vid=8722e0e2-3b85-4a55-beac-ba397357bb03"},"vehicle_type_id":"4","last_reported":1751818267,"current_range_meters":12800,"station_id":"ce4bhkp2rcd13ifvqgd0","pricing_plan_id":"cebpf4jnsgd1na2vs0mg"},{"bike_id":"f0f5480c-40ba-4897-b55b-fcab9ada1fbe","system_id":"levelo_inurba_marseille","lat":43.27954,"lon":5.4103,"is_reserved":false,"is_disabled":false,"rental_uris":{"android":"levelo://app?vid=f0f5480c-40ba-4897-b55b-fcab9ada1fbe","ios":"levelo://app?vid=f0f5480c-40ba-4897-b55b-fcab9ada1fbe"},"vehicle_type_id":"4","last_reported":1751818267,"current_range_meters":12800,"station_id":"ce4bhnp2rcd13ifvqh0g","pricing_plan_id":"cebpf4jnsgd1na2vs0mg"},{"bike_id":"aca47642-4ceb-4a40-bae0-66b7f0d6dee2","system_id":"levelo_inurba_marseille","lat":43.22502,"lon":5.34778,"is_reserved":false,"is_disabled":false,"rental_uris":{"android":"levelo://app?vid=aca47642-4ceb-4a40-bae0-66b7f0d6dee2","ios":"levelo://app?vid=aca47642-4ceb-4a40-bae0-66b7f0d6dee2"},"vehicle_type_id":"4","last_reported":1751818267,"current_range_meters":12800,"station_id":"st_cvj5dfep6f1abm77gieg","pricing_plan_id":"cebpf4jnsgd1na2vs0mg"},{"bike_id":"f64b842f-c2a4-419a-a0b7-83d95285d08d","system_id":"levelo_inurba_marseille","lat":43.29535,"lon":5.38544,"is_reserved":false,"is_disabled":false,"rental_uris":{"android":"levelo://app?vid=f64b842f-c2a4-419a-a0b7-83d95285d08d","ios":"levelo://app?vid=f64b842f-c2a4-419a-a0b7-83d95285d08d"},"vehicle_type_id":"4","last_reported":1751818267,"current_range_meters":13600,"station_id":"ce4bgih2rcd13ifvqba0","pricing_plan_id":"cebpf4jnsgd1na2vs0mg"},{"bike_id":"28f537a2-ef56-4e98-bda9-b3b4fa8c9539","system_id":"levelo_inurba_marseille","lat":43.30433,"lon":5.38886,"is_reserved":false,"is_disabled":false,"rental_uris":{"android":"levelo://app?vid=28f537a2-ef56-4e98-bda9-b3b4fa8c9539","ios":"levelo://app?vid=28f537a2-ef56-4e98-bda9-b3b4fa8c9539"},"vehicle_type_id":"4","last_reported":1751818267,"current_range_meters":13600,"station_id":"ce4bgk12rcd13ifvqbi0","pricing_plan_id":"cebpf4jnsgd1na2vs0mg"},{"bike_id":"1baa9e4f-60f7-4b16-8bb4-105147488b2f","system_id":"levelo_inurba_marseille","lat":43.29262,"lon":5.40147,"is_reserved":false,"is_disabled":false,"rental_uris":{"android":"levelo://app?vid=1baa9e4f-60f7-4b16-8bb4-105147488b2f","ios":"levelo://app?vid=1baa9e4f-60f7-4b16-8bb4-105147488b2f"},"vehicle_type_id":"4","last_reported":1751818267,"current_range_meters":13600,"station_id":"ce4bh312rcd13ifvqdk0","pricing_plan_id":"cebpf4jnsgd1na2vs0mg"},{"bike_id":"995329fb-7849-48cb-a16d-285299b964ef","system_id":"levelo_inurba_marseille","lat":43.28671,"lon":5.38677,"is_reserved":false,"is_disabled":false,"rental_uris":{"android":"levelo://app?vid=995329fb-7849-48cb-a16d-285299b964ef","ios":"levelo://app?vid=995329fb-7849-48cb-a16d-285299b964ef"},"vehicle_type_id":"4","last_reported":1751818267,"current_range_meters":13600,"station_id":"ce4bh492rcd13ifvqdug","pricing_plan_id":"cebpf4jnsgd1na2vs0mg"},{"bike_id":"b5f7697c-1651-425b-9e4d-d5929cda941f","system_id":"levelo_inurba_marseille","lat":43.26232,"lon":5.37459,"is_reserved":false,"is_disabled":false,"rental_uris":{"android":"levelo://app?vid=b5f7697c-1651-425b-9e4d-d5929cda941f","ios":"levelo://app?vid=b5f7697c-1651-425b-9e4d-d5929cda941f"},"vehicle_type_id":"4","last_reported":1751818267,"current_range_meters":13600,"station_id":"ce4bhgp2rcd13ifvqfc0","pricing_plan_id":"cebpf4jnsgd1na2vs0mg"},{"bike_id":"a68b5771-feeb-4fa0-bed9-b459775b173a","system_id":"levelo_inurba_marseille","lat":43.2978,"lon":5.39333,"is_reserved":false,"is_disabled":false,"rental_uris":{"android":"levelo://app?vid=a68b5771-feeb-4fa0-bed9-b459775b173a","ios":"levelo://app?vid=a68b5771-feeb-4fa0-bed9-b459775b173a"},"vehicle_type_id":"4","last_reported":1751818267,"current_range_meters":14000,"station_id":"chh1huq6cuj3fo74tm60","pricing_plan_id":"cebpf4jnsgd1na2vs0mg"},{"bike_id":"d0ef1ddc-fd9d-4564-9c4c-7ff79ec5d156","system_id":"levelo_inurba_marseille","lat":43.229286,"lon":5.353774,"is_reserved":false,"is_disabled":false,"rental_uris":{"android":"levelo://app?vid=d0ef1ddc-fd9d-4564-9c4c-7ff79ec5d156","ios":"levelo://app?vid=d0ef1ddc-fd9d-4564-9c4c-7ff79ec5d156"},"vehicle_type_id":"4","last_reported":1751818267,"current_range_meters":14000,"station_id":"cpo3342slgdg3j2ifvpg","pricing_plan_id":"cebpf4jnsgd1na2vs0mg"},{"bike_id":"2be784e8-bd38-49fd-999f-9f3252dd0b34","system_id":"levelo_inurba_marseille","lat":43.30317,"lon":5.4045,"is_reserved":false,"is_disabled":false,"rental_uris":{"android":"levelo://app?vid=2be784e8-bd38-49fd-999f-9f3252dd0b34","ios":"levelo://app?vid=2be784e8-bd38-49fd-999f-9f3252dd0b34"},"vehicle_type_id":"4","last_reported":1751818267,"current_range_meters":14400,"station_id":"ce4bh012rcd13ifvqd10","pricing_plan_id":"cebpf4jnsgd1na2vs0mg"},{"bike_id":"4491453e-16db-4814-8644-bf1c84d219e5","system_id":"levelo_inurba_marseille","lat":43.258653,"lon":5.399025,"is_reserved":false,"is_disabled":false,"rental_uris":{"android":"levelo://app?vid=4491453e-16db-4814-8644-bf1c84d219e5","ios":"levelo://app?vid=4491453e-16db-4814-8644-bf1c84d219e5"},"vehicle_type_id":"4","last_reported":1751818267,"current_range_meters":14400,"station_id":"ce4bhl92rcd13ifvqghg","pricing_plan_id":"cebpf4jnsgd1na2vs0mg"},{"bike_id":"e386f485-197c-419c-93d1-72432cb2d43d","system_id":"levelo_inurba_marseille","lat":43.29065,"lon":5.3718,"is_reserved":false,"is_disabled":false,"rental_uris":{"android":"levelo://app?vid=e386f485-197c-419c-93d1-72432cb2d43d","ios":"levelo://app?vid=e386f485-197c-419c-93d1-72432cb2d43d"},"vehicle_type_id":"4","last_reported":1751818267,"current_range_meters":14800,"station_id":"ce4bh5p2rcd13ifvqe4g","pricing_plan_id":"cebpf4jnsgd1na2vs0mg"},{"bike_id":"76476605-caed-4bab-830d-2e90b50ecc15","system_id":"levelo_inurba_marseille","lat":43.28949,"lon":5.36641,"is_reserved":false,"is_disabled":false,"rental_uris":{"android":"levelo://app?vid=76476605-caed-4bab-830d-2e90b50ecc15","ios":"levelo://app?vid=76476605-caed-4bab-830d-2e90b50ecc15"},"vehicle_type_id":"4","last_reported":1751818267,"current_range_meters":14800,"station_id":"ce4bhap2rcd13ifvqek0","pricing_plan_id":"cebpf4jnsgd1na2vs0mg"},{"bike_id":"2a2bde14-4e1b-45eb-b687-464b1788119a","system_id":"levelo_inurba_marseille","lat":43.273755,"lon":5.362637,"is_reserved":false,"is_disabled":false,"rental_uris":{"android":"levelo://app?vid=2a2bde14-4e1b-45eb-b687-464b1788119a","ios":"levelo://app?vid=2a2bde14-4e1b-45eb-b687-464b1788119a"},"vehicle_type_id":"4","last_reported":1751818267,"current_range_meters":14800,"station_id":"ce4bhbh2rcd13ifvqeo0","pricing_plan_id":"cebpf4jnsgd1na2vs0mg"},{"bike_id":"e113175a-26c2-4709-bd2e-8b90ec8dd3ee","system_id":"levelo_inurba_marseille","lat":43.27507,"lon":5.42476,"is_reserved":false,"is_disabled":false,"rental_uris":{"android":"levelo://app?vid=e113175a-26c2-4709-bd2e-8b90ec8dd3ee","ios":"levelo://app?vid=e113175a-26c2-4709-bd2e-8b90ec8dd3ee"},"vehicle_type_id":"4","last_reported":1751818267,"current_range_meters":14800,"station_id":"ce4bhn92rcd13ifvqgrg","pricing_plan_id":"cebpf4jnsgd1na2vs0mg"},{"bike_id":"5bc4a802-a163-4d82-8d76-d6058d456ad1","system_id":"levelo_inurba_marseille","lat":43.28702,"lon":5.39992,"is_reserved":false,"is_disabled":false,"rental_uris":{"android":"levelo://app?vid=5bc4a802-a163-4d82-8d76-d6058d456ad1","ios":"levelo://app?vid=5bc4a802-a163-4d82-8d76-d6058d456ad1"},"vehicle_type_id":"4","last_reported":1751818267,"current_range_meters":14800,"station_id":"ce4bho92rcd13ifvqh3g","pricing_plan_id":"cebpf4jnsgd1na2vs0mg"},{"bike_id":"bca9c21d-9bea-40cc-a4a9-5da8b2eb1d9b","system_id":"levelo_inurba_marseille","lat":43.30785,"lon":5.37639,"is_reserved":false,"is_disabled":false,"rental_uris":{"android":"levelo://app?vid=bca9c21d-9bea-40cc-a4a9-5da8b2eb1d9b","ios":"levelo://app?vid=bca9c21d-9bea-40cc-a4a9-5da8b2eb1d9b"},"vehicle_type_id":"4","last_reported":1751818267,"current_range_meters":15200,"station_id":"ce4bgv92rcd13ifvqcq0","pricing_plan_id":"cebpf4jnsgd1na2vs0mg"},{"bike_id":"8b946695-f2f3-4e6e-ac9b-25d847c290f8","system_id":"levelo_inurba_marseille","lat":43.32661,"lon":5.40994,"is_reserved":false,"is_disabled":false,"rental_uris":{"android":"levelo://app?vid=8b946695-f2f3-4e6e-ac9b-25d847c290f8","ios":"levelo://app?vid=8b946695-f2f3-4e6e-ac9b-25d847c290f8"},"vehicle_type_id":"4","last_reported":1751818267,"current_range_meters":15200,"station_id":"ce4bhpp2rcd13ifvqhgg","pricing_plan_id":"cebpf4jnsgd1na2vs0mg"},{"bike_id":"9630a2e7-52be-4def-9509-a90ed9077003","system_id":"levelo_inurba_marseille","lat":43.29778,"lon":5.39313,"is_reserved":false,"is_disabled":false,"rental_uris":{"android":"levelo://app?vid=9630a2e7-52be-4def-9509-a90ed9077003","ios":"levelo://app?vid=9630a2e7-52be-4def-9509-a90ed9077003"},"vehicle_type_id":"4","last_reported":1751818267,"current_range_meters":15200,"station_id":"chh1huq6cuj3fo74tm60","pricing_plan_id":"cebpf4jnsgd1na2vs0mg"},{"bike_id":"7b527f00-f6ea-4963-b59d-8da04a2feedb","system_id":"levelo_inurba_marseille","lat":43.32074,"lon":5.40141,"is_reserved":false,"is_disabled":false,"rental_uris":{"android":"levelo://app?vid=7b527f00-f6ea-4963-b59d-8da04a2feedb","ios":"levelo://app?vid=7b527f00-f6ea-4963-b59d-8da04a2feedb"},"vehicle_type_id":"4","last_reported":1751818267,"current_range_meters":16000,"station_id":"","pricing_plan_id":"cebpf4jnsgd1na2vs0mg"},{"bike_id":"1c12da94-d788-4db7-bea9-aa04743baa20","system_id":"levelo_inurba_marseille","lat":43.2623,"lon":5.37426,"is_reserved":false,"is_disabled":false,"rental_uris":{"android":"levelo://app?vid=1c12da94-d788-4db7-bea9-aa04743baa20","ios":"levelo://app?vid=1c12da94-d788-4db7-bea9-aa04743baa20"},"vehicle_type_id":"4","last_reported":1751818267,"current_range_meters":16000,"station_id":"","pricing_plan_id":"cebpf4jnsgd1na2vs0mg"},{"bike_id":"3b22f952-d0bc-4c00-8fd3-7e27b88aea23","system_id":"levelo_inurba_marseille","lat":43.29659,"lon":5.36245,"is_reserved":false,"is_disabled":false,"rental_uris":{"android":"levelo://app?vid=3b22f952-d0bc-4c00-8fd3-7e27b88aea23","ios":"levelo://app?vid=3b22f952-d0bc-4c00-8fd3-7e27b88aea23"},"vehicle_type_id":"4","last_reported":1751818267,"current_range_meters":16000,"station_id":"","pricing_plan_id":"cebpf4jnsgd1na2vs0mg"},{"bike_id":"68fbfdff-aea1-4f80-bb5f-591703803c45","system_id":"levelo_inurba_marseille","lat":43.28442,"lon":5.39183,"is_reserved":false,"is_disabled":false,"rental_uris":{"android":"levelo://app?vid=68fbfdff-aea1-4f80-bb5f-591703803c45","ios":"levelo://app?vid=68fbfdff-aea1-4f80-bb5f-591703803c45"},"vehicle_type_id":"4","last_reported":1751818267,"current_range_meters":16000,"station_id":"ce4bhoh2rcd13ifvqh5g","pricing_plan_id":"cebpf4jnsgd1na2vs0mg"},{"bike_id":"37f2becd-23f9-4f13-a711-38b8024eeec7","system_id":"levelo_inurba_marseille","lat":43.33768,"lon":5.37516,"is_reserved":false,"is_disabled":false,"rental_uris":{"android":"levelo://app?vid=37f2becd-23f9-4f13-a711-38b8024eeec7","ios":"levelo://app?vid=37f2becd-23f9-4f13-a711-38b8024eeec7"},"vehicle_type_id":"4","last_reported":1751818267,"current_range_meters":16400,"station_id":"","pricing_plan_id":"cebpf4jnsgd1na2vs0mg"},{"bike_id":"80955d0f-8669-4c02-b90f-c6fe20790c37","system_id":"levelo_inurba_marseille","lat":43.23221,"lon":5.35068,"is_reserved":false,"is_disabled":false,"rental_uris":{"android":"levelo://app?vid=80955d0f-8669-4c02-b90f-c6fe20790c37","ios":"levelo://app?vid=80955d0f-8669-4c02-b90f-c6fe20790c37"},"vehicle_type_id":"4","last_reported":1751818267,"current_range_meters":16400,"station_id":"","pricing_plan_id":"cebpf4jnsgd1na2vs0mg"},{"bike_id":"799eabc5-b610-4ac4-948e-1f7fde07ea20","system_id":"levelo_inurba_marseille","lat":43.27563,"lon":5.38411,"is_reserved":false,"is_disabled":false,"rental_uris":{"android":"levelo://app?vid=799eabc5-b610-4ac4-948e-1f7fde07ea20","ios":"levelo://app?vid=799eabc5-b610-4ac4-948e-1f7fde07ea20"},"vehicle_type_id":"4","last_reported":1751818267,"current_range_meters":16400,"station_id":"ce4bhh92rcd13ifvqfi0","pricing_plan_id":"cebpf4jnsgd1na2vs0mg"},{"bike_id":"5b3baec4-9769-4d2c-9432-f809d44d23ed","system_id":"levelo_inurba_marseille","lat":43.25116,"lon":5.40312,"is_reserved":false,"is_disabled":false,"rental_uris":{"android":"levelo://app?vid=5b3baec4-9769-4d2c-9432-f809d44d23ed","ios":"levelo://app?vid=5b3baec4-9769-4d2c-9432-f809d44d23ed"},"vehicle_type_id":"4","last_reported":1751818267,"current_range_meters":16400,"station_id":"ce4bhlh2rcd13ifvqgig","pricing_plan_id":"cebpf4jnsgd1na2vs0mg"},{"bike_id":"f658a814-1441-47a0-8738-7d54af2d97a6","system_id":"levelo_inurba_marseille","lat":43.34145,"lon":5.40894,"is_reserved":false,"is_disabled":false,"rental_uris":{"android":"levelo://app?vid=f658a814-1441-47a0-8738-7d54af2d97a6","ios":"levelo://app?vid=f658a814-1441-47a0-8738-7d54af2d97a6"},"vehicle_type_id":"4","last_reported":1751818267,"current_range_meters":16400,"station_id":"ce4bhqh2rcd13ifvqhlg","pricing_plan_id":"cebpf4jnsgd1na2vs0mg"},{"bike_id":"a31d7b1d-f875-4f27-b8f6-640a4ac62493","system_id":"levelo_inurba_marseille","lat":43.33746,"lon":5.39176,"is_reserved":false,"is_disabled":false,"rental_uris":{"android":"levelo://app?vid=a31d7b1d-f875-4f27-b8f6-640a4ac62493","ios":"levelo://app?vid=a31d7b1d-f875-4f27-b8f6-640a4ac62493"},"vehicle_type_id":"4","last_reported":1751818267,"current_range_meters":16400,"station_id":"ce4bhr92rcd13ifvqhsg","pricing_plan_id":"cebpf4jnsgd1na2vs0mg"},{"bike_id":"e8d7fcf5-14a0-430b-a247-ddceafd06b95","system_id":"levelo_inurba_marseille","lat":43.22498,"lon":5.34789,"is_reserved":false,"is_disabled":false,"rental_uris":{"android":"levelo://app?vid=e8d7fcf5-14a0-430b-a247-ddceafd06b95","ios":"levelo://app?vid=e8d7fcf5-14a0-430b-a247-ddceafd06b95"},"vehicle_type_id":"4","last_reported":1751818267,"current_range_meters":16400,"station_id":"st_cvj5dfep6f1abm77gieg","pricing_plan_id":"cebpf4jnsgd1na2vs0mg"},{"bike_id":"7b6120de-7b13-47a6-97f0-486439cc110c","system_id":"levelo_inurba_marseille","lat":43.21754,"lon":5.34605,"is_reserved":false,"is_disabled":false,"rental_uris":{"android":"levelo://app?vid=7b6120de-7b13-47a6-97f0-486439cc110c","ios":"levelo://app?vid=7b6120de-7b13-47a6-97f0-486439cc110c"},"vehicle_type_id":"4","last_reported":1751818267,"current_range_meters":16400,"station_id":"st_cvj6r9ubvosntc0bgbag","pricing_plan_id":"cebpf4jnsgd1na2vs0mg"},{"bike_id":"fbb6eb26-f5ee-4d8b-a185-17f748b796b4","system_id":"levelo_inurba_marseille","lat":43.32306,"lon":5.4401,"is_reserved":false,"is_disabled":false,"rental_uris":{"android":"levelo://app?vid=fbb6eb26-f5ee-4d8b-a185-17f748b796b4","ios":"levelo://app?vid=fbb6eb26-f5ee-4d8b-a185-17f748b796b4"},"vehicle_type_id":"4","last_reported":1751818267,"current_range_meters":16800,"station_id":"","pricing_plan_id":"cebpf4jnsgd1na2vs0mg"},{"bike_id":"d59880eb-2092-400b-b589-5e8026f307fa","system_id":"levelo_inurba_marseille","lat":43.30885,"lon":5.37196,"is_reserved":false,"is_disabled":false,"rental_uris":{"android":"levelo://app?vid=d59880eb-2092-400b-b589-5e8026f307fa","ios":"levelo://app?vid=d59880eb-2092-400b-b589-5e8026f307fa"},"vehicle_type_id":"4","last_reported":1751818267,"current_range_meters":16800,"station_id":"ce4bguh2rcd13ifvqckg","pricing_plan_id":"cebpf4jnsgd1na2vs0mg"},{"bike_id":"6e09e297-445b-4ace-9d77-a11898f7a8ab","system_id":"levelo_inurba_marseille","lat":43.29019,"lon":5.35603,"is_reserved":false,"is_disabled":false,"rental_uris":{"android":"levelo://app?vid=6e09e297-445b-4ace-9d77-a11898f7a8ab","ios":"levelo://app?vid=6e09e297-445b-4ace-9d77-a11898f7a8ab"},"vehicle_type_id":"4","last_reported":1751818267,"current_range_meters":16800,"station_id":"ce4bhb92rcd13ifvqen0","pricing_plan_id":"cebpf4jnsgd1na2vs0mg"},{"bike_id":"94a38e64-8dd8-4e2e-bcd6-3aa7bd281314","system_id":"levelo_inurba_marseille","lat":43.2513,"lon":5.4032,"is_reserved":false,"is_disabled":false,"rental_uris":{"android":"levelo://app?vid=94a38e64-8dd8-4e2e-bcd6-3aa7bd281314","ios":"levelo://app?vid=94a38e64-8dd8-4e2e-bcd6-3aa7bd281314"},"vehicle_type_id":"4","last_reported":1751818267,"current_range_meters":16800,"station_id":"ce4bhlh2rcd13ifvqgig","pricing_plan_id":"cebpf4jnsgd1na2vs0mg"},{"bike_id":"ccc29df5-1113-42b5-b8de-771b9f206409","system_id":"levelo_inurba_marseille","lat":43.262663,"lon":5.374093,"is_reserved":false,"is_disabled":false,"rental_uris":{"android":"levelo://app?vid=ccc29df5-1113-42b5-b8de-771b9f206409","ios":"levelo://app?vid=ccc29df5-1113-42b5-b8de-771b9f206409"},"vehicle_type_id":"4","last_reported":1751818267,"current_range_meters":17200,"station_id":"","pricing_plan_id":"cebpf4jnsgd1na2vs0mg"},{"bike_id":"663d563d-36f1-4cf2-9217-576cc7b3f7c2","system_id":"levelo_inurba_marseille","lat":43.29686,"lon":5.37736,"is_reserved":false,"is_disabled":false,"rental_uris":{"android":"levelo://app?vid=663d563d-36f1-4cf2-9217-576cc7b3f7c2","ios":"levelo://app?vid=663d563d-36f1-4cf2-9217-576cc7b3f7c2"},"vehicle_type_id":"4","last_reported":1751818267,"current_range_meters":17600,"station_id":"","pricing_plan_id":"cebpf4jnsgd1na2vs0mg"},{"bike_id":"c7397c87-5738-4812-9f4b-0d531a6f59f6","system_id":"levelo_inurba_marseille","lat":43.27998,"lon":5.40016,"is_reserved":false,"is_disabled":false,"rental_uris":{"android":"levelo://app?vid=c7397c87-5738-4812-9f4b-0d531a6f59f6","ios":"levelo://app?vid=c7397c87-5738-4812-9f4b-0d531a6f59f6"},"vehicle_type_id":"4","last_reported":1751818267,"current_range_meters":17600,"station_id":"","pricing_plan_id":"cebpf4jnsgd1na2vs0mg"},{"bike_id":"be0c77fb-66b8-4990-95fd-db4f61a4cc47","system_id":"levelo_inurba_marseille","lat":43.30119,"lon":5.39868,"is_reserved":false,"is_disabled":false,"rental_uris":{"android":"levelo://app?vid=be0c77fb-66b8-4990-95fd-db4f61a4cc47","ios":"levelo://app?vid=be0c77fb-66b8-4990-95fd-db4f61a4cc47"},"vehicle_type_id":"4","last_reported":1751818267,"current_range_meters":17600,"station_id":"ce4bh0h2rcd13ifvqd40","pricing_plan_id":"cebpf4jnsgd1na2vs0mg"},{"bike_id":"d934d842-6e8b-4396-b0ab-0bc67f4c9a6a","system_id":"levelo_inurba_marseille","lat":43.25728,"lon":5.4111,"is_reserved":false,"is_disabled":false,"rental_uris":{"android":"levelo://app?vid=d934d842-6e8b-4396-b0ab-0bc67f4c9a6a","ios":"levelo://app?vid=d934d842-6e8b-4396-b0ab-0bc67f4c9a6a"},"vehicle_type_id":"4","last_reported":1751818267,"current_range_meters":17600,"station_id":"ce4bhkp2rcd13ifvqgd0","pricing_plan_id":"cebpf4jnsgd1na2vs0mg"},{"bike_id":"13e73522-903f-424e-a24d-ac279998d396","system_id":"levelo_inurba_marseille","lat":43.229433,"lon":5.354043,"is_reserved":false,"is_disabled":false,"rental_uris":{"android":"levelo://app?vid=13e73522-903f-424e-a24d-ac279998d396","ios":"levelo://app?vid=13e73522-903f-424e-a24d-ac279998d396"},"vehicle_type_id":"4","last_reported":1751818267,"current_range_meters":17600,"station_id":"cpo3532slgdg3j2ikp40","pricing_plan_id":"cebpf4jnsgd1na2vs0mg"},{"bike_id":"e7137259-a8cc-465f-80c9-301193a6bbc3","system_id":"levelo_inurba_marseille","lat":43.21218,"lon":5.3508,"is_reserved":false,"is_disabled":false,"rental_uris":{"android":"levelo://app?vid=e7137259-a8cc-465f-80c9-301193a6bbc3","ios":"levelo://app?vid=e7137259-a8cc-465f-80c9-301193a6bbc3"},"vehicle_type_id":"4","last_reported":1751818267,"current_range_meters":17600,"station_id":"st_cvj6sg6p6f1abm77japg","pricing_plan_id":"cebpf4jnsgd1na2vs0mg"},{"bike_id":"d5ef770d-9759-47e3-b3a5-7d2785ef76db","system_id":"levelo_inurba_marseille","lat":43.32926,"lon":5.39005,"is_reserved":false,"is_disabled":false,"rental_uris":{"android":"levelo://app?vid=d5ef770d-9759-47e3-b3a5-7d2785ef76db","ios":"levelo://app?vid=d5ef770d-9759-47e3-b3a5-7d2785ef76db"},"vehicle_type_id":"4","last_reported":1751818267,"current_range_meters":18000,"station_id":"","pricing_plan_id":"cebpf4jnsgd1na2vs0mg"},{"bike_id":"78c65a7f-d308-40b5-accc-8e6897ac9f8a","system_id":"levelo_inurba_marseille","lat":43.30091,"lon":5.3781,"is_reserved":false,"is_disabled":false,"rental_uris":{"android":"levelo://app?vid=78c65a7f-d308-40b5-accc-8e6897ac9f8a","ios":"levelo://app?vid=78c65a7f-d308-40b5-accc-8e6897ac9f8a"},"vehicle_type_id":"4","last_reported":1751818267,"current_range_meters":18000,"station_id":"","pricing_plan_id":"cebpf4jnsgd1na2vs0mg"},{"bike_id":"5f22506e-f57d-48f1-99cc-23ad0b080983","system_id":"levelo_inurba_marseille","lat":43.270694,"lon":5.422973,"is_reserved":false,"is_disabled":false,"rental_uris":{"android":"levelo://app?vid=5f22506e-f57d-48f1-99cc-23ad0b080983","ios":"levelo://app?vid=5f22506e-f57d-48f1-99cc-23ad0b080983"},"vehicle_type_id":"4","last_reported":1751818267,"current_range_meters":18000,"station_id":"ce4bhk92rcd13ifvqgb0","pricing_plan_id":"cebpf4jnsgd1na2vs0mg"},{"bike_id":"369c8dd5-1813-419d-a4e5-23b99d5734f3","system_id":"levelo_inurba_marseille","lat":43.21187,"lon":5.35072,"is_reserved":false,"is_disabled":false,"rental_uris":{"android":"levelo://app?vid=369c8dd5-1813-419d-a4e5-23b99d5734f3","ios":"levelo://app?vid=369c8dd5-1813-419d-a4e5-23b99d5734f3"},"vehicle_type_id":"4","last_reported":1751818267,"current_range_meters":18000,"station_id":"st_cvj6sg6p6f1abm77japg","pricing_plan_id":"cebpf4jnsgd1na2vs0mg"},{"bike_id":"89e2352f-f58b-4095-8a03-e2b9f796df9d","system_id":"levelo_inurba_marseille","lat":43.30552,"lon":5.36552,"is_reserved":false,"is_disabled":false,"rental_uris":{"android":"levelo://app?vid=89e2352f-f58b-4095-8a03-e2b9f796df9d","ios":"levelo://app?vid=89e2352f-f58b-4095-8a03-e2b9f796df9d"},"vehicle_type_id":"4","last_reported":1751818267,"current_range_meters":18800,"station_id":"ce4bgs12rcd13ifvqcag","pricing_plan_id":"cebpf4jnsgd1na2vs0mg"},{"bike_id":"c57d2f3d-ca54-4b4a-a68c-bc688f209cd7","system_id":"levelo_inurba_marseille","lat":43.30955,"lon":5.39042,"is_reserved":false,"is_disabled":false,"rental_uris":{"android":"levelo://app?vid=c57d2f3d-ca54-4b4a-a68c-bc688f209cd7","ios":"levelo://app?vid=c57d2f3d-ca54-4b4a-a68c-bc688f209cd7"},"vehicle_type_id":"4","last_reported":1751818267,"current_range_meters":18800,"station_id":"ce4bgup2rcd13ifvqco0","pricing_plan_id":"cebpf4jnsgd1na2vs0mg"},{"bike_id":"f6a65f1a-ea23-427f-8d04-22122ef863f2","system_id":"levelo_inurba_marseille","lat":43.30136,"lon":5.39844,"is_reserved":false,"is_disabled":false,"rental_uris":{"android":"levelo://app?vid=f6a65f1a-ea23-427f-8d04-22122ef863f2","ios":"levelo://app?vid=f6a65f1a-ea23-427f-8d04-22122ef863f2"},"vehicle_type_id":"4","last_reported":1751818267,"current_range_meters":18800,"station_id":"ce4bh0h2rcd13ifvqd40","pricing_plan_id":"cebpf4jnsgd1na2vs0mg"},{"bike_id":"e1ff7000-8168-4d30-9a0c-83b06b7bd906","system_id":"levelo_inurba_marseille","lat":43.25732,"lon":5.41069,"is_reserved":false,"is_disabled":false,"rental_uris":{"android":"levelo://app?vid=e1ff7000-8168-4d30-9a0c-83b06b7bd906","ios":"levelo://app?vid=e1ff7000-8168-4d30-9a0c-83b06b7bd906"},"vehicle_type_id":"4","last_reported":1751818267,"current_range_meters":18800,"station_id":"ce4bhkp2rcd13ifvqgd0","pricing_plan_id":"cebpf4jnsgd1na2vs0mg"},{"bike_id":"e7af0a00-6167-4e68-bd0f-3f5a807e7848","system_id":"levelo_inurba_marseille","lat":43.32361,"lon":5.38902,"is_reserved":false,"is_disabled":false,"rental_uris":{"android":"levelo://app?vid=e7af0a00-6167-4e68-bd0f-3f5a807e7848","ios":"levelo://app?vid=e7af0a00-6167-4e68-bd0f-3f5a807e7848"},"vehicle_type_id":"4","last_reported":1751818267,"current_range_meters":18800,"station_id":"ce4bhqp2rcd13ifvqhog","pricing_plan_id":"cebpf4jnsgd1na2vs0mg"},{"bike_id":"f1b84710-6e8a-4f65-9d07-a552d14e079f","system_id":"levelo_inurba_marseille","lat":43.29528,"lon":5.37492,"is_reserved":false,"is_disabled":false,"rental_uris":{"android":"levelo://app?vid=f1b84710-6e8a-4f65-9d07-a552d14e079f","ios":"levelo://app?vid=f1b84710-6e8a-4f65-9d07-a552d14e079f"},"vehicle_type_id":"4","last_reported":1751818267,"current_range_meters":19200,"station_id":"ce4bgkp2rcd13ifvqbmg","pricing_plan_id":"cebpf4jnsgd1na2vs0mg"},{"bike_id":"a97cac17-ea26-469e-9de0-b7cad6f0a551","system_id":"levelo_inurba_marseille","lat":43.3096,"lon":5.39039,"is_reserved":false,"is_disabled":false,"rental_uris":{"android":"levelo://app?vid=a97cac17-ea26-469e-9de0-b7cad6f0a551","ios":"levelo://app?vid=a97cac17-ea26-469e-9de0-b7cad6f0a551"},"vehicle_type_id":"4","last_reported":1751818267,"current_range_meters":19200,"station_id":"ce4bgup2rcd13ifvqco0","pricing_plan_id":"cebpf4jnsgd1na2vs0mg"},{"bike_id":"784668f6-05c7-46b4-a4bd-e0f3e27de30c","system_id":"levelo_inurba_marseille","lat":43.30122,"lon":5.39868,"is_reserved":false,"is_disabled":false,"rental_uris":{"android":"levelo://app?vid=784668f6-05c7-46b4-a4bd-e0f3e27de30c","ios":"levelo://app?vid=784668f6-05c7-46b4-a4bd-e0f3e27de30c"},"vehicle_type_id":"4","last_reported":1751818267,"current_range_meters":19200,"station_id":"ce4bh0h2rcd13ifvqd40","pricing_plan_id":"cebpf4jnsgd1na2vs0mg"},{"bike_id":"1945f61a-ae0f-40be-941c-72255c487d34","system_id":"levelo_inurba_marseille","lat":43.29526,"lon":5.38552,"is_reserved":false,"is_disabled":false,"rental_uris":{"android":"levelo://app?vid=1945f61a-ae0f-40be-941c-72255c487d34","ios":"levelo://app?vid=1945f61a-ae0f-40be-941c-72255c487d34"},"vehicle_type_id":"4","last_reported":1751818267,"current_range_meters":19600,"station_id":"ce4bgih2rcd13ifvqba0","pricing_plan_id":"cebpf4jnsgd1na2vs0mg"},{"bike_id":"3ff0c0bc-88fc-46e7-916f-ae02c3244fbf","system_id":"levelo_inurba_marseille","lat":43.30948,"lon":5.39037,"is_reserved":false,"is_disabled":false,"rental_uris":{"android":"levelo://app?vid=3ff0c0bc-88fc-46e7-916f-ae02c3244fbf","ios":"levelo://app?vid=3ff0c0bc-88fc-46e7-916f-ae02c3244fbf"},"vehicle_type_id":"4","last_reported":1751818267,"current_range_meters":19600,"station_id":"ce4bgup2rcd13ifvqco0","pricing_plan_id":"cebpf4jnsgd1na2vs0mg"},{"bike_id":"1211682f-6223-424b-91bc-70890cfbc64f","system_id":"levelo_inurba_marseille","lat":43.29448,"lon":5.39754,"is_reserved":false,"is_disabled":false,"rental_uris":{"android":"levelo://app?vid=1211682f-6223-424b-91bc-70890cfbc64f","ios":"levelo://app?vid=1211682f-6223-424b-91bc-70890cfbc64f"},"vehicle_type_id":"4","last_reported":1751818267,"current_range_meters":19600,"station_id":"ce4bh3h2rcd13ifvqdo0","pricing_plan_id":"cebpf4jnsgd1na2vs0mg"},{"bike_id":"ba90c538-5bbd-483b-8fba-3fa5c5209ce9","system_id":"levelo_inurba_marseille","lat":43.28105,"lon":5.37844,"is_reserved":false,"is_disabled":false,"rental_uris":{"android":"levelo://app?vid=ba90c538-5bbd-483b-8fba-3fa5c5209ce9","ios":"levelo://app?vid=ba90c538-5bbd-483b-8fba-3fa5c5209ce9"},"vehicle_type_id":"4","last_reported":1751818267,"current_range_meters":19600,"station_id":"ce4bha12rcd13ifvqee0","pricing_plan_id":"cebpf4jnsgd1na2vs0mg"},{"bike_id":"ec3f65cf-8046-4295-9468-2979cb218118","system_id":"levelo_inurba_marseille","lat":43.24681,"lon":5.39359,"is_reserved":false,"is_disabled":false,"rental_uris":{"android":"levelo://app?vid=ec3f65cf-8046-4295-9468-2979cb218118","ios":"levelo://app?vid=ec3f65cf-8046-4295-9468-2979cb218118"},"vehicle_type_id":"4","last_reported":1751818267,"current_range_meters":20000,"station_id":"","pricing_plan_id":"cebpf4jnsgd1na2vs0mg"},{"bike_id":"b85b1c43-2a92-4e8a-888c-f159a903f72d","system_id":"levelo_inurba_marseille","lat":43.27296,"lon":5.41637,"is_reserved":false,"is_disabled":false,"rental_uris":{"android":"levelo://app?vid=b85b1c43-2a92-4e8a-888c-f159a903f72d","ios":"levelo://app?vid=b85b1c43-2a92-4e8a-888c-f159a903f72d"},"vehicle_type_id":"4","last_reported":1751818267,"current_range_meters":20000,"station_id":"","pricing_plan_id":"cebpf4jnsgd1na2vs0mg"},{"bike_id":"d90159d7-59cc-4f5c-a7ff-10770b7ce3d9","system_id":"levelo_inurba_marseille","lat":43.224923,"lon":5.347877,"is_reserved":false,"is_disabled":false,"rental_uris":{"android":"levelo://app?vid=d90159d7-59cc-4f5c-a7ff-10770b7ce3d9","ios":"levelo://app?vid=d90159d7-59cc-4f5c-a7ff-10770b7ce3d9"},"vehicle_type_id":"4","last_reported":1751818267,"current_range_meters":20000,"station_id":"","pricing_plan_id":"cebpf4jnsgd1na2vs0mg"},{"bike_id":"66d7f99a-31b9-4762-b3ea-97d72b97b05d","system_id":"levelo_inurba_marseille","lat":43.29612,"lon":5.37734,"is_reserved":false,"is_disabled":false,"rental_uris":{"android":"levelo://app?vid=66d7f99a-31b9-4762-b3ea-97d72b97b05d","ios":"levelo://app?vid=66d7f99a-31b9-4762-b3ea-97d72b97b05d"},"vehicle_type_id":"4","last_reported":1751818267,"current_range_meters":20000,"station_id":"ce4bgi92rcd13ifvqb90","pricing_plan_id":"cebpf4jnsgd1na2vs0mg"},{"bike_id":"85cb555e-d7e4-4fd8-887b-763a3df2282f","system_id":"levelo_inurba_marseille","lat":43.31684,"lon":5.40472,"is_reserved":false,"is_disabled":false,"rental_uris":{"android":"levelo://app?vid=85cb555e-d7e4-4fd8-887b-763a3df2282f","ios":"levelo://app?vid=85cb555e-d7e4-4fd8-887b-763a3df2282f"},"vehicle_type_id":"4","last_reported":1751818267,"current_range_meters":20000,"station_id":"ce4bh012rcd13ifvqd00","pricing_plan_id":"cebpf4jnsgd1na2vs0mg"},{"bike_id":"6c5b31f4-dddf-495e-957d-3baa883704d9","system_id":"levelo_inurba_marseille","lat":43.28036,"lon":5.36947,"is_reserved":false,"is_disabled":false,"rental_uris":{"android":"levelo://app?vid=6c5b31f4-dddf-495e-957d-3baa883704d9","ios":"levelo://app?vid=6c5b31f4-dddf-495e-957d-3baa883704d9"},"vehicle_type_id":"4","last_reported":1751818267,"current_range_meters":20000,"station_id":"ce4bha12rcd13ifvqef0","pricing_plan_id":"cebpf4jnsgd1na2vs0mg"},{"bike_id":"0ce95632-4154-4bce-a3be-c43d2c582498","system_id":"levelo_inurba_marseille","lat":43.28635,"lon":5.35084,"is_reserved":false,"is_disabled":false,"rental_uris":{"android":"levelo://app?vid=0ce95632-4154-4bce-a3be-c43d2c582498","ios":"levelo://app?vid=0ce95632-4154-4bce-a3be-c43d2c582498"},"vehicle_type_id":"4","last_reported":1751818267,"current_range_meters":20000,"station_id":"ce4bhch2rcd13ifvqeug","pricing_plan_id":"cebpf4jnsgd1na2vs0mg"},{"bike_id":"5ed49339-7408-478a-93e6-a83736aae6bb","system_id":"levelo_inurba_marseille","lat":43.27826,"lon":5.40694,"is_reserved":false,"is_disabled":false,"rental_uris":{"android":"levelo://app?vid=5ed49339-7408-478a-93e6-a83736aae6bb","ios":"levelo://app?vid=5ed49339-7408-478a-93e6-a83736aae6bb"},"vehicle_type_id":"4","last_reported":1751818267,"current_range_meters":20000,"station_id":"ce4bhnh2rcd13ifvqgtg","pricing_plan_id":"cebpf4jnsgd1na2vs0mg"},{"bike_id":"5c919490-8a10-495a-b5dd-11f830bc0556","system_id":"levelo_inurba_marseille","lat":43.295279,"lon":5.385495,"is_reserved":false,"is_disabled":false,"rental_uris":{"android":"levelo://app?vid=5c919490-8a10-495a-b5dd-11f830bc0556","ios":"levelo://app?vid=5c919490-8a10-495a-b5dd-11f830bc0556"},"vehicle_type_id":"4","last_reported":1751818267,"current_range_meters":20400,"station_id":"","pricing_plan_id":"cebpf4jnsgd1na2vs0mg"},{"bike_id":"58aae648-2b49-43c5-9658-8c2b502cf334","system_id":"levelo_inurba_marseille","lat":43.31579,"lon":5.38458,"is_reserved":false,"is_disabled":false,"rental_uris":{"android":"levelo://app?vid=58aae648-2b49-43c5-9658-8c2b502cf334","ios":"levelo://app?vid=58aae648-2b49-43c5-9658-8c2b502cf334"},"vehicle_type_id":"4","last_reported":1751818267,"current_range_meters":20400,"station_id":"","pricing_plan_id":"cebpf4jnsgd1na2vs0mg"},{"bike_id":"2391e652-6c2d-4ab6-b81f-99991720db51","system_id":"levelo_inurba_marseille","lat":43.30314,"lon":5.36902,"is_reserved":false,"is_disabled":false,"rental_uris":{"android":"levelo://app?vid=2391e652-6c2d-4ab6-b81f-99991720db51","ios":"levelo://app?vid=2391e652-6c2d-4ab6-b81f-99991720db51"},"vehicle_type_id":"4","last_reported":1751818267,"current_range_meters":20400,"station_id":"ce4bgqh2rcd13ifvqc5g","pricing_plan_id":"cebpf4jnsgd1na2vs0mg"},{"bike_id":"8f926497-e614-4e3d-bae9-b0b33d1f8d87","system_id":"levelo_inurba_marseille","lat":43.29009,"lon":5.38137,"is_reserved":false,"is_disabled":false,"rental_uris":{"android":"levelo://app?vid=8f926497-e614-4e3d-bae9-b0b33d1f8d87","ios":"levelo://app?vid=8f926497-e614-4e3d-bae9-b0b33d1f8d87"},"vehicle_type_id":"4","last_reported":1751818267,"current_range_meters":20800,"station_id":"ce4bh4p2rcd13ifvqe1g","pricing_plan_id":"cebpf4jnsgd1na2vs0mg"},{"bike_id":"89aed59f-866e-4768-b8b5-54548cd7d320","system_id":"levelo_inurba_marseille","lat":43.22505,"lon":5.34787,"is_reserved":false,"is_disabled":false,"rental_uris":{"android":"levelo://app?vid=89aed59f-866e-4768-b8b5-54548cd7d320","ios":"levelo://app?vid=89aed59f-866e-4768-b8b5-54548cd7d320"},"vehicle_type_id":"4","last_reported":1751818267,"current_range_meters":20800,"station_id":"st_cvj5dfep6f1abm77gieg","pricing_plan_id":"cebpf4jnsgd1na2vs0mg"},{"bike_id":"c9d4b074-a657-42e4-a289-d2302d03c2ca","system_id":"levelo_inurba_marseille","lat":43.287214,"lon":5.432355,"is_reserved":false,"is_disabled":false,"rental_uris":{"android":"levelo://app?vid=c9d4b074-a657-42e4-a289-d2302d03c2ca","ios":"levelo://app?vid=c9d4b074-a657-42e4-a289-d2302d03c2ca"},"vehicle_type_id":"4","last_reported":1751818267,"current_range_meters":21600,"station_id":"","pricing_plan_id":"cebpf4jnsgd1na2vs0mg"},{"bike_id":"d2ec6d02-de39-4249-994f-93ffd22d0012","system_id":"levelo_inurba_marseille","lat":43.27619,"lon":5.36109,"is_reserved":false,"is_disabled":false,"rental_uris":{"android":"levelo://app?vid=d2ec6d02-de39-4249-994f-93ffd22d0012","ios":"levelo://app?vid=d2ec6d02-de39-4249-994f-93ffd22d0012"},"vehicle_type_id":"4","last_reported":1751818267,"current_range_meters":21600,"station_id":"ce4bgj92rcd13ifvqbe0","pricing_plan_id":"cebpf4jnsgd1na2vs0mg"},{"bike_id":"732298f1-412e-40f4-9d6e-4c7f2dfd7d10","system_id":"levelo_inurba_marseille","lat":43.31221,"lon":5.36867,"is_reserved":false,"is_disabled":false,"rental_uris":{"android":"levelo://app?vid=732298f1-412e-40f4-9d6e-4c7f2dfd7d10","ios":"levelo://app?vid=732298f1-412e-40f4-9d6e-4c7f2dfd7d10"},"vehicle_type_id":"4","last_reported":1751818267,"current_range_meters":21600,"station_id":"ce4bgl92rcd13ifvqbq0","pricing_plan_id":"cebpf4jnsgd1na2vs0mg"},{"bike_id":"0dcc04dd-400d-4740-9a59-209d6cef5bb9","system_id":"levelo_inurba_marseille","lat":43.30911,"lon":5.36844,"is_reserved":false,"is_disabled":false,"rental_uris":{"android":"levelo://app?vid=0dcc04dd-400d-4740-9a59-209d6cef5bb9","ios":"levelo://app?vid=0dcc04dd-400d-4740-9a59-209d6cef5bb9"},"vehicle_type_id":"4","last_reported":1751818267,"current_range_meters":21600,"station_id":"ce4bgn92rcd13ifvqbvg","pricing_plan_id":"cebpf4jnsgd1na2vs0mg"},{"bike_id":"d6684d33-5569-4b1a-ae0a-1a215d700dac","system_id":"levelo_inurba_marseille","lat":43.30952,"lon":5.39052,"is_reserved":false,"is_disabled":false,"rental_uris":{"android":"levelo://app?vid=d6684d33-5569-4b1a-ae0a-1a215d700dac","ios":"levelo://app?vid=d6684d33-5569-4b1a-ae0a-1a215d700dac"},"vehicle_type_id":"4","last_reported":1751818267,"current_range_meters":21600,"station_id":"ce4bgup2rcd13ifvqco0","pricing_plan_id":"cebpf4jnsgd1na2vs0mg"},{"bike_id":"0696bc2a-8467-440f-8647-3872c54fee72","system_id":"levelo_inurba_marseille","lat":43.29167,"lon":5.37173,"is_reserved":false,"is_disabled":false,"rental_uris":{"android":"levelo://app?vid=0696bc2a-8467-440f-8647-3872c54fee72","ios":"levelo://app?vid=0696bc2a-8467-440f-8647-3872c54fee72"},"vehicle_type_id":"4","last_reported":1751818267,"current_range_meters":21600,"station_id":"ce4bha92rcd13ifvqeh0","pricing_plan_id":"cebpf4jnsgd1na2vs0mg"},{"bike_id":"08b8f47d-5d0d-4d3e-8bc0-5064f74ec4c1","system_id":"levelo_inurba_marseille","lat":43.28459,"lon":5.35882,"is_reserved":false,"is_disabled":false,"rental_uris":{"android":"levelo://app?vid=08b8f47d-5d0d-4d3e-8bc0-5064f74ec4c1","ios":"levelo://app?vid=08b8f47d-5d0d-4d3e-8bc0-5064f74ec4c1"},"vehicle_type_id":"4","last_reported":1751818267,"current_range_meters":21600,"station_id":"ce4bhah2rcd13ifvqei0","pricing_plan_id":"cebpf4jnsgd1na2vs0mg"},{"bike_id":"6a3a3e65-1839-43d5-b574-3a73e4e32dac","system_id":"levelo_inurba_marseille","lat":43.32321,"lon":5.3887,"is_reserved":false,"is_disabled":false,"rental_uris":{"android":"levelo://app?vid=6a3a3e65-1839-43d5-b574-3a73e4e32dac","ios":"levelo://app?vid=6a3a3e65-1839-43d5-b574-3a73e4e32dac"},"vehicle_type_id":"4","last_reported":1751818267,"current_range_meters":22000,"station_id":"","pricing_plan_id":"cebpf4jnsgd1na2vs0mg"},{"bike_id":"0a26bb49-7d0d-4120-a803-a8ce47f918d6","system_id":"levelo_inurba_marseille","lat":43.30785,"lon":5.37647,"is_reserved":false,"is_disabled":false,"rental_uris":{"android":"levelo://app?vid=0a26bb49-7d0d-4120-a803-a8ce47f918d6","ios":"levelo://app?vid=0a26bb49-7d0d-4120-a803-a8ce47f918d6"},"vehicle_type_id":"4","last_reported":1751818267,"current_range_meters":22000,"station_id":"ce4bgv92rcd13ifvqcq0","pricing_plan_id":"cebpf4jnsgd1na2vs0mg"},{"bike_id":"f8d64090-fc25-4070-b417-ac06668dee4f","system_id":"levelo_inurba_marseille","lat":43.29867,"lon":5.39733,"is_reserved":false,"is_disabled":false,"rental_uris":{"android":"levelo://app?vid=f8d64090-fc25-4070-b417-ac06668dee4f","ios":"levelo://app?vid=f8d64090-fc25-4070-b417-ac06668dee4f"},"vehicle_type_id":"4","last_reported":1751818267,"current_range_meters":22000,"station_id":"ce4bh0h2rcd13ifvqd50","pricing_plan_id":"cebpf4jnsgd1na2vs0mg"},{"bike_id":"d2cdccef-dff6-4fac-b0f7-c9018d1b2b9a","system_id":"levelo_inurba_marseille","lat":43.30427,"lon":5.41281,"is_reserved":false,"is_disabled":false,"rental_uris":{"android":"levelo://app?vid=d2cdccef-dff6-4fac-b0f7-c9018d1b2b9a","ios":"levelo://app?vid=d2cdccef-dff6-4fac-b0f7-c9018d1b2b9a"},"vehicle_type_id":"4","last_reported":1751818267,"current_range_meters":22000,"station_id":"ce4bhop2rcd13ifvqh8g","pricing_plan_id":"cebpf4jnsgd1na2vs0mg"},{"bike_id":"c2fb0d5f-790f-46eb-ae9e-e6015526241b","system_id":"levelo_inurba_marseille","lat":43.21195,"lon":5.35086,"is_reserved":false,"is_disabled":false,"rental_uris":{"android":"levelo://app?vid=c2fb0d5f-790f-46eb-ae9e-e6015526241b","ios":"levelo://app?vid=c2fb0d5f-790f-46eb-ae9e-e6015526241b"},"vehicle_type_id":"4","last_reported":1751818267,"current_range_meters":22000,"station_id":"st_cvj6sg6p6f1abm77japg","pricing_plan_id":"cebpf4jnsgd1na2vs0mg"},{"bike_id":"f58ee066-18f8-4707-847a-df6d62722327","system_id":"levelo_inurba_marseille","lat":43.309401,"lon":5.390524,"is_reserved":false,"is_disabled":false,"rental_uris":{"android":"levelo://app?vid=f58ee066-18f8-4707-847a-df6d62722327","ios":"levelo://app?vid=f58ee066-18f8-4707-847a-df6d62722327"},"vehicle_type_id":"4","last_reported":1751818267,"current_range_meters":22400,"station_id":"ce4bgup2rcd13ifvqco0","pricing_plan_id":"cebpf4jnsgd1na2vs0mg"},{"bike_id":"87920946-536b-442d-b1e2-8560261916aa","system_id":"levelo_inurba_marseille","lat":43.28627,"lon":5.3511,"is_reserved":false,"is_disabled":false,"rental_uris":{"android":"levelo://app?vid=87920946-536b-442d-b1e2-8560261916aa","ios":"levelo://app?vid=87920946-536b-442d-b1e2-8560261916aa"},"vehicle_type_id":"4","last_reported":1751818267,"current_range_meters":22400,"station_id":"ce4bhch2rcd13ifvqeug","pricing_plan_id":"cebpf4jnsgd1na2vs0mg"},{"bike_id":"fa795352-c052-46d7-b8a1-7eb43b872aad","system_id":"levelo_inurba_marseille","lat":43.26172,"lon":5.37506,"is_reserved":false,"is_disabled":false,"rental_uris":{"android":"levelo://app?vid=fa795352-c052-46d7-b8a1-7eb43b872aad","ios":"levelo://app?vid=fa795352-c052-46d7-b8a1-7eb43b872aad"},"vehicle_type_id":"4","last_reported":1751818267,"current_range_meters":22400,"station_id":"ce4bhgp2rcd13ifvqfc0","pricing_plan_id":"cebpf4jnsgd1na2vs0mg"},{"bike_id":"b0d55032-6351-4ef8-a430-58335ed08aaf","system_id":"levelo_inurba_marseille","lat":43.262255,"lon":5.404451,"is_reserved":false,"is_disabled":false,"rental_uris":{"android":"levelo://app?vid=b0d55032-6351-4ef8-a430-58335ed08aaf","ios":"levelo://app?vid=b0d55032-6351-4ef8-a430-58335ed08aaf"},"vehicle_type_id":"4","last_reported":1751818267,"current_range_meters":22400,"station_id":"ce4bhmh2rcd13ifvqgmg","pricing_plan_id":"cebpf4jnsgd1na2vs0mg"},{"bike_id":"6fe224a1-e28a-4dd4-ac0b-e0b679fa313b","system_id":"levelo_inurba_marseille","lat":43.29905,"lon":5.43688,"is_reserved":false,"is_disabled":false,"rental_uris":{"android":"levelo://app?vid=6fe224a1-e28a-4dd4-ac0b-e0b679fa313b","ios":"levelo://app?vid=6fe224a1-e28a-4dd4-ac0b-e0b679fa313b"},"vehicle_type_id":"4","last_reported":1751818267,"current_range_meters":22400,"station_id":"ce4bhpp2rcd13ifvqhfg","pricing_plan_id":"cebpf4jnsgd1na2vs0mg"},{"bike_id":"8f03969b-3e6d-45a2-920d-cd715a38fc69","system_id":"levelo_inurba_marseille","lat":43.211912,"lon":5.35082,"is_reserved":false,"is_disabled":false,"rental_uris":{"android":"levelo://app?vid=8f03969b-3e6d-45a2-920d-cd715a38fc69","ios":"levelo://app?vid=8f03969b-3e6d-45a2-920d-cd715a38fc69"},"vehicle_type_id":"4","last_reported":1751818267,"current_range_meters":22400,"station_id":"st_cvj6sg6p6f1abm77japg","pricing_plan_id":"cebpf4jnsgd1na2vs0mg"},{"bike_id":"9bfc7d3d-4e60-4f8a-9c32-ef3d0e77ec5b","system_id":"levelo_inurba_marseille","lat":43.21198,"lon":5.35083,"is_reserved":false,"is_disabled":false,"rental_uris":{"android":"levelo://app?vid=9bfc7d3d-4e60-4f8a-9c32-ef3d0e77ec5b","ios":"levelo://app?vid=9bfc7d3d-4e60-4f8a-9c32-ef3d0e77ec5b"},"vehicle_type_id":"4","last_reported":1751818267,"current_range_meters":22400,"station_id":"st_cvj6sg6p6f1abm77japg","pricing_plan_id":"cebpf4jnsgd1na2vs0mg"},{"bike_id":"5a66d250-2a08-40f3-826e-ff3217e04cec","system_id":"levelo_inurba_marseille","lat":43.26824,"lon":5.41118,"is_reserved":false,"is_disabled":false,"rental_uris":{"android":"levelo://app?vid=5a66d250-2a08-40f3-826e-ff3217e04cec","ios":"levelo://app?vid=5a66d250-2a08-40f3-826e-ff3217e04cec"},"vehicle_type_id":"4","last_reported":1751818267,"current_range_meters":22800,"station_id":"","pricing_plan_id":"cebpf4jnsgd1na2vs0mg"},{"bike_id":"7c950583-8bac-4742-862c-e657874b2760","system_id":"levelo_inurba_marseille","lat":43.323427,"lon":5.406243,"is_reserved":false,"is_disabled":false,"rental_uris":{"android":"levelo://app?vid=7c950583-8bac-4742-862c-e657874b2760","ios":"levelo://app?vid=7c950583-8bac-4742-862c-e657874b2760"},"vehicle_type_id":"4","last_reported":1751818267,"current_range_meters":22800,"station_id":"ce4bhq92rcd13ifvqhjg","pricing_plan_id":"cebpf4jnsgd1na2vs0mg"},{"bike_id":"87c2d236-4978-4760-be77-27d7f5a212e4","system_id":"levelo_inurba_marseille","lat":43.29644,"lon":5.36205,"is_reserved":false,"is_disabled":false,"rental_uris":{"android":"levelo://app?vid=87c2d236-4978-4760-be77-27d7f5a212e4","ios":"levelo://app?vid=87c2d236-4978-4760-be77-27d7f5a212e4"},"vehicle_type_id":"4","last_reported":1751818267,"current_range_meters":23200,"station_id":"","pricing_plan_id":"cebpf4jnsgd1na2vs0mg"},{"bike_id":"1eda2743-96fc-4943-902a-6a4cac356143","system_id":"levelo_inurba_marseille","lat":43.30425,"lon":5.38895,"is_reserved":false,"is_disabled":false,"rental_uris":{"android":"levelo://app?vid=1eda2743-96fc-4943-902a-6a4cac356143","ios":"levelo://app?vid=1eda2743-96fc-4943-902a-6a4cac356143"},"vehicle_type_id":"4","last_reported":1751818267,"current_range_meters":23200,"station_id":"ce4bgk12rcd13ifvqbi0","pricing_plan_id":"cebpf4jnsgd1na2vs0mg"},{"bike_id":"0984473e-59cf-4f12-a598-7b378699d33a","system_id":"levelo_inurba_marseille","lat":43.28629,"lon":5.35105,"is_reserved":false,"is_disabled":false,"rental_uris":{"android":"levelo://app?vid=0984473e-59cf-4f12-a598-7b378699d33a","ios":"levelo://app?vid=0984473e-59cf-4f12-a598-7b378699d33a"},"vehicle_type_id":"4","last_reported":1751818267,"current_range_meters":23200,"station_id":"ce4bhch2rcd13ifvqeug","pricing_plan_id":"cebpf4jnsgd1na2vs0mg"},{"bike_id":"93a35d15-5468-4450-82ae-fa416818f1e6","system_id":"levelo_inurba_marseille","lat":43.27837,"lon":5.39218,"is_reserved":false,"is_disabled":false,"rental_uris":{"android":"levelo://app?vid=93a35d15-5468-4450-82ae-fa416818f1e6","ios":"levelo://app?vid=93a35d15-5468-4450-82ae-fa416818f1e6"},"vehicle_type_id":"4","last_reported":1751818267,"current_range_meters":23200,"station_id":"ce4bhjp2rcd13ifvqga0","pricing_plan_id":"cebpf4jnsgd1na2vs0mg"},{"bike_id":"8054f38b-e5f9-4c48-bd64-dfa11b7866e7","system_id":"levelo_inurba_marseille","lat":43.29893,"lon":5.43683,"is_reserved":false,"is_disabled":false,"rental_uris":{"android":"levelo://app?vid=8054f38b-e5f9-4c48-bd64-dfa11b7866e7","ios":"levelo://app?vid=8054f38b-e5f9-4c48-bd64-dfa11b7866e7"},"vehicle_type_id":"4","last_reported":1751818267,"current_range_meters":23200,"station_id":"ce4bhpp2rcd13ifvqhfg","pricing_plan_id":"cebpf4jnsgd1na2vs0mg"},{"bike_id":"51890362-46b0-4ee7-9f02-afbf036d064e","system_id":"levelo_inurba_marseille","lat":43.21195,"lon":5.35088,"is_reserved":false,"is_disabled":false,"rental_uris":{"android":"levelo://app?vid=51890362-46b0-4ee7-9f02-afbf036d064e","ios":"levelo://app?vid=51890362-46b0-4ee7-9f02-afbf036d064e"},"vehicle_type_id":"4","last_reported":1751818267,"current_range_meters":23200,"station_id":"st_cvj6sg6p6f1abm77japg","pricing_plan_id":"cebpf4jnsgd1na2vs0mg"},{"bike_id":"eee11ad8-fb01-4e1a-97f5-9b869342d505","system_id":"levelo_inurba_marseille","lat":43.225067,"lon":5.347894,"is_reserved":false,"is_disabled":false,"rental_uris":{"android":"levelo://app?vid=eee11ad8-fb01-4e1a-97f5-9b869342d505","ios":"levelo://app?vid=eee11ad8-fb01-4e1a-97f5-9b869342d505"},"vehicle_type_id":"4","last_reported":1751818267,"current_range_meters":24000,"station_id":"","pricing_plan_id":"cebpf4jnsgd1na2vs0mg"},{"bike_id":"b797b19e-cf36-468a-a1a7-1a8b6916aa95","system_id":"levelo_inurba_marseille","lat":43.29531,"lon":5.38545,"is_reserved":false,"is_disabled":false,"rental_uris":{"android":"levelo://app?vid=b797b19e-cf36-468a-a1a7-1a8b6916aa95","ios":"levelo://app?vid=b797b19e-cf36-468a-a1a7-1a8b6916aa95"},"vehicle_type_id":"4","last_reported":1751818267,"current_range_meters":24000,"station_id":"ce4bgih2rcd13ifvqba0","pricing_plan_id":"cebpf4jnsgd1na2vs0mg"},{"bike_id":"98dffb5a-2fa5-405e-8484-30cfc80d57dd","system_id":"levelo_inurba_marseille","lat":43.29966,"lon":5.38493,"is_reserved":false,"is_disabled":false,"rental_uris":{"android":"levelo://app?vid=98dffb5a-2fa5-405e-8484-30cfc80d57dd","ios":"levelo://app?vid=98dffb5a-2fa5-405e-8484-30cfc80d57dd"},"vehicle_type_id":"4","last_reported":1751818267,"current_range_meters":24000,"station_id":"ce4bgj92rcd13ifvqbd0","pricing_plan_id":"cebpf4jnsgd1na2vs0mg"},{"bike_id":"bc0a2413-c01d-4942-885c-64fb6246a36f","system_id":"levelo_inurba_marseille","lat":43.30949,"lon":5.39036,"is_reserved":false,"is_disabled":false,"rental_uris":{"android":"levelo://app?vid=bc0a2413-c01d-4942-885c-64fb6246a36f","ios":"levelo://app?vid=bc0a2413-c01d-4942-885c-64fb6246a36f"},"vehicle_type_id":"4","last_reported":1751818267,"current_range_meters":24000,"station_id":"ce4bgup2rcd13ifvqco0","pricing_plan_id":"cebpf4jnsgd1na2vs0mg"},{"bike_id":"007238a3-f023-49fa-803e-2e405300cf90","system_id":"levelo_inurba_marseille","lat":43.28695,"lon":5.37396,"is_reserved":false,"is_disabled":false,"rental_uris":{"android":"levelo://app?vid=007238a3-f023-49fa-803e-2e405300cf90","ios":"levelo://app?vid=007238a3-f023-49fa-803e-2e405300cf90"},"vehicle_type_id":"4","last_reported":1751818267,"current_range_meters":24000,"station_id":"ce4bh3p2rcd13ifvqdq0","pricing_plan_id":"cebpf4jnsgd1na2vs0mg"},{"bike_id":"9f679fd0-95bc-4af0-9ce5-6505b81292e8","system_id":"levelo_inurba_marseille","lat":43.28942,"lon":5.36444,"is_reserved":false,"is_disabled":false,"rental_uris":{"android":"levelo://app?vid=9f679fd0-95bc-4af0-9ce5-6505b81292e8","ios":"levelo://app?vid=9f679fd0-95bc-4af0-9ce5-6505b81292e8"},"vehicle_type_id":"4","last_reported":1751818267,"current_range_meters":24000,"station_id":"ce4bhc92rcd13ifvqetg","pricing_plan_id":"cebpf4jnsgd1na2vs0mg"},{"bike_id":"28312ae1-ced9-4b11-888a-0a8bee609339","system_id":"levelo_inurba_marseille","lat":43.26214,"lon":5.37453,"is_reserved":false,"is_disabled":false,"rental_uris":{"android":"levelo://app?vid=28312ae1-ced9-4b11-888a-0a8bee609339","ios":"levelo://app?vid=28312ae1-ced9-4b11-888a-0a8bee609339"},"vehicle_type_id":"4","last_reported":1751818267,"current_range_meters":24000,"station_id":"ce4bhgp2rcd13ifvqfc0","pricing_plan_id":"cebpf4jnsgd1na2vs0mg"},{"bike_id":"77618724-5e01-4eec-ae66-bf33a0aefe0a","system_id":"levelo_inurba_marseille","lat":43.25578,"lon":5.38242,"is_reserved":false,"is_disabled":false,"rental_uris":{"android":"levelo://app?vid=77618724-5e01-4eec-ae66-bf33a0aefe0a","ios":"levelo://app?vid=77618724-5e01-4eec-ae66-bf33a0aefe0a"},"vehicle_type_id":"4","last_reported":1751818267,"current_range_meters":24000,"station_id":"ce4bhih2rcd13ifvqfs0","pricing_plan_id":"cebpf4jnsgd1na2vs0mg"},{"bike_id":"7d581e07-807e-4e51-922b-da8101f63096","system_id":"levelo_inurba_marseille","lat":43.27072,"lon":5.42275,"is_reserved":false,"is_disabled":false,"rental_uris":{"android":"levelo://app?vid=7d581e07-807e-4e51-922b-da8101f63096","ios":"levelo://app?vid=7d581e07-807e-4e51-922b-da8101f63096"},"vehicle_type_id":"4","last_reported":1751818267,"current_range_meters":24000,"station_id":"ce4bhk92rcd13ifvqgb0","pricing_plan_id":"cebpf4jnsgd1na2vs0mg"},{"bike_id":"a80ce6e7-b496-431b-bbc3-e3a41c66bc81","system_id":"levelo_inurba_marseille","lat":43.26213,"lon":5.40451,"is_reserved":false,"is_disabled":false,"rental_uris":{"android":"levelo://app?vid=a80ce6e7-b496-431b-bbc3-e3a41c66bc81","ios":"levelo://app?vid=a80ce6e7-b496-431b-bbc3-e3a41c66bc81"},"vehicle_type_id":"4","last_reported":1751818267,"current_range_meters":24000,"station_id":"ce4bhmh2rcd13ifvqgmg","pricing_plan_id":"cebpf4jnsgd1na2vs0mg"},{"bike_id":"da5466a5-d01e-45ee-9f4a-b8b1a2d2041c","system_id":"levelo_inurba_marseille","lat":43.29901,"lon":5.43665,"is_reserved":false,"is_disabled":false,"rental_uris":{"android":"levelo://app?vid=da5466a5-d01e-45ee-9f4a-b8b1a2d2041c","ios":"levelo://app?vid=da5466a5-d01e-45ee-9f4a-b8b1a2d2041c"},"vehicle_type_id":"4","last_reported":1751818267,"current_range_meters":24000,"station_id":"ce4bhpp2rcd13ifvqhfg","pricing_plan_id":"cebpf4jnsgd1na2vs0mg"},{"bike_id":"084f14d4-0bc9-446c-902e-a4f3b90135fe","system_id":"levelo_inurba_marseille","lat":43.32437,"lon":5.42864,"is_reserved":false,"is_disabled":false,"rental_uris":{"android":"levelo://app?vid=084f14d4-0bc9-446c-902e-a4f3b90135fe","ios":"levelo://app?vid=084f14d4-0bc9-446c-902e-a4f3b90135fe"},"vehicle_type_id":"4","last_reported":1751818267,"current_range_meters":24400,"station_id":"","pricing_plan_id":"cebpf4jnsgd1na2vs0mg"},{"bike_id":"a6f55a47-ad27-4cc5-8fad-1745b743c690","system_id":"levelo_inurba_marseille","lat":43.31352,"lon":5.38474,"is_reserved":false,"is_disabled":false,"rental_uris":{"android":"levelo://app?vid=a6f55a47-ad27-4cc5-8fad-1745b743c690","ios":"levelo://app?vid=a6f55a47-ad27-4cc5-8fad-1745b743c690"},"vehicle_type_id":"4","last_reported":1751818267,"current_range_meters":24400,"station_id":"ce4bgt92rcd13ifvqcf0","pricing_plan_id":"cebpf4jnsgd1na2vs0mg"},