{"last_updated":1717178995,"ttl":30,"version":"2.2","data":{"bikes":[{"bike_id":"6afa30cf-e72d-4190-8d28-1eb2ba85acc6","system_id":"levelo_inurba_marseille","lat":43.312239,"lon":5.368562,"is_reserved":false,"is_disabled":false,"rental_uris":{"android":"levelo://app?vid=6afa30cf-e72d-4190-8d28-1eb2ba85acc6","ios":"levelo://app?vid=6afa30cf-e72d-4190-8d28-1eb2ba85acc6"},"vehicle_type_id":"4","last_reported":1717178996,"current_range_meters":23600,"station_id":"ce4bgl92rcd13ifvqbq0","pricing_plan_id":"cebpf4jnsgd1na2vs0mg"},{"bike_id":"c45efa52-5aff-4ed6-83e1-c4e4aaf64d80","system_id":"levelo_inurba_marseille","lat":43.312239,"lon":5.368562,"is_reserved":false,"is_disabled":false,"rental_uris":{"android":"levelo://app?vid=c45efa52-5aff-4ed6-83e1-c4e4aaf64d80","ios":"levelo://app?vid=c45efa52-5aff-4ed6-83e1-c4e4aaf64d80"},"vehicle_type_id":"4","last_reported":1717178996,"current_range_meters":9200,"station_id":"ce4bgl92rcd13ifvqbq0","pricing_plan_id":"cebpf4jnsgd1na2vs0mg"},{"bike_id":"90471b79-9291-43c2-9c76-b8b58a8e68b6","system_id":"levelo_inurba_marseille","lat":43.309076,"lon":5.368465,"is_reserved":false,"is_disabled":false,"rental_uris":{"android":"levelo://app?vid=90471b79-9291-43c2-9c76-b8b58a8e68b6","ios":"levelo://app?vid=90471b79-9291-43c2-9c76-b8b58a8e68b6"},"vehicle_type_id":"4","last_reported":1717178996,"current_range_meters":0,"station_id":"ce4bgn92rcd13ifvqbvg","pricing_plan_id":"cebpf4jnsgd1na2vs0mg"},{"bike_id":"f71df7c3-033a-4ffe-9ea9-d08212eefd74","system_id":"levelo_inurba_marseille","lat":43.309076,"lon":5.368465,"is_reserved":false,"is_disabled":false,"rental_uris":{"android":"levelo://app?vid=f71df7c3-033a-4ffe-9ea9-d08212eefd74","ios":"levelo://app?vid=f71df7c3-033a-4ffe-9ea9-d08212eefd74"},"vehicle_type_id":"4","last_reported":1717178996,"current_range_meters":24000,"station_id":"ce4bgn92rcd13ifvqbvg","pricing_plan_id":"cebpf4jnsgd1na2vs0mg"},{"bike_id":"4dbe1fbb-9a0e-4a6a-b8c6-2c863a040be2","system_id":"levelo_inurba_marseille","lat":43.309076,"lon":5.368465,"is_reserved":false,"is_disabled":false,"rental_uris":{"android":"levelo://app?vid=4dbe1fbb-9a0e-4a6a-b8c6-2c863a040be2","ios":"levelo://app?vid=4dbe1fbb-9a0e-4a6a-b8c6-2c863a040be2"},"vehicle_type_id":"4","last_reported":1717178996,"current_range_meters":0,"station_id":"ce4bgn92rcd13ifvqbvg","pricing_plan_id":"cebpf4jnsgd1na2vs0mg"},{"bike_id":"e1f089a5-1d9f-4d58-a595-af652408d236","system_id":"levelo_inurba_marseille","lat":43.309076,"lon":5.368465,"is_reserved":false,"is_disabled":false,"rental_uris":{"android":"levelo://app?vid=e1f089a5-1d9f-4d58-a595-af652408d236","ios":"levelo://app?vid=e1f089a5-1d9f-4d58-a595-af652408d236"},"vehicle_type_id":"4","last_reported":1717178996,"current_range_meters":4800,"station_id":"ce4bgn92rcd13ifvqbvg","pricing_plan_id":"cebpf4jnsgd1na2vs0mg"},{"bike_id":"4f16e35b-12e2-4a4e-8d35-150fd4dfc3b9","system_id":"levelo_inurba_marseille","lat":43.309076,"lon":5.368465,"is_reserved":false,"is_disabled":false,"rental_uris":{"android":"levelo://app?vid=4f16e35b-12e2-4a4e-8d35-150fd4dfc3b9","ios":"levelo://app?vid=4f16e35b-12e2-4a4e-8d35-150fd4dfc3b9"},"vehicle_type_id":"4","last_reported":1717178996,"current_range_meters":7600,"station_id":"ce4bgn92rcd13ifvqbvg","pricing_plan_id":"cebpf4jnsgd1na2vs0mg"},{"bike_id":"932f5495-0237-4979-9906-4a7ded2c8991","system_id":"levelo_inurba_marseille","lat":43.309076,"lon":5.368465,"is_reserved":false,"is_disabled":false,"rental_uris":{"android":"levelo://app?vid=932f5495-0237-4979-9906-4a7ded2c8991","ios":"levelo://app?vid=932f5495-0237-4979-9906-4a7ded2c8991"},"vehicle_type_id":"4","last_reported":1717178996,"current_range_meters":13200,"station_id":"ce4bgn92rcd13ifvqbvg","pricing_plan_id":"cebpf4jnsgd1na2vs0mg"},{"bike_id":"91e2766b-a874-4ef7-9f52-fdb746ae34aa","system_id":"levelo_inurba_marseille","lat":43.309076,"lon":5.368465,"is_reserved":false,"is_disabled":false,"rental_uris":{"android":"levelo://app?vid=91e2766b-a874-4ef7-9f52-fdb746ae34aa","ios":"levelo://app?vid=91e2766b-a874-4ef7-9f52-fdb746ae34aa"},"vehicle_type_id":"4","last_reported":1717178996,"current_range_meters":16000,"station_id":"ce4bgn92rcd13ifvqbvg","pricing_plan_id":"cebpf4jnsgd1na2vs0mg"},{"bike_id":"1c929038-1c58-4ede-acdf-5b16f306731c","system_id":"levelo_inurba_marseille","lat":43.309076,"lon":5.368465,"is_reserved":false,"is_disabled":false,"rental_uris":{"android":"levelo://app?vid=1c929038-1c58-4ede-acdf-5b16f306731c","ios":"levelo://app?vid=1c929038-1c58-4ede-acdf-5b16f306731c"},"vehicle_type_id":"4","last_reported":1717178996,"current_range_meters":6800,"station_id":"ce4bgn92rcd13ifvqbvg","pricing_plan_id":"cebpf4jnsgd1na2vs0mg"},{"bike_id":"ad130866-82d0-441e-b637-75948a22d73e","system_id":"levelo_inurba_marseille","lat":43.309076,"lon":5.368465,"is_reserved":false,"is_disabled":false,"rental_uris":{"android":"levelo://app?vid=ad130866-82d0-441e-b637-75948a22d73e","ios":"levelo://app?vid=ad130866-82d0-441e-b637-75948a22d73e"},"vehicle_type_id":"4","last_reported":1717178996,"current_range_meters":10000,"station_id":"ce4bgn92rcd13ifvqbvg","pricing_plan_id":"cebpf4jnsgd1na2vs0mg"},{"bike_id":"cd14222a-28fe-4a26-8b63-c07a0e075163","system_id":"levelo_inurba_marseille","lat":43.309076,"lon":5.368465,"is_reserved":false,"is_disabled":false,"rental_uris":{"android":"levelo://app?vid=cd14222a-28fe-4a26-8b63-c07a0e075163","ios":"levelo://app?vid=cd14222a-28fe-4a26-8b63-c07a0e075163"},"vehicle_type_id":"4","last_reported":1717178996,"current_range_meters":14400,"station_id":"ce4bgn92rcd13ifvqbvg","pricing_plan_id":"cebpf4jnsgd1na2vs0mg"},{"bike_id":"19658e2d-4655-4e7e-a1a4-27f4e9a4081b","system_id":"levelo_inurba_marseille","lat":43.309076,"lon":5.368465,"is_reserved":false,"is_disabled":false,"rental_uris":{"android":"levelo://app?vid=19658e2d-4655-4e7e-a1a4-27f4e9a4081b","ios":"levelo://app?vid=19658e2d-4655-4e7e-a1a4-27f4e9a4081b"},"vehicle_type_id":"4","last_reported":1717178996,"current_range_meters":10000,"station_id":"ce4bgn92rcd13ifvqbvg","pricing_plan_id":"cebpf4jnsgd1na2vs0mg"},{"bike_id":"a2b1e035-c5ff-443c-bb68-8146e1c97b04","system_id":"levelo_inurba_marseille","lat":43.314811,"lon":5.373103,"is_reserved":false,"is_disabled":false,"rental_uris":{"android":"levelo://app?vid=a2b1e035-c5ff-443c-bb68-8146e1c97b04","ios":"levelo://app?vid=a2b1e035-c5ff-443c-bb68-8146e1c97b04"},"vehicle_type_id":"4","last_reported":1717178996,"current_range_meters":0,"station_id":"ce4bgt12rcd13ifvqcd0","pricing_plan_id":"cebpf4jnsgd1na2vs0mg"},{"bike_id":"6935efa9-93f9-42a4-8d6c-2967c85009c5","system_id":"levelo_inurba_marseille","lat":43.314885,"lon":5.373065,"is_reserved":false,"is_disabled":false,"rental_uris":{"android":"levelo://app?vid=6935efa9-93f9-42a4-8d6c-2967c85009c5","ios":"levelo://app?vid=6935efa9-93f9-42a4-8d6c-2967c85009c5"},"vehicle_type_id":"4","last_reported":1717178996,"current_range_meters":0,"station_id":"ce4bgt12rcd13ifvqcd0","pricing_plan_id":"cebpf4jnsgd1na2vs0mg"},{"bike_id":"9d977f11-2003-4e8d-8bc3-6e91a0f239ab","system_id":"levelo_inurba_marseille","lat":43.31409,"lon":5.37374,"is_reserved":false,"is_disabled":false,"rental_uris":{"android":"levelo://app?vid=9d977f11-2003-4e8d-8bc3-6e91a0f239ab","ios":"levelo://app?vid=9d977f11-2003-4e8d-8bc3-6e91a0f239ab"},"vehicle_type_id":"4","last_reported":1717178996,"current_range_meters":4000,"station_id":"","pricing_plan_id":"cebpf4jnsgd1na2vs0mg"},{"bike_id":"7baa6c80-c883-42a9-bf94-48af49ed78cc","system_id":"levelo_inurba_marseille","lat":43.31433,"lon":5.37374,"is_reserved":false,"is_disabled":false,"rental_uris":{"android":"levelo://app?vid=7baa6c80-c883-42a9-bf94-48af49ed78cc","ios":"levelo://app?vid=7baa6c80-c883-42a9-bf94-48af49ed78cc"},"vehicle_type_id":"4","last_reported":1717178996,"current_range_meters":16000,"station_id":"","pricing_plan_id":"cebpf4jnsgd1na2vs0mg"},{"bike_id":"eb0b0883-2630-4392-8210-627ff02891a1","system_id":"levelo_inurba_marseille","lat":43.309039,"lon":5.371797,"is_reserved":false,"is_disabled":false,"rental_uris":{"android":"levelo://app?vid=eb0b0883-2630-4392-8210-627ff02891a1","ios":"levelo://app?vid=eb0b0883-2630-4392-8210-627ff02891a1"},"vehicle_type_id":"4","last_reported":1717178996,"current_range_meters":2800,"station_id":"ce4bguh2rcd13ifvqckg","pricing_plan_id":"cebpf4jnsgd1na2vs0mg"},{"bike_id":"33aa875f-d179-41e2-8adf-e2c77d15e29b","system_id":"levelo_inurba_marseille","lat":43.309039,"lon":5.371797,"is_reserved":false,"is_disabled":false,"rental_uris":{"android":"levelo://app?vid=33aa875f-d179-41e2-8adf-e2c77d15e29b","ios":"levelo://app?vid=33aa875f-d179-41e2-8adf-e2c77d15e29b"},"vehicle_type_id":"4","last_reported":1717178996,"current_range_meters":21200,"station_id":"ce4bguh2rcd13ifvqckg","pricing_plan_id":"cebpf4jnsgd1na2vs0mg"},{"bike_id":"7e8dd366-78bb-4e65-a1f2-eb62cfc81ad0","system_id":"levelo_inurba_marseille","lat":43.305712,"lon":5.365641,"is_reserved":false,"is_disabled":false,"rental_uris":{"android":"levelo://app?vid=7e8dd366-78bb-4e65-a1f2-eb62cfc81ad0","ios":"levelo://app?vid=7e8dd366-78bb-4e65-a1f2-eb62cfc81ad0"},"vehicle_type_id":"4","last_reported":1717178996,"current_range_meters":0,"station_id":"ce4bgs12rcd13ifvqcag","pricing_plan_id":"cebpf4jnsgd1na2vs0mg"},{"bike_id":"16edd195-5917-4458-b944-64a983108397","system_id":"levelo_inurba_marseille","lat":43.305714,"lon":5.365633,"is_reserved":false,"is_disabled":false,"rental_uris":{"android":"levelo://app?vid=16edd195-5917-4458-b944-64a983108397","ios":"levelo://app?vid=16edd195-5917-4458-b944-64a983108397"},"vehicle_type_id":"4","last_reported":1717178996,"current_range_meters":0,"station_id":"ce4bgs12rcd13ifvqcag","pricing_plan_id":"cebpf4jnsgd1na2vs0mg"},{"bike_id":"f1397166-d347-4acf-b3e0-f677b3c3445d","system_id":"levelo_inurba_marseille","lat":43.305989,"lon":5.37225,"is_reserved":false,"is_disabled":false,"rental_uris":{"android":"levelo://app?vid=f1397166-d347-4acf-b3e0-f677b3c3445d","ios":"levelo://app?vid=f1397166-d347-4acf-b3e0-f677b3c3445d"},"vehicle_type_id":"4","last_reported":1717178996,"current_range_meters":800,"station_id":"ce4bgqh2rcd13ifvqc4g","pricing_plan_id":"cebpf4jnsgd1na2vs0mg"},{"bike_id":"a249b35f-8115-4349-b246-c52b0a0bf4ff","system_id":"levelo_inurba_marseille","lat":43.305989,"lon":5.37225,"is_reserved":false,"is_disabled":false,"rental_uris":{"android":"levelo://app?vid=a249b35f-8115-4349-b246-c52b0a0bf4ff","ios":"levelo://app?vid=a249b35f-8115-4349-b246-c52b0a0bf4ff"},"vehicle_type_id":"4","last_reported":1717178996,"current_range_meters":0,"station_id":"ce4bgqh2rcd13ifvqc4g","pricing_plan_id":"cebpf4jnsgd1na2vs0mg"},{"bike_id":"076c388f-c94d-4ef0-8e21-ec798b5d00d0","system_id":"levelo_inurba_marseille","lat":43.311125,"lon":5.377624,"is_reserved":false,"is_disabled":false,"rental_uris":{"android":"levelo://app?vid=076c388f-c94d-4ef0-8e21-ec798b5d00d0","ios":"levelo://app?vid=076c388f-c94d-4ef0-8e21-ec798b5d00d0"},"vehicle_type_id":"4","last_reported":1717178996,"current_range_meters":0,"station_id":"ce4bgt92rcd13ifvqcg0","pricing_plan_id":"cebpf4jnsgd1na2vs0mg"},{"bike_id":"5aca4741-b745-4f44-8a9e-2da8c40c663c","system_id":"levelo_inurba_marseille","lat":43.311125,"lon":5.377624,"is_reserved":false,"is_disabled":false,"rental_uris":{"android":"levelo://app?vid=5aca4741-b745-4f44-8a9e-2da8c40c663c","ios":"levelo://app?vid=5aca4741-b745-4f44-8a9e-2da8c40c663c"},"vehicle_type_id":"4","last_reported":1717178996,"current_range_meters":24800,"station_id":"ce4bgt92rcd13ifvqcg0","pricing_plan_id":"cebpf4jnsgd1na2vs0mg"},{"bike_id":"a191aca5-be83-46b3-8ee1-097584a185f3","system_id":"levelo_inurba_marseille","lat":43.311125,"lon":5.377624,"is_reserved":false,"is_disabled":false,"rental_uris":{"android":"levelo://app?vid=a191aca5-be83-46b3-8ee1-097584a185f3","ios":"levelo://app?vid=a191aca5-be83-46b3-8ee1-097584a185f3"},"vehicle_type_id":"4","last_reported":1717178996,"current_range_meters":2800,"station_id":"ce4bgt92rcd13ifvqcg0","pricing_plan_id":"cebpf4jnsgd1na2vs0mg"},{"bike_id":"6ac3204f-22a4-4c8d-a330-1f068d477cd5","system_id":"levelo_inurba_marseille","lat":43.317075,"lon":5.377367,"is_reserved":false,"is_disabled":false,"rental_uris":{"android":"levelo://app?vid=6ac3204f-22a4-4c8d-a330-1f068d477cd5","ios":"levelo://app?vid=6ac3204f-22a4-4c8d-a330-1f068d477cd5"},"vehicle_type_id":"4","last_reported":1717178996,"current_range_meters":800,"station_id":"ce4bgth2rcd13ifvqch0","pricing_plan_id":"cebpf4jnsgd1na2vs0mg"},{"bike_id":"d3a548de-30df-4fd0-86d4-09744a44c3a5","system_id":"levelo_inurba_marseille","lat":43.305368,"lon":5.367343,"is_reserved":false,"is_disabled":false,"rental_uris":{"android":"levelo://app?vid=d3a548de-30df-4fd0-86d4-09744a44c3a5","ios":"levelo://app?vid=d3a548de-30df-4fd0-86d4-09744a44c3a5"},"vehicle_type_id":"4","last_reported":1717178996,"current_range_meters":24000,"station_id":"ce4bgrp2rcd13ifvqc9g","pricing_plan_id":"cebpf4jnsgd1na2vs0mg"},{"bike_id":"bc04e241-5437-4b09-a199-6cbec390ca26","system_id":"levelo_inurba_marseille","lat":43.30782,"lon":5.37652,"is_reserved":false,"is_disabled":false,"rental_uris":{"android":"levelo://app?vid=bc04e241-5437-4b09-a199-6cbec390ca26","ios":"levelo://app?vid=bc04e241-5437-4b09-a199-6cbec390ca26"},"vehicle_type_id":"4","last_reported":1717178996,"current_range_meters":11200,"station_id":"ce4bgv92rcd13ifvqcq0","pricing_plan_id":"cebpf4jnsgd1na2vs0mg"},{"bike_id":"71e466ca-d4ad-46c1-98a1-ef0c03dc16fe","system_id":"levelo_inurba_marseille","lat":43.30783,"lon":5.37653,"is_reserved":false,"is_disabled":false,"rental_uris":{"android":"levelo://app?vid=71e466ca-d4ad-46c1-98a1-ef0c03dc16fe","ios":"levelo://app?vid=71e466ca-d4ad-46c1-98a1-ef0c03dc16fe"},"vehicle_type_id":"4","last_reported":1717178996,"current_range_meters":13600,"station_id":"ce4bgv92rcd13ifvqcq0","pricing_plan_id":"cebpf4jnsgd1na2vs0mg"},{"bike_id":"700827b8-afa0-47b4-9e13-ccdcfa36eb78","system_id":"levelo_inurba_marseille","lat":43.307945,"lon":5.376487,"is_reserved":false,"is_disabled":false,"rental_uris":{"android":"levelo://app?vid=700827b8-afa0-47b4-9e13-ccdcfa36eb78","ios":"levelo://app?vid=700827b8-afa0-47b4-9e13-ccdcfa36eb78"},"vehicle_type_id":"4","last_reported":1717178996,"current_range_meters":4800,"station_id":"ce4bgv92rcd13ifvqcq0","pricing_plan_id":"cebpf4jnsgd1na2vs0mg"},{"bike_id":"4e261b29-d4b8-4555-a606-175bcf02effc","system_id":"levelo_inurba_marseille","lat":43.317075,"lon":5.377367,"is_reserved":false,"is_disabled":false,"rental_uris":{"android":"levelo://app?vid=4e261b29-d4b8-4555-a606-175bcf02effc","ios":"levelo://app?vid=4e261b29-d4b8-4555-a606-175bcf02effc"},"vehicle_type_id":"4","last_reported":1717178996,"current_range_meters":2000,"station_id":"ce4bgth2rcd13ifvqch0","pricing_plan_id":"cebpf4jnsgd1na2vs0mg"},{"bike_id":"5da9e86e-f21d-4c40-9e39-0741f76023bb","system_id":"levelo_inurba_marseille","lat":43.30304,"lon":5.368987,"is_reserved":false,"is_disabled":false,"rental_uris":{"android":"levelo://app?vid=5da9e86e-f21d-4c40-9e39-0741f76023bb","ios":"levelo://app?vid=5da9e86e-f21d-4c40-9e39-0741f76023bb"},"vehicle_type_id":"4","last_reported":1717178996,"current_range_meters":19600,"station_id":"ce4bgqh2rcd13ifvqc5g","pricing_plan_id":"cebpf4jnsgd1na2vs0mg"},{"bike_id":"ee636f3c-8386-4d12-83e8-e6b1cf4765da","system_id":"levelo_inurba_marseille","lat":43.30304,"lon":5.368987,"is_reserved":false,"is_disabled":false,"rental_uris":{"android":"levelo://app?vid=ee636f3c-8386-4d12-83e8-e6b1cf4765da","ios":"levelo://app?vid=ee636f3c-8386-4d12-83e8-e6b1cf4765da"},"vehicle_type_id":"4","last_reported":1717178996,"current_range_meters":26800,"station_id":"ce4bgqh2rcd13ifvqc5g","pricing_plan_id":"cebpf4jnsgd1na2vs0mg"},{"bike_id":"3b827a6e-9c6a-4ee2-af36-b4a15d6247af","system_id":"levelo_inurba_marseille","lat":43.315293,"lon":5.380349,"is_reserved":false,"is_disabled":false,"rental_uris":{"android":"levelo://app?vid=3b827a6e-9c6a-4ee2-af36-b4a15d6247af","ios":"levelo://app?vid=3b827a6e-9c6a-4ee2-af36-b4a15d6247af"},"vehicle_type_id":"4","last_reported":1717178996,"current_range_meters":0,"station_id":"ce4bhsp2rcd13ifvqi50","pricing_plan_id":"cebpf4jnsgd1na2vs0mg"},{"bike_id":"f53ea4ad-7aa3-46f6-b7b4-da5e5afb9e84","system_id":"levelo_inurba_marseille","lat":43.301939,"lon":5.366286,"is_reserved":false,"is_disabled":false,"rental_uris":{"android":"levelo://app?vid=f53ea4ad-7aa3-46f6-b7b4-da5e5afb9e84","ios":"levelo://app?vid=f53ea4ad-7aa3-46f6-b7b4-da5e5afb9e84"},"vehicle_type_id":"4","last_reported":1717178996,"current_range_meters":18400,"station_id":"ce4bgrh2rcd13ifvqc8g","pricing_plan_id":"cebpf4jnsgd1na2vs0mg"},{"bike_id":"01d3cd98-ea34-4097-8ef4-7fd2955d86ea","system_id":"levelo_inurba_marseille","lat":43.301939,"lon":5.366286,"is_reserved":false,"is_disabled":false,"rental_uris":{"android":"levelo://app?vid=01d3cd98-ea34-4097-8ef4-7fd2955d86ea","ios":"levelo://app?vid=01d3cd98-ea34-4097-8ef4-7fd2955d86ea"},"vehicle_type_id":"4","last_reported":1717178996,"current_range_meters":24400,"station_id":"ce4bgrh2rcd13ifvqc8g","pricing_plan_id":"cebpf4jnsgd1na2vs0mg"},{"bike_id":"1f8c0ad5-6ecb-4ad4-afe7-4f0747c06677","system_id":"levelo_inurba_marseille","lat":43.301939,"lon":5.366286,"is_reserved":false,"is_disabled":false,"rental_uris":{"android":"levelo://app?vid=1f8c0ad5-6ecb-4ad4-afe7-4f0747c06677","ios":"levelo://app?vid=1f8c0ad5-6ecb-4ad4-afe7-4f0747c06677"},"vehicle_type_id":"4","last_reported":1717178996,"current_range_meters":20800,"station_id":"ce4bgrh2rcd13ifvqc8g","pricing_plan_id":"cebpf4jnsgd1na2vs0mg"},{"bike_id":"57dfbbeb-53a1-4574-a077-01ecdcff99e9","system_id":"levelo_inurba_marseille","lat":43.301939,"lon":5.366286,"is_reserved":false,"is_disabled":false,"rental_uris":{"android":"levelo://app?vid=57dfbbeb-53a1-4574-a077-01ecdcff99e9","ios":"levelo://app?vid=57dfbbeb-53a1-4574-a077-01ecdcff99e9"},"vehicle_type_id":"4","last_reported":1717178996,"current_range_meters":13600,"station_id":"ce4bgrh2rcd13ifvqc8g","pricing_plan_id":"cebpf4jnsgd1na2vs0mg"},{"bike_id":"287523ba-0b5e-476a-8c51-59dd510d4c31","system_id":"levelo_inurba_marseille","lat":43.301939,"lon":5.366286,"is_reserved":false,"is_disabled":false,"rental_uris":{"android":"levelo://app?vid=287523ba-0b5e-476a-8c51-59dd510d4c31","ios":"levelo://app?vid=287523ba-0b5e-476a-8c51-59dd510d4c31"},"vehicle_type_id":"4","last_reported":1717178996,"current_range_meters":20400,"station_id":"ce4bgrh2rcd13ifvqc8g","pricing_plan_id":"cebpf4jnsgd1na2vs0mg"},{"bike_id":"8d234f51-1a69-4efb-a5ed-edf583c99459","system_id":"levelo_inurba_marseille","lat":43.301939,"lon":5.366286,"is_reserved":false,"is_disabled":false,"rental_uris":{"android":"levelo://app?vid=8d234f51-1a69-4efb-a5ed-edf583c99459","ios":"levelo://app?vid=8d234f51-1a69-4efb-a5ed-edf583c99459"},"vehicle_type_id":"4","last_reported":1717178996,"current_range_meters":30800,"station_id":"ce4bgrh2rcd13ifvqc8g","pricing_plan_id":"cebpf4jnsgd1na2vs0mg"},{"bike_id":"754545d1-daf4-42b2-b83d-ceac377db4ac","system_id":"levelo_inurba_marseille","lat":43.308012,"lon":5.381511,"is_reserved":false,"is_disabled":false,"rental_uris":{"android":"levelo://app?vid=754545d1-daf4-42b2-b83d-ceac377db4ac","ios":"levelo://app?vid=754545d1-daf4-42b2-b83d-ceac377db4ac"},"vehicle_type_id":"4","last_reported":1717178996,"current_range_meters":2400,"station_id":"ce4bgt12rcd13ifvqce0","pricing_plan_id":"cebpf4jnsgd1na2vs0mg"},{"bike_id":"5c216fff-59bc-48da-9be3-a80a49a065cd","system_id":"levelo_inurba_marseille","lat":43.307834,"lon":5.381416,"is_reserved":false,"is_disabled":false,"rental_uris":{"android":"levelo://app?vid=5c216fff-59bc-48da-9be3-a80a49a065cd","ios":"levelo://app?vid=5c216fff-59bc-48da-9be3-a80a49a065cd"},"vehicle_type_id":"4","last_reported":1717178996,"current_range_meters":0,"station_id":"ce4bgt12rcd13ifvqce0","pricing_plan_id":"cebpf4jnsgd1na2vs0mg"},{"bike_id":"7f75fdbf-7155-46da-bb04-f4add15afd3d","system_id":"levelo_inurba_marseille","lat":43.30464,"lon":5.37895,"is_reserved":false,"is_disabled":false,"rental_uris":{"android":"levelo://app?vid=7f75fdbf-7155-46da-bb04-f4add15afd3d","ios":"levelo://app?vid=7f75fdbf-7155-46da-bb04-f4add15afd3d"},"vehicle_type_id":"4","last_reported":1717178996,"current_range_meters":0,"station_id":"ce4bgup2rcd13ifvqcn0","pricing_plan_id":"cebpf4jnsgd1na2vs0mg"},{"bike_id":"32e13ffe-46a0-431c-b8a8-5d93f709e63d","system_id":"levelo_inurba_marseille","lat":43.304606,"lon":5.379026,"is_reserved":false,"is_disabled":false,"rental_uris":{"android":"levelo://app?vid=32e13ffe-46a0-431c-b8a8-5d93f709e63d","ios":"levelo://app?vid=32e13ffe-46a0-431c-b8a8-5d93f709e63d"},"vehicle_type_id":"4","last_reported":1717178996,"current_range_meters":2800,"station_id":"ce4bgup2rcd13ifvqcn0","pricing_plan_id":"cebpf4jnsgd1na2vs0mg"},{"bike_id":"ef104ce3-811f-4882-b172-86f60a5174e2","system_id":"levelo_inurba_marseille","lat":43.304596,"lon":5.379102,"is_reserved":false,"is_disabled":false,"rental_uris":{"android":"levelo://app?vid=ef104ce3-811f-4882-b172-86f60a5174e2","ios":"levelo://app?vid=ef104ce3-811f-4882-b172-86f60a5174e2"},"vehicle_type_id":"4","last_reported":1717178996,"current_range_meters":0,"station_id":"ce4bgup2rcd13ifvqcn0","pricing_plan_id":"cebpf4jnsgd1na2vs0mg"},{"bike_id":"43164aca-1fb2-448b-8cee-a63ae8cc3f73","system_id":"levelo_inurba_marseille","lat":43.324771,"lon":5.36557,"is_reserved":false,"is_disabled":false,"rental_uris":{"android":"levelo://app?vid=43164aca-1fb2-448b-8cee-a63ae8cc3f73","ios":"levelo://app?vid=43164aca-1fb2-448b-8cee-a63ae8cc3f73"},"vehicle_type_id":"4","last_reported":1717178996,"current_range_meters":3600,"station_id":"ce4bhs12rcd13ifvqhvg","pricing_plan_id":"cebpf4jnsgd1na2vs0mg"},{"bike_id":"09a23f3e-71cb-406c-a41d-682846d49308","system_id":"levelo_inurba_marseille","lat":43.324771,"lon":5.36557,"is_reserved":false,"is_disabled":false,"rental_uris":{"android":"levelo://app?vid=09a23f3e-71cb-406c-a41d-682846d49308","ios":"levelo://app?vid=09a23f3e-71cb-406c-a41d-682846d49308"},"vehicle_type_id":"4","last_reported":1717178996,"current_range_meters":23200,"station_id":"ce4bhs12rcd13ifvqhvg","pricing_plan_id":"cebpf4jnsgd1na2vs0mg"},{"bike_id":"b3abe369-de9c-4992-ad31-8ddb8e01ed56","system_id":"levelo_inurba_marseille","lat":43.324771,"lon":5.36557,"is_reserved":false,"is_disabled":false,"rental_uris":{"android":"levelo://app?vid=b3abe369-de9c-4992-ad31-8ddb8e01ed56","ios":"levelo://app?vid=b3abe369-de9c-4992-ad31-8ddb8e01ed56"},"vehicle_type_id":"4","last_reported":1717178996,"current_range_meters":28800,"station_id":"ce4bhs12rcd13ifvqhvg","pricing_plan_id":"cebpf4jnsgd1na2vs0mg"},{"bike_id":"0cce203b-70e1-4c12-bec8-e995b59c42de","system_id":"levelo_inurba_marseille","lat":43.324771,"lon":5.36557,"is_reserved":false,"is_disabled":false,"rental_uris":{"android":"levelo://app?vid=0cce203b-70e1-4c12-bec8-e995b59c42de","ios":"levelo://app?vid=0cce203b-70e1-4c12-bec8-e995b59c42de"},"vehicle_type_id":"4","last_reported":1717178996,"current_range_meters":18400,"station_id":"ce4bhs12rcd13ifvqhvg","pricing_plan_id":"cebpf4jnsgd1na2vs0mg"},{"bike_id":"3f49693f-5911-4e21-a947-e9ce994caae7","system_id":"levelo_inurba_marseille","lat":43.32483,"lon":5.36574,"is_reserved":false,"is_disabled":false,"rental_uris":{"android":"levelo://app?vid=3f49693f-5911-4e21-a947-e9ce994caae7","ios":"levelo://app?vid=3f49693f-5911-4e21-a947-e9ce994caae7"},"vehicle_type_id":"4","last_reported":1717178996,"current_range_meters":0,"station_id":"ce4bhs12rcd13ifvqhvg","pricing_plan_id":"cebpf4jnsgd1na2vs0mg"},{"bike_id":"5d578c28-7369-4112-90f7-87a07e3b4816","system_id":"levelo_inurba_marseille","lat":43.324771,"lon":5.36557,"is_reserved":false,"is_disabled":false,"rental_uris":{"android":"levelo://app?vid=5d578c28-7369-4112-90f7-87a07e3b4816","ios":"levelo://app?vid=5d578c28-7369-4112-90f7-87a07e3b4816"},"vehicle_type_id":"4","last_reported":1717178996,"current_range_meters":22000,"station_id":"ce4bhs12rcd13ifvqhvg","pricing_plan_id":"cebpf4jnsgd1na2vs0mg"},{"bike_id":"bcbe4e8c-399a-4c3a-ad31-e31bd96e25bf","system_id":"levelo_inurba_marseille","lat":43.324771,"lon":5.36557,"is_reserved":false,"is_disabled":false,"rental_uris":{"android":"levelo://app?vid=bcbe4e8c-399a-4c3a-ad31-e31bd96e25bf","ios":"levelo://app?vid=bcbe4e8c-399a-4c3a-ad31-e31bd96e25bf"},"vehicle_type_id":"4","last_reported":1717178996,"current_range_meters":22000,"station_id":"ce4bhs12rcd13ifvqhvg","pricing_plan_id":"cebpf4jnsgd1na2vs0mg"},{"bike_id":"40f2a4cf-5127-48f7-8c66-45c9f401c0ad","system_id":"levelo_inurba_marseille","lat":43.304606,"lon":5.379026,"is_reserved":false,"is_disabled":false,"rental_uris":{"android":"levelo://app?vid=40f2a4cf-5127-48f7-8c66-45c9f401c0ad","ios":"levelo://app?vid=40f2a4cf-5127-48f7-8c66-45c9f401c0ad"},"vehicle_type_id":"4","last_reported":1717178996,"current_range_meters":0,"station_id":"ce4bgup2rcd13ifvqcn0","pricing_plan_id":"cebpf4jnsgd1na2vs0mg"},{"bike_id":"973e2987-6004-449d-a603-9598cc3cff5b","system_id":"levelo_inurba_marseille","lat":43.32489,"lon":5.365691,"is_reserved":false,"is_disabled":false,"rental_uris":{"android":"levelo://app?vid=973e2987-6004-449d-a603-9598cc3cff5b","ios":"levelo://app?vid=973e2987-6004-449d-a603-9598cc3cff5b"},"vehicle_type_id":"4","last_reported":1717178996,"current_range_meters":14000,"station_id":"ce4bhs12rcd13ifvqhvg","pricing_plan_id":"cebpf4jnsgd1na2vs0mg"},{"bike_id":"e7b5d43e-79e3-471c-8dbb-1d88bd546cd5","system_id":"levelo_inurba_marseille","lat":43.324771,"lon":5.36557,"is_reserved":false,"is_disabled":false,"rental_uris":{"android":"levelo://app?vid=e7b5d43e-79e3-471c-8dbb-1d88bd546cd5","ios":"levelo://app?vid=e7b5d43e-79e3-471c-8dbb-1d88bd546cd5"},"vehicle_type_id":"4","last_reported":1717178996,"current_range_meters":19600,"station_id":"ce4bhs12rcd13ifvqhvg","pricing_plan_id":"cebpf4jnsgd1na2vs0mg"},{"bike_id":"ec1da94d-4c0d-42b6-adb3-80671f5bce56","system_id":"levelo_inurba_marseille","lat":43.305994,"lon":5.393687,"is_reserved":false,"is_disabled":false,"rental_uris":{"android":"levelo://app?vid=ec1da94d-4c0d-42b6-adb3-80671f5bce56","ios":"levelo://app?vid=ec1da94d-4c0d-42b6-adb3-80671f5bce56"},"vehicle_type_id":"4","last_reported":1717178996,"current_range_meters":0,"station_id":"ce4bh0p2rcd13ifvqd80","pricing_plan_id":"cebpf4jnsgd1na2vs0mg"},{"bike_id":"115bd383-fb26-4b65-8162-1b18b5b5133f","system_id":"levelo_inurba_marseille","lat":43.310804,"lon":5.38359,"is_reserved":false,"is_disabled":false,"rental_uris":{"android":"levelo://app?vid=115bd383-fb26-4b65-8162-1b18b5b5133f","ios":"levelo://app?vid=115bd383-fb26-4b65-8162-1b18b5b5133f"},"vehicle_type_id":"4","last_reported":1717178996,"current_range_meters":0,"station_id":"ce4bgv92rcd13ifvqcr0","pricing_plan_id":"cebpf4jnsgd1na2vs0mg"},{"bike_id":"674a18d2-7482-4f63-a329-27fc437535b1","system_id":"levelo_inurba_marseille","lat":43.30285,"lon":5.37703,"is_reserved":false,"is_disabled":false,"rental_uris":{"android":"levelo://app?vid=674a18d2-7482-4f63-a329-27fc437535b1","ios":"levelo://app?vid=674a18d2-7482-4f63-a329-27fc437535b1"},"vehicle_type_id":"4","last_reported":1717178996,"current_range_meters":0,"station_id":"ce4bguh2rcd13ifvqcj0","pricing_plan_id":"cebpf4jnsgd1na2vs0mg"},{"bike_id":"b402f587-eacd-482d-ae09-b6baef5d43f5","system_id":"levelo_inurba_marseille","lat":43.301429,"lon":5.37413,"is_reserved":false,"is_disabled":false,"rental_uris":{"android":"levelo://app?vid=b402f587-eacd-482d-ae09-b6baef5d43f5","ios":"levelo://app?vid=b402f587-eacd-482d-ae09-b6baef5d43f5"},"vehicle_type_id":"4","last_reported":1717178996,"current_range_meters":8800,"station_id":"ce4bgs92rcd13ifvqcc0","pricing_plan_id":"cebpf4jnsgd1na2vs0mg"},{"bike_id":"e0aa2d5f-bc79-4201-b746-e1a9cb280679","system_id":"levelo_inurba_marseille","lat":43.302784,"lon":5.377158,"is_reserved":false,"is_disabled":false,"rental_uris":{"android":"levelo://app?vid=e0aa2d5f-bc79-4201-b746-e1a9cb280679","ios":"levelo://app?vid=e0aa2d5f-bc79-4201-b746-e1a9cb280679"},"vehicle_type_id":"4","last_reported":1717178996,"current_range_meters":12000,"station_id":"ce4bguh2rcd13ifvqcj0","pricing_plan_id":"cebpf4jnsgd1na2vs0mg"},{"bike_id":"0553f024-94b5-488a-831d-9a21dfc4f6ed","system_id":"levelo_inurba_marseille","lat":43.31994,"lon":5.38151,"is_reserved":false,"is_disabled":false,"rental_uris":{"android":"levelo://app?vid=0553f024-94b5-488a-831d-9a21dfc4f6ed","ios":"levelo://app?vid=0553f024-94b5-488a-831d-9a21dfc4f6ed"},"vehicle_type_id":"4","last_reported":1717178996,"current_range_meters":0,"station_id":"ce4bhr12rcd13ifvqhpg","pricing_plan_id":"cebpf4jnsgd1na2vs0mg"},{"bike_id":"573b1bc5-fd22-4b6f-a1cf-c184004b3a92","system_id":"levelo_inurba_marseille","lat":43.319975,"lon":5.381543,"is_reserved":false,"is_disabled":false,"rental_uris":{"android":"levelo://app?vid=573b1bc5-fd22-4b6f-a1cf-c184004b3a92","ios":"levelo://app?vid=573b1bc5-fd22-4b6f-a1cf-c184004b3a92"},"vehicle_type_id":"4","last_reported":1717178996,"current_range_meters":17200,"station_id":"ce4bhr12rcd13ifvqhpg","pricing_plan_id":"cebpf4jnsgd1na2vs0mg"},{"bike_id":"ad242788-8c89-42bf-9f1e-e97d1e87ecb4","system_id":"levelo_inurba_marseille","lat":43.320002,"lon":5.381526,"is_reserved":false,"is_disabled":false,"rental_uris":{"android":"levelo://app?vid=ad242788-8c89-42bf-9f1e-e97d1e87ecb4","ios":"levelo://app?vid=ad242788-8c89-42bf-9f1e-e97d1e87ecb4"},"vehicle_type_id":"4","last_reported":1717178996,"current_range_meters":6800,"station_id":"ce4bhr12rcd13ifvqhpg","pricing_plan_id":"cebpf4jnsgd1na2vs0mg"},{"bike_id":"acd7c0da-3afe-4a07-8aef-9e3a08910787","system_id":"levelo_inurba_marseille","lat":43.313571,"lon":5.384829,"is_reserved":false,"is_disabled":false,"rental_uris":{"android":"levelo://app?vid=acd7c0da-3afe-4a07-8aef-9e3a08910787","ios":"levelo://app?vid=acd7c0da-3afe-4a07-8aef-9e3a08910787"},"vehicle_type_id":"4","last_reported":1717178996,"current_range_meters":6000,"station_id":"ce4bgt92rcd13ifvqcf0","pricing_plan_id":"cebpf4jnsgd1na2vs0mg"},{"bike_id":"e657f2cd-1019-4725-925a-2d026ed7388d","system_id":"levelo_inurba_marseille","lat":43.299724,"lon":5.371829,"is_reserved":false,"is_disabled":false,"rental_uris":{"android":"levelo://app?vid=e657f2cd-1019-4725-925a-2d026ed7388d","ios":"levelo://app?vid=e657f2cd-1019-4725-925a-2d026ed7388d"},"vehicle_type_id":"4","last_reported":1717178996,"current_range_meters":20800,"station_id":"ce4bgr92rcd13ifvqc7g","pricing_plan_id":"cebpf4jnsgd1na2vs0mg"},{"bike_id":"d5e1536d-e588-4b58-b70e-7531099d2795","system_id":"levelo_inurba_marseille","lat":43.299222,"lon":5.365554,"is_reserved":false,"is_disabled":false,"rental_uris":{"android":"levelo://app?vid=d5e1536d-e588-4b58-b70e-7531099d2795","ios":"levelo://app?vid=d5e1536d-e588-4b58-b70e-7531099d2795"},"vehicle_type_id":"4","last_reported":1717178996,"current_range_meters":15600,"station_id":"ce4bgm92rcd13ifvqbr0","pricing_plan_id":"cebpf4jnsgd1na2vs0mg"},{"bike_id":"2946fb9f-13b6-417f-9da3-89f5f69dcc48","system_id":"levelo_inurba_marseille","lat":43.299724,"lon":5.371829,"is_reserved":false,"is_disabled":false,"rental_uris":{"android":"levelo://app?vid=2946fb9f-13b6-417f-9da3-89f5f69dcc48","ios":"levelo://app?vid=2946fb9f-13b6-417f-9da3-89f5f69dcc48"},"vehicle_type_id":"4","last_reported":1717178996,"current_range_meters":14400,"station_id":"ce4bgr92rcd13ifvqc7g","pricing_plan_id":"cebpf4jnsgd1na2vs0mg"},{"bike_id":"29c98d74-4560-4746-bb46-0c133c3d978d","system_id":"levelo_inurba_marseille","lat":43.299724,"lon":5.371829,"is_reserved":false,"is_disabled":false,"rental_uris":{"android":"levelo://app?vid=29c98d74-4560-4746-bb46-0c133c3d978d","ios":"levelo://app?vid=29c98d74-4560-4746-bb46-0c133c3d978d"},"vehicle_type_id":"4","last_reported":1717178996,"current_range_meters":10400,"station_id":"ce4bgr92rcd13ifvqc7g","pricing_plan_id":"cebpf4jnsgd1na2vs0mg"},{"bike_id":"bdf5f96f-83ce-4423-a2a9-48a770601625","system_id":"levelo_inurba_marseille","lat":43.29961,"lon":5.37182,"is_reserved":false,"is_disabled":false,"rental_uris":{"android":"levelo://app?vid=bdf5f96f-83ce-4423-a2a9-48a770601625","ios":"levelo://app?vid=bdf5f96f-83ce-4423-a2a9-48a770601625"},"vehicle_type_id":"4","last_reported":1717178996,"current_range_meters":0,"station_id":"ce4bgr92rcd13ifvqc7g","pricing_plan_id":"cebpf4jnsgd1na2vs0mg"},{"bike_id":"c4d4555e-5046-4035-be86-72e5d43102e7","system_id":"levelo_inurba_marseille","lat":43.305364,"lon":5.384119,"is_reserved":false,"is_disabled":false,"rental_uris":{"android":"levelo://app?vid=c4d4555e-5046-4035-be86-72e5d43102e7","ios":"levelo://app?vid=c4d4555e-5046-4035-be86-72e5d43102e7"},"vehicle_type_id":"4","last_reported":1717178996,"current_range_meters":0,"station_id":"ce4bgg92rcd13ifvqb30","pricing_plan_id":"cebpf4jnsgd1na2vs0mg"},{"bike_id":"7c0279c4-785e-41cc-9875-11b1aa5697b0","system_id":"levelo_inurba_marseille","lat":43.29842,"lon":5.36267,"is_reserved":false,"is_disabled":false,"rental_uris":{"android":"levelo://app?vid=7c0279c4-785e-41cc-9875-11b1aa5697b0","ios":"levelo://app?vid=7c0279c4-785e-41cc-9875-11b1aa5697b0"},"vehicle_type_id":"4","last_reported":1717178996,"current_range_meters":29200,"station_id":"ce4bgpp2rcd13ifvqc3g","pricing_plan_id":"cebpf4jnsgd1na2vs0mg"},{"bike_id":"d5a01cd8-6797-4a13-9a0c-67cfba60b54e","system_id":"levelo_inurba_marseille","lat":43.300518,"lon":5.378161,"is_reserved":false,"is_disabled":false,"rental_uris":{"android":"levelo://app?vid=d5a01cd8-6797-4a13-9a0c-67cfba60b54e","ios":"levelo://app?vid=d5a01cd8-6797-4a13-9a0c-67cfba60b54e"},"vehicle_type_id":"4","last_reported":1717178996,"current_range_meters":0,"station_id":"ce4bha12rcd13ifvqee0","pricing_plan_id":"cebpf4jnsgd1na2vs0mg"},{"bike_id":"3959ce8d-e0b8-49e0-b351-db329af73ae8","system_id":"levelo_inurba_marseille","lat":43.322872,"lon":5.382756,"is_reserved":false,"is_disabled":false,"rental_uris":{"android":"levelo://app?vid=3959ce8d-e0b8-49e0-b351-db329af73ae8","ios":"levelo://app?vid=3959ce8d-e0b8-49e0-b351-db329af73ae8"},"vehicle_type_id":"4","last_reported":1717178996,"current_range_meters":12400,"station_id":"ce4bhr12rcd13ifvqhqg","pricing_plan_id":"cebpf4jnsgd1na2vs0mg"},{"bike_id":"7a143ea7-1a2a-4af0-9bc4-e4cf2a487a05","system_id":"levelo_inurba_marseille","lat":43.311722,"lon":5.387247,"is_reserved":false,"is_disabled":false,"rental_uris":{"android":"levelo://app?vid=7a143ea7-1a2a-4af0-9bc4-e4cf2a487a05","ios":"levelo://app?vid=7a143ea7-1a2a-4af0-9bc4-e4cf2a487a05"},"vehicle_type_id":"4","last_reported":1717178996,"current_range_meters":6400,"station_id":"ce4bgv12rcd13ifvqcp0","pricing_plan_id":"cebpf4jnsgd1na2vs0mg"},{"bike_id":"10fb4334-c940-4455-979b-d3f1ca32e262","system_id":"levelo_inurba_marseille","lat":43.297794,"lon":5.370888,"is_reserved":false,"is_disabled":false,"rental_uris":{"android":"levelo://app?vid=10fb4334-c940-4455-979b-d3f1ca32e262","ios":"levelo://app?vid=10fb4334-c940-4455-979b-d3f1ca32e262"},"vehicle_type_id":"4","last_reported":1717178996,"current_range_meters":29600,"station_id":"ce4bgop2rcd13ifvqc1g","pricing_plan_id":"cebpf4jnsgd1na2vs0mg"},{"bike_id":"2eb6e389-ac0c-428b-bb3e-a3bb93e162fc","system_id":"levelo_inurba_marseille","lat":43.29785,"lon":5.37096,"is_reserved":false,"is_disabled":false,"rental_uris":{"android":"levelo://app?vid=2eb6e389-ac0c-428b-bb3e-a3bb93e162fc","ios":"levelo://app?vid=2eb6e389-ac0c-428b-bb3e-a3bb93e162fc"},"vehicle_type_id":"4","last_reported":1717178996,"current_range_meters":0,"station_id":"ce4bgop2rcd13ifvqc1g","pricing_plan_id":"cebpf4jnsgd1na2vs0mg"},{"bike_id":"31e7a815-fe96-48f7-a05a-ca11036dc5a4","system_id":"levelo_inurba_marseille","lat":43.322872,"lon":5.382756,"is_reserved":false,"is_disabled":false,"rental_uris":{"android":"levelo://app?vid=31e7a815-fe96-48f7-a05a-ca11036dc5a4","ios":"levelo://app?vid=31e7a815-fe96-48f7-a05a-ca11036dc5a4"},"vehicle_type_id":"4","last_reported":1717178996,"current_range_meters":5200,"station_id":"ce4bhr12rcd13ifvqhqg","pricing_plan_id":"cebpf4jnsgd1na2vs0mg"},{"bike_id":"94930d83-ca2c-4e9a-a728-a50f82b68646","system_id":"levelo_inurba_marseille","lat":43.297794,"lon":5.370888,"is_reserved":false,"is_disabled":false,"rental_uris":{"android":"levelo://app?vid=94930d83-ca2c-4e9a-a728-a50f82b68646","ios":"levelo://app?vid=94930d83-ca2c-4e9a-a728-a50f82b68646"},"vehicle_type_id":"4","last_reported":1717178996,"current_range_meters":14400,"station_id":"ce4bgop2rcd13ifvqc1g","pricing_plan_id":"cebpf4jnsgd1na2vs0mg"},{"bike_id":"53fa681e-0c29-4341-b759-f9f2ff09cbe0","system_id":"levelo_inurba_marseille","lat":43.322872,"lon":5.382756,"is_reserved":false,"is_disabled":false,"rental_uris":{"android":"levelo://app?vid=53fa681e-0c29-4341-b759-f9f2ff09cbe0","ios":"levelo://app?vid=53fa681e-0c29-4341-b759-f9f2ff09cbe0"},"vehicle_type_id":"4","last_reported":1717178996,"current_range_meters":0,"station_id":"ce4bhr12rcd13ifvqhqg","pricing_plan_id":"cebpf4jnsgd1na2vs0mg"},{"bike_id":"8f476e30-1c2d-4d66-a7a4-ba66fe9ea9c0","system_id":"levelo_inurba_marseille","lat":43.322872,"lon":5.382756,"is_reserved":false,"is_disabled":false,"rental_uris":{"android":"levelo://app?vid=8f476e30-1c2d-4d66-a7a4-ba66fe9ea9c0","ios":"levelo://app?vid=8f476e30-1c2d-4d66-a7a4-ba66fe9ea9c0"},"vehicle_type_id":"4","last_reported":1717178996,"current_range_meters":15600,"station_id":"ce4bhr12rcd13ifvqhqg","pricing_plan_id":"cebpf4jnsgd1na2vs0mg"},{"bike_id":"3db7d90f-9946-4717-9fb1-1aa5d11a2e1f","system_id":"levelo_inurba_marseille","lat":43.322872,"lon":5.382756,"is_reserved":false,"is_disabled":false,"rental_uris":{"android":"levelo://app?vid=3db7d90f-9946-4717-9fb1-1aa5d11a2e1f","ios":"levelo://app?vid=3db7d90f-9946-4717-9fb1-1aa5d11a2e1f"},"vehicle_type_id":"4","last_reported":1717178996,"current_range_meters":25600,"station_id":"ce4bhr12rcd13ifvqhqg","pricing_plan_id":"cebpf4jnsgd1na2vs0mg"},{"bike_id":"3353b7bf-b513-4969-9aa8-38cc9dc8d27c","system_id":"levelo_inurba_marseille","lat":43.322872,"lon":5.382756,"is_reserved":false,"is_disabled":false,"rental_uris":{"android":"levelo://app?vid=3353b7bf-b513-4969-9aa8-38cc9dc8d27c","ios":"levelo://app?vid=3353b7bf-b513-4969-9aa8-38cc9dc8d27c"},"vehicle_type_id":"4","last_reported":1717178996,"current_range_meters":7200,"station_id":"ce4bhr12rcd13ifvqhqg","pricing_plan_id":"cebpf4jnsgd1na2vs0mg"},{"bike_id":"4cc54a41-1062-412a-abb6-431ffc410da5","system_id":"levelo_inurba_marseille","lat":43.322872,"lon":5.382756,"is_reserved":false,"is_disabled":false,"rental_uris":{"android":"levelo://app?vid=4cc54a41-1062-412a-abb6-431ffc410da5","ios":"levelo://app?vid=4cc54a41-1062-412a-abb6-431ffc410da5"},"vehicle_type_id":"4","last_reported":1717178996,"current_range_meters":31600,"station_id":"ce4bhr12rcd13ifvqhqg","pricing_plan_id":"cebpf4jnsgd1na2vs0mg"},{"bike_id":"4a5145be-6de0-41d2-b148-df1dde795e8d","system_id":"levelo_inurba_marseille","lat":43.322872,"lon":5.382756,"is_reserved":false,"is_disabled":false,"rental_uris":{"android":"levelo://app?vid=4a5145be-6de0-41d2-b148-df1dde795e8d","ios":"levelo://app?vid=4a5145be-6de0-41d2-b148-df1dde795e8d"},"vehicle_type_id":"4","last_reported":1717178996,"current_range_meters":29200,"station_id":"ce4bhr12rcd13ifvqhqg","pricing_plan_id":"cebpf4jnsgd1na2vs0mg"},{"bike_id":"8eb673f6-643f-4490-bd29-c9223166f8c5","system_id":"levelo_inurba_marseille","lat":43.322872,"lon":5.382756,"is_reserved":false,"is_disabled":false,"rental_uris":{"android":"levelo://app?vid=8eb673f6-643f-4490-bd29-c9223166f8c5","ios":"levelo://app?vid=8eb673f6-643f-4490-bd29-c9223166f8c5"},"vehicle_type_id":"4","last_reported":1717178996,"current_range_meters":17600,"station_id":"ce4bhr12rcd13ifvqhqg","pricing_plan_id":"cebpf4jnsgd1na2vs0mg"},{"bike_id":"c156348f-eb31-41c5-8716-9d2ce85c12e3","system_id":"levelo_inurba_marseille","lat":43.32289,"lon":5.38285,"is_reserved":false,"is_disabled":false,"rental_uris":{"android":"levelo://app?vid=c156348f-eb31-41c5-8716-9d2ce85c12e3","ios":"levelo://app?vid=c156348f-eb31-41c5-8716-9d2ce85c12e3"},"vehicle_type_id":"4","last_reported":1717178996,"current_range_meters":2400,"station_id":"ce4bhr12rcd13ifvqhqg","pricing_plan_id":"cebpf4jnsgd1na2vs0mg"},{"bike_id":"9230a980-3e73-4c79-af6f-75494b0cfbdc","system_id":"levelo_inurba_marseille","lat":43.297774,"lon":5.370875,"is_reserved":false,"is_disabled":false,"rental_uris":{"android":"levelo://app?vid=9230a980-3e73-4c79-af6f-75494b0cfbdc","ios":"levelo://app?vid=9230a980-3e73-4c79-af6f-75494b0cfbdc"},"vehicle_type_id":"4","last_reported":1717178996,"current_range_meters":0,"station_id":"ce4bgop2rcd13ifvqc1g","pricing_plan_id":"cebpf4jnsgd1na2vs0mg"},{"bike_id":"b048a8ee-0720-4e6e-ad2a-03e8ed988dd9","system_id":"levelo_inurba_marseille","lat":43.297163,"lon":5.365866,"is_reserved":false,"is_disabled":false,"rental_uris":{"android":"levelo://app?vid=b048a8ee-0720-4e6e-ad2a-03e8ed988dd9","ios":"levelo://app?vid=b048a8ee-0720-4e6e-ad2a-03e8ed988dd9"},"vehicle_type_id":"4","last_reported":1717178996,"current_range_meters":28000,"station_id":"ce4bgn12rcd13ifvqbt0","pricing_plan_id":"cebpf4jnsgd1na2vs0mg"},{"bike_id":"d80cd09e-8ec9-4477-9ee7-98d23c473ea0","system_id":"levelo_inurba_marseille","lat":43.297163,"lon":5.365866,"is_reserved":false,"is_disabled":false,"rental_uris":{"android":"levelo://app?vid=d80cd09e-8ec9-4477-9ee7-98d23c473ea0","ios":"levelo://app?vid=d80cd09e-8ec9-4477-9ee7-98d23c473ea0"},"vehicle_type_id":"4","last_reported":1717178996,"current_range_meters":31200,"station_id":"ce4bgn12rcd13ifvqbt0","pricing_plan_id":"cebpf4jnsgd1na2vs0mg"},{"bike_id":"cfa892a9-6bd2-4d5a-bca1-07205426e7a8","system_id":"levelo_inurba_marseille","lat":43.296876,"lon":5.366104,"is_reserved":false,"is_disabled":false,"rental_uris":{"android":"levelo://app?vid=cfa892a9-6bd2-4d5a-bca1-07205426e7a8","ios":"levelo://app?vid=cfa892a9-6bd2-4d5a-bca1-07205426e7a8"},"vehicle_type_id":"4","last_reported":1717178996,"current_range_meters":800,"station_id":"ce4bgn12rcd13ifvqbt0","pricing_plan_id":"cebpf4jnsgd1na2vs0mg"},{"bike_id":"b75ad580-c894-47a4-9731-6ed1d26fe2f1","system_id":"levelo_inurba_marseille","lat":43.296122,"lon":5.363904,"is_reserved":false,"is_disabled":false,"rental_uris":{"android":"levelo://app?vid=b75ad580-c894-47a4-9731-6ed1d26fe2f1","ios":"levelo://app?vid=b75ad580-c894-47a4-9731-6ed1d26fe2f1"},"vehicle_type_id":"4","last_reported":1717178996,"current_range_meters":800,"station_id":"","pricing_plan_id":"cebpf4jnsgd1na2vs0mg"},{"bike_id":"db05c15b-50f4-4155-a3b3-c0246b46b74d","system_id":"levelo_inurba_marseille","lat":43.299028,"lon":5.381509,"is_reserved":false,"is_disabled":false,"rental_uris":{"android":"levelo://app?vid=db05c15b-50f4-4155-a3b3-c0246b46b74d","ios":"levelo://app?vid=db05c15b-50f4-4155-a3b3-c0246b46b74d"},"vehicle_type_id":"4","last_reported":1717178996,"current_range_meters":4000,"station_id":"ce4bgj12rcd13ifvqbc0","pricing_plan_id":"cebpf4jnsgd1na2vs0mg"},{"bike_id":"ab4451ba-2a5c-4f17-b2a3-f149608e5e2c","system_id":"levelo_inurba_marseille","lat":43.299028,"lon":5.381509,"is_reserved":false,"is_disabled":false,"rental_uris":{"android":"levelo://app?vid=ab4451ba-2a5c-4f17-b2a3-f149608e5e2c","ios":"levelo://app?vid=ab4451ba-2a5c-4f17-b2a3-f149608e5e2c"},"vehicle_type_id":"4","last_reported":1717178996,"current_range_meters":4800,"station_id":"ce4bgj12rcd13ifvqbc0","pricing_plan_id":"cebpf4jnsgd1na2vs0mg"},{"bike_id":"678a4c0f-52f9-44db-aedc-f55258022622","system_id":"levelo_inurba_marseille","lat":43.296516,"lon":5.37579,"is_reserved":false,"is_disabled":false,"rental_uris":{"android":"levelo://app?vid=678a4c0f-52f9-44db-aedc-f55258022622","ios":"levelo://app?vid=678a4c0f-52f9-44db-aedc-f55258022622"},"vehicle_type_id":"4","last_reported":1717178996,"current_range_meters":14000,"station_id":"","pricing_plan_id":"cebpf4jnsgd1na2vs0mg"},{"bike_id":"0cd79a35-ef82-4200-8eb6-25e579d63c04","system_id":"levelo_inurba_marseille","lat":43.317557,"lon":5.390173,"is_reserved":false,"is_disabled":false,"rental_uris":{"android":"levelo://app?vid=0cd79a35-ef82-4200-8eb6-25e579d63c04","ios":"levelo://app?vid=0cd79a35-ef82-4200-8eb6-25e579d63c04"},"vehicle_type_id":"4","last_reported":1717178996,"current_range_meters":22000,"station_id":"ce4bhqp2rcd13ifvqhng","pricing_plan_id":"cebpf4jnsgd1na2vs0mg"},{"bike_id":"3b72c5b3-ec9f-4728-b54d-a3373a8d88df","system_id":"levelo_inurba_marseille","lat":43.317557,"lon":5.390173,"is_reserved":false,"is_disabled":false,"rental_uris":{"android":"levelo://app?vid=3b72c5b3-ec9f-4728-b54d-a3373a8d88df","ios":"levelo://app?vid=3b72c5b3-ec9f-4728-b54d-a3373a8d88df"},"vehicle_type_id":"4","last_reported":1717178996,"current_range_meters":10000,"station_id":"ce4bhqp2rcd13ifvqhng","pricing_plan_id":"cebpf4jnsgd1na2vs0mg"},{"bike_id":"65644dae-5263-4183-bca6-a19446647828","system_id":"levelo_inurba_marseille","lat":43.317557,"lon":5.390173,"is_reserved":false,"is_disabled":false,"rental_uris":{"android":"levelo://app?vid=65644dae-5263-4183-bca6-a19446647828","ios":"levelo://app?vid=65644dae-5263-4183-bca6-a19446647828"},"vehicle_type_id":"4","last_reported":1717178996,"current_range_meters":400,"station_id":"ce4bhqp2rcd13ifvqhng","pricing_plan_id":"cebpf4jnsgd1na2vs0mg"},{"bike_id":"fb0ae294-8e42-44c8-9e4a-7a137b35ea06","system_id":"levelo_inurba_marseille","lat":43.317557,"lon":5.390173,"is_reserved":false,"is_disabled":false,"rental_uris":{"android":"levelo://app?vid=fb0ae294-8e42-44c8-9e4a-7a137b35ea06","ios":"levelo://app?vid=fb0ae294-8e42-44c8-9e4a-7a137b35ea06"},"vehicle_type_id":"4","last_reported":1717178996,"current_range_meters":17600,"station_id":"ce4bhqp2rcd13ifvqhng","pricing_plan_id":"cebpf4jnsgd1na2vs0mg"},{"bike_id":"d9cec343-aa07-4728-939e-49526e956a7e","system_id":"levelo_inurba_marseille","lat":43.29714,"lon":5.37882,"is_reserved":false,"is_disabled":false,"rental_uris":{"android":"levelo://app?vid=d9cec343-aa07-4728-939e-49526e956a7e","ios":"levelo://app?vid=d9cec343-aa07-4728-939e-49526e956a7e"},"vehicle_type_id":"4","last_reported":1717178996,"current_range_meters":16400,"station_id":"","pricing_plan_id":"cebpf4jnsgd1na2vs0mg"},{"bike_id":"123f6553-a022-4b89-987f-50cc6d8cb252","system_id":"levelo_inurba_marseille","lat":43.304274,"lon":5.388873,"is_reserved":false,"is_disabled":false,"rental_uris":{"android":"levelo://app?vid=123f6553-a022-4b89-987f-50cc6d8cb252","ios":"levelo://app?vid=123f6553-a022-4b89-987f-50cc6d8cb252"},"vehicle_type_id":"4","last_reported":1717178996,"current_range_meters":1600,"station_id":"ce4bgk12rcd13ifvqbi0","pricing_plan_id":"cebpf4jnsgd1na2vs0mg"},{"bike_id":"6445aeef-e23d-40cf-aa76-988f61bce1a0","system_id":"levelo_inurba_marseille","lat":43.298037,"lon":5.380951,"is_reserved":false,"is_disabled":false,"rental_uris":{"android":"levelo://app?vid=6445aeef-e23d-40cf-aa76-988f61bce1a0","ios":"levelo://app?vid=6445aeef-e23d-40cf-aa76-988f61bce1a0"},"vehicle_type_id":"4","last_reported":1717178996,"current_range_meters":0,"station_id":"ce4bgip2rcd13ifvqbb0","pricing_plan_id":"cebpf4jnsgd1na2vs0mg"},{"bike_id":"e14b95d2-11d5-4f2e-88ac-d08863a40963","system_id":"levelo_inurba_marseille","lat":43.29576,"lon":5.37498,"is_reserved":false,"is_disabled":false,"rental_uris":{"android":"levelo://app?vid=e14b95d2-11d5-4f2e-88ac-d08863a40963","ios":"levelo://app?vid=e14b95d2-11d5-4f2e-88ac-d08863a40963"},"vehicle_type_id":"4","last_reported":1717178996,"current_range_meters":29200,"station_id":"ce4bgh92rcd13ifvqb50","pricing_plan_id":"cebpf4jnsgd1na2vs0mg"},{"bike_id":"55f63995-3ca4-4e54-931e-5cb0adbd4d52","system_id":"levelo_inurba_marseille","lat":43.29575,"lon":5.375004,"is_reserved":false,"is_disabled":false,"rental_uris":{"android":"levelo://app?vid=55f63995-3ca4-4e54-931e-5cb0adbd4d52","ios":"levelo://app?vid=55f63995-3ca4-4e54-931e-5cb0adbd4d52"},"vehicle_type_id":"4","last_reported":1717178996,"current_range_meters":30400,"station_id":"ce4bgh92rcd13ifvqb50","pricing_plan_id":"cebpf4jnsgd1na2vs0mg"},{"bike_id":"5ec3718a-0edb-4749-b38d-786c445990b0","system_id":"levelo_inurba_marseille","lat":43.298037,"lon":5.381066,"is_reserved":false,"is_disabled":false,"rental_uris":{"android":"levelo://app?vid=5ec3718a-0edb-4749-b38d-786c445990b0","ios":"levelo://app?vid=5ec3718a-0edb-4749-b38d-786c445990b0"},"vehicle_type_id":"4","last_reported":1717178996,"current_range_meters":0,"station_id":"ce4bgip2rcd13ifvqbb0","pricing_plan_id":"cebpf4jnsgd1na2vs0mg"},{"bike_id":"e2af53d2-bcae-428b-a174-d1088f4c3e7d","system_id":"levelo_inurba_marseille","lat":43.304278,"lon":5.388868,"is_reserved":false,"is_disabled":false,"rental_uris":{"android":"levelo://app?vid=e2af53d2-bcae-428b-a174-d1088f4c3e7d","ios":"levelo://app?vid=e2af53d2-bcae-428b-a174-d1088f4c3e7d"},"vehicle_type_id":"4","last_reported":1717178996,"current_range_meters":0,"station_id":"ce4bgk12rcd13ifvqbi0","pricing_plan_id":"cebpf4jnsgd1na2vs0mg"},{"bike_id":"f3f7a2a1-47af-4819-b06b-682e5230b34d","system_id":"levelo_inurba_marseille","lat":43.304274,"lon":5.388873,"is_reserved":false,"is_disabled":false,"rental_uris":{"android":"levelo://app?vid=f3f7a2a1-47af-4819-b06b-682e5230b34d","ios":"levelo://app?vid=f3f7a2a1-47af-4819-b06b-682e5230b34d"},"vehicle_type_id":"4","last_reported":1717178996,"current_range_meters":11200,"station_id":"ce4bgk12rcd13ifvqbi0","pricing_plan_id":"cebpf4jnsgd1na2vs0mg"},{"bike_id":"5f132c28-2877-4b34-84c9-a36efd15c5c8","system_id":"levelo_inurba_marseille","lat":43.298037,"lon":5.381066,"is_reserved":false,"is_disabled":false,"rental_uris":{"android":"levelo://app?vid=5f132c28-2877-4b34-84c9-a36efd15c5c8","ios":"levelo://app?vid=5f132c28-2877-4b34-84c9-a36efd15c5c8"},"vehicle_type_id":"4","last_reported":1717178996,"current_range_meters":1600,"station_id":"ce4bgip2rcd13ifvqbb0","pricing_plan_id":"cebpf4jnsgd1na2vs0mg"},{"bike_id":"ef7368a4-fbf3-450e-bba1-02c99a26df99","system_id":"levelo_inurba_marseille","lat":43.298037,"lon":5.381066,"is_reserved":false,"is_disabled":false,"rental_uris":{"android":"levelo://app?vid=ef7368a4-fbf3-450e-bba1-02c99a26df99","ios":"levelo://app?vid=ef7368a4-fbf3-450e-bba1-02c99a26df99"},"vehicle_type_id":"4","last_reported":1717178996,"current_range_meters":25200,"station_id":"ce4bgip2rcd13ifvqbb0","pricing_plan_id":"cebpf4jnsgd1na2vs0mg"},{"bike_id":"494e76ef-b56b-47f1-87f9-2af383ad4d32","system_id":"levelo_inurba_marseille","lat":43.304278,"lon":5.388868,"is_reserved":false,"is_disabled":false,"rental_uris":{"android":"levelo://app?vid=494e76ef-b56b-47f1-87f9-2af383ad4d32","ios":"levelo://app?vid=494e76ef-b56b-47f1-87f9-2af383ad4d32"},"vehicle_type_id":"4","last_reported":1717178996,"current_range_meters":0,"station_id":"ce4bgk12rcd13ifvqbi0","pricing_plan_id":"cebpf4jnsgd1na2vs0mg"},{"bike_id":"14abe3c7-3a70-4de3-a4d9-ca28e90fb921","system_id":"levelo_inurba_marseille","lat":43.304278,"lon":5.388868,"is_reserved":false,"is_disabled":false,"rental_uris":{"android":"levelo://app?vid=14abe3c7-3a70-4de3-a4d9-ca28e90fb921","ios":"levelo://app?vid=14abe3c7-3a70-4de3-a4d9-ca28e90fb921"},"vehicle_type_id":"4","last_reported":1717178996,"current_range_meters":5600,"station_id":"ce4bgk12rcd13ifvqbi0","pricing_plan_id":"cebpf4jnsgd1na2vs0mg"},{"bike_id":"818b9b8b-c29c-4bf9-a682-286401c5ddee","system_id":"levelo_inurba_marseille","lat":43.295748,"lon":5.37522,"is_reserved":false,"is_disabled":false,"rental_uris":{"android":"levelo://app?vid=818b9b8b-c29c-4bf9-a682-286401c5ddee","ios":"levelo://app?vid=818b9b8b-c29c-4bf9-a682-286401c5ddee"},"vehicle_type_id":"4","last_reported":1717178996,"current_range_meters":28800,"station_id":"ce4bgh92rcd13ifvqb50","pricing_plan_id":"cebpf4jnsgd1na2vs0mg"},{"bike_id":"19c45c85-746b-4f45-b7b3-62d9d3b85c03","system_id":"levelo_inurba_marseille","lat":43.304274,"lon":5.388873,"is_reserved":false,"is_disabled":false,"rental_uris":{"android":"levelo://app?vid=19c45c85-746b-4f45-b7b3-62d9d3b85c03","ios":"levelo://app?vid=19c45c85-746b-4f45-b7b3-62d9d3b85c03"},"vehicle_type_id":"4","last_reported":1717178996,"current_range_meters":7200,"station_id":"ce4bgk12rcd13ifvqbi0","pricing_plan_id":"cebpf4jnsgd1na2vs0mg"},{"bike_id":"7acced1a-3068-46b4-9877-96f8a2ec53df","system_id":"levelo_inurba_marseille","lat":43.298037,"lon":5.381066,"is_reserved":false,"is_disabled":false,"rental_uris":{"android":"levelo://app?vid=7acced1a-3068-46b4-9877-96f8a2ec53df","ios":"levelo://app?vid=7acced1a-3068-46b4-9877-96f8a2ec53df"},"vehicle_type_id":"4","last_reported":1717178996,"current_range_meters":0,"station_id":"ce4bgip2rcd13ifvqbb0","pricing_plan_id":"cebpf4jnsgd1na2vs0mg"},{"bike_id":"7926e53b-18d7-4785-a852-2307f0322513","system_id":"levelo_inurba_marseille","lat":43.304274,"lon":5.388873,"is_reserved":false,"is_disabled":false,"rental_uris":{"android":"levelo://app?vid=7926e53b-18d7-4785-a852-2307f0322513","ios":"levelo://app?vid=7926e53b-18d7-4785-a852-2307f0322513"},"vehicle_type_id":"4","last_reported":1717178996,"current_range_meters":10800,"station_id":"ce4bgk12rcd13ifvqbi0","pricing_plan_id":"cebpf4jnsgd1na2vs0mg"},{"bike_id":"015f0f5c-fe3b-4eae-b6e2-cac7f317f2a2","system_id":"levelo_inurba_marseille","lat":43.296263,"lon":5.377094,"is_reserved":false,"is_disabled":false,"rental_uris":{"android":"levelo://app?vid=015f0f5c-fe3b-4eae-b6e2-cac7f317f2a2","ios":"levelo://app?vid=015f0f5c-fe3b-4eae-b6e2-cac7f317f2a2"},"vehicle_type_id":"4","last_reported":1717178996,"current_range_meters":6000,"station_id":"ce4bgi92rcd13ifvqb90","pricing_plan_id":"cebpf4jnsgd1na2vs0mg"},{"bike_id":"cf916348-ff1c-4c40-b6d3-90ee9e121619","system_id":"levelo_inurba_marseille","lat":43.296277,"lon":5.377108,"is_reserved":false,"is_disabled":false,"rental_uris":{"android":"levelo://app?vid=cf916348-ff1c-4c40-b6d3-90ee9e121619","ios":"levelo://app?vid=cf916348-ff1c-4c40-b6d3-90ee9e121619"},"vehicle_type_id":"4","last_reported":1717178996,"current_range_meters":0,"station_id":"ce4bgi92rcd13ifvqb90","pricing_plan_id":"cebpf4jnsgd1na2vs0mg"},{"bike_id":"382958c6-48aa-4a85-b728-3afe6b3db3f8","system_id":"levelo_inurba_marseille","lat":43.296277,"lon":5.377108,"is_reserved":false,"is_disabled":false,"rental_uris":{"android":"levelo://app?vid=382958c6-48aa-4a85-b728-3afe6b3db3f8","ios":"levelo://app?vid=382958c6-48aa-4a85-b728-3afe6b3db3f8"},"vehicle_type_id":"4","last_reported":1717178996,"current_range_meters":26400,"station_id":"ce4bgi92rcd13ifvqb90","pricing_plan_id":"cebpf4jnsgd1na2vs0mg"},{"bike_id":"7cc11466-6ca3-4bf8-baaf-27e27205346b","system_id":"levelo_inurba_marseille","lat":43.296263,"lon":5.377094,"is_reserved":false,"is_disabled":false,"rental_uris":{"android":"levelo://app?vid=7cc11466-6ca3-4bf8-baaf-27e27205346b","ios":"levelo://app?vid=7cc11466-6ca3-4bf8-baaf-27e27205346b"},"vehicle_type_id":"4","last_reported":1717178996,"current_range_meters":30400,"station_id":"ce4bgi92rcd13ifvqb90","pricing_plan_id":"cebpf4jnsgd1na2vs0mg"},{"bike_id":"5480409c-f51e-4238-8716-04372caa1250","system_id":"levelo_inurba_marseille","lat":43.299707,"lon":5.384859,"is_reserved":false,"is_disabled":false,"rental_uris":{"android":"levelo://app?vid=5480409c-f51e-4238-8716-04372caa1250","ios":"levelo://app?vid=5480409c-f51e-4238-8716-04372caa1250"},"vehicle_type_id":"4","last_reported":1717178996,"current_range_meters":10000,"station_id":"ce4bgj92rcd13ifvqbd0","pricing_plan_id":"cebpf4jnsgd1na2vs0mg"},{"bike_id":"767e1e91-925b-4b1e-a7b5-3d5c554669f7","system_id":"levelo_inurba_marseille","lat":43.304278,"lon":5.388868,"is_reserved":false,"is_disabled":false,"rental_uris":{"android":"levelo://app?vid=767e1e91-925b-4b1e-a7b5-3d5c554669f7","ios":"levelo://app?vid=767e1e91-925b-4b1e-a7b5-3d5c554669f7"},"vehicle_type_id":"4","last_reported":1717178996,"current_range_meters":5200,"station_id":"ce4bgk12rcd13ifvqbi0","pricing_plan_id":"cebpf4jnsgd1na2vs0mg"},{"bike_id":"70fe5147-898c-4a09-b884-a6ee3b58e0f5","system_id":"levelo_inurba_marseille","lat":43.29966,"lon":5.38495,"is_reserved":false,"is_disabled":false,"rental_uris":{"android":"levelo://app?vid=70fe5147-898c-4a09-b884-a6ee3b58e0f5","ios":"levelo://app?vid=70fe5147-898c-4a09-b884-a6ee3b58e0f5"},"vehicle_type_id":"4","last_reported":1717178996,"current_range_meters":0,"station_id":"ce4bgj92rcd13ifvqbd0","pricing_plan_id":"cebpf4jnsgd1na2vs0mg"},{"bike_id":"8e0306d1-5401-4633-882d-b98fc0efbdd2","system_id":"levelo_inurba_marseille","lat":43.299707,"lon":5.384859,"is_reserved":false,"is_disabled":false,"rental_uris":{"android":"levelo://app?vid=8e0306d1-5401-4633-882d-b98fc0efbdd2","ios":"levelo://app?vid=8e0306d1-5401-4633-882d-b98fc0efbdd2"},"vehicle_type_id":"4","last_reported":1717178996,"current_range_meters":0,"station_id":"ce4bgj92rcd13ifvqbd0","pricing_plan_id":"cebpf4jnsgd1na2vs0mg"},{"bike_id":"fe1ed66b-0b97-4eda-bf01-534e299a2abc","system_id":"levelo_inurba_marseille","lat":43.299707,"lon":5.384859,"is_reserved":false,"is_disabled":false,"rental_uris":{"android":"levelo://app?vid=fe1ed66b-0b97-4eda-bf01-534e299a2abc","ios":"levelo://app?vid=fe1ed66b-0b97-4eda-bf01-534e299a2abc"},"vehicle_type_id":"4","last_reported":1717178996,"current_range_meters":0,"station_id":"ce4bgj92rcd13ifvqbd0","pricing_plan_id":"cebpf4jnsgd1na2vs0mg"},{"bike_id":"f06ee386-c49c-44da-924e-d6e5d7bcc552","system_id":"levelo_inurba_marseille","lat":43.29966,"lon":5.38497,"is_reserved":false,"is_disabled":false,"rental_uris":{"android":"levelo://app?vid=f06ee386-c49c-44da-924e-d6e5d7bcc552","ios":"levelo://app?vid=f06ee386-c49c-44da-924e-d6e5d7bcc552"},"vehicle_type_id":"4","last_reported":1717178996,"current_range_meters":0,"station_id":"ce4bgj92rcd13ifvqbd0","pricing_plan_id":"cebpf4jnsgd1na2vs0mg"},{"bike_id":"c2109202-5a92-440e-8d26-f9adc0a91a44","system_id":"levelo_inurba_marseille","lat":43.29963,"lon":5.38496,"is_reserved":false,"is_disabled":false,"rental_uris":{"android":"levelo://app?vid=c2109202-5a92-440e-8d26-f9adc0a91a44","ios":"levelo://app?vid=c2109202-5a92-440e-8d26-f9adc0a91a44"},"vehicle_type_id":"4","last_reported":1717178996,"current_range_meters":0,"station_id":"ce4bgj92rcd13ifvqbd0","pricing_plan_id":"cebpf4jnsgd1na2vs0mg"},{"bike_id":"a13bc7ec-058d-4167-a0d1-b40adb1a3ae6","system_id":"levelo_inurba_marseille","lat":43.29964,"lon":5.38504,"is_reserved":false,"is_disabled":false,"rental_uris":{"android":"levelo://app?vid=a13bc7ec-058d-4167-a0d1-b40adb1a3ae6","ios":"levelo://app?vid=a13bc7ec-058d-4167-a0d1-b40adb1a3ae6"},"vehicle_type_id":"4","last_reported":1717178996,"current_range_meters":0,"station_id":"ce4bgj92rcd13ifvqbd0","pricing_plan_id":"cebpf4jnsgd1na2vs0mg"},{"bike_id":"7e15645a-fa26-4b50-9dcf-5e01a216316e","system_id":"levelo_inurba_marseille","lat":43.32367,"lon":5.388836,"is_reserved":false,"is_disabled":false,"rental_uris":{"android":"levelo://app?vid=7e15645a-fa26-4b50-9dcf-5e01a216316e","ios":"levelo://app?vid=7e15645a-fa26-4b50-9dcf-5e01a216316e"},"vehicle_type_id":"4","last_reported":1717178996,"current_range_meters":800,"station_id":"ce4bhqp2rcd13ifvqhog","pricing_plan_id":"cebpf4jnsgd1na2vs0mg"},{"bike_id":"cdc14503-805f-4ef3-ae5c-05b9f7f27523","system_id":"levelo_inurba_marseille","lat":43.32367,"lon":5.388836,"is_reserved":false,"is_disabled":false,"rental_uris":{"android":"levelo://app?vid=cdc14503-805f-4ef3-ae5c-05b9f7f27523","ios":"levelo://app?vid=cdc14503-805f-4ef3-ae5c-05b9f7f27523"},"vehicle_type_id":"4","last_reported":1717178996,"current_range_meters":0,"station_id":"ce4bhqp2rcd13ifvqhog","pricing_plan_id":"cebpf4jnsgd1na2vs0mg"},{"bike_id":"2f6de5b6-fb74-48ad-88d1-81802bf7d0e3","system_id":"levelo_inurba_marseille","lat":43.32367,"lon":5.388836,"is_reserved":false,"is_disabled":false,"rental_uris":{"android":"levelo://app?vid=2f6de5b6-fb74-48ad-88d1-81802bf7d0e3","ios":"levelo://app?vid=2f6de5b6-fb74-48ad-88d1-81802bf7d0e3"},"vehicle_type_id":"4","last_reported":1717178996,"current_range_meters":4800,"station_id":"ce4bhqp2rcd13ifvqhog","pricing_plan_id":"cebpf4jnsgd1na2vs0mg"},{"bike_id":"eefdd17b-b8c8-4c4d-9838-098cad96718f","system_id":"levelo_inurba_marseille","lat":43.323741,"lon":5.388976,"is_reserved":false,"is_disabled":false,"rental_uris":{"android":"levelo://app?vid=eefdd17b-b8c8-4c4d-9838-098cad96718f","ios":"levelo://app?vid=eefdd17b-b8c8-4c4d-9838-098cad96718f"},"vehicle_type_id":"4","last_reported":1717178996,"current_range_meters":0,"station_id":"ce4bhqp2rcd13ifvqhog","pricing_plan_id":"cebpf4jnsgd1na2vs0mg"},{"bike_id":"fef83061-cefd-4bd4-8325-04f7affd5aca","system_id":"levelo_inurba_marseille","lat":43.29601,"lon":5.381084,"is_reserved":false,"is_disabled":false,"rental_uris":{"android":"levelo://app?vid=fef83061-cefd-4bd4-8325-04f7affd5aca","ios":"levelo://app?vid=fef83061-cefd-4bd4-8325-04f7affd5aca"},"vehicle_type_id":"4","last_reported":1717178996,"current_range_meters":0,"station_id":"ce4bgl12rcd13ifvqbo0","pricing_plan_id":"cebpf4jnsgd1na2vs0mg"},{"bike_id":"d6554047-9741-4de9-8ef5-59b3d8410182","system_id":"levelo_inurba_marseille","lat":43.29601,"lon":5.381084,"is_reserved":false,"is_disabled":false,"rental_uris":{"android":"levelo://app?vid=d6554047-9741-4de9-8ef5-59b3d8410182","ios":"levelo://app?vid=d6554047-9741-4de9-8ef5-59b3d8410182"},"vehicle_type_id":"4","last_reported":1717178996,"current_range_meters":1600,"station_id":"ce4bgl12rcd13ifvqbo0","pricing_plan_id":"cebpf4jnsgd1na2vs0mg"},{"bike_id":"833b6f68-6ad0-454e-ba27-311a6ec1fa50","system_id":"levelo_inurba_marseille","lat":43.29601,"lon":5.381084,"is_reserved":false,"is_disabled":false,"rental_uris":{"android":"levelo://app?vid=833b6f68-6ad0-454e-ba27-311a6ec1fa50","ios":"levelo://app?vid=833b6f68-6ad0-454e-ba27-311a6ec1fa50"},"vehicle_type_id":"4","last_reported":1717178996,"current_range_meters":5200,"station_id":"ce4bgl12rcd13ifvqbo0","pricing_plan_id":"cebpf4jnsgd1na2vs0mg"},{"bike_id":"7cfd1530-88ca-4c98-bf22-24c4adccdf3d","system_id":"levelo_inurba_marseille","lat":43.29602,"lon":5.381084,"is_reserved":false,"is_disabled":false,"rental_uris":{"android":"levelo://app?vid=7cfd1530-88ca-4c98-bf22-24c4adccdf3d","ios":"levelo://app?vid=7cfd1530-88ca-4c98-bf22-24c4adccdf3d"},"vehicle_type_id":"4","last_reported":1717178996,"current_range_meters":11200,"station_id":"ce4bgl12rcd13ifvqbo0","pricing_plan_id":"cebpf4jnsgd1na2vs0mg"},{"bike_id":"2ef6cb3b-47c0-412e-96c2-8e754ccdafb2","system_id":"levelo_inurba_marseille","lat":43.293137,"lon":5.370618,"is_reserved":false,"is_disabled":false,"rental_uris":{"android":"levelo://app?vid=2ef6cb3b-47c0-412e-96c2-8e754ccdafb2","ios":"levelo://app?vid=2ef6cb3b-47c0-412e-96c2-8e754ccdafb2"},"vehicle_type_id":"4","last_reported":1717178996,"current_range_meters":6400,"station_id":"ce4bhbp2rcd13ifvqesg","pricing_plan_id":"cebpf4jnsgd1na2vs0mg"},{"bike_id":"018c4de1-9900-46ac-aaae-32bf9b34e38a","system_id":"levelo_inurba_marseille","lat":43.292749,"lon":5.368402,"is_reserved":false,"is_disabled":false,"rental_uris":{"android":"levelo://app?vid=018c4de1-9900-46ac-aaae-32bf9b34e38a","ios":"levelo://app?vid=018c4de1-9900-46ac-aaae-32bf9b34e38a"},"vehicle_type_id":"4","last_reported":1717178996,"current_range_meters":12800,"station_id":"ce4bhbp2rcd13ifvqesg","pricing_plan_id":"cebpf4jnsgd1na2vs0mg"},{"bike_id":"a70a253c-968f-4ada-8959-f3018357bf13","system_id":"levelo_inurba_marseille","lat":43.292749,"lon":5.368398,"is_reserved":false,"is_disabled":false,"rental_uris":{"android":"levelo://app?vid=a70a253c-968f-4ada-8959-f3018357bf13","ios":"levelo://app?vid=a70a253c-968f-4ada-8959-f3018357bf13"},"vehicle_type_id":"4","last_reported":1717178996,"current_range_meters":27200,"station_id":"ce4bhbp2rcd13ifvqesg","pricing_plan_id":"cebpf4jnsgd1na2vs0mg"},{"bike_id":"1d3cb2e3-9b92-41a2-9ddc-af2487b15874","system_id":"levelo_inurba_marseille","lat":43.292749,"lon":5.368398,"is_reserved":false,"is_disabled":false,"rental_uris":{"android":"levelo://app?vid=1d3cb2e3-9b92-41a2-9ddc-af2487b15874","ios":"levelo://app?vid=1d3cb2e3-9b92-41a2-9ddc-af2487b15874"},"vehicle_type_id":"4","last_reported":1717178996,"current_range_meters":1600,"station_id":"ce4bhbp2rcd13ifvqesg","pricing_plan_id":"cebpf4jnsgd1na2vs0mg"},{"bike_id":"77748d82-f71f-456e-ae73-474d545e4161","system_id":"levelo_inurba_marseille","lat":43.292749,"lon":5.368398,"is_reserved":false,"is_disabled":false,"rental_uris":{"android":"levelo://app?vid=77748d82-f71f-456e-ae73-474d545e4161","ios":"levelo://app?vid=77748d82-f71f-456e-ae73-474d545e4161"},"vehicle_type_id":"4","last_reported":1717178996,"current_range_meters":4800,"station_id":"ce4bhbp2rcd13ifvqesg","pricing_plan_id":"cebpf4jnsgd1na2vs0mg"},{"bike_id":"dc76ebf6-c297-400d-ac30-c7d489e43d17","system_id":"levelo_inurba_marseille","lat":43.292749,"lon":5.368398,"is_reserved":false,"is_disabled":false,"rental_uris":{"android":"levelo://app?vid=dc76ebf6-c297-400d-ac30-c7d489e43d17","ios":"levelo://app?vid=dc76ebf6-c297-400d-ac30-c7d489e43d17"},"vehicle_type_id":"4","last_reported":1717178996,"current_range_meters":0,"station_id":"ce4bhbp2rcd13ifvqesg","pricing_plan_id":"cebpf4jnsgd1na2vs0mg"},{"bike_id":"b95d9afb-537e-4936-9412-d5ea1de7f8ae","system_id":"levelo_inurba_marseille","lat":43.293009,"lon":5.374584,"is_reserved":false,"is_disabled":false,"rental_uris":{"android":"levelo://app?vid=b95d9afb-537e-4936-9412-d5ea1de7f8ae","ios":"levelo://app?vid=b95d9afb-537e-4936-9412-d5ea1de7f8ae"},"vehicle_type_id":"4","last_reported":1717178996,"current_range_meters":10800,"station_id":"ce4bgi12rcd13ifvqb70","pricing_plan_id":"cebpf4jnsgd1na2vs0mg"},{"bike_id":"e895db4c-41ec-4899-b857-e302788d7a09","system_id":"levelo_inurba_marseille","lat":43.305994,"lon":5.393687,"is_reserved":false,"is_disabled":false,"rental_uris":{"android":"levelo://app?vid=e895db4c-41ec-4899-b857-e302788d7a09","ios":"levelo://app?vid=e895db4c-41ec-4899-b857-e302788d7a09"},"vehicle_type_id":"4","last_reported":1717178996,"current_range_meters":20400,"station_id":"ce4bh0p2rcd13ifvqd80","pricing_plan_id":"cebpf4jnsgd1na2vs0mg"},{"bike_id":"9a7695fa-80c6-49ef-bc99-17c6cab7f784","system_id":"levelo_inurba_marseille","lat":43.305886,"lon":5.393528,"is_reserved":false,"is_disabled":false,"rental_uris":{"android":"levelo://app?vid=9a7695fa-80c6-49ef-bc99-17c6cab7f784","ios":"levelo://app?vid=9a7695fa-80c6-49ef-bc99-17c6cab7f784"},"vehicle_type_id":"4","last_reported":1717178996,"current_range_meters":0,"station_id":"ce4bh0p2rcd13ifvqd80","pricing_plan_id":"cebpf4jnsgd1na2vs0mg"},{"bike_id":"b22a7455-590e-4b5d-9b2c-cb4af17c6e5a","system_id":"levelo_inurba_marseille","lat":43.30307,"lon":5.39201,"is_reserved":false,"is_disabled":false,"rental_uris":{"android":"levelo://app?vid=b22a7455-590e-4b5d-9b2c-cb4af17c6e5a","ios":"levelo://app?vid=b22a7455-590e-4b5d-9b2c-cb4af17c6e5a"},"vehicle_type_id":"4","last_reported":1717178996,"current_range_meters":1600,"station_id":"ce4bgkh2rcd13ifvqbk0","pricing_plan_id":"cebpf4jnsgd1na2vs0mg"},{"bike_id":"5ebff785-21c1-48c9-94ba-d35220c3a2e4","system_id":"levelo_inurba_marseille","lat":43.302992,"lon":5.392136,"is_reserved":false,"is_disabled":false,"rental_uris":{"android":"levelo://app?vid=5ebff785-21c1-48c9-94ba-d35220c3a2e4","ios":"levelo://app?vid=5ebff785-21c1-48c9-94ba-d35220c3a2e4"},"vehicle_type_id":"4","last_reported":1717178996,"current_range_meters":4000,"station_id":"ce4bgkh2rcd13ifvqbk0","pricing_plan_id":"cebpf4jnsgd1na2vs0mg"},{"bike_id":"170f0de3-a6df-4d59-9715-1bcd8edfaaa3","system_id":"levelo_inurba_marseille","lat":43.30311,"lon":5.3921,"is_reserved":false,"is_disabled":false,"rental_uris":{"android":"levelo://app?vid=170f0de3-a6df-4d59-9715-1bcd8edfaaa3","ios":"levelo://app?vid=170f0de3-a6df-4d59-9715-1bcd8edfaaa3"},"vehicle_type_id":"4","last_reported":1717178996,"current_range_meters":1600,"station_id":"ce4bgkh2rcd13ifvqbk0","pricing_plan_id":"cebpf4jnsgd1na2vs0mg"},{"bike_id":"98f53871-5e5e-49c1-96b1-87a53cf27fcd","system_id":"levelo_inurba_marseille","lat":43.302992,"lon":5.392136,"is_reserved":false,"is_disabled":false,"rental_uris":{"android":"levelo://app?vid=98f53871-5e5e-49c1-96b1-87a53cf27fcd","ios":"levelo://app?vid=98f53871-5e5e-49c1-96b1-87a53cf27fcd"},"vehicle_type_id":"4","last_reported":1717178996,"current_range_meters":30400,"station_id":"ce4bgkh2rcd13ifvqbk0","pricing_plan_id":"cebpf4jnsgd1na2vs0mg"},{"bike_id":"fcbd929d-6f16-4170-8f52-03db143b3c0a","system_id":"levelo_inurba_marseille","lat":43.30305,"lon":5.39209,"is_reserved":false,"is_disabled":false,"rental_uris":{"android":"levelo://app?vid=fcbd929d-6f16-4170-8f52-03db143b3c0a","ios":"levelo://app?vid=fcbd929d-6f16-4170-8f52-03db143b3c0a"},"vehicle_type_id":"4","last_reported":1717178996,"current_range_meters":16800,"station_id":"ce4bgkh2rcd13ifvqbk0","pricing_plan_id":"cebpf4jnsgd1na2vs0mg"},{"bike_id":"488cd1d9-aa0f-49fa-9d71-b7a8b9d8db7c","system_id":"levelo_inurba_marseille","lat":43.30306,"lon":5.3921,"is_reserved":false,"is_disabled":false,"rental_uris":{"android":"levelo://app?vid=488cd1d9-aa0f-49fa-9d71-b7a8b9d8db7c","ios":"levelo://app?vid=488cd1d9-aa0f-49fa-9d71-b7a8b9d8db7c"},"vehicle_type_id":"4","last_reported":1717178996,"current_range_meters":26000,"station_id":"ce4bgkh2rcd13ifvqbk0","pricing_plan_id":"cebpf4jnsgd1na2vs0mg"},{"bike_id":"d3bb71e7-1dd0-46d6-8414-df5f968984f7","system_id":"levelo_inurba_marseille","lat":43.303109,"lon":5.392164,"is_reserved":false,"is_disabled":false,"rental_uris":{"android":"levelo://app?vid=d3bb71e7-1dd0-46d6-8414-df5f968984f7","ios":"levelo://app?vid=d3bb71e7-1dd0-46d6-8414-df5f968984f7"},"vehicle_type_id":"4","last_reported":1717178996,"current_range_meters":31200,"station_id":"ce4bgkh2rcd13ifvqbk0","pricing_plan_id":"cebpf4jnsgd1na2vs0mg"},{"bike_id":"15a8854e-963d-4bec-863b-99f831ce9308","system_id":"levelo_inurba_marseille","lat":43.302992,"lon":5.392136,"is_reserved":false,"is_disabled":false,"rental_uris":{"android":"levelo://app?vid=15a8854e-963d-4bec-863b-99f831ce9308","ios":"levelo://app?vid=15a8854e-963d-4bec-863b-99f831ce9308"},"vehicle_type_id":"4","last_reported":1717178996,"current_range_meters":29600,"station_id":"ce4bgkh2rcd13ifvqbk0","pricing_plan_id":"cebpf4jnsgd1na2vs0mg"},{"bike_id":"8ef16906-5c56-4901-97c3-7d6d2f9cf29c","system_id":"levelo_inurba_marseille","lat":43.30304,"lon":5.39213,"is_reserved":false,"is_disabled":false,"rental_uris":{"android":"levelo://app?vid=8ef16906-5c56-4901-97c3-7d6d2f9cf29c","ios":"levelo://app?vid=8ef16906-5c56-4901-97c3-7d6d2f9cf29c"},"vehicle_type_id":"4","last_reported":1717178996,"current_range_meters":5600,"station_id":"ce4bgkh2rcd13ifvqbk0","pricing_plan_id":"cebpf4jnsgd1na2vs0mg"},{"bike_id":"650730d9-74e0-469b-aa75-d2a9262a582c","system_id":"levelo_inurba_marseille","lat":43.303056,"lon":5.392143,"is_reserved":false,"is_disabled":false,"rental_uris":{"android":"levelo://app?vid=650730d9-74e0-469b-aa75-d2a9262a582c","ios":"levelo://app?vid=650730d9-74e0-469b-aa75-d2a9262a582c"},"vehicle_type_id":"4","last_reported":1717178996,"current_range_meters":28400,"station_id":"ce4bgkh2rcd13ifvqbk0","pricing_plan_id":"cebpf4jnsgd1na2vs0mg"},{"bike_id":"b38c8673-0b38-4152-9da1-924f41bad8fa","system_id":"levelo_inurba_marseille","lat":43.302992,"lon":5.392136,"is_reserved":false,"is_disabled":false,"rental_uris":{"android":"levelo://app?vid=b38c8673-0b38-4152-9da1-924f41bad8fa","ios":"levelo://app?vid=b38c8673-0b38-4152-9da1-924f41bad8fa"},"vehicle_type_id":"4","last_reported":1717178996,"current_range_meters":21200,"station_id":"ce4bgkh2rcd13ifvqbk0","pricing_plan_id":"cebpf4jnsgd1na2vs0mg"},{"bike_id":"1be832d8-ec20-4216-b6bf-a231dc78a5a0","system_id":"levelo_inurba_marseille","lat":43.30301,"lon":5.39212,"is_reserved":false,"is_disabled":false,"rental_uris":{"android":"levelo://app?vid=1be832d8-ec20-4216-b6bf-a231dc78a5a0","ios":"levelo://app?vid=1be832d8-ec20-4216-b6bf-a231dc78a5a0"},"vehicle_type_id":"4","last_reported":1717178996,"current_range_meters":8800,"station_id":"ce4bgkh2rcd13ifvqbk0","pricing_plan_id":"cebpf4jnsgd1na2vs0mg"},{"bike_id":"48b1a1f8-13a8-4437-a8a9-db7b7a27bb3e","system_id":"levelo_inurba_marseille","lat":43.302992,"lon":5.392136,"is_reserved":false,"is_disabled":false,"rental_uris":{"android":"levelo://app?vid=48b1a1f8-13a8-4437-a8a9-db7b7a27bb3e","ios":"levelo://app?vid=48b1a1f8-13a8-4437-a8a9-db7b7a27bb3e"},"vehicle_type_id":"4","last_reported":1717178996,"current_range_meters":10800,"station_id":"ce4bgkh2rcd13ifvqbk0","pricing_plan_id":"cebpf4jnsgd1na2vs0mg"},{"bike_id":"78830f2a-7070-43a1-85bb-fc3aa995c4a1","system_id":"levelo_inurba_marseille","lat":43.303288,"lon":5.392335,"is_reserved":false,"is_disabled":false,"rental_uris":{"android":"levelo://app?vid=78830f2a-7070-43a1-85bb-fc3aa995c4a1","ios":"levelo://app?vid=78830f2a-7070-43a1-85bb-fc3aa995c4a1"},"vehicle_type_id":"4","last_reported":1717178996,"current_range_meters":14400,"station_id":"ce4bgkh2rcd13ifvqbk0","pricing_plan_id":"cebpf4jnsgd1na2vs0mg"},{"bike_id":"ae2b98f4-9419-49b5-a066-1f2aac6b00cf","system_id":"levelo_inurba_marseille","lat":43.302959,"lon":5.3921,"is_reserved":false,"is_disabled":false,"rental_uris":{"android":"levelo://app?vid=ae2b98f4-9419-49b5-a066-1f2aac6b00cf","ios":"levelo://app?vid=ae2b98f4-9419-49b5-a066-1f2aac6b00cf"},"vehicle_type_id":"4","last_reported":1717178996,"current_range_meters":12400,"station_id":"ce4bgkh2rcd13ifvqbk0","pricing_plan_id":"cebpf4jnsgd1na2vs0mg"},{"bike_id":"afa2bd6e-56aa-461b-8fec-a705b2d78370","system_id":"levelo_inurba_marseille","lat":43.2936,"lon":5.37835,"is_reserved":false,"is_disabled":false,"rental_uris":{"android":"levelo://app?vid=afa2bd6e-56aa-461b-8fec-a705b2d78370","ios":"levelo://app?vid=afa2bd6e-56aa-461b-8fec-a705b2d78370"},"vehicle_type_id":"4","last_reported":1717178996,"current_range_meters":26800,"station_id":"ce4bgjh2rcd13ifvqbf0","pricing_plan_id":"cebpf4jnsgd1na2vs0mg"},{"bike_id":"031d8ec1-5045-4bc9-b420-9623e3eaf096","system_id":"levelo_inurba_marseille","lat":43.302992,"lon":5.392136,"is_reserved":false,"is_disabled":false,"rental_uris":{"android":"levelo://app?vid=031d8ec1-5045-4bc9-b420-9623e3eaf096","ios":"levelo://app?vid=031d8ec1-5045-4bc9-b420-9623e3eaf096"},"vehicle_type_id":"4","last_reported":1717178996,"current_range_meters":17600,"station_id":"ce4bgkh2rcd13ifvqbk0","pricing_plan_id":"cebpf4jnsgd1na2vs0mg"},{"bike_id":"faa40549-6beb-4f14-95e3-712726dee74c","system_id":"levelo_inurba_marseille","lat":43.302992,"lon":5.392136,"is_reserved":false,"is_disabled":false,"rental_uris":{"android":"levelo://app?vid=faa40549-6beb-4f14-95e3-712726dee74c","ios":"levelo://app?vid=faa40549-6beb-4f14-95e3-712726dee74c"},"vehicle_type_id":"4","last_reported":1717178996,"current_range_meters":0,"station_id":"ce4bgkh2rcd13ifvqbk0","pricing_plan_id":"cebpf4jnsgd1na2vs0mg"},{"bike_id":"7500dcb9-7cfa-4f40-9be8-9e1c25130e36","system_id":"levelo_inurba_marseille","lat":43.302992,"lon":5.392136,"is_reserved":false,"is_disabled":false,"rental_uris":{"android":"levelo://app?vid=7500dcb9-7cfa-4f40-9be8-9e1c25130e36","ios":"levelo://app?vid=7500dcb9-7cfa-4f40-9be8-9e1c25130e36"},"vehicle_type_id":"4","last_reported":1717178996,"current_range_meters":27200,"station_id":"ce4bgkh2rcd13ifvqbk0","pricing_plan_id":"cebpf4jnsgd1na2vs0mg"},{"bike_id":"8764df38-7d72-4905-a6e2-4bbc774c0419","system_id":"levelo_inurba_marseille","lat":43.302992,"lon":5.392136,"is_reserved":false,"is_disabled":false,"rental_uris":{"android":"levelo://app?vid=8764df38-7d72-4905-a6e2-4bbc774c0419","ios":"levelo://app?vid=8764df38-7d72-4905-a6e2-4bbc774c0419"},"vehicle_type_id":"4","last_reported":1717178996,"current_range_meters":3600,"station_id":"ce4bgkh2rcd13ifvqbk0","pricing_plan_id":"cebpf4jnsgd1na2vs0mg"},{"bike_id":"311c24bc-0ec8-45b0-9ced-c73b000a2025","system_id":"levelo_inurba_marseille","lat":43.30296,"lon":5.39218,"is_reserved":false,"is_disabled":false,"rental_uris":{"android":"levelo://app?vid=311c24bc-0ec8-45b0-9ced-c73b000a2025","ios":"levelo://app?vid=311c24bc-0ec8-45b0-9ced-c73b000a2025"},"vehicle_type_id":"4","last_reported":1717178996,"current_range_meters":6400,"station_id":"ce4bgkh2rcd13ifvqbk0","pricing_plan_id":"cebpf4jnsgd1na2vs0mg"},{"bike_id":"295d0068-5e44-48ed-8041-ddbf7cdd034d","system_id":"levelo_inurba_marseille","lat":43.29369,"lon":5.37846,"is_reserved":false,"is_disabled":false,"rental_uris":{"android":"levelo://app?vid=295d0068-5e44-48ed-8041-ddbf7cdd034d","ios":"levelo://app?vid=295d0068-5e44-48ed-8041-ddbf7cdd034d"},"vehicle_type_id":"4","last_reported":1717178996,"current_range_meters":0,"station_id":"ce4bgjh2rcd13ifvqbf0","pricing_plan_id":"cebpf4jnsgd1na2vs0mg"},{"bike_id":"85b2cf9d-4fa7-49b1-b7c5-bab5dcd0684d","system_id":"levelo_inurba_marseille","lat":43.302992,"lon":5.392136,"is_reserved":false,"is_disabled":false,"rental_uris":{"android":"levelo://app?vid=85b2cf9d-4fa7-49b1-b7c5-bab5dcd0684d","ios":"levelo://app?vid=85b2cf9d-4fa7-49b1-b7c5-bab5dcd0684d"},"vehicle_type_id":"4","last_reported":1717178996,"current_range_meters":8400,"station_id":"ce4bgkh2rcd13ifvqbk0","pricing_plan_id":"cebpf4jnsgd1na2vs0mg"},{"bike_id":"cfe65cfc-d0f9-41d6-af86-dd2e0764f8f9","system_id":"levelo_inurba_marseille","lat":43.300914,"lon":5.390724,"is_reserved":false,"is_disabled":false,"rental_uris":{"android":"levelo://app?vid=cfe65cfc-d0f9-41d6-af86-dd2e0764f8f9","ios":"levelo://app?vid=cfe65cfc-d0f9-41d6-af86-dd2e0764f8f9"},"vehicle_type_id":"4","last_reported":1717178996,"current_range_meters":0,"station_id":"ce4bh192rcd13ifvqdb0","pricing_plan_id":"cebpf4jnsgd1na2vs0mg"},{"bike_id":"cdd0bc9d-e0a1-4754-8d38-1369665ac677","system_id":"levelo_inurba_marseille","lat":43.300852,"lon":5.390859,"is_reserved":false,"is_disabled":false,"rental_uris":{"android":"levelo://app?vid=cdd0bc9d-e0a1-4754-8d38-1369665ac677","ios":"levelo://app?vid=cdd0bc9d-e0a1-4754-8d38-1369665ac677"},"vehicle_type_id":"4","last_reported":1717178996,"current_range_meters":29200,"station_id":"ce4bh192rcd13ifvqdb0","pricing_plan_id":"cebpf4jnsgd1na2vs0mg"},{"bike_id":"6c651ac5-7b6f-47b3-b545-09f6eae91f7d","system_id":"levelo_inurba_marseille","lat":43.300861,"lon":5.390742,"is_reserved":false,"is_disabled":false,"rental_uris":{"android":"levelo://app?vid=6c651ac5-7b6f-47b3-b545-09f6eae91f7d","ios":"levelo://app?vid=6c651ac5-7b6f-47b3-b545-09f6eae91f7d"},"vehicle_type_id":"4","last_reported":1717178996,"current_range_meters":30000,"station_id":"ce4bh192rcd13ifvqdb0","pricing_plan_id":"cebpf4jnsgd1na2vs0mg"},{"bike_id":"da2047d6-11a3-46c2-ad73-1148b67bf5e9","system_id":"levelo_inurba_marseille","lat":43.300852,"lon":5.390859,"is_reserved":false,"is_disabled":false,"rental_uris":{"android":"levelo://app?vid=da2047d6-11a3-46c2-ad73-1148b67bf5e9","ios":"levelo://app?vid=da2047d6-11a3-46c2-ad73-1148b67bf5e9"},"vehicle_type_id":"4","last_reported":1717178996,"current_range_meters":28400,"station_id":"ce4bh192rcd13ifvqdb0","pricing_plan_id":"cebpf4jnsgd1na2vs0mg"},{"bike_id":"58967248-e287-4684-9634-e9fb378e9a05","system_id":"levelo_inurba_marseille","lat":43.2936,"lon":5.37835,"is_reserved":false,"is_disabled":false,"rental_uris":{"android":"levelo://app?vid=58967248-e287-4684-9634-e9fb378e9a05","ios":"levelo://app?vid=58967248-e287-4684-9634-e9fb378e9a05"},"vehicle_type_id":"4","last_reported":1717178996,"current_range_meters":4400,"station_id":"ce4bgjh2rcd13ifvqbf0","pricing_plan_id":"cebpf4jnsgd1na2vs0mg"},{"bike_id":"e34372d3-2eec-4c00-ae84-f76f322aafb4","system_id":"levelo_inurba_marseille","lat":43.29271,"lon":5.3764,"is_reserved":false,"is_disabled":false,"rental_uris":{"android":"levelo://app?vid=e34372d3-2eec-4c00-ae84-f76f322aafb4","ios":"levelo://app?vid=e34372d3-2eec-4c00-ae84-f76f322aafb4"},"vehicle_type_id":"4","last_reported":1717178996,"current_range_meters":25600,"station_id":"","pricing_plan_id":"cebpf4jnsgd1na2vs0mg"},{"bike_id":"7a48ba21-0cd2-4b9d-8d74-7b0fd5bfc6e8","system_id":"levelo_inurba_marseille","lat":43.30379,"lon":5.393314,"is_reserved":false,"is_disabled":false,"rental_uris":{"android":"levelo://app?vid=7a48ba21-0cd2-4b9d-8d74-7b0fd5bfc6e8","ios":"levelo://app?vid=7a48ba21-0cd2-4b9d-8d74-7b0fd5bfc6e8"},"vehicle_type_id":"4","last_reported":1717178996,"current_range_meters":17200,"station_id":"ce4bgkh2rcd13ifvqbk0","pricing_plan_id":"cebpf4jnsgd1na2vs0mg"},{"bike_id":"d61269b7-88cb-4e13-9a8f-2b50161e88b7","system_id":"levelo_inurba_marseille","lat":43.298824,"lon":5.389094,"is_reserved":false,"is_disabled":false,"rental_uris":{"android":"levelo://app?vid=d61269b7-88cb-4e13-9a8f-2b50161e88b7","ios":"levelo://app?vid=d61269b7-88cb-4e13-9a8f-2b50161e88b7"},"vehicle_type_id":"4","last_reported":1717178996,"current_range_meters":0,"station_id":"ce4bh392rcd13ifvqdl0","pricing_plan_id":"cebpf4jnsgd1na2vs0mg"},{"bike_id":"67c4bcf1-b887-4df5-bb9d-be6951f50473","system_id":"levelo_inurba_marseille","lat":43.313291,"lon":5.396838,"is_reserved":false,"is_disabled":false,"rental_uris":{"android":"levelo://app?vid=67c4bcf1-b887-4df5-bb9d-be6951f50473","ios":"levelo://app?vid=67c4bcf1-b887-4df5-bb9d-be6951f50473"},"vehicle_type_id":"4","last_reported":1717178996,"current_range_meters":3600,"station_id":"ce4bgvp2rcd13ifvqcu0","pricing_plan_id":"cebpf4jnsgd1na2vs0mg"},{"bike_id":"0f3b0680-5c1e-4c80-8ac5-9a77838daaf2","system_id":"levelo_inurba_marseille","lat":43.313291,"lon":5.396838,"is_reserved":false,"is_disabled":false,"rental_uris":{"android":"levelo://app?vid=0f3b0680-5c1e-4c80-8ac5-9a77838daaf2","ios":"levelo://app?vid=0f3b0680-5c1e-4c80-8ac5-9a77838daaf2"},"vehicle_type_id":"4","last_reported":1717178996,"current_range_meters":4400,"station_id":"ce4bgvp2rcd13ifvqcu0","pricing_plan_id":"cebpf4jnsgd1na2vs0mg"},{"bike_id":"4866e8e2-4303-4122-b1ad-7cf22c9a2917","system_id":"levelo_inurba_marseille","lat":43.313291,"lon":5.396838,"is_reserved":false,"is_disabled":false,"rental_uris":{"android":"levelo://app?vid=4866e8e2-4303-4122-b1ad-7cf22c9a2917","ios":"levelo://app?vid=4866e8e2-4303-4122-b1ad-7cf22c9a2917"},"vehicle_type_id":"4","last_reported":1717178996,"current_range_meters":20400,"station_id":"ce4bgvp2rcd13ifvqcu0","pricing_plan_id":"cebpf4jnsgd1na2vs0mg"},{"bike_id":"189201ca-2794-4bea-95e6-5f1029badca0","system_id":"levelo_inurba_marseille","lat":43.313268,"lon":5.396871,"is_reserved":false,"is_disabled":false,"rental_uris":{"android":"levelo://app?vid=189201ca-2794-4bea-95e6-5f1029badca0","ios":"levelo://app?vid=189201ca-2794-4bea-95e6-5f1029badca0"},"vehicle_type_id":"4","last_reported":1717178996,"current_range_meters":14000,"station_id":"ce4bgvp2rcd13ifvqcu0","pricing_plan_id":"cebpf4jnsgd1na2vs0mg"},{"bike_id":"b9e0d2b4-e45b-4096-af32-16d03e894e00","system_id":"levelo_inurba_marseille","lat":43.291994,"lon":5.357886,"is_reserved":false,"is_disabled":false,"rental_uris":{"android":"levelo://app?vid=b9e0d2b4-e45b-4096-af32-16d03e894e00","ios":"levelo://app?vid=b9e0d2b4-e45b-4096-af32-16d03e894e00"},"vehicle_type_id":"4","last_reported":1717178996,"current_range_meters":0,"station_id":"ce4bhb12rcd13ifvqel0","pricing_plan_id":"cebpf4jnsgd1na2vs0mg"},{"bike_id":"5ad9d3f6-d54a-4a19-afee-ff71a041bfb2","system_id":"levelo_inurba_marseille","lat":43.313291,"lon":5.396838,"is_reserved":false,"is_disabled":false,"rental_uris":{"android":"levelo://app?vid=5ad9d3f6-d54a-4a19-afee-ff71a041bfb2","ios":"levelo://app?vid=5ad9d3f6-d54a-4a19-afee-ff71a041bfb2"},"vehicle_type_id":"4","last_reported":1717178996,"current_range_meters":0,"station_id":"ce4bgvp2rcd13ifvqcu0","pricing_plan_id":"cebpf4jnsgd1na2vs0mg"},{"bike_id":"5a41059a-a3c9-4706-b519-d714cea4f0a6","system_id":"levelo_inurba_marseille","lat":43.292005,"lon":5.357875,"is_reserved":false,"is_disabled":false,"rental_uris":{"android":"levelo://app?vid=5a41059a-a3c9-4706-b519-d714cea4f0a6","ios":"levelo://app?vid=5a41059a-a3c9-4706-b519-d714cea4f0a6"},"vehicle_type_id":"4","last_reported":1717178996,"current_range_meters":20400,"station_id":"ce4bhb12rcd13ifvqel0","pricing_plan_id":"cebpf4jnsgd1na2vs0mg"},{"bike_id":"c2150dfd-459c-4dc8-a6b2-f1c9e478bc20","system_id":"levelo_inurba_marseille","lat":43.313291,"lon":5.396838,"is_reserved":false,"is_disabled":false,"rental_uris":{"android":"levelo://app?vid=c2150dfd-459c-4dc8-a6b2-f1c9e478bc20","ios":"levelo://app?vid=c2150dfd-459c-4dc8-a6b2-f1c9e478bc20"},"vehicle_type_id":"4","last_reported":1717178996,"current_range_meters":2000,"station_id":"ce4bgvp2rcd13ifvqcu0","pricing_plan_id":"cebpf4jnsgd1na2vs0mg"},{"bike_id":"4d3c82a3-c6c6-4d5c-a61a-301f82f9bcdc","system_id":"levelo_inurba_marseille","lat":43.313291,"lon":5.396838,"is_reserved":false,"is_disabled":false,"rental_uris":{"android":"levelo://app?vid=4d3c82a3-c6c6-4d5c-a61a-301f82f9bcdc","ios":"levelo://app?vid=4d3c82a3-c6c6-4d5c-a61a-301f82f9bcdc"},"vehicle_type_id":"4","last_reported":1717178996,"current_range_meters":28000,"station_id":"ce4bgvp2rcd13ifvqcu0","pricing_plan_id":"cebpf4jnsgd1na2vs0mg"},{"bike_id":"55885fce-3341-4eb9-b5c8-905f4273c49c","system_id":"levelo_inurba_marseille","lat":43.313291,"lon":5.396838,"is_reserved":false,"is_disabled":false,"rental_uris":{"android":"levelo://app?vid=55885fce-3341-4eb9-b5c8-905f4273c49c","ios":"levelo://app?vid=55885fce-3341-4eb9-b5c8-905f4273c49c"},"vehicle_type_id":"4","last_reported":1717178996,"current_range_meters":28000,"station_id":"ce4bgvp2rcd13ifvqcu0","pricing_plan_id":"cebpf4jnsgd1na2vs0mg"},{"bike_id":"17dcb514-145e-42f3-a1bf-15c67cf8b47f","system_id":"levelo_inurba_marseille","lat":43.313291,"lon":5.396838,"is_reserved":false,"is_disabled":false,"rental_uris":{"android":"levelo://app?vid=17dcb514-145e-42f3-a1bf-15c67cf8b47f","ios":"levelo://app?vid=17dcb514-145e-42f3-a1bf-15c67cf8b47f"},"vehicle_type_id":"4","last_reported":1717178996,"current_range_meters":0,"station_id":"ce4bgvp2rcd13ifvqcu0","pricing_plan_id":"cebpf4jnsgd1na2vs0mg"},{"bike_id":"ded294ff-a0f3-441f-8525-9c575ca31db5","system_id":"levelo_inurba_marseille","lat":43.291994,"lon":5.357886,"is_reserved":false,"is_disabled":false,"rental_uris":{"android":"levelo://app?vid=ded294ff-a0f3-441f-8525-9c575ca31db5","ios":"levelo://app?vid=ded294ff-a0f3-441f-8525-9c575ca31db5"},"vehicle_type_id":"4","last_reported":1717178996,"current_range_meters":0,"station_id":"ce4bhb12rcd13ifvqel0","pricing_plan_id":"cebpf4jnsgd1na2vs0mg"},{"bike_id":"99996d12-5d99-4504-b96b-e668b2b30456","system_id":"levelo_inurba_marseille","lat":43.313291,"lon":5.396838,"is_reserved":false,"is_disabled":false,"rental_uris":{"android":"levelo://app?vid=99996d12-5d99-4504-b96b-e668b2b30456","ios":"levelo://app?vid=99996d12-5d99-4504-b96b-e668b2b30456"},"vehicle_type_id":"4","last_reported":1717178996,"current_range_meters":14400,"station_id":"ce4bgvp2rcd13ifvqcu0","pricing_plan_id":"cebpf4jnsgd1na2vs0mg"},{"bike_id":"dfdb2ea6-a819-4f11-8668-b967cc624c78","system_id":"levelo_inurba_marseille","lat":43.313291,"lon":5.396838,"is_reserved":false,"is_disabled":false,"rental_uris":{"android":"levelo://app?vid=dfdb2ea6-a819-4f11-8668-b967cc624c78","ios":"levelo://app?vid=dfdb2ea6-a819-4f11-8668-b967cc624c78"},"vehicle_type_id":"4","last_reported":1717178996,"current_range_meters":18800,"station_id":"ce4bgvp2rcd13ifvqcu0","pricing_plan_id":"cebpf4jnsgd1na2vs0mg"},{"bike_id":"ce7f8395-3fb5-4171-bd7d-9c19512910e7","system_id":"levelo_inurba_marseille","lat":43.29528,"lon":5.38541,"is_reserved":false,"is_disabled":false,"rental_uris":{"android":"levelo://app?vid=ce7f8395-3fb5-4171-bd7d-9c19512910e7","ios":"levelo://app?vid=ce7f8395-3fb5-4171-bd7d-9c19512910e7"},"vehicle_type_id":"4","last_reported":1717178996,"current_range_meters":18800,"station_id":"ce4bgih2rcd13ifvqba0","pricing_plan_id":"cebpf4jnsgd1na2vs0mg"},{"bike_id":"65a55706-ec38-4e4f-8b28-87354c77fdb1","system_id":"levelo_inurba_marseille","lat":43.29529,"lon":5.385581,"is_reserved":false,"is_disabled":false,"rental_uris":{"android":"levelo://app?vid=65a55706-ec38-4e4f-8b28-87354c77fdb1","ios":"levelo://app?vid=65a55706-ec38-4e4f-8b28-87354c77fdb1"},"vehicle_type_id":"4","last_reported":1717178996,"current_range_meters":25600,"station_id":"ce4bgih2rcd13ifvqba0","pricing_plan_id":"cebpf4jnsgd1na2vs0mg"},{"bike_id":"ae0d2a13-83a3-4fb0-97f4-1d722e4b5473","system_id":"levelo_inurba_marseille","lat":43.29529,"lon":5.385581,"is_reserved":false,"is_disabled":false,"rental_uris":{"android":"levelo://app?vid=ae0d2a13-83a3-4fb0-97f4-1d722e4b5473","ios":"levelo://app?vid=ae0d2a13-83a3-4fb0-97f4-1d722e4b5473"},"vehicle_type_id":"4","last_reported":1717178996,"current_range_meters":1200,"station_id":"ce4bgih2rcd13ifvqba0","pricing_plan_id":"cebpf4jnsgd1na2vs0mg"},{"bike_id":"c42199ba-3a47-448d-9726-902ccc485924","system_id":"levelo_inurba_marseille","lat":43.2907,"lon":5.37168,"is_reserved":false,"is_disabled":false,"rental_uris":{"android":"levelo://app?vid=c42199ba-3a47-448d-9726-902ccc485924","ios":"levelo://app?vid=c42199ba-3a47-448d-9726-902ccc485924"},"vehicle_type_id":"4","last_reported":1717178996,"current_range_meters":0,"station_id":"ce4bh5p2rcd13ifvqe4g","pricing_plan_id":"cebpf4jnsgd1na2vs0mg"},{"bike_id":"130b8b83-96c1-4ad0-bc51-52d5398fb83a","system_id":"levelo_inurba_marseille","lat":43.290319,"lon":5.375732,"is_reserved":false,"is_disabled":false,"rental_uris":{"android":"levelo://app?vid=130b8b83-96c1-4ad0-bc51-52d5398fb83a","ios":"levelo://app?vid=130b8b83-96c1-4ad0-bc51-52d5398fb83a"},"vehicle_type_id":"4","last_reported":1717178996,"current_range_meters":400,"station_id":"ce4bh692rcd13ifvqe90","pricing_plan_id":"cebpf4jnsgd1na2vs0mg"},{"bike_id":"c4aaeb40-0b3e-4ee3-818e-43141450c056","system_id":"levelo_inurba_marseille","lat":43.290779,"lon":5.371482,"is_reserved":false,"is_disabled":false,"rental_uris":{"android":"levelo://app?vid=c4aaeb40-0b3e-4ee3-818e-43141450c056","ios":"levelo://app?vid=c4aaeb40-0b3e-4ee3-818e-43141450c056"},"vehicle_type_id":"4","last_reported":1717178996,"current_range_meters":1600,"station_id":"ce4bh5p2rcd13ifvqe4g","pricing_plan_id":"cebpf4jnsgd1na2vs0mg"},{"bike_id":"4d4e0a51-7043-4a6b-ae7f-9191abfbbf14","system_id":"levelo_inurba_marseille","lat":43.290631,"lon":5.359244,"is_reserved":false,"is_disabled":false,"rental_uris":{"android":"levelo://app?vid=4d4e0a51-7043-4a6b-ae7f-9191abfbbf14","ios":"levelo://app?vid=4d4e0a51-7043-4a6b-ae7f-9191abfbbf14"},"vehicle_type_id":"4","last_reported":1717178996,"current_range_meters":10000,"station_id":"ce4bha92rcd13ifvqeg0","pricing_plan_id":"cebpf4jnsgd1na2vs0mg"},{"bike_id":"ead25cb0-1d4e-4853-ba5e-a98f7ae7d4c5","system_id":"levelo_inurba_marseille","lat":43.294214,"lon":5.386141,"is_reserved":false,"is_disabled":false,"rental_uris":{"android":"levelo://app?vid=ead25cb0-1d4e-4853-ba5e-a98f7ae7d4c5","ios":"levelo://app?vid=ead25cb0-1d4e-4853-ba5e-a98f7ae7d4c5"},"vehicle_type_id":"4","last_reported":1717178996,"current_range_meters":0,"station_id":"ce4bh2h2rcd13ifvqdh0","pricing_plan_id":"cebpf4jnsgd1na2vs0mg"},{"bike_id":"4a8be70c-5578-4e03-aee7-0fc1b52ab724","system_id":"levelo_inurba_marseille","lat":43.290421,"lon":5.375696,"is_reserved":false,"is_disabled":false,"rental_uris":{"android":"levelo://app?vid=4a8be70c-5578-4e03-aee7-0fc1b52ab724","ios":"levelo://app?vid=4a8be70c-5578-4e03-aee7-0fc1b52ab724"},"vehicle_type_id":"4","last_reported":1717178996,"current_range_meters":0,"station_id":"ce4bh692rcd13ifvqe90","pricing_plan_id":"cebpf4jnsgd1na2vs0mg"},{"bike_id":"97d5c734-4aa4-4131-a321-eac86bb46caf","system_id":"levelo_inurba_marseille","lat":43.231794,"lon":5.400052,"is_reserved":false,"is_disabled":false,"rental_uris":{"android":"levelo://app?vid=97d5c734-4aa4-4131-a321-eac86bb46caf","ios":"levelo://app?vid=97d5c734-4aa4-4131-a321-eac86bb46caf"},"vehicle_type_id":"4","last_reported":1717178996,"current_range_meters":6800,"station_id":"ce4bhn12rcd13ifvqgqg","pricing_plan_id":"cebpf4jnsgd1na2vs0mg"},{"bike_id":"f8b42f34-da4e-4c63-899e-f9a47d28db7b","system_id":"levelo_inurba_marseille","lat":43.289184,"lon":5.366408,"is_reserved":false,"is_disabled":false,"rental_uris":{"android":"levelo://app?vid=f8b42f34-da4e-4c63-899e-f9a47d28db7b","ios":"levelo://app?vid=f8b42f34-da4e-4c63-899e-f9a47d28db7b"},"vehicle_type_id":"4","last_reported":1717178996,"current_range_meters":26800,"station_id":"ce4bhap2rcd13ifvqek0","pricing_plan_id":"cebpf4jnsgd1na2vs0mg"},{"bike_id":"47b18029-9c9f-4a6d-ae92-370c60122d8f","system_id":"levelo_inurba_marseille","lat":43.289184,"lon":5.366408,"is_reserved":false,"is_disabled":false,"rental_uris":{"android":"levelo://app?vid=47b18029-9c9f-4a6d-ae92-370c60122d8f","ios":"levelo://app?vid=47b18029-9c9f-4a6d-ae92-370c60122d8f"},"vehicle_type_id":"4","last_reported":1717178996,"current_range_meters":400,"station_id":"ce4bhap2rcd13ifvqek0","pricing_plan_id":"cebpf4jnsgd1na2vs0mg"},{"bike_id":"9586f5e1-cc8c-4e7d-9b78-f23debeafa9e","system_id":"levelo_inurba_marseille","lat":43.29418,"lon":5.3862,"is_reserved":false,"is_disabled":false,"rental_uris":{"android":"levelo://app?vid=9586f5e1-cc8c-4e7d-9b78-f23debeafa9e","ios":"levelo://app?vid=9586f5e1-cc8c-4e7d-9b78-f23debeafa9e"},"vehicle_type_id":"4","last_reported":1717178996,"current_range_meters":0,"station_id":"ce4bh2h2rcd13ifvqdh0","pricing_plan_id":"cebpf4jnsgd1na2vs0mg"},{"bike_id":"5f570e5a-1105-4e59-9e47-8d7df9f02c37","system_id":"levelo_inurba_marseille","lat":43.294141,"lon":5.386165,"is_reserved":false,"is_disabled":false,"rental_uris":{"android":"levelo://app?vid=5f570e5a-1105-4e59-9e47-8d7df9f02c37","ios":"levelo://app?vid=5f570e5a-1105-4e59-9e47-8d7df9f02c37"},"vehicle_type_id":"4","last_reported":1717178996,"current_range_meters":0,"station_id":"ce4bh2h2rcd13ifvqdh0","pricing_plan_id":"cebpf4jnsgd1na2vs0mg"},{"bike_id":"41beb1b4-7936-460d-bc1f-efafcb33796e","system_id":"levelo_inurba_marseille","lat":43.294174,"lon":5.386228,"is_reserved":false,"is_disabled":false,"rental_uris":{"android":"levelo://app?vid=41beb1b4-7936-460d-bc1f-efafcb33796e","ios":"levelo://app?vid=41beb1b4-7936-460d-bc1f-efafcb33796e"},"vehicle_type_id":"4","last_reported":1717178996,"current_range_meters":0,"station_id":"ce4bh2h2rcd13ifvqdh0","pricing_plan_id":"cebpf4jnsgd1na2vs0mg"},{"bike_id":"3d43685c-da06-4307-89cb-a7678e7dbc5b","system_id":"levelo_inurba_marseille","lat":43.29415,"lon":5.38623,"is_reserved":false,"is_disabled":false,"rental_uris":{"android":"levelo://app?vid=3d43685c-da06-4307-89cb-a7678e7dbc5b","ios":"levelo://app?vid=3d43685c-da06-4307-89cb-a7678e7dbc5b"},"vehicle_type_id":"4","last_reported":1717178996,"current_range_meters":0,"station_id":"ce4bh2h2rcd13ifvqdh0","pricing_plan_id":"cebpf4jnsgd1na2vs0mg"},{"bike_id":"d552d8bc-ce24-4ec0-9747-7e0f3cbfa23b","system_id":"levelo_inurba_marseille","lat":43.294162,"lon":5.386292,"is_reserved":false,"is_disabled":false,"rental_uris":{"android":"levelo://app?vid=d552d8bc-ce24-4ec0-9747-7e0f3cbfa23b","ios":"levelo://app?vid=d552d8bc-ce24-4ec0-9747-7e0f3cbfa23b"},"vehicle_type_id":"4","last_reported":1717178996,"current_range_meters":0,"station_id":"ce4bh2h2rcd13ifvqdh0","pricing_plan_id":"cebpf4jnsgd1na2vs0mg"},{"bike_id":"a871f57f-0360-4953-bd3e-2095f51ad6d4","system_id":"levelo_inurba_marseille","lat":43.303046,"lon":5.368981,"is_reserved":false,"is_disabled":false,"rental_uris":{"android":"levelo://app?vid=a871f57f-0360-4953-bd3e-2095f51ad6d4","ios":"levelo://app?vid=a871f57f-0360-4953-bd3e-2095f51ad6d4"},"vehicle_type_id":"4","last_reported":1717178996,"current_range_meters":24800,"station_id":"ce4bgqh2rcd13ifvqc5g","pricing_plan_id":"cebpf4jnsgd1na2vs0mg"},{"bike_id":"49ce76a3-9912-4dfd-acf3-3e31318cf24f","system_id":"levelo_inurba_marseille","lat":43.289184,"lon":5.366408,"is_reserved":false,"is_disabled":false,"rental_uris":{"android":"levelo://app?vid=49ce76a3-9912-4dfd-acf3-3e31318cf24f","ios":"levelo://app?vid=49ce76a3-9912-4dfd-acf3-3e31318cf24f"},"vehicle_type_id":"4","last_reported":1717178996,"current_range_meters":14400,"station_id":"ce4bhap2rcd13ifvqek0","pricing_plan_id":"cebpf4jnsgd1na2vs0mg"},{"bike_id":"5be09a27-135c-48bd-8171-1f92da8523f0","system_id":"levelo_inurba_marseille","lat":43.2894,"lon":5.3663,"is_reserved":false,"is_disabled":false,"rental_uris":{"android":"levelo://app?vid=5be09a27-135c-48bd-8171-1f92da8523f0","ios":"levelo://app?vid=5be09a27-135c-48bd-8171-1f92da8523f0"},"vehicle_type_id":"4","last_reported":1717178996,"current_range_meters":400,"station_id":"ce4bhap2rcd13ifvqek0","pricing_plan_id":"cebpf4jnsgd1na2vs0mg"},{"bike_id":"93103f77-938d-4bb4-ba48-6128d4a2cd28","system_id":"levelo_inurba_marseille","lat":43.28932,"lon":5.36402,"is_reserved":false,"is_disabled":false,"rental_uris":{"android":"levelo://app?vid=93103f77-938d-4bb4-ba48-6128d4a2cd28","ios":"levelo://app?vid=93103f77-938d-4bb4-ba48-6128d4a2cd28"},"vehicle_type_id":"4","last_reported":1717178996,"current_range_meters":0,"station_id":"ce4bhc92rcd13ifvqetg","pricing_plan_id":"cebpf4jnsgd1na2vs0mg"},{"bike_id":"d700f939-b22c-45ca-9b24-c3d8fa7e493e","system_id":"levelo_inurba_marseille","lat":43.292644,"lon":5.384257,"is_reserved":false,"is_disabled":false,"rental_uris":{"android":"levelo://app?vid=d700f939-b22c-45ca-9b24-c3d8fa7e493e","ios":"levelo://app?vid=d700f939-b22c-45ca-9b24-c3d8fa7e493e"},"vehicle_type_id":"4","last_reported":1717178996,"current_range_meters":0,"station_id":"ce4bh692rcd13ifvqea0","pricing_plan_id":"cebpf4jnsgd1na2vs0mg"},{"bike_id":"93cdb458-be0a-45ff-a79e-6e379ecc0146","system_id":"levelo_inurba_marseille","lat":43.292644,"lon":5.384257,"is_reserved":false,"is_disabled":false,"rental_uris":{"android":"levelo://app?vid=93cdb458-be0a-45ff-a79e-6e379ecc0146","ios":"levelo://app?vid=93cdb458-be0a-45ff-a79e-6e379ecc0146"},"vehicle_type_id":"4","last_reported":1717178996,"current_range_meters":0,"station_id":"ce4bh692rcd13ifvqea0","pricing_plan_id":"cebpf4jnsgd1na2vs0mg"},{"bike_id":"973c3248-607e-488a-9994-071b3e558258","system_id":"levelo_inurba_marseille","lat":43.292648,"lon":5.384419,"is_reserved":false,"is_disabled":false,"rental_uris":{"android":"levelo://app?vid=973c3248-607e-488a-9994-071b3e558258","ios":"levelo://app?vid=973c3248-607e-488a-9994-071b3e558258"},"vehicle_type_id":"4","last_reported":1717178996,"current_range_meters":0,"station_id":"ce4bh692rcd13ifvqea0","pricing_plan_id":"cebpf4jnsgd1na2vs0mg"},{"bike_id":"32b09314-a188-41b1-88d5-756caacf5a41","system_id":"levelo_inurba_marseille","lat":43.292627,"lon":5.384376,"is_reserved":false,"is_disabled":false,"rental_uris":{"android":"levelo://app?vid=32b09314-a188-41b1-88d5-756caacf5a41","ios":"levelo://app?vid=32b09314-a188-41b1-88d5-756caacf5a41"},"vehicle_type_id":"4","last_reported":1717178996,"current_range_meters":0,"station_id":"ce4bh692rcd13ifvqea0","pricing_plan_id":"cebpf4jnsgd1na2vs0mg"},{"bike_id":"164061b9-6928-47ec-86b8-191778454c93","system_id":"levelo_inurba_marseille","lat":43.292643,"lon":5.384417,"is_reserved":false,"is_disabled":false,"rental_uris":{"android":"levelo://app?vid=164061b9-6928-47ec-86b8-191778454c93","ios":"levelo://app?vid=164061b9-6928-47ec-86b8-191778454c93"},"vehicle_type_id":"4","last_reported":1717178996,"current_range_meters":0,"station_id":"ce4bh692rcd13ifvqea0","pricing_plan_id":"cebpf4jnsgd1na2vs0mg"},{"bike_id":"526c76fa-1530-486c-b6f1-94d698fcad65","system_id":"levelo_inurba_marseille","lat":43.29261,"lon":5.38435,"is_reserved":false,"is_disabled":false,"rental_uris":{"android":"levelo://app?vid=526c76fa-1530-486c-b6f1-94d698fcad65","ios":"levelo://app?vid=526c76fa-1530-486c-b6f1-94d698fcad65"},"vehicle_type_id":"4","last_reported":1717178996,"current_range_meters":0,"station_id":"ce4bh692rcd13ifvqea0","pricing_plan_id":"cebpf4jnsgd1na2vs0mg"},{"bike_id":"d1caed89-1765-47c3-9ff3-6685a33da3f8","system_id":"levelo_inurba_marseille","lat":43.304296,"lon":5.397513,"is_reserved":false,"is_disabled":false,"rental_uris":{"android":"levelo://app?vid=d1caed89-1765-47c3-9ff3-6685a33da3f8","ios":"levelo://app?vid=d1caed89-1765-47c3-9ff3-6685a33da3f8"},"vehicle_type_id":"4","last_reported":1717178996,"current_range_meters":0,"station_id":"ce4bh092rcd13ifvqd20","pricing_plan_id":"cebpf4jnsgd1na2vs0mg"},{"bike_id":"0ed8f23f-fdcd-4b9a-b1d3-86de91af58a9","system_id":"levelo_inurba_marseille","lat":43.292644,"lon":5.384548,"is_reserved":false,"is_disabled":false,"rental_uris":{"android":"levelo://app?vid=0ed8f23f-fdcd-4b9a-b1d3-86de91af58a9","ios":"levelo://app?vid=0ed8f23f-fdcd-4b9a-b1d3-86de91af58a9"},"vehicle_type_id":"4","last_reported":1717178996,"current_range_meters":0,"station_id":"ce4bh692rcd13ifvqea0","pricing_plan_id":"cebpf4jnsgd1na2vs0mg"},{"bike_id":"a2b742fd-baab-4c23-ae9a-8cfbe299ffc2","system_id":"levelo_inurba_marseille","lat":43.304296,"lon":5.397513,"is_reserved":false,"is_disabled":false,"rental_uris":{"android":"levelo://app?vid=a2b742fd-baab-4c23-ae9a-8cfbe299ffc2","ios":"levelo://app?vid=a2b742fd-baab-4c23-ae9a-8cfbe299ffc2"},