{"last_updated":1737641320,"ttl":60,"version":"2.2","data":{"bikes":[{"bike_id":"e6fadd77-e7e4-4408-b272-3ed78948fb7b","system_id":"levelo_inurba_marseille","lat":43.314803,"lon":5.37259,"is_reserved":false,"is_disabled":false,"rental_uris":{"android":"levelo://app?vid=e6fadd77-e7e4-4408-b272-3ed78948fb7b","ios":"levelo://app?vid=e6fadd77-e7e4-4408-b272-3ed78948fb7b"},"vehicle_type_id":"4","last_reported":1737641320,"current_range_meters":18800,"station_id":"ce4bgt12rcd13ifvqcd0","pricing_plan_id":"cebpf4jnsgd1na2vs0mg"},{"bike_id":"c3fa857d-6c16-4a35-a19b-32c6da4e6156","system_id":"levelo_inurba_marseille","lat":43.32481,"lon":5.36569,"is_reserved":false,"is_disabled":false,"rental_uris":{"android":"levelo://app?vid=c3fa857d-6c16-4a35-a19b-32c6da4e6156","ios":"levelo://app?vid=c3fa857d-6c16-4a35-a19b-32c6da4e6156"},"vehicle_type_id":"4","last_reported":1737641320,"current_range_meters":12800,"station_id":"ce4bhs12rcd13ifvqhvg","pricing_plan_id":"cebpf4jnsgd1na2vs0mg"},{"bike_id":"9aff2613-f85d-49aa-a3c3-3c3e7031c8e3","system_id":"levelo_inurba_marseille","lat":43.26954,"lon":5.38625,"is_reserved":false,"is_disabled":false,"rental_uris":{"android":"levelo://app?vid=9aff2613-f85d-49aa-a3c3-3c3e7031c8e3","ios":"levelo://app?vid=9aff2613-f85d-49aa-a3c3-3c3e7031c8e3"},"vehicle_type_id":"4","last_reported":1737641320,"current_range_meters":38800,"station_id":"ce4bhh92rcd13ifvqfh0","pricing_plan_id":"cebpf4jnsgd1na2vs0mg"},{"bike_id":"785f5ecc-62c3-491d-a2f1-a2bbedd1baca","system_id":"levelo_inurba_marseille","lat":43.29688,"lon":5.37309,"is_reserved":false,"is_disabled":false,"rental_uris":{"android":"levelo://app?vid=785f5ecc-62c3-491d-a2f1-a2bbedd1baca","ios":"levelo://app?vid=785f5ecc-62c3-491d-a2f1-a2bbedd1baca"},"vehicle_type_id":"4","last_reported":1737641320,"current_range_meters":17600,"station_id":"ce4bgk12rcd13ifvqbj0","pricing_plan_id":"cebpf4jnsgd1na2vs0mg"},{"bike_id":"dcf4555a-aebc-4561-8ac8-3e8a57d63da1","system_id":"levelo_inurba_marseille","lat":43.29634,"lon":5.36738,"is_reserved":false,"is_disabled":false,"rental_uris":{"android":"levelo://app?vid=dcf4555a-aebc-4561-8ac8-3e8a57d63da1","ios":"levelo://app?vid=dcf4555a-aebc-4561-8ac8-3e8a57d63da1"},"vehicle_type_id":"4","last_reported":1737641320,"current_range_meters":34800,"station_id":"ce4bgph2rcd13ifvqc2g","pricing_plan_id":"cebpf4jnsgd1na2vs0mg"},{"bike_id":"2d085073-09df-43f4-a898-39d5fd4a9ed2","system_id":"levelo_inurba_marseille","lat":43.29277,"lon":5.37447,"is_reserved":false,"is_disabled":false,"rental_uris":{"android":"levelo://app?vid=2d085073-09df-43f4-a898-39d5fd4a9ed2","ios":"levelo://app?vid=2d085073-09df-43f4-a898-39d5fd4a9ed2"},"vehicle_type_id":"4","last_reported":1737641320,"current_range_meters":38800,"station_id":"ce4bgi12rcd13ifvqb70","pricing_plan_id":"cebpf4jnsgd1na2vs0mg"},{"bike_id":"5ac14c7e-46e9-49c3-a78f-fec5377ad444","system_id":"levelo_inurba_marseille","lat":43.29702,"lon":5.37703,"is_reserved":false,"is_disabled":false,"rental_uris":{"android":"levelo://app?vid=5ac14c7e-46e9-49c3-a78f-fec5377ad444","ios":"levelo://app?vid=5ac14c7e-46e9-49c3-a78f-fec5377ad444"},"vehicle_type_id":"4","last_reported":1737641320,"current_range_meters":36000,"station_id":"ce4bgkh2rcd13ifvqbl0","pricing_plan_id":"cebpf4jnsgd1na2vs0mg"},{"bike_id":"6eb2e4ba-52be-4994-856c-5e938ae795fa","system_id":"levelo_inurba_marseille","lat":43.31355,"lon":5.36702,"is_reserved":false,"is_disabled":false,"rental_uris":{"android":"levelo://app?vid=6eb2e4ba-52be-4994-856c-5e938ae795fa","ios":"levelo://app?vid=6eb2e4ba-52be-4994-856c-5e938ae795fa"},"vehicle_type_id":"4","last_reported":1737641320,"current_range_meters":38000,"station_id":"ce4bgr92rcd13ifvqc6g","pricing_plan_id":"cebpf4jnsgd1na2vs0mg"},{"bike_id":"b5cb07e6-6ffd-4db4-8954-0084503b2aef","system_id":"levelo_inurba_marseille","lat":43.33025,"lon":5.39055,"is_reserved":false,"is_disabled":false,"rental_uris":{"android":"levelo://app?vid=b5cb07e6-6ffd-4db4-8954-0084503b2aef","ios":"levelo://app?vid=b5cb07e6-6ffd-4db4-8954-0084503b2aef"},"vehicle_type_id":"4","last_reported":1737641320,"current_range_meters":39200,"station_id":"ce4bhr92rcd13ifvqhrg","pricing_plan_id":"cebpf4jnsgd1na2vs0mg"},{"bike_id":"ce2b86ec-5c6e-436b-bbf1-eb1b6c761903","system_id":"levelo_inurba_marseille","lat":43.27643,"lon":5.38897,"is_reserved":false,"is_disabled":false,"rental_uris":{"android":"levelo://app?vid=ce2b86ec-5c6e-436b-bbf1-eb1b6c761903","ios":"levelo://app?vid=ce2b86ec-5c6e-436b-bbf1-eb1b6c761903"},"vehicle_type_id":"4","last_reported":1737641320,"current_range_meters":36800,"station_id":"ce4bhi12rcd13ifvqfo0","pricing_plan_id":"cebpf4jnsgd1na2vs0mg"},{"bike_id":"68d348c3-3de8-46d3-83c6-e42d41e18b9f","system_id":"levelo_inurba_marseille","lat":43.28269,"lon":5.35076,"is_reserved":false,"is_disabled":false,"rental_uris":{"android":"levelo://app?vid=68d348c3-3de8-46d3-83c6-e42d41e18b9f","ios":"levelo://app?vid=68d348c3-3de8-46d3-83c6-e42d41e18b9f"},"vehicle_type_id":"4","last_reported":1737641320,"current_range_meters":28400,"station_id":"ce4bhbp2rcd13ifvqerg","pricing_plan_id":"cebpf4jnsgd1na2vs0mg"},{"bike_id":"fef7296b-5b5a-4c05-825d-9b026d94d92f","system_id":"levelo_inurba_marseille","lat":43.30294,"lon":5.37722,"is_reserved":false,"is_disabled":false,"rental_uris":{"android":"levelo://app?vid=fef7296b-5b5a-4c05-825d-9b026d94d92f","ios":"levelo://app?vid=fef7296b-5b5a-4c05-825d-9b026d94d92f"},"vehicle_type_id":"4","last_reported":1737641320,"current_range_meters":27200,"station_id":"ce4bguh2rcd13ifvqcj0","pricing_plan_id":"cebpf4jnsgd1na2vs0mg"},{"bike_id":"308959f0-a2fa-4c4e-a328-48ad646b5222","system_id":"levelo_inurba_marseille","lat":43.31364,"lon":5.36711,"is_reserved":false,"is_disabled":false,"rental_uris":{"android":"levelo://app?vid=308959f0-a2fa-4c4e-a328-48ad646b5222","ios":"levelo://app?vid=308959f0-a2fa-4c4e-a328-48ad646b5222"},"vehicle_type_id":"4","last_reported":1737641320,"current_range_meters":8800,"station_id":"ce4bgr92rcd13ifvqc6g","pricing_plan_id":"cebpf4jnsgd1na2vs0mg"},{"bike_id":"2b6096cf-e92f-48f9-b9d9-5d9bcc3c820c","system_id":"levelo_inurba_marseille","lat":43.27511,"lon":5.42442,"is_reserved":false,"is_disabled":false,"rental_uris":{"android":"levelo://app?vid=2b6096cf-e92f-48f9-b9d9-5d9bcc3c820c","ios":"levelo://app?vid=2b6096cf-e92f-48f9-b9d9-5d9bcc3c820c"},"vehicle_type_id":"4","last_reported":1737641320,"current_range_meters":27600,"station_id":"ce4bhn92rcd13ifvqgrg","pricing_plan_id":"cebpf4jnsgd1na2vs0mg"},{"bike_id":"2a80df51-a758-43ec-8377-7504eaafab77","system_id":"levelo_inurba_marseille","lat":43.25914,"lon":5.40858,"is_reserved":false,"is_disabled":false,"rental_uris":{"android":"levelo://app?vid=2a80df51-a758-43ec-8377-7504eaafab77","ios":"levelo://app?vid=2a80df51-a758-43ec-8377-7504eaafab77"},"vehicle_type_id":"4","last_reported":1737641320,"current_range_meters":38800,"station_id":"ce4bhm92rcd13ifvqglg","pricing_plan_id":"cebpf4jnsgd1na2vs0mg"},{"bike_id":"62deda02-398b-428c-93c7-c43dbeb4b460","system_id":"levelo_inurba_marseille","lat":43.32001,"lon":5.38144,"is_reserved":false,"is_disabled":false,"rental_uris":{"android":"levelo://app?vid=62deda02-398b-428c-93c7-c43dbeb4b460","ios":"levelo://app?vid=62deda02-398b-428c-93c7-c43dbeb4b460"},"vehicle_type_id":"4","last_reported":1737641320,"current_range_meters":38400,"station_id":"ce4bhr12rcd13ifvqhpg","pricing_plan_id":"cebpf4jnsgd1na2vs0mg"},{"bike_id":"4b99948f-ea48-4383-875e-b58ed823d600","system_id":"levelo_inurba_marseille","lat":43.30533,"lon":5.36688,"is_reserved":false,"is_disabled":false,"rental_uris":{"android":"levelo://app?vid=4b99948f-ea48-4383-875e-b58ed823d600","ios":"levelo://app?vid=4b99948f-ea48-4383-875e-b58ed823d600"},"vehicle_type_id":"4","last_reported":1737641320,"current_range_meters":38800,"station_id":"ce4bgrp2rcd13ifvqc9g","pricing_plan_id":"cebpf4jnsgd1na2vs0mg"},{"bike_id":"61735e4e-49a8-43e1-8f04-18589875b8d4","system_id":"levelo_inurba_marseille","lat":43.30477,"lon":5.37908,"is_reserved":false,"is_disabled":false,"rental_uris":{"android":"levelo://app?vid=61735e4e-49a8-43e1-8f04-18589875b8d4","ios":"levelo://app?vid=61735e4e-49a8-43e1-8f04-18589875b8d4"},"vehicle_type_id":"4","last_reported":1737641320,"current_range_meters":26800,"station_id":"ce4bgup2rcd13ifvqcn0","pricing_plan_id":"cebpf4jnsgd1na2vs0mg"},{"bike_id":"547a73d5-3351-4bc5-80c3-6e11a818d825","system_id":"levelo_inurba_marseille","lat":43.317034,"lon":5.37743,"is_reserved":false,"is_disabled":false,"rental_uris":{"android":"levelo://app?vid=547a73d5-3351-4bc5-80c3-6e11a818d825","ios":"levelo://app?vid=547a73d5-3351-4bc5-80c3-6e11a818d825"},"vehicle_type_id":"4","last_reported":1737641320,"current_range_meters":38000,"station_id":"ce4bgth2rcd13ifvqch0","pricing_plan_id":"cebpf4jnsgd1na2vs0mg"},{"bike_id":"e38da209-d8d9-4680-be99-11d1954272ef","system_id":"levelo_inurba_marseille","lat":43.26209,"lon":5.37923,"is_reserved":false,"is_disabled":false,"rental_uris":{"android":"levelo://app?vid=e38da209-d8d9-4680-be99-11d1954272ef","ios":"levelo://app?vid=e38da209-d8d9-4680-be99-11d1954272ef"},"vehicle_type_id":"4","last_reported":1737641320,"current_range_meters":39200,"station_id":"ce4bhjp2rcd13ifvqg90","pricing_plan_id":"cebpf4jnsgd1na2vs0mg"},{"bike_id":"f1337b63-8a6e-48f0-9c6f-64b5c4524f3f","system_id":"levelo_inurba_marseille","lat":43.30418,"lon":5.39755,"is_reserved":false,"is_disabled":false,"rental_uris":{"android":"levelo://app?vid=f1337b63-8a6e-48f0-9c6f-64b5c4524f3f","ios":"levelo://app?vid=f1337b63-8a6e-48f0-9c6f-64b5c4524f3f"},"vehicle_type_id":"4","last_reported":1737641320,"current_range_meters":34800,"station_id":"ce4bh092rcd13ifvqd20","pricing_plan_id":"cebpf4jnsgd1na2vs0mg"},{"bike_id":"b41c30b6-77ed-4417-9cf4-1029fb547e67","system_id":"levelo_inurba_marseille","lat":43.29415,"lon":5.3862,"is_reserved":false,"is_disabled":false,"rental_uris":{"android":"levelo://app?vid=b41c30b6-77ed-4417-9cf4-1029fb547e67","ios":"levelo://app?vid=b41c30b6-77ed-4417-9cf4-1029fb547e67"},"vehicle_type_id":"4","last_reported":1737641320,"current_range_meters":37600,"station_id":"ce4bh2h2rcd13ifvqdh0","pricing_plan_id":"cebpf4jnsgd1na2vs0mg"},{"bike_id":"5d4fa761-e480-4599-a18e-55917918b6b9","system_id":"levelo_inurba_marseille","lat":43.23147,"lon":5.43702,"is_reserved":false,"is_disabled":false,"rental_uris":{"android":"levelo://app?vid=5d4fa761-e480-4599-a18e-55917918b6b9","ios":"levelo://app?vid=5d4fa761-e480-4599-a18e-55917918b6b9"},"vehicle_type_id":"4","last_reported":1737641320,"current_range_meters":17600,"station_id":"ce4bhmp2rcd13ifvqgog","pricing_plan_id":"cebpf4jnsgd1na2vs0mg"},{"bike_id":"8ebd6f9f-d039-403f-98dc-71fb0b803930","system_id":"levelo_inurba_marseille","lat":43.30519,"lon":5.36694,"is_reserved":false,"is_disabled":false,"rental_uris":{"android":"levelo://app?vid=8ebd6f9f-d039-403f-98dc-71fb0b803930","ios":"levelo://app?vid=8ebd6f9f-d039-403f-98dc-71fb0b803930"},"vehicle_type_id":"4","last_reported":1737641320,"current_range_meters":8800,"station_id":"ce4bgrp2rcd13ifvqc9g","pricing_plan_id":"cebpf4jnsgd1na2vs0mg"},{"bike_id":"8af8c407-bf84-4091-99cf-74f62278e1fc","system_id":"levelo_inurba_marseille","lat":43.30891,"lon":5.37176,"is_reserved":false,"is_disabled":false,"rental_uris":{"android":"levelo://app?vid=8af8c407-bf84-4091-99cf-74f62278e1fc","ios":"levelo://app?vid=8af8c407-bf84-4091-99cf-74f62278e1fc"},"vehicle_type_id":"4","last_reported":1737641320,"current_range_meters":36400,"station_id":"ce4bguh2rcd13ifvqckg","pricing_plan_id":"cebpf4jnsgd1na2vs0mg"},{"bike_id":"f3a832f2-1aba-41c8-bc3d-07efec850aeb","system_id":"levelo_inurba_marseille","lat":43.29009,"lon":5.3561,"is_reserved":false,"is_disabled":false,"rental_uris":{"android":"levelo://app?vid=f3a832f2-1aba-41c8-bc3d-07efec850aeb","ios":"levelo://app?vid=f3a832f2-1aba-41c8-bc3d-07efec850aeb"},"vehicle_type_id":"4","last_reported":1737641320,"current_range_meters":38800,"station_id":"ce4bhb92rcd13ifvqen0","pricing_plan_id":"cebpf4jnsgd1na2vs0mg"},{"bike_id":"78e04b22-500f-4fc2-b600-8f3fdd81bda1","system_id":"levelo_inurba_marseille","lat":43.2559,"lon":5.38252,"is_reserved":false,"is_disabled":false,"rental_uris":{"android":"levelo://app?vid=78e04b22-500f-4fc2-b600-8f3fdd81bda1","ios":"levelo://app?vid=78e04b22-500f-4fc2-b600-8f3fdd81bda1"},"vehicle_type_id":"4","last_reported":1737641320,"current_range_meters":16800,"station_id":"ce4bhih2rcd13ifvqfs0","pricing_plan_id":"cebpf4jnsgd1na2vs0mg"},{"bike_id":"3e06b19f-7d55-4b60-8b76-3d4464c364f5","system_id":"levelo_inurba_marseille","lat":43.254968,"lon":5.376577,"is_reserved":false,"is_disabled":false,"rental_uris":{"android":"levelo://app?vid=3e06b19f-7d55-4b60-8b76-3d4464c364f5","ios":"levelo://app?vid=3e06b19f-7d55-4b60-8b76-3d4464c364f5"},"vehicle_type_id":"4","last_reported":1737641320,"current_range_meters":16800,"station_id":"ce4bhh12rcd13ifvqff0","pricing_plan_id":"cebpf4jnsgd1na2vs0mg"},{"bike_id":"fc8e7cfb-1876-4a1c-a15b-8236f45c80b3","system_id":"levelo_inurba_marseille","lat":43.28849,"lon":5.39291,"is_reserved":false,"is_disabled":false,"rental_uris":{"android":"levelo://app?vid=fc8e7cfb-1876-4a1c-a15b-8236f45c80b3","ios":"levelo://app?vid=fc8e7cfb-1876-4a1c-a15b-8236f45c80b3"},"vehicle_type_id":"4","last_reported":1737641320,"current_range_meters":21600,"station_id":"ce4bh2p2rcd13ifvqdi0","pricing_plan_id":"cebpf4jnsgd1na2vs0mg"},{"bike_id":"32e4d9ea-8ba2-49a4-b23c-720e6b0ef0e1","system_id":"levelo_inurba_marseille","lat":43.28943,"lon":5.3641,"is_reserved":false,"is_disabled":true,"rental_uris":{"android":"levelo://app?vid=32e4d9ea-8ba2-49a4-b23c-720e6b0ef0e1","ios":"levelo://app?vid=32e4d9ea-8ba2-49a4-b23c-720e6b0ef0e1"},"vehicle_type_id":"4","last_reported":1737641320,"current_range_meters":24000,"station_id":"ce4bhc92rcd13ifvqetg","pricing_plan_id":"cebpf4jnsgd1na2vs0mg"},{"bike_id":"7278ee33-a4c1-4258-af97-41e64489172b","system_id":"levelo_inurba_marseille","lat":43.29543,"lon":5.38543,"is_reserved":false,"is_disabled":false,"rental_uris":{"android":"levelo://app?vid=7278ee33-a4c1-4258-af97-41e64489172b","ios":"levelo://app?vid=7278ee33-a4c1-4258-af97-41e64489172b"},"vehicle_type_id":"4","last_reported":1737641320,"current_range_meters":24000,"station_id":"ce4bgih2rcd13ifvqba0","pricing_plan_id":"cebpf4jnsgd1na2vs0mg"},{"bike_id":"159f9a9d-60ed-4b8f-90f2-23c1bf57b24d","system_id":"levelo_inurba_marseille","lat":43.28268,"lon":5.35072,"is_reserved":false,"is_disabled":false,"rental_uris":{"android":"levelo://app?vid=159f9a9d-60ed-4b8f-90f2-23c1bf57b24d","ios":"levelo://app?vid=159f9a9d-60ed-4b8f-90f2-23c1bf57b24d"},"vehicle_type_id":"4","last_reported":1737641320,"current_range_meters":30400,"station_id":"ce4bhbp2rcd13ifvqerg","pricing_plan_id":"cebpf4jnsgd1na2vs0mg"},{"bike_id":"c535ef4e-d44e-4978-ba7e-b7fce2addae6","system_id":"levelo_inurba_marseille","lat":43.32057,"lon":5.4153,"is_reserved":false,"is_disabled":false,"rental_uris":{"android":"levelo://app?vid=c535ef4e-d44e-4978-ba7e-b7fce2addae6","ios":"levelo://app?vid=c535ef4e-d44e-4978-ba7e-b7fce2addae6"},"vehicle_type_id":"4","last_reported":1737641320,"current_range_meters":39200,"station_id":"ce4bhq92rcd13ifvqhkg","pricing_plan_id":"cebpf4jnsgd1na2vs0mg"},{"bike_id":"a13abb27-e665-43e9-87a9-b8e3e0cbc35c","system_id":"levelo_inurba_marseille","lat":43.30583,"lon":5.36716,"is_reserved":false,"is_disabled":false,"rental_uris":{"android":"levelo://app?vid=a13abb27-e665-43e9-87a9-b8e3e0cbc35c","ios":"levelo://app?vid=a13abb27-e665-43e9-87a9-b8e3e0cbc35c"},"vehicle_type_id":"4","last_reported":1737641320,"current_range_meters":6000,"station_id":"","pricing_plan_id":"cebpf4jnsgd1na2vs0mg"},{"bike_id":"dec31f37-4218-40d0-a15b-0fef56fa9f65","system_id":"levelo_inurba_marseille","lat":43.28425,"lon":5.3752,"is_reserved":false,"is_disabled":false,"rental_uris":{"android":"levelo://app?vid=dec31f37-4218-40d0-a15b-0fef56fa9f65","ios":"levelo://app?vid=dec31f37-4218-40d0-a15b-0fef56fa9f65"},"vehicle_type_id":"4","last_reported":1737641320,"current_range_meters":9600,"station_id":"ce4bh412rcd13ifvqds0","pricing_plan_id":"cebpf4jnsgd1na2vs0mg"},{"bike_id":"b8f6ffa9-75e7-431e-b532-8286e4c34399","system_id":"levelo_inurba_marseille","lat":43.2558,"lon":5.38242,"is_reserved":false,"is_disabled":false,"rental_uris":{"android":"levelo://app?vid=b8f6ffa9-75e7-431e-b532-8286e4c34399","ios":"levelo://app?vid=b8f6ffa9-75e7-431e-b532-8286e4c34399"},"vehicle_type_id":"4","last_reported":1737641320,"current_range_meters":6800,"station_id":"ce4bhih2rcd13ifvqfs0","pricing_plan_id":"cebpf4jnsgd1na2vs0mg"},{"bike_id":"b7c1b669-81b3-4492-91f7-f1e7410caa45","system_id":"levelo_inurba_marseille","lat":43.32359,"lon":5.36741,"is_reserved":false,"is_disabled":false,"rental_uris":{"android":"levelo://app?vid=b7c1b669-81b3-4492-91f7-f1e7410caa45","ios":"levelo://app?vid=b7c1b669-81b3-4492-91f7-f1e7410caa45"},"vehicle_type_id":"4","last_reported":1737641320,"current_range_meters":31200,"station_id":"ce4bhsh2rcd13ifvqi2g","pricing_plan_id":"cebpf4jnsgd1na2vs0mg"},{"bike_id":"7ace546e-9c67-4124-8420-9ed07a575e5a","system_id":"levelo_inurba_marseille","lat":43.31629,"lon":5.40533,"is_reserved":false,"is_disabled":true,"rental_uris":{"android":"levelo://app?vid=7ace546e-9c67-4124-8420-9ed07a575e5a","ios":"levelo://app?vid=7ace546e-9c67-4124-8420-9ed07a575e5a"},"vehicle_type_id":"4","last_reported":1737641320,"current_range_meters":0,"station_id":"","pricing_plan_id":"cebpf4jnsgd1na2vs0mg"},{"bike_id":"5aaabc16-059a-4785-8f8b-166d94be6aac","system_id":"levelo_inurba_marseille","lat":43.24653,"lon":5.38171,"is_reserved":false,"is_disabled":false,"rental_uris":{"android":"levelo://app?vid=5aaabc16-059a-4785-8f8b-166d94be6aac","ios":"levelo://app?vid=5aaabc16-059a-4785-8f8b-166d94be6aac"},"vehicle_type_id":"4","last_reported":1737641320,"current_range_meters":8800,"station_id":"ce4bhih2rcd13ifvqfr0","pricing_plan_id":"cebpf4jnsgd1na2vs0mg"},{"bike_id":"bbdfc660-e997-4a11-9591-bbb56c89be46","system_id":"levelo_inurba_marseille","lat":43.33032,"lon":5.3905,"is_reserved":false,"is_disabled":false,"rental_uris":{"android":"levelo://app?vid=bbdfc660-e997-4a11-9591-bbb56c89be46","ios":"levelo://app?vid=bbdfc660-e997-4a11-9591-bbb56c89be46"},"vehicle_type_id":"4","last_reported":1737641320,"current_range_meters":24000,"station_id":"ce4bhr92rcd13ifvqhrg","pricing_plan_id":"cebpf4jnsgd1na2vs0mg"},{"bike_id":"5e75dd30-ab3b-44d3-8dcb-cb5fd4a0eb65","system_id":"levelo_inurba_marseille","lat":43.24672,"lon":5.38874,"is_reserved":false,"is_disabled":false,"rental_uris":{"android":"levelo://app?vid=5e75dd30-ab3b-44d3-8dcb-cb5fd4a0eb65","ios":"levelo://app?vid=5e75dd30-ab3b-44d3-8dcb-cb5fd4a0eb65"},"vehicle_type_id":"4","last_reported":1737641320,"current_range_meters":37600,"station_id":"ce4bhg12rcd13ifvqf60","pricing_plan_id":"cebpf4jnsgd1na2vs0mg"},{"bike_id":"c154b344-80c9-4a59-aac9-96e7b66e78c0","system_id":"levelo_inurba_marseille","lat":43.2926,"lon":5.40909,"is_reserved":false,"is_disabled":false,"rental_uris":{"android":"levelo://app?vid=c154b344-80c9-4a59-aac9-96e7b66e78c0","ios":"levelo://app?vid=c154b344-80c9-4a59-aac9-96e7b66e78c0"},"vehicle_type_id":"4","last_reported":1737641320,"current_range_meters":37600,"station_id":"ce4bh192rcd13ifvqdc0","pricing_plan_id":"cebpf4jnsgd1na2vs0mg"},{"bike_id":"6c2e2f41-9c52-4308-86ab-09129b1176ab","system_id":"levelo_inurba_marseille","lat":43.30537,"lon":5.3652,"is_reserved":false,"is_disabled":false,"rental_uris":{"android":"levelo://app?vid=6c2e2f41-9c52-4308-86ab-09129b1176ab","ios":"levelo://app?vid=6c2e2f41-9c52-4308-86ab-09129b1176ab"},"vehicle_type_id":"4","last_reported":1737641320,"current_range_meters":32000,"station_id":"ce4bgs12rcd13ifvqcag","pricing_plan_id":"cebpf4jnsgd1na2vs0mg"},{"bike_id":"4a4c021f-9941-4795-ae38-672688d4e693","system_id":"levelo_inurba_marseille","lat":43.29422,"lon":5.38618,"is_reserved":false,"is_disabled":false,"rental_uris":{"android":"levelo://app?vid=4a4c021f-9941-4795-ae38-672688d4e693","ios":"levelo://app?vid=4a4c021f-9941-4795-ae38-672688d4e693"},"vehicle_type_id":"4","last_reported":1737641320,"current_range_meters":27600,"station_id":"ce4bh2h2rcd13ifvqdh0","pricing_plan_id":"cebpf4jnsgd1na2vs0mg"},{"bike_id":"627cb65c-8458-444d-94bb-8117ef5675ba","system_id":"levelo_inurba_marseille","lat":43.30548,"lon":5.36531,"is_reserved":false,"is_disabled":false,"rental_uris":{"android":"levelo://app?vid=627cb65c-8458-444d-94bb-8117ef5675ba","ios":"levelo://app?vid=627cb65c-8458-444d-94bb-8117ef5675ba"},"vehicle_type_id":"4","last_reported":1737641320,"current_range_meters":27200,"station_id":"ce4bgs12rcd13ifvqcag","pricing_plan_id":"cebpf4jnsgd1na2vs0mg"},{"bike_id":"9838cc78-2b53-49d3-ae13-82df62c4fd64","system_id":"levelo_inurba_marseille","lat":43.28435,"lon":5.40933,"is_reserved":false,"is_disabled":false,"rental_uris":{"android":"levelo://app?vid=9838cc78-2b53-49d3-ae13-82df62c4fd64","ios":"levelo://app?vid=9838cc78-2b53-49d3-ae13-82df62c4fd64"},"vehicle_type_id":"4","last_reported":1737641320,"current_range_meters":6000,"station_id":"","pricing_plan_id":"cebpf4jnsgd1na2vs0mg"},{"bike_id":"c9d5130a-2519-42e5-9738-1fe954b7236a","system_id":"levelo_inurba_marseille","lat":43.29167,"lon":5.37145,"is_reserved":false,"is_disabled":false,"rental_uris":{"android":"levelo://app?vid=c9d5130a-2519-42e5-9738-1fe954b7236a","ios":"levelo://app?vid=c9d5130a-2519-42e5-9738-1fe954b7236a"},"vehicle_type_id":"4","last_reported":1737641320,"current_range_meters":33200,"station_id":"ce4bha92rcd13ifvqeh0","pricing_plan_id":"cebpf4jnsgd1na2vs0mg"},{"bike_id":"d9d67e50-ff60-4024-bb97-06b4cc192a7e","system_id":"levelo_inurba_marseille","lat":43.30233,"lon":5.37486,"is_reserved":false,"is_disabled":true,"rental_uris":{"android":"levelo://app?vid=d9d67e50-ff60-4024-bb97-06b4cc192a7e","ios":"levelo://app?vid=d9d67e50-ff60-4024-bb97-06b4cc192a7e"},"vehicle_type_id":"4","last_reported":1737641320,"current_range_meters":38800,"station_id":"","pricing_plan_id":"cebpf4jnsgd1na2vs0mg"},{"bike_id":"7d763c98-42ea-4785-9a67-445fecef725e","system_id":"levelo_inurba_marseille","lat":43.28243,"lon":5.35025,"is_reserved":false,"is_disabled":false,"rental_uris":{"android":"levelo://app?vid=7d763c98-42ea-4785-9a67-445fecef725e","ios":"levelo://app?vid=7d763c98-42ea-4785-9a67-445fecef725e"},"vehicle_type_id":"4","last_reported":1737641320,"current_range_meters":38800,"station_id":"ce4bhbp2rcd13ifvqerg","pricing_plan_id":"cebpf4jnsgd1na2vs0mg"},{"bike_id":"19b8198b-0b8b-41c2-8c4a-a703ec5c010b","system_id":"levelo_inurba_marseille","lat":43.30185,"lon":5.38089,"is_reserved":false,"is_disabled":false,"rental_uris":{"android":"levelo://app?vid=19b8198b-0b8b-41c2-8c4a-a703ec5c010b","ios":"levelo://app?vid=19b8198b-0b8b-41c2-8c4a-a703ec5c010b"},"vehicle_type_id":"4","last_reported":1737641320,"current_range_meters":38800,"station_id":"ce4bgjp2rcd13ifvqbh0","pricing_plan_id":"cebpf4jnsgd1na2vs0mg"},{"bike_id":"2ff8aa2c-6030-4929-9d20-8b73670094e6","system_id":"levelo_inurba_marseille","lat":43.30542,"lon":5.36549,"is_reserved":false,"is_disabled":false,"rental_uris":{"android":"levelo://app?vid=2ff8aa2c-6030-4929-9d20-8b73670094e6","ios":"levelo://app?vid=2ff8aa2c-6030-4929-9d20-8b73670094e6"},"vehicle_type_id":"4","last_reported":1737641320,"current_range_meters":25200,"station_id":"ce4bgs12rcd13ifvqcag","pricing_plan_id":"cebpf4jnsgd1na2vs0mg"},{"bike_id":"d33ce505-31a0-499b-a406-756f59703e9b","system_id":"levelo_inurba_marseille","lat":43.30422,"lon":5.39745,"is_reserved":false,"is_disabled":false,"rental_uris":{"android":"levelo://app?vid=d33ce505-31a0-499b-a406-756f59703e9b","ios":"levelo://app?vid=d33ce505-31a0-499b-a406-756f59703e9b"},"vehicle_type_id":"4","last_reported":1737641320,"current_range_meters":28000,"station_id":"ce4bh092rcd13ifvqd20","pricing_plan_id":"cebpf4jnsgd1na2vs0mg"},{"bike_id":"634d56c1-a2c0-4178-97ec-f77ccc52b51c","system_id":"levelo_inurba_marseille","lat":43.23185,"lon":5.39947,"is_reserved":false,"is_disabled":false,"rental_uris":{"android":"levelo://app?vid=634d56c1-a2c0-4178-97ec-f77ccc52b51c","ios":"levelo://app?vid=634d56c1-a2c0-4178-97ec-f77ccc52b51c"},"vehicle_type_id":"4","last_reported":1737641320,"current_range_meters":36000,"station_id":"ce4bhn12rcd13ifvqgqg","pricing_plan_id":"cebpf4jnsgd1na2vs0mg"},{"bike_id":"453049cf-9b62-421e-aca6-df9a4afd0bf0","system_id":"levelo_inurba_marseille","lat":43.2812,"lon":5.37814,"is_reserved":false,"is_disabled":false,"rental_uris":{"android":"levelo://app?vid=453049cf-9b62-421e-aca6-df9a4afd0bf0","ios":"levelo://app?vid=453049cf-9b62-421e-aca6-df9a4afd0bf0"},"vehicle_type_id":"4","last_reported":1737641320,"current_range_meters":11600,"station_id":"ce4bha12rcd13ifvqee0","pricing_plan_id":"cebpf4jnsgd1na2vs0mg"},{"bike_id":"e2354e19-89dd-46a5-b901-2e78fe9728e6","system_id":"levelo_inurba_marseille","lat":43.33593,"lon":5.40967,"is_reserved":false,"is_disabled":false,"rental_uris":{"android":"levelo://app?vid=e2354e19-89dd-46a5-b901-2e78fe9728e6","ios":"levelo://app?vid=e2354e19-89dd-46a5-b901-2e78fe9728e6"},"vehicle_type_id":"4","last_reported":1737641320,"current_range_meters":36400,"station_id":"","pricing_plan_id":"cebpf4jnsgd1na2vs0mg"},{"bike_id":"f4630646-60d0-4628-9e00-43bcdef8c001","system_id":"levelo_inurba_marseille","lat":43.29559,"lon":5.42266,"is_reserved":false,"is_disabled":false,"rental_uris":{"android":"levelo://app?vid=f4630646-60d0-4628-9e00-43bcdef8c001","ios":"levelo://app?vid=f4630646-60d0-4628-9e00-43bcdef8c001"},"vehicle_type_id":"4","last_reported":1737641320,"current_range_meters":19200,"station_id":"ce4bhph2rcd13ifvqhdg","pricing_plan_id":"cebpf4jnsgd1na2vs0mg"},{"bike_id":"68b608b1-4b2e-42e4-afbb-5cdcf5bc15cf","system_id":"levelo_inurba_marseille","lat":43.26679,"lon":5.38264,"is_reserved":false,"is_disabled":false,"rental_uris":{"android":"levelo://app?vid=68b608b1-4b2e-42e4-afbb-5cdcf5bc15cf","ios":"levelo://app?vid=68b608b1-4b2e-42e4-afbb-5cdcf5bc15cf"},"vehicle_type_id":"4","last_reported":1737641320,"current_range_meters":24400,"station_id":"ce4bhg92rcd13ifvqf90","pricing_plan_id":"cebpf4jnsgd1na2vs0mg"},{"bike_id":"676c7090-2937-49b3-afd5-dfe725a18ca7","system_id":"levelo_inurba_marseille","lat":43.32342,"lon":5.40618,"is_reserved":false,"is_disabled":false,"rental_uris":{"android":"levelo://app?vid=676c7090-2937-49b3-afd5-dfe725a18ca7","ios":"levelo://app?vid=676c7090-2937-49b3-afd5-dfe725a18ca7"},"vehicle_type_id":"4","last_reported":1737641320,"current_range_meters":28400,"station_id":"ce4bhq92rcd13ifvqhjg","pricing_plan_id":"cebpf4jnsgd1na2vs0mg"},{"bike_id":"0c50be19-d112-449b-8e4b-1c6387d54940","system_id":"levelo_inurba_marseille","lat":43.30438,"lon":5.38885,"is_reserved":false,"is_disabled":false,"rental_uris":{"android":"levelo://app?vid=0c50be19-d112-449b-8e4b-1c6387d54940","ios":"levelo://app?vid=0c50be19-d112-449b-8e4b-1c6387d54940"},"vehicle_type_id":"4","last_reported":1737641320,"current_range_meters":38000,"station_id":"ce4bgk12rcd13ifvqbi0","pricing_plan_id":"cebpf4jnsgd1na2vs0mg"},{"bike_id":"e2151eb3-314b-404c-b259-cf12a3a3e0c6","system_id":"levelo_inurba_marseille","lat":43.31581,"lon":5.40253,"is_reserved":false,"is_disabled":false,"rental_uris":{"android":"levelo://app?vid=e2151eb3-314b-404c-b259-cf12a3a3e0c6","ios":"levelo://app?vid=e2151eb3-314b-404c-b259-cf12a3a3e0c6"},"vehicle_type_id":"4","last_reported":1737641320,"current_range_meters":22800,"station_id":"","pricing_plan_id":"cebpf4jnsgd1na2vs0mg"},{"bike_id":"008eeba8-6089-43ad-99b2-d1d8874e491d","system_id":"levelo_inurba_marseille","lat":43.31382,"lon":5.36666,"is_reserved":false,"is_disabled":false,"rental_uris":{"android":"levelo://app?vid=008eeba8-6089-43ad-99b2-d1d8874e491d","ios":"levelo://app?vid=008eeba8-6089-43ad-99b2-d1d8874e491d"},"vehicle_type_id":"4","last_reported":1737641320,"current_range_meters":31200,"station_id":"ce4bgr92rcd13ifvqc6g","pricing_plan_id":"cebpf4jnsgd1na2vs0mg"},{"bike_id":"fe1d98f5-afb0-4b9a-9249-4ac090fab3cc","system_id":"levelo_inurba_marseille","lat":43.32358,"lon":5.42055,"is_reserved":false,"is_disabled":false,"rental_uris":{"android":"levelo://app?vid=fe1d98f5-afb0-4b9a-9249-4ac090fab3cc","ios":"levelo://app?vid=fe1d98f5-afb0-4b9a-9249-4ac090fab3cc"},"vehicle_type_id":"4","last_reported":1737641320,"current_range_meters":24800,"station_id":"","pricing_plan_id":"cebpf4jnsgd1na2vs0mg"},{"bike_id":"c446ad5f-fc4f-4fc2-a7ec-32df569ac582","system_id":"levelo_inurba_marseille","lat":43.31723,"lon":5.40426,"is_reserved":false,"is_disabled":false,"rental_uris":{"android":"levelo://app?vid=c446ad5f-fc4f-4fc2-a7ec-32df569ac582","ios":"levelo://app?vid=c446ad5f-fc4f-4fc2-a7ec-32df569ac582"},"vehicle_type_id":"4","last_reported":1737641320,"current_range_meters":16800,"station_id":"","pricing_plan_id":"cebpf4jnsgd1na2vs0mg"},{"bike_id":"04de6f23-407d-4fcf-b28c-ee2a21a52bbe","system_id":"levelo_inurba_marseille","lat":43.2316,"lon":5.43701,"is_reserved":false,"is_disabled":false,"rental_uris":{"android":"levelo://app?vid=04de6f23-407d-4fcf-b28c-ee2a21a52bbe","ios":"levelo://app?vid=04de6f23-407d-4fcf-b28c-ee2a21a52bbe"},"vehicle_type_id":"4","last_reported":1737641320,"current_range_meters":38800,"station_id":"ce4bhmp2rcd13ifvqgog","pricing_plan_id":"cebpf4jnsgd1na2vs0mg"},{"bike_id":"69a86bea-e45a-4c59-bda6-e437779be8ab","system_id":"levelo_inurba_marseille","lat":43.25585,"lon":5.38234,"is_reserved":false,"is_disabled":false,"rental_uris":{"android":"levelo://app?vid=69a86bea-e45a-4c59-bda6-e437779be8ab","ios":"levelo://app?vid=69a86bea-e45a-4c59-bda6-e437779be8ab"},"vehicle_type_id":"4","last_reported":1737641320,"current_range_meters":20800,"station_id":"ce4bhih2rcd13ifvqfs0","pricing_plan_id":"cebpf4jnsgd1na2vs0mg"},{"bike_id":"decf248f-8217-4b3f-bda1-8bc0e3bb54ea","system_id":"levelo_inurba_marseille","lat":43.31684,"lon":5.40473,"is_reserved":false,"is_disabled":false,"rental_uris":{"android":"levelo://app?vid=decf248f-8217-4b3f-bda1-8bc0e3bb54ea","ios":"levelo://app?vid=decf248f-8217-4b3f-bda1-8bc0e3bb54ea"},"vehicle_type_id":"4","last_reported":1737641320,"current_range_meters":9200,"station_id":"ce4bh012rcd13ifvqd00","pricing_plan_id":"cebpf4jnsgd1na2vs0mg"},{"bike_id":"050bd42b-0fa4-4ea3-8a02-3c1196960ece","system_id":"levelo_inurba_marseille","lat":43.31641,"lon":5.37391,"is_reserved":false,"is_disabled":false,"rental_uris":{"android":"levelo://app?vid=050bd42b-0fa4-4ea3-8a02-3c1196960ece","ios":"levelo://app?vid=050bd42b-0fa4-4ea3-8a02-3c1196960ece"},"vehicle_type_id":"4","last_reported":1737641320,"current_range_meters":27200,"station_id":"","pricing_plan_id":"cebpf4jnsgd1na2vs0mg"},{"bike_id":"3a59db95-3ba3-45d9-9d51-35faeb1e0f2b","system_id":"levelo_inurba_marseille","lat":43.2511,"lon":5.40321,"is_reserved":false,"is_disabled":false,"rental_uris":{"android":"levelo://app?vid=3a59db95-3ba3-45d9-9d51-35faeb1e0f2b","ios":"levelo://app?vid=3a59db95-3ba3-45d9-9d51-35faeb1e0f2b"},"vehicle_type_id":"4","last_reported":1737641320,"current_range_meters":21600,"station_id":"ce4bhlh2rcd13ifvqgig","pricing_plan_id":"cebpf4jnsgd1na2vs0mg"},{"bike_id":"d902f773-2297-4aba-9f83-caf51b395911","system_id":"levelo_inurba_marseille","lat":43.25935,"lon":5.40909,"is_reserved":false,"is_disabled":false,"rental_uris":{"android":"levelo://app?vid=d902f773-2297-4aba-9f83-caf51b395911","ios":"levelo://app?vid=d902f773-2297-4aba-9f83-caf51b395911"},"vehicle_type_id":"4","last_reported":1737641320,"current_range_meters":14400,"station_id":"ce4bhm92rcd13ifvqglg","pricing_plan_id":"cebpf4jnsgd1na2vs0mg"},{"bike_id":"1970fe03-2a19-4871-a01b-17809d851312","system_id":"levelo_inurba_marseille","lat":43.24384,"lon":5.37062,"is_reserved":false,"is_disabled":false,"rental_uris":{"android":"levelo://app?vid=1970fe03-2a19-4871-a01b-17809d851312","ios":"levelo://app?vid=1970fe03-2a19-4871-a01b-17809d851312"},"vehicle_type_id":"4","last_reported":1737641320,"current_range_meters":39200,"station_id":"ce4bhhh2rcd13ifvqfk0","pricing_plan_id":"cebpf4jnsgd1na2vs0mg"},{"bike_id":"fe2dfd38-2ef9-441c-ba10-be1bc71fc1c6","system_id":"levelo_inurba_marseille","lat":43.30541,"lon":5.36726,"is_reserved":false,"is_disabled":false,"rental_uris":{"android":"levelo://app?vid=fe2dfd38-2ef9-441c-ba10-be1bc71fc1c6","ios":"levelo://app?vid=fe2dfd38-2ef9-441c-ba10-be1bc71fc1c6"},"vehicle_type_id":"4","last_reported":1737641320,"current_range_meters":38800,"station_id":"ce4bgrp2rcd13ifvqc9g","pricing_plan_id":"cebpf4jnsgd1na2vs0mg"},{"bike_id":"6440f376-b0ac-4979-8b74-813c76d7599b","system_id":"levelo_inurba_marseille","lat":43.24146,"lon":5.39696,"is_reserved":false,"is_disabled":false,"rental_uris":{"android":"levelo://app?vid=6440f376-b0ac-4979-8b74-813c76d7599b","ios":"levelo://app?vid=6440f376-b0ac-4979-8b74-813c76d7599b"},"vehicle_type_id":"4","last_reported":1737641320,"current_range_meters":25200,"station_id":"ce4bhn12rcd13ifvqgpg","pricing_plan_id":"cebpf4jnsgd1na2vs0mg"},{"bike_id":"a505ce1f-8cde-4278-ad0a-92611cbf1bab","system_id":"levelo_inurba_marseille","lat":43.29056,"lon":5.3718,"is_reserved":false,"is_disabled":false,"rental_uris":{"android":"levelo://app?vid=a505ce1f-8cde-4278-ad0a-92611cbf1bab","ios":"levelo://app?vid=a505ce1f-8cde-4278-ad0a-92611cbf1bab"},"vehicle_type_id":"4","last_reported":1737641320,"current_range_meters":36400,"station_id":"","pricing_plan_id":"cebpf4jnsgd1na2vs0mg"},{"bike_id":"f98a7ee0-f9fe-4556-933e-ecf6827038e5","system_id":"levelo_inurba_marseille","lat":43.29187,"lon":5.3574,"is_reserved":false,"is_disabled":false,"rental_uris":{"android":"levelo://app?vid=f98a7ee0-f9fe-4556-933e-ecf6827038e5","ios":"levelo://app?vid=f98a7ee0-f9fe-4556-933e-ecf6827038e5"},"vehicle_type_id":"4","last_reported":1737641320,"current_range_meters":13600,"station_id":"ce4bhb12rcd13ifvqel0","pricing_plan_id":"cebpf4jnsgd1na2vs0mg"},{"bike_id":"37b12b9d-16e5-42e2-a6c0-a10636bfd02f","system_id":"levelo_inurba_marseille","lat":43.27702,"lon":5.3894,"is_reserved":false,"is_disabled":false,"rental_uris":{"android":"levelo://app?vid=37b12b9d-16e5-42e2-a6c0-a10636bfd02f","ios":"levelo://app?vid=37b12b9d-16e5-42e2-a6c0-a10636bfd02f"},"vehicle_type_id":"4","last_reported":1737641320,"current_range_meters":36800,"station_id":"","pricing_plan_id":"cebpf4jnsgd1na2vs0mg"},{"bike_id":"90b8a1b1-ad54-458d-9362-f5197bbdf048","system_id":"levelo_inurba_marseille","lat":43.22933,"lon":5.35377,"is_reserved":false,"is_disabled":false,"rental_uris":{"android":"levelo://app?vid=90b8a1b1-ad54-458d-9362-f5197bbdf048","ios":"levelo://app?vid=90b8a1b1-ad54-458d-9362-f5197bbdf048"},"vehicle_type_id":"4","last_reported":1737641320,"current_range_meters":24400,"station_id":"cpo3532slgdg3j2ikp40","pricing_plan_id":"cebpf4jnsgd1na2vs0mg"},{"bike_id":"0ded85d8-2f57-4525-b0f1-4f36941d0e9f","system_id":"levelo_inurba_marseille","lat":43.3376,"lon":5.37444,"is_reserved":false,"is_disabled":false,"rental_uris":{"android":"levelo://app?vid=0ded85d8-2f57-4525-b0f1-4f36941d0e9f","ios":"levelo://app?vid=0ded85d8-2f57-4525-b0f1-4f36941d0e9f"},"vehicle_type_id":"4","last_reported":1737641320,"current_range_meters":24800,"station_id":"","pricing_plan_id":"cebpf4jnsgd1na2vs0mg"},{"bike_id":"91f957bd-7ae6-4841-8ac4-1ecdcd0c697e","system_id":"levelo_inurba_marseille","lat":43.31583,"lon":5.40196,"is_reserved":false,"is_disabled":false,"rental_uris":{"android":"levelo://app?vid=91f957bd-7ae6-4841-8ac4-1ecdcd0c697e","ios":"levelo://app?vid=91f957bd-7ae6-4841-8ac4-1ecdcd0c697e"},"vehicle_type_id":"4","last_reported":1737641320,"current_range_meters":25600,"station_id":"","pricing_plan_id":"cebpf4jnsgd1na2vs0mg"},{"bike_id":"e1e8184d-cf44-47c1-885e-c915f3b506e6","system_id":"levelo_inurba_marseille","lat":43.29903,"lon":5.37481,"is_reserved":false,"is_disabled":false,"rental_uris":{"android":"levelo://app?vid=e1e8184d-cf44-47c1-885e-c915f3b506e6","ios":"levelo://app?vid=e1e8184d-cf44-47c1-885e-c915f3b506e6"},"vehicle_type_id":"4","last_reported":1737641320,"current_range_meters":38800,"station_id":"ce4bgjh2rcd13ifvqbg0","pricing_plan_id":"cebpf4jnsgd1na2vs0mg"},{"bike_id":"1315334b-7c0b-4f02-9ef0-f0ca042423c4","system_id":"levelo_inurba_marseille","lat":43.302887,"lon":5.376965,"is_reserved":false,"is_disabled":false,"rental_uris":{"android":"levelo://app?vid=1315334b-7c0b-4f02-9ef0-f0ca042423c4","ios":"levelo://app?vid=1315334b-7c0b-4f02-9ef0-f0ca042423c4"},"vehicle_type_id":"4","last_reported":1737641320,"current_range_meters":28000,"station_id":"ce4bguh2rcd13ifvqcj0","pricing_plan_id":"cebpf4jnsgd1na2vs0mg"},{"bike_id":"c4500821-8242-4f17-be4b-8a8e65d70c73","system_id":"levelo_inurba_marseille","lat":43.23156,"lon":5.43728,"is_reserved":false,"is_disabled":false,"rental_uris":{"android":"levelo://app?vid=c4500821-8242-4f17-be4b-8a8e65d70c73","ios":"levelo://app?vid=c4500821-8242-4f17-be4b-8a8e65d70c73"},"vehicle_type_id":"4","last_reported":1737641320,"current_range_meters":38800,"station_id":"ce4bhmp2rcd13ifvqgog","pricing_plan_id":"cebpf4jnsgd1na2vs0mg"},{"bike_id":"1ee7bef7-447c-4f95-ad64-879a9495723d","system_id":"levelo_inurba_marseille","lat":43.29043,"lon":5.3591,"is_reserved":false,"is_disabled":false,"rental_uris":{"android":"levelo://app?vid=1ee7bef7-447c-4f95-ad64-879a9495723d","ios":"levelo://app?vid=1ee7bef7-447c-4f95-ad64-879a9495723d"},"vehicle_type_id":"4","last_reported":1737641320,"current_range_meters":37600,"station_id":"ce4bha92rcd13ifvqeg0","pricing_plan_id":"cebpf4jnsgd1na2vs0mg"},{"bike_id":"62069f6c-3dd9-4b79-9f44-941214b1a57f","system_id":"levelo_inurba_marseille","lat":43.299333,"lon":5.365307,"is_reserved":false,"is_disabled":false,"rental_uris":{"android":"levelo://app?vid=62069f6c-3dd9-4b79-9f44-941214b1a57f","ios":"levelo://app?vid=62069f6c-3dd9-4b79-9f44-941214b1a57f"},"vehicle_type_id":"4","last_reported":1737641320,"current_range_meters":38800,"station_id":"ce4bgm92rcd13ifvqbr0","pricing_plan_id":"cebpf4jnsgd1na2vs0mg"},{"bike_id":"93272e05-df9a-4f00-9250-d844fb579635","system_id":"levelo_inurba_marseille","lat":43.29873,"lon":5.36284,"is_reserved":false,"is_disabled":false,"rental_uris":{"android":"levelo://app?vid=93272e05-df9a-4f00-9250-d844fb579635","ios":"levelo://app?vid=93272e05-df9a-4f00-9250-d844fb579635"},"vehicle_type_id":"4","last_reported":1737641320,"current_range_meters":17200,"station_id":"ce4bgpp2rcd13ifvqc3g","pricing_plan_id":"cebpf4jnsgd1na2vs0mg"},{"bike_id":"ce90fea6-ff2a-4d0b-bd4f-45ced0acf4c0","system_id":"levelo_inurba_marseille","lat":43.323532,"lon":5.367539,"is_reserved":false,"is_disabled":false,"rental_uris":{"android":"levelo://app?vid=ce90fea6-ff2a-4d0b-bd4f-45ced0acf4c0","ios":"levelo://app?vid=ce90fea6-ff2a-4d0b-bd4f-45ced0acf4c0"},"vehicle_type_id":"4","last_reported":1737641320,"current_range_meters":11200,"station_id":"ce4bhsh2rcd13ifvqi2g","pricing_plan_id":"cebpf4jnsgd1na2vs0mg"},{"bike_id":"ab13439f-1c4b-4b83-ac72-9f4e6d1f64cb","system_id":"levelo_inurba_marseille","lat":43.31243,"lon":5.37963,"is_reserved":false,"is_disabled":true,"rental_uris":{"android":"levelo://app?vid=ab13439f-1c4b-4b83-ac72-9f4e6d1f64cb","ios":"levelo://app?vid=ab13439f-1c4b-4b83-ac72-9f4e6d1f64cb"},"vehicle_type_id":"4","last_reported":1737641320,"current_range_meters":10000,"station_id":"","pricing_plan_id":"cebpf4jnsgd1na2vs0mg"},{"bike_id":"3cebb0b3-65e7-45d1-9b19-342cd33d54ae","system_id":"levelo_inurba_marseille","lat":43.23965,"lon":5.36633,"is_reserved":false,"is_disabled":false,"rental_uris":{"android":"levelo://app?vid=3cebb0b3-65e7-45d1-9b19-342cd33d54ae","ios":"levelo://app?vid=3cebb0b3-65e7-45d1-9b19-342cd33d54ae"},"vehicle_type_id":"4","last_reported":1737641320,"current_range_meters":38800,"station_id":"ce4bhi12rcd13ifvqfp0","pricing_plan_id":"cebpf4jnsgd1na2vs0mg"},{"bike_id":"02394dc5-85af-47df-a8e1-31c154c9e2cc","system_id":"levelo_inurba_marseille","lat":43.23204,"lon":5.39961,"is_reserved":false,"is_disabled":false,"rental_uris":{"android":"levelo://app?vid=02394dc5-85af-47df-a8e1-31c154c9e2cc","ios":"levelo://app?vid=02394dc5-85af-47df-a8e1-31c154c9e2cc"},"vehicle_type_id":"4","last_reported":1737641320,"current_range_meters":38000,"station_id":"ce4bhn12rcd13ifvqgqg","pricing_plan_id":"cebpf4jnsgd1na2vs0mg"},{"bike_id":"8fa1cfa8-dc33-47f5-b777-912d9a7a7eb3","system_id":"levelo_inurba_marseille","lat":43.26809,"lon":5.4027,"is_reserved":false,"is_disabled":false,"rental_uris":{"android":"levelo://app?vid=8fa1cfa8-dc33-47f5-b777-912d9a7a7eb3","ios":"levelo://app?vid=8fa1cfa8-dc33-47f5-b777-912d9a7a7eb3"},"vehicle_type_id":"4","last_reported":1737641320,"current_range_meters":30400,"station_id":"ce501612rcd8frsf0b60","pricing_plan_id":"cebpf4jnsgd1na2vs0mg"},{"bike_id":"9852a9dc-943a-442f-9475-a08ad558062a","system_id":"levelo_inurba_marseille","lat":43.30287,"lon":5.37709,"is_reserved":false,"is_disabled":false,"rental_uris":{"android":"levelo://app?vid=9852a9dc-943a-442f-9475-a08ad558062a","ios":"levelo://app?vid=9852a9dc-943a-442f-9475-a08ad558062a"},"vehicle_type_id":"4","last_reported":1737641320,"current_range_meters":38800,"station_id":"ce4bguh2rcd13ifvqcj0","pricing_plan_id":"cebpf4jnsgd1na2vs0mg"},{"bike_id":"69c47985-dae8-486f-a22e-57ba7614bd83","system_id":"levelo_inurba_marseille","lat":43.29954,"lon":5.41318,"is_reserved":false,"is_disabled":false,"rental_uris":{"android":"levelo://app?vid=69c47985-dae8-486f-a22e-57ba7614bd83","ios":"levelo://app?vid=69c47985-dae8-486f-a22e-57ba7614bd83"},"vehicle_type_id":"4","last_reported":1737641320,"current_range_meters":38800,"station_id":"ce4bhp12rcd13ifvqh9g","pricing_plan_id":"cebpf4jnsgd1na2vs0mg"},{"bike_id":"704b9ac4-08a6-48ef-85ea-bb2a6455baf7","system_id":"levelo_inurba_marseille","lat":43.26212,"lon":5.37919,"is_reserved":false,"is_disabled":false,"rental_uris":{"android":"levelo://app?vid=704b9ac4-08a6-48ef-85ea-bb2a6455baf7","ios":"levelo://app?vid=704b9ac4-08a6-48ef-85ea-bb2a6455baf7"},"vehicle_type_id":"4","last_reported":1737641320,"current_range_meters":39200,"station_id":"ce4bhjp2rcd13ifvqg90","pricing_plan_id":"cebpf4jnsgd1na2vs0mg"},{"bike_id":"852c4b2c-ff0b-4349-b1ad-8f4566913b6c","system_id":"levelo_inurba_marseille","lat":43.29713,"lon":5.37703,"is_reserved":false,"is_disabled":true,"rental_uris":{"android":"levelo://app?vid=852c4b2c-ff0b-4349-b1ad-8f4566913b6c","ios":"levelo://app?vid=852c4b2c-ff0b-4349-b1ad-8f4566913b6c"},"vehicle_type_id":"4","last_reported":1737641320,"current_range_meters":800,"station_id":"ce4bgkh2rcd13ifvqbl0","pricing_plan_id":"cebpf4jnsgd1na2vs0mg"},{"bike_id":"6d7c8f09-d269-42e8-961c-bf0125e99474","system_id":"levelo_inurba_marseille","lat":43.28714,"lon":5.37956,"is_reserved":false,"is_disabled":false,"rental_uris":{"android":"levelo://app?vid=6d7c8f09-d269-42e8-961c-bf0125e99474","ios":"levelo://app?vid=6d7c8f09-d269-42e8-961c-bf0125e99474"},"vehicle_type_id":"4","last_reported":1737641320,"current_range_meters":19600,"station_id":"ce4bh9p2rcd13ifvqec0","pricing_plan_id":"cebpf4jnsgd1na2vs0mg"},{"bike_id":"cb89451d-fcbc-47ab-bfa4-263d9c5e103c","system_id":"levelo_inurba_marseille","lat":43.25002,"lon":5.38934,"is_reserved":false,"is_disabled":false,"rental_uris":{"android":"levelo://app?vid=cb89451d-fcbc-47ab-bfa4-263d9c5e103c","ios":"levelo://app?vid=cb89451d-fcbc-47ab-bfa4-263d9c5e103c"},"vehicle_type_id":"4","last_reported":1737641320,"current_range_meters":30000,"station_id":"ce4bhgp2rcd13ifvqfd0","pricing_plan_id":"cebpf4jnsgd1na2vs0mg"},{"bike_id":"c4db15ea-eb22-409d-a92c-518ac96d96dd","system_id":"levelo_inurba_marseille","lat":43.295613,"lon":5.422762,"is_reserved":false,"is_disabled":false,"rental_uris":{"android":"levelo://app?vid=c4db15ea-eb22-409d-a92c-518ac96d96dd","ios":"levelo://app?vid=c4db15ea-eb22-409d-a92c-518ac96d96dd"},"vehicle_type_id":"4","last_reported":1737641320,"current_range_meters":37600,"station_id":"ce4bhph2rcd13ifvqhdg","pricing_plan_id":"cebpf4jnsgd1na2vs0mg"},{"bike_id":"6b125c51-5c41-42fb-9f43-d4aebecc8e1f","system_id":"levelo_inurba_marseille","lat":43.29026,"lon":5.37572,"is_reserved":false,"is_disabled":false,"rental_uris":{"android":"levelo://app?vid=6b125c51-5c41-42fb-9f43-d4aebecc8e1f","ios":"levelo://app?vid=6b125c51-5c41-42fb-9f43-d4aebecc8e1f"},"vehicle_type_id":"4","last_reported":1737641320,"current_range_meters":38000,"station_id":"ce4bh692rcd13ifvqe90","pricing_plan_id":"cebpf4jnsgd1na2vs0mg"},{"bike_id":"2876aca2-4ddb-4f16-984a-1efd2877960c","system_id":"levelo_inurba_marseille","lat":43.33624,"lon":5.39224,"is_reserved":false,"is_disabled":false,"rental_uris":{"android":"levelo://app?vid=2876aca2-4ddb-4f16-984a-1efd2877960c","ios":"levelo://app?vid=2876aca2-4ddb-4f16-984a-1efd2877960c"},"vehicle_type_id":"4","last_reported":1737641320,"current_range_meters":38800,"station_id":"ce4bhr92rcd13ifvqhsg","pricing_plan_id":"cebpf4jnsgd1na2vs0mg"},{"bike_id":"3a584a2d-0bec-48d3-bef1-1f525427e3b5","system_id":"levelo_inurba_marseille","lat":43.31325,"lon":5.39696,"is_reserved":false,"is_disabled":false,"rental_uris":{"android":"levelo://app?vid=3a584a2d-0bec-48d3-bef1-1f525427e3b5","ios":"levelo://app?vid=3a584a2d-0bec-48d3-bef1-1f525427e3b5"},"vehicle_type_id":"4","last_reported":1737641320,"current_range_meters":38800,"station_id":"ce4bgvp2rcd13ifvqcu0","pricing_plan_id":"cebpf4jnsgd1na2vs0mg"},{"bike_id":"3e1f84e6-5956-4433-9e0c-5a69ccb192ca","system_id":"levelo_inurba_marseille","lat":43.27486,"lon":5.42464,"is_reserved":false,"is_disabled":false,"rental_uris":{"android":"levelo://app?vid=3e1f84e6-5956-4433-9e0c-5a69ccb192ca","ios":"levelo://app?vid=3e1f84e6-5956-4433-9e0c-5a69ccb192ca"},"vehicle_type_id":"4","last_reported":1737641320,"current_range_meters":7200,"station_id":"ce4bhn92rcd13ifvqgrg","pricing_plan_id":"cebpf4jnsgd1na2vs0mg"},{"bike_id":"15529485-bb03-43f2-8208-0da69a1dcabc","system_id":"levelo_inurba_marseille","lat":43.28284,"lon":5.35076,"is_reserved":false,"is_disabled":false,"rental_uris":{"android":"levelo://app?vid=15529485-bb03-43f2-8208-0da69a1dcabc","ios":"levelo://app?vid=15529485-bb03-43f2-8208-0da69a1dcabc"},"vehicle_type_id":"4","last_reported":1737641320,"current_range_meters":23200,"station_id":"ce4bhbp2rcd13ifvqerg","pricing_plan_id":"cebpf4jnsgd1na2vs0mg"},{"bike_id":"fc0abc3e-3dd9-4426-bd49-faf33e935976","system_id":"levelo_inurba_marseille","lat":43.32448,"lon":5.36541,"is_reserved":false,"is_disabled":false,"rental_uris":{"android":"levelo://app?vid=fc0abc3e-3dd9-4426-bd49-faf33e935976","ios":"levelo://app?vid=fc0abc3e-3dd9-4426-bd49-faf33e935976"},"vehicle_type_id":"4","last_reported":1737641320,"current_range_meters":38000,"station_id":"ce4bhs12rcd13ifvqhvg","pricing_plan_id":"cebpf4jnsgd1na2vs0mg"},{"bike_id":"b961f1cf-d10d-49f9-8fe5-c156ac9fbab7","system_id":"levelo_inurba_marseille","lat":43.30151,"lon":5.38092,"is_reserved":false,"is_disabled":false,"rental_uris":{"android":"levelo://app?vid=b961f1cf-d10d-49f9-8fe5-c156ac9fbab7","ios":"levelo://app?vid=b961f1cf-d10d-49f9-8fe5-c156ac9fbab7"},"vehicle_type_id":"4","last_reported":1737641320,"current_range_meters":32400,"station_id":"ce4bgjp2rcd13ifvqbh0","pricing_plan_id":"cebpf4jnsgd1na2vs0mg"},{"bike_id":"1a5339e9-e9c1-4587-ac5d-608e9a7f7e5c","system_id":"levelo_inurba_marseille","lat":43.23133,"lon":5.43701,"is_reserved":false,"is_disabled":false,"rental_uris":{"android":"levelo://app?vid=1a5339e9-e9c1-4587-ac5d-608e9a7f7e5c","ios":"levelo://app?vid=1a5339e9-e9c1-4587-ac5d-608e9a7f7e5c"},"vehicle_type_id":"4","last_reported":1737641320,"current_range_meters":12800,"station_id":"ce4bhmp2rcd13ifvqgog","pricing_plan_id":"cebpf4jnsgd1na2vs0mg"},{"bike_id":"94db7049-da0f-4c0e-9da7-ac18cc34c2ed","system_id":"levelo_inurba_marseille","lat":43.29875,"lon":5.39733,"is_reserved":false,"is_disabled":false,"rental_uris":{"android":"levelo://app?vid=94db7049-da0f-4c0e-9da7-ac18cc34c2ed","ios":"levelo://app?vid=94db7049-da0f-4c0e-9da7-ac18cc34c2ed"},"vehicle_type_id":"4","last_reported":1737641320,"current_range_meters":16000,"station_id":"ce4bh0h2rcd13ifvqd50","pricing_plan_id":"cebpf4jnsgd1na2vs0mg"},{"bike_id":"64bad767-03f7-48a2-b672-0ad4707c5f61","system_id":"levelo_inurba_marseille","lat":43.2749,"lon":5.42456,"is_reserved":false,"is_disabled":false,"rental_uris":{"android":"levelo://app?vid=64bad767-03f7-48a2-b672-0ad4707c5f61","ios":"levelo://app?vid=64bad767-03f7-48a2-b672-0ad4707c5f61"},"vehicle_type_id":"4","last_reported":1737641320,"current_range_meters":19600,"station_id":"ce4bhn92rcd13ifvqgrg","pricing_plan_id":"cebpf4jnsgd1na2vs0mg"},{"bike_id":"1cfff608-648c-439c-8004-39d64046c3b8","system_id":"levelo_inurba_marseille","lat":43.26792,"lon":5.39408,"is_reserved":false,"is_disabled":false,"rental_uris":{"android":"levelo://app?vid=1cfff608-648c-439c-8004-39d64046c3b8","ios":"levelo://app?vid=1cfff608-648c-439c-8004-39d64046c3b8"},"vehicle_type_id":"4","last_reported":1737641320,"current_range_meters":12400,"station_id":"ce4bhh12rcd13ifvqfg0","pricing_plan_id":"cebpf4jnsgd1na2vs0mg"},{"bike_id":"232b25b7-fa81-4630-9104-082348ac0480","system_id":"levelo_inurba_marseille","lat":43.28001,"lon":5.40027,"is_reserved":false,"is_disabled":false,"rental_uris":{"android":"levelo://app?vid=232b25b7-fa81-4630-9104-082348ac0480","ios":"levelo://app?vid=232b25b7-fa81-4630-9104-082348ac0480"},"vehicle_type_id":"4","last_reported":1737641320,"current_range_meters":38800,"station_id":"ce4bho92rcd13ifvqh4g","pricing_plan_id":"cebpf4jnsgd1na2vs0mg"},{"bike_id":"ca00eae5-1111-4fbf-89e7-a8a88620ba7d","system_id":"levelo_inurba_marseille","lat":43.27209,"lon":5.3917,"is_reserved":false,"is_disabled":false,"rental_uris":{"android":"levelo://app?vid=ca00eae5-1111-4fbf-89e7-a8a88620ba7d","ios":"levelo://app?vid=ca00eae5-1111-4fbf-89e7-a8a88620ba7d"},"vehicle_type_id":"4","last_reported":1737641320,"current_range_meters":32000,"station_id":"ce4bhhp2rcd13ifvqfm0","pricing_plan_id":"cebpf4jnsgd1na2vs0mg"},{"bike_id":"8da8cb2e-4804-4a75-b9d1-9b31a3de6fd6","system_id":"levelo_inurba_marseille","lat":43.26685,"lon":5.38277,"is_reserved":false,"is_disabled":false,"rental_uris":{"android":"levelo://app?vid=8da8cb2e-4804-4a75-b9d1-9b31a3de6fd6","ios":"levelo://app?vid=8da8cb2e-4804-4a75-b9d1-9b31a3de6fd6"},"vehicle_type_id":"4","last_reported":1737641320,"current_range_meters":38800,"station_id":"ce4bhg92rcd13ifvqf90","pricing_plan_id":"cebpf4jnsgd1na2vs0mg"},{"bike_id":"3a5fb94a-885c-4fa5-bfda-9d57c0c4901a","system_id":"levelo_inurba_marseille","lat":43.3234,"lon":5.40624,"is_reserved":false,"is_disabled":false,"rental_uris":{"android":"levelo://app?vid=3a5fb94a-885c-4fa5-bfda-9d57c0c4901a","ios":"levelo://app?vid=3a5fb94a-885c-4fa5-bfda-9d57c0c4901a"},"vehicle_type_id":"4","last_reported":1737641320,"current_range_meters":37600,"station_id":"ce4bhq92rcd13ifvqhjg","pricing_plan_id":"cebpf4jnsgd1na2vs0mg"},{"bike_id":"03d25adc-64b9-4ef7-906a-c7311dc8090c","system_id":"levelo_inurba_marseille","lat":43.30431,"lon":5.39751,"is_reserved":false,"is_disabled":false,"rental_uris":{"android":"levelo://app?vid=03d25adc-64b9-4ef7-906a-c7311dc8090c","ios":"levelo://app?vid=03d25adc-64b9-4ef7-906a-c7311dc8090c"},"vehicle_type_id":"4","last_reported":1737641320,"current_range_meters":39200,"station_id":"ce4bh092rcd13ifvqd20","pricing_plan_id":"cebpf4jnsgd1na2vs0mg"},{"bike_id":"22b6b1e8-1d5b-445d-9ddc-66599efca459","system_id":"levelo_inurba_marseille","lat":43.26959,"lon":5.38635,"is_reserved":false,"is_disabled":false,"rental_uris":{"android":"levelo://app?vid=22b6b1e8-1d5b-445d-9ddc-66599efca459","ios":"levelo://app?vid=22b6b1e8-1d5b-445d-9ddc-66599efca459"},"vehicle_type_id":"4","last_reported":1737641320,"current_range_meters":38800,"station_id":"ce4bhh92rcd13ifvqfh0","pricing_plan_id":"cebpf4jnsgd1na2vs0mg"},{"bike_id":"dc730ce5-7fb9-4524-9b72-e0044a8f5ec6","system_id":"levelo_inurba_marseille","lat":43.30297,"lon":5.37696,"is_reserved":false,"is_disabled":false,"rental_uris":{"android":"levelo://app?vid=dc730ce5-7fb9-4524-9b72-e0044a8f5ec6","ios":"levelo://app?vid=dc730ce5-7fb9-4524-9b72-e0044a8f5ec6"},"vehicle_type_id":"4","last_reported":1737641320,"current_range_meters":11200,"station_id":"ce4bguh2rcd13ifvqcj0","pricing_plan_id":"cebpf4jnsgd1na2vs0mg"},{"bike_id":"acc9e968-42f2-443f-bb58-cd32856c66f2","system_id":"levelo_inurba_marseille","lat":43.28404,"lon":5.37517,"is_reserved":false,"is_disabled":false,"rental_uris":{"android":"levelo://app?vid=acc9e968-42f2-443f-bb58-cd32856c66f2","ios":"levelo://app?vid=acc9e968-42f2-443f-bb58-cd32856c66f2"},"vehicle_type_id":"4","last_reported":1737641320,"current_range_meters":26800,"station_id":"ce4bh412rcd13ifvqds0","pricing_plan_id":"cebpf4jnsgd1na2vs0mg"},{"bike_id":"b87564c9-3755-4810-a2c6-00808cc0c1ca","system_id":"levelo_inurba_marseille","lat":43.27675,"lon":5.38874,"is_reserved":false,"is_disabled":false,"rental_uris":{"android":"levelo://app?vid=b87564c9-3755-4810-a2c6-00808cc0c1ca","ios":"levelo://app?vid=b87564c9-3755-4810-a2c6-00808cc0c1ca"},"vehicle_type_id":"4","last_reported":1737641320,"current_range_meters":38800,"station_id":"ce4bhi12rcd13ifvqfo0","pricing_plan_id":"cebpf4jnsgd1na2vs0mg"},{"bike_id":"bdc9df5b-15df-4da6-8498-c1412c4f1ee3","system_id":"levelo_inurba_marseille","lat":43.26946,"lon":5.38628,"is_reserved":false,"is_disabled":false,"rental_uris":{"android":"levelo://app?vid=bdc9df5b-15df-4da6-8498-c1412c4f1ee3","ios":"levelo://app?vid=bdc9df5b-15df-4da6-8498-c1412c4f1ee3"},"vehicle_type_id":"4","last_reported":1737641320,"current_range_meters":36400,"station_id":"ce4bhh92rcd13ifvqfh0","pricing_plan_id":"cebpf4jnsgd1na2vs0mg"},{"bike_id":"35614ed7-a0df-4792-bca2-a1978fcd9fab","system_id":"levelo_inurba_marseille","lat":43.30796,"lon":5.43524,"is_reserved":false,"is_disabled":true,"rental_uris":{"android":"levelo://app?vid=35614ed7-a0df-4792-bca2-a1978fcd9fab","ios":"levelo://app?vid=35614ed7-a0df-4792-bca2-a1978fcd9fab"},"vehicle_type_id":"4","last_reported":1737641320,"current_range_meters":0,"station_id":"ce4bhph2rcd13ifvqheg","pricing_plan_id":"cebpf4jnsgd1na2vs0mg"},{"bike_id":"eec29bcc-4db9-490c-8509-0569ef65d3a4","system_id":"levelo_inurba_marseille","lat":43.23169,"lon":5.43721,"is_reserved":false,"is_disabled":false,"rental_uris":{"android":"levelo://app?vid=eec29bcc-4db9-490c-8509-0569ef65d3a4","ios":"levelo://app?vid=eec29bcc-4db9-490c-8509-0569ef65d3a4"},"vehicle_type_id":"4","last_reported":1737641320,"current_range_meters":38800,"station_id":"ce4bhmp2rcd13ifvqgog","pricing_plan_id":"cebpf4jnsgd1na2vs0mg"},{"bike_id":"91151293-54a7-4717-83f7-c5a75314aca3","system_id":"levelo_inurba_marseille","lat":43.24996,"lon":5.38943,"is_reserved":false,"is_disabled":false,"rental_uris":{"android":"levelo://app?vid=91151293-54a7-4717-83f7-c5a75314aca3","ios":"levelo://app?vid=91151293-54a7-4717-83f7-c5a75314aca3"},"vehicle_type_id":"4","last_reported":1737641320,"current_range_meters":14800,"station_id":"ce4bhgp2rcd13ifvqfd0","pricing_plan_id":"cebpf4jnsgd1na2vs0mg"},{"bike_id":"c9b3d4af-5260-4b81-90d0-b3f9f18af4c9","system_id":"levelo_inurba_marseille","lat":43.30956,"lon":5.39045,"is_reserved":false,"is_disabled":false,"rental_uris":{"android":"levelo://app?vid=c9b3d4af-5260-4b81-90d0-b3f9f18af4c9","ios":"levelo://app?vid=c9b3d4af-5260-4b81-90d0-b3f9f18af4c9"},"vehicle_type_id":"4","last_reported":1737641320,"current_range_meters":16400,"station_id":"ce4bgup2rcd13ifvqco0","pricing_plan_id":"cebpf4jnsgd1na2vs0mg"},{"bike_id":"5e0169dd-cfb6-4345-b9e5-59ab64e75e4d","system_id":"levelo_inurba_marseille","lat":43.32291,"lon":5.38273,"is_reserved":false,"is_disabled":false,"rental_uris":{"android":"levelo://app?vid=5e0169dd-cfb6-4345-b9e5-59ab64e75e4d","ios":"levelo://app?vid=5e0169dd-cfb6-4345-b9e5-59ab64e75e4d"},"vehicle_type_id":"4","last_reported":1737641320,"current_range_meters":38800,"station_id":"ce4bhr12rcd13ifvqhqg","pricing_plan_id":"cebpf4jnsgd1na2vs0mg"},{"bike_id":"96bd9e64-ec79-445f-af92-f8aeeeeb8575","system_id":"levelo_inurba_marseille","lat":43.28406,"lon":5.37514,"is_reserved":false,"is_disabled":false,"rental_uris":{"android":"levelo://app?vid=96bd9e64-ec79-445f-af92-f8aeeeeb8575","ios":"levelo://app?vid=96bd9e64-ec79-445f-af92-f8aeeeeb8575"},"vehicle_type_id":"4","last_reported":1737641320,"current_range_meters":14000,"station_id":"ce4bh412rcd13ifvqds0","pricing_plan_id":"cebpf4jnsgd1na2vs0mg"},{"bike_id":"554d3b69-abb7-4aa8-948d-4f3f1d465343","system_id":"levelo_inurba_marseille","lat":43.29271,"lon":5.3685,"is_reserved":false,"is_disabled":false,"rental_uris":{"android":"levelo://app?vid=554d3b69-abb7-4aa8-948d-4f3f1d465343","ios":"levelo://app?vid=554d3b69-abb7-4aa8-948d-4f3f1d465343"},"vehicle_type_id":"4","last_reported":1737641320,"current_range_meters":36000,"station_id":"ce4bhbp2rcd13ifvqesg","pricing_plan_id":"cebpf4jnsgd1na2vs0mg"},{"bike_id":"b7484b8b-3a71-45d6-b948-aa32b13a1995","system_id":"levelo_inurba_marseille","lat":43.29925,"lon":5.43665,"is_reserved":false,"is_disabled":false,"rental_uris":{"android":"levelo://app?vid=b7484b8b-3a71-45d6-b948-aa32b13a1995","ios":"levelo://app?vid=b7484b8b-3a71-45d6-b948-aa32b13a1995"},"vehicle_type_id":"4","last_reported":1737641320,"current_range_meters":19200,"station_id":"ce4bhpp2rcd13ifvqhfg","pricing_plan_id":"cebpf4jnsgd1na2vs0mg"},{"bike_id":"174ef919-1de8-4476-8071-7ce5e1cde64a","system_id":"levelo_inurba_marseille","lat":43.2695,"lon":5.3864,"is_reserved":false,"is_disabled":false,"rental_uris":{"android":"levelo://app?vid=174ef919-1de8-4476-8071-7ce5e1cde64a","ios":"levelo://app?vid=174ef919-1de8-4476-8071-7ce5e1cde64a"},"vehicle_type_id":"4","last_reported":1737641320,"current_range_meters":22800,"station_id":"ce4bhh92rcd13ifvqfh0","pricing_plan_id":"cebpf4jnsgd1na2vs0mg"},{"bike_id":"549b1928-e1cf-4e8f-979d-82ddd1e2f667","system_id":"levelo_inurba_marseille","lat":43.31893,"lon":5.40717,"is_reserved":false,"is_disabled":false,"rental_uris":{"android":"levelo://app?vid=549b1928-e1cf-4e8f-979d-82ddd1e2f667","ios":"levelo://app?vid=549b1928-e1cf-4e8f-979d-82ddd1e2f667"},"vehicle_type_id":"4","last_reported":1737641320,"current_range_meters":38800,"station_id":"ce4bhq12rcd13ifvqhig","pricing_plan_id":"cebpf4jnsgd1na2vs0mg"},{"bike_id":"4ec96207-5c88-4957-875c-7fb36b853318","system_id":"levelo_inurba_marseille","lat":43.309593,"lon":5.390425,"is_reserved":false,"is_disabled":false,"rental_uris":{"android":"levelo://app?vid=4ec96207-5c88-4957-875c-7fb36b853318","ios":"levelo://app?vid=4ec96207-5c88-4957-875c-7fb36b853318"},"vehicle_type_id":"4","last_reported":1737641320,"current_range_meters":10000,"station_id":"ce4bgup2rcd13ifvqco0","pricing_plan_id":"cebpf4jnsgd1na2vs0mg"},{"bike_id":"9863b7f9-4316-4322-9f6c-3cc66b0448e2","system_id":"levelo_inurba_marseille","lat":43.279439,"lon":5.389008,"is_reserved":false,"is_disabled":true,"rental_uris":{"android":"levelo://app?vid=9863b7f9-4316-4322-9f6c-3cc66b0448e2","ios":"levelo://app?vid=9863b7f9-4316-4322-9f6c-3cc66b0448e2"},"vehicle_type_id":"4","last_reported":1737641320,"current_range_meters":24400,"station_id":"","pricing_plan_id":"cebpf4jnsgd1na2vs0mg"},{"bike_id":"6fa2f3d2-bfc7-4a9b-a1c6-efd0e29b47c4","system_id":"levelo_inurba_marseille","lat":43.2604,"lon":5.37547,"is_reserved":false,"is_disabled":false,"rental_uris":{"android":"levelo://app?vid=6fa2f3d2-bfc7-4a9b-a1c6-efd0e29b47c4","ios":"levelo://app?vid=6fa2f3d2-bfc7-4a9b-a1c6-efd0e29b47c4"},"vehicle_type_id":"4","last_reported":1737641320,"current_range_meters":38800,"station_id":"ce4bhgh2rcd13ifvqfa0","pricing_plan_id":"cebpf4jnsgd1na2vs0mg"},{"bike_id":"fa4cd009-3aad-46ce-b167-d7c86de01955","system_id":"levelo_inurba_marseille","lat":43.32508,"lon":5.36561,"is_reserved":false,"is_disabled":false,"rental_uris":{"android":"levelo://app?vid=fa4cd009-3aad-46ce-b167-d7c86de01955","ios":"levelo://app?vid=fa4cd009-3aad-46ce-b167-d7c86de01955"},"vehicle_type_id":"4","last_reported":1737641320,"current_range_meters":24800,"station_id":"ce4bhs12rcd13ifvqhvg","pricing_plan_id":"cebpf4jnsgd1na2vs0mg"},{"bike_id":"33142eaf-42ab-4e3c-884c-7dee9db9da0e","system_id":"levelo_inurba_marseille","lat":43.24171,"lon":5.39739,"is_reserved":false,"is_disabled":false,"rental_uris":{"android":"levelo://app?vid=33142eaf-42ab-4e3c-884c-7dee9db9da0e","ios":"levelo://app?vid=33142eaf-42ab-4e3c-884c-7dee9db9da0e"},"vehicle_type_id":"4","last_reported":1737641320,"current_range_meters":18000,"station_id":"ce4bhn12rcd13ifvqgpg","pricing_plan_id":"cebpf4jnsgd1na2vs0mg"},{"bike_id":"cc0371d6-5c0c-4e91-95c1-eb095a18c9d3","system_id":"levelo_inurba_marseille","lat":43.28344,"lon":5.38089,"is_reserved":false,"is_disabled":false,"rental_uris":{"android":"levelo://app?vid=cc0371d6-5c0c-4e91-95c1-eb095a18c9d3","ios":"levelo://app?vid=cc0371d6-5c0c-4e91-95c1-eb095a18c9d3"},"vehicle_type_id":"4","last_reported":1737641320,"current_range_meters":26000,"station_id":"ce4bh412rcd13ifvqdr0","pricing_plan_id":"cebpf4jnsgd1na2vs0mg"},{"bike_id":"d4b0bc8d-c91e-4a2b-8ce0-db2a79785fec","system_id":"levelo_inurba_marseille","lat":43.29794,"lon":5.38083,"is_reserved":false,"is_disabled":false,"rental_uris":{"android":"levelo://app?vid=d4b0bc8d-c91e-4a2b-8ce0-db2a79785fec","ios":"levelo://app?vid=d4b0bc8d-c91e-4a2b-8ce0-db2a79785fec"},"vehicle_type_id":"4","last_reported":1737641320,"current_range_meters":15200,"station_id":"ce4bgip2rcd13ifvqbb0","pricing_plan_id":"cebpf4jnsgd1na2vs0mg"},{"bike_id":"dfbd27e7-12bf-4812-80d1-488dbaf230dc","system_id":"levelo_inurba_marseille","lat":43.324801,"lon":5.365619,"is_reserved":false,"is_disabled":false,"rental_uris":{"android":"levelo://app?vid=dfbd27e7-12bf-4812-80d1-488dbaf230dc","ios":"levelo://app?vid=dfbd27e7-12bf-4812-80d1-488dbaf230dc"},"vehicle_type_id":"4","last_reported":1737641320,"current_range_meters":22400,"station_id":"ce4bhs12rcd13ifvqhvg","pricing_plan_id":"cebpf4jnsgd1na2vs0mg"},{"bike_id":"13901fbf-791e-40b2-b22b-b524e0cd697c","system_id":"levelo_inurba_marseille","lat":43.2897,"lon":5.37833,"is_reserved":false,"is_disabled":false,"rental_uris":{"android":"levelo://app?vid=13901fbf-791e-40b2-b22b-b524e0cd697c","ios":"levelo://app?vid=13901fbf-791e-40b2-b22b-b524e0cd697c"},"vehicle_type_id":"4","last_reported":1737641320,"current_range_meters":30000,"station_id":"ce4bh9p2rcd13ifvqed0","pricing_plan_id":"cebpf4jnsgd1na2vs0mg"},{"bike_id":"3910e61b-c8d4-40b1-9215-db397a1b79b2","system_id":"levelo_inurba_marseille","lat":43.29172,"lon":5.37156,"is_reserved":false,"is_disabled":false,"rental_uris":{"android":"levelo://app?vid=3910e61b-c8d4-40b1-9215-db397a1b79b2","ios":"levelo://app?vid=3910e61b-c8d4-40b1-9215-db397a1b79b2"},"vehicle_type_id":"4","last_reported":1737641320,"current_range_meters":25200,"station_id":"ce4bha92rcd13ifvqeh0","pricing_plan_id":"cebpf4jnsgd1na2vs0mg"},{"bike_id":"a94e6878-033a-46ea-8f78-6cc846978ba8","system_id":"levelo_inurba_marseille","lat":43.337444,"lon":5.374475,"is_reserved":false,"is_disabled":false,"rental_uris":{"android":"levelo://app?vid=a94e6878-033a-46ea-8f78-6cc846978ba8","ios":"levelo://app?vid=a94e6878-033a-46ea-8f78-6cc846978ba8"},"vehicle_type_id":"4","last_reported":1737641320,"current_range_meters":37600,"station_id":"","pricing_plan_id":"cebpf4jnsgd1na2vs0mg"},{"bike_id":"589f4609-45ed-4db2-b282-d5a9a5bb7cf5","system_id":"levelo_inurba_marseille","lat":43.26561,"lon":5.39018,"is_reserved":false,"is_disabled":false,"rental_uris":{"android":"levelo://app?vid=589f4609-45ed-4db2-b282-d5a9a5bb7cf5","ios":"levelo://app?vid=589f4609-45ed-4db2-b282-d5a9a5bb7cf5"},"vehicle_type_id":"4","last_reported":1737641320,"current_range_meters":4000,"station_id":"ce4bhe12rcd13ifvqf30","pricing_plan_id":"cebpf4jnsgd1na2vs0mg"},{"bike_id":"b8522101-a8dc-4556-9aa4-7546debea75f","system_id":"levelo_inurba_marseille","lat":43.33767,"lon":5.39182,"is_reserved":false,"is_disabled":false,"rental_uris":{"android":"levelo://app?vid=b8522101-a8dc-4556-9aa4-7546debea75f","ios":"levelo://app?vid=b8522101-a8dc-4556-9aa4-7546debea75f"},"vehicle_type_id":"4","last_reported":1737641320,"current_range_meters":38800,"station_id":"ce4bhr92rcd13ifvqhsg","pricing_plan_id":"cebpf4jnsgd1na2vs0mg"},{"bike_id":"093c0a4b-c65c-4f81-818a-f415ef9de89a","system_id":"levelo_inurba_marseille","lat":43.31321,"lon":5.36681,"is_reserved":false,"is_disabled":false,"rental_uris":{"android":"levelo://app?vid=093c0a4b-c65c-4f81-818a-f415ef9de89a","ios":"levelo://app?vid=093c0a4b-c65c-4f81-818a-f415ef9de89a"},"vehicle_type_id":"4","last_reported":1737641320,"current_range_meters":3200,"station_id":"ce4bgr92rcd13ifvqc6g","pricing_plan_id":"cebpf4jnsgd1na2vs0mg"},{"bike_id":"49052dc3-4d8a-4007-89e4-6a2b13d47195","system_id":"levelo_inurba_marseille","lat":43.244003,"lon":5.370693,"is_reserved":false,"is_disabled":false,"rental_uris":{"android":"levelo://app?vid=49052dc3-4d8a-4007-89e4-6a2b13d47195","ios":"levelo://app?vid=49052dc3-4d8a-4007-89e4-6a2b13d47195"},"vehicle_type_id":"4","last_reported":1737641320,"current_range_meters":9600,"station_id":"ce4bhhh2rcd13ifvqfk0","pricing_plan_id":"cebpf4jnsgd1na2vs0mg"},{"bike_id":"13404d01-1c7c-4d4b-bb24-e98755f8bf24","system_id":"levelo_inurba_marseille","lat":43.30527,"lon":5.36693,"is_reserved":false,"is_disabled":false,"rental_uris":{"android":"levelo://app?vid=13404d01-1c7c-4d4b-bb24-e98755f8bf24","ios":"levelo://app?vid=13404d01-1c7c-4d4b-bb24-e98755f8bf24"},"vehicle_type_id":"4","last_reported":1737641320,"current_range_meters":32400,"station_id":"ce4bgrp2rcd13ifvqc9g","pricing_plan_id":"cebpf4jnsgd1na2vs0mg"},{"bike_id":"372d372c-fba1-4757-b021-5a0dc0db84d5","system_id":"levelo_inurba_marseille","lat":43.28933,"lon":5.36643,"is_reserved":false,"is_disabled":false,"rental_uris":{"android":"levelo://app?vid=372d372c-fba1-4757-b021-5a0dc0db84d5","ios":"levelo://app?vid=372d372c-fba1-4757-b021-5a0dc0db84d5"},"vehicle_type_id":"4","last_reported":1737641320,"current_range_meters":11200,"station_id":"ce4bhap2rcd13ifvqek0","pricing_plan_id":"cebpf4jnsgd1na2vs0mg"},{"bike_id":"e6d69e77-2426-40e6-8b56-caff4d581c0e","system_id":"levelo_inurba_marseille","lat":43.29564,"lon":5.42283,"is_reserved":false,"is_disabled":false,"rental_uris":{"android":"levelo://app?vid=e6d69e77-2426-40e6-8b56-caff4d581c0e","ios":"levelo://app?vid=e6d69e77-2426-40e6-8b56-caff4d581c0e"},"vehicle_type_id":"4","last_reported":1737641320,"current_range_meters":38800,"station_id":"ce4bhph2rcd13ifvqhdg","pricing_plan_id":"cebpf4jnsgd1na2vs0mg"},{"bike_id":"7c78a755-c7f5-4f07-a96b-621451d47948","system_id":"levelo_inurba_marseille","lat":43.29928,"lon":5.43696,"is_reserved":false,"is_disabled":false,"rental_uris":{"android":"levelo://app?vid=7c78a755-c7f5-4f07-a96b-621451d47948","ios":"levelo://app?vid=7c78a755-c7f5-4f07-a96b-621451d47948"},"vehicle_type_id":"4","last_reported":1737641320,"current_range_meters":11200,"station_id":"ce4bhpp2rcd13ifvqhfg","pricing_plan_id":"cebpf4jnsgd1na2vs0mg"},{"bike_id":"0b2dd18a-ce55-48d3-a773-e022d69140bb","system_id":"levelo_inurba_marseille","lat":43.29103,"lon":5.38113,"is_reserved":false,"is_disabled":false,"rental_uris":{"android":"levelo://app?vid=0b2dd18a-ce55-48d3-a773-e022d69140bb","ios":"levelo://app?vid=0b2dd18a-ce55-48d3-a773-e022d69140bb"},"vehicle_type_id":"4","last_reported":1737641320,"current_range_meters":38400,"station_id":"ce4bh512rcd13ifvqe2g","pricing_plan_id":"cebpf4jnsgd1na2vs0mg"},{"bike_id":"adda049d-9385-4acf-9d47-59ff7f48fc5f","system_id":"levelo_inurba_marseille","lat":43.2979,"lon":5.38096,"is_reserved":false,"is_disabled":false,"rental_uris":{"android":"levelo://app?vid=adda049d-9385-4acf-9d47-59ff7f48fc5f","ios":"levelo://app?vid=adda049d-9385-4acf-9d47-59ff7f48fc5f"},"vehicle_type_id":"4","last_reported":1737641320,"current_range_meters":32800,"station_id":"ce4bgip2rcd13ifvqbb0","pricing_plan_id":"cebpf4jnsgd1na2vs0mg"},{"bike_id":"20603c2d-ff38-4b1a-aefa-41ea1673183b","system_id":"levelo_inurba_marseille","lat":43.2757,"lon":5.3841,"is_reserved":false,"is_disabled":false,"rental_uris":{"android":"levelo://app?vid=20603c2d-ff38-4b1a-aefa-41ea1673183b","ios":"levelo://app?vid=20603c2d-ff38-4b1a-aefa-41ea1673183b"},"vehicle_type_id":"4","last_reported":1737641320,"current_range_meters":28000,"station_id":"ce4bhh92rcd13ifvqfi0","pricing_plan_id":"cebpf4jnsgd1na2vs0mg"},{"bike_id":"3fab27ca-b558-4cc0-9f28-2a1b2e9bc8e5","system_id":"levelo_inurba_marseille","lat":43.30954,"lon":5.39041,"is_reserved":false,"is_disabled":false,"rental_uris":{"android":"levelo://app?vid=3fab27ca-b558-4cc0-9f28-2a1b2e9bc8e5","ios":"levelo://app?vid=3fab27ca-b558-4cc0-9f28-2a1b2e9bc8e5"},"vehicle_type_id":"4","last_reported":1737641320,"current_range_meters":31200,"station_id":"ce4bgup2rcd13ifvqco0","pricing_plan_id":"cebpf4jnsgd1na2vs0mg"},{"bike_id":"16f0e6b5-d946-47d2-a97c-ad19d0c1e9a1","system_id":"levelo_inurba_marseille","lat":43.30886,"lon":5.36853,"is_reserved":false,"is_disabled":false,"rental_uris":{"android":"levelo://app?vid=16f0e6b5-d946-47d2-a97c-ad19d0c1e9a1","ios":"levelo://app?vid=16f0e6b5-d946-47d2-a97c-ad19d0c1e9a1"},"vehicle_type_id":"4","last_reported":1737641320,"current_range_meters":30400,"station_id":"ce4bgn92rcd13ifvqbvg","pricing_plan_id":"cebpf4jnsgd1na2vs0mg"},{"bike_id":"87e752ff-b6f6-453d-b16e-c99712fbe124","system_id":"levelo_inurba_marseille","lat":43.26951,"lon":5.38637,"is_reserved":false,"is_disabled":false,"rental_uris":{"android":"levelo://app?vid=87e752ff-b6f6-453d-b16e-c99712fbe124","ios":"levelo://app?vid=87e752ff-b6f6-453d-b16e-c99712fbe124"},"vehicle_type_id":"4","last_reported":1737641320,"current_range_meters":30400,"station_id":"ce4bhh92rcd13ifvqfh0","pricing_plan_id":"cebpf4jnsgd1na2vs0mg"},{"bike_id":"353c5000-308f-4e52-b5ab-b4f9e01dae3e","system_id":"levelo_inurba_marseille","lat":43.29193,"lon":5.35807,"is_reserved":false,"is_disabled":false,"rental_uris":{"android":"levelo://app?vid=353c5000-308f-4e52-b5ab-b4f9e01dae3e","ios":"levelo://app?vid=353c5000-308f-4e52-b5ab-b4f9e01dae3e"},"vehicle_type_id":"4","last_reported":1737641320,"current_range_meters":36800,"station_id":"ce4bhb12rcd13ifvqel0","pricing_plan_id":"cebpf4jnsgd1na2vs0mg"},{"bike_id":"26d96d78-7a29-4ec5-93ac-79ad4342b085","system_id":"levelo_inurba_marseille","lat":43.31331,"lon":5.39707,"is_reserved":false,"is_disabled":false,"rental_uris":{"android":"levelo://app?vid=26d96d78-7a29-4ec5-93ac-79ad4342b085","ios":"levelo://app?vid=26d96d78-7a29-4ec5-93ac-79ad4342b085"},"vehicle_type_id":"4","last_reported":1737641320,"current_range_meters":38800,"station_id":"ce4bgvp2rcd13ifvqcu0","pricing_plan_id":"cebpf4jnsgd1na2vs0mg"},{"bike_id":"50a5e38e-875f-43d0-93bd-9b42a94a8a92","system_id":"levelo_inurba_marseille","lat":43.27329,"lon":5.39074,"is_reserved":false,"is_disabled":false,"rental_uris":{"android":"levelo://app?vid=50a5e38e-875f-43d0-93bd-9b42a94a8a92","ios":"levelo://app?vid=50a5e38e-875f-43d0-93bd-9b42a94a8a92"},"vehicle_type_id":"4","last_reported":1737641320,"current_range_meters":37600,"station_id":"ce4bhgp2rcd13ifvqfe0","pricing_plan_id":"cebpf4jnsgd1na2vs0mg"},{"bike_id":"f27b3018-2d83-4031-9b14-700b3c89703b","system_id":"levelo_inurba_marseille","lat":43.29202,"lon":5.3581,"is_reserved":false,"is_disabled":false,"rental_uris":{"android":"levelo://app?vid=f27b3018-2d83-4031-9b14-700b3c89703b","ios":"levelo://app?vid=f27b3018-2d83-4031-9b14-700b3c89703b"},"vehicle_type_id":"4","last_reported":1737641320,"current_range_meters":16800,"station_id":"ce4bhb12rcd13ifvqel0","pricing_plan_id":"cebpf4jnsgd1na2vs0mg"},{"bike_id":"7e50e231-6e86-4854-8e19-cf288d95a447","system_id":"levelo_inurba_marseille","lat":43.31228,"lon":5.36843,"is_reserved":false,"is_disabled":false,"rental_uris":{"android":"levelo://app?vid=7e50e231-6e86-4854-8e19-cf288d95a447","ios":"levelo://app?vid=7e50e231-6e86-4854-8e19-cf288d95a447"},"vehicle_type_id":"4","last_reported":1737641320,"current_range_meters":17200,"station_id":"ce4bgl92rcd13ifvqbq0","pricing_plan_id":"cebpf4jnsgd1na2vs0mg"},{"bike_id":"8210b62d-a1a5-4f4c-8046-84672334af72","system_id":"levelo_inurba_marseille","lat":43.25125,"lon":5.40318,"is_reserved":false,"is_disabled":false,"rental_uris":{"android":"levelo://app?vid=8210b62d-a1a5-4f4c-8046-84672334af72","ios":"levelo://app?vid=8210b62d-a1a5-4f4c-8046-84672334af72"},"vehicle_type_id":"4","last_reported":1737641320,"current_range_meters":32400,"station_id":"ce4bhlh2rcd13ifvqgig","pricing_plan_id":"cebpf4jnsgd1na2vs0mg"},{"bike_id":"51b693ec-6376-489f-b989-9f78de29a1f3","system_id":"levelo_inurba_marseille","lat":43.24181,"lon":5.36392,"is_reserved":false,"is_disabled":false,"rental_uris":{"android":"levelo://app?vid=51b693ec-6376-489f-b989-9f78de29a1f3","ios":"levelo://app?vid=51b693ec-6376-489f-b989-9f78de29a1f3"},"vehicle_type_id":"4","last_reported":1737641320,"current_range_meters":22000,"station_id":"cpo36qri1sfpv3e86is0","pricing_plan_id":"cebpf4jnsgd1na2vs0mg"},{"bike_id":"66608dc1-56d2-47c5-adf6-aeb6e2343bb6","system_id":"levelo_inurba_marseille","lat":43.29621,"lon":5.37149,"is_reserved":false,"is_disabled":false,"rental_uris":{"android":"levelo://app?vid=66608dc1-56d2-47c5-adf6-aeb6e2343bb6","ios":"levelo://app?vid=66608dc1-56d2-47c5-adf6-aeb6e2343bb6"},"vehicle_type_id":"4","last_reported":1737641320,"current_range_meters":37600,"station_id":"ce4bgnh2rcd13ifvqc0g","pricing_plan_id":"cebpf4jnsgd1na2vs0mg"},{"bike_id":"18a0e6bb-3553-4da6-9b72-3dec3a90636b","system_id":"levelo_inurba_marseille","lat":43.26962,"lon":5.3865,"is_reserved":false,"is_disabled":false,"rental_uris":{"android":"levelo://app?vid=18a0e6bb-3553-4da6-9b72-3dec3a90636b","ios":"levelo://app?vid=18a0e6bb-3553-4da6-9b72-3dec3a90636b"},"vehicle_type_id":"4","last_reported":1737641320,"current_range_meters":38800,"station_id":"ce4bhh92rcd13ifvqfh0","pricing_plan_id":"cebpf4jnsgd1na2vs0mg"},{"bike_id":"13ff516e-16cf-4543-8540-9030b8b296b4","system_id":"levelo_inurba_marseille","lat":43.23195,"lon":5.35553,"is_reserved":false,"is_disabled":false,"rental_uris":{"android":"levelo://app?vid=13ff516e-16cf-4543-8540-9030b8b296b4","ios":"levelo://app?vid=13ff516e-16cf-4543-8540-9030b8b296b4"},"vehicle_type_id":"4","last_reported":1737641320,"current_range_meters":28800,"station_id":"ce4bhu92rcd13ifvqi70","pricing_plan_id":"cebpf4jnsgd1na2vs0mg"},{"bike_id":"ec6a541f-38df-4148-a6ac-6db39abd6d59","system_id":"levelo_inurba_marseille","lat":43.281,"lon":5.37848,"is_reserved":false,"is_disabled":false,"rental_uris":{"android":"levelo://app?vid=ec6a541f-38df-4148-a6ac-6db39abd6d59","ios":"levelo://app?vid=ec6a541f-38df-4148-a6ac-6db39abd6d59"},"vehicle_type_id":"4","last_reported":1737641320,"current_range_meters":25600,"station_id":"ce4bha12rcd13ifvqee0","pricing_plan_id":"cebpf4jnsgd1na2vs0mg"},{"bike_id":"2af6f4a6-9e58-43bb-a2cd-502d7844aee0","system_id":"levelo_inurba_marseille","lat":43.23156,"lon":5.43719,"is_reserved":false,"is_disabled":false,"rental_uris":{"android":"levelo://app?vid=2af6f4a6-9e58-43bb-a2cd-502d7844aee0","ios":"levelo://app?vid=2af6f4a6-9e58-43bb-a2cd-502d7844aee0"},"vehicle_type_id":"4","last_reported":1737641320,"current_range_meters":24000,"station_id":"ce4bhmp2rcd13ifvqgog","pricing_plan_id":"cebpf4jnsgd1na2vs0mg"},{"bike_id":"1876537c-c9d8-4160-b31c-e17d644f44c6","system_id":"levelo_inurba_marseille","lat":43.32477,"lon":5.36559,"is_reserved":false,"is_disabled":false,"rental_uris":{"android":"levelo://app?vid=1876537c-c9d8-4160-b31c-e17d644f44c6","ios":"levelo://app?vid=1876537c-c9d8-4160-b31c-e17d644f44c6"},"vehicle_type_id":"4","last_reported":1737641320,"current_range_meters":32400,"station_id":"ce4bhs12rcd13ifvqhvg","pricing_plan_id":"cebpf4jnsgd1na2vs0mg"},{"bike_id":"50c36e52-4d6d-4227-99fe-fc5cba239461","system_id":"levelo_inurba_marseille","lat":43.29262,"lon":5.38437,"is_reserved":false,"is_disabled":false,"rental_uris":{"android":"levelo://app?vid=50c36e52-4d6d-4227-99fe-fc5cba239461","ios":"levelo://app?vid=50c36e52-4d6d-4227-99fe-fc5cba239461"},"vehicle_type_id":"4","last_reported":1737641320,"current_range_meters":8000,"station_id":"ce4bh692rcd13ifvqea0","pricing_plan_id":"cebpf4jnsgd1na2vs0mg"},{"bike_id":"c39beb18-b568-4699-95c1-ddaef8c27d01","system_id":"levelo_inurba_marseille","lat":43.30945,"lon":5.39029,"is_reserved":false,"is_disabled":true,"rental_uris":{"android":"levelo://app?vid=c39beb18-b568-4699-95c1-ddaef8c27d01","ios":"levelo://app?vid=c39beb18-b568-4699-95c1-ddaef8c27d01"},"vehicle_type_id":"4","last_reported":1737641320,"current_range_meters":0,"station_id":"ce4bgup2rcd13ifvqco0","pricing_plan_id":"cebpf4jnsgd1na2vs0mg"},{"bike_id":"949adc13-c275-42bb-b995-242920fc8ce6","system_id":"levelo_inurba_marseille","lat":43.27807,"lon":5.40706,"is_reserved":false,"is_disabled":false,"rental_uris":{"android":"levelo://app?vid=949adc13-c275-42bb-b995-242920fc8ce6","ios":"levelo://app?vid=949adc13-c275-42bb-b995-242920fc8ce6"},"vehicle_type_id":"4","last_reported":1737641320,"current_range_meters":37600,"station_id":"ce4bhnh2rcd13ifvqgtg","pricing_plan_id":"cebpf4jnsgd1na2vs0mg"},{"bike_id":"54cf695a-7603-4cbc-a435-8434b0470da2","system_id":"levelo_inurba_marseille","lat":43.28723,"lon":5.37933,"is_reserved":false,"is_disabled":false,"rental_uris":{"android":"levelo://app?vid=54cf695a-7603-4cbc-a435-8434b0470da2","ios":"levelo://app?vid=54cf695a-7603-4cbc-a435-8434b0470da2"},"vehicle_type_id":"4","last_reported":1737641320,"current_range_meters":22000,"station_id":"ce4bh9p2rcd13ifvqec0","pricing_plan_id":"cebpf4jnsgd1na2vs0mg"},{"bike_id":"d2ccf28c-f6d9-4cc7-ab13-e2de5a4593f9","system_id":"levelo_inurba_marseille","lat":43.275554,"lon":5.384313,"is_reserved":false,"is_disabled":false,"rental_uris":{"android":"levelo://app?vid=d2ccf28c-f6d9-4cc7-ab13-e2de5a4593f9","ios":"levelo://app?vid=d2ccf28c-f6d9-4cc7-ab13-e2de5a4593f9"},"vehicle_type_id":"4","last_reported":1737641320,"current_range_meters":20400,"station_id":"ce4bhh92rcd13ifvqfi0","pricing_plan_id":"cebpf4jnsgd1na2vs0mg"},{"bike_id":"d28e6da9-9d50-41fc-92a1-acd12478bf45","system_id":"levelo_inurba_marseille","lat":43.2791,"lon":5.38005,"is_reserved":false,"is_disabled":false,"rental_uris":{"android":"levelo://app?vid=d28e6da9-9d50-41fc-92a1-acd12478bf45","ios":"levelo://app?vid=d28e6da9-9d50-41fc-92a1-acd12478bf45"},"vehicle_type_id":"4","last_reported":1737641320,"current_range_meters":25200,"station_id":"ce4bhf92rcd13ifvqf50","pricing_plan_id":"cebpf4jnsgd1na2vs0mg"},{"bike_id":"5660399e-e2b9-443c-b4b3-14669b1ff702","system_id":"levelo_inurba_marseille","lat":43.31331,"lon":5.39697,"is_reserved":false,"is_disabled":false,"rental_uris":{"android":"levelo://app?vid=5660399e-e2b9-443c-b4b3-14669b1ff702","ios":"levelo://app?vid=5660399e-e2b9-443c-b4b3-14669b1ff702"},"vehicle_type_id":"4","last_reported":1737641320,"current_range_meters":39200,"station_id":"ce4bgvp2rcd13ifvqcu0","pricing_plan_id":"cebpf4jnsgd1na2vs0mg"},{"bike_id":"07dab1e7-a87c-4a97-a789-018903dec046","system_id":"levelo_inurba_marseille","lat":43.28379,"lon":5.38638,"is_reserved":false,"is_disabled":false,"rental_uris":{"android":"levelo://app?vid=07dab1e7-a87c-4a97-a789-018903dec046","ios":"levelo://app?vid=07dab1e7-a87c-4a97-a789-018903dec046"},"vehicle_type_id":"4","last_reported":1737641320,"current_range_meters":38800,"station_id":"ce4bh492rcd13ifvqdvg","pricing_plan_id":"cebpf4jnsgd1na2vs0mg"},{"bike_id":"d5e580bb-31f1-420b-8967-4ef30e3f9e43","system_id":"levelo_inurba_marseille","lat":43.31089,"lon":5.42432,"is_reserved":false,"is_disabled":false,"rental_uris":{"android":"levelo://app?vid=d5e580bb-31f1-420b-8967-4ef30e3f9e43","ios":"levelo://app?vid=d5e580bb-31f1-420b-8967-4ef30e3f9e43"},"vehicle_type_id":"4","last_reported":1737641320,"current_range_meters":25600,"station_id":"ce4bhp92rcd13ifvqhag","pricing_plan_id":"cebpf4jnsgd1na2vs0mg"},{"bike_id":"68e9c31c-ad3e-43bf-9dd6-a2db62b95ef7","system_id":"levelo_inurba_marseille","lat":43.3248,"lon":5.36583,"is_reserved":false,"is_disabled":false,"rental_uris":{"android":"levelo://app?vid=68e9c31c-ad3e-43bf-9dd6-a2db62b95ef7","ios":"levelo://app?vid=68e9c31c-ad3e-43bf-9dd6-a2db62b95ef7"},"vehicle_type_id":"4","last_reported":1737641320,"current_range_meters":22800,"station_id":"ce4bhs12rcd13ifvqhvg","pricing_plan_id":"cebpf4jnsgd1na2vs0mg"},{"bike_id":"6e00da7c-4929-4ee3-ada1-ce95046998af","system_id":"levelo_inurba_marseille","lat":43.29261,"lon":5.3845,"is_reserved":false,"is_disabled":false,"rental_uris":{"android":"levelo://app?vid=6e00da7c-4929-4ee3-ada1-ce95046998af","ios":"levelo://app?vid=6e00da7c-4929-4ee3-ada1-ce95046998af"},"vehicle_type_id":"4","last_reported":1737641320,"current_range_meters":10000,"station_id":"ce4bh692rcd13ifvqea0","pricing_plan_id":"cebpf4jnsgd1na2vs0mg"},{"bike_id":"30adea8e-37ba-4941-afce-59585fb8a8c3","system_id":"levelo_inurba_marseille","lat":43.26575,"lon":5.39012,"is_reserved":false,"is_disabled":true,"rental_uris":{"android":"levelo://app?vid=30adea8e-37ba-4941-afce-59585fb8a8c3","ios":"levelo://app?vid=30adea8e-37ba-4941-afce-59585fb8a8c3"},"vehicle_type_id":"4","last_reported":1737641320,"current_range_meters":0,"station_id":"ce4bhe12rcd13ifvqf30","pricing_plan_id":"cebpf4jnsgd1na2vs0mg"},{"bike_id":"b8338bfe-1284-4232-9a51-15bb8e974f1c","system_id":"levelo_inurba_marseille","lat":43.2985,"lon":5.36279,"is_reserved":false,"is_disabled":false,"rental_uris":{"android":"levelo://app?vid=b8338bfe-1284-4232-9a51-15bb8e974f1c","ios":"levelo://app?vid=b8338bfe-1284-4232-9a51-15bb8e974f1c"},"vehicle_type_id":"4","last_reported":1737641320,"current_range_meters":38800,"station_id":"ce4bgpp2rcd13ifvqc3g","pricing_plan_id":"cebpf4jnsgd1na2vs0mg"},{"bike_id":"e2d415bc-f67f-4b4f-97ae-e2086d3a457b","system_id":"levelo_inurba_marseille","lat":43.28999,"lon":5.35618,"is_reserved":false,"is_disabled":true,"rental_uris":{"android":"levelo://app?vid=e2d415bc-f67f-4b4f-97ae-e2086d3a457b","ios":"levelo://app?vid=e2d415bc-f67f-4b4f-97ae-e2086d3a457b"},"vehicle_type_id":"4","last_reported":1737641320,"current_range_meters":0,"station_id":"ce4bhb92rcd13ifvqen0","pricing_plan_id":"cebpf4jnsgd1na2vs0mg"},{"bike_id":"75495e7c-20bd-4569-84c6-35df34ab244d","system_id":"levelo_inurba_marseille","lat":43.29898,"lon":5.43636,"is_reserved":false,"is_disabled":false,"rental_uris":{"android":"levelo://app?vid=75495e7c-20bd-4569-84c6-35df34ab244d","ios":"levelo://app?vid=75495e7c-20bd-4569-84c6-35df34ab244d"},"vehicle_type_id":"4","last_reported":1737641320,"current_range_meters":3200,"station_id":"ce4bhpp2rcd13ifvqhfg","pricing_plan_id":"cebpf4jnsgd1na2vs0mg"},{"bike_id":"97bd950d-f943-4475-9ee4-51feb4655152","system_id":"levelo_inurba_marseille","lat":43.26569,"lon":5.38996,"is_reserved":false,"is_disabled":false,"rental_uris":{"android":"levelo://app?vid=97bd950d-f943-4475-9ee4-51feb4655152","ios":"levelo://app?vid=97bd950d-f943-4475-9ee4-51feb4655152"},"vehicle_type_id":"4","last_reported":1737641320,"current_range_meters":14000,"station_id":"ce4bhe12rcd13ifvqf30","pricing_plan_id":"cebpf4jnsgd1na2vs0mg"},{"bike_id":"f15a3926-03ea-4c4b-9f1b-6e7324acfe94","system_id":"levelo_inurba_marseille","lat":43.30919,"lon":5.36836,"is_reserved":false,"is_disabled":false,"rental_uris":{"android":"levelo://app?vid=f15a3926-03ea-4c4b-9f1b-6e7324acfe94","ios":"levelo://app?vid=f15a3926-03ea-4c4b-9f1b-6e7324acfe94"},"vehicle_type_id":"4","last_reported":1737641320,"current_range_meters":15200,"station_id":"ce4bgn92rcd13ifvqbvg","pricing_plan_id":"cebpf4jnsgd1na2vs0mg"},{"bike_id":"d22b6dd8-70dd-44e2-b2da-7416379d6042","system_id":"levelo_inurba_marseille","lat":43.26693,"lon":5.38291,"is_reserved":false,"is_disabled":false,"rental_uris":{"android":"levelo://app?vid=d22b6dd8-70dd-44e2-b2da-7416379d6042","ios":"levelo://app?vid=d22b6dd8-70dd-44e2-b2da-7416379d6042"},"vehicle_type_id":"4","last_reported":1737641320,"current_range_meters":38800,"station_id":"ce4bhg92rcd13ifvqf90","pricing_plan_id":"cebpf4jnsgd1na2vs0mg"},{"bike_id":"a9fa9ee7-0043-4b3d-8664-ff88b12e7317","system_id":"levelo_inurba_marseille","lat":43.30793,"lon":5.37653,"is_reserved":false,"is_disabled":false,"rental_uris":{"android":"levelo://app?vid=a9fa9ee7-0043-4b3d-8664-ff88b12e7317","ios":"levelo://app?vid=a9fa9ee7-0043-4b3d-8664-ff88b12e7317"},"vehicle_type_id":"4","last_reported":1737641320,"current_range_meters":35200,"station_id":"ce4bgv92rcd13ifvqcq0","pricing_plan_id":"cebpf4jnsgd1na2vs0mg"},{"bike_id":"a4320781-8956-4842-bb82-162dc379120a","system_id":"levelo_inurba_marseille","lat":43.30895,"lon":5.36862,"is_reserved":false,"is_disabled":false,"rental_uris":{"android":"levelo://app?vid=a4320781-8956-4842-bb82-162dc379120a","ios":"levelo://app?vid=a4320781-8956-4842-bb82-162dc379120a"},"vehicle_type_id":"4","last_reported":1737641320,"current_range_meters":36400,"station_id":"ce4bgn92rcd13ifvqbvg","pricing_plan_id":"cebpf4jnsgd1na2vs0mg"},{"bike_id":"ce9b6775-622a-4006-8fb5-f269869a0dfc","system_id":"levelo_inurba_marseille","lat":43.3136,"lon":5.38494,"is_reserved":false,"is_disabled":true,"rental_uris":{"android":"levelo://app?vid=ce9b6775-622a-4006-8fb5-f269869a0dfc","ios":"levelo://app?vid=ce9b6775-622a-4006-8fb5-f269869a0dfc"},"vehicle_type_id":"4","last_reported":1737641320,"current_range_meters":28800,"station_id":"ce4bgt92rcd13ifvqcf0","pricing_plan_id":"cebpf4jnsgd1na2vs0mg"},{"bike_id":"73437ec1-c49c-4c1d-87bb-5c89656ded36","system_id":"levelo_inurba_marseille","lat":43.30542,"lon":5.36699,"is_reserved":false,"is_disabled":false,"rental_uris":{"android":"levelo://app?vid=73437ec1-c49c-4c1d-87bb-5c89656ded36","ios":"levelo://app?vid=73437ec1-c49c-4c1d-87bb-5c89656ded36"},"vehicle_type_id":"4","last_reported":1737641320,"current_range_meters":38800,"station_id":"ce4bgrp2rcd13ifvqc9g","pricing_plan_id":"cebpf4jnsgd1na2vs0mg"},{"bike_id":"28ee48eb-5f11-4f62-bdde-b980ad11c60d","system_id":"levelo_inurba_marseille","lat":43.3093,"lon":5.36847,"is_reserved":false,"is_disabled":false,"rental_uris":{"android":"levelo://app?vid=28ee48eb-5f11-4f62-bdde-b980ad11c60d","ios":"levelo://app?vid=28ee48eb-5f11-4f62-bdde-b980ad11c60d"},"vehicle_type_id":"4","last_reported":1737641320,"current_range_meters":38800,"station_id":"ce4bgn92rcd13ifvqbvg","pricing_plan_id":"cebpf4jnsgd1na2vs0mg"},{"bike_id":"b2027b95-19e6-4722-a30f-1e62b9ce5cca","system_id":"levelo_inurba_marseille","lat":43.30538,"lon":5.38436,"is_reserved":false,"is_disabled":false,"rental_uris":{"android":"levelo://app?vid=b2027b95-19e6-4722-a30f-1e62b9ce5cca","ios":"levelo://app?vid=b2027b95-19e6-4722-a30f-1e62b9ce5cca"},"vehicle_type_id":"4","last_reported":1737641320,"current_range_meters":34800,"station_id":"ce4bgg92rcd13ifvqb30","pricing_plan_id":"cebpf4jnsgd1na2vs0mg"},{"bike_id":"1714e45e-7747-4d49-a740-f2b4f1a907bf","system_id":"levelo_inurba_marseille","lat":43.32507,"lon":5.36575,"is_reserved":false,"is_disabled":false,"rental_uris":{"android":"levelo://app?vid=1714e45e-7747-4d49-a740-f2b4f1a907bf","ios":"levelo://app?vid=1714e45e-7747-4d49-a740-f2b4f1a907bf"},"vehicle_type_id":"4","last_reported":1737641320,"current_range_meters":25600,"station_id":"ce4bhs12rcd13ifvqhvg","pricing_plan_id":"cebpf4jnsgd1na2vs0mg"},{"bike_id":"28a1eee5-346e-464b-81ee-4d7011df9d3a","system_id":"levelo_inurba_marseille","lat":43.29567,"lon":5.3751,"is_reserved":false,"is_disabled":false,"rental_uris":{"android":"levelo://app?vid=28a1eee5-346e-464b-81ee-4d7011df9d3a","ios":"levelo://app?vid=28a1eee5-346e-464b-81ee-4d7011df9d3a"},"vehicle_type_id":"4","last_reported":1737641320,"current_range_meters":38800,"station_id":"ce4bgh92rcd13ifvqb50","pricing_plan_id":"cebpf4jnsgd1na2vs0mg"},{"bike_id":"2ed43785-2932-4a3e-97db-34a32dfd06fa","system_id":"levelo_inurba_marseille","lat":43.28106,"lon":5.37846,"is_reserved":false,"is_disabled":false,"rental_uris":{"android":"levelo://app?vid=2ed43785-2932-4a3e-97db-34a32dfd06fa","ios":"levelo://app?vid=2ed43785-2932-4a3e-97db-34a32dfd06fa"},"vehicle_type_id":"4","last_reported":1737641320,"current_range_meters":30000,"station_id":"ce4bha12rcd13ifvqee0","pricing_plan_id":"cebpf4jnsgd1na2vs0mg"},{"bike_id":"47078629-c7b7-45ce-8b45-10c5ffa6761f","system_id":"levelo_inurba_marseille","lat":43.26202,"lon":5.37924,"is_reserved":false,"is_disabled":false,"rental_uris":{"android":"levelo://app?vid=47078629-c7b7-45ce-8b45-10c5ffa6761f","ios":"levelo://app?vid=47078629-c7b7-45ce-8b45-10c5ffa6761f"},"vehicle_type_id":"4","last_reported":1737641320,"current_range_meters":26000,"station_id":"ce4bhjp2rcd13ifvqg90","pricing_plan_id":"cebpf4jnsgd1na2vs0mg"},{"bike_id":"149b69f1-44f7-440c-bbd5-5ef6358a4076","system_id":"levelo_inurba_marseille","lat":43.2849,"lon":5.38431,"is_reserved":false,"is_disabled":false,"rental_uris":{"android":"levelo://app?vid=149b69f1-44f7-440c-bbd5-5ef6358a4076","ios":"levelo://app?vid=149b69f1-44f7-440c-bbd5-5ef6358a4076"},"vehicle_type_id":"4","last_reported":1737641320,"current_range_meters":38000,"station_id":"ce4bh512rcd13ifvqe3g","pricing_plan_id":"cebpf4jnsgd1na2vs0mg"},{"bike_id":"ddd963ba-9a0c-435b-be45-69b594dc5944","system_id":"levelo_inurba_marseille","lat":43.25109,"lon":5.40322,"is_reserved":false,"is_disabled":false,"rental_uris":{"android":"levelo://app?vid=ddd963ba-9a0c-435b-be45-69b594dc5944","ios":"levelo://app?vid=ddd963ba-9a0c-435b-be45-69b594dc5944"},"vehicle_type_id":"4","last_reported":1737641320,"current_range_meters":24000,"station_id":"ce4bhlh2rcd13ifvqgig","pricing_plan_id":"cebpf4jnsgd1na2vs0mg"},{"bike_id":"880473ca-17c6-414a-b903-fd2aefa1336e","system_id":"levelo_inurba_marseille","lat":43.29936,"lon":5.36541,"is_reserved":false,"is_disabled":false,"rental_uris":{"android":"levelo://app?vid=880473ca-17c6-414a-b903-fd2aefa1336e","ios":"levelo://app?vid=880473ca-17c6-414a-b903-fd2aefa1336e"},"vehicle_type_id":"4","last_reported":1737641320,"current_range_meters":38800,"station_id":"ce4bgm92rcd13ifvqbr0","pricing_plan_id":"cebpf4jnsgd1na2vs0mg"},{"bike_id":"3b6da0e4-83a6-4006-8f7c-73fa118b992f","system_id":"levelo_inurba_marseille","lat":43.3111,"lon":5.37773,"is_reserved":false,"is_disabled":false,"rental_uris":{"android":"levelo://app?vid=3b6da0e4-83a6-4006-8f7c-73fa118b992f","ios":"levelo://app?vid=3b6da0e4-83a6-4006-8f7c-73fa118b992f"},"vehicle_type_id":"4","last_reported":1737641320,"current_range_meters":2800,"station_id":"ce4bgt92rcd13ifvqcg0","pricing_plan_id":"cebpf4jnsgd1na2vs0mg"},{"bike_id":"5a5e6068-ffa9-46e8-8cd1-b9f877d9e54b","system_id":"levelo_inurba_marseille","lat":43.289196,"lon":5.363932,"is_reserved":false,"is_disabled":false,"rental_uris":{"android":"levelo://app?vid=5a5e6068-ffa9-46e8-8cd1-b9f877d9e54b","ios":"levelo://app?vid=5a5e6068-ffa9-46e8-8cd1-b9f877d9e54b"},"vehicle_type_id":"4","last_reported":1737641320,"current_range_meters":35200,"station_id":"ce4bhc92rcd13ifvqetg","pricing_plan_id":"cebpf4jnsgd1na2vs0mg"},{"bike_id":"0c1699c3-4cdc-46f2-9afe-51769c8424b7","system_id":"levelo_inurba_marseille","lat":43.29247,"lon":5.40908,"is_reserved":false,"is_disabled":false,"rental_uris":{"android":"levelo://app?vid=0c1699c3-4cdc-46f2-9afe-51769c8424b7","ios":"levelo://app?vid=0c1699c3-4cdc-46f2-9afe-51769c8424b7"},"vehicle_type_id":"4","last_reported":1737641320,"current_range_meters":38800,"station_id":"ce4bh192rcd13ifvqdc0","pricing_plan_id":"cebpf4jnsgd1na2vs0mg"},{"bike_id":"a0d0780d-5dcf-4dd7-b7a6-bc4f33b73062","system_id":"levelo_inurba_marseille","lat":43.25876,"lon":5.39895,"is_reserved":false,"is_disabled":false,"rental_uris":{"android":"levelo://app?vid=a0d0780d-5dcf-4dd7-b7a6-bc4f33b73062","ios":"levelo://app?vid=a0d0780d-5dcf-4dd7-b7a6-bc4f33b73062"},"vehicle_type_id":"4","last_reported":1737641320,"current_range_meters":36400,"station_id":"ce4bhl92rcd13ifvqghg","pricing_plan_id":"cebpf4jnsgd1na2vs0mg"},{"bike_id":"4e50cbdc-85c3-4dcc-bed9-b71517a4158c","system_id":"levelo_inurba_marseille","lat":43.281098,"lon":5.378305,"is_reserved":false,"is_disabled":false,"rental_uris":{"android":"levelo://app?vid=4e50cbdc-85c3-4dcc-bed9-b71517a4158c","ios":"levelo://app?vid=4e50cbdc-85c3-4dcc-bed9-b71517a4158c"},"vehicle_type_id":"4","last_reported":1737641320,"current_range_meters":37600,"station_id":"ce4bho12rcd13ifvqh1g","pricing_plan_id":"cebpf4jnsgd1na2vs0mg"},{"bike_id":"4ec5cfe3-396c-42e6-bd13-86fdef719e62","system_id":"levelo_inurba_marseille","lat":43.31355,"lon":5.38504,"is_reserved":false,"is_disabled":false,"rental_uris":{"android":"levelo://app?vid=4ec5cfe3-396c-42e6-bd13-86fdef719e62","ios":"levelo://app?vid=4ec5cfe3-396c-42e6-bd13-86fdef719e62"},"vehicle_type_id":"4","last_reported":1737641320,"current_range_meters":36400,"station_id":"ce4bgt92rcd13ifvqcf0","pricing_plan_id":"cebpf4jnsgd1na2vs0mg"},{"bike_id":"f62039cf-0c67-4da7-989f-1c30df3c5f58","system_id":"levelo_inurba_marseille","lat":43.28353,"lon":5.38097,"is_reserved":false,"is_disabled":false,"rental_uris":{"android":"levelo://app?vid=f62039cf-0c67-4da7-989f-1c30df3c5f58","ios":"levelo://app?vid=f62039cf-0c67-4da7-989f-1c30df3c5f58"},"vehicle_type_id":"4","last_reported":1737641320,"current_range_meters":38800,"station_id":"ce4bh412rcd13ifvqdr0","pricing_plan_id":"cebpf4jnsgd1na2vs0mg"},{"bike_id":"1481177e-8f89-4f19-a929-aceaece98746","system_id":"levelo_inurba_marseille","lat":43.29515,"lon":5.3904,"is_reserved":false,"is_disabled":false,"rental_uris":{"android":"levelo://app?vid=1481177e-8f89-4f19-a929-aceaece98746","ios":"levelo://app?vid=1481177e-8f89-4f19-a929-aceaece98746"},"vehicle_type_id":"4","last_reported":1737641320,"current_range_meters":28800,"station_id":"ce4bh3p2rcd13ifvqdp0","pricing_plan_id":"cebpf4jnsgd1na2vs0mg"},{"bike_id":"8b8929bc-4b9f-45f1-9607-384009214396","system_id":"levelo_inurba_marseille","lat":43.25726,"lon":5.411,"is_reserved":false,"is_disabled":true,"rental_uris":{"android":"levelo://app?vid=8b8929bc-4b9f-45f1-9607-384009214396","ios":"levelo://app?vid=8b8929bc-4b9f-45f1-9607-384009214396"},"vehicle_type_id":"4","last_reported":1737641320,"current_range_meters":2000,"station_id":"ce4bhkp2rcd13ifvqgd0","pricing_plan_id":"cebpf4jnsgd1na2vs0mg"},{"bike_id":"fd8d03b6-c358-45fc-a1cb-f0a07cd86f34","system_id":"levelo_inurba_marseille","lat":43.29257,"lon":5.38439,"is_reserved":false,"is_disabled":false,"rental_uris":{"android":"levelo://app?vid=fd8d03b6-c358-45fc-a1cb-f0a07cd86f34","ios":"levelo://app?vid=fd8d03b6-c358-45fc-a1cb-f0a07cd86f34"},"vehicle_type_id":"4","last_reported":1737641320,"current_range_meters":24800,"station_id":"ce4bh692rcd13ifvqea0","pricing_plan_id":"cebpf4jnsgd1na2vs0mg"},{"bike_id":"31e32d05-f82b-4931-b1ac-634a5d17c4df","system_id":"levelo_inurba_marseille","lat":43.26215,"lon":5.37452,"is_reserved":false,"is_disabled":false,"rental_uris":{"android":"levelo://app?vid=31e32d05-f82b-4931-b1ac-634a5d17c4df","ios":"levelo://app?vid=31e32d05-f82b-4931-b1ac-634a5d17c4df"},"vehicle_type_id":"4","last_reported":1737641320,"current_range_meters":38800,"station_id":"ce4bhgp2rcd13ifvqfc0","pricing_plan_id":"cebpf4jnsgd1na2vs0mg"},{"bike_id":"835480b2-ed63-4958-94d6-182952837b81","system_id":"levelo_inurba_marseille","lat":43.337444,"lon":5.374475,"is_reserved":false,"is_disabled":false,"rental_uris":{"android":"levelo://app?vid=835480b2-ed63-4958-94d6-182952837b81","ios":"levelo://app?vid=835480b2-ed63-4958-94d6-182952837b81"},"vehicle_type_id":"4","last_reported":1737641320,"current_range_meters":38800,"station_id":"","pricing_plan_id":"cebpf4jnsgd1na2vs0mg"},{"bike_id":"d8798bf2-8d82-406c-a476-126705363321","system_id":"levelo_inurba_marseille","lat":43.29719,"lon":5.3775,"is_reserved":false,"is_disabled":false,"rental_uris":{"android":"levelo://app?vid=d8798bf2-8d82-406c-a476-126705363321","ios":"levelo://app?vid=d8798bf2-8d82-406c-a476-126705363321"},"vehicle_type_id":"4","last_reported":1737641320,"current_range_meters":36000,"station_id":"ce4bgkh2rcd13ifvqbl0","pricing_plan_id":"cebpf4jnsgd1na2vs0mg"},{"bike_id":"d757c695-922a-4453-b036-c28ce73b741f","system_id":"levelo_inurba_marseille","lat":43.29784,"lon":5.38081,"is_reserved":false,"is_disabled":false,"rental_uris":{"android":"levelo://app?vid=d757c695-922a-4453-b036-c28ce73b741f","ios":"levelo://app?vid=d757c695-922a-4453-b036-c28ce73b741f"},"vehicle_type_id":"4","last_reported":1737641320,"current_range_meters":8800,"station_id":"ce4bgip2rcd13ifvqbb0","pricing_plan_id":"cebpf4jnsgd1na2vs0mg"},{"bike_id":"2c0e51ff-3cdf-4455-a698-81736b193a3b","system_id":"levelo_inurba_marseille","lat":43.29558,"lon":5.42278,"is_reserved":false,"is_disabled":false,"rental_uris":{"android":"levelo://app?vid=2c0e51ff-3cdf-4455-a698-81736b193a3b","ios":"levelo://app?vid=2c0e51ff-3cdf-4455-a698-81736b193a3b"},"vehicle_type_id":"4","last_reported":1737641320,"current_range_meters":37600,"station_id":"ce4bhph2rcd13ifvqhdg","pricing_plan_id":"cebpf4jnsgd1na2vs0mg"},{"bike_id":"3c9d5d82-e531-4fce-b24d-74c2797405a3","system_id":"levelo_inurba_marseille","lat":43.323577,"lon":5.367721,"is_reserved":false,"is_disabled":false,"rental_uris":{"android":"levelo://app?vid=3c9d5d82-e531-4fce-b24d-74c2797405a3","ios":"levelo://app?vid=3c9d5d82-e531-4fce-b24d-74c2797405a3"},"vehicle_type_id":"4","last_reported":1737641320,"current_range_meters":16400,"station_id":"ce4bhsh2rcd13ifvqi2g","pricing_plan_id":"cebpf4jnsgd1na2vs0mg"},{"bike_id":"e7ac4ec6-432e-4ab9-a340-7a0f45957c4e","system_id":"levelo_inurba_marseille","lat":43.33724,"lon":5.39203,"is_reserved":false,"is_disabled":false,"rental_uris":{"android":"levelo://app?vid=e7ac4ec6-432e-4ab9-a340-7a0f45957c4e","ios":"levelo://app?vid=e7ac4ec6-432e-4ab9-a340-7a0f45957c4e"},"vehicle_type_id":"4","last_reported":1737641320,"current_range_meters":39200,"station_id":"ce4bhr92rcd13ifvqhsg","pricing_plan_id":"cebpf4jnsgd1na2vs0mg"},{"bike_id":"9ebe6da3-99b5-4623-a8f5-c14708d586f4","system_id":"levelo_inurba_marseille","lat":43.29845,"lon":5.36292,"is_reserved":false,"is_disabled":false,"rental_uris":{"android":"levelo://app?vid=9ebe6da3-99b5-4623-a8f5-c14708d586f4","ios":"levelo://app?vid=9ebe6da3-99b5-4623-a8f5-c14708d586f4"},"vehicle_type_id":"4","last_reported":1737641320,"current_range_meters":38800,"station_id":"ce4bgpp2rcd13ifvqc3g","pricing_plan_id":"cebpf4jnsgd1na2vs0mg"},{"bike_id":"0001211c-b3c0-4b40-abd0-9b305690e5b8","system_id":"levelo_inurba_marseille","lat":43.31221,"lon":5.36891,"is_reserved":false,"is_disabled":false,"rental_uris":{"android":"levelo://app?vid=0001211c-b3c0-4b40-abd0-9b305690e5b8","ios":"levelo://app?vid=0001211c-b3c0-4b40-abd0-9b305690e5b8"},"vehicle_type_id":"4","last_reported":1737641320,"current_range_meters":16400,"station_id":"ce4bgl92rcd13ifvqbq0","pricing_plan_id":"cebpf4jnsgd1na2vs0mg"},{"bike_id":"6916bef3-2786-4fd6-bc8a-9022136fcd70","system_id":"levelo_inurba_marseille","lat":43.29912,"lon":5.37477,"is_reserved":false,"is_disabled":false,"rental_uris":{"android":"levelo://app?vid=6916bef3-2786-4fd6-bc8a-9022136fcd70","ios":"levelo://app?vid=6916bef3-2786-4fd6-bc8a-9022136fcd70"},"vehicle_type_id":"4","last_reported":1737641320,"current_range_meters":36400,"station_id":"ce4bgjh2rcd13ifvqbg0","pricing_plan_id":"cebpf4jnsgd1na2vs0mg"},{"bike_id":"850a2267-1c20-469d-887b-5048ba7b0c6e","system_id":"levelo_inurba_marseille","lat":43.279976,"lon":5.400264,"is_reserved":false,"is_disabled":false,"rental_uris":{"android":"levelo://app?vid=850a2267-1c20-469d-887b-5048ba7b0c6e","ios":"levelo://app?vid=850a2267-1c20-469d-887b-5048ba7b0c6e"},"vehicle_type_id":"4","last_reported":1737641320,"current_range_meters":38800,"station_id":"ce4bho92rcd13ifvqh4g","pricing_plan_id":"cebpf4jnsgd1na2vs0mg"},{"bike_id":"e290d45c-70d2-4506-ae39-857b6db324af","system_id":"levelo_inurba_marseille","lat":43.29553,"lon":5.42302,"is_reserved":false,"is_disabled":false,"rental_uris":{"android":"levelo://app?vid=e290d45c-70d2-4506-ae39-857b6db324af","ios":"levelo://app?vid=e290d45c-70d2-4506-ae39-857b6db324af"},"vehicle_type_id":"4","last_reported":1737641320,"current_range_meters":20400,"station_id":"ce4bhph2rcd13ifvqhdg","pricing_plan_id":"cebpf4jnsgd1na2vs0mg"},{"bike_id":"eb685653-1747-45b8-8f16-6e108b902193","system_id":"levelo_inurba_marseille","lat":43.26941,"lon":5.38625,"is_reserved":false,"is_disabled":false,"rental_uris":{"android":"levelo://app?vid=eb685653-1747-45b8-8f16-6e108b902193","ios":"levelo://app?vid=eb685653-1747-45b8-8f16-6e108b902193"},"vehicle_type_id":"4","last_reported":1737641320,"current_range_meters":8800,"station_id":"ce4bhh92rcd13ifvqfh0","pricing_plan_id":"cebpf4jnsgd1na2vs0mg"},