{"last_updated":1731524821,"ttl":60,"version":"2.2","data":{"bikes":[{"bike_id":"f32c6df5-4940-48e3-840c-e0f1de78fbe2","system_id":"levelo_inurba_marseille","lat":43.297065,"lon":5.377378,"is_reserved":false,"is_disabled":false,"rental_uris":{"android":"levelo://app?vid=f32c6df5-4940-48e3-840c-e0f1de78fbe2","ios":"levelo://app?vid=f32c6df5-4940-48e3-840c-e0f1de78fbe2"},"vehicle_type_id":"4","last_reported":1731524821,"current_range_meters":40000,"station_id":"ce4bgkh2rcd13ifvqbl0","pricing_plan_id":"cebpf4jnsgd1na2vs0mg"},{"bike_id":"6d3cd248-44ea-4f67-94d6-0d16acf2e29c","system_id":"levelo_inurba_marseille","lat":43.29778,"lon":5.39335,"is_reserved":false,"is_disabled":false,"rental_uris":{"android":"levelo://app?vid=6d3cd248-44ea-4f67-94d6-0d16acf2e29c","ios":"levelo://app?vid=6d3cd248-44ea-4f67-94d6-0d16acf2e29c"},"vehicle_type_id":"4","last_reported":1731524821,"current_range_meters":6400,"station_id":"chh1huq6cuj3fo74tm60","pricing_plan_id":"cebpf4jnsgd1na2vs0mg"},{"bike_id":"fbec3ccf-f365-40fb-9b8d-a6d1725d7649","system_id":"levelo_inurba_marseille","lat":43.28718,"lon":5.37931,"is_reserved":false,"is_disabled":false,"rental_uris":{"android":"levelo://app?vid=fbec3ccf-f365-40fb-9b8d-a6d1725d7649","ios":"levelo://app?vid=fbec3ccf-f365-40fb-9b8d-a6d1725d7649"},"vehicle_type_id":"4","last_reported":1731524821,"current_range_meters":2800,"station_id":"ce4bh9p2rcd13ifvqec0","pricing_plan_id":"cebpf4jnsgd1na2vs0mg"},{"bike_id":"3dab7efe-54fb-46a4-8bb0-f438c6ef9f2a","system_id":"levelo_inurba_marseille","lat":43.27602,"lon":5.38407,"is_reserved":false,"is_disabled":false,"rental_uris":{"android":"levelo://app?vid=3dab7efe-54fb-46a4-8bb0-f438c6ef9f2a","ios":"levelo://app?vid=3dab7efe-54fb-46a4-8bb0-f438c6ef9f2a"},"vehicle_type_id":"4","last_reported":1731524821,"current_range_meters":26000,"station_id":"ce4bh2h2rcd13ifvqdh0","pricing_plan_id":"cebpf4jnsgd1na2vs0mg"},{"bike_id":"4c6f81c8-c2ea-4292-aa7a-9ac037143110","system_id":"levelo_inurba_marseille","lat":43.28458,"lon":5.359,"is_reserved":false,"is_disabled":false,"rental_uris":{"android":"levelo://app?vid=4c6f81c8-c2ea-4292-aa7a-9ac037143110","ios":"levelo://app?vid=4c6f81c8-c2ea-4292-aa7a-9ac037143110"},"vehicle_type_id":"4","last_reported":1731524821,"current_range_meters":38800,"station_id":"ce4bhah2rcd13ifvqei0","pricing_plan_id":"cebpf4jnsgd1na2vs0mg"},{"bike_id":"2d85a8c9-73cd-4fa7-9d24-3a50ba732dcc","system_id":"levelo_inurba_marseille","lat":43.23963,"lon":5.36629,"is_reserved":false,"is_disabled":false,"rental_uris":{"android":"levelo://app?vid=2d85a8c9-73cd-4fa7-9d24-3a50ba732dcc","ios":"levelo://app?vid=2d85a8c9-73cd-4fa7-9d24-3a50ba732dcc"},"vehicle_type_id":"4","last_reported":1731524821,"current_range_meters":10800,"station_id":"ce4bhi12rcd13ifvqfp0","pricing_plan_id":"cebpf4jnsgd1na2vs0mg"},{"bike_id":"b5cfcd00-1872-4d20-ad0d-347c04f5677a","system_id":"levelo_inurba_marseille","lat":43.26805,"lon":5.40274,"is_reserved":false,"is_disabled":false,"rental_uris":{"android":"levelo://app?vid=b5cfcd00-1872-4d20-ad0d-347c04f5677a","ios":"levelo://app?vid=b5cfcd00-1872-4d20-ad0d-347c04f5677a"},"vehicle_type_id":"4","last_reported":1731524821,"current_range_meters":18000,"station_id":"ce501612rcd8frsf0b60","pricing_plan_id":"cebpf4jnsgd1na2vs0mg"},{"bike_id":"a2d037a2-2d9e-4385-bd79-9481f0d0ccda","system_id":"levelo_inurba_marseille","lat":43.27209,"lon":5.39194,"is_reserved":false,"is_disabled":false,"rental_uris":{"android":"levelo://app?vid=a2d037a2-2d9e-4385-bd79-9481f0d0ccda","ios":"levelo://app?vid=a2d037a2-2d9e-4385-bd79-9481f0d0ccda"},"vehicle_type_id":"4","last_reported":1731524821,"current_range_meters":38800,"station_id":"ce4bhhp2rcd13ifvqfm0","pricing_plan_id":"cebpf4jnsgd1na2vs0mg"},{"bike_id":"eb66c83e-9c22-451e-9a96-11fcf0b6a22c","system_id":"levelo_inurba_marseille","lat":43.31783,"lon":5.39014,"is_reserved":false,"is_disabled":false,"rental_uris":{"android":"levelo://app?vid=eb66c83e-9c22-451e-9a96-11fcf0b6a22c","ios":"levelo://app?vid=eb66c83e-9c22-451e-9a96-11fcf0b6a22c"},"vehicle_type_id":"4","last_reported":1731524821,"current_range_meters":38800,"station_id":"ce4bhqp2rcd13ifvqhng","pricing_plan_id":"cebpf4jnsgd1na2vs0mg"},{"bike_id":"a809c138-fd8b-4171-b770-b916fa7d466d","system_id":"levelo_inurba_marseille","lat":43.29024,"lon":5.38148,"is_reserved":false,"is_disabled":false,"rental_uris":{"android":"levelo://app?vid=a809c138-fd8b-4171-b770-b916fa7d466d","ios":"levelo://app?vid=a809c138-fd8b-4171-b770-b916fa7d466d"},"vehicle_type_id":"4","last_reported":1731524821,"current_range_meters":26000,"station_id":"ce4bh4p2rcd13ifvqe1g","pricing_plan_id":"cebpf4jnsgd1na2vs0mg"},{"bike_id":"8a21dbce-1d61-4434-90d7-ab8a64004592","system_id":"levelo_inurba_marseille","lat":43.281,"lon":5.37844,"is_reserved":false,"is_disabled":false,"rental_uris":{"android":"levelo://app?vid=8a21dbce-1d61-4434-90d7-ab8a64004592","ios":"levelo://app?vid=8a21dbce-1d61-4434-90d7-ab8a64004592"},"vehicle_type_id":"4","last_reported":1731524821,"current_range_meters":8800,"station_id":"ce4bha12rcd13ifvqee0","pricing_plan_id":"cebpf4jnsgd1na2vs0mg"},{"bike_id":"052f9b93-6cd6-4b1f-acb9-36b85dbc4923","system_id":"levelo_inurba_marseille","lat":43.2846,"lon":5.35896,"is_reserved":false,"is_disabled":false,"rental_uris":{"android":"levelo://app?vid=052f9b93-6cd6-4b1f-acb9-36b85dbc4923","ios":"levelo://app?vid=052f9b93-6cd6-4b1f-acb9-36b85dbc4923"},"vehicle_type_id":"4","last_reported":1731524821,"current_range_meters":11200,"station_id":"ce4bhah2rcd13ifvqei0","pricing_plan_id":"cebpf4jnsgd1na2vs0mg"},{"bike_id":"ae292185-8e91-4db6-a612-c3563674c7fa","system_id":"levelo_inurba_marseille","lat":43.3176,"lon":5.39019,"is_reserved":false,"is_disabled":false,"rental_uris":{"android":"levelo://app?vid=ae292185-8e91-4db6-a612-c3563674c7fa","ios":"levelo://app?vid=ae292185-8e91-4db6-a612-c3563674c7fa"},"vehicle_type_id":"4","last_reported":1731524821,"current_range_meters":24800,"station_id":"ce4bhqp2rcd13ifvqhng","pricing_plan_id":"cebpf4jnsgd1na2vs0mg"},{"bike_id":"08b7555f-a741-44af-8695-e8c930235c6f","system_id":"levelo_inurba_marseille","lat":43.25938,"lon":5.40901,"is_reserved":false,"is_disabled":false,"rental_uris":{"android":"levelo://app?vid=08b7555f-a741-44af-8695-e8c930235c6f","ios":"levelo://app?vid=08b7555f-a741-44af-8695-e8c930235c6f"},"vehicle_type_id":"4","last_reported":1731524821,"current_range_meters":4800,"station_id":"ce4bhm92rcd13ifvqglg","pricing_plan_id":"cebpf4jnsgd1na2vs0mg"},{"bike_id":"9719777a-d03a-4e92-bf9c-4c762990eea0","system_id":"levelo_inurba_marseille","lat":43.29005,"lon":5.3561,"is_reserved":false,"is_disabled":false,"rental_uris":{"android":"levelo://app?vid=9719777a-d03a-4e92-bf9c-4c762990eea0","ios":"levelo://app?vid=9719777a-d03a-4e92-bf9c-4c762990eea0"},"vehicle_type_id":"4","last_reported":1731524821,"current_range_meters":36800,"station_id":"ce4bhb92rcd13ifvqen0","pricing_plan_id":"cebpf4jnsgd1na2vs0mg"},{"bike_id":"a17880b6-6d96-4223-84b5-68dadb83687a","system_id":"levelo_inurba_marseille","lat":43.313627,"lon":5.384835,"is_reserved":false,"is_disabled":false,"rental_uris":{"android":"levelo://app?vid=a17880b6-6d96-4223-84b5-68dadb83687a","ios":"levelo://app?vid=a17880b6-6d96-4223-84b5-68dadb83687a"},"vehicle_type_id":"4","last_reported":1731524821,"current_range_meters":38800,"station_id":"ce4bgt92rcd13ifvqcf0","pricing_plan_id":"cebpf4jnsgd1na2vs0mg"},{"bike_id":"877929b7-b84a-42f3-ad08-10f701a82c10","system_id":"levelo_inurba_marseille","lat":43.28101,"lon":5.37836,"is_reserved":false,"is_disabled":false,"rental_uris":{"android":"levelo://app?vid=877929b7-b84a-42f3-ad08-10f701a82c10","ios":"levelo://app?vid=877929b7-b84a-42f3-ad08-10f701a82c10"},"vehicle_type_id":"4","last_reported":1731524821,"current_range_meters":9600,"station_id":"ce4bha12rcd13ifvqee0","pricing_plan_id":"cebpf4jnsgd1na2vs0mg"},{"bike_id":"875850f0-01d3-4768-8275-44bc5bc35351","system_id":"levelo_inurba_marseille","lat":43.288458,"lon":5.393191,"is_reserved":false,"is_disabled":false,"rental_uris":{"android":"levelo://app?vid=875850f0-01d3-4768-8275-44bc5bc35351","ios":"levelo://app?vid=875850f0-01d3-4768-8275-44bc5bc35351"},"vehicle_type_id":"4","last_reported":1731524821,"current_range_meters":14000,"station_id":"ce4bh2p2rcd13ifvqdi0","pricing_plan_id":"cebpf4jnsgd1na2vs0mg"},{"bike_id":"1efd8d21-7139-4418-b041-6d30c8a12a0e","system_id":"levelo_inurba_marseille","lat":43.28923,"lon":5.38391,"is_reserved":false,"is_disabled":false,"rental_uris":{"android":"levelo://app?vid=1efd8d21-7139-4418-b041-6d30c8a12a0e","ios":"levelo://app?vid=1efd8d21-7139-4418-b041-6d30c8a12a0e"},"vehicle_type_id":"4","last_reported":1731524821,"current_range_meters":8000,"station_id":"ce4bh612rcd13ifvqe6g","pricing_plan_id":"cebpf4jnsgd1na2vs0mg"},{"bike_id":"0bd3f242-8340-44a3-84e6-ee4dcef6127b","system_id":"levelo_inurba_marseille","lat":43.28927,"lon":5.36637,"is_reserved":false,"is_disabled":false,"rental_uris":{"android":"levelo://app?vid=0bd3f242-8340-44a3-84e6-ee4dcef6127b","ios":"levelo://app?vid=0bd3f242-8340-44a3-84e6-ee4dcef6127b"},"vehicle_type_id":"4","last_reported":1731524821,"current_range_meters":33600,"station_id":"ce4bhap2rcd13ifvqek0","pricing_plan_id":"cebpf4jnsgd1na2vs0mg"},{"bike_id":"81300f53-0502-418d-8f55-42d0b472949c","system_id":"levelo_inurba_marseille","lat":43.28498,"lon":5.38561,"is_reserved":false,"is_disabled":false,"rental_uris":{"android":"levelo://app?vid=81300f53-0502-418d-8f55-42d0b472949c","ios":"levelo://app?vid=81300f53-0502-418d-8f55-42d0b472949c"},"vehicle_type_id":"4","last_reported":1731524821,"current_range_meters":6000,"station_id":"ce4bh8p2rcd13ifvqeb0","pricing_plan_id":"cebpf4jnsgd1na2vs0mg"},{"bike_id":"915b3322-673b-4f0d-87cb-c2e1aa7da644","system_id":"levelo_inurba_marseille","lat":43.26802,"lon":5.40269,"is_reserved":false,"is_disabled":false,"rental_uris":{"android":"levelo://app?vid=915b3322-673b-4f0d-87cb-c2e1aa7da644","ios":"levelo://app?vid=915b3322-673b-4f0d-87cb-c2e1aa7da644"},"vehicle_type_id":"4","last_reported":1731524821,"current_range_meters":17200,"station_id":"ce501612rcd8frsf0b60","pricing_plan_id":"cebpf4jnsgd1na2vs0mg"},{"bike_id":"a69f4d7b-3e5e-4cdf-a3a5-2686fa0be77b","system_id":"levelo_inurba_marseille","lat":43.33022,"lon":5.39044,"is_reserved":false,"is_disabled":false,"rental_uris":{"android":"levelo://app?vid=a69f4d7b-3e5e-4cdf-a3a5-2686fa0be77b","ios":"levelo://app?vid=a69f4d7b-3e5e-4cdf-a3a5-2686fa0be77b"},"vehicle_type_id":"4","last_reported":1731524821,"current_range_meters":32000,"station_id":"ce4bhr92rcd13ifvqhrg","pricing_plan_id":"cebpf4jnsgd1na2vs0mg"},{"bike_id":"940f17c0-c1d1-4dcd-91e0-3b2663080df5","system_id":"levelo_inurba_marseille","lat":43.2749,"lon":5.42443,"is_reserved":false,"is_disabled":false,"rental_uris":{"android":"levelo://app?vid=940f17c0-c1d1-4dcd-91e0-3b2663080df5","ios":"levelo://app?vid=940f17c0-c1d1-4dcd-91e0-3b2663080df5"},"vehicle_type_id":"4","last_reported":1731524821,"current_range_meters":28400,"station_id":"ce4bhn92rcd13ifvqgrg","pricing_plan_id":"cebpf4jnsgd1na2vs0mg"},{"bike_id":"cbc19349-e630-4dd8-baac-6335f6904726","system_id":"levelo_inurba_marseille","lat":43.27616,"lon":5.36113,"is_reserved":false,"is_disabled":false,"rental_uris":{"android":"levelo://app?vid=cbc19349-e630-4dd8-baac-6335f6904726","ios":"levelo://app?vid=cbc19349-e630-4dd8-baac-6335f6904726"},"vehicle_type_id":"4","last_reported":1731524821,"current_range_meters":36800,"station_id":"ce4bgj92rcd13ifvqbe0","pricing_plan_id":"cebpf4jnsgd1na2vs0mg"},{"bike_id":"abcbe9bd-75fe-4b06-978f-176cd5c7db59","system_id":"levelo_inurba_marseille","lat":43.265308,"lon":5.395245,"is_reserved":false,"is_disabled":false,"rental_uris":{"android":"levelo://app?vid=abcbe9bd-75fe-4b06-978f-176cd5c7db59","ios":"levelo://app?vid=abcbe9bd-75fe-4b06-978f-176cd5c7db59"},"vehicle_type_id":"4","last_reported":1731524821,"current_range_meters":32000,"station_id":"ce4bhi12rcd13ifvqfq0","pricing_plan_id":"cebpf4jnsgd1na2vs0mg"},{"bike_id":"c50193ed-9581-47b6-9d82-c63e21b14d8a","system_id":"levelo_inurba_marseille","lat":43.29158,"lon":5.37169,"is_reserved":false,"is_disabled":false,"rental_uris":{"android":"levelo://app?vid=c50193ed-9581-47b6-9d82-c63e21b14d8a","ios":"levelo://app?vid=c50193ed-9581-47b6-9d82-c63e21b14d8a"},"vehicle_type_id":"4","last_reported":1731524821,"current_range_meters":6800,"station_id":"ce4bha92rcd13ifvqeh0","pricing_plan_id":"cebpf4jnsgd1na2vs0mg"},{"bike_id":"46488ce4-bf9b-4d84-82ab-dfeeeeb1c0ec","system_id":"levelo_inurba_marseille","lat":43.31494,"lon":5.37308,"is_reserved":false,"is_disabled":false,"rental_uris":{"android":"levelo://app?vid=46488ce4-bf9b-4d84-82ab-dfeeeeb1c0ec","ios":"levelo://app?vid=46488ce4-bf9b-4d84-82ab-dfeeeeb1c0ec"},"vehicle_type_id":"4","last_reported":1731524821,"current_range_meters":28400,"station_id":"ce4bgt12rcd13ifvqcd0","pricing_plan_id":"cebpf4jnsgd1na2vs0mg"},{"bike_id":"4a74f469-1d99-48ee-a8ca-9199898c00a4","system_id":"levelo_inurba_marseille","lat":43.23197,"lon":5.35553,"is_reserved":false,"is_disabled":false,"rental_uris":{"android":"levelo://app?vid=4a74f469-1d99-48ee-a8ca-9199898c00a4","ios":"levelo://app?vid=4a74f469-1d99-48ee-a8ca-9199898c00a4"},"vehicle_type_id":"4","last_reported":1731524821,"current_range_meters":25600,"station_id":"ce4bhu92rcd13ifvqi70","pricing_plan_id":"cebpf4jnsgd1na2vs0mg"},{"bike_id":"1035bd3c-6fa4-49ea-aa97-b9fd4e525ee0","system_id":"levelo_inurba_marseille","lat":43.29526,"lon":5.37467,"is_reserved":false,"is_disabled":false,"rental_uris":{"android":"levelo://app?vid=1035bd3c-6fa4-49ea-aa97-b9fd4e525ee0","ios":"levelo://app?vid=1035bd3c-6fa4-49ea-aa97-b9fd4e525ee0"},"vehicle_type_id":"4","last_reported":1731524821,"current_range_meters":14400,"station_id":"","pricing_plan_id":"cebpf4jnsgd1na2vs0mg"},{"bike_id":"77849bd5-5bfe-4445-8191-82da714d15fa","system_id":"levelo_inurba_marseille","lat":43.27808,"lon":5.4072,"is_reserved":false,"is_disabled":false,"rental_uris":{"android":"levelo://app?vid=77849bd5-5bfe-4445-8191-82da714d15fa","ios":"levelo://app?vid=77849bd5-5bfe-4445-8191-82da714d15fa"},"vehicle_type_id":"4","last_reported":1731524821,"current_range_meters":36800,"station_id":"ce4bhnh2rcd13ifvqgtg","pricing_plan_id":"cebpf4jnsgd1na2vs0mg"},{"bike_id":"baeed238-b5b4-482c-9e5c-2accf4da025a","system_id":"levelo_inurba_marseille","lat":43.28039,"lon":5.36944,"is_reserved":false,"is_disabled":false,"rental_uris":{"android":"levelo://app?vid=baeed238-b5b4-482c-9e5c-2accf4da025a","ios":"levelo://app?vid=baeed238-b5b4-482c-9e5c-2accf4da025a"},"vehicle_type_id":"4","last_reported":1731524821,"current_range_meters":28000,"station_id":"ce4bha12rcd13ifvqef0","pricing_plan_id":"cebpf4jnsgd1na2vs0mg"},{"bike_id":"1198c6d1-fc2b-4a79-ab56-a8f95b52cdab","system_id":"levelo_inurba_marseille","lat":43.3175,"lon":5.39017,"is_reserved":false,"is_disabled":false,"rental_uris":{"android":"levelo://app?vid=1198c6d1-fc2b-4a79-ab56-a8f95b52cdab","ios":"levelo://app?vid=1198c6d1-fc2b-4a79-ab56-a8f95b52cdab"},"vehicle_type_id":"4","last_reported":1731524821,"current_range_meters":38800,"station_id":"ce4bhqp2rcd13ifvqhng","pricing_plan_id":"cebpf4jnsgd1na2vs0mg"},{"bike_id":"8c9438a3-7504-4673-9c7f-e256e577c8dd","system_id":"levelo_inurba_marseille","lat":43.295197,"lon":5.390394,"is_reserved":false,"is_disabled":false,"rental_uris":{"android":"levelo://app?vid=8c9438a3-7504-4673-9c7f-e256e577c8dd","ios":"levelo://app?vid=8c9438a3-7504-4673-9c7f-e256e577c8dd"},"vehicle_type_id":"4","last_reported":1731524821,"current_range_meters":38800,"station_id":"ce4bh192rcd13ifvqdb0","pricing_plan_id":"cebpf4jnsgd1na2vs0mg"},{"bike_id":"77ff319c-086a-45f0-b515-acafabcb1ec9","system_id":"levelo_inurba_marseille","lat":43.30805,"lon":5.43518,"is_reserved":false,"is_disabled":false,"rental_uris":{"android":"levelo://app?vid=77ff319c-086a-45f0-b515-acafabcb1ec9","ios":"levelo://app?vid=77ff319c-086a-45f0-b515-acafabcb1ec9"},"vehicle_type_id":"4","last_reported":1731524821,"current_range_meters":20400,"station_id":"ce4bhph2rcd13ifvqheg","pricing_plan_id":"cebpf4jnsgd1na2vs0mg"},{"bike_id":"cbecb005-1455-4ff8-8506-f6a28f8edef9","system_id":"levelo_inurba_marseille","lat":43.291992,"lon":5.393227,"is_reserved":false,"is_disabled":false,"rental_uris":{"android":"levelo://app?vid=cbecb005-1455-4ff8-8506-f6a28f8edef9","ios":"levelo://app?vid=cbecb005-1455-4ff8-8506-f6a28f8edef9"},"vehicle_type_id":"4","last_reported":1731524821,"current_range_meters":24400,"station_id":"ce4bh192rcd13ifvqdd0","pricing_plan_id":"cebpf4jnsgd1na2vs0mg"},{"bike_id":"d90d861b-f246-48e4-b5c6-8f100bd8f91c","system_id":"levelo_inurba_marseille","lat":43.25084,"lon":5.39519,"is_reserved":false,"is_disabled":false,"rental_uris":{"android":"levelo://app?vid=d90d861b-f246-48e4-b5c6-8f100bd8f91c","ios":"levelo://app?vid=d90d861b-f246-48e4-b5c6-8f100bd8f91c"},"vehicle_type_id":"4","last_reported":1731524821,"current_range_meters":27600,"station_id":"ce4bhm12rcd13ifvqgkg","pricing_plan_id":"cebpf4jnsgd1na2vs0mg"},{"bike_id":"263d9352-745d-4496-b9ba-001591edf2fa","system_id":"levelo_inurba_marseille","lat":43.25505,"lon":5.37648,"is_reserved":false,"is_disabled":false,"rental_uris":{"android":"levelo://app?vid=263d9352-745d-4496-b9ba-001591edf2fa","ios":"levelo://app?vid=263d9352-745d-4496-b9ba-001591edf2fa"},"vehicle_type_id":"4","last_reported":1731524821,"current_range_meters":19200,"station_id":"ce4bhh12rcd13ifvqff0","pricing_plan_id":"cebpf4jnsgd1na2vs0mg"},{"bike_id":"5a62bbf4-0c11-40cf-814d-301fd0a3a13c","system_id":"levelo_inurba_marseille","lat":43.27942,"lon":5.39894,"is_reserved":false,"is_disabled":false,"rental_uris":{"android":"levelo://app?vid=5a62bbf4-0c11-40cf-814d-301fd0a3a13c","ios":"levelo://app?vid=5a62bbf4-0c11-40cf-814d-301fd0a3a13c"},"vehicle_type_id":"4","last_reported":1731524821,"current_range_meters":38800,"station_id":"ce4bho92rcd13ifvqh4g","pricing_plan_id":"cebpf4jnsgd1na2vs0mg"},{"bike_id":"44376c3b-e62c-4341-acee-1fb0b2497c4c","system_id":"levelo_inurba_marseille","lat":43.2396,"lon":5.36634,"is_reserved":false,"is_disabled":false,"rental_uris":{"android":"levelo://app?vid=44376c3b-e62c-4341-acee-1fb0b2497c4c","ios":"levelo://app?vid=44376c3b-e62c-4341-acee-1fb0b2497c4c"},"vehicle_type_id":"4","last_reported":1731524821,"current_range_meters":36000,"station_id":"ce4bhi12rcd13ifvqfp0","pricing_plan_id":"cebpf4jnsgd1na2vs0mg"},{"bike_id":"b3488e80-5ed9-4cfa-ba5b-b0e1ae431b19","system_id":"levelo_inurba_marseille","lat":43.30032,"lon":5.39651,"is_reserved":false,"is_disabled":false,"rental_uris":{"android":"levelo://app?vid=b3488e80-5ed9-4cfa-ba5b-b0e1ae431b19","ios":"levelo://app?vid=b3488e80-5ed9-4cfa-ba5b-b0e1ae431b19"},"vehicle_type_id":"4","last_reported":1731524821,"current_range_meters":6400,"station_id":"ce4bh392rcd13ifvqdm0","pricing_plan_id":"cebpf4jnsgd1na2vs0mg"},{"bike_id":"318f7889-35ee-4ad0-8a2a-57588b09f79a","system_id":"levelo_inurba_marseille","lat":43.33021,"lon":5.39036,"is_reserved":false,"is_disabled":false,"rental_uris":{"android":"levelo://app?vid=318f7889-35ee-4ad0-8a2a-57588b09f79a","ios":"levelo://app?vid=318f7889-35ee-4ad0-8a2a-57588b09f79a"},"vehicle_type_id":"4","last_reported":1731524821,"current_range_meters":6800,"station_id":"ce4bhr92rcd13ifvqhrg","pricing_plan_id":"cebpf4jnsgd1na2vs0mg"},{"bike_id":"45865806-bc2c-4c6c-8332-c61b5ccd45c4","system_id":"levelo_inurba_marseille","lat":43.3153,"lon":5.3802,"is_reserved":false,"is_disabled":false,"rental_uris":{"android":"levelo://app?vid=45865806-bc2c-4c6c-8332-c61b5ccd45c4","ios":"levelo://app?vid=45865806-bc2c-4c6c-8332-c61b5ccd45c4"},"vehicle_type_id":"4","last_reported":1731524821,"current_range_meters":37600,"station_id":"ce4bhsp2rcd13ifvqi50","pricing_plan_id":"cebpf4jnsgd1na2vs0mg"},{"bike_id":"e8c29f09-ca6d-40ba-8178-db92cf2e907e","system_id":"levelo_inurba_marseille","lat":43.28861,"lon":5.39314,"is_reserved":false,"is_disabled":false,"rental_uris":{"android":"levelo://app?vid=e8c29f09-ca6d-40ba-8178-db92cf2e907e","ios":"levelo://app?vid=e8c29f09-ca6d-40ba-8178-db92cf2e907e"},"vehicle_type_id":"4","last_reported":1731524821,"current_range_meters":38800,"station_id":"ce4bh2p2rcd13ifvqdi0","pricing_plan_id":"cebpf4jnsgd1na2vs0mg"},{"bike_id":"a13182e9-2fdc-4d4c-9d62-6ce6c3b55bb1","system_id":"levelo_inurba_marseille","lat":43.29929,"lon":5.36537,"is_reserved":false,"is_disabled":false,"rental_uris":{"android":"levelo://app?vid=a13182e9-2fdc-4d4c-9d62-6ce6c3b55bb1","ios":"levelo://app?vid=a13182e9-2fdc-4d4c-9d62-6ce6c3b55bb1"},"vehicle_type_id":"4","last_reported":1731524821,"current_range_meters":20000,"station_id":"ce4bgm92rcd13ifvqbr0","pricing_plan_id":"cebpf4jnsgd1na2vs0mg"},{"bike_id":"ceaf1c85-1d4c-4daa-b4b7-bbb91b330960","system_id":"levelo_inurba_marseille","lat":43.28651,"lon":5.36356,"is_reserved":false,"is_disabled":false,"rental_uris":{"android":"levelo://app?vid=ceaf1c85-1d4c-4daa-b4b7-bbb91b330960","ios":"levelo://app?vid=ceaf1c85-1d4c-4daa-b4b7-bbb91b330960"},"vehicle_type_id":"4","last_reported":1731524821,"current_range_meters":9200,"station_id":"ce4bhah2rcd13ifvqej0","pricing_plan_id":"cebpf4jnsgd1na2vs0mg"},{"bike_id":"558355e9-bfb9-4b65-9aa9-8b11f75a01f6","system_id":"levelo_inurba_marseille","lat":43.32469,"lon":5.36563,"is_reserved":false,"is_disabled":false,"rental_uris":{"android":"levelo://app?vid=558355e9-bfb9-4b65-9aa9-8b11f75a01f6","ios":"levelo://app?vid=558355e9-bfb9-4b65-9aa9-8b11f75a01f6"},"vehicle_type_id":"4","last_reported":1731524821,"current_range_meters":8000,"station_id":"ce4bhs12rcd13ifvqhvg","pricing_plan_id":"cebpf4jnsgd1na2vs0mg"},{"bike_id":"e7dba591-5900-402e-97ff-bd9dd1890971","system_id":"levelo_inurba_marseille","lat":43.29864,"lon":5.39731,"is_reserved":false,"is_disabled":false,"rental_uris":{"android":"levelo://app?vid=e7dba591-5900-402e-97ff-bd9dd1890971","ios":"levelo://app?vid=e7dba591-5900-402e-97ff-bd9dd1890971"},"vehicle_type_id":"4","last_reported":1731524821,"current_range_meters":36800,"station_id":"ce4bh0h2rcd13ifvqd50","pricing_plan_id":"cebpf4jnsgd1na2vs0mg"},{"bike_id":"4e10d3d1-06de-4b84-a31a-b5e01f1d09a4","system_id":"levelo_inurba_marseille","lat":43.32475,"lon":5.36552,"is_reserved":false,"is_disabled":false,"rental_uris":{"android":"levelo://app?vid=4e10d3d1-06de-4b84-a31a-b5e01f1d09a4","ios":"levelo://app?vid=4e10d3d1-06de-4b84-a31a-b5e01f1d09a4"},"vehicle_type_id":"4","last_reported":1731524821,"current_range_meters":35200,"station_id":"ce4bhs12rcd13ifvqhvg","pricing_plan_id":"cebpf4jnsgd1na2vs0mg"},{"bike_id":"7e219753-ac6c-4bd9-b4d2-823cdf590572","system_id":"levelo_inurba_marseille","lat":43.29047,"lon":5.35904,"is_reserved":false,"is_disabled":false,"rental_uris":{"android":"levelo://app?vid=7e219753-ac6c-4bd9-b4d2-823cdf590572","ios":"levelo://app?vid=7e219753-ac6c-4bd9-b4d2-823cdf590572"},"vehicle_type_id":"4","last_reported":1731524821,"current_range_meters":10800,"station_id":"ce4bha92rcd13ifvqeg0","pricing_plan_id":"cebpf4jnsgd1na2vs0mg"},{"bike_id":"6be89154-076b-4472-9fd7-35b22177dc35","system_id":"levelo_inurba_marseille","lat":43.27912,"lon":5.38015,"is_reserved":false,"is_disabled":false,"rental_uris":{"android":"levelo://app?vid=6be89154-076b-4472-9fd7-35b22177dc35","ios":"levelo://app?vid=6be89154-076b-4472-9fd7-35b22177dc35"},"vehicle_type_id":"4","last_reported":1731524821,"current_range_meters":12000,"station_id":"ce4bhf92rcd13ifvqf50","pricing_plan_id":"cebpf4jnsgd1na2vs0mg"},{"bike_id":"12817c99-3b1a-40e0-be55-c1f1ccfaedd7","system_id":"levelo_inurba_marseille","lat":43.27798,"lon":5.40705,"is_reserved":false,"is_disabled":false,"rental_uris":{"android":"levelo://app?vid=12817c99-3b1a-40e0-be55-c1f1ccfaedd7","ios":"levelo://app?vid=12817c99-3b1a-40e0-be55-c1f1ccfaedd7"},"vehicle_type_id":"4","last_reported":1731524821,"current_range_meters":38800,"station_id":"ce4bhnh2rcd13ifvqgtg","pricing_plan_id":"cebpf4jnsgd1na2vs0mg"},{"bike_id":"b5c48233-4f2d-4568-a512-177511afea67","system_id":"levelo_inurba_marseille","lat":43.29047,"lon":5.35905,"is_reserved":false,"is_disabled":false,"rental_uris":{"android":"levelo://app?vid=b5c48233-4f2d-4568-a512-177511afea67","ios":"levelo://app?vid=b5c48233-4f2d-4568-a512-177511afea67"},"vehicle_type_id":"4","last_reported":1731524821,"current_range_meters":20400,"station_id":"ce4bha92rcd13ifvqeg0","pricing_plan_id":"cebpf4jnsgd1na2vs0mg"},{"bike_id":"05703be2-e2a6-4399-9109-0d9772e6b116","system_id":"levelo_inurba_marseille","lat":43.25577,"lon":5.3823,"is_reserved":false,"is_disabled":false,"rental_uris":{"android":"levelo://app?vid=05703be2-e2a6-4399-9109-0d9772e6b116","ios":"levelo://app?vid=05703be2-e2a6-4399-9109-0d9772e6b116"},"vehicle_type_id":"4","last_reported":1731524821,"current_range_meters":14000,"station_id":"ce4bhih2rcd13ifvqfs0","pricing_plan_id":"cebpf4jnsgd1na2vs0mg"},{"bike_id":"1957e444-8923-4300-9d70-b4b7e3786f40","system_id":"levelo_inurba_marseille","lat":43.27563,"lon":5.3842,"is_reserved":false,"is_disabled":false,"rental_uris":{"android":"levelo://app?vid=1957e444-8923-4300-9d70-b4b7e3786f40","ios":"levelo://app?vid=1957e444-8923-4300-9d70-b4b7e3786f40"},"vehicle_type_id":"4","last_reported":1731524821,"current_range_meters":19600,"station_id":"ce4bhh92rcd13ifvqfi0","pricing_plan_id":"cebpf4jnsgd1na2vs0mg"},{"bike_id":"7a56d0a8-a4a2-4acb-8323-25d4cda32662","system_id":"levelo_inurba_marseille","lat":43.24068,"lon":5.37762,"is_reserved":false,"is_disabled":false,"rental_uris":{"android":"levelo://app?vid=7a56d0a8-a4a2-4acb-8323-25d4cda32662","ios":"levelo://app?vid=7a56d0a8-a4a2-4acb-8323-25d4cda32662"},"vehicle_type_id":"4","last_reported":1731524821,"current_range_meters":38800,"station_id":"ce4bhnp2rcd13ifvqgvg","pricing_plan_id":"cebpf4jnsgd1na2vs0mg"},{"bike_id":"d99bff46-e3e0-4c25-9719-3fa3dd9a1a6e","system_id":"levelo_inurba_marseille","lat":43.31431,"lon":5.37409,"is_reserved":false,"is_disabled":false,"rental_uris":{"android":"levelo://app?vid=d99bff46-e3e0-4c25-9719-3fa3dd9a1a6e","ios":"levelo://app?vid=d99bff46-e3e0-4c25-9719-3fa3dd9a1a6e"},"vehicle_type_id":"4","last_reported":1731524821,"current_range_meters":22000,"station_id":"","pricing_plan_id":"cebpf4jnsgd1na2vs0mg"},{"bike_id":"41216121-f9a5-4d0d-b4ad-c65a5f5a6201","system_id":"levelo_inurba_marseille","lat":43.33721,"lon":5.39184,"is_reserved":false,"is_disabled":false,"rental_uris":{"android":"levelo://app?vid=41216121-f9a5-4d0d-b4ad-c65a5f5a6201","ios":"levelo://app?vid=41216121-f9a5-4d0d-b4ad-c65a5f5a6201"},"vehicle_type_id":"4","last_reported":1731524821,"current_range_meters":16400,"station_id":"ce4bhr92rcd13ifvqhsg","pricing_plan_id":"cebpf4jnsgd1na2vs0mg"},{"bike_id":"07df449b-4274-4142-8432-30fbab1e34c7","system_id":"levelo_inurba_marseille","lat":43.316925,"lon":5.423986,"is_reserved":false,"is_disabled":false,"rental_uris":{"android":"levelo://app?vid=07df449b-4274-4142-8432-30fbab1e34c7","ios":"levelo://app?vid=07df449b-4274-4142-8432-30fbab1e34c7"},"vehicle_type_id":"4","last_reported":1731524821,"current_range_meters":8800,"station_id":"ce4bhp92rcd13ifvqhbg","pricing_plan_id":"cebpf4jnsgd1na2vs0mg"},{"bike_id":"b04ca682-4815-4192-9cfa-4de010ac6f8a","system_id":"levelo_inurba_marseille","lat":43.287506,"lon":5.376977,"is_reserved":false,"is_disabled":false,"rental_uris":{"android":"levelo://app?vid=b04ca682-4815-4192-9cfa-4de010ac6f8a","ios":"levelo://app?vid=b04ca682-4815-4192-9cfa-4de010ac6f8a"},"vehicle_type_id":"4","last_reported":1731524821,"current_range_meters":21600,"station_id":"ce4bh3p2rcd13ifvqdq0","pricing_plan_id":"cebpf4jnsgd1na2vs0mg"},{"bike_id":"4f7c3615-3366-48fa-8a55-0e9b43d2f661","system_id":"levelo_inurba_marseille","lat":43.27993,"lon":5.41655,"is_reserved":false,"is_disabled":false,"rental_uris":{"android":"levelo://app?vid=4f7c3615-3366-48fa-8a55-0e9b43d2f661","ios":"levelo://app?vid=4f7c3615-3366-48fa-8a55-0e9b43d2f661"},"vehicle_type_id":"4","last_reported":1731524821,"current_range_meters":7200,"station_id":"ce4bho12rcd13ifvqh1g","pricing_plan_id":"cebpf4jnsgd1na2vs0mg"},{"bike_id":"f60a5c1f-9610-45de-a323-8cb1185c0638","system_id":"levelo_inurba_marseille","lat":43.2926,"lon":5.4091,"is_reserved":false,"is_disabled":false,"rental_uris":{"android":"levelo://app?vid=f60a5c1f-9610-45de-a323-8cb1185c0638","ios":"levelo://app?vid=f60a5c1f-9610-45de-a323-8cb1185c0638"},"vehicle_type_id":"4","last_reported":1731524821,"current_range_meters":21600,"station_id":"ce4bh192rcd13ifvqdc0","pricing_plan_id":"cebpf4jnsgd1na2vs0mg"},{"bike_id":"ae699006-7259-480a-ace9-c61f8f566da4","system_id":"levelo_inurba_marseille","lat":43.279744,"lon":5.387472,"is_reserved":false,"is_disabled":false,"rental_uris":{"android":"levelo://app?vid=ae699006-7259-480a-ace9-c61f8f566da4","ios":"levelo://app?vid=ae699006-7259-480a-ace9-c61f8f566da4"},"vehicle_type_id":"4","last_reported":1731524821,"current_range_meters":38000,"station_id":"ce4bhg12rcd13ifvqf80","pricing_plan_id":"cebpf4jnsgd1na2vs0mg"},{"bike_id":"4f887acd-619f-41ac-9dee-d09fab14b35b","system_id":"levelo_inurba_marseille","lat":43.29057,"lon":5.3716,"is_reserved":false,"is_disabled":false,"rental_uris":{"android":"levelo://app?vid=4f887acd-619f-41ac-9dee-d09fab14b35b","ios":"levelo://app?vid=4f887acd-619f-41ac-9dee-d09fab14b35b"},"vehicle_type_id":"4","last_reported":1731524821,"current_range_meters":20000,"station_id":"ce4bh5p2rcd13ifvqe4g","pricing_plan_id":"cebpf4jnsgd1na2vs0mg"},{"bike_id":"4cd95fb4-c485-4c65-93a2-d3e84e4b9781","system_id":"levelo_inurba_marseille","lat":43.29033,"lon":5.35896,"is_reserved":false,"is_disabled":false,"rental_uris":{"android":"levelo://app?vid=4cd95fb4-c485-4c65-93a2-d3e84e4b9781","ios":"levelo://app?vid=4cd95fb4-c485-4c65-93a2-d3e84e4b9781"},"vehicle_type_id":"4","last_reported":1731524821,"current_range_meters":2000,"station_id":"ce4bha92rcd13ifvqeg0","pricing_plan_id":"cebpf4jnsgd1na2vs0mg"},{"bike_id":"c922eb02-035c-4fd0-a78f-29ec8348d4e8","system_id":"levelo_inurba_marseille","lat":43.29193,"lon":5.39323,"is_reserved":false,"is_disabled":false,"rental_uris":{"android":"levelo://app?vid=c922eb02-035c-4fd0-a78f-29ec8348d4e8","ios":"levelo://app?vid=c922eb02-035c-4fd0-a78f-29ec8348d4e8"},"vehicle_type_id":"4","last_reported":1731524821,"current_range_meters":16400,"station_id":"ce4bh192rcd13ifvqdd0","pricing_plan_id":"cebpf4jnsgd1na2vs0mg"},{"bike_id":"cb9a6aa0-0b19-47f1-9052-a16185b299c2","system_id":"levelo_inurba_marseille","lat":43.29868,"lon":5.3973,"is_reserved":false,"is_disabled":false,"rental_uris":{"android":"levelo://app?vid=cb9a6aa0-0b19-47f1-9052-a16185b299c2","ios":"levelo://app?vid=cb9a6aa0-0b19-47f1-9052-a16185b299c2"},"vehicle_type_id":"4","last_reported":1731524821,"current_range_meters":8800,"station_id":"ce4bh0h2rcd13ifvqd50","pricing_plan_id":"cebpf4jnsgd1na2vs0mg"},{"bike_id":"7db349e8-ad42-4134-bddb-be5dc2fe4958","system_id":"levelo_inurba_marseille","lat":43.29956,"lon":5.4132,"is_reserved":false,"is_disabled":false,"rental_uris":{"android":"levelo://app?vid=7db349e8-ad42-4134-bddb-be5dc2fe4958","ios":"levelo://app?vid=7db349e8-ad42-4134-bddb-be5dc2fe4958"},"vehicle_type_id":"4","last_reported":1731524821,"current_range_meters":38800,"station_id":"ce4bhp12rcd13ifvqh9g","pricing_plan_id":"cebpf4jnsgd1na2vs0mg"},{"bike_id":"4d588559-87d9-4b67-ac55-1a3523c0923d","system_id":"levelo_inurba_marseille","lat":43.29897,"lon":5.43662,"is_reserved":false,"is_disabled":false,"rental_uris":{"android":"levelo://app?vid=4d588559-87d9-4b67-ac55-1a3523c0923d","ios":"levelo://app?vid=4d588559-87d9-4b67-ac55-1a3523c0923d"},"vehicle_type_id":"4","last_reported":1731524821,"current_range_meters":27600,"station_id":"ce4bhpp2rcd13ifvqhfg","pricing_plan_id":"cebpf4jnsgd1na2vs0mg"},{"bike_id":"c4cd912c-a38b-4bea-8dd2-1adccd444902","system_id":"levelo_inurba_marseille","lat":43.32293,"lon":5.38281,"is_reserved":false,"is_disabled":false,"rental_uris":{"android":"levelo://app?vid=c4cd912c-a38b-4bea-8dd2-1adccd444902","ios":"levelo://app?vid=c4cd912c-a38b-4bea-8dd2-1adccd444902"},"vehicle_type_id":"4","last_reported":1731524821,"current_range_meters":6400,"station_id":"ce4bhr12rcd13ifvqhqg","pricing_plan_id":"cebpf4jnsgd1na2vs0mg"},{"bike_id":"76cced52-b133-4b23-98df-cd8d130e5266","system_id":"levelo_inurba_marseille","lat":43.30588,"lon":5.39358,"is_reserved":false,"is_disabled":false,"rental_uris":{"android":"levelo://app?vid=76cced52-b133-4b23-98df-cd8d130e5266","ios":"levelo://app?vid=76cced52-b133-4b23-98df-cd8d130e5266"},"vehicle_type_id":"4","last_reported":1731524821,"current_range_meters":18800,"station_id":"ce4bh0p2rcd13ifvqd80","pricing_plan_id":"cebpf4jnsgd1na2vs0mg"},{"bike_id":"6a702561-5592-4a3b-b276-c002ec1f5eea","system_id":"levelo_inurba_marseille","lat":43.279741,"lon":5.387218,"is_reserved":false,"is_disabled":false,"rental_uris":{"android":"levelo://app?vid=6a702561-5592-4a3b-b276-c002ec1f5eea","ios":"levelo://app?vid=6a702561-5592-4a3b-b276-c002ec1f5eea"},"vehicle_type_id":"4","last_reported":1731524821,"current_range_meters":38800,"station_id":"ce4bhg12rcd13ifvqf80","pricing_plan_id":"cebpf4jnsgd1na2vs0mg"},{"bike_id":"3e57bc04-bb78-45cd-b095-491857fbf9d6","system_id":"levelo_inurba_marseille","lat":43.28359,"lon":5.38614,"is_reserved":false,"is_disabled":false,"rental_uris":{"android":"levelo://app?vid=3e57bc04-bb78-45cd-b095-491857fbf9d6","ios":"levelo://app?vid=3e57bc04-bb78-45cd-b095-491857fbf9d6"},"vehicle_type_id":"4","last_reported":1731524821,"current_range_meters":6400,"station_id":"ce4bh492rcd13ifvqdvg","pricing_plan_id":"cebpf4jnsgd1na2vs0mg"},{"bike_id":"8963f262-bdcb-43f5-9e37-237198779ba8","system_id":"levelo_inurba_marseille","lat":43.33773,"lon":5.37442,"is_reserved":false,"is_disabled":false,"rental_uris":{"android":"levelo://app?vid=8963f262-bdcb-43f5-9e37-237198779ba8","ios":"levelo://app?vid=8963f262-bdcb-43f5-9e37-237198779ba8"},"vehicle_type_id":"4","last_reported":1731524821,"current_range_meters":36800,"station_id":"","pricing_plan_id":"cebpf4jnsgd1na2vs0mg"},{"bike_id":"9e206ec4-3bc2-4292-bb12-90ccf987d885","system_id":"levelo_inurba_marseille","lat":43.337444,"lon":5.374475,"is_reserved":false,"is_disabled":false,"rental_uris":{"android":"levelo://app?vid=9e206ec4-3bc2-4292-bb12-90ccf987d885","ios":"levelo://app?vid=9e206ec4-3bc2-4292-bb12-90ccf987d885"},"vehicle_type_id":"4","last_reported":1731524821,"current_range_meters":36400,"station_id":"","pricing_plan_id":"cebpf4jnsgd1na2vs0mg"},{"bike_id":"398b47b3-a042-4cec-b1dd-254773a78263","system_id":"levelo_inurba_marseille","lat":43.27405,"lon":5.38955,"is_reserved":false,"is_disabled":false,"rental_uris":{"android":"levelo://app?vid=398b47b3-a042-4cec-b1dd-254773a78263","ios":"levelo://app?vid=398b47b3-a042-4cec-b1dd-254773a78263"},"vehicle_type_id":"4","last_reported":1731524821,"current_range_meters":8400,"station_id":"","pricing_plan_id":"cebpf4jnsgd1na2vs0mg"},{"bike_id":"4b8685f3-e049-4c9f-ba58-881b86d5d145","system_id":"levelo_inurba_marseille","lat":43.30091,"lon":5.39087,"is_reserved":false,"is_disabled":false,"rental_uris":{"android":"levelo://app?vid=4b8685f3-e049-4c9f-ba58-881b86d5d145","ios":"levelo://app?vid=4b8685f3-e049-4c9f-ba58-881b86d5d145"},"vehicle_type_id":"4","last_reported":1731524821,"current_range_meters":9600,"station_id":"ce4bh192rcd13ifvqdb0","pricing_plan_id":"cebpf4jnsgd1na2vs0mg"},{"bike_id":"44d4aeee-f0c2-4734-b402-fb62f0186632","system_id":"levelo_inurba_marseille","lat":43.24383,"lon":5.37062,"is_reserved":false,"is_disabled":false,"rental_uris":{"android":"levelo://app?vid=44d4aeee-f0c2-4734-b402-fb62f0186632","ios":"levelo://app?vid=44d4aeee-f0c2-4734-b402-fb62f0186632"},"vehicle_type_id":"4","last_reported":1731524821,"current_range_meters":32000,"station_id":"ce4bhhh2rcd13ifvqfk0","pricing_plan_id":"cebpf4jnsgd1na2vs0mg"},{"bike_id":"92e3ad17-17c9-4714-a148-ef9436ad6113","system_id":"levelo_inurba_marseille","lat":43.22933,"lon":5.35383,"is_reserved":false,"is_disabled":false,"rental_uris":{"android":"levelo://app?vid=92e3ad17-17c9-4714-a148-ef9436ad6113","ios":"levelo://app?vid=92e3ad17-17c9-4714-a148-ef9436ad6113"},"vehicle_type_id":"4","last_reported":1731524821,"current_range_meters":38800,"station_id":"cpo3532slgdg3j2ikp40","pricing_plan_id":"cebpf4jnsgd1na2vs0mg"},{"bike_id":"6d3b6101-e514-4fa7-8db1-6dc1e101fc47","system_id":"levelo_inurba_marseille","lat":43.29226,"lon":5.39342,"is_reserved":false,"is_disabled":false,"rental_uris":{"android":"levelo://app?vid=6d3b6101-e514-4fa7-8db1-6dc1e101fc47","ios":"levelo://app?vid=6d3b6101-e514-4fa7-8db1-6dc1e101fc47"},"vehicle_type_id":"4","last_reported":1731524821,"current_range_meters":38800,"station_id":"","pricing_plan_id":"cebpf4jnsgd1na2vs0mg"},{"bike_id":"37cd69ea-28ea-4899-b781-9d6267d6bc5c","system_id":"levelo_inurba_marseille","lat":43.29027,"lon":5.38627,"is_reserved":false,"is_disabled":false,"rental_uris":{"android":"levelo://app?vid=37cd69ea-28ea-4899-b781-9d6267d6bc5c","ios":"levelo://app?vid=37cd69ea-28ea-4899-b781-9d6267d6bc5c"},"vehicle_type_id":"4","last_reported":1731524821,"current_range_meters":36000,"station_id":"ce4bh4p2rcd13ifvqe0g","pricing_plan_id":"cebpf4jnsgd1na2vs0mg"},{"bike_id":"beb7b9bd-a544-4d0c-b0ee-a6204f3f5108","system_id":"levelo_inurba_marseille","lat":43.291962,"lon":5.385193,"is_reserved":false,"is_disabled":false,"rental_uris":{"android":"levelo://app?vid=beb7b9bd-a544-4d0c-b0ee-a6204f3f5108","ios":"levelo://app?vid=beb7b9bd-a544-4d0c-b0ee-a6204f3f5108"},"vehicle_type_id":"4","last_reported":1731524821,"current_range_meters":27600,"station_id":"","pricing_plan_id":"cebpf4jnsgd1na2vs0mg"},{"bike_id":"82f309e6-c4ae-421f-89cb-1d64a8e0ef10","system_id":"levelo_inurba_marseille","lat":43.337444,"lon":5.374475,"is_reserved":false,"is_disabled":false,"rental_uris":{"android":"levelo://app?vid=82f309e6-c4ae-421f-89cb-1d64a8e0ef10","ios":"levelo://app?vid=82f309e6-c4ae-421f-89cb-1d64a8e0ef10"},"vehicle_type_id":"4","last_reported":1731524821,"current_range_meters":36000,"station_id":"","pricing_plan_id":"cebpf4jnsgd1na2vs0mg"},{"bike_id":"5419d154-3ce9-4c40-9294-d16b9d2b3431","system_id":"levelo_inurba_marseille","lat":43.337444,"lon":5.374475,"is_reserved":false,"is_disabled":false,"rental_uris":{"android":"levelo://app?vid=5419d154-3ce9-4c40-9294-d16b9d2b3431","ios":"levelo://app?vid=5419d154-3ce9-4c40-9294-d16b9d2b3431"},"vehicle_type_id":"4","last_reported":1731524821,"current_range_meters":36000,"station_id":"","pricing_plan_id":"cebpf4jnsgd1na2vs0mg"},{"bike_id":"266baf9e-fa45-4996-b0b9-2ca13fb82592","system_id":"levelo_inurba_marseille","lat":43.31686,"lon":5.37782,"is_reserved":false,"is_disabled":false,"rental_uris":{"android":"levelo://app?vid=266baf9e-fa45-4996-b0b9-2ca13fb82592","ios":"levelo://app?vid=266baf9e-fa45-4996-b0b9-2ca13fb82592"},"vehicle_type_id":"4","last_reported":1731524821,"current_range_meters":34800,"station_id":"ce4bgth2rcd13ifvqch0","pricing_plan_id":"cebpf4jnsgd1na2vs0mg"},{"bike_id":"6e4ab7d2-c1df-4ea4-bb4b-2f5c43ed5717","system_id":"levelo_inurba_marseille","lat":43.33768,"lon":5.37439,"is_reserved":false,"is_disabled":false,"rental_uris":{"android":"levelo://app?vid=6e4ab7d2-c1df-4ea4-bb4b-2f5c43ed5717","ios":"levelo://app?vid=6e4ab7d2-c1df-4ea4-bb4b-2f5c43ed5717"},"vehicle_type_id":"4","last_reported":1731524821,"current_range_meters":36000,"station_id":"","pricing_plan_id":"cebpf4jnsgd1na2vs0mg"},{"bike_id":"a79ed787-3d59-4ae7-9e7f-1b69bd70d999","system_id":"levelo_inurba_marseille","lat":43.30131,"lon":5.38768,"is_reserved":false,"is_disabled":false,"rental_uris":{"android":"levelo://app?vid=a79ed787-3d59-4ae7-9e7f-1b69bd70d999","ios":"levelo://app?vid=a79ed787-3d59-4ae7-9e7f-1b69bd70d999"},"vehicle_type_id":"4","last_reported":1731524821,"current_range_meters":18000,"station_id":"ce4bghh2rcd13ifvqb60","pricing_plan_id":"cebpf4jnsgd1na2vs0mg"},{"bike_id":"459dc872-316e-4c78-9bdd-ade3ce7a9d65","system_id":"levelo_inurba_marseille","lat":43.29196,"lon":5.39326,"is_reserved":false,"is_disabled":false,"rental_uris":{"android":"levelo://app?vid=459dc872-316e-4c78-9bdd-ade3ce7a9d65","ios":"levelo://app?vid=459dc872-316e-4c78-9bdd-ade3ce7a9d65"},"vehicle_type_id":"4","last_reported":1731524821,"current_range_meters":10800,"station_id":"ce4bh192rcd13ifvqdd0","pricing_plan_id":"cebpf4jnsgd1na2vs0mg"},{"bike_id":"70d6a254-fbb9-4a9d-815a-0abc01a04667","system_id":"levelo_inurba_marseille","lat":43.29847,"lon":5.3629,"is_reserved":false,"is_disabled":false,"rental_uris":{"android":"levelo://app?vid=70d6a254-fbb9-4a9d-815a-0abc01a04667","ios":"levelo://app?vid=70d6a254-fbb9-4a9d-815a-0abc01a04667"},"vehicle_type_id":"4","last_reported":1731524821,"current_range_meters":12000,"station_id":"ce4bgpp2rcd13ifvqc3g","pricing_plan_id":"cebpf4jnsgd1na2vs0mg"},{"bike_id":"e82dc08f-a2f3-4216-b4b3-503b822b867f","system_id":"levelo_inurba_marseille","lat":43.31173,"lon":5.38711,"is_reserved":false,"is_disabled":false,"rental_uris":{"android":"levelo://app?vid=e82dc08f-a2f3-4216-b4b3-503b822b867f","ios":"levelo://app?vid=e82dc08f-a2f3-4216-b4b3-503b822b867f"},"vehicle_type_id":"4","last_reported":1731524821,"current_range_meters":9200,"station_id":"ce4bgv12rcd13ifvqcp0","pricing_plan_id":"cebpf4jnsgd1na2vs0mg"},{"bike_id":"9722550f-1a69-4d6e-8160-2610e45f09a4","system_id":"levelo_inurba_marseille","lat":43.2805,"lon":5.36955,"is_reserved":false,"is_disabled":false,"rental_uris":{"android":"levelo://app?vid=9722550f-1a69-4d6e-8160-2610e45f09a4","ios":"levelo://app?vid=9722550f-1a69-4d6e-8160-2610e45f09a4"},"vehicle_type_id":"4","last_reported":1731524821,"current_range_meters":36000,"station_id":"ce4bha12rcd13ifvqef0","pricing_plan_id":"cebpf4jnsgd1na2vs0mg"},{"bike_id":"42744b5d-4b77-4c92-808c-ebf462138a5f","system_id":"levelo_inurba_marseille","lat":43.31558,"lon":5.38624,"is_reserved":false,"is_disabled":false,"rental_uris":{"android":"levelo://app?vid=42744b5d-4b77-4c92-808c-ebf462138a5f","ios":"levelo://app?vid=42744b5d-4b77-4c92-808c-ebf462138a5f"},"vehicle_type_id":"4","last_reported":1731524821,"current_range_meters":27200,"station_id":"","pricing_plan_id":"cebpf4jnsgd1na2vs0mg"},{"bike_id":"c9d041c0-acec-4cf4-bba2-e01a92441368","system_id":"levelo_inurba_marseille","lat":43.337444,"lon":5.374475,"is_reserved":false,"is_disabled":false,"rental_uris":{"android":"levelo://app?vid=c9d041c0-acec-4cf4-bba2-e01a92441368","ios":"levelo://app?vid=c9d041c0-acec-4cf4-bba2-e01a92441368"},"vehicle_type_id":"4","last_reported":1731524821,"current_range_meters":34800,"station_id":"","pricing_plan_id":"cebpf4jnsgd1na2vs0mg"},{"bike_id":"5a600399-cbab-43fc-9acb-5cd7182a2aeb","system_id":"levelo_inurba_marseille","lat":43.33021,"lon":5.39046,"is_reserved":false,"is_disabled":false,"rental_uris":{"android":"levelo://app?vid=5a600399-cbab-43fc-9acb-5cd7182a2aeb","ios":"levelo://app?vid=5a600399-cbab-43fc-9acb-5cd7182a2aeb"},"vehicle_type_id":"4","last_reported":1731524821,"current_range_meters":28800,"station_id":"ce4bhr92rcd13ifvqhrg","pricing_plan_id":"cebpf4jnsgd1na2vs0mg"},{"bike_id":"4363e6cb-d770-467d-ae39-1964eafceadd","system_id":"levelo_inurba_marseille","lat":43.28706,"lon":5.37912,"is_reserved":false,"is_disabled":false,"rental_uris":{"android":"levelo://app?vid=4363e6cb-d770-467d-ae39-1964eafceadd","ios":"levelo://app?vid=4363e6cb-d770-467d-ae39-1964eafceadd"},"vehicle_type_id":"4","last_reported":1731524821,"current_range_meters":38800,"station_id":"ce4bh9p2rcd13ifvqec0","pricing_plan_id":"cebpf4jnsgd1na2vs0mg"},{"bike_id":"7da6dc45-4eda-41ec-aa6b-414ef02d12a7","system_id":"levelo_inurba_marseille","lat":43.29526,"lon":5.39397,"is_reserved":false,"is_disabled":false,"rental_uris":{"android":"levelo://app?vid=7da6dc45-4eda-41ec-aa6b-414ef02d12a7","ios":"levelo://app?vid=7da6dc45-4eda-41ec-aa6b-414ef02d12a7"},"vehicle_type_id":"4","last_reported":1731524821,"current_range_meters":11600,"station_id":"ce4bh292rcd13ifvqdf0","pricing_plan_id":"cebpf4jnsgd1na2vs0mg"},{"bike_id":"7ead3ba7-a1d9-4aa1-9f9f-872dd013ec15","system_id":"levelo_inurba_marseille","lat":43.24077,"lon":5.37756,"is_reserved":false,"is_disabled":false,"rental_uris":{"android":"levelo://app?vid=7ead3ba7-a1d9-4aa1-9f9f-872dd013ec15","ios":"levelo://app?vid=7ead3ba7-a1d9-4aa1-9f9f-872dd013ec15"},"vehicle_type_id":"4","last_reported":1731524821,"current_range_meters":13600,"station_id":"ce4bhnp2rcd13ifvqgvg","pricing_plan_id":"cebpf4jnsgd1na2vs0mg"},{"bike_id":"fe293eb0-a863-4b4c-bab4-a73f225d68b9","system_id":"levelo_inurba_marseille","lat":43.29169,"lon":5.37157,"is_reserved":false,"is_disabled":false,"rental_uris":{"android":"levelo://app?vid=fe293eb0-a863-4b4c-bab4-a73f225d68b9","ios":"levelo://app?vid=fe293eb0-a863-4b4c-bab4-a73f225d68b9"},"vehicle_type_id":"4","last_reported":1731524821,"current_range_meters":38000,"station_id":"ce4bha92rcd13ifvqeh0","pricing_plan_id":"cebpf4jnsgd1na2vs0mg"},{"bike_id":"5f1b89ae-1266-4792-91ad-55b706dc1643","system_id":"levelo_inurba_marseille","lat":43.23964,"lon":5.36634,"is_reserved":false,"is_disabled":false,"rental_uris":{"android":"levelo://app?vid=5f1b89ae-1266-4792-91ad-55b706dc1643","ios":"levelo://app?vid=5f1b89ae-1266-4792-91ad-55b706dc1643"},"vehicle_type_id":"4","last_reported":1731524821,"current_range_meters":18000,"station_id":"ce4bhi12rcd13ifvqfp0","pricing_plan_id":"cebpf4jnsgd1na2vs0mg"},{"bike_id":"e1e2f19e-2467-469c-b4b1-a6bbac16505a","system_id":"levelo_inurba_marseille","lat":43.29788,"lon":5.40404,"is_reserved":false,"is_disabled":false,"rental_uris":{"android":"levelo://app?vid=e1e2f19e-2467-469c-b4b1-a6bbac16505a","ios":"levelo://app?vid=e1e2f19e-2467-469c-b4b1-a6bbac16505a"},"vehicle_type_id":"4","last_reported":1731524821,"current_range_meters":27200,"station_id":"ce4bh112rcd13ifvqd90","pricing_plan_id":"cebpf4jnsgd1na2vs0mg"},{"bike_id":"87b50270-2ae2-4df3-90c9-e24a767c9fc3","system_id":"levelo_inurba_marseille","lat":43.29084,"lon":5.37171,"is_reserved":false,"is_disabled":false,"rental_uris":{"android":"levelo://app?vid=87b50270-2ae2-4df3-90c9-e24a767c9fc3","ios":"levelo://app?vid=87b50270-2ae2-4df3-90c9-e24a767c9fc3"},"vehicle_type_id":"4","last_reported":1731524821,"current_range_meters":34000,"station_id":"ce4bh5p2rcd13ifvqe4g","pricing_plan_id":"cebpf4jnsgd1na2vs0mg"},{"bike_id":"eabfeac2-5915-4cbb-bc5f-5decab191295","system_id":"levelo_inurba_marseille","lat":43.26058,"lon":5.39392,"is_reserved":false,"is_disabled":false,"rental_uris":{"android":"levelo://app?vid=eabfeac2-5915-4cbb-bc5f-5decab191295","ios":"levelo://app?vid=eabfeac2-5915-4cbb-bc5f-5decab191295"},"vehicle_type_id":"4","last_reported":1731524821,"current_range_meters":38400,"station_id":"ce4bhh92rcd13ifvqfj0","pricing_plan_id":"cebpf4jnsgd1na2vs0mg"},{"bike_id":"91641e8a-a624-4c60-8313-473e18d4ef21","system_id":"levelo_inurba_marseille","lat":43.29517,"lon":5.39406,"is_reserved":false,"is_disabled":false,"rental_uris":{"android":"levelo://app?vid=91641e8a-a624-4c60-8313-473e18d4ef21","ios":"levelo://app?vid=91641e8a-a624-4c60-8313-473e18d4ef21"},"vehicle_type_id":"4","last_reported":1731524821,"current_range_meters":38800,"station_id":"ce4bh292rcd13ifvqdf0","pricing_plan_id":"cebpf4jnsgd1na2vs0mg"},{"bike_id":"929996c8-eb75-49bc-a4c9-6cfd09c05ed2","system_id":"levelo_inurba_marseille","lat":43.323608,"lon":5.38891,"is_reserved":false,"is_disabled":false,"rental_uris":{"android":"levelo://app?vid=929996c8-eb75-49bc-a4c9-6cfd09c05ed2","ios":"levelo://app?vid=929996c8-eb75-49bc-a4c9-6cfd09c05ed2"},"vehicle_type_id":"4","last_reported":1731524821,"current_range_meters":34000,"station_id":"ce4bhqp2rcd13ifvqhog","pricing_plan_id":"cebpf4jnsgd1na2vs0mg"},{"bike_id":"c814c331-6011-4f68-92fe-c085d7ad080a","system_id":"levelo_inurba_marseille","lat":43.29576,"lon":5.39392,"is_reserved":false,"is_disabled":false,"rental_uris":{"android":"levelo://app?vid=c814c331-6011-4f68-92fe-c085d7ad080a","ios":"levelo://app?vid=c814c331-6011-4f68-92fe-c085d7ad080a"},"vehicle_type_id":"4","last_reported":1731524821,"current_range_meters":10800,"station_id":"","pricing_plan_id":"cebpf4jnsgd1na2vs0mg"},{"bike_id":"d5b934b0-5790-4faf-b078-fee5577c258b","system_id":"levelo_inurba_marseille","lat":43.27941,"lon":5.4105,"is_reserved":false,"is_disabled":false,"rental_uris":{"android":"levelo://app?vid=d5b934b0-5790-4faf-b078-fee5577c258b","ios":"levelo://app?vid=d5b934b0-5790-4faf-b078-fee5577c258b"},"vehicle_type_id":"4","last_reported":1731524821,"current_range_meters":38800,"station_id":"ce4bhnp2rcd13ifvqh0g","pricing_plan_id":"cebpf4jnsgd1na2vs0mg"},{"bike_id":"e67661cd-f010-4c3d-9a3a-6d0b9f5d9b54","system_id":"levelo_inurba_marseille","lat":43.28404,"lon":5.37511,"is_reserved":false,"is_disabled":false,"rental_uris":{"android":"levelo://app?vid=e67661cd-f010-4c3d-9a3a-6d0b9f5d9b54","ios":"levelo://app?vid=e67661cd-f010-4c3d-9a3a-6d0b9f5d9b54"},"vehicle_type_id":"4","last_reported":1731524821,"current_range_meters":8000,"station_id":"ce4bh412rcd13ifvqds0","pricing_plan_id":"cebpf4jnsgd1na2vs0mg"},{"bike_id":"033c5c19-203a-4d11-a7e6-91e96fa07efd","system_id":"levelo_inurba_marseille","lat":43.31331,"lon":5.39694,"is_reserved":false,"is_disabled":false,"rental_uris":{"android":"levelo://app?vid=033c5c19-203a-4d11-a7e6-91e96fa07efd","ios":"levelo://app?vid=033c5c19-203a-4d11-a7e6-91e96fa07efd"},"vehicle_type_id":"4","last_reported":1731524821,"current_range_meters":8400,"station_id":"ce4bgvp2rcd13ifvqcu0","pricing_plan_id":"cebpf4jnsgd1na2vs0mg"},{"bike_id":"9693957e-56d9-4422-9276-daf67c68daac","system_id":"levelo_inurba_marseille","lat":43.24074,"lon":5.37757,"is_reserved":false,"is_disabled":false,"rental_uris":{"android":"levelo://app?vid=9693957e-56d9-4422-9276-daf67c68daac","ios":"levelo://app?vid=9693957e-56d9-4422-9276-daf67c68daac"},"vehicle_type_id":"4","last_reported":1731524821,"current_range_meters":18000,"station_id":"ce4bhnp2rcd13ifvqgvg","pricing_plan_id":"cebpf4jnsgd1na2vs0mg"},{"bike_id":"bebff17e-956e-4d2e-8ca9-b18fb55c411b","system_id":"levelo_inurba_marseille","lat":43.31072,"lon":5.38354,"is_reserved":false,"is_disabled":false,"rental_uris":{"android":"levelo://app?vid=bebff17e-956e-4d2e-8ca9-b18fb55c411b","ios":"levelo://app?vid=bebff17e-956e-4d2e-8ca9-b18fb55c411b"},"vehicle_type_id":"4","last_reported":1731524821,"current_range_meters":29600,"station_id":"ce4bgv92rcd13ifvqcr0","pricing_plan_id":"cebpf4jnsgd1na2vs0mg"},{"bike_id":"cf3359b3-5d82-4cc3-a668-cb5579c081c4","system_id":"levelo_inurba_marseille","lat":43.29197,"lon":5.39319,"is_reserved":false,"is_disabled":false,"rental_uris":{"android":"levelo://app?vid=cf3359b3-5d82-4cc3-a668-cb5579c081c4","ios":"levelo://app?vid=cf3359b3-5d82-4cc3-a668-cb5579c081c4"},"vehicle_type_id":"4","last_reported":1731524821,"current_range_meters":28800,"station_id":"ce4bh192rcd13ifvqdd0","pricing_plan_id":"cebpf4jnsgd1na2vs0mg"},{"bike_id":"82358f2e-21cf-4005-a438-5877c5a8a3ad","system_id":"levelo_inurba_marseille","lat":43.29533,"lon":5.38545,"is_reserved":false,"is_disabled":false,"rental_uris":{"android":"levelo://app?vid=82358f2e-21cf-4005-a438-5877c5a8a3ad","ios":"levelo://app?vid=82358f2e-21cf-4005-a438-5877c5a8a3ad"},"vehicle_type_id":"4","last_reported":1731524821,"current_range_meters":23200,"station_id":"ce4bgih2rcd13ifvqba0","pricing_plan_id":"cebpf4jnsgd1na2vs0mg"},{"bike_id":"da766249-f677-42d5-83ed-6dace9fb04fe","system_id":"levelo_inurba_marseille","lat":43.2481,"lon":5.37456,"is_reserved":false,"is_disabled":false,"rental_uris":{"android":"levelo://app?vid=da766249-f677-42d5-83ed-6dace9fb04fe","ios":"levelo://app?vid=da766249-f677-42d5-83ed-6dace9fb04fe"},"vehicle_type_id":"4","last_reported":1731524821,"current_range_meters":6800,"station_id":"ce4bhgh2rcd13ifvqfb0","pricing_plan_id":"cebpf4jnsgd1na2vs0mg"},{"bike_id":"1f4c41e7-2734-423e-b6df-4608756c8d07","system_id":"levelo_inurba_marseille","lat":43.29248,"lon":5.3844,"is_reserved":false,"is_disabled":false,"rental_uris":{"android":"levelo://app?vid=1f4c41e7-2734-423e-b6df-4608756c8d07","ios":"levelo://app?vid=1f4c41e7-2734-423e-b6df-4608756c8d07"},"vehicle_type_id":"4","last_reported":1731524821,"current_range_meters":8800,"station_id":"ce4bh692rcd13ifvqea0","pricing_plan_id":"cebpf4jnsgd1na2vs0mg"},{"bike_id":"32bf46e1-0e1d-43db-ac59-baa38baefaf1","system_id":"levelo_inurba_marseille","lat":43.2836,"lon":5.38615,"is_reserved":false,"is_disabled":false,"rental_uris":{"android":"levelo://app?vid=32bf46e1-0e1d-43db-ac59-baa38baefaf1","ios":"levelo://app?vid=32bf46e1-0e1d-43db-ac59-baa38baefaf1"},"vehicle_type_id":"4","last_reported":1731524821,"current_range_meters":2800,"station_id":"ce4bh492rcd13ifvqdvg","pricing_plan_id":"cebpf4jnsgd1na2vs0mg"},{"bike_id":"ebc366ec-72c1-4c34-9fcb-4d5fbb424d2c","system_id":"levelo_inurba_marseille","lat":43.29814,"lon":5.385203,"is_reserved":false,"is_disabled":false,"rental_uris":{"android":"levelo://app?vid=ebc366ec-72c1-4c34-9fcb-4d5fbb424d2c","ios":"levelo://app?vid=ebc366ec-72c1-4c34-9fcb-4d5fbb424d2c"},"vehicle_type_id":"4","last_reported":1731524821,"current_range_meters":2000,"station_id":"","pricing_plan_id":"cebpf4jnsgd1na2vs0mg"},{"bike_id":"5b41e762-1614-46f6-92e6-bba5e7d3cb79","system_id":"levelo_inurba_marseille","lat":43.28456,"lon":5.35889,"is_reserved":false,"is_disabled":false,"rental_uris":{"android":"levelo://app?vid=5b41e762-1614-46f6-92e6-bba5e7d3cb79","ios":"levelo://app?vid=5b41e762-1614-46f6-92e6-bba5e7d3cb79"},"vehicle_type_id":"4","last_reported":1731524821,"current_range_meters":12800,"station_id":"ce4bhah2rcd13ifvqei0","pricing_plan_id":"cebpf4jnsgd1na2vs0mg"},{"bike_id":"012927f2-0ce0-4abc-933c-6366952c031d","system_id":"levelo_inurba_marseille","lat":43.24182,"lon":5.39735,"is_reserved":false,"is_disabled":false,"rental_uris":{"android":"levelo://app?vid=012927f2-0ce0-4abc-933c-6366952c031d","ios":"levelo://app?vid=012927f2-0ce0-4abc-933c-6366952c031d"},"vehicle_type_id":"4","last_reported":1731524821,"current_range_meters":29600,"station_id":"ce4bhn12rcd13ifvqgpg","pricing_plan_id":"cebpf4jnsgd1na2vs0mg"},{"bike_id":"0a0f301d-9c96-4376-9656-97bb9c518103","system_id":"levelo_inurba_marseille","lat":43.29201,"lon":5.39321,"is_reserved":false,"is_disabled":false,"rental_uris":{"android":"levelo://app?vid=0a0f301d-9c96-4376-9656-97bb9c518103","ios":"levelo://app?vid=0a0f301d-9c96-4376-9656-97bb9c518103"},"vehicle_type_id":"4","last_reported":1731524821,"current_range_meters":30400,"station_id":"ce4bh192rcd13ifvqdd0","pricing_plan_id":"cebpf4jnsgd1na2vs0mg"},{"bike_id":"80bf8b1d-b0ca-4cc0-9758-8d850798c904","system_id":"levelo_inurba_marseille","lat":43.290321,"lon":5.3865,"is_reserved":false,"is_disabled":false,"rental_uris":{"android":"levelo://app?vid=80bf8b1d-b0ca-4cc0-9758-8d850798c904","ios":"levelo://app?vid=80bf8b1d-b0ca-4cc0-9758-8d850798c904"},"vehicle_type_id":"4","last_reported":1731524821,"current_range_meters":24400,"station_id":"ce4bh4p2rcd13ifvqe0g","pricing_plan_id":"cebpf4jnsgd1na2vs0mg"},{"bike_id":"fd1e7b30-f859-4736-a101-5352f5409432","system_id":"levelo_inurba_marseille","lat":43.28038,"lon":5.36946,"is_reserved":false,"is_disabled":false,"rental_uris":{"android":"levelo://app?vid=fd1e7b30-f859-4736-a101-5352f5409432","ios":"levelo://app?vid=fd1e7b30-f859-4736-a101-5352f5409432"},"vehicle_type_id":"4","last_reported":1731524821,"current_range_meters":22800,"station_id":"ce4bha12rcd13ifvqef0","pricing_plan_id":"cebpf4jnsgd1na2vs0mg"},{"bike_id":"06d6415c-41c4-4983-ab15-15f5bd9e4cc4","system_id":"levelo_inurba_marseille","lat":43.297965,"lon":5.37107,"is_reserved":false,"is_disabled":false,"rental_uris":{"android":"levelo://app?vid=06d6415c-41c4-4983-ab15-15f5bd9e4cc4","ios":"levelo://app?vid=06d6415c-41c4-4983-ab15-15f5bd9e4cc4"},"vehicle_type_id":"4","last_reported":1731524821,"current_range_meters":38000,"station_id":"ce4bgop2rcd13ifvqc1g","pricing_plan_id":"cebpf4jnsgd1na2vs0mg"},{"bike_id":"7c9b8995-ac96-4708-b4eb-b4b17631b9d8","system_id":"levelo_inurba_marseille","lat":43.337444,"lon":5.374475,"is_reserved":false,"is_disabled":false,"rental_uris":{"android":"levelo://app?vid=7c9b8995-ac96-4708-b4eb-b4b17631b9d8","ios":"levelo://app?vid=7c9b8995-ac96-4708-b4eb-b4b17631b9d8"},"vehicle_type_id":"4","last_reported":1731524821,"current_range_meters":36400,"station_id":"","pricing_plan_id":"cebpf4jnsgd1na2vs0mg"},{"bike_id":"8ab17290-17a8-48a2-8dba-505756bb84a7","system_id":"levelo_inurba_marseille","lat":43.29362,"lon":5.38213,"is_reserved":false,"is_disabled":false,"rental_uris":{"android":"levelo://app?vid=8ab17290-17a8-48a2-8dba-505756bb84a7","ios":"levelo://app?vid=8ab17290-17a8-48a2-8dba-505756bb84a7"},"vehicle_type_id":"4","last_reported":1731524821,"current_range_meters":14800,"station_id":"ce4bhoh2rcd13ifvqh5g","pricing_plan_id":"cebpf4jnsgd1na2vs0mg"},{"bike_id":"e0a533c8-ae29-4e17-a66f-3a9d956fdee0","system_id":"levelo_inurba_marseille","lat":43.242816,"lon":5.396749,"is_reserved":false,"is_disabled":false,"rental_uris":{"android":"levelo://app?vid=e0a533c8-ae29-4e17-a66f-3a9d956fdee0","ios":"levelo://app?vid=e0a533c8-ae29-4e17-a66f-3a9d956fdee0"},"vehicle_type_id":"4","last_reported":1731524821,"current_range_meters":12800,"station_id":"ce4bhn12rcd13ifvqgqg","pricing_plan_id":"cebpf4jnsgd1na2vs0mg"},{"bike_id":"bfa998e5-f39d-4565-8083-ac8883bcdd82","system_id":"levelo_inurba_marseille","lat":43.24069,"lon":5.37764,"is_reserved":false,"is_disabled":false,"rental_uris":{"android":"levelo://app?vid=bfa998e5-f39d-4565-8083-ac8883bcdd82","ios":"levelo://app?vid=bfa998e5-f39d-4565-8083-ac8883bcdd82"},"vehicle_type_id":"4","last_reported":1731524821,"current_range_meters":11600,"station_id":"ce4bhnp2rcd13ifvqgvg","pricing_plan_id":"cebpf4jnsgd1na2vs0mg"},{"bike_id":"88628b42-407d-4095-a51c-4f8a45bb3272","system_id":"levelo_inurba_marseille","lat":43.24179,"lon":5.39729,"is_reserved":false,"is_disabled":false,"rental_uris":{"android":"levelo://app?vid=88628b42-407d-4095-a51c-4f8a45bb3272","ios":"levelo://app?vid=88628b42-407d-4095-a51c-4f8a45bb3272"},"vehicle_type_id":"4","last_reported":1731524821,"current_range_meters":38800,"station_id":"ce4bhn12rcd13ifvqgpg","pricing_plan_id":"cebpf4jnsgd1na2vs0mg"},{"bike_id":"abb9fcd2-b058-46d1-ad10-560967f9dad2","system_id":"levelo_inurba_marseille","lat":43.28705,"lon":5.39982,"is_reserved":false,"is_disabled":false,"rental_uris":{"android":"levelo://app?vid=abb9fcd2-b058-46d1-ad10-560967f9dad2","ios":"levelo://app?vid=abb9fcd2-b058-46d1-ad10-560967f9dad2"},"vehicle_type_id":"4","last_reported":1731524821,"current_range_meters":22000,"station_id":"ce4bho92rcd13ifvqh3g","pricing_plan_id":"cebpf4jnsgd1na2vs0mg"},{"bike_id":"f30e883f-7e6a-4351-b0ca-cface9c809ae","system_id":"levelo_inurba_marseille","lat":43.28454,"lon":5.39198,"is_reserved":false,"is_disabled":false,"rental_uris":{"android":"levelo://app?vid=f30e883f-7e6a-4351-b0ca-cface9c809ae","ios":"levelo://app?vid=f30e883f-7e6a-4351-b0ca-cface9c809ae"},"vehicle_type_id":"4","last_reported":1731524821,"current_range_meters":38000,"station_id":"ce4bhoh2rcd13ifvqh5g","pricing_plan_id":"cebpf4jnsgd1na2vs0mg"},{"bike_id":"3ec09cfd-3d89-4794-b2d2-9eb4150b7fa4","system_id":"levelo_inurba_marseille","lat":43.31496,"lon":5.37301,"is_reserved":false,"is_disabled":false,"rental_uris":{"android":"levelo://app?vid=3ec09cfd-3d89-4794-b2d2-9eb4150b7fa4","ios":"levelo://app?vid=3ec09cfd-3d89-4794-b2d2-9eb4150b7fa4"},"vehicle_type_id":"4","last_reported":1731524821,"current_range_meters":38800,"station_id":"ce4bgt12rcd13ifvqcd0","pricing_plan_id":"cebpf4jnsgd1na2vs0mg"},{"bike_id":"d7b2cef5-3e31-413c-96c0-85980b7f8aed","system_id":"levelo_inurba_marseille","lat":43.28487,"lon":5.38543,"is_reserved":false,"is_disabled":false,"rental_uris":{"android":"levelo://app?vid=d7b2cef5-3e31-413c-96c0-85980b7f8aed","ios":"levelo://app?vid=d7b2cef5-3e31-413c-96c0-85980b7f8aed"},"vehicle_type_id":"4","last_reported":1731524821,"current_range_meters":2800,"station_id":"ce4bh8p2rcd13ifvqeb0","pricing_plan_id":"cebpf4jnsgd1na2vs0mg"},{"bike_id":"7986818c-28b5-46d7-b7d7-a91a6d1aa0d2","system_id":"levelo_inurba_marseille","lat":43.33021,"lon":5.39041,"is_reserved":false,"is_disabled":false,"rental_uris":{"android":"levelo://app?vid=7986818c-28b5-46d7-b7d7-a91a6d1aa0d2","ios":"levelo://app?vid=7986818c-28b5-46d7-b7d7-a91a6d1aa0d2"},"vehicle_type_id":"4","last_reported":1731524821,"current_range_meters":18800,"station_id":"ce4bhr92rcd13ifvqhrg","pricing_plan_id":"cebpf4jnsgd1na2vs0mg"},{"bike_id":"36d094b0-e04d-47a6-a7b6-331edee81ed7","system_id":"levelo_inurba_marseille","lat":43.276731,"lon":5.38865,"is_reserved":false,"is_disabled":false,"rental_uris":{"android":"levelo://app?vid=36d094b0-e04d-47a6-a7b6-331edee81ed7","ios":"levelo://app?vid=36d094b0-e04d-47a6-a7b6-331edee81ed7"},"vehicle_type_id":"4","last_reported":1731524821,"current_range_meters":38400,"station_id":"ce4bhi12rcd13ifvqfo0","pricing_plan_id":"cebpf4jnsgd1na2vs0mg"},{"bike_id":"8bbfd38a-fcb1-41ed-8440-f1ffdea2f4f5","system_id":"levelo_inurba_marseille","lat":43.28938,"lon":5.39619,"is_reserved":false,"is_disabled":false,"rental_uris":{"android":"levelo://app?vid=8bbfd38a-fcb1-41ed-8440-f1ffdea2f4f5","ios":"levelo://app?vid=8bbfd38a-fcb1-41ed-8440-f1ffdea2f4f5"},"vehicle_type_id":"4","last_reported":1731524821,"current_range_meters":24800,"station_id":"ce4bh3h2rcd13ifvqdn0","pricing_plan_id":"cebpf4jnsgd1na2vs0mg"},{"bike_id":"eeab2fa8-d524-44d9-afd0-7a304aca9eff","system_id":"levelo_inurba_marseille","lat":43.32035,"lon":5.41547,"is_reserved":false,"is_disabled":false,"rental_uris":{"android":"levelo://app?vid=eeab2fa8-d524-44d9-afd0-7a304aca9eff","ios":"levelo://app?vid=eeab2fa8-d524-44d9-afd0-7a304aca9eff"},"vehicle_type_id":"4","last_reported":1731524821,"current_range_meters":26000,"station_id":"ce4bhq92rcd13ifvqhkg","pricing_plan_id":"cebpf4jnsgd1na2vs0mg"},{"bike_id":"f00d6768-b6d6-484c-b44f-1cc6d8e6d1bc","system_id":"levelo_inurba_marseille","lat":43.31357,"lon":5.38498,"is_reserved":false,"is_disabled":false,"rental_uris":{"android":"levelo://app?vid=f00d6768-b6d6-484c-b44f-1cc6d8e6d1bc","ios":"levelo://app?vid=f00d6768-b6d6-484c-b44f-1cc6d8e6d1bc"},"vehicle_type_id":"4","last_reported":1731524821,"current_range_meters":20800,"station_id":"ce4bgt92rcd13ifvqcf0","pricing_plan_id":"cebpf4jnsgd1na2vs0mg"},{"bike_id":"a4ec425c-e618-4c93-8518-14aaf2cc1493","system_id":"levelo_inurba_marseille","lat":43.31755,"lon":5.39025,"is_reserved":false,"is_disabled":false,"rental_uris":{"android":"levelo://app?vid=a4ec425c-e618-4c93-8518-14aaf2cc1493","ios":"levelo://app?vid=a4ec425c-e618-4c93-8518-14aaf2cc1493"},"vehicle_type_id":"4","last_reported":1731524821,"current_range_meters":38800,"station_id":"ce4bhqp2rcd13ifvqhng","pricing_plan_id":"cebpf4jnsgd1na2vs0mg"},{"bike_id":"87673fe6-2510-4075-82f5-5bfacea63ef5","system_id":"levelo_inurba_marseille","lat":43.28155,"lon":5.42645,"is_reserved":false,"is_disabled":false,"rental_uris":{"android":"levelo://app?vid=87673fe6-2510-4075-82f5-5bfacea63ef5","ios":"levelo://app?vid=87673fe6-2510-4075-82f5-5bfacea63ef5"},"vehicle_type_id":"4","last_reported":1731524821,"current_range_meters":6800,"station_id":"ce4bhnh2rcd13ifvqgug","pricing_plan_id":"cebpf4jnsgd1na2vs0mg"},{"bike_id":"c12646d0-e58d-4524-aa0d-ff3ca15cdb73","system_id":"levelo_inurba_marseille","lat":43.24652,"lon":5.38893,"is_reserved":false,"is_disabled":false,"rental_uris":{"android":"levelo://app?vid=c12646d0-e58d-4524-aa0d-ff3ca15cdb73","ios":"levelo://app?vid=c12646d0-e58d-4524-aa0d-ff3ca15cdb73"},"vehicle_type_id":"4","last_reported":1731524821,"current_range_meters":24000,"station_id":"ce4bhg12rcd13ifvqf60","pricing_plan_id":"cebpf4jnsgd1na2vs0mg"},{"bike_id":"0cf154f2-0d4f-4529-b865-320e22262d57","system_id":"levelo_inurba_marseille","lat":43.2816,"lon":5.42651,"is_reserved":false,"is_disabled":false,"rental_uris":{"android":"levelo://app?vid=0cf154f2-0d4f-4529-b865-320e22262d57","ios":"levelo://app?vid=0cf154f2-0d4f-4529-b865-320e22262d57"},"vehicle_type_id":"4","last_reported":1731524821,"current_range_meters":22400,"station_id":"ce4bhnh2rcd13ifvqgug","pricing_plan_id":"cebpf4jnsgd1na2vs0mg"},{"bike_id":"9e4868d1-d7bd-46d5-a321-e3594e2b8567","system_id":"levelo_inurba_marseille","lat":43.28697,"lon":5.37385,"is_reserved":false,"is_disabled":false,"rental_uris":{"android":"levelo://app?vid=9e4868d1-d7bd-46d5-a321-e3594e2b8567","ios":"levelo://app?vid=9e4868d1-d7bd-46d5-a321-e3594e2b8567"},"vehicle_type_id":"4","last_reported":1731524821,"current_range_meters":33200,"station_id":"ce4bh3p2rcd13ifvqdq0","pricing_plan_id":"cebpf4jnsgd1na2vs0mg"},{"bike_id":"f0b3041f-dad8-475e-92a3-34accc93f8d8","system_id":"levelo_inurba_marseille","lat":43.28705,"lon":5.37939,"is_reserved":false,"is_disabled":false,"rental_uris":{"android":"levelo://app?vid=f0b3041f-dad8-475e-92a3-34accc93f8d8","ios":"levelo://app?vid=f0b3041f-dad8-475e-92a3-34accc93f8d8"},"vehicle_type_id":"4","last_reported":1731524821,"current_range_meters":24800,"station_id":"ce4bh9p2rcd13ifvqec0","pricing_plan_id":"cebpf4jnsgd1na2vs0mg"},{"bike_id":"118de573-b99a-4124-9c5d-e52856589887","system_id":"levelo_inurba_marseille","lat":43.29704,"lon":5.36608,"is_reserved":false,"is_disabled":false,"rental_uris":{"android":"levelo://app?vid=118de573-b99a-4124-9c5d-e52856589887","ios":"levelo://app?vid=118de573-b99a-4124-9c5d-e52856589887"},"vehicle_type_id":"4","last_reported":1731524821,"current_range_meters":36000,"station_id":"ce4bgn12rcd13ifvqbt0","pricing_plan_id":"cebpf4jnsgd1na2vs0mg"},{"bike_id":"7891995d-7c39-4fa5-ab0a-02ee601a522d","system_id":"levelo_inurba_marseille","lat":43.31902,"lon":5.38308,"is_reserved":false,"is_disabled":false,"rental_uris":{"android":"levelo://app?vid=7891995d-7c39-4fa5-ab0a-02ee601a522d","ios":"levelo://app?vid=7891995d-7c39-4fa5-ab0a-02ee601a522d"},"vehicle_type_id":"4","last_reported":1731524821,"current_range_meters":38400,"station_id":"ce4bhr12rcd13ifvqhpg","pricing_plan_id":"cebpf4jnsgd1na2vs0mg"},{"bike_id":"e4935905-67da-4e99-bbf5-f13614b8f314","system_id":"levelo_inurba_marseille","lat":43.23962,"lon":5.36633,"is_reserved":false,"is_disabled":false,"rental_uris":{"android":"levelo://app?vid=e4935905-67da-4e99-bbf5-f13614b8f314","ios":"levelo://app?vid=e4935905-67da-4e99-bbf5-f13614b8f314"},"vehicle_type_id":"4","last_reported":1731524821,"current_range_meters":14400,"station_id":"ce4bhi12rcd13ifvqfp0","pricing_plan_id":"cebpf4jnsgd1na2vs0mg"},{"bike_id":"17cd5a26-6641-49ad-bcbf-e457a3526500","system_id":"levelo_inurba_marseille","lat":43.27945,"lon":5.41028,"is_reserved":false,"is_disabled":false,"rental_uris":{"android":"levelo://app?vid=17cd5a26-6641-49ad-bcbf-e457a3526500","ios":"levelo://app?vid=17cd5a26-6641-49ad-bcbf-e457a3526500"},"vehicle_type_id":"4","last_reported":1731524821,"current_range_meters":38800,"station_id":"ce4bhnp2rcd13ifvqh0g","pricing_plan_id":"cebpf4jnsgd1na2vs0mg"},{"bike_id":"c34380f6-c608-486e-8f63-92b31b3869d0","system_id":"levelo_inurba_marseille","lat":43.28158,"lon":5.42641,"is_reserved":false,"is_disabled":false,"rental_uris":{"android":"levelo://app?vid=c34380f6-c608-486e-8f63-92b31b3869d0","ios":"levelo://app?vid=c34380f6-c608-486e-8f63-92b31b3869d0"},"vehicle_type_id":"4","last_reported":1731524821,"current_range_meters":20000,"station_id":"ce4bhnh2rcd13ifvqgug","pricing_plan_id":"cebpf4jnsgd1na2vs0mg"},{"bike_id":"f2c0c674-a5e7-4997-8a27-413af9bcc481","system_id":"levelo_inurba_marseille","lat":43.28617,"lon":5.35108,"is_reserved":false,"is_disabled":false,"rental_uris":{"android":"levelo://app?vid=f2c0c674-a5e7-4997-8a27-413af9bcc481","ios":"levelo://app?vid=f2c0c674-a5e7-4997-8a27-413af9bcc481"},"vehicle_type_id":"4","last_reported":1731524821,"current_range_meters":16400,"station_id":"ce4bhch2rcd13ifvqeug","pricing_plan_id":"cebpf4jnsgd1na2vs0mg"},{"bike_id":"b37b4551-2752-4e3c-b6f8-3232dc90d308","system_id":"levelo_inurba_marseille","lat":43.29312,"lon":5.37449,"is_reserved":false,"is_disabled":false,"rental_uris":{"android":"levelo://app?vid=b37b4551-2752-4e3c-b6f8-3232dc90d308","ios":"levelo://app?vid=b37b4551-2752-4e3c-b6f8-3232dc90d308"},"vehicle_type_id":"4","last_reported":1731524821,"current_range_meters":6400,"station_id":"ce4bgi12rcd13ifvqb70","pricing_plan_id":"cebpf4jnsgd1na2vs0mg"},{"bike_id":"828cbcfe-6c6b-4507-8ddf-f4d69c2d8108","system_id":"levelo_inurba_marseille","lat":43.24078,"lon":5.37747,"is_reserved":false,"is_disabled":false,"rental_uris":{"android":"levelo://app?vid=828cbcfe-6c6b-4507-8ddf-f4d69c2d8108","ios":"levelo://app?vid=828cbcfe-6c6b-4507-8ddf-f4d69c2d8108"},"vehicle_type_id":"4","last_reported":1731524821,"current_range_meters":22400,"station_id":"ce4bhnp2rcd13ifvqgvg","pricing_plan_id":"cebpf4jnsgd1na2vs0mg"},{"bike_id":"b677942e-cef3-42b1-af2b-54218e8a63b5","system_id":"levelo_inurba_marseille","lat":43.27614,"lon":5.36119,"is_reserved":false,"is_disabled":false,"rental_uris":{"android":"levelo://app?vid=b677942e-cef3-42b1-af2b-54218e8a63b5","ios":"levelo://app?vid=b677942e-cef3-42b1-af2b-54218e8a63b5"},"vehicle_type_id":"4","last_reported":1731524821,"current_range_meters":11200,"station_id":"ce4bgj92rcd13ifvqbe0","pricing_plan_id":"cebpf4jnsgd1na2vs0mg"},{"bike_id":"1311c692-6e9d-4afb-b7b0-20686564fe7a","system_id":"levelo_inurba_marseille","lat":43.337444,"lon":5.374475,"is_reserved":false,"is_disabled":false,"rental_uris":{"android":"levelo://app?vid=1311c692-6e9d-4afb-b7b0-20686564fe7a","ios":"levelo://app?vid=1311c692-6e9d-4afb-b7b0-20686564fe7a"},"vehicle_type_id":"4","last_reported":1731524821,"current_range_meters":36000,"station_id":"","pricing_plan_id":"cebpf4jnsgd1na2vs0mg"},{"bike_id":"84f24dd4-ecd4-45c8-a56e-093089472d36","system_id":"levelo_inurba_marseille","lat":43.27941,"lon":5.41047,"is_reserved":false,"is_disabled":false,"rental_uris":{"android":"levelo://app?vid=84f24dd4-ecd4-45c8-a56e-093089472d36","ios":"levelo://app?vid=84f24dd4-ecd4-45c8-a56e-093089472d36"},"vehicle_type_id":"4","last_reported":1731524821,"current_range_meters":20800,"station_id":"ce4bhnp2rcd13ifvqh0g","pricing_plan_id":"cebpf4jnsgd1na2vs0mg"},{"bike_id":"07a4be1c-5cf0-4f3e-8c27-4c3e24078daa","system_id":"levelo_inurba_marseille","lat":43.2481,"lon":5.37464,"is_reserved":false,"is_disabled":false,"rental_uris":{"android":"levelo://app?vid=07a4be1c-5cf0-4f3e-8c27-4c3e24078daa","ios":"levelo://app?vid=07a4be1c-5cf0-4f3e-8c27-4c3e24078daa"},"vehicle_type_id":"4","last_reported":1731524821,"current_range_meters":19200,"station_id":"ce4bhgh2rcd13ifvqfb0","pricing_plan_id":"cebpf4jnsgd1na2vs0mg"},{"bike_id":"ecb3cc37-9673-4250-b386-228d12a366ea","system_id":"levelo_inurba_marseille","lat":43.27814,"lon":5.4071,"is_reserved":false,"is_disabled":false,"rental_uris":{"android":"levelo://app?vid=ecb3cc37-9673-4250-b386-228d12a366ea","ios":"levelo://app?vid=ecb3cc37-9673-4250-b386-228d12a366ea"},"vehicle_type_id":"4","last_reported":1731524821,"current_range_meters":38800,"station_id":"ce4bhnh2rcd13ifvqgtg","pricing_plan_id":"cebpf4jnsgd1na2vs0mg"},{"bike_id":"c0655d7f-e148-43e8-8f55-401e5edb5bfe","system_id":"levelo_inurba_marseille","lat":43.29264,"lon":5.38447,"is_reserved":false,"is_disabled":false,"rental_uris":{"android":"levelo://app?vid=c0655d7f-e148-43e8-8f55-401e5edb5bfe","ios":"levelo://app?vid=c0655d7f-e148-43e8-8f55-401e5edb5bfe"},"vehicle_type_id":"4","last_reported":1731524821,"current_range_meters":32400,"station_id":"ce4bh692rcd13ifvqea0","pricing_plan_id":"cebpf4jnsgd1na2vs0mg"},{"bike_id":"d7595a11-9b28-4bec-b99f-e0f1cad51f41","system_id":"levelo_inurba_marseille","lat":43.29795,"lon":5.40405,"is_reserved":false,"is_disabled":false,"rental_uris":{"android":"levelo://app?vid=d7595a11-9b28-4bec-b99f-e0f1cad51f41","ios":"levelo://app?vid=d7595a11-9b28-4bec-b99f-e0f1cad51f41"},"vehicle_type_id":"4","last_reported":1731524821,"current_range_meters":6800,"station_id":"ce4bh112rcd13ifvqd90","pricing_plan_id":"cebpf4jnsgd1na2vs0mg"},{"bike_id":"75f71ef1-6e08-415a-bb8b-dfb0f44294ba","system_id":"levelo_inurba_marseille","lat":43.27998,"lon":5.41659,"is_reserved":false,"is_disabled":false,"rental_uris":{"android":"levelo://app?vid=75f71ef1-6e08-415a-bb8b-dfb0f44294ba","ios":"levelo://app?vid=75f71ef1-6e08-415a-bb8b-dfb0f44294ba"},"vehicle_type_id":"4","last_reported":1731524821,"current_range_meters":8800,"station_id":"ce4bho12rcd13ifvqh1g","pricing_plan_id":"cebpf4jnsgd1na2vs0mg"},{"bike_id":"a365b508-1ef5-4939-b750-e9d43b113938","system_id":"levelo_inurba_marseille","lat":43.31754,"lon":5.39019,"is_reserved":false,"is_disabled":false,"rental_uris":{"android":"levelo://app?vid=a365b508-1ef5-4939-b750-e9d43b113938","ios":"levelo://app?vid=a365b508-1ef5-4939-b750-e9d43b113938"},"vehicle_type_id":"4","last_reported":1731524821,"current_range_meters":37600,"station_id":"ce4bhqp2rcd13ifvqhng","pricing_plan_id":"cebpf4jnsgd1na2vs0mg"},{"bike_id":"f7ceb281-48d1-4e62-a865-a81ff03cd0ef","system_id":"levelo_inurba_marseille","lat":43.2418,"lon":5.39717,"is_reserved":false,"is_disabled":false,"rental_uris":{"android":"levelo://app?vid=f7ceb281-48d1-4e62-a865-a81ff03cd0ef","ios":"levelo://app?vid=f7ceb281-48d1-4e62-a865-a81ff03cd0ef"},"vehicle_type_id":"4","last_reported":1731524821,"current_range_meters":33600,"station_id":"ce4bhn12rcd13ifvqgpg","pricing_plan_id":"cebpf4jnsgd1na2vs0mg"},{"bike_id":"e81f9375-30dd-46c8-93eb-dcd914be4de0","system_id":"levelo_inurba_marseille","lat":43.29566,"lon":5.37489,"is_reserved":false,"is_disabled":false,"rental_uris":{"android":"levelo://app?vid=e81f9375-30dd-46c8-93eb-dcd914be4de0","ios":"levelo://app?vid=e81f9375-30dd-46c8-93eb-dcd914be4de0"},"vehicle_type_id":"4","last_reported":1731524821,"current_range_meters":6400,"station_id":"ce4bgrp2rcd13ifvqc9g","pricing_plan_id":"cebpf4jnsgd1na2vs0mg"},{"bike_id":"95bc9f7b-4f1a-48b9-b2a8-f27a45c15369","system_id":"levelo_inurba_marseille","lat":43.30583,"lon":5.39356,"is_reserved":false,"is_disabled":false,"rental_uris":{"android":"levelo://app?vid=95bc9f7b-4f1a-48b9-b2a8-f27a45c15369","ios":"levelo://app?vid=95bc9f7b-4f1a-48b9-b2a8-f27a45c15369"},"vehicle_type_id":"4","last_reported":1731524821,"current_range_meters":26000,"station_id":"ce4bh0p2rcd13ifvqd80","pricing_plan_id":"cebpf4jnsgd1na2vs0mg"},{"bike_id":"37f1d3a5-bb07-49c7-be92-5419d87518f1","system_id":"levelo_inurba_marseille","lat":43.29276,"lon":5.40113,"is_reserved":false,"is_disabled":false,"rental_uris":{"android":"levelo://app?vid=37f1d3a5-bb07-49c7-be92-5419d87518f1","ios":"levelo://app?vid=37f1d3a5-bb07-49c7-be92-5419d87518f1"},"vehicle_type_id":"4","last_reported":1731524821,"current_range_meters":2800,"station_id":"ce4bh312rcd13ifvqdk0","pricing_plan_id":"cebpf4jnsgd1na2vs0mg"},{"bike_id":"47574ef1-009e-4627-ad8d-a54a43d647e0","system_id":"levelo_inurba_marseille","lat":43.3013,"lon":5.38783,"is_reserved":false,"is_disabled":false,"rental_uris":{"android":"levelo://app?vid=47574ef1-009e-4627-ad8d-a54a43d647e0","ios":"levelo://app?vid=47574ef1-009e-4627-ad8d-a54a43d647e0"},"vehicle_type_id":"4","last_reported":1731524821,"current_range_meters":38800,"station_id":"ce4bghh2rcd13ifvqb60","pricing_plan_id":"cebpf4jnsgd1na2vs0mg"},{"bike_id":"0e45af37-ecba-4dde-840d-d5d5263c0f7e","system_id":"levelo_inurba_marseille","lat":43.28941,"lon":5.39633,"is_reserved":false,"is_disabled":false,"rental_uris":{"android":"levelo://app?vid=0e45af37-ecba-4dde-840d-d5d5263c0f7e","ios":"levelo://app?vid=0e45af37-ecba-4dde-840d-d5d5263c0f7e"},"vehicle_type_id":"4","last_reported":1731524821,"current_range_meters":6000,"station_id":"ce4bh3h2rcd13ifvqdn0","pricing_plan_id":"cebpf4jnsgd1na2vs0mg"},{"bike_id":"f5df91d9-4a7c-43df-9009-00af233090e5","system_id":"levelo_inurba_marseille","lat":43.336122,"lon":5.410286,"is_reserved":false,"is_disabled":false,"rental_uris":{"android":"levelo://app?vid=f5df91d9-4a7c-43df-9009-00af233090e5","ios":"levelo://app?vid=f5df91d9-4a7c-43df-9009-00af233090e5"},"vehicle_type_id":"4","last_reported":1731524821,"current_range_meters":17600,"station_id":"ce4bhqh2rcd13ifvqhmg","pricing_plan_id":"cebpf4jnsgd1na2vs0mg"},{"bike_id":"3da22c96-18a6-4d3a-a579-0c04984c3537","system_id":"levelo_inurba_marseille","lat":43.26215,"lon":5.37445,"is_reserved":false,"is_disabled":false,"rental_uris":{"android":"levelo://app?vid=3da22c96-18a6-4d3a-a579-0c04984c3537","ios":"levelo://app?vid=3da22c96-18a6-4d3a-a579-0c04984c3537"},"vehicle_type_id":"4","last_reported":1731524821,"current_range_meters":20400,"station_id":"ce4bhgp2rcd13ifvqfc0","pricing_plan_id":"cebpf4jnsgd1na2vs0mg"},{"bike_id":"b3ea8930-b854-4b60-965d-72726bf02580","system_id":"levelo_inurba_marseille","lat":43.27934,"lon":5.41049,"is_reserved":false,"is_disabled":false,"rental_uris":{"android":"levelo://app?vid=b3ea8930-b854-4b60-965d-72726bf02580","ios":"levelo://app?vid=b3ea8930-b854-4b60-965d-72726bf02580"},"vehicle_type_id":"4","last_reported":1731524821,"current_range_meters":14800,"station_id":"ce4bhnp2rcd13ifvqh0g","pricing_plan_id":"cebpf4jnsgd1na2vs0mg"},{"bike_id":"4b3a27b6-ca03-46ab-9ab4-14e14fb5cb36","system_id":"levelo_inurba_marseille","lat":43.28437,"lon":5.39189,"is_reserved":false,"is_disabled":false,"rental_uris":{"android":"levelo://app?vid=4b3a27b6-ca03-46ab-9ab4-14e14fb5cb36","ios":"levelo://app?vid=4b3a27b6-ca03-46ab-9ab4-14e14fb5cb36"},"vehicle_type_id":"4","last_reported":1731524821,"current_range_meters":16000,"station_id":"ce4bhoh2rcd13ifvqh5g","pricing_plan_id":"cebpf4jnsgd1na2vs0mg"},{"bike_id":"c53e172a-4e9e-4856-bf1f-ab0bf6f4b2d5","system_id":"levelo_inurba_marseille","lat":43.30436,"lon":5.38901,"is_reserved":false,"is_disabled":false,"rental_uris":{"android":"levelo://app?vid=c53e172a-4e9e-4856-bf1f-ab0bf6f4b2d5","ios":"levelo://app?vid=c53e172a-4e9e-4856-bf1f-ab0bf6f4b2d5"},"vehicle_type_id":"4","last_reported":1731524821,"current_range_meters":17600,"station_id":"ce4bgk12rcd13ifvqbi0","pricing_plan_id":"cebpf4jnsgd1na2vs0mg"},{"bike_id":"e8e36157-c8a6-42f5-961f-57370a4fe092","system_id":"levelo_inurba_marseille","lat":43.278973,"lon":5.382486,"is_reserved":false,"is_disabled":false,"rental_uris":{"android":"levelo://app?vid=e8e36157-c8a6-42f5-961f-57370a4fe092","ios":"levelo://app?vid=e8e36157-c8a6-42f5-961f-57370a4fe092"},"vehicle_type_id":"4","last_reported":1731524821,"current_range_meters":36000,"station_id":"","pricing_plan_id":"cebpf4jnsgd1na2vs0mg"},{"bike_id":"bff54997-1790-4727-a556-bbaeb5e5c93c","system_id":"levelo_inurba_marseille","lat":43.27905,"lon":5.39582,"is_reserved":false,"is_disabled":false,"rental_uris":{"android":"levelo://app?vid=bff54997-1790-4727-a556-bbaeb5e5c93c","ios":"levelo://app?vid=bff54997-1790-4727-a556-bbaeb5e5c93c"},"vehicle_type_id":"4","last_reported":1731524821,"current_range_meters":8800,"station_id":"ce4bhf92rcd13ifvqf40","pricing_plan_id":"cebpf4jnsgd1na2vs0mg"},{"bike_id":"0d6a2083-76c6-44ab-a9e0-af20e2e57bc0","system_id":"levelo_inurba_marseille","lat":43.29973,"lon":5.38495,"is_reserved":false,"is_disabled":false,"rental_uris":{"android":"levelo://app?vid=0d6a2083-76c6-44ab-a9e0-af20e2e57bc0","ios":"levelo://app?vid=0d6a2083-76c6-44ab-a9e0-af20e2e57bc0"},"vehicle_type_id":"4","last_reported":1731524821,"current_range_meters":38000,"station_id":"ce4bgj92rcd13ifvqbd0","pricing_plan_id":"cebpf4jnsgd1na2vs0mg"},{"bike_id":"76110796-169f-49ba-b1d1-fbedc3d7287f","system_id":"levelo_inurba_marseille","lat":43.29961,"lon":5.41319,"is_reserved":false,"is_disabled":false,"rental_uris":{"android":"levelo://app?vid=76110796-169f-49ba-b1d1-fbedc3d7287f","ios":"levelo://app?vid=76110796-169f-49ba-b1d1-fbedc3d7287f"},"vehicle_type_id":"4","last_reported":1731524821,"current_range_meters":37600,"station_id":"ce4bhp12rcd13ifvqh9g","pricing_plan_id":"cebpf4jnsgd1na2vs0mg"},{"bike_id":"043cc5cd-c396-4b05-acc2-17ca28fab22d","system_id":"levelo_inurba_marseille","lat":43.28038,"lon":5.36942,"is_reserved":false,"is_disabled":false,"rental_uris":{"android":"levelo://app?vid=043cc5cd-c396-4b05-acc2-17ca28fab22d","ios":"levelo://app?vid=043cc5cd-c396-4b05-acc2-17ca28fab22d"},"vehicle_type_id":"4","last_reported":1731524821,"current_range_meters":26000,"station_id":"ce4bha12rcd13ifvqef0","pricing_plan_id":"cebpf4jnsgd1na2vs0mg"},{"bike_id":"77eeae7b-ed74-47f2-944f-eb4b80aa21b8","system_id":"levelo_inurba_marseille","lat":43.27372,"lon":5.36241,"is_reserved":false,"is_disabled":false,"rental_uris":{"android":"levelo://app?vid=77eeae7b-ed74-47f2-944f-eb4b80aa21b8","ios":"levelo://app?vid=77eeae7b-ed74-47f2-944f-eb4b80aa21b8"},"vehicle_type_id":"4","last_reported":1731524821,"current_range_meters":38800,"station_id":"ce4bhbh2rcd13ifvqeo0","pricing_plan_id":"cebpf4jnsgd1na2vs0mg"},{"bike_id":"b448c76e-6a85-4e4e-8af8-7d9249501502","system_id":"levelo_inurba_marseille","lat":43.337444,"lon":5.374475,"is_reserved":false,"is_disabled":false,"rental_uris":{"android":"levelo://app?vid=b448c76e-6a85-4e4e-8af8-7d9249501502","ios":"levelo://app?vid=b448c76e-6a85-4e4e-8af8-7d9249501502"},"vehicle_type_id":"4","last_reported":1731524821,"current_range_meters":36000,"station_id":"","pricing_plan_id":"cebpf4jnsgd1na2vs0mg"},{"bike_id":"3ca9959e-2711-49d9-a308-4a05f1910a37","system_id":"levelo_inurba_marseille","lat":43.30637,"lon":5.40069,"is_reserved":false,"is_disabled":false,"rental_uris":{"android":"levelo://app?vid=3ca9959e-2711-49d9-a308-4a05f1910a37","ios":"levelo://app?vid=3ca9959e-2711-49d9-a308-4a05f1910a37"},"vehicle_type_id":"4","last_reported":1731524821,"current_range_meters":4400,"station_id":"ce4bh112rcd13ifvqda0","pricing_plan_id":"cebpf4jnsgd1na2vs0mg"},{"bike_id":"e2fac76a-6818-4872-8a51-62b76cf6f02d","system_id":"levelo_inurba_marseille","lat":43.2582,"lon":5.39437,"is_reserved":false,"is_disabled":false,"rental_uris":{"android":"levelo://app?vid=e2fac76a-6818-4872-8a51-62b76cf6f02d","ios":"levelo://app?vid=e2fac76a-6818-4872-8a51-62b76cf6f02d"},"vehicle_type_id":"4","last_reported":1731524821,"current_range_meters":34800,"station_id":"ce4bhip2rcd13ifvqft0","pricing_plan_id":"cebpf4jnsgd1na2vs0mg"},{"bike_id":"644465f2-e441-4439-87d7-91398635e7f3","system_id":"levelo_inurba_marseille","lat":43.28706,"lon":5.37923,"is_reserved":false,"is_disabled":false,"rental_uris":{"android":"levelo://app?vid=644465f2-e441-4439-87d7-91398635e7f3","ios":"levelo://app?vid=644465f2-e441-4439-87d7-91398635e7f3"},"vehicle_type_id":"4","last_reported":1731524821,"current_range_meters":35600,"station_id":"ce4bh9p2rcd13ifvqec0","pricing_plan_id":"cebpf4jnsgd1na2vs0mg"},{"bike_id":"e2bfda87-cc45-4c4b-9f7e-c41385f85f84","system_id":"levelo_inurba_marseille","lat":43.268036,"lon":5.402748,"is_reserved":false,"is_disabled":false,"rental_uris":{"android":"levelo://app?vid=e2bfda87-cc45-4c4b-9f7e-c41385f85f84","ios":"levelo://app?vid=e2bfda87-cc45-4c4b-9f7e-c41385f85f84"},"vehicle_type_id":"4","last_reported":1731524821,"current_range_meters":25200,"station_id":"ce4bhkp2rcd13ifvqgd0","pricing_plan_id":"cebpf4jnsgd1na2vs0mg"},{"bike_id":"3837b05f-67c8-4d02-9aa9-54642194c0fb","system_id":"levelo_inurba_marseille","lat":43.28613,"lon":5.3511,"is_reserved":false,"is_disabled":false,"rental_uris":{"android":"levelo://app?vid=3837b05f-67c8-4d02-9aa9-54642194c0fb","ios":"levelo://app?vid=3837b05f-67c8-4d02-9aa9-54642194c0fb"},"vehicle_type_id":"4","last_reported":1731524821,"current_range_meters":22800,"station_id":"ce4bhch2rcd13ifvqeug","pricing_plan_id":"cebpf4jnsgd1na2vs0mg"},{"bike_id":"69779afd-2552-4b02-9cff-9f7fc1dc8ece","system_id":"levelo_inurba_marseille","lat":43.284,"lon":5.37518,"is_reserved":false,"is_disabled":false,"rental_uris":{"android":"levelo://app?vid=69779afd-2552-4b02-9cff-9f7fc1dc8ece","ios":"levelo://app?vid=69779afd-2552-4b02-9cff-9f7fc1dc8ece"},"vehicle_type_id":"4","last_reported":1731524821,"current_range_meters":12000,"station_id":"ce4bh412rcd13ifvqds0","pricing_plan_id":"cebpf4jnsgd1na2vs0mg"},{"bike_id":"dfb98b16-5ae7-4288-915d-0f9be63e59e8","system_id":"levelo_inurba_marseille","lat":43.24546,"lon":5.3952,"is_reserved":false,"is_disabled":false,"rental_uris":{"android":"levelo://app?vid=dfb98b16-5ae7-4288-915d-0f9be63e59e8","ios":"levelo://app?vid=dfb98b16-5ae7-4288-915d-0f9be63e59e8"},"vehicle_type_id":"4","last_reported":1731524821,"current_range_meters":14400,"station_id":"ce4bhlp2rcd13ifvqgjg","pricing_plan_id":"cebpf4jnsgd1na2vs0mg"},{"bike_id":"4c29becd-3005-4b80-80ae-adf2b791ed1e","system_id":"levelo_inurba_marseille","lat":43.31311,"lon":5.368588,"is_reserved":false,"is_disabled":false,"rental_uris":{"android":"levelo://app?vid=4c29becd-3005-4b80-80ae-adf2b791ed1e","ios":"levelo://app?vid=4c29becd-3005-4b80-80ae-adf2b791ed1e"},"vehicle_type_id":"4","last_reported":1731524821,"current_range_meters":10000,"station_id":"ce4bgl92rcd13ifvqbq0","pricing_plan_id":"cebpf4jnsgd1na2vs0mg"},{"bike_id":"9e44ff68-99b6-440c-b560-0b7f6717a54d","system_id":"levelo_inurba_marseille","lat":43.29254,"lon":5.38439,"is_reserved":false,"is_disabled":false,"rental_uris":{"android":"levelo://app?vid=9e44ff68-99b6-440c-b560-0b7f6717a54d","ios":"levelo://app?vid=9e44ff68-99b6-440c-b560-0b7f6717a54d"},"vehicle_type_id":"4","last_reported":1731524821,"current_range_meters":38800,"station_id":"ce4bh692rcd13ifvqea0","pricing_plan_id":"cebpf4jnsgd1na2vs0mg"},{"bike_id":"698942d8-80f4-4999-b271-c9cd1fa9661b","system_id":"levelo_inurba_marseille","lat":43.25862,"lon":5.39894,"is_reserved":false,"is_disabled":false,"rental_uris":{"android":"levelo://app?vid=698942d8-80f4-4999-b271-c9cd1fa9661b","ios":"levelo://app?vid=698942d8-80f4-4999-b271-c9cd1fa9661b"},"vehicle_type_id":"4","last_reported":1731524821,"current_range_meters":38000,"station_id":"ce4bhl92rcd13ifvqghg","pricing_plan_id":"cebpf4jnsgd1na2vs0mg"},{"bike_id":"375e44e0-6702-4f31-b0f6-c97f4e4fc864","system_id":"levelo_inurba_marseille","lat":43.28105,"lon":5.37856,"is_reserved":false,"is_disabled":false,"rental_uris":{"android":"levelo://app?vid=375e44e0-6702-4f31-b0f6-c97f4e4fc864","ios":"levelo://app?vid=375e44e0-6702-4f31-b0f6-c97f4e4fc864"},"vehicle_type_id":"4","last_reported":1731524821,"current_range_meters":2800,"station_id":"ce4bha12rcd13ifvqee0","pricing_plan_id":"cebpf4jnsgd1na2vs0mg"},{"bike_id":"bda144b2-b32a-467c-8e0b-ca8585f2148e","system_id":"levelo_inurba_marseille","lat":43.298841,"lon":5.388992,"is_reserved":false,"is_disabled":false,"rental_uris":{"android":"levelo://app?vid=bda144b2-b32a-467c-8e0b-ca8585f2148e","ios":"levelo://app?vid=bda144b2-b32a-467c-8e0b-ca8585f2148e"},"vehicle_type_id":"4","last_reported":1731524821,"current_range_meters":20400,"station_id":"ce4bh392rcd13ifvqdl0","pricing_plan_id":"cebpf4jnsgd1na2vs0mg"},{"bike_id":"4018447b-2886-4c23-942b-201819b3bc28","system_id":"levelo_inurba_marseille","lat":43.337444,"lon":5.374475,"is_reserved":false,"is_disabled":false,"rental_uris":{"android":"levelo://app?vid=4018447b-2886-4c23-942b-201819b3bc28","ios":"levelo://app?vid=4018447b-2886-4c23-942b-201819b3bc28"},"vehicle_type_id":"4","last_reported":1731524821,"current_range_meters":36400,"station_id":"","pricing_plan_id":"cebpf4jnsgd1na2vs0mg"},{"bike_id":"954f05b6-1937-4374-b854-29c5dd4433ca","system_id":"levelo_inurba_marseille","lat":43.30423,"lon":5.388827,"is_reserved":false,"is_disabled":false,"rental_uris":{"android":"levelo://app?vid=954f05b6-1937-4374-b854-29c5dd4433ca","ios":"levelo://app?vid=954f05b6-1937-4374-b854-29c5dd4433ca"},"vehicle_type_id":"4","last_reported":1731524821,"current_range_meters":7200,"station_id":"ce4bgk12rcd13ifvqbi0","pricing_plan_id":"cebpf4jnsgd1na2vs0mg"},{"bike_id":"8363accd-fb3e-4197-b76c-de8d47411466","system_id":"levelo_inurba_marseille","lat":43.28858,"lon":5.3586,"is_reserved":false,"is_disabled":false,"rental_uris":{"android":"levelo://app?vid=8363accd-fb3e-4197-b76c-de8d47411466","ios":"levelo://app?vid=8363accd-fb3e-4197-b76c-de8d47411466"},"vehicle_type_id":"4","last_reported":1731524821,"current_range_meters":8000,"station_id":"ce4bhb12rcd13ifvqem0","pricing_plan_id":"cebpf4jnsgd1na2vs0mg"},{"bike_id":"b52e72d5-51d2-442f-a7be-1746c7807b15","system_id":"levelo_inurba_marseille","lat":43.30876,"lon":5.39633,"is_reserved":false,"is_disabled":false,"rental_uris":{"android":"levelo://app?vid=b52e72d5-51d2-442f-a7be-1746c7807b15","ios":"levelo://app?vid=b52e72d5-51d2-442f-a7be-1746c7807b15"},"vehicle_type_id":"4","last_reported":1731524821,"current_range_meters":24000,"station_id":"ce4bh012rcd13ifvqcv0","pricing_plan_id":"cebpf4jnsgd1na2vs0mg"},{"bike_id":"e59b82bd-8856-4a0c-8c2b-7979fbdbe05d","system_id":"levelo_inurba_marseille","lat":43.30891,"lon":5.37192,"is_reserved":false,"is_disabled":false,"rental_uris":{"android":"levelo://app?vid=e59b82bd-8856-4a0c-8c2b-7979fbdbe05d","ios":"levelo://app?vid=e59b82bd-8856-4a0c-8c2b-7979fbdbe05d"},"vehicle_type_id":"4","last_reported":1731524821,"current_range_meters":20000,"station_id":"ce4bguh2rcd13ifvqckg","pricing_plan_id":"cebpf4jnsgd1na2vs0mg"},{"bike_id":"8ff3daf9-97e9-480f-95f9-4d1d61792a54","system_id":"levelo_inurba_marseille","lat":43.33758,"lon":5.37471,"is_reserved":false,"is_disabled":false,"rental_uris":{"android":"levelo://app?vid=8ff3daf9-97e9-480f-95f9-4d1d61792a54","ios":"levelo://app?vid=8ff3daf9-97e9-480f-95f9-4d1d61792a54"},"vehicle_type_id":"4","last_reported":1731524821,"current_range_meters":34000,"station_id":"","pricing_plan_id":"cebpf4jnsgd1na2vs0mg"},{"bike_id":"2d5dfb2a-158f-4946-9842-bcc4ebebe068","system_id":"levelo_inurba_marseille","lat":43.24548,"lon":5.39526,"is_reserved":false,"is_disabled":false,"rental_uris":{"android":"levelo://app?vid=2d5dfb2a-158f-4946-9842-bcc4ebebe068","ios":"levelo://app?vid=2d5dfb2a-158f-4946-9842-bcc4ebebe068"},"vehicle_type_id":"4","last_reported":1731524821,"current_range_meters":39200,"station_id":"ce4bhlp2rcd13ifvqgjg","pricing_plan_id":"cebpf4jnsgd1na2vs0mg"},{"bike_id":"dd7d9016-feda-4fb9-833e-5c856731139b","system_id":"levelo_inurba_marseille","lat":43.27996,"lon":5.41666,"is_reserved":false,"is_disabled":false,"rental_uris":{"android":"levelo://app?vid=dd7d9016-feda-4fb9-833e-5c856731139b","ios":"levelo://app?vid=dd7d9016-feda-4fb9-833e-5c856731139b"},"vehicle_type_id":"4","last_reported":1731524821,"current_range_meters":24000,"station_id":"ce4bho12rcd13ifvqh1g","pricing_plan_id":"cebpf4jnsgd1na2vs0mg"},{"bike_id":"8ff16e97-ab24-466c-9258-7b196851f388","system_id":"levelo_inurba_marseille","lat":43.29023,"lon":5.38133,"is_reserved":false,"is_disabled":false,"rental_uris":{"android":"levelo://app?vid=8ff16e97-ab24-466c-9258-7b196851f388","ios":"levelo://app?vid=8ff16e97-ab24-466c-9258-7b196851f388"},"vehicle_type_id":"4","last_reported":1731524821,"current_range_meters":28000,"station_id":"ce4bh4p2rcd13ifvqe1g","pricing_plan_id":"cebpf4jnsgd1na2vs0mg"},{"bike_id":"d2ee9c56-520b-4c97-a85b-7575c6d26bcd","system_id":"levelo_inurba_marseille","lat":43.306482,"lon":5.400805,"is_reserved":false,"is_disabled":false,"rental_uris":{"android":"levelo://app?vid=d2ee9c56-520b-4c97-a85b-7575c6d26bcd","ios":"levelo://app?vid=d2ee9c56-520b-4c97-a85b-7575c6d26bcd"},"vehicle_type_id":"4","last_reported":1731524821,"current_range_meters":7200,"station_id":"ce4bh112rcd13ifvqda0","pricing_plan_id":"cebpf4jnsgd1na2vs0mg"},{"bike_id":"d09a69b4-a6cd-4352-9b70-237c7ec2c287","system_id":"levelo_inurba_marseille","lat":43.29657,"lon":5.37686,"is_reserved":false,"is_disabled":false,"rental_uris":{"android":"levelo://app?vid=d09a69b4-a6cd-4352-9b70-237c7ec2c287","ios":"levelo://app?vid=d09a69b4-a6cd-4352-9b70-237c7ec2c287"},"vehicle_type_id":"4","last_reported":1731524821,"current_range_meters":24800,"station_id":"ce4bgi92rcd13ifvqb90","pricing_plan_id":"cebpf4jnsgd1na2vs0mg"},{"bike_id":"1de447fd-4999-4dc6-b422-0877accde611","system_id":"levelo_inurba_marseille","lat":43.30648,"lon":5.40099,"is_reserved":false,"is_disabled":false,"rental_uris":{"android":"levelo://app?vid=1de447fd-4999-4dc6-b422-0877accde611","ios":"levelo://app?vid=1de447fd-4999-4dc6-b422-0877accde611"},"vehicle_type_id":"4","last_reported":1731524821,"current_range_meters":14800,"station_id":"ce4bh112rcd13ifvqda0","pricing_plan_id":"cebpf4jnsgd1na2vs0mg"},{"bike_id":"ca502d75-f3ed-4841-9c03-2278864d924d","system_id":"levelo_inurba_marseille","lat":43.31757,"lon":5.39016,"is_reserved":false,"is_disabled":false,"rental_uris":{"android":"levelo://app?vid=ca502d75-f3ed-4841-9c03-2278864d924d","ios":"levelo://app?vid=ca502d75-f3ed-4841-9c03-2278864d924d"},"vehicle_type_id":"4","last_reported":1731524821,"current_range_meters":32400,"station_id":"ce4bhqp2rcd13ifvqhng","pricing_plan_id":"cebpf4jnsgd1na2vs0mg"},{"bike_id":"0d10c718-daf8-42a1-aeca-cdd70fcc284e","system_id":"levelo_inurba_marseille","lat":43.28979,"lon":5.37839,"is_reserved":false,"is_disabled":false,"rental_uris":{"android":"levelo://app?vid=0d10c718-daf8-42a1-aeca-cdd70fcc284e","ios":"levelo://app?vid=0d10c718-daf8-42a1-aeca-cdd70fcc284e"},"vehicle_type_id":"4","last_reported":1731524821,"current_range_meters":12000,"station_id":"ce4bh9p2rcd13ifvqed0","pricing_plan_id":"cebpf4jnsgd1na2vs0mg"},{"bike_id":"298f7b0e-f74b-470c-bc7f-e5659e780787","system_id":"levelo_inurba_marseille","lat":43.29204,"lon":5.39325,"is_reserved":false,"is_disabled":false,"rental_uris":{"android":"levelo://app?vid=298f7b0e-f74b-470c-bc7f-e5659e780787","ios":"levelo://app?vid=298f7b0e-f74b-470c-bc7f-e5659e780787"},"vehicle_type_id":"4","last_reported":1731524821,"current_range_meters":16800,"station_id":"ce4bh192rcd13ifvqdd0","pricing_plan_id":"cebpf4jnsgd1na2vs0mg"},{"bike_id":"58161828-0a98-4bcd-9c25-976dcec483e3","system_id":"levelo_inurba_marseille","lat":43.29002,"lon":5.35609,"is_reserved":false,"is_disabled":false,"rental_uris":{"android":"levelo://app?vid=58161828-0a98-4bcd-9c25-976dcec483e3","ios":"levelo://app?vid=58161828-0a98-4bcd-9c25-976dcec483e3"},"vehicle_type_id":"4","last_reported":1731524821,"current_range_meters":38400,"station_id":"ce4bhb92rcd13ifvqen0","pricing_plan_id":"cebpf4jnsgd1na2vs0mg"},{"bike_id":"6277ad66-fef2-4974-8d33-a9129f5c4127","system_id":"levelo_inurba_marseille","lat":43.33023,"lon":5.39046,"is_reserved":false,"is_disabled":false,"rental_uris":{"android":"levelo://app?vid=6277ad66-fef2-4974-8d33-a9129f5c4127","ios":"levelo://app?vid=6277ad66-fef2-4974-8d33-a9129f5c4127"},"vehicle_type_id":"4","last_reported":1731524821,"current_range_meters":36800,"station_id":"ce4bhr92rcd13ifvqhrg","pricing_plan_id":"cebpf4jnsgd1na2vs0mg"},{"bike_id":"adf61425-64f8-4d2e-9114-4e4c419b01c9","system_id":"levelo_inurba_marseille","lat":43.29234,"lon":5.3843,"is_reserved":false,"is_disabled":false,"rental_uris":{"android":"levelo://app?vid=adf61425-64f8-4d2e-9114-4e4c419b01c9","ios":"levelo://app?vid=adf61425-64f8-4d2e-9114-4e4c419b01c9"},"vehicle_type_id":"4","last_reported":1731524821,"current_range_meters":22400,"station_id":"ce4bh692rcd13ifvqea0","pricing_plan_id":"cebpf4jnsgd1na2vs0mg"},{"bike_id":"7106f3b7-f46c-43b5-830e-7b074872e252","system_id":"levelo_inurba_marseille","lat":43.27835,"lon":5.39215,"is_reserved":false,"is_disabled":false,"rental_uris":{"android":"levelo://app?vid=7106f3b7-f46c-43b5-830e-7b074872e252","ios":"levelo://app?vid=7106f3b7-f46c-43b5-830e-7b074872e252"},"vehicle_type_id":"4","last_reported":1731524821,"current_range_meters":38800,"station_id":"ce4bhjp2rcd13ifvqga0","pricing_plan_id":"cebpf4jnsgd1na2vs0mg"},{"bike_id":"e6878984-a1dd-4992-8913-0fc51d54781e","system_id":"levelo_inurba_marseille","lat":43.30547,"lon":5.37256,"is_reserved":false,"is_disabled":false,"rental_uris":{"android":"levelo://app?vid=e6878984-a1dd-4992-8913-0fc51d54781e","ios":"levelo://app?vid=e6878984-a1dd-4992-8913-0fc51d54781e"},"vehicle_type_id":"4","last_reported":1731524821,"current_range_meters":26000,"station_id":"","pricing_plan_id":"cebpf4jnsgd1na2vs0mg"},{"bike_id":"a7e9865b-c259-49f3-ad42-c770159f46ec","system_id":"levelo_inurba_marseille","lat":43.33785,"lon":5.37431,"is_reserved":false,"is_disabled":false,"rental_uris":{"android":"levelo://app?vid=a7e9865b-c259-49f3-ad42-c770159f46ec","ios":"levelo://app?vid=a7e9865b-c259-49f3-ad42-c770159f46ec"},"vehicle_type_id":"4","last_reported":1731524821,"current_range_meters":36400,"station_id":"","pricing_plan_id":"cebpf4jnsgd1na2vs0mg"},{"bike_id":"d7098fe7-f5b3-4015-afaf-edcb26d669dc","system_id":"levelo_inurba_marseille","lat":43.321085,"lon":5.36775,"is_reserved":false,"is_disabled":false,"rental_uris":{"android":"levelo://app?vid=d7098fe7-f5b3-4015-afaf-edcb26d669dc","ios":"levelo://app?vid=d7098fe7-f5b3-4015-afaf-edcb26d669dc"},"vehicle_type_id":"4","last_reported":1731524821,"current_range_meters":4400,"station_id":"ce4bhrh2rcd13ifvqhug","pricing_plan_id":"cebpf4jnsgd1na2vs0mg"},{"bike_id":"5d34e8b1-f32b-4323-ab9a-453d329c320d","system_id":"levelo_inurba_marseille","lat":43.25822,"lon":5.39436,"is_reserved":false,"is_disabled":false,"rental_uris":{"android":"levelo://app?vid=5d34e8b1-f32b-4323-ab9a-453d329c320d","ios":"levelo://app?vid=5d34e8b1-f32b-4323-ab9a-453d329c320d"},"vehicle_type_id":"4","last_reported":1731524821,"current_range_meters":23200,"station_id":"ce4bhip2rcd13ifvqft0","pricing_plan_id":"cebpf4jnsgd1na2vs0mg"},{"bike_id":"9e07f9af-e6eb-414b-9dc8-16d063e4cdaa","system_id":"levelo_inurba_marseille","lat":43.31331,"lon":5.39702,"is_reserved":false,"is_disabled":false,"rental_uris":{"android":"levelo://app?vid=9e07f9af-e6eb-414b-9dc8-16d063e4cdaa","ios":"levelo://app?vid=9e07f9af-e6eb-414b-9dc8-16d063e4cdaa"},"vehicle_type_id":"4","last_reported":1731524821,"current_range_meters":29600,"station_id":"ce4bgvp2rcd13ifvqcu0","pricing_plan_id":"cebpf4jnsgd1na2vs0mg"},{"bike_id":"98a7c18a-1bf6-44a1-b4c7-dc624f37171d","system_id":"levelo_inurba_marseille","lat":43.26204,"lon":5.37442,"is_reserved":false,"is_disabled":false,"rental_uris":{"android":"levelo://app?vid=98a7c18a-1bf6-44a1-b4c7-dc624f37171d","ios":"levelo://app?vid=98a7c18a-1bf6-44a1-b4c7-dc624f37171d"},"vehicle_type_id":"4","last_reported":1731524821,"current_range_meters":28000,"station_id":"ce4bhgp2rcd13ifvqfc0","pricing_plan_id":"cebpf4jnsgd1na2vs0mg"},{"bike_id":"731148fb-55c8-43bc-9c52-caae77a74710","system_id":"levelo_inurba_marseille","lat":43.26564,"lon":5.38996,"is_reserved":false,"is_disabled":false,"rental_uris":{"android":"levelo://app?vid=731148fb-55c8-43bc-9c52-caae77a74710","ios":"levelo://app?vid=731148fb-55c8-43bc-9c52-caae77a74710"},"vehicle_type_id":"4","last_reported":1731524821,"current_range_meters":26000,"station_id":"ce4bhe12rcd13ifvqf30","pricing_plan_id":"cebpf4jnsgd1na2vs0mg"},{"bike_id":"548fa440-4b00-42ef-9a86-240670ab1aa5","system_id":"levelo_inurba_marseille","lat":43.30095,"lon":5.40061,"is_reserved":false,"is_disabled":false,"rental_uris":{"android":"levelo://app?vid=548fa440-4b00-42ef-9a86-240670ab1aa5","ios":"levelo://app?vid=548fa440-4b00-42ef-9a86-240670ab1aa5"},"vehicle_type_id":"4","last_reported":1731524821,"current_range_meters":7200,"station_id":"ce4bgt12rcd13ifvqce0","pricing_plan_id":"cebpf4jnsgd1na2vs0mg"},{"bike_id":"0f2bb6a3-bcd1-404e-831f-70e4d9572899","system_id":"levelo_inurba_marseille","lat":43.284485,"lon":5.358873,"is_reserved":false,"is_disabled":false,"rental_uris":{"android":"levelo://app?vid=0f2bb6a3-bcd1-404e-831f-70e4d9572899","ios":"levelo://app?vid=0f2bb6a3-bcd1-404e-831f-70e4d9572899"},"vehicle_type_id":"4","last_reported":1731524821,"current_range_meters":6800,"station_id":"ce4bhah2rcd13ifvqei0","pricing_plan_id":"cebpf4jnsgd1na2vs0mg"},{"bike_id":"0ad2258b-a639-43f4-a13f-9b89f302c1bf","system_id":"levelo_inurba_marseille","lat":43.29008,"lon":5.35614,"is_reserved":false,"is_disabled":false,"rental_uris":{"android":"levelo://app?vid=0ad2258b-a639-43f4-a13f-9b89f302c1bf","ios":"levelo://app?vid=0ad2258b-a639-43f4-a13f-9b89f302c1bf"},"vehicle_type_id":"4","last_reported":1731524821,"current_range_meters":38800,"station_id":"ce4bhb92rcd13ifvqen0","pricing_plan_id":"cebpf4jnsgd1na2vs0mg"},{"bike_id":"116a97b8-49f0-44c6-b391-8e0fb523e62f","system_id":"levelo_inurba_marseille","lat":43.3046,"lon":5.40169,"is_reserved":false,"is_disabled":false,"rental_uris":{"android":"levelo://app?vid=116a97b8-49f0-44c6-b391-8e0fb523e62f","ios":"levelo://app?vid=116a97b8-49f0-44c6-b391-8e0fb523e62f"},"vehicle_type_id":"4","last_reported":1731524821,"current_range_meters":14000,"station_id":"","pricing_plan_id":"cebpf4jnsgd1na2vs0mg"},{"bike_id":"9dda9b0a-4c74-4ec9-840b-605d820c97f3","system_id":"levelo_inurba_marseille","lat":43.30531,"lon":5.38421,"is_reserved":false,"is_disabled":false,"rental_uris":{"android":"levelo://app?vid=9dda9b0a-4c74-4ec9-840b-605d820c97f3","ios":"levelo://app?vid=9dda9b0a-4c74-4ec9-840b-605d820c97f3"},