{"last_updated":1721664647,"ttl":30,"version":"2.2","data":{"bikes":[{"bike_id":"a2610bec-28cf-4e46-bfa7-b619ea248969","system_id":"levelo_inurba_marseille","lat":43.31257,"lon":5.36767,"is_reserved":false,"is_disabled":false,"rental_uris":{"android":"levelo://app?vid=a2610bec-28cf-4e46-bfa7-b619ea248969","ios":"levelo://app?vid=a2610bec-28cf-4e46-bfa7-b619ea248969"},"vehicle_type_id":"4","last_reported":1721664647,"current_range_meters":12000,"station_id":"","pricing_plan_id":"cebpf4jnsgd1na2vs0mg"},{"bike_id":"f493e33d-50e2-493f-b178-0d4e793cb497","system_id":"levelo_inurba_marseille","lat":43.314811,"lon":5.373104,"is_reserved":false,"is_disabled":false,"rental_uris":{"android":"levelo://app?vid=f493e33d-50e2-493f-b178-0d4e793cb497","ios":"levelo://app?vid=f493e33d-50e2-493f-b178-0d4e793cb497"},"vehicle_type_id":"4","last_reported":1721664647,"current_range_meters":28800,"station_id":"ce4bgt12rcd13ifvqcd0","pricing_plan_id":"cebpf4jnsgd1na2vs0mg"},{"bike_id":"2d97e70c-31a7-4244-9302-229d17c88d48","system_id":"levelo_inurba_marseille","lat":43.30551,"lon":5.36555,"is_reserved":false,"is_disabled":false,"rental_uris":{"android":"levelo://app?vid=2d97e70c-31a7-4244-9302-229d17c88d48","ios":"levelo://app?vid=2d97e70c-31a7-4244-9302-229d17c88d48"},"vehicle_type_id":"4","last_reported":1721664647,"current_range_meters":0,"station_id":"ce4bgs12rcd13ifvqcag","pricing_plan_id":"cebpf4jnsgd1na2vs0mg"},{"bike_id":"12c02ca2-07b1-46a2-8f10-d2751257ea2e","system_id":"levelo_inurba_marseille","lat":43.30553,"lon":5.36536,"is_reserved":false,"is_disabled":false,"rental_uris":{"android":"levelo://app?vid=12c02ca2-07b1-46a2-8f10-d2751257ea2e","ios":"levelo://app?vid=12c02ca2-07b1-46a2-8f10-d2751257ea2e"},"vehicle_type_id":"4","last_reported":1721664647,"current_range_meters":0,"station_id":"ce4bgs12rcd13ifvqcag","pricing_plan_id":"cebpf4jnsgd1na2vs0mg"},{"bike_id":"9c65ab56-9e22-4ded-89a5-099092381482","system_id":"levelo_inurba_marseille","lat":43.305714,"lon":5.365633,"is_reserved":false,"is_disabled":false,"rental_uris":{"android":"levelo://app?vid=9c65ab56-9e22-4ded-89a5-099092381482","ios":"levelo://app?vid=9c65ab56-9e22-4ded-89a5-099092381482"},"vehicle_type_id":"4","last_reported":1721664647,"current_range_meters":0,"station_id":"ce4bgs12rcd13ifvqcag","pricing_plan_id":"cebpf4jnsgd1na2vs0mg"},{"bike_id":"0475fc04-30a6-4927-99f5-1b025aeece76","system_id":"levelo_inurba_marseille","lat":43.315639,"lon":5.376458,"is_reserved":false,"is_disabled":false,"rental_uris":{"android":"levelo://app?vid=0475fc04-30a6-4927-99f5-1b025aeece76","ios":"levelo://app?vid=0475fc04-30a6-4927-99f5-1b025aeece76"},"vehicle_type_id":"4","last_reported":1721664647,"current_range_meters":3600,"station_id":"","pricing_plan_id":"cebpf4jnsgd1na2vs0mg"},{"bike_id":"47afcdeb-6aaa-4bf7-a888-0e52bf9f95de","system_id":"levelo_inurba_marseille","lat":43.305989,"lon":5.37225,"is_reserved":false,"is_disabled":false,"rental_uris":{"android":"levelo://app?vid=47afcdeb-6aaa-4bf7-a888-0e52bf9f95de","ios":"levelo://app?vid=47afcdeb-6aaa-4bf7-a888-0e52bf9f95de"},"vehicle_type_id":"4","last_reported":1721664647,"current_range_meters":5600,"station_id":"ce4bgqh2rcd13ifvqc4g","pricing_plan_id":"cebpf4jnsgd1na2vs0mg"},{"bike_id":"486b1137-a186-4df2-a755-64dd5a46696a","system_id":"levelo_inurba_marseille","lat":43.307945,"lon":5.376487,"is_reserved":false,"is_disabled":false,"rental_uris":{"android":"levelo://app?vid=486b1137-a186-4df2-a755-64dd5a46696a","ios":"levelo://app?vid=486b1137-a186-4df2-a755-64dd5a46696a"},"vehicle_type_id":"4","last_reported":1721664647,"current_range_meters":14000,"station_id":"ce4bgv92rcd13ifvqcq0","pricing_plan_id":"cebpf4jnsgd1na2vs0mg"},{"bike_id":"935debec-bc12-4685-a241-6ade3b71bec0","system_id":"levelo_inurba_marseille","lat":43.311427,"lon":5.3799,"is_reserved":false,"is_disabled":false,"rental_uris":{"android":"levelo://app?vid=935debec-bc12-4685-a241-6ade3b71bec0","ios":"levelo://app?vid=935debec-bc12-4685-a241-6ade3b71bec0"},"vehicle_type_id":"4","last_reported":1721664647,"current_range_meters":4400,"station_id":"","pricing_plan_id":"cebpf4jnsgd1na2vs0mg"},{"bike_id":"826a1853-bb93-407f-b9c3-4ac78541babb","system_id":"levelo_inurba_marseille","lat":43.303046,"lon":5.368981,"is_reserved":false,"is_disabled":false,"rental_uris":{"android":"levelo://app?vid=826a1853-bb93-407f-b9c3-4ac78541babb","ios":"levelo://app?vid=826a1853-bb93-407f-b9c3-4ac78541babb"},"vehicle_type_id":"4","last_reported":1721664647,"current_range_meters":4800,"station_id":"ce4bgqh2rcd13ifvqc5g","pricing_plan_id":"cebpf4jnsgd1na2vs0mg"},{"bike_id":"c0585ad5-aeaa-4735-b12c-90b92be4def4","system_id":"levelo_inurba_marseille","lat":43.315289,"lon":5.380349,"is_reserved":false,"is_disabled":false,"rental_uris":{"android":"levelo://app?vid=c0585ad5-aeaa-4735-b12c-90b92be4def4","ios":"levelo://app?vid=c0585ad5-aeaa-4735-b12c-90b92be4def4"},"vehicle_type_id":"4","last_reported":1721664647,"current_range_meters":9200,"station_id":"ce4bhsp2rcd13ifvqi50","pricing_plan_id":"cebpf4jnsgd1na2vs0mg"},{"bike_id":"cbb694a8-0929-4097-aae8-82a8ab3bacc5","system_id":"levelo_inurba_marseille","lat":43.315289,"lon":5.380349,"is_reserved":false,"is_disabled":false,"rental_uris":{"android":"levelo://app?vid=cbb694a8-0929-4097-aae8-82a8ab3bacc5","ios":"levelo://app?vid=cbb694a8-0929-4097-aae8-82a8ab3bacc5"},"vehicle_type_id":"4","last_reported":1721664647,"current_range_meters":32000,"station_id":"ce4bhsp2rcd13ifvqi50","pricing_plan_id":"cebpf4jnsgd1na2vs0mg"},{"bike_id":"fc7eec1d-359b-4a32-aea4-ae8b27365bff","system_id":"levelo_inurba_marseille","lat":43.315289,"lon":5.380349,"is_reserved":false,"is_disabled":false,"rental_uris":{"android":"levelo://app?vid=fc7eec1d-359b-4a32-aea4-ae8b27365bff","ios":"levelo://app?vid=fc7eec1d-359b-4a32-aea4-ae8b27365bff"},"vehicle_type_id":"4","last_reported":1721664647,"current_range_meters":13200,"station_id":"ce4bhsp2rcd13ifvqi50","pricing_plan_id":"cebpf4jnsgd1na2vs0mg"},{"bike_id":"ea290948-bea9-4c08-9900-71086c6747b1","system_id":"levelo_inurba_marseille","lat":43.301939,"lon":5.366286,"is_reserved":false,"is_disabled":false,"rental_uris":{"android":"levelo://app?vid=ea290948-bea9-4c08-9900-71086c6747b1","ios":"levelo://app?vid=ea290948-bea9-4c08-9900-71086c6747b1"},"vehicle_type_id":"4","last_reported":1721664647,"current_range_meters":15200,"station_id":"ce4bgrh2rcd13ifvqc8g","pricing_plan_id":"cebpf4jnsgd1na2vs0mg"},{"bike_id":"3a0a09e5-13c8-4692-b306-279c1771466b","system_id":"levelo_inurba_marseille","lat":43.308012,"lon":5.381511,"is_reserved":false,"is_disabled":false,"rental_uris":{"android":"levelo://app?vid=3a0a09e5-13c8-4692-b306-279c1771466b","ios":"levelo://app?vid=3a0a09e5-13c8-4692-b306-279c1771466b"},"vehicle_type_id":"4","last_reported":1721664647,"current_range_meters":1200,"station_id":"ce4bgt12rcd13ifvqce0","pricing_plan_id":"cebpf4jnsgd1na2vs0mg"},{"bike_id":"a43ee836-c587-42b3-b790-806fc798c6fa","system_id":"levelo_inurba_marseille","lat":43.308012,"lon":5.381511,"is_reserved":false,"is_disabled":false,"rental_uris":{"android":"levelo://app?vid=a43ee836-c587-42b3-b790-806fc798c6fa","ios":"levelo://app?vid=a43ee836-c587-42b3-b790-806fc798c6fa"},"vehicle_type_id":"4","last_reported":1721664647,"current_range_meters":6000,"station_id":"ce4bgt12rcd13ifvqce0","pricing_plan_id":"cebpf4jnsgd1na2vs0mg"},{"bike_id":"2d266504-bb4c-4177-acc0-328c94e0858a","system_id":"levelo_inurba_marseille","lat":43.308012,"lon":5.381511,"is_reserved":false,"is_disabled":false,"rental_uris":{"android":"levelo://app?vid=2d266504-bb4c-4177-acc0-328c94e0858a","ios":"levelo://app?vid=2d266504-bb4c-4177-acc0-328c94e0858a"},"vehicle_type_id":"4","last_reported":1721664647,"current_range_meters":23200,"station_id":"ce4bgt12rcd13ifvqce0","pricing_plan_id":"cebpf4jnsgd1na2vs0mg"},{"bike_id":"96efd8f8-8d17-4b9a-814d-b9e49246bee2","system_id":"levelo_inurba_marseille","lat":43.30461,"lon":5.37901,"is_reserved":false,"is_disabled":false,"rental_uris":{"android":"levelo://app?vid=96efd8f8-8d17-4b9a-814d-b9e49246bee2","ios":"levelo://app?vid=96efd8f8-8d17-4b9a-814d-b9e49246bee2"},"vehicle_type_id":"4","last_reported":1721664647,"current_range_meters":0,"station_id":"ce4bgup2rcd13ifvqcn0","pricing_plan_id":"cebpf4jnsgd1na2vs0mg"},{"bike_id":"18b662ae-43c2-47f7-a414-4f2cee620573","system_id":"levelo_inurba_marseille","lat":43.310444,"lon":5.38319,"is_reserved":false,"is_disabled":false,"rental_uris":{"android":"levelo://app?vid=18b662ae-43c2-47f7-a414-4f2cee620573","ios":"levelo://app?vid=18b662ae-43c2-47f7-a414-4f2cee620573"},"vehicle_type_id":"4","last_reported":1721664647,"current_range_meters":4800,"station_id":"","pricing_plan_id":"cebpf4jnsgd1na2vs0mg"},{"bike_id":"28b01638-de75-4596-a4c5-d39f1c20e839","system_id":"levelo_inurba_marseille","lat":43.324771,"lon":5.36557,"is_reserved":false,"is_disabled":false,"rental_uris":{"android":"levelo://app?vid=28b01638-de75-4596-a4c5-d39f1c20e839","ios":"levelo://app?vid=28b01638-de75-4596-a4c5-d39f1c20e839"},"vehicle_type_id":"4","last_reported":1721664647,"current_range_meters":20800,"station_id":"ce4bhs12rcd13ifvqhvg","pricing_plan_id":"cebpf4jnsgd1na2vs0mg"},{"bike_id":"b6085923-b19b-4eb8-9ae3-d78bebccefe4","system_id":"levelo_inurba_marseille","lat":43.32483,"lon":5.36555,"is_reserved":false,"is_disabled":false,"rental_uris":{"android":"levelo://app?vid=b6085923-b19b-4eb8-9ae3-d78bebccefe4","ios":"levelo://app?vid=b6085923-b19b-4eb8-9ae3-d78bebccefe4"},"vehicle_type_id":"4","last_reported":1721664647,"current_range_meters":12000,"station_id":"ce4bhs12rcd13ifvqhvg","pricing_plan_id":"cebpf4jnsgd1na2vs0mg"},{"bike_id":"1f4533b3-e703-403a-b03b-cd00a38d2954","system_id":"levelo_inurba_marseille","lat":43.324842,"lon":5.365758,"is_reserved":false,"is_disabled":false,"rental_uris":{"android":"levelo://app?vid=1f4533b3-e703-403a-b03b-cd00a38d2954","ios":"levelo://app?vid=1f4533b3-e703-403a-b03b-cd00a38d2954"},"vehicle_type_id":"4","last_reported":1721664647,"current_range_meters":30800,"station_id":"ce4bhs12rcd13ifvqhvg","pricing_plan_id":"cebpf4jnsgd1na2vs0mg"},{"bike_id":"501d5411-c949-4316-b217-9931176b4ca7","system_id":"levelo_inurba_marseille","lat":43.324771,"lon":5.36557,"is_reserved":false,"is_disabled":false,"rental_uris":{"android":"levelo://app?vid=501d5411-c949-4316-b217-9931176b4ca7","ios":"levelo://app?vid=501d5411-c949-4316-b217-9931176b4ca7"},"vehicle_type_id":"4","last_reported":1721664647,"current_range_meters":31200,"station_id":"ce4bhs12rcd13ifvqhvg","pricing_plan_id":"cebpf4jnsgd1na2vs0mg"},{"bike_id":"62464d58-89e1-4bb3-b8a1-6364cbb444d9","system_id":"levelo_inurba_marseille","lat":43.31069,"lon":5.38354,"is_reserved":false,"is_disabled":false,"rental_uris":{"android":"levelo://app?vid=62464d58-89e1-4bb3-b8a1-6364cbb444d9","ios":"levelo://app?vid=62464d58-89e1-4bb3-b8a1-6364cbb444d9"},"vehicle_type_id":"4","last_reported":1721664647,"current_range_meters":10800,"station_id":"ce4bgv92rcd13ifvqcr0","pricing_plan_id":"cebpf4jnsgd1na2vs0mg"},{"bike_id":"0d6d10b2-7b07-4341-8206-44d05f6c5381","system_id":"levelo_inurba_marseille","lat":43.31073,"lon":5.38357,"is_reserved":false,"is_disabled":false,"rental_uris":{"android":"levelo://app?vid=0d6d10b2-7b07-4341-8206-44d05f6c5381","ios":"levelo://app?vid=0d6d10b2-7b07-4341-8206-44d05f6c5381"},"vehicle_type_id":"4","last_reported":1721664647,"current_range_meters":6400,"station_id":"ce4bgv92rcd13ifvqcr0","pricing_plan_id":"cebpf4jnsgd1na2vs0mg"},{"bike_id":"80c408db-bee9-4abf-85b4-c062b31923f2","system_id":"levelo_inurba_marseille","lat":43.310804,"lon":5.38359,"is_reserved":false,"is_disabled":false,"rental_uris":{"android":"levelo://app?vid=80c408db-bee9-4abf-85b4-c062b31923f2","ios":"levelo://app?vid=80c408db-bee9-4abf-85b4-c062b31923f2"},"vehicle_type_id":"4","last_reported":1721664647,"current_range_meters":4400,"station_id":"ce4bgv92rcd13ifvqcr0","pricing_plan_id":"cebpf4jnsgd1na2vs0mg"},{"bike_id":"6ed8e479-3884-4518-858c-5acea87653af","system_id":"levelo_inurba_marseille","lat":43.30143,"lon":5.37413,"is_reserved":false,"is_disabled":false,"rental_uris":{"android":"levelo://app?vid=6ed8e479-3884-4518-858c-5acea87653af","ios":"levelo://app?vid=6ed8e479-3884-4518-858c-5acea87653af"},"vehicle_type_id":"4","last_reported":1721664647,"current_range_meters":4800,"station_id":"ce4bgs92rcd13ifvqcc0","pricing_plan_id":"cebpf4jnsgd1na2vs0mg"},{"bike_id":"133de24a-ce06-48ce-9778-9e66f50c2a30","system_id":"levelo_inurba_marseille","lat":43.301429,"lon":5.37413,"is_reserved":false,"is_disabled":false,"rental_uris":{"android":"levelo://app?vid=133de24a-ce06-48ce-9778-9e66f50c2a30","ios":"levelo://app?vid=133de24a-ce06-48ce-9778-9e66f50c2a30"},"vehicle_type_id":"4","last_reported":1721664647,"current_range_meters":2400,"station_id":"ce4bgs92rcd13ifvqcc0","pricing_plan_id":"cebpf4jnsgd1na2vs0mg"},{"bike_id":"4fa25f06-f0c4-4ef1-8c2b-7b0a7a99a051","system_id":"levelo_inurba_marseille","lat":43.30143,"lon":5.37413,"is_reserved":false,"is_disabled":false,"rental_uris":{"android":"levelo://app?vid=4fa25f06-f0c4-4ef1-8c2b-7b0a7a99a051","ios":"levelo://app?vid=4fa25f06-f0c4-4ef1-8c2b-7b0a7a99a051"},"vehicle_type_id":"4","last_reported":1721664647,"current_range_meters":16400,"station_id":"ce4bgs92rcd13ifvqcc0","pricing_plan_id":"cebpf4jnsgd1na2vs0mg"},{"bike_id":"e18375c8-f1a5-44bb-818c-0c8121c7bd77","system_id":"levelo_inurba_marseille","lat":43.301429,"lon":5.37413,"is_reserved":false,"is_disabled":false,"rental_uris":{"android":"levelo://app?vid=e18375c8-f1a5-44bb-818c-0c8121c7bd77","ios":"levelo://app?vid=e18375c8-f1a5-44bb-818c-0c8121c7bd77"},"vehicle_type_id":"4","last_reported":1721664647,"current_range_meters":4000,"station_id":"ce4bgs92rcd13ifvqcc0","pricing_plan_id":"cebpf4jnsgd1na2vs0mg"},{"bike_id":"a2a0c4fc-ded0-426a-83df-13eb04096cdb","system_id":"levelo_inurba_marseille","lat":43.30606,"lon":5.38209,"is_reserved":false,"is_disabled":false,"rental_uris":{"android":"levelo://app?vid=a2a0c4fc-ded0-426a-83df-13eb04096cdb","ios":"levelo://app?vid=a2a0c4fc-ded0-426a-83df-13eb04096cdb"},"vehicle_type_id":"4","last_reported":1721664647,"current_range_meters":26400,"station_id":"","pricing_plan_id":"cebpf4jnsgd1na2vs0mg"},{"bike_id":"f4e353d1-743d-4604-8743-182b810b8baa","system_id":"levelo_inurba_marseille","lat":43.299222,"lon":5.365554,"is_reserved":false,"is_disabled":false,"rental_uris":{"android":"levelo://app?vid=f4e353d1-743d-4604-8743-182b810b8baa","ios":"levelo://app?vid=f4e353d1-743d-4604-8743-182b810b8baa"},"vehicle_type_id":"4","last_reported":1721664647,"current_range_meters":0,"station_id":"ce4bgm92rcd13ifvqbr0","pricing_plan_id":"cebpf4jnsgd1na2vs0mg"},{"bike_id":"6112e800-d39f-42c0-b1b0-f77c5eea7445","system_id":"levelo_inurba_marseille","lat":43.299724,"lon":5.371829,"is_reserved":false,"is_disabled":false,"rental_uris":{"android":"levelo://app?vid=6112e800-d39f-42c0-b1b0-f77c5eea7445","ios":"levelo://app?vid=6112e800-d39f-42c0-b1b0-f77c5eea7445"},"vehicle_type_id":"4","last_reported":1721664647,"current_range_meters":17600,"station_id":"ce4bgr92rcd13ifvqc7g","pricing_plan_id":"cebpf4jnsgd1na2vs0mg"},{"bike_id":"cf3a2246-dab6-4ed0-b72c-632adb8f8709","system_id":"levelo_inurba_marseille","lat":43.298433,"lon":5.362774,"is_reserved":false,"is_disabled":false,"rental_uris":{"android":"levelo://app?vid=cf3a2246-dab6-4ed0-b72c-632adb8f8709","ios":"levelo://app?vid=cf3a2246-dab6-4ed0-b72c-632adb8f8709"},"vehicle_type_id":"4","last_reported":1721664647,"current_range_meters":24400,"station_id":"ce4bgpp2rcd13ifvqc3g","pricing_plan_id":"cebpf4jnsgd1na2vs0mg"},{"bike_id":"3de558ef-b815-445d-abb9-731addbd01d2","system_id":"levelo_inurba_marseille","lat":43.311722,"lon":5.387247,"is_reserved":false,"is_disabled":false,"rental_uris":{"android":"levelo://app?vid=3de558ef-b815-445d-abb9-731addbd01d2","ios":"levelo://app?vid=3de558ef-b815-445d-abb9-731addbd01d2"},"vehicle_type_id":"4","last_reported":1721664647,"current_range_meters":0,"station_id":"ce4bgv12rcd13ifvqcp0","pricing_plan_id":"cebpf4jnsgd1na2vs0mg"},{"bike_id":"e456ce57-e4db-4917-80a7-d340f75bb7ef","system_id":"levelo_inurba_marseille","lat":43.299243,"lon":5.37481,"is_reserved":false,"is_disabled":false,"rental_uris":{"android":"levelo://app?vid=e456ce57-e4db-4917-80a7-d340f75bb7ef","ios":"levelo://app?vid=e456ce57-e4db-4917-80a7-d340f75bb7ef"},"vehicle_type_id":"4","last_reported":1721664647,"current_range_meters":0,"station_id":"ce4bgjh2rcd13ifvqbg0","pricing_plan_id":"cebpf4jnsgd1na2vs0mg"},{"bike_id":"cd6a3336-9aa0-4d1e-88d3-48a0e878ea53","system_id":"levelo_inurba_marseille","lat":43.31178,"lon":5.38715,"is_reserved":false,"is_disabled":false,"rental_uris":{"android":"levelo://app?vid=cd6a3336-9aa0-4d1e-88d3-48a0e878ea53","ios":"levelo://app?vid=cd6a3336-9aa0-4d1e-88d3-48a0e878ea53"},"vehicle_type_id":"4","last_reported":1721664647,"current_range_meters":0,"station_id":"ce4bgv12rcd13ifvqcp0","pricing_plan_id":"cebpf4jnsgd1na2vs0mg"},{"bike_id":"572bb914-4d15-4772-abdc-1b1a679d5f1b","system_id":"levelo_inurba_marseille","lat":43.297794,"lon":5.370888,"is_reserved":false,"is_disabled":false,"rental_uris":{"android":"levelo://app?vid=572bb914-4d15-4772-abdc-1b1a679d5f1b","ios":"levelo://app?vid=572bb914-4d15-4772-abdc-1b1a679d5f1b"},"vehicle_type_id":"4","last_reported":1721664647,"current_range_meters":2400,"station_id":"ce4bgop2rcd13ifvqc1g","pricing_plan_id":"cebpf4jnsgd1na2vs0mg"},{"bike_id":"71e0dd87-2557-4128-a05f-b84da5efebfd","system_id":"levelo_inurba_marseille","lat":43.322872,"lon":5.382756,"is_reserved":false,"is_disabled":false,"rental_uris":{"android":"levelo://app?vid=71e0dd87-2557-4128-a05f-b84da5efebfd","ios":"levelo://app?vid=71e0dd87-2557-4128-a05f-b84da5efebfd"},"vehicle_type_id":"4","last_reported":1721664647,"current_range_meters":14800,"station_id":"ce4bhr12rcd13ifvqhqg","pricing_plan_id":"cebpf4jnsgd1na2vs0mg"},{"bike_id":"88d3e286-97c6-4910-88d9-edf76e83a4b3","system_id":"levelo_inurba_marseille","lat":43.322872,"lon":5.382756,"is_reserved":false,"is_disabled":false,"rental_uris":{"android":"levelo://app?vid=88d3e286-97c6-4910-88d9-edf76e83a4b3","ios":"levelo://app?vid=88d3e286-97c6-4910-88d9-edf76e83a4b3"},"vehicle_type_id":"4","last_reported":1721664647,"current_range_meters":12800,"station_id":"ce4bhr12rcd13ifvqhqg","pricing_plan_id":"cebpf4jnsgd1na2vs0mg"},{"bike_id":"c7af87f0-22e9-4574-8982-0a414124dd7f","system_id":"levelo_inurba_marseille","lat":43.32291,"lon":5.38269,"is_reserved":false,"is_disabled":false,"rental_uris":{"android":"levelo://app?vid=c7af87f0-22e9-4574-8982-0a414124dd7f","ios":"levelo://app?vid=c7af87f0-22e9-4574-8982-0a414124dd7f"},"vehicle_type_id":"4","last_reported":1721664647,"current_range_meters":27200,"station_id":"ce4bhr12rcd13ifvqhqg","pricing_plan_id":"cebpf4jnsgd1na2vs0mg"},{"bike_id":"64a95390-d97c-4990-9511-28a821bbdb6f","system_id":"levelo_inurba_marseille","lat":43.322872,"lon":5.382756,"is_reserved":false,"is_disabled":false,"rental_uris":{"android":"levelo://app?vid=64a95390-d97c-4990-9511-28a821bbdb6f","ios":"levelo://app?vid=64a95390-d97c-4990-9511-28a821bbdb6f"},"vehicle_type_id":"4","last_reported":1721664647,"current_range_meters":1200,"station_id":"ce4bhr12rcd13ifvqhqg","pricing_plan_id":"cebpf4jnsgd1na2vs0mg"},{"bike_id":"b6e34575-6ba1-4cb1-b69b-b56e98f8a860","system_id":"levelo_inurba_marseille","lat":43.297774,"lon":5.370875,"is_reserved":false,"is_disabled":false,"rental_uris":{"android":"levelo://app?vid=b6e34575-6ba1-4cb1-b69b-b56e98f8a860","ios":"levelo://app?vid=b6e34575-6ba1-4cb1-b69b-b56e98f8a860"},"vehicle_type_id":"4","last_reported":1721664647,"current_range_meters":800,"station_id":"ce4bgop2rcd13ifvqc1g","pricing_plan_id":"cebpf4jnsgd1na2vs0mg"},{"bike_id":"98130cc7-b273-4dee-89a1-15b990d570f8","system_id":"levelo_inurba_marseille","lat":43.323003,"lon":5.382643,"is_reserved":false,"is_disabled":false,"rental_uris":{"android":"levelo://app?vid=98130cc7-b273-4dee-89a1-15b990d570f8","ios":"levelo://app?vid=98130cc7-b273-4dee-89a1-15b990d570f8"},"vehicle_type_id":"4","last_reported":1721664647,"current_range_meters":11600,"station_id":"ce4bhr12rcd13ifvqhqg","pricing_plan_id":"cebpf4jnsgd1na2vs0mg"},{"bike_id":"d1524c38-272a-4647-ac5e-400258017ada","system_id":"levelo_inurba_marseille","lat":43.322872,"lon":5.382756,"is_reserved":false,"is_disabled":false,"rental_uris":{"android":"levelo://app?vid=d1524c38-272a-4647-ac5e-400258017ada","ios":"levelo://app?vid=d1524c38-272a-4647-ac5e-400258017ada"},"vehicle_type_id":"4","last_reported":1721664647,"current_range_meters":11600,"station_id":"ce4bhr12rcd13ifvqhqg","pricing_plan_id":"cebpf4jnsgd1na2vs0mg"},{"bike_id":"b1bc8aa2-085a-4ac8-b6f3-a44db7dc9456","system_id":"levelo_inurba_marseille","lat":43.297163,"lon":5.365866,"is_reserved":false,"is_disabled":false,"rental_uris":{"android":"levelo://app?vid=b1bc8aa2-085a-4ac8-b6f3-a44db7dc9456","ios":"levelo://app?vid=b1bc8aa2-085a-4ac8-b6f3-a44db7dc9456"},"vehicle_type_id":"4","last_reported":1721664647,"current_range_meters":800,"station_id":"ce4bgn12rcd13ifvqbt0","pricing_plan_id":"cebpf4jnsgd1na2vs0mg"},{"bike_id":"71b9007f-a2b6-4034-ae63-a5d3458afc6e","system_id":"levelo_inurba_marseille","lat":43.29582,"lon":5.36746,"is_reserved":false,"is_disabled":false,"rental_uris":{"android":"levelo://app?vid=71b9007f-a2b6-4034-ae63-a5d3458afc6e","ios":"levelo://app?vid=71b9007f-a2b6-4034-ae63-a5d3458afc6e"},"vehicle_type_id":"4","last_reported":1721664647,"current_range_meters":800,"station_id":"ce4bgph2rcd13ifvqc2g","pricing_plan_id":"cebpf4jnsgd1na2vs0mg"},{"bike_id":"c279d3c4-a79a-4cc5-bc11-fd4530945474","system_id":"levelo_inurba_marseille","lat":43.29573,"lon":5.367355,"is_reserved":false,"is_disabled":false,"rental_uris":{"android":"levelo://app?vid=c279d3c4-a79a-4cc5-bc11-fd4530945474","ios":"levelo://app?vid=c279d3c4-a79a-4cc5-bc11-fd4530945474"},"vehicle_type_id":"4","last_reported":1721664647,"current_range_meters":0,"station_id":"ce4bgph2rcd13ifvqc2g","pricing_plan_id":"cebpf4jnsgd1na2vs0mg"},{"bike_id":"2ea3b1df-4ec6-48e8-a496-e969da1db0f7","system_id":"levelo_inurba_marseille","lat":43.317557,"lon":5.390173,"is_reserved":false,"is_disabled":false,"rental_uris":{"android":"levelo://app?vid=2ea3b1df-4ec6-48e8-a496-e969da1db0f7","ios":"levelo://app?vid=2ea3b1df-4ec6-48e8-a496-e969da1db0f7"},"vehicle_type_id":"4","last_reported":1721664647,"current_range_meters":9600,"station_id":"ce4bhqp2rcd13ifvqhng","pricing_plan_id":"cebpf4jnsgd1na2vs0mg"},{"bike_id":"33ad391b-c6ab-49a4-ae2b-92b99d417dc2","system_id":"levelo_inurba_marseille","lat":43.317557,"lon":5.390173,"is_reserved":false,"is_disabled":false,"rental_uris":{"android":"levelo://app?vid=33ad391b-c6ab-49a4-ae2b-92b99d417dc2","ios":"levelo://app?vid=33ad391b-c6ab-49a4-ae2b-92b99d417dc2"},"vehicle_type_id":"4","last_reported":1721664647,"current_range_meters":17200,"station_id":"ce4bhqp2rcd13ifvqhng","pricing_plan_id":"cebpf4jnsgd1na2vs0mg"},{"bike_id":"e7a79af2-415a-437d-9c86-9ee38c2ae257","system_id":"levelo_inurba_marseille","lat":43.317557,"lon":5.390173,"is_reserved":false,"is_disabled":false,"rental_uris":{"android":"levelo://app?vid=e7a79af2-415a-437d-9c86-9ee38c2ae257","ios":"levelo://app?vid=e7a79af2-415a-437d-9c86-9ee38c2ae257"},"vehicle_type_id":"4","last_reported":1721664647,"current_range_meters":6800,"station_id":"ce4bhqp2rcd13ifvqhng","pricing_plan_id":"cebpf4jnsgd1na2vs0mg"},{"bike_id":"131d1398-ee31-4813-b637-903256968295","system_id":"levelo_inurba_marseille","lat":43.29743,"lon":5.37928,"is_reserved":false,"is_disabled":false,"rental_uris":{"android":"levelo://app?vid=131d1398-ee31-4813-b637-903256968295","ios":"levelo://app?vid=131d1398-ee31-4813-b637-903256968295"},"vehicle_type_id":"4","last_reported":1721664647,"current_range_meters":23200,"station_id":"","pricing_plan_id":"cebpf4jnsgd1na2vs0mg"},{"bike_id":"0da235bc-04c7-4eaf-86b3-42da00391186","system_id":"levelo_inurba_marseille","lat":43.29815,"lon":5.38095,"is_reserved":false,"is_disabled":false,"rental_uris":{"android":"levelo://app?vid=0da235bc-04c7-4eaf-86b3-42da00391186","ios":"levelo://app?vid=0da235bc-04c7-4eaf-86b3-42da00391186"},"vehicle_type_id":"4","last_reported":1721664647,"current_range_meters":28000,"station_id":"ce4bgip2rcd13ifvqbb0","pricing_plan_id":"cebpf4jnsgd1na2vs0mg"},{"bike_id":"f8c9022e-4960-4008-91a4-b4e9f95756e8","system_id":"levelo_inurba_marseille","lat":43.295748,"lon":5.37522,"is_reserved":false,"is_disabled":false,"rental_uris":{"android":"levelo://app?vid=f8c9022e-4960-4008-91a4-b4e9f95756e8","ios":"levelo://app?vid=f8c9022e-4960-4008-91a4-b4e9f95756e8"},"vehicle_type_id":"4","last_reported":1721664647,"current_range_meters":8800,"station_id":"ce4bgh92rcd13ifvqb50","pricing_plan_id":"cebpf4jnsgd1na2vs0mg"},{"bike_id":"5ce20f1d-8a14-49e0-86af-51aa923ff00f","system_id":"levelo_inurba_marseille","lat":43.29571,"lon":5.37526,"is_reserved":false,"is_disabled":false,"rental_uris":{"android":"levelo://app?vid=5ce20f1d-8a14-49e0-86af-51aa923ff00f","ios":"levelo://app?vid=5ce20f1d-8a14-49e0-86af-51aa923ff00f"},"vehicle_type_id":"4","last_reported":1721664647,"current_range_meters":8400,"station_id":"ce4bgh92rcd13ifvqb50","pricing_plan_id":"cebpf4jnsgd1na2vs0mg"},{"bike_id":"74669c25-90aa-44aa-b132-08ba4a9f70e6","system_id":"levelo_inurba_marseille","lat":43.304278,"lon":5.388868,"is_reserved":false,"is_disabled":false,"rental_uris":{"android":"levelo://app?vid=74669c25-90aa-44aa-b132-08ba4a9f70e6","ios":"levelo://app?vid=74669c25-90aa-44aa-b132-08ba4a9f70e6"},"vehicle_type_id":"4","last_reported":1721664647,"current_range_meters":25200,"station_id":"ce4bgk12rcd13ifvqbi0","pricing_plan_id":"cebpf4jnsgd1na2vs0mg"},{"bike_id":"640c9df7-d285-4d94-be60-a86f0d1ae5d4","system_id":"levelo_inurba_marseille","lat":43.32367,"lon":5.388836,"is_reserved":false,"is_disabled":false,"rental_uris":{"android":"levelo://app?vid=640c9df7-d285-4d94-be60-a86f0d1ae5d4","ios":"levelo://app?vid=640c9df7-d285-4d94-be60-a86f0d1ae5d4"},"vehicle_type_id":"4","last_reported":1721664647,"current_range_meters":17200,"station_id":"ce4bhqp2rcd13ifvqhog","pricing_plan_id":"cebpf4jnsgd1na2vs0mg"},{"bike_id":"0d8d9d26-69b3-4c04-b064-050ddff29fcc","system_id":"levelo_inurba_marseille","lat":43.325013,"lon":5.387793,"is_reserved":false,"is_disabled":false,"rental_uris":{"android":"levelo://app?vid=0d8d9d26-69b3-4c04-b064-050ddff29fcc","ios":"levelo://app?vid=0d8d9d26-69b3-4c04-b064-050ddff29fcc"},"vehicle_type_id":"4","last_reported":1721664647,"current_range_meters":800,"station_id":"","pricing_plan_id":"cebpf4jnsgd1na2vs0mg"},{"bike_id":"09977b67-f733-4409-bdc2-79952b370c39","system_id":"levelo_inurba_marseille","lat":43.33013,"lon":5.37971,"is_reserved":false,"is_disabled":false,"rental_uris":{"android":"levelo://app?vid=09977b67-f733-4409-bdc2-79952b370c39","ios":"levelo://app?vid=09977b67-f733-4409-bdc2-79952b370c39"},"vehicle_type_id":"4","last_reported":1721664647,"current_range_meters":14000,"station_id":"","pricing_plan_id":"cebpf4jnsgd1na2vs0mg"},{"bike_id":"7dfcead9-92b3-45ef-950b-61616ae5362f","system_id":"levelo_inurba_marseille","lat":43.292749,"lon":5.368402,"is_reserved":false,"is_disabled":false,"rental_uris":{"android":"levelo://app?vid=7dfcead9-92b3-45ef-950b-61616ae5362f","ios":"levelo://app?vid=7dfcead9-92b3-45ef-950b-61616ae5362f"},"vehicle_type_id":"4","last_reported":1721664647,"current_range_meters":26800,"station_id":"ce4bhbp2rcd13ifvqesg","pricing_plan_id":"cebpf4jnsgd1na2vs0mg"},{"bike_id":"4e2231e0-9105-4c80-a4c8-dfa1bb9e0714","system_id":"levelo_inurba_marseille","lat":43.30318,"lon":5.39132,"is_reserved":false,"is_disabled":false,"rental_uris":{"android":"levelo://app?vid=4e2231e0-9105-4c80-a4c8-dfa1bb9e0714","ios":"levelo://app?vid=4e2231e0-9105-4c80-a4c8-dfa1bb9e0714"},"vehicle_type_id":"4","last_reported":1721664647,"current_range_meters":17200,"station_id":"","pricing_plan_id":"cebpf4jnsgd1na2vs0mg"},{"bike_id":"00e029fa-fd61-43eb-8a3d-c7c0272d3212","system_id":"levelo_inurba_marseille","lat":43.293009,"lon":5.374584,"is_reserved":false,"is_disabled":false,"rental_uris":{"android":"levelo://app?vid=00e029fa-fd61-43eb-8a3d-c7c0272d3212","ios":"levelo://app?vid=00e029fa-fd61-43eb-8a3d-c7c0272d3212"},"vehicle_type_id":"4","last_reported":1721664647,"current_range_meters":0,"station_id":"ce4bgi12rcd13ifvqb70","pricing_plan_id":"cebpf4jnsgd1na2vs0mg"},{"bike_id":"5a57081f-ca3c-41c2-b592-f996b35b7d8c","system_id":"levelo_inurba_marseille","lat":43.305994,"lon":5.393687,"is_reserved":false,"is_disabled":false,"rental_uris":{"android":"levelo://app?vid=5a57081f-ca3c-41c2-b592-f996b35b7d8c","ios":"levelo://app?vid=5a57081f-ca3c-41c2-b592-f996b35b7d8c"},"vehicle_type_id":"4","last_reported":1721664647,"current_range_meters":21200,"station_id":"ce4bh0p2rcd13ifvqd80","pricing_plan_id":"cebpf4jnsgd1na2vs0mg"},{"bike_id":"1eb64c15-c62c-4990-9e7e-0a3927145547","system_id":"levelo_inurba_marseille","lat":43.29382,"lon":5.378437,"is_reserved":false,"is_disabled":false,"rental_uris":{"android":"levelo://app?vid=1eb64c15-c62c-4990-9e7e-0a3927145547","ios":"levelo://app?vid=1eb64c15-c62c-4990-9e7e-0a3927145547"},"vehicle_type_id":"4","last_reported":1721664647,"current_range_meters":0,"station_id":"ce4bgjh2rcd13ifvqbf0","pricing_plan_id":"cebpf4jnsgd1na2vs0mg"},{"bike_id":"2b125b04-7e21-4953-b53a-599549c1f48d","system_id":"levelo_inurba_marseille","lat":43.292311,"lon":5.360731,"is_reserved":false,"is_disabled":false,"rental_uris":{"android":"levelo://app?vid=2b125b04-7e21-4953-b53a-599549c1f48d","ios":"levelo://app?vid=2b125b04-7e21-4953-b53a-599549c1f48d"},"vehicle_type_id":"4","last_reported":1721664647,"current_range_meters":0,"station_id":"ce4bhbh2rcd13ifvqeqg","pricing_plan_id":"cebpf4jnsgd1na2vs0mg"},{"bike_id":"e5358851-c42f-4b16-a054-4afea2d0be6d","system_id":"levelo_inurba_marseille","lat":43.298764,"lon":5.388973,"is_reserved":false,"is_disabled":false,"rental_uris":{"android":"levelo://app?vid=e5358851-c42f-4b16-a054-4afea2d0be6d","ios":"levelo://app?vid=e5358851-c42f-4b16-a054-4afea2d0be6d"},"vehicle_type_id":"4","last_reported":1721664647,"current_range_meters":26400,"station_id":"ce4bh392rcd13ifvqdl0","pricing_plan_id":"cebpf4jnsgd1na2vs0mg"},{"bike_id":"063499c1-cf8d-45dc-bac9-8ba13cb52c7b","system_id":"levelo_inurba_marseille","lat":43.313291,"lon":5.396838,"is_reserved":false,"is_disabled":false,"rental_uris":{"android":"levelo://app?vid=063499c1-cf8d-45dc-bac9-8ba13cb52c7b","ios":"levelo://app?vid=063499c1-cf8d-45dc-bac9-8ba13cb52c7b"},"vehicle_type_id":"4","last_reported":1721664647,"current_range_meters":28400,"station_id":"ce4bgvp2rcd13ifvqcu0","pricing_plan_id":"cebpf4jnsgd1na2vs0mg"},{"bike_id":"4bf18ec7-a8f7-4f1e-bf02-f6a4b8fa1aa2","system_id":"levelo_inurba_marseille","lat":43.302008,"lon":5.394694,"is_reserved":false,"is_disabled":false,"rental_uris":{"android":"levelo://app?vid=4bf18ec7-a8f7-4f1e-bf02-f6a4b8fa1aa2","ios":"levelo://app?vid=4bf18ec7-a8f7-4f1e-bf02-f6a4b8fa1aa2"},"vehicle_type_id":"4","last_reported":1721664647,"current_range_meters":31600,"station_id":"ce4bh0p2rcd13ifvqd70","pricing_plan_id":"cebpf4jnsgd1na2vs0mg"},{"bike_id":"23360d97-c6f7-471d-90ac-e4cc3f02f0a5","system_id":"levelo_inurba_marseille","lat":43.302008,"lon":5.394694,"is_reserved":false,"is_disabled":false,"rental_uris":{"android":"levelo://app?vid=23360d97-c6f7-471d-90ac-e4cc3f02f0a5","ios":"levelo://app?vid=23360d97-c6f7-471d-90ac-e4cc3f02f0a5"},"vehicle_type_id":"4","last_reported":1721664647,"current_range_meters":31600,"station_id":"ce4bh0p2rcd13ifvqd70","pricing_plan_id":"cebpf4jnsgd1na2vs0mg"},{"bike_id":"c336265f-709b-4139-ba39-7fe04a7c0be5","system_id":"levelo_inurba_marseille","lat":43.302008,"lon":5.394694,"is_reserved":false,"is_disabled":false,"rental_uris":{"android":"levelo://app?vid=c336265f-709b-4139-ba39-7fe04a7c0be5","ios":"levelo://app?vid=c336265f-709b-4139-ba39-7fe04a7c0be5"},"vehicle_type_id":"4","last_reported":1721664647,"current_range_meters":14400,"station_id":"ce4bh0p2rcd13ifvqd70","pricing_plan_id":"cebpf4jnsgd1na2vs0mg"},{"bike_id":"85b9b1d3-0efc-4656-85ee-7783efa55e6f","system_id":"levelo_inurba_marseille","lat":43.290631,"lon":5.359244,"is_reserved":false,"is_disabled":false,"rental_uris":{"android":"levelo://app?vid=85b9b1d3-0efc-4656-85ee-7783efa55e6f","ios":"levelo://app?vid=85b9b1d3-0efc-4656-85ee-7783efa55e6f"},"vehicle_type_id":"4","last_reported":1721664647,"current_range_meters":10000,"station_id":"ce4bha92rcd13ifvqeg0","pricing_plan_id":"cebpf4jnsgd1na2vs0mg"},{"bike_id":"8be30041-c5df-4d95-84ac-36d973e3e368","system_id":"levelo_inurba_marseille","lat":43.28952,"lon":5.36471,"is_reserved":false,"is_disabled":false,"rental_uris":{"android":"levelo://app?vid=8be30041-c5df-4d95-84ac-36d973e3e368","ios":"levelo://app?vid=8be30041-c5df-4d95-84ac-36d973e3e368"},"vehicle_type_id":"4","last_reported":1721664647,"current_range_meters":3600,"station_id":"","pricing_plan_id":"cebpf4jnsgd1na2vs0mg"},{"bike_id":"9c7db638-4287-4c5f-a9c6-33e256e00b69","system_id":"levelo_inurba_marseille","lat":43.28945,"lon":5.36639,"is_reserved":false,"is_disabled":false,"rental_uris":{"android":"levelo://app?vid=9c7db638-4287-4c5f-a9c6-33e256e00b69","ios":"levelo://app?vid=9c7db638-4287-4c5f-a9c6-33e256e00b69"},"vehicle_type_id":"4","last_reported":1721664647,"current_range_meters":0,"station_id":"ce4bhap2rcd13ifvqek0","pricing_plan_id":"cebpf4jnsgd1na2vs0mg"},{"bike_id":"721148ff-313f-4d15-9b92-f9a03d068a18","system_id":"levelo_inurba_marseille","lat":43.289184,"lon":5.366408,"is_reserved":false,"is_disabled":false,"rental_uris":{"android":"levelo://app?vid=721148ff-313f-4d15-9b92-f9a03d068a18","ios":"levelo://app?vid=721148ff-313f-4d15-9b92-f9a03d068a18"},"vehicle_type_id":"4","last_reported":1721664647,"current_range_meters":8400,"station_id":"ce4bhap2rcd13ifvqek0","pricing_plan_id":"cebpf4jnsgd1na2vs0mg"},{"bike_id":"32a64fcc-20c2-4386-87ec-e9cd6f537cdb","system_id":"levelo_inurba_marseille","lat":43.294162,"lon":5.386292,"is_reserved":false,"is_disabled":false,"rental_uris":{"android":"levelo://app?vid=32a64fcc-20c2-4386-87ec-e9cd6f537cdb","ios":"levelo://app?vid=32a64fcc-20c2-4386-87ec-e9cd6f537cdb"},"vehicle_type_id":"4","last_reported":1721664647,"current_range_meters":0,"station_id":"ce4bh2h2rcd13ifvqdh0","pricing_plan_id":"cebpf4jnsgd1na2vs0mg"},{"bike_id":"c942a2c0-606e-4278-87c9-b077f61028b2","system_id":"levelo_inurba_marseille","lat":43.289184,"lon":5.366408,"is_reserved":false,"is_disabled":false,"rental_uris":{"android":"levelo://app?vid=c942a2c0-606e-4278-87c9-b077f61028b2","ios":"levelo://app?vid=c942a2c0-606e-4278-87c9-b077f61028b2"},"vehicle_type_id":"4","last_reported":1721664647,"current_range_meters":16800,"station_id":"ce4bhap2rcd13ifvqek0","pricing_plan_id":"cebpf4jnsgd1na2vs0mg"},{"bike_id":"73312b9c-4f68-4505-9b19-ec36da37a400","system_id":"levelo_inurba_marseille","lat":43.289184,"lon":5.366408,"is_reserved":false,"is_disabled":false,"rental_uris":{"android":"levelo://app?vid=73312b9c-4f68-4505-9b19-ec36da37a400","ios":"levelo://app?vid=73312b9c-4f68-4505-9b19-ec36da37a400"},"vehicle_type_id":"4","last_reported":1721664647,"current_range_meters":2800,"station_id":"ce4bhap2rcd13ifvqek0","pricing_plan_id":"cebpf4jnsgd1na2vs0mg"},{"bike_id":"16c6bda6-292f-4d67-ad70-8e32069e7d5d","system_id":"levelo_inurba_marseille","lat":43.28727,"lon":5.36078,"is_reserved":false,"is_disabled":false,"rental_uris":{"android":"levelo://app?vid=16c6bda6-292f-4d67-ad70-8e32069e7d5d","ios":"levelo://app?vid=16c6bda6-292f-4d67-ad70-8e32069e7d5d"},"vehicle_type_id":"4","last_reported":1721664647,"current_range_meters":9200,"station_id":"cki0cbj6b192h4jlfktg","pricing_plan_id":"cebpf4jnsgd1na2vs0mg"},{"bike_id":"e8ce8e03-fc0a-4de5-90ff-6c4fc1397b8a","system_id":"levelo_inurba_marseille","lat":43.289468,"lon":5.363719,"is_reserved":false,"is_disabled":false,"rental_uris":{"android":"levelo://app?vid=e8ce8e03-fc0a-4de5-90ff-6c4fc1397b8a","ios":"levelo://app?vid=e8ce8e03-fc0a-4de5-90ff-6c4fc1397b8a"},"vehicle_type_id":"4","last_reported":1721664647,"current_range_meters":19200,"station_id":"ce4bhc92rcd13ifvqetg","pricing_plan_id":"cebpf4jnsgd1na2vs0mg"},{"bike_id":"cd8e5e07-74d6-4b6b-864f-d125c5ff3450","system_id":"levelo_inurba_marseille","lat":43.289468,"lon":5.363719,"is_reserved":false,"is_disabled":false,"rental_uris":{"android":"levelo://app?vid=cd8e5e07-74d6-4b6b-864f-d125c5ff3450","ios":"levelo://app?vid=cd8e5e07-74d6-4b6b-864f-d125c5ff3450"},"vehicle_type_id":"4","last_reported":1721664647,"current_range_meters":4000,"station_id":"ce4bhc92rcd13ifvqetg","pricing_plan_id":"cebpf4jnsgd1na2vs0mg"},{"bike_id":"72d574d1-5942-46f9-894a-2c8e4a99fee2","system_id":"levelo_inurba_marseille","lat":43.289382,"lon":5.364003,"is_reserved":false,"is_disabled":false,"rental_uris":{"android":"levelo://app?vid=72d574d1-5942-46f9-894a-2c8e4a99fee2","ios":"levelo://app?vid=72d574d1-5942-46f9-894a-2c8e4a99fee2"},"vehicle_type_id":"4","last_reported":1721664647,"current_range_meters":0,"station_id":"ce4bhc92rcd13ifvqetg","pricing_plan_id":"cebpf4jnsgd1na2vs0mg"},{"bike_id":"fd5ddf96-85fe-4a3a-8eb7-396da5d2f40c","system_id":"levelo_inurba_marseille","lat":43.289184,"lon":5.366408,"is_reserved":false,"is_disabled":false,"rental_uris":{"android":"levelo://app?vid=fd5ddf96-85fe-4a3a-8eb7-396da5d2f40c","ios":"levelo://app?vid=fd5ddf96-85fe-4a3a-8eb7-396da5d2f40c"},"vehicle_type_id":"4","last_reported":1721664647,"current_range_meters":11200,"station_id":"ce4bhap2rcd13ifvqek0","pricing_plan_id":"cebpf4jnsgd1na2vs0mg"},{"bike_id":"57bce0fb-9965-4d33-ae86-c1c57bb44b60","system_id":"levelo_inurba_marseille","lat":43.289468,"lon":5.363719,"is_reserved":false,"is_disabled":false,"rental_uris":{"android":"levelo://app?vid=57bce0fb-9965-4d33-ae86-c1c57bb44b60","ios":"levelo://app?vid=57bce0fb-9965-4d33-ae86-c1c57bb44b60"},"vehicle_type_id":"4","last_reported":1721664647,"current_range_meters":24800,"station_id":"ce4bhc92rcd13ifvqetg","pricing_plan_id":"cebpf4jnsgd1na2vs0mg"},{"bike_id":"e79d088f-6e33-4bc5-acca-ec133f9b1e68","system_id":"levelo_inurba_marseille","lat":43.292644,"lon":5.384257,"is_reserved":false,"is_disabled":false,"rental_uris":{"android":"levelo://app?vid=e79d088f-6e33-4bc5-acca-ec133f9b1e68","ios":"levelo://app?vid=e79d088f-6e33-4bc5-acca-ec133f9b1e68"},"vehicle_type_id":"4","last_reported":1721664647,"current_range_meters":23600,"station_id":"ce4bh692rcd13ifvqea0","pricing_plan_id":"cebpf4jnsgd1na2vs0mg"},{"bike_id":"b61782b6-168e-41bb-b019-da7edbb020a9","system_id":"levelo_inurba_marseille","lat":43.29265,"lon":5.38451,"is_reserved":false,"is_disabled":false,"rental_uris":{"android":"levelo://app?vid=b61782b6-168e-41bb-b019-da7edbb020a9","ios":"levelo://app?vid=b61782b6-168e-41bb-b019-da7edbb020a9"},"vehicle_type_id":"4","last_reported":1721664647,"current_range_meters":0,"station_id":"ce4bh692rcd13ifvqea0","pricing_plan_id":"cebpf4jnsgd1na2vs0mg"},{"bike_id":"42ed3bad-d6d3-4301-8056-36eff1ca9dc9","system_id":"levelo_inurba_marseille","lat":43.290104,"lon":5.356111,"is_reserved":false,"is_disabled":false,"rental_uris":{"android":"levelo://app?vid=42ed3bad-d6d3-4301-8056-36eff1ca9dc9","ios":"levelo://app?vid=42ed3bad-d6d3-4301-8056-36eff1ca9dc9"},"vehicle_type_id":"4","last_reported":1721664647,"current_range_meters":10800,"station_id":"ce4bhb92rcd13ifvqen0","pricing_plan_id":"cebpf4jnsgd1na2vs0mg"},{"bike_id":"a0c306e3-06a3-4d39-9c03-494a20fb7494","system_id":"levelo_inurba_marseille","lat":43.290104,"lon":5.356111,"is_reserved":false,"is_disabled":false,"rental_uris":{"android":"levelo://app?vid=a0c306e3-06a3-4d39-9c03-494a20fb7494","ios":"levelo://app?vid=a0c306e3-06a3-4d39-9c03-494a20fb7494"},"vehicle_type_id":"4","last_reported":1721664647,"current_range_meters":23600,"station_id":"ce4bhb92rcd13ifvqen0","pricing_plan_id":"cebpf4jnsgd1na2vs0mg"},{"bike_id":"1f505b20-5d4d-431c-9ebf-4adf2e788573","system_id":"levelo_inurba_marseille","lat":43.290104,"lon":5.356111,"is_reserved":false,"is_disabled":false,"rental_uris":{"android":"levelo://app?vid=1f505b20-5d4d-431c-9ebf-4adf2e788573","ios":"levelo://app?vid=1f505b20-5d4d-431c-9ebf-4adf2e788573"},"vehicle_type_id":"4","last_reported":1721664647,"current_range_meters":4000,"station_id":"ce4bhb92rcd13ifvqen0","pricing_plan_id":"cebpf4jnsgd1na2vs0mg"},{"bike_id":"f621cfa6-9082-413e-a0a4-57077c2f87cc","system_id":"levelo_inurba_marseille","lat":43.29007,"lon":5.3561,"is_reserved":false,"is_disabled":false,"rental_uris":{"android":"levelo://app?vid=f621cfa6-9082-413e-a0a4-57077c2f87cc","ios":"levelo://app?vid=f621cfa6-9082-413e-a0a4-57077c2f87cc"},"vehicle_type_id":"4","last_reported":1721664647,"current_range_meters":0,"station_id":"ce4bhb92rcd13ifvqen0","pricing_plan_id":"cebpf4jnsgd1na2vs0mg"},{"bike_id":"9baf5a4c-c181-4433-a32b-be8fbbb17ba2","system_id":"levelo_inurba_marseille","lat":43.290103,"lon":5.356114,"is_reserved":false,"is_disabled":false,"rental_uris":{"android":"levelo://app?vid=9baf5a4c-c181-4433-a32b-be8fbbb17ba2","ios":"levelo://app?vid=9baf5a4c-c181-4433-a32b-be8fbbb17ba2"},"vehicle_type_id":"4","last_reported":1721664647,"current_range_meters":3200,"station_id":"ce4bhb92rcd13ifvqen0","pricing_plan_id":"cebpf4jnsgd1na2vs0mg"},{"bike_id":"15f1ecbd-1a9e-4023-80d7-70b0122608ac","system_id":"levelo_inurba_marseille","lat":43.290104,"lon":5.356111,"is_reserved":false,"is_disabled":false,"rental_uris":{"android":"levelo://app?vid=15f1ecbd-1a9e-4023-80d7-70b0122608ac","ios":"levelo://app?vid=15f1ecbd-1a9e-4023-80d7-70b0122608ac"},"vehicle_type_id":"4","last_reported":1721664647,"current_range_meters":400,"station_id":"ce4bhb92rcd13ifvqen0","pricing_plan_id":"cebpf4jnsgd1na2vs0mg"},{"bike_id":"5d145826-1429-4c68-800a-4e9fb4fc7c2c","system_id":"levelo_inurba_marseille","lat":43.290104,"lon":5.356111,"is_reserved":false,"is_disabled":false,"rental_uris":{"android":"levelo://app?vid=5d145826-1429-4c68-800a-4e9fb4fc7c2c","ios":"levelo://app?vid=5d145826-1429-4c68-800a-4e9fb4fc7c2c"},"vehicle_type_id":"4","last_reported":1721664647,"current_range_meters":28800,"station_id":"ce4bhb92rcd13ifvqen0","pricing_plan_id":"cebpf4jnsgd1na2vs0mg"},{"bike_id":"72525f9b-d43b-4d59-bc00-b29721f051fb","system_id":"levelo_inurba_marseille","lat":43.290104,"lon":5.356111,"is_reserved":false,"is_disabled":false,"rental_uris":{"android":"levelo://app?vid=72525f9b-d43b-4d59-bc00-b29721f051fb","ios":"levelo://app?vid=72525f9b-d43b-4d59-bc00-b29721f051fb"},"vehicle_type_id":"4","last_reported":1721664647,"current_range_meters":18800,"station_id":"ce4bhb92rcd13ifvqen0","pricing_plan_id":"cebpf4jnsgd1na2vs0mg"},{"bike_id":"57259a47-0ed5-4a13-b421-cb2606af1f33","system_id":"levelo_inurba_marseille","lat":43.290103,"lon":5.356114,"is_reserved":false,"is_disabled":false,"rental_uris":{"android":"levelo://app?vid=57259a47-0ed5-4a13-b421-cb2606af1f33","ios":"levelo://app?vid=57259a47-0ed5-4a13-b421-cb2606af1f33"},"vehicle_type_id":"4","last_reported":1721664647,"current_range_meters":27600,"station_id":"ce4bhb92rcd13ifvqen0","pricing_plan_id":"cebpf4jnsgd1na2vs0mg"},{"bike_id":"43723626-7beb-4e41-bf72-349f60f777b0","system_id":"levelo_inurba_marseille","lat":43.290995,"lon":5.381361,"is_reserved":false,"is_disabled":false,"rental_uris":{"android":"levelo://app?vid=43723626-7beb-4e41-bf72-349f60f777b0","ios":"levelo://app?vid=43723626-7beb-4e41-bf72-349f60f777b0"},"vehicle_type_id":"4","last_reported":1721664647,"current_range_meters":0,"station_id":"ce4bh512rcd13ifvqe2g","pricing_plan_id":"cebpf4jnsgd1na2vs0mg"},{"bike_id":"9e5ee4f4-e094-4f5f-bae6-a062a9a1828e","system_id":"levelo_inurba_marseille","lat":43.289741,"lon":5.378306,"is_reserved":false,"is_disabled":false,"rental_uris":{"android":"levelo://app?vid=9e5ee4f4-e094-4f5f-bae6-a062a9a1828e","ios":"levelo://app?vid=9e5ee4f4-e094-4f5f-bae6-a062a9a1828e"},"vehicle_type_id":"4","last_reported":1721664647,"current_range_meters":11200,"station_id":"ce4bh9p2rcd13ifvqed0","pricing_plan_id":"cebpf4jnsgd1na2vs0mg"},{"bike_id":"e3a94db4-0088-4c6c-b921-9c7de04efd17","system_id":"levelo_inurba_marseille","lat":43.33024,"lon":5.39047,"is_reserved":false,"is_disabled":false,"rental_uris":{"android":"levelo://app?vid=e3a94db4-0088-4c6c-b921-9c7de04efd17","ios":"levelo://app?vid=e3a94db4-0088-4c6c-b921-9c7de04efd17"},"vehicle_type_id":"4","last_reported":1721664647,"current_range_meters":27600,"station_id":"ce4bhr92rcd13ifvqhrg","pricing_plan_id":"cebpf4jnsgd1na2vs0mg"},{"bike_id":"b9372f06-a3e1-4688-b858-4da029d4375d","system_id":"levelo_inurba_marseille","lat":43.330442,"lon":5.389148,"is_reserved":false,"is_disabled":false,"rental_uris":{"android":"levelo://app?vid=b9372f06-a3e1-4688-b858-4da029d4375d","ios":"levelo://app?vid=b9372f06-a3e1-4688-b858-4da029d4375d"},"vehicle_type_id":"4","last_reported":1721664647,"current_range_meters":30400,"station_id":"ce4bhr92rcd13ifvqhrg","pricing_plan_id":"cebpf4jnsgd1na2vs0mg"},{"bike_id":"257f4927-bab0-43e8-ac5e-c7b8c72f0f37","system_id":"levelo_inurba_marseille","lat":43.290103,"lon":5.356114,"is_reserved":false,"is_disabled":false,"rental_uris":{"android":"levelo://app?vid=257f4927-bab0-43e8-ac5e-c7b8c72f0f37","ios":"levelo://app?vid=257f4927-bab0-43e8-ac5e-c7b8c72f0f37"},"vehicle_type_id":"4","last_reported":1721664647,"current_range_meters":8000,"station_id":"ce4bhb92rcd13ifvqen0","pricing_plan_id":"cebpf4jnsgd1na2vs0mg"},{"bike_id":"db7346cb-212e-4d82-95e3-e815ab162370","system_id":"levelo_inurba_marseille","lat":43.310732,"lon":5.400908,"is_reserved":false,"is_disabled":false,"rental_uris":{"android":"levelo://app?vid=db7346cb-212e-4d82-95e3-e815ab162370","ios":"levelo://app?vid=db7346cb-212e-4d82-95e3-e815ab162370"},"vehicle_type_id":"4","last_reported":1721664647,"current_range_meters":30800,"station_id":"","pricing_plan_id":"cebpf4jnsgd1na2vs0mg"},{"bike_id":"cd0a8744-497f-4936-9998-8a2135ab3e31","system_id":"levelo_inurba_marseille","lat":43.310681,"lon":5.400953,"is_reserved":false,"is_disabled":false,"rental_uris":{"android":"levelo://app?vid=cd0a8744-497f-4936-9998-8a2135ab3e31","ios":"levelo://app?vid=cd0a8744-497f-4936-9998-8a2135ab3e31"},"vehicle_type_id":"4","last_reported":1721664647,"current_range_meters":24800,"station_id":"","pricing_plan_id":"cebpf4jnsgd1na2vs0mg"},{"bike_id":"d9b7496a-0704-4ff5-bafe-df4949ad6b32","system_id":"levelo_inurba_marseille","lat":43.312609,"lon":5.401662,"is_reserved":false,"is_disabled":false,"rental_uris":{"android":"levelo://app?vid=d9b7496a-0704-4ff5-bafe-df4949ad6b32","ios":"levelo://app?vid=d9b7496a-0704-4ff5-bafe-df4949ad6b32"},"vehicle_type_id":"4","last_reported":1721664647,"current_range_meters":5200,"station_id":"ce4bh092rcd13ifvqd30","pricing_plan_id":"cebpf4jnsgd1na2vs0mg"},{"bike_id":"8aad4b3a-5383-408e-ab3c-637816395348","system_id":"levelo_inurba_marseille","lat":43.33743,"lon":5.37453,"is_reserved":false,"is_disabled":false,"rental_uris":{"android":"levelo://app?vid=8aad4b3a-5383-408e-ab3c-637816395348","ios":"levelo://app?vid=8aad4b3a-5383-408e-ab3c-637816395348"},"vehicle_type_id":"4","last_reported":1721664647,"current_range_meters":20000,"station_id":"","pricing_plan_id":"cebpf4jnsgd1na2vs0mg"},{"bike_id":"5c6779df-50da-4039-afe4-5ab80f9d1bb6","system_id":"levelo_inurba_marseille","lat":43.309371,"lon":5.401449,"is_reserved":false,"is_disabled":false,"rental_uris":{"android":"levelo://app?vid=5c6779df-50da-4039-afe4-5ab80f9d1bb6","ios":"levelo://app?vid=5c6779df-50da-4039-afe4-5ab80f9d1bb6"},"vehicle_type_id":"4","last_reported":1721664647,"current_range_meters":5200,"station_id":"ce4bgvp2rcd13ifvqct0","pricing_plan_id":"cebpf4jnsgd1na2vs0mg"},{"bike_id":"729da992-572f-4e25-b807-f56a27b5dd22","system_id":"levelo_inurba_marseille","lat":43.33745,"lon":5.37447,"is_reserved":false,"is_disabled":false,"rental_uris":{"android":"levelo://app?vid=729da992-572f-4e25-b807-f56a27b5dd22","ios":"levelo://app?vid=729da992-572f-4e25-b807-f56a27b5dd22"},"vehicle_type_id":"4","last_reported":1721664647,"current_range_meters":16000,"station_id":"","pricing_plan_id":"cebpf4jnsgd1na2vs0mg"},{"bike_id":"e910840e-fcf8-48dd-9c6a-d9ab74995637","system_id":"levelo_inurba_marseille","lat":43.312609,"lon":5.401662,"is_reserved":false,"is_disabled":false,"rental_uris":{"android":"levelo://app?vid=e910840e-fcf8-48dd-9c6a-d9ab74995637","ios":"levelo://app?vid=e910840e-fcf8-48dd-9c6a-d9ab74995637"},"vehicle_type_id":"4","last_reported":1721664647,"current_range_meters":10000,"station_id":"ce4bh092rcd13ifvqd30","pricing_plan_id":"cebpf4jnsgd1na2vs0mg"},{"bike_id":"d30176d3-57cf-4662-85ac-4d2def454fa4","system_id":"levelo_inurba_marseille","lat":43.337497,"lon":5.374523,"is_reserved":false,"is_disabled":false,"rental_uris":{"android":"levelo://app?vid=d30176d3-57cf-4662-85ac-4d2def454fa4","ios":"levelo://app?vid=d30176d3-57cf-4662-85ac-4d2def454fa4"},"vehicle_type_id":"4","last_reported":1721664647,"current_range_meters":26800,"station_id":"","pricing_plan_id":"cebpf4jnsgd1na2vs0mg"},{"bike_id":"5f68fbd1-1c1c-4388-95dd-6cb5f99bb24b","system_id":"levelo_inurba_marseille","lat":43.309371,"lon":5.401449,"is_reserved":false,"is_disabled":false,"rental_uris":{"android":"levelo://app?vid=5f68fbd1-1c1c-4388-95dd-6cb5f99bb24b","ios":"levelo://app?vid=5f68fbd1-1c1c-4388-95dd-6cb5f99bb24b"},"vehicle_type_id":"4","last_reported":1721664647,"current_range_meters":4400,"station_id":"ce4bgvp2rcd13ifvqct0","pricing_plan_id":"cebpf4jnsgd1na2vs0mg"},{"bike_id":"2fa75b7e-def1-4555-95f4-25083259dc68","system_id":"levelo_inurba_marseille","lat":43.33757,"lon":5.37444,"is_reserved":false,"is_disabled":false,"rental_uris":{"android":"levelo://app?vid=2fa75b7e-def1-4555-95f4-25083259dc68","ios":"levelo://app?vid=2fa75b7e-def1-4555-95f4-25083259dc68"},"vehicle_type_id":"4","last_reported":1721664647,"current_range_meters":21200,"station_id":"","pricing_plan_id":"cebpf4jnsgd1na2vs0mg"},{"bike_id":"9ac29022-8b97-4069-a97f-a4e987535e9f","system_id":"levelo_inurba_marseille","lat":43.30644,"lon":5.400817,"is_reserved":false,"is_disabled":false,"rental_uris":{"android":"levelo://app?vid=9ac29022-8b97-4069-a97f-a4e987535e9f","ios":"levelo://app?vid=9ac29022-8b97-4069-a97f-a4e987535e9f"},"vehicle_type_id":"4","last_reported":1721664647,"current_range_meters":18800,"station_id":"ce4bh112rcd13ifvqda0","pricing_plan_id":"cebpf4jnsgd1na2vs0mg"},{"bike_id":"5597d3ad-9e62-46fc-b8ff-1ca2163dbd74","system_id":"levelo_inurba_marseille","lat":43.33755,"lon":5.37483,"is_reserved":false,"is_disabled":false,"rental_uris":{"android":"levelo://app?vid=5597d3ad-9e62-46fc-b8ff-1ca2163dbd74","ios":"levelo://app?vid=5597d3ad-9e62-46fc-b8ff-1ca2163dbd74"},"vehicle_type_id":"4","last_reported":1721664647,"current_range_meters":23200,"station_id":"","pricing_plan_id":"cebpf4jnsgd1na2vs0mg"},{"bike_id":"4eaef2c7-71f5-4744-ab23-cf70bd4039ee","system_id":"levelo_inurba_marseille","lat":43.3376,"lon":5.37456,"is_reserved":false,"is_disabled":false,"rental_uris":{"android":"levelo://app?vid=4eaef2c7-71f5-4744-ab23-cf70bd4039ee","ios":"levelo://app?vid=4eaef2c7-71f5-4744-ab23-cf70bd4039ee"},"vehicle_type_id":"4","last_reported":1721664647,"current_range_meters":24800,"station_id":"","pricing_plan_id":"cebpf4jnsgd1na2vs0mg"},{"bike_id":"192a866a-6f86-404d-812c-31129be9ed74","system_id":"levelo_inurba_marseille","lat":43.3376,"lon":5.37456,"is_reserved":false,"is_disabled":false,"rental_uris":{"android":"levelo://app?vid=192a866a-6f86-404d-812c-31129be9ed74","ios":"levelo://app?vid=192a866a-6f86-404d-812c-31129be9ed74"},"vehicle_type_id":"4","last_reported":1721664647,"current_range_meters":27600,"station_id":"","pricing_plan_id":"cebpf4jnsgd1na2vs0mg"},{"bike_id":"9f4f7a69-64d9-4e57-a016-472cdb89d3bd","system_id":"levelo_inurba_marseille","lat":43.3376,"lon":5.37457,"is_reserved":false,"is_disabled":false,"rental_uris":{"android":"levelo://app?vid=9f4f7a69-64d9-4e57-a016-472cdb89d3bd","ios":"levelo://app?vid=9f4f7a69-64d9-4e57-a016-472cdb89d3bd"},"vehicle_type_id":"4","last_reported":1721664647,"current_range_meters":22800,"station_id":"","pricing_plan_id":"cebpf4jnsgd1na2vs0mg"},{"bike_id":"32870bb8-5e6e-4118-8c47-51e5a70dc57e","system_id":"levelo_inurba_marseille","lat":43.301117,"lon":5.398795,"is_reserved":false,"is_disabled":false,"rental_uris":{"android":"levelo://app?vid=32870bb8-5e6e-4118-8c47-51e5a70dc57e","ios":"levelo://app?vid=32870bb8-5e6e-4118-8c47-51e5a70dc57e"},"vehicle_type_id":"4","last_reported":1721664647,"current_range_meters":6000,"station_id":"ce4bh0h2rcd13ifvqd40","pricing_plan_id":"cebpf4jnsgd1na2vs0mg"},{"bike_id":"4e98896b-6b4d-4242-a2ec-d6222e46c78d","system_id":"levelo_inurba_marseille","lat":43.306412,"lon":5.401035,"is_reserved":false,"is_disabled":false,"rental_uris":{"android":"levelo://app?vid=4e98896b-6b4d-4242-a2ec-d6222e46c78d","ios":"levelo://app?vid=4e98896b-6b4d-4242-a2ec-d6222e46c78d"},"vehicle_type_id":"4","last_reported":1721664647,"current_range_meters":0,"station_id":"ce4bh112rcd13ifvqda0","pricing_plan_id":"cebpf4jnsgd1na2vs0mg"},{"bike_id":"912efc9e-6709-4fe8-8c1e-1646671e33be","system_id":"levelo_inurba_marseille","lat":43.301117,"lon":5.398795,"is_reserved":false,"is_disabled":false,"rental_uris":{"android":"levelo://app?vid=912efc9e-6709-4fe8-8c1e-1646671e33be","ios":"levelo://app?vid=912efc9e-6709-4fe8-8c1e-1646671e33be"},"vehicle_type_id":"4","last_reported":1721664647,"current_range_meters":0,"station_id":"ce4bh0h2rcd13ifvqd40","pricing_plan_id":"cebpf4jnsgd1na2vs0mg"},{"bike_id":"2ba6ddc1-f972-47e0-ad4e-d8da3da4a1ac","system_id":"levelo_inurba_marseille","lat":43.301117,"lon":5.398795,"is_reserved":false,"is_disabled":false,"rental_uris":{"android":"levelo://app?vid=2ba6ddc1-f972-47e0-ad4e-d8da3da4a1ac","ios":"levelo://app?vid=2ba6ddc1-f972-47e0-ad4e-d8da3da4a1ac"},"vehicle_type_id":"4","last_reported":1721664647,"current_range_meters":15600,"station_id":"ce4bh0h2rcd13ifvqd40","pricing_plan_id":"cebpf4jnsgd1na2vs0mg"},{"bike_id":"542f17f4-9171-457b-bf7f-bfbe41eec12d","system_id":"levelo_inurba_marseille","lat":43.30139,"lon":5.39858,"is_reserved":false,"is_disabled":false,"rental_uris":{"android":"levelo://app?vid=542f17f4-9171-457b-bf7f-bfbe41eec12d","ios":"levelo://app?vid=542f17f4-9171-457b-bf7f-bfbe41eec12d"},"vehicle_type_id":"4","last_reported":1721664647,"current_range_meters":4800,"station_id":"ce4bh0h2rcd13ifvqd40","pricing_plan_id":"cebpf4jnsgd1na2vs0mg"},{"bike_id":"ffb92b53-be50-4e8f-9434-2edad57518ab","system_id":"levelo_inurba_marseille","lat":43.28727,"lon":5.36078,"is_reserved":false,"is_disabled":false,"rental_uris":{"android":"levelo://app?vid=ffb92b53-be50-4e8f-9434-2edad57518ab","ios":"levelo://app?vid=ffb92b53-be50-4e8f-9434-2edad57518ab"},"vehicle_type_id":"4","last_reported":1721664647,"current_range_meters":14000,"station_id":"cki0cbj6b192h4jlfktg","pricing_plan_id":"cebpf4jnsgd1na2vs0mg"},{"bike_id":"83e2ff14-eb8f-4b09-bb65-83e14f52b082","system_id":"levelo_inurba_marseille","lat":43.28721,"lon":5.36094,"is_reserved":false,"is_disabled":false,"rental_uris":{"android":"levelo://app?vid=83e2ff14-eb8f-4b09-bb65-83e14f52b082","ios":"levelo://app?vid=83e2ff14-eb8f-4b09-bb65-83e14f52b082"},"vehicle_type_id":"4","last_reported":1721664647,"current_range_meters":16400,"station_id":"","pricing_plan_id":"cebpf4jnsgd1na2vs0mg"},{"bike_id":"b37e5bff-ee84-468c-8199-25af5a78a1e3","system_id":"levelo_inurba_marseille","lat":43.28727,"lon":5.36078,"is_reserved":false,"is_disabled":false,"rental_uris":{"android":"levelo://app?vid=b37e5bff-ee84-468c-8199-25af5a78a1e3","ios":"levelo://app?vid=b37e5bff-ee84-468c-8199-25af5a78a1e3"},"vehicle_type_id":"4","last_reported":1721664647,"current_range_meters":8000,"station_id":"cki0cbj6b192h4jlfktg","pricing_plan_id":"cebpf4jnsgd1na2vs0mg"},{"bike_id":"127dcd74-5685-4ac8-931e-4e90993603d1","system_id":"levelo_inurba_marseille","lat":43.301117,"lon":5.398795,"is_reserved":false,"is_disabled":false,"rental_uris":{"android":"levelo://app?vid=127dcd74-5685-4ac8-931e-4e90993603d1","ios":"levelo://app?vid=127dcd74-5685-4ac8-931e-4e90993603d1"},"vehicle_type_id":"4","last_reported":1721664647,"current_range_meters":1600,"station_id":"ce4bh0h2rcd13ifvqd40","pricing_plan_id":"cebpf4jnsgd1na2vs0mg"},{"bike_id":"21863f93-e7eb-44f6-8f3c-c33da5105737","system_id":"levelo_inurba_marseille","lat":43.29873,"lon":5.3973,"is_reserved":false,"is_disabled":false,"rental_uris":{"android":"levelo://app?vid=21863f93-e7eb-44f6-8f3c-c33da5105737","ios":"levelo://app?vid=21863f93-e7eb-44f6-8f3c-c33da5105737"},"vehicle_type_id":"4","last_reported":1721664647,"current_range_meters":0,"station_id":"ce4bh0h2rcd13ifvqd50","pricing_plan_id":"cebpf4jnsgd1na2vs0mg"},{"bike_id":"a476c9c4-c5c6-405b-93b1-01d15a6fa4ec","system_id":"levelo_inurba_marseille","lat":43.286961,"lon":5.373785,"is_reserved":false,"is_disabled":false,"rental_uris":{"android":"levelo://app?vid=a476c9c4-c5c6-405b-93b1-01d15a6fa4ec","ios":"levelo://app?vid=a476c9c4-c5c6-405b-93b1-01d15a6fa4ec"},"vehicle_type_id":"4","last_reported":1721664647,"current_range_meters":11600,"station_id":"ce4bh3p2rcd13ifvqdq0","pricing_plan_id":"cebpf4jnsgd1na2vs0mg"},{"bike_id":"7a370c18-cd78-4fd7-b137-da9c086b2ca3","system_id":"levelo_inurba_marseille","lat":43.286961,"lon":5.373785,"is_reserved":false,"is_disabled":false,"rental_uris":{"android":"levelo://app?vid=7a370c18-cd78-4fd7-b137-da9c086b2ca3","ios":"levelo://app?vid=7a370c18-cd78-4fd7-b137-da9c086b2ca3"},"vehicle_type_id":"4","last_reported":1721664647,"current_range_meters":7200,"station_id":"ce4bh3p2rcd13ifvqdq0","pricing_plan_id":"cebpf4jnsgd1na2vs0mg"},{"bike_id":"256ad66c-8692-49f8-ba0a-5a79d2bce0fe","system_id":"levelo_inurba_marseille","lat":43.289307,"lon":5.38406,"is_reserved":false,"is_disabled":false,"rental_uris":{"android":"levelo://app?vid=256ad66c-8692-49f8-ba0a-5a79d2bce0fe","ios":"levelo://app?vid=256ad66c-8692-49f8-ba0a-5a79d2bce0fe"},"vehicle_type_id":"4","last_reported":1721664647,"current_range_meters":30400,"station_id":"ce4bh612rcd13ifvqe6g","pricing_plan_id":"cebpf4jnsgd1na2vs0mg"},{"bike_id":"cceb58ad-c78a-4d4e-9062-c05a08011d05","system_id":"levelo_inurba_marseille","lat":43.290336,"lon":5.386425,"is_reserved":false,"is_disabled":false,"rental_uris":{"android":"levelo://app?vid=cceb58ad-c78a-4d4e-9062-c05a08011d05","ios":"levelo://app?vid=cceb58ad-c78a-4d4e-9062-c05a08011d05"},"vehicle_type_id":"4","last_reported":1721664647,"current_range_meters":0,"station_id":"ce4bh4p2rcd13ifvqe0g","pricing_plan_id":"cebpf4jnsgd1na2vs0mg"},{"bike_id":"6e91fd91-a2c1-492a-9fda-d4de62a75286","system_id":"levelo_inurba_marseille","lat":43.286039,"lon":5.370679,"is_reserved":false,"is_disabled":false,"rental_uris":{"android":"levelo://app?vid=6e91fd91-a2c1-492a-9fda-d4de62a75286","ios":"levelo://app?vid=6e91fd91-a2c1-492a-9fda-d4de62a75286"},"vehicle_type_id":"4","last_reported":1721664647,"current_range_meters":26400,"station_id":"ce4bht12rcd13ifvqi60","pricing_plan_id":"cebpf4jnsgd1na2vs0mg"},{"bike_id":"b0f7fb64-756a-49da-93e0-ebb4510f457f","system_id":"levelo_inurba_marseille","lat":43.287184,"lon":5.37937,"is_reserved":false,"is_disabled":false,"rental_uris":{"android":"levelo://app?vid=b0f7fb64-756a-49da-93e0-ebb4510f457f","ios":"levelo://app?vid=b0f7fb64-756a-49da-93e0-ebb4510f457f"},"vehicle_type_id":"4","last_reported":1721664647,"current_range_meters":26000,"station_id":"ce4bh9p2rcd13ifvqec0","pricing_plan_id":"cebpf4jnsgd1na2vs0mg"},{"bike_id":"7a871dda-9912-4586-9952-c8a913d177ce","system_id":"levelo_inurba_marseille","lat":43.287184,"lon":5.37937,"is_reserved":false,"is_disabled":false,"rental_uris":{"android":"levelo://app?vid=7a871dda-9912-4586-9952-c8a913d177ce","ios":"levelo://app?vid=7a871dda-9912-4586-9952-c8a913d177ce"},"vehicle_type_id":"4","last_reported":1721664647,"current_range_meters":19200,"station_id":"ce4bh9p2rcd13ifvqec0","pricing_plan_id":"cebpf4jnsgd1na2vs0mg"},{"bike_id":"0321fbb6-be1d-412d-b2c9-60c5cb75fe21","system_id":"levelo_inurba_marseille","lat":43.316828,"lon":5.404723,"is_reserved":false,"is_disabled":false,"rental_uris":{"android":"levelo://app?vid=0321fbb6-be1d-412d-b2c9-60c5cb75fe21","ios":"levelo://app?vid=0321fbb6-be1d-412d-b2c9-60c5cb75fe21"},"vehicle_type_id":"4","last_reported":1721664647,"current_range_meters":0,"station_id":"ce4bh012rcd13ifvqd00","pricing_plan_id":"cebpf4jnsgd1na2vs0mg"},{"bike_id":"d4763c42-db4a-45cb-ae42-6e4e704a803c","system_id":"levelo_inurba_marseille","lat":43.284538,"lon":5.358657,"is_reserved":false,"is_disabled":false,"rental_uris":{"android":"levelo://app?vid=d4763c42-db4a-45cb-ae42-6e4e704a803c","ios":"levelo://app?vid=d4763c42-db4a-45cb-ae42-6e4e704a803c"},"vehicle_type_id":"4","last_reported":1721664647,"current_range_meters":14400,"station_id":"ce4bhah2rcd13ifvqei0","pricing_plan_id":"cebpf4jnsgd1na2vs0mg"},{"bike_id":"10a7eebe-8e55-4609-8e0e-f1d4b0483fad","system_id":"levelo_inurba_marseille","lat":43.284538,"lon":5.358657,"is_reserved":false,"is_disabled":false,"rental_uris":{"android":"levelo://app?vid=10a7eebe-8e55-4609-8e0e-f1d4b0483fad","ios":"levelo://app?vid=10a7eebe-8e55-4609-8e0e-f1d4b0483fad"},"vehicle_type_id":"4","last_reported":1721664647,"current_range_meters":9200,"station_id":"ce4bhah2rcd13ifvqei0","pricing_plan_id":"cebpf4jnsgd1na2vs0mg"},{"bike_id":"9dfeccf4-e77a-4fba-86ce-8f11b28c0f46","system_id":"levelo_inurba_marseille","lat":43.284538,"lon":5.358657,"is_reserved":false,"is_disabled":false,"rental_uris":{"android":"levelo://app?vid=9dfeccf4-e77a-4fba-86ce-8f11b28c0f46","ios":"levelo://app?vid=9dfeccf4-e77a-4fba-86ce-8f11b28c0f46"},"vehicle_type_id":"4","last_reported":1721664647,"current_range_meters":15200,"station_id":"ce4bhah2rcd13ifvqei0","pricing_plan_id":"cebpf4jnsgd1na2vs0mg"},{"bike_id":"e8d08729-a3de-44eb-b8f5-d16f601d04df","system_id":"levelo_inurba_marseille","lat":43.294314,"lon":5.397498,"is_reserved":false,"is_disabled":false,"rental_uris":{"android":"levelo://app?vid=e8d08729-a3de-44eb-b8f5-d16f601d04df","ios":"levelo://app?vid=e8d08729-a3de-44eb-b8f5-d16f601d04df"},"vehicle_type_id":"4","last_reported":1721664647,"current_range_meters":0,"station_id":"ce4bh3h2rcd13ifvqdo0","pricing_plan_id":"cebpf4jnsgd1na2vs0mg"},{"bike_id":"6e1ab581-7773-47d0-ac7d-0f71b5a182bc","system_id":"levelo_inurba_marseille","lat":43.294314,"lon":5.397498,"is_reserved":false,"is_disabled":false,"rental_uris":{"android":"levelo://app?vid=6e1ab581-7773-47d0-ac7d-0f71b5a182bc","ios":"levelo://app?vid=6e1ab581-7773-47d0-ac7d-0f71b5a182bc"},"vehicle_type_id":"4","last_reported":1721664647,"current_range_meters":2400,"station_id":"ce4bh3h2rcd13ifvqdo0","pricing_plan_id":"cebpf4jnsgd1na2vs0mg"},{"bike_id":"b8f37fdf-8b94-4cc7-aaa7-8b4370eb18e4","system_id":"levelo_inurba_marseille","lat":43.285856,"lon":5.350771,"is_reserved":false,"is_disabled":false,"rental_uris":{"android":"levelo://app?vid=b8f37fdf-8b94-4cc7-aaa7-8b4370eb18e4","ios":"levelo://app?vid=b8f37fdf-8b94-4cc7-aaa7-8b4370eb18e4"},"vehicle_type_id":"4","last_reported":1721664647,"current_range_meters":5200,"station_id":"ce4bhch2rcd13ifvqeug","pricing_plan_id":"cebpf4jnsgd1na2vs0mg"},{"bike_id":"7b9b620b-67d1-42da-a338-63f642706d3c","system_id":"levelo_inurba_marseille","lat":43.28618,"lon":5.35106,"is_reserved":false,"is_disabled":false,"rental_uris":{"android":"levelo://app?vid=7b9b620b-67d1-42da-a338-63f642706d3c","ios":"levelo://app?vid=7b9b620b-67d1-42da-a338-63f642706d3c"},"vehicle_type_id":"4","last_reported":1721664647,"current_range_meters":9600,"station_id":"ce4bhch2rcd13ifvqeug","pricing_plan_id":"cebpf4jnsgd1na2vs0mg"},{"bike_id":"dbdf25c0-12e8-4b4f-be43-32b56fc0fda3","system_id":"levelo_inurba_marseille","lat":43.285856,"lon":5.350771,"is_reserved":false,"is_disabled":false,"rental_uris":{"android":"levelo://app?vid=dbdf25c0-12e8-4b4f-be43-32b56fc0fda3","ios":"levelo://app?vid=dbdf25c0-12e8-4b4f-be43-32b56fc0fda3"},"vehicle_type_id":"4","last_reported":1721664647,"current_range_meters":6400,"station_id":"ce4bhch2rcd13ifvqeug","pricing_plan_id":"cebpf4jnsgd1na2vs0mg"},{"bike_id":"88285ab1-b7af-4e4d-a27f-893d3a8aafee","system_id":"levelo_inurba_marseille","lat":43.28617,"lon":5.35105,"is_reserved":false,"is_disabled":false,"rental_uris":{"android":"levelo://app?vid=88285ab1-b7af-4e4d-a27f-893d3a8aafee","ios":"levelo://app?vid=88285ab1-b7af-4e4d-a27f-893d3a8aafee"},"vehicle_type_id":"4","last_reported":1721664647,"current_range_meters":4800,"station_id":"ce4bhch2rcd13ifvqeug","pricing_plan_id":"cebpf4jnsgd1na2vs0mg"},{"bike_id":"8eb0aa99-1c11-449d-88af-d26db9b37027","system_id":"levelo_inurba_marseille","lat":43.28616,"lon":5.35108,"is_reserved":false,"is_disabled":false,"rental_uris":{"android":"levelo://app?vid=8eb0aa99-1c11-449d-88af-d26db9b37027","ios":"levelo://app?vid=8eb0aa99-1c11-449d-88af-d26db9b37027"},"vehicle_type_id":"4","last_reported":1721664647,"current_range_meters":1600,"station_id":"ce4bhch2rcd13ifvqeug","pricing_plan_id":"cebpf4jnsgd1na2vs0mg"},{"bike_id":"52c5caa7-eab2-4a2e-9544-ca5ef967215e","system_id":"levelo_inurba_marseille","lat":43.28616,"lon":5.35107,"is_reserved":false,"is_disabled":false,"rental_uris":{"android":"levelo://app?vid=52c5caa7-eab2-4a2e-9544-ca5ef967215e","ios":"levelo://app?vid=52c5caa7-eab2-4a2e-9544-ca5ef967215e"},"vehicle_type_id":"4","last_reported":1721664647,"current_range_meters":400,"station_id":"ce4bhch2rcd13ifvqeug","pricing_plan_id":"cebpf4jnsgd1na2vs0mg"},{"bike_id":"201516f5-6b07-4b29-8055-4f7a403c7a96","system_id":"levelo_inurba_marseille","lat":43.28618,"lon":5.351,"is_reserved":false,"is_disabled":false,"rental_uris":{"android":"levelo://app?vid=201516f5-6b07-4b29-8055-4f7a403c7a96","ios":"levelo://app?vid=201516f5-6b07-4b29-8055-4f7a403c7a96"},"vehicle_type_id":"4","last_reported":1721664647,"current_range_meters":0,"station_id":"ce4bhch2rcd13ifvqeug","pricing_plan_id":"cebpf4jnsgd1na2vs0mg"},{"bike_id":"3e2a386a-7d47-4d2c-b20b-8afb5b6c7601","system_id":"levelo_inurba_marseille","lat":43.285856,"lon":5.350771,"is_reserved":false,"is_disabled":false,"rental_uris":{"android":"levelo://app?vid=3e2a386a-7d47-4d2c-b20b-8afb5b6c7601","ios":"levelo://app?vid=3e2a386a-7d47-4d2c-b20b-8afb5b6c7601"},"vehicle_type_id":"4","last_reported":1721664647,"current_range_meters":24000,"station_id":"ce4bhch2rcd13ifvqeug","pricing_plan_id":"cebpf4jnsgd1na2vs0mg"},{"bike_id":"977fdc93-12b7-4607-967c-4c0235a5a2d4","system_id":"levelo_inurba_marseille","lat":43.285848,"lon":5.350787,"is_reserved":false,"is_disabled":false,"rental_uris":{"android":"levelo://app?vid=977fdc93-12b7-4607-967c-4c0235a5a2d4","ios":"levelo://app?vid=977fdc93-12b7-4607-967c-4c0235a5a2d4"},"vehicle_type_id":"4","last_reported":1721664647,"current_range_meters":1200,"station_id":"ce4bhch2rcd13ifvqeug","pricing_plan_id":"cebpf4jnsgd1na2vs0mg"},{"bike_id":"fb51dd4d-80ea-4163-9119-ae0b6f44a1c8","system_id":"levelo_inurba_marseille","lat":43.28615,"lon":5.35102,"is_reserved":false,"is_disabled":false,"rental_uris":{"android":"levelo://app?vid=fb51dd4d-80ea-4163-9119-ae0b6f44a1c8","ios":"levelo://app?vid=fb51dd4d-80ea-4163-9119-ae0b6f44a1c8"},"vehicle_type_id":"4","last_reported":1721664647,"current_range_meters":23200,"station_id":"ce4bhch2rcd13ifvqeug","pricing_plan_id":"cebpf4jnsgd1na2vs0mg"},{"bike_id":"0df38857-2073-498a-aba2-85c7cb171816","system_id":"levelo_inurba_marseille","lat":43.28614,"lon":5.351,"is_reserved":false,"is_disabled":false,"rental_uris":{"android":"levelo://app?vid=0df38857-2073-498a-aba2-85c7cb171816","ios":"levelo://app?vid=0df38857-2073-498a-aba2-85c7cb171816"},"vehicle_type_id":"4","last_reported":1721664647,"current_range_meters":1200,"station_id":"ce4bhch2rcd13ifvqeug","pricing_plan_id":"cebpf4jnsgd1na2vs0mg"},{"bike_id":"09ef0bd5-e4e1-4709-b68f-99eeee3ab66f","system_id":"levelo_inurba_marseille","lat":43.285848,"lon":5.350787,"is_reserved":false,"is_disabled":false,"rental_uris":{"android":"levelo://app?vid=09ef0bd5-e4e1-4709-b68f-99eeee3ab66f","ios":"levelo://app?vid=09ef0bd5-e4e1-4709-b68f-99eeee3ab66f"},"vehicle_type_id":"4","last_reported":1721664647,"current_range_meters":24000,"station_id":"ce4bhch2rcd13ifvqeug","pricing_plan_id":"cebpf4jnsgd1na2vs0mg"},{"bike_id":"07e46bba-970d-4394-8235-d1a1e392ff9e","system_id":"levelo_inurba_marseille","lat":43.283998,"lon":5.375062,"is_reserved":false,"is_disabled":false,"rental_uris":{"android":"levelo://app?vid=07e46bba-970d-4394-8235-d1a1e392ff9e","ios":"levelo://app?vid=07e46bba-970d-4394-8235-d1a1e392ff9e"},"vehicle_type_id":"4","last_reported":1721664647,"current_range_meters":4400,"station_id":"ce4bh412rcd13ifvqds0","pricing_plan_id":"cebpf4jnsgd1na2vs0mg"},{"bike_id":"e5291535-43cd-4072-9083-7762706cc7ce","system_id":"levelo_inurba_marseille","lat":43.285848,"lon":5.350787,"is_reserved":false,"is_disabled":false,"rental_uris":{"android":"levelo://app?vid=e5291535-43cd-4072-9083-7762706cc7ce","ios":"levelo://app?vid=e5291535-43cd-4072-9083-7762706cc7ce"},"vehicle_type_id":"4","last_reported":1721664647,"current_range_meters":20800,"station_id":"ce4bhch2rcd13ifvqeug","pricing_plan_id":"cebpf4jnsgd1na2vs0mg"},{"bike_id":"43155c33-ffd2-4498-8e58-d7621e889acf","system_id":"levelo_inurba_marseille","lat":43.316821,"lon":5.404737,"is_reserved":false,"is_disabled":false,"rental_uris":{"android":"levelo://app?vid=43155c33-ffd2-4498-8e58-d7621e889acf","ios":"levelo://app?vid=43155c33-ffd2-4498-8e58-d7621e889acf"},"vehicle_type_id":"4","last_reported":1721664647,"current_range_meters":24400,"station_id":"ce4bh012rcd13ifvqd00","pricing_plan_id":"cebpf4jnsgd1na2vs0mg"},{"bike_id":"280de502-02d8-4085-b725-4bc72dc2ac5a","system_id":"levelo_inurba_marseille","lat":43.283998,"lon":5.375062,"is_reserved":false,"is_disabled":false,"rental_uris":{"android":"levelo://app?vid=280de502-02d8-4085-b725-4bc72dc2ac5a","ios":"levelo://app?vid=280de502-02d8-4085-b725-4bc72dc2ac5a"},"vehicle_type_id":"4","last_reported":1721664647,"current_range_meters":15600,"station_id":"ce4bh412rcd13ifvqds0","pricing_plan_id":"cebpf4jnsgd1na2vs0mg"},{"bike_id":"56ed91d4-aad9-4de7-8d32-73610d5b67cd","system_id":"levelo_inurba_marseille","lat":43.283998,"lon":5.375062,"is_reserved":false,"is_disabled":false,"rental_uris":{"android":"levelo://app?vid=56ed91d4-aad9-4de7-8d32-73610d5b67cd","ios":"levelo://app?vid=56ed91d4-aad9-4de7-8d32-73610d5b67cd"},"vehicle_type_id":"4","last_reported":1721664647,"current_range_meters":26800,"station_id":"ce4bh412rcd13ifvqds0","pricing_plan_id":"cebpf4jnsgd1na2vs0mg"},{"bike_id":"cc3fb089-8d0e-4dd9-9c4d-a61717135a41","system_id":"levelo_inurba_marseille","lat":43.283998,"lon":5.375062,"is_reserved":false,"is_disabled":false,"rental_uris":{"android":"levelo://app?vid=cc3fb089-8d0e-4dd9-9c4d-a61717135a41","ios":"levelo://app?vid=cc3fb089-8d0e-4dd9-9c4d-a61717135a41"},"vehicle_type_id":"4","last_reported":1721664647,"current_range_meters":0,"station_id":"ce4bh412rcd13ifvqds0","pricing_plan_id":"cebpf4jnsgd1na2vs0mg"},{"bike_id":"4f2a7a5e-fcd2-403f-9414-1605ca3400fa","system_id":"levelo_inurba_marseille","lat":43.295713,"lon":5.399639,"is_reserved":false,"is_disabled":false,"rental_uris":{"android":"levelo://app?vid=4f2a7a5e-fcd2-403f-9414-1605ca3400fa","ios":"levelo://app?vid=4f2a7a5e-fcd2-403f-9414-1605ca3400fa"},"vehicle_type_id":"4","last_reported":1721664647,"current_range_meters":2400,"station_id":"ce4bh312rcd13ifvqdj0","pricing_plan_id":"cebpf4jnsgd1na2vs0mg"},{"bike_id":"1f40643c-3356-4af7-9999-bde4b30c0aec","system_id":"levelo_inurba_marseille","lat":43.283998,"lon":5.375062,"is_reserved":false,"is_disabled":false,"rental_uris":{"android":"levelo://app?vid=1f40643c-3356-4af7-9999-bde4b30c0aec","ios":"levelo://app?vid=1f40643c-3356-4af7-9999-bde4b30c0aec"},"vehicle_type_id":"4","last_reported":1721664647,"current_range_meters":8000,"station_id":"ce4bh412rcd13ifvqds0","pricing_plan_id":"cebpf4jnsgd1na2vs0mg"},{"bike_id":"46ba3346-7289-4170-b721-b7d8a6fa6cca","system_id":"levelo_inurba_marseille","lat":43.283998,"lon":5.375062,"is_reserved":false,"is_disabled":false,"rental_uris":{"android":"levelo://app?vid=46ba3346-7289-4170-b721-b7d8a6fa6cca","ios":"levelo://app?vid=46ba3346-7289-4170-b721-b7d8a6fa6cca"},"vehicle_type_id":"4","last_reported":1721664647,"current_range_meters":10400,"station_id":"ce4bh412rcd13ifvqds0","pricing_plan_id":"cebpf4jnsgd1na2vs0mg"},{"bike_id":"8f3a7e8e-a095-4b0e-80e8-e37ddf60dbd8","system_id":"levelo_inurba_marseille","lat":43.283998,"lon":5.375062,"is_reserved":false,"is_disabled":false,"rental_uris":{"android":"levelo://app?vid=8f3a7e8e-a095-4b0e-80e8-e37ddf60dbd8","ios":"levelo://app?vid=8f3a7e8e-a095-4b0e-80e8-e37ddf60dbd8"},"vehicle_type_id":"4","last_reported":1721664647,"current_range_meters":19200,"station_id":"ce4bh412rcd13ifvqds0","pricing_plan_id":"cebpf4jnsgd1na2vs0mg"},{"bike_id":"ecf70f86-2a87-4825-98e6-42db1f69efaa","system_id":"levelo_inurba_marseille","lat":43.28681,"lon":5.38659,"is_reserved":false,"is_disabled":false,"rental_uris":{"android":"levelo://app?vid=ecf70f86-2a87-4825-98e6-42db1f69efaa","ios":"levelo://app?vid=ecf70f86-2a87-4825-98e6-42db1f69efaa"},"vehicle_type_id":"4","last_reported":1721664647,"current_range_meters":0,"station_id":"ce4bh492rcd13ifvqdug","pricing_plan_id":"cebpf4jnsgd1na2vs0mg"},{"bike_id":"c5b52362-45cf-45a0-8407-e7339c4a07c2","system_id":"levelo_inurba_marseille","lat":43.3234,"lon":5.406184,"is_reserved":false,"is_disabled":false,"rental_uris":{"android":"levelo://app?vid=c5b52362-45cf-45a0-8407-e7339c4a07c2","ios":"levelo://app?vid=c5b52362-45cf-45a0-8407-e7339c4a07c2"},"vehicle_type_id":"4","last_reported":1721664647,"current_range_meters":10000,"station_id":"ce4bhq92rcd13ifvqhjg","pricing_plan_id":"cebpf4jnsgd1na2vs0mg"},{"bike_id":"3d2a829e-bb79-4e68-8975-83d3bc392cd0","system_id":"levelo_inurba_marseille","lat":43.323464,"lon":5.406297,"is_reserved":false,"is_disabled":false,"rental_uris":{"android":"levelo://app?vid=3d2a829e-bb79-4e68-8975-83d3bc392cd0","ios":"levelo://app?vid=3d2a829e-bb79-4e68-8975-83d3bc392cd0"},"vehicle_type_id":"4","last_reported":1721664647,"current_range_meters":9200,"station_id":"ce4bhq92rcd13ifvqhjg","pricing_plan_id":"cebpf4jnsgd1na2vs0mg"},{"bike_id":"2f1ec32b-df94-4bc0-bcc3-c4754846ea80","system_id":"levelo_inurba_marseille","lat":43.33717,"lon":5.391857,"is_reserved":false,"is_disabled":false,"rental_uris":{"android":"levelo://app?vid=2f1ec32b-df94-4bc0-bcc3-c4754846ea80","ios":"levelo://app?vid=2f1ec32b-df94-4bc0-bcc3-c4754846ea80"},"vehicle_type_id":"4","last_reported":1721664647,"current_range_meters":6800,"station_id":"ce4bhr92rcd13ifvqhsg","pricing_plan_id":"cebpf4jnsgd1na2vs0mg"},{"bike_id":"d89452de-e8f1-4b8e-b9ea-d7773fc714df","system_id":"levelo_inurba_marseille","lat":43.283494,"lon":5.380945,"is_reserved":false,"is_disabled":false,"rental_uris":{"android":"levelo://app?vid=d89452de-e8f1-4b8e-b9ea-d7773fc714df","ios":"levelo://app?vid=d89452de-e8f1-4b8e-b9ea-d7773fc714df"},"vehicle_type_id":"4","last_reported":1721664647,"current_range_meters":13600,"station_id":"ce4bh412rcd13ifvqdr0","pricing_plan_id":"cebpf4jnsgd1na2vs0mg"},{"bike_id":"ea2f1790-d143-455e-a743-35cab750887c","system_id":"levelo_inurba_marseille","lat":43.284219,"lon":5.3497,"is_reserved":false,"is_disabled":false,"rental_uris":{"android":"levelo://app?vid=ea2f1790-d143-455e-a743-35cab750887c","ios":"levelo://app?vid=ea2f1790-d143-455e-a743-35cab750887c"},"vehicle_type_id":"4","last_reported":1721664647,"current_range_meters":22400,"station_id":"ce4bhbh2rcd13ifvqepg","pricing_plan_id":"cebpf4jnsgd1na2vs0mg"},{"bike_id":"f157b4e9-5ad3-4440-ab75-6d7c25dbe143","system_id":"levelo_inurba_marseille","lat":43.284219,"lon":5.3497,"is_reserved":false,"is_disabled":false,"rental_uris":{"android":"levelo://app?vid=f157b4e9-5ad3-4440-ab75-6d7c25dbe143","ios":"levelo://app?vid=f157b4e9-5ad3-4440-ab75-6d7c25dbe143"},"vehicle_type_id":"4","last_reported":1721664647,"current_range_meters":23600,"station_id":"ce4bhbh2rcd13ifvqepg","pricing_plan_id":"cebpf4jnsgd1na2vs0mg"},{"bike_id":"2d0d31c2-7a21-42e4-b5b6-c276cb1ec405","system_id":"levelo_inurba_marseille","lat":43.284776,"lon":5.385603,"is_reserved":false,"is_disabled":false,"rental_uris":{"android":"levelo://app?vid=2d0d31c2-7a21-42e4-b5b6-c276cb1ec405","ios":"levelo://app?vid=2d0d31c2-7a21-42e4-b5b6-c276cb1ec405"},"vehicle_type_id":"4","last_reported":1721664647,"current_range_meters":19600,"station_id":"ce4bh8p2rcd13ifvqeb0","pricing_plan_id":"cebpf4jnsgd1na2vs0mg"},{"bike_id":"63915c75-0574-4687-a081-c7c3c48632a5","system_id":"levelo_inurba_marseille","lat":43.283494,"lon":5.380945,"is_reserved":false,"is_disabled":false,"rental_uris":{"android":"levelo://app?vid=63915c75-0574-4687-a081-c7c3c48632a5","ios":"levelo://app?vid=63915c75-0574-4687-a081-c7c3c48632a5"},"vehicle_type_id":"4","last_reported":1721664647,"current_range_meters":20000,"station_id":"ce4bh412rcd13ifvqdr0","pricing_plan_id":"cebpf4jnsgd1na2vs0mg"},{"bike_id":"77a0eb7d-259d-4dcc-a5f6-ed10e64299af","system_id":"levelo_inurba_marseille","lat":43.284219,"lon":5.3497,"is_reserved":false,"is_disabled":false,"rental_uris":{"android":"levelo://app?vid=77a0eb7d-259d-4dcc-a5f6-ed10e64299af","ios":"levelo://app?vid=77a0eb7d-259d-4dcc-a5f6-ed10e64299af"},"vehicle_type_id":"4","last_reported":1721664647,"current_range_meters":30800,"station_id":"ce4bhbh2rcd13ifvqepg","pricing_plan_id":"cebpf4jnsgd1na2vs0mg"},{"bike_id":"88634380-ce65-42e4-b9e5-6ef2183e6b72","system_id":"levelo_inurba_marseille","lat":43.28426,"lon":5.34993,"is_reserved":false,"is_disabled":false,"rental_uris":{"android":"levelo://app?vid=88634380-ce65-42e4-b9e5-6ef2183e6b72","ios":"levelo://app?vid=88634380-ce65-42e4-b9e5-6ef2183e6b72"},"vehicle_type_id":"4","last_reported":1721664647,"current_range_meters":12800,"station_id":"ce4bhbh2rcd13ifvqepg","pricing_plan_id":"cebpf4jnsgd1na2vs0mg"},{"bike_id":"39968a2c-1fb0-488c-a2f4-559a5c61c96d","system_id":"levelo_inurba_marseille","lat":43.284219,"lon":5.3497,"is_reserved":false,"is_disabled":false,"rental_uris":{"android":"levelo://app?vid=39968a2c-1fb0-488c-a2f4-559a5c61c96d","ios":"levelo://app?vid=39968a2c-1fb0-488c-a2f4-559a5c61c96d"},"vehicle_type_id":"4","last_reported":1721664647,"current_range_meters":32000,"station_id":"ce4bhbh2rcd13ifvqepg","pricing_plan_id":"cebpf4jnsgd1na2vs0mg"},{"bike_id":"5c7f31e3-3ef5-4fce-b3ba-4748de3d06fb","system_id":"levelo_inurba_marseille","lat":43.284211,"lon":5.350059,"is_reserved":false,"is_disabled":false,"rental_uris":{"android":"levelo://app?vid=5c7f31e3-3ef5-4fce-b3ba-4748de3d06fb","ios":"levelo://app?vid=5c7f31e3-3ef5-4fce-b3ba-4748de3d06fb"},"vehicle_type_id":"4","last_reported":1721664647,"current_range_meters":17600,"station_id":"ce4bhbh2rcd13ifvqepg","pricing_plan_id":"cebpf4jnsgd1na2vs0mg"},{"bike_id":"2b502cd4-4e57-45e7-a8c8-eec8c626e3bc","system_id":"levelo_inurba_marseille","lat":43.284219,"lon":5.3497,"is_reserved":false,"is_disabled":false,"rental_uris":{"android":"levelo://app?vid=2b502cd4-4e57-45e7-a8c8-eec8c626e3bc","ios":"levelo://app?vid=2b502cd4-4e57-45e7-a8c8-eec8c626e3bc"},"vehicle_type_id":"4","last_reported":1721664647,"current_range_meters":28400,"station_id":"ce4bhbh2rcd13ifvqepg","pricing_plan_id":"cebpf4jnsgd1na2vs0mg"},{"bike_id":"01719bff-14fa-4122-840f-31bf9883fb9b","system_id":"levelo_inurba_marseille","lat":43.284219,"lon":5.3497,"is_reserved":false,"is_disabled":false,"rental_uris":{"android":"levelo://app?vid=01719bff-14fa-4122-840f-31bf9883fb9b","ios":"levelo://app?vid=01719bff-14fa-4122-840f-31bf9883fb9b"},"vehicle_type_id":"4","last_reported":1721664647,"current_range_meters":24000,"station_id":"ce4bhbh2rcd13ifvqepg","pricing_plan_id":"cebpf4jnsgd1na2vs0mg"},{"bike_id":"965a7451-b428-44da-bb4b-3e9eb059f318","system_id":"levelo_inurba_marseille","lat":43.284219,"lon":5.3497,"is_reserved":false,"is_disabled":false,"rental_uris":{"android":"levelo://app?vid=965a7451-b428-44da-bb4b-3e9eb059f318","ios":"levelo://app?vid=965a7451-b428-44da-bb4b-3e9eb059f318"},"vehicle_type_id":"4","last_reported":1721664647,"current_range_meters":32000,"station_id":"ce4bhbh2rcd13ifvqepg","pricing_plan_id":"cebpf4jnsgd1na2vs0mg"},{"bike_id":"0c297fa9-6b34-4eb4-8ffe-89fa18a517c8","system_id":"levelo_inurba_marseille","lat":43.284219,"lon":5.3497,"is_reserved":false,"is_disabled":false,"rental_uris":{"android":"levelo://app?vid=0c297fa9-6b34-4eb4-8ffe-89fa18a517c8","ios":"levelo://app?vid=0c297fa9-6b34-4eb4-8ffe-89fa18a517c8"},"vehicle_type_id":"4","last_reported":1721664647,"current_range_meters":15600,"station_id":"ce4bhbh2rcd13ifvqepg","pricing_plan_id":"cebpf4jnsgd1na2vs0mg"},{"bike_id":"92f6c048-4535-49f1-b3d7-db72867d1d38","system_id":"levelo_inurba_marseille","lat":43.284204,"lon":5.349954,"is_reserved":false,"is_disabled":false,"rental_uris":{"android":"levelo://app?vid=92f6c048-4535-49f1-b3d7-db72867d1d38","ios":"levelo://app?vid=92f6c048-4535-49f1-b3d7-db72867d1d38"},"vehicle_type_id":"4","last_reported":1721664647,"current_range_meters":30800,"station_id":"ce4bhbh2rcd13ifvqepg","pricing_plan_id":"cebpf4jnsgd1na2vs0mg"},{"bike_id":"eaa36c80-68e8-406c-8e36-81a7c389ec01","system_id":"levelo_inurba_marseille","lat":43.284219,"lon":5.3497,"is_reserved":false,"is_disabled":false,"rental_uris":{"android":"levelo://app?vid=eaa36c80-68e8-406c-8e36-81a7c389ec01","ios":"levelo://app?vid=eaa36c80-68e8-406c-8e36-81a7c389ec01"},"vehicle_type_id":"4","last_reported":1721664647,"current_range_meters":8800,"station_id":"ce4bhbh2rcd13ifvqepg","pricing_plan_id":"cebpf4jnsgd1na2vs0mg"},{"bike_id":"3a94babe-bbaf-43cb-afc2-61136e833c85","system_id":"levelo_inurba_marseille","lat":43.284246,"lon":5.349811,"is_reserved":false,"is_disabled":false,"rental_uris":{"android":"levelo://app?vid=3a94babe-bbaf-43cb-afc2-61136e833c85","ios":"levelo://app?vid=3a94babe-bbaf-43cb-afc2-61136e833c85"},"vehicle_type_id":"4","last_reported":1721664647,"current_range_meters":22400,"station_id":"ce4bhbh2rcd13ifvqepg","pricing_plan_id":"cebpf4jnsgd1na2vs0mg"},{"bike_id":"b221b380-0549-4c3c-b42c-9d6dddb8e808","system_id":"levelo_inurba_marseille","lat":43.28422,"lon":5.34989,"is_reserved":false,"is_disabled":false,"rental_uris":{"android":"levelo://app?vid=b221b380-0549-4c3c-b42c-9d6dddb8e808","ios":"levelo://app?vid=b221b380-0549-4c3c-b42c-9d6dddb8e808"},"vehicle_type_id":"4","last_reported":1721664647,"current_range_meters":30000,"station_id":"ce4bhbh2rcd13ifvqepg","pricing_plan_id":"cebpf4jnsgd1na2vs0mg"},{"bike_id":"8a85bd17-39a2-4386-ac53-a91dcef8784c","system_id":"levelo_inurba_marseille","lat":43.28421,"lon":5.34992,"is_reserved":false,"is_disabled":false,"rental_uris":{"android":"levelo://app?vid=8a85bd17-39a2-4386-ac53-a91dcef8784c","ios":"levelo://app?vid=8a85bd17-39a2-4386-ac53-a91dcef8784c"},"vehicle_type_id":"4","last_reported":1721664647,"current_range_meters":7200,"station_id":"ce4bhbh2rcd13ifvqepg","pricing_plan_id":"cebpf4jnsgd1na2vs0mg"},{"bike_id":"50712cbc-47c9-4767-bd9f-284d8f8cfeb9","system_id":"levelo_inurba_marseille","lat":43.284227,"lon":5.349863,"is_reserved":false,"is_disabled":false,"rental_uris":{"android":"levelo://app?vid=50712cbc-47c9-4767-bd9f-284d8f8cfeb9","ios":"levelo://app?vid=50712cbc-47c9-4767-bd9f-284d8f8cfeb9"},"vehicle_type_id":"4","last_reported":1721664647,"current_range_meters":800,"station_id":"ce4bhbh2rcd13ifvqepg","pricing_plan_id":"cebpf4jnsgd1na2vs0mg"},{"bike_id":"f9a43cc8-3e88-47c2-93a8-f61ff586b2f2","system_id":"levelo_inurba_marseille","lat":43.28422,"lon":5.34988,"is_reserved":false,"is_disabled":false,"rental_uris":{"android":"levelo://app?vid=f9a43cc8-3e88-47c2-93a8-f61ff586b2f2","ios":"levelo://app?vid=f9a43cc8-3e88-47c2-93a8-f61ff586b2f2"},"vehicle_type_id":"4","last_reported":1721664647,"current_range_meters":28000,"station_id":"ce4bhbh2rcd13ifvqepg","pricing_plan_id":"cebpf4jnsgd1na2vs0mg"},{"bike_id":"09146f52-3373-465e-9a12-1a419da61067","system_id":"levelo_inurba_marseille","lat":43.284219,"lon":5.3497,"is_reserved":false,"is_disabled":false,"rental_uris":{"android":"levelo://app?vid=09146f52-3373-465e-9a12-1a419da61067","ios":"levelo://app?vid=09146f52-3373-465e-9a12-1a419da61067"},"vehicle_type_id":"4","last_reported":1721664647,"current_range_meters":30800,"station_id":"ce4bhbh2rcd13ifvqepg","pricing_plan_id":"cebpf4jnsgd1na2vs0mg"},{"bike_id":"bd844829-dbf4-42dc-b785-d83e9d2eaae1","system_id":"levelo_inurba_marseille","lat":43.284217,"lon":5.349697,"is_reserved":false,"is_disabled":false,"rental_uris":{"android":"levelo://app?vid=bd844829-dbf4-42dc-b785-d83e9d2eaae1","ios":"levelo://app?vid=bd844829-dbf4-42dc-b785-d83e9d2eaae1"},"vehicle_type_id":"4","last_reported":1721664647,"current_range_meters":30800,"station_id":"ce4bhbh2rcd13ifvqepg","pricing_plan_id":"cebpf4jnsgd1na2vs0mg"},{"bike_id":"6a6d25dd-5446-46b4-abfd-b55ae1a14b49","system_id":"levelo_inurba_marseille","lat":43.284219,"lon":5.3497,"is_reserved":false,"is_disabled":false,"rental_uris":{"android":"levelo://app?vid=6a6d25dd-5446-46b4-abfd-b55ae1a14b49","ios":"levelo://app?vid=6a6d25dd-5446-46b4-abfd-b55ae1a14b49"},"vehicle_type_id":"4","last_reported":1721664647,"current_range_meters":30400,"station_id":"ce4bhbh2rcd13ifvqepg","pricing_plan_id":"cebpf4jnsgd1na2vs0mg"},{"bike_id":"d59f83f6-298f-4b7e-acee-3782f700593d","system_id":"levelo_inurba_marseille","lat":43.28418,"lon":5.34989,"is_reserved":false,"is_disabled":false,"rental_uris":{"android":"levelo://app?vid=d59f83f6-298f-4b7e-acee-3782f700593d","ios":"levelo://app?vid=d59f83f6-298f-4b7e-acee-3782f700593d"},"vehicle_type_id":"4","last_reported":1721664647,"current_range_meters":0,"station_id":"ce4bhbh2rcd13ifvqepg","pricing_plan_id":"cebpf4jnsgd1na2vs0mg"},{"bike_id":"48a2942e-ed29-4327-a0b9-58768b529993","system_id":"levelo_inurba_marseille","lat":43.28416,"lon":5.349941,"is_reserved":false,"is_disabled":false,"rental_uris":{"android":"levelo://app?vid=48a2942e-ed29-4327-a0b9-58768b529993","ios":"levelo://app?vid=48a2942e-ed29-4327-a0b9-58768b529993"},"vehicle_type_id":"4","last_reported":1721664647,"current_range_meters":31200,"station_id":"ce4bhbh2rcd13ifvqepg","pricing_plan_id":"cebpf4jnsgd1na2vs0mg"},{"bike_id":"15aaf9bd-7dd4-402c-b647-769f2e662456","system_id":"levelo_inurba_marseille","lat":43.28419,"lon":5.34984,"is_reserved":false,"is_disabled":false,"rental_uris":{"android":"levelo://app?vid=15aaf9bd-7dd4-402c-b647-769f2e662456","ios":"levelo://app?vid=15aaf9bd-7dd4-402c-b647-769f2e662456"},"vehicle_type_id":"4","last_reported":1721664647,"current_range_meters":0,"station_id":"ce4bhbh2rcd13ifvqepg","pricing_plan_id":"cebpf4jnsgd1na2vs0mg"},{"bike_id":"908bd6b8-a1cd-4d10-8cc0-a951a12e79f5","system_id":"levelo_inurba_marseille","lat":43.28417,"lon":5.34989,"is_reserved":false,"is_disabled":false,"rental_uris":{"android":"levelo://app?vid=908bd6b8-a1cd-4d10-8cc0-a951a12e79f5","ios":"levelo://app?vid=908bd6b8-a1cd-4d10-8cc0-a951a12e79f5"},"vehicle_type_id":"4","last_reported":1721664647,"current_range_meters":6400,"station_id":"ce4bhbh2rcd13ifvqepg","pricing_plan_id":"cebpf4jnsgd1na2vs0mg"},{"bike_id":"6847ad3f-e3f7-4385-b84e-5bd2d827bbce","system_id":"levelo_inurba_marseille","lat":43.28413,"lon":5.34998,"is_reserved":false,"is_disabled":false,"rental_uris":{"android":"levelo://app?vid=6847ad3f-e3f7-4385-b84e-5bd2d827bbce","ios":"levelo://app?vid=6847ad3f-e3f7-4385-b84e-5bd2d827bbce"},"vehicle_type_id":"4","last_reported":1721664647,"current_range_meters":31200,"station_id":"ce4bhbh2rcd13ifvqepg","pricing_plan_id":"cebpf4jnsgd1na2vs0mg"},{"bike_id":"644caec1-c7b5-4e4c-8a19-e8383dd34e0b","system_id":"levelo_inurba_marseille","lat":43.284217,"lon":5.349697,"is_reserved":false,"is_disabled":false,"rental_uris":{"android":"levelo://app?vid=644caec1-c7b5-4e4c-8a19-e8383dd34e0b","ios":"levelo://app?vid=644caec1-c7b5-4e4c-8a19-e8383dd34e0b"},"vehicle_type_id":"4","last_reported":1721664647,"current_range_meters":28800,"station_id":"ce4bhbh2rcd13ifvqepg","pricing_plan_id":"cebpf4jnsgd1na2vs0mg"},{"bike_id":"6fb3880c-31b4-4d51-b56e-33572125e6e2","system_id":"levelo_inurba_marseille","lat":43.284129,"lon":5.349953,"is_reserved":false,"is_disabled":false,"rental_uris":{"android":"levelo://app?vid=6fb3880c-31b4-4d51-b56e-33572125e6e2","ios":"levelo://app?vid=6fb3880c-31b4-4d51-b56e-33572125e6e2"},"vehicle_type_id":"4","last_reported":1721664647,"current_range_meters":18800,"station_id":"ce4bhbh2rcd13ifvqepg","pricing_plan_id":"cebpf4jnsgd1na2vs0mg"},{"bike_id":"e90c0320-1684-46c0-b4a9-43d0e907c70c","system_id":"levelo_inurba_marseille","lat":43.28418,"lon":5.34977,"is_reserved":false,"is_disabled":false,"rental_uris":{"android":"levelo://app?vid=e90c0320-1684-46c0-b4a9-43d0e907c70c","ios":"levelo://app?vid=e90c0320-1684-46c0-b4a9-43d0e907c70c"},"vehicle_type_id":"4","last_reported":1721664647,"current_range_meters":9600,"station_id":"ce4bhbh2rcd13ifvqepg","pricing_plan_id":"cebpf4jnsgd1na2vs0mg"},{"bike_id":"c6d47428-3308-47e6-bde6-5183b4e72fb0","system_id":"levelo_inurba_marseille","lat":43.28417,"lon":5.34979,"is_reserved":false,"is_disabled":false,"rental_uris":{"android":"levelo://app?vid=c6d47428-3308-47e6-bde6-5183b4e72fb0","ios":"levelo://app?vid=c6d47428-3308-47e6-bde6-5183b4e72fb0"},"vehicle_type_id":"4","last_reported":1721664647,"current_range_meters":10800,"station_id":"ce4bhbh2rcd13ifvqepg","pricing_plan_id":"cebpf4jnsgd1na2vs0mg"},{"bike_id":"4545732a-05ee-4dae-8227-7fdaad2d8394","system_id":"levelo_inurba_marseille","lat":43.28418,"lon":5.34975,"is_reserved":false,"is_disabled":false,"rental_uris":{"android":"levelo://app?vid=4545732a-05ee-4dae-8227-7fdaad2d8394","ios":"levelo://app?vid=4545732a-05ee-4dae-8227-7fdaad2d8394"},"vehicle_type_id":"4","last_reported":1721664647,"current_range_meters":20000,"station_id":"ce4bhbh2rcd13ifvqepg","pricing_plan_id":"cebpf4jnsgd1na2vs0mg"},{"bike_id":"584e988e-42e0-484f-b027-978047d858a8","system_id":"levelo_inurba_marseille","lat":43.284101,"lon":5.349963,"is_reserved":false,"is_disabled":false,"rental_uris":{"android":"levelo://app?vid=584e988e-42e0-484f-b027-978047d858a8","ios":"levelo://app?vid=584e988e-42e0-484f-b027-978047d858a8"},"vehicle_type_id":"4","last_reported":1721664647,"current_range_meters":14000,"station_id":"ce4bhbh2rcd13ifvqepg","pricing_plan_id":"cebpf4jnsgd1na2vs0mg"},{"bike_id":"bdf14f31-cedc-4a6b-bde6-10f2f34258d3","system_id":"levelo_inurba_marseille","lat":43.284219,"lon":5.3497,"is_reserved":false,"is_disabled":false,"rental_uris":{"android":"levelo://app?vid=bdf14f31-cedc-4a6b-bde6-10f2f34258d3","ios":"levelo://app?vid=bdf14f31-cedc-4a6b-bde6-10f2f34258d3"},"vehicle_type_id":"4","last_reported":1721664647,"current_range_meters":6400,"station_id":"ce4bhbh2rcd13ifvqepg","pricing_plan_id":"cebpf4jnsgd1na2vs0mg"},{"bike_id":"c519ff1b-24f1-4158-87e6-8c1444f637a9","system_id":"levelo_inurba_marseille","lat":43.28416,"lon":5.34976,"is_reserved":false,"is_disabled":false,"rental_uris":{"android":"levelo://app?vid=c519ff1b-24f1-4158-87e6-8c1444f637a9","ios":"levelo://app?vid=c519ff1b-24f1-4158-87e6-8c1444f637a9"},"vehicle_type_id":"4","last_reported":1721664647,"current_range_meters":20000,"station_id":"ce4bhbh2rcd13ifvqepg","pricing_plan_id":"cebpf4jnsgd1na2vs0mg"},{"bike_id":"32a24f0a-0472-436d-a024-c5075efa8f65","system_id":"levelo_inurba_marseille","lat":43.28413,"lon":5.34978,"is_reserved":false,"is_disabled":false,"rental_uris":{"android":"levelo://app?vid=32a24f0a-0472-436d-a024-c5075efa8f65","ios":"levelo://app?vid=32a24f0a-0472-436d-a024-c5075efa8f65"},"vehicle_type_id":"4","last_reported":1721664647,"current_range_meters":0,"station_id":"ce4bhbh2rcd13ifvqepg","pricing_plan_id":"cebpf4jnsgd1na2vs0mg"},{"bike_id":"93b0751b-6809-432d-ba60-b395dc8a06d8","system_id":"levelo_inurba_marseille","lat":43.28412,"lon":5.34974,"is_reserved":false,"is_disabled":false,"rental_uris":{"android":"levelo://app?vid=93b0751b-6809-432d-ba60-b395dc8a06d8","ios":"levelo://app?vid=93b0751b-6809-432d-ba60-b395dc8a06d8"},"vehicle_type_id":"4","last_reported":1721664647,"current_range_meters":0,"station_id":"ce4bhbh2rcd13ifvqepg","pricing_plan_id":"cebpf4jnsgd1na2vs0mg"},{"bike_id":"76e1cce3-1c12-47cd-a7f3-63998fe9f3e1","system_id":"levelo_inurba_marseille","lat":43.2841,"lon":5.34978,"is_reserved":false,"is_disabled":false,"rental_uris":{"android":"levelo://app?vid=76e1cce3-1c12-47cd-a7f3-63998fe9f3e1","ios":"levelo://app?vid=76e1cce3-1c12-47cd-a7f3-63998fe9f3e1"},"vehicle_type_id":"4","last_reported":1721664647,"current_range_meters":16000,"station_id":"ce4bhbh2rcd13ifvqepg","pricing_plan_id":"cebpf4jnsgd1na2vs0mg"},{"bike_id":"3214fcc5-d306-4a6a-8695-a17a8f82b60f","system_id":"levelo_inurba_marseille","lat":43.28409,"lon":5.34978,"is_reserved":false,"is_disabled":false,"rental_uris":{"android":"levelo://app?vid=3214fcc5-d306-4a6a-8695-a17a8f82b60f","ios":"levelo://app?vid=3214fcc5-d306-4a6a-8695-a17a8f82b60f"},"vehicle_type_id":"4","last_reported":1721664647,"current_range_meters":21600,"station_id":"ce4bhbh2rcd13ifvqepg","pricing_plan_id":"cebpf4jnsgd1na2vs0mg"},{"bike_id":"9790598b-069c-4bcd-8619-0d8aa6f2f2fc","system_id":"levelo_inurba_marseille","lat":43.28407,"lon":5.349797,"is_reserved":false,"is_disabled":false,"rental_uris":{"android":"levelo://app?vid=9790598b-069c-4bcd-8619-0d8aa6f2f2fc","ios":"levelo://app?vid=9790598b-069c-4bcd-8619-0d8aa6f2f2fc"},"vehicle_type_id":"4","last_reported":1721664647,"current_range_meters":16000,"station_id":"ce4bhbh2rcd13ifvqepg","pricing_plan_id":"cebpf4jnsgd1na2vs0mg"},{"bike_id":"f2d8dc6d-8c26-4ddf-9475-28bcb821d70c","system_id":"levelo_inurba_marseille","lat":43.28408,"lon":5.34976,"is_reserved":false,"is_disabled":false,"rental_uris":{"android":"levelo://app?vid=f2d8dc6d-8c26-4ddf-9475-28bcb821d70c","ios":"levelo://app?vid=f2d8dc6d-8c26-4ddf-9475-28bcb821d70c"},"vehicle_type_id":"4","last_reported":1721664647,"current_range_meters":2000,"station_id":"ce4bhbh2rcd13ifvqepg","pricing_plan_id":"cebpf4jnsgd1na2vs0mg"},{"bike_id":"f0dd3d28-0309-40e7-bbb5-2b68a23564a0","system_id":"levelo_inurba_marseille","lat":43.28408,"lon":5.34975,"is_reserved":false,"is_disabled":false,"rental_uris":{"android":"levelo://app?vid=f0dd3d28-0309-40e7-bbb5-2b68a23564a0","ios":"levelo://app?vid=f0dd3d28-0309-40e7-bbb5-2b68a23564a0"},"vehicle_type_id":"4","last_reported":1721664647,"current_range_meters":12400,"station_id":"ce4bhbh2rcd13ifvqepg","pricing_plan_id":"cebpf4jnsgd1na2vs0mg"},{"bike_id":"5d174365-4ac6-41c9-b2da-60d9c789887f","system_id":"levelo_inurba_marseille","lat":43.28409,"lon":5.34969,"is_reserved":false,"is_disabled":false,"rental_uris":{"android":"levelo://app?vid=5d174365-4ac6-41c9-b2da-60d9c789887f","ios":"levelo://app?vid=5d174365-4ac6-41c9-b2da-60d9c789887f"},"vehicle_type_id":"4","last_reported":1721664647,"current_range_meters":6800,"station_id":"ce4bhbh2rcd13ifvqepg","pricing_plan_id":"cebpf4jnsgd1na2vs0mg"},{"bike_id":"1c57d565-043b-4cc8-adf3-5cb1f3119ecd","system_id":"levelo_inurba_marseille","lat":43.292644,"lon":5.384257,"is_reserved":false,"is_disabled":false,"rental_uris":{"android":"levelo://app?vid=1c57d565-043b-4cc8-adf3-5cb1f3119ecd","ios":"levelo://app?vid=1c57d565-043b-4cc8-adf3-5cb1f3119ecd"},"vehicle_type_id":"4","last_reported":1721664647,"current_range_meters":12800,"station_id":"ce4bh692rcd13ifvqea0","pricing_plan_id":"cebpf4jnsgd1na2vs0mg"},{"bike_id":"07c63484-35d0-4f82-b145-24cb9c3a3984","system_id":"levelo_inurba_marseille","lat":43.309455,"lon":5.410302,"is_reserved":false,"is_disabled":false,"rental_uris":{"android":"levelo://app?vid=07c63484-35d0-4f82-b145-24cb9c3a3984","ios":"levelo://app?vid=07c63484-35d0-4f82-b145-24cb9c3a3984"},"vehicle_type_id":"4","last_reported":1721664647,"current_range_meters":12000,"station_id":"","pricing_plan_id":"cebpf4jnsgd1na2vs0mg"},{"bike_id":"e879dc80-6ad3-4795-ad4d-e783b6f605dc","system_id":"levelo_inurba_marseille","lat":43.28274,"lon":5.35077,"is_reserved":false,"is_disabled":false,"rental_uris":{"android":"levelo://app?vid=e879dc80-6ad3-4795-ad4d-e783b6f605dc","ios":"levelo://app?vid=e879dc80-6ad3-4795-ad4d-e783b6f605dc"},"vehicle_type_id":"4","last_reported":1721664647,"current_range_meters":0,"station_id":"ce4bhbp2rcd13ifvqerg","pricing_plan_id":"cebpf4jnsgd1na2vs0mg"},{"bike_id":"98ffeee6-a9f6-464c-a667-79dd2b8b01e2","system_id":"levelo_inurba_marseille","lat":43.282722,"lon":5.350775,"is_reserved":false,"is_disabled":false,"rental_uris":{"android":"levelo://app?vid=98ffeee6-a9f6-464c-a667-79dd2b8b01e2","ios":"levelo://app?vid=98ffeee6-a9f6-464c-a667-79dd2b8b01e2"},"vehicle_type_id":"4","last_reported":1721664647,"current_range_meters":21600,"station_id":"ce4bhbp2rcd13ifvqerg","pricing_plan_id":"cebpf4jnsgd1na2vs0mg"},{"bike_id":"da9f6546-b24b-430c-8b6a-9cc27267d0a7","system_id":"levelo_inurba_marseille","lat":43.28276,"lon":5.35058,"is_reserved":false,"is_disabled":false,"rental_uris":{"android":"levelo://app?vid=da9f6546-b24b-430c-8b6a-9cc27267d0a7","ios":"levelo://app?vid=da9f6546-b24b-430c-8b6a-9cc27267d0a7"},"vehicle_type_id":"4","last_reported":1721664647,"current_range_meters":5200,"station_id":"ce4bhbp2rcd13ifvqerg","pricing_plan_id":"cebpf4jnsgd1na2vs0mg"},{"bike_id":"4294fc2d-de79-4658-bd14-6e31afcc04da","system_id":"levelo_inurba_marseille","lat":43.2827,"lon":5.35074,"is_reserved":false,"is_disabled":false,"rental_uris":{"android":"levelo://app?vid=4294fc2d-de79-4658-bd14-6e31afcc04da","ios":"levelo://app?vid=4294fc2d-de79-4658-bd14-6e31afcc04da"},"vehicle_type_id":"4","last_reported":1721664647,"current_range_meters":18000,"station_id":"ce4bhbp2rcd13ifvqerg","pricing_plan_id":"cebpf4jnsgd1na2vs0mg"},{"bike_id":"a28259a1-aa1f-4f04-93ec-07111bb0dfdc","system_id":"levelo_inurba_marseille","lat":43.28272,"lon":5.35067,"is_reserved":false,"is_disabled":false,"rental_uris":{"android":"levelo://app?vid=a28259a1-aa1f-4f04-93ec-07111bb0dfdc","ios":"levelo://app?vid=a28259a1-aa1f-4f04-93ec-07111bb0dfdc"},"vehicle_type_id":"4","last_reported":1721664647,"current_range_meters":13600,"station_id":"ce4bhbp2rcd13ifvqerg","pricing_plan_id":"cebpf4jnsgd1na2vs0mg"},{"bike_id":"10b2eb86-6715-4ddd-88c0-518a5e12ed00","system_id":"levelo_inurba_marseille","lat":43.28265,"lon":5.35078,"is_reserved":false,"is_disabled":false,"rental_uris":{"android":"levelo://app?vid=10b2eb86-6715-4ddd-88c0-518a5e12ed00","ios":"levelo://app?vid=10b2eb86-6715-4ddd-88c0-518a5e12ed00"},"vehicle_type_id":"4","last_reported":1721664647,"current_range_meters":0,"station_id":"ce4bhbp2rcd13ifvqerg","pricing_plan_id":"cebpf4jnsgd1na2vs0mg"},{"bike_id":"5f6dbf46-3eec-47b9-bcd0-fcdd9ecceb5f","system_id":"levelo_inurba_marseille","lat":43.28267,"lon":5.35068,"is_reserved":false,"is_disabled":false,"rental_uris":{"android":"levelo://app?vid=5f6dbf46-3eec-47b9-bcd0-fcdd9ecceb5f","ios":"levelo://app?vid=5f6dbf46-3eec-47b9-bcd0-fcdd9ecceb5f"},"vehicle_type_id":"4","last_reported":1721664647,"current_range_meters":0,"station_id":"ce4bhbp2rcd13ifvqerg","pricing_plan_id":"cebpf4jnsgd1na2vs0mg"},{"bike_id":"82e706af-480d-4144-b32c-c94751bb2e73","system_id":"levelo_inurba_marseille","lat":43.28269,"lon":5.35061,"is_reserved":false,"is_disabled":false,"rental_uris":{"android":"levelo://app?vid=82e706af-480d-4144-b32c-c94751bb2e73","ios":"levelo://app?vid=82e706af-480d-4144-b32c-c94751bb2e73"},"vehicle_type_id":"4","last_reported":1721664647,"current_range_meters":16000,"station_id":"ce4bhbp2rcd13ifvqerg","pricing_plan_id":"cebpf4jnsgd1na2vs0mg"},{"bike_id":"d4cd80be-ea17-4660-9ffd-477615383dcc","system_id":"levelo_inurba_marseille","lat":43.282623,"lon":5.35064,"is_reserved":false,"is_disabled":false,"rental_uris":{"android":"levelo://app?vid=d4cd80be-ea17-4660-9ffd-477615383dcc","ios":"levelo://app?vid=d4cd80be-ea17-4660-9ffd-477615383dcc"},"vehicle_type_id":"4","last_reported":1721664647,"current_range_meters":10400,"station_id":"ce4bhbp2rcd13ifvqerg","pricing_plan_id":"cebpf4jnsgd1na2vs0mg"},{"bike_id":"7300342c-8d9d-4389-8bba-26dd13a9a025","system_id":"levelo_inurba_marseille","lat":43.28262,"lon":5.35056,"is_reserved":false,"is_disabled":false,"rental_uris":{"android":"levelo://app?vid=7300342c-8d9d-4389-8bba-26dd13a9a025","ios":"levelo://app?vid=7300342c-8d9d-4389-8bba-26dd13a9a025"},"vehicle_type_id":"4","last_reported":1721664647,"current_range_meters":8800,"station_id":"ce4bhbp2rcd13ifvqerg","pricing_plan_id":"cebpf4jnsgd1na2vs0mg"},