{"last_updated":1777116663,"ttl":60,"version":"2.2","data":{"bikes":[{"bike_id":"4b94f929-8f7e-4456-b947-b041a23d345a","system_id":"levelo_inurba_marseille","lat":43.30379,"lon":5.42479,"is_reserved":false,"is_disabled":false,"rental_uris":{"android":"levelo://app?vid=4b94f929-8f7e-4456-b947-b041a23d345a","ios":"levelo://app?vid=4b94f929-8f7e-4456-b947-b041a23d345a"},"vehicle_type_id":"4","last_reported":1777116664,"current_range_meters":2800,"station_id":"ce4bhoh2rcd13ifvqh6g","pricing_plan_id":"cebpf4jnsgd1na2vs0mg"},{"bike_id":"d5eae89b-43ac-44a2-84bb-67d96bea1d1c","system_id":"levelo_inurba_marseille","lat":43.26489,"lon":5.39543,"is_reserved":false,"is_disabled":true,"rental_uris":{"android":"levelo://app?vid=d5eae89b-43ac-44a2-84bb-67d96bea1d1c","ios":"levelo://app?vid=d5eae89b-43ac-44a2-84bb-67d96bea1d1c"},"vehicle_type_id":"4","last_reported":1777116664,"current_range_meters":2800,"station_id":"ce4bhi12rcd13ifvqfq0","pricing_plan_id":"cebpf4jnsgd1na2vs0mg"},{"bike_id":"146def8f-c25a-4a36-bb78-c0e04f65294e","system_id":"levelo_inurba_marseille","lat":43.28878,"lon":5.43038,"is_reserved":false,"is_disabled":false,"rental_uris":{"android":"levelo://app?vid=146def8f-c25a-4a36-bb78-c0e04f65294e","ios":"levelo://app?vid=146def8f-c25a-4a36-bb78-c0e04f65294e"},"vehicle_type_id":"4","last_reported":1777116664,"current_range_meters":2800,"station_id":"","pricing_plan_id":"cebpf4jnsgd1na2vs0mg"},{"bike_id":"6b0f4194-687a-41aa-95d6-3f552e5b5889","system_id":"levelo_inurba_marseille","lat":43.29689,"lon":5.37276,"is_reserved":false,"is_disabled":false,"rental_uris":{"android":"levelo://app?vid=6b0f4194-687a-41aa-95d6-3f552e5b5889","ios":"levelo://app?vid=6b0f4194-687a-41aa-95d6-3f552e5b5889"},"vehicle_type_id":"4","last_reported":1777116664,"current_range_meters":2800,"station_id":"ce4bgk12rcd13ifvqbj0","pricing_plan_id":"cebpf4jnsgd1na2vs0mg"},{"bike_id":"6309cc4d-dfe4-4b98-b13d-2e2bc439a935","system_id":"levelo_inurba_marseille","lat":43.27059,"lon":5.40244,"is_reserved":false,"is_disabled":false,"rental_uris":{"android":"levelo://app?vid=6309cc4d-dfe4-4b98-b13d-2e2bc439a935","ios":"levelo://app?vid=6309cc4d-dfe4-4b98-b13d-2e2bc439a935"},"vehicle_type_id":"4","last_reported":1777116664,"current_range_meters":2800,"station_id":"ce4bhk92rcd13ifvqgc0","pricing_plan_id":"cebpf4jnsgd1na2vs0mg"},{"bike_id":"8b54c2fe-91d6-414d-b053-a12a35141416","system_id":"levelo_inurba_marseille","lat":43.2439,"lon":5.37068,"is_reserved":false,"is_disabled":false,"rental_uris":{"android":"levelo://app?vid=8b54c2fe-91d6-414d-b053-a12a35141416","ios":"levelo://app?vid=8b54c2fe-91d6-414d-b053-a12a35141416"},"vehicle_type_id":"4","last_reported":1777116664,"current_range_meters":2800,"station_id":"ce4bhhh2rcd13ifvqfk0","pricing_plan_id":"cebpf4jnsgd1na2vs0mg"},{"bike_id":"22b6b18a-0dff-4fcb-9dca-8537d06b0bba","system_id":"levelo_inurba_marseille","lat":43.28484,"lon":5.48383,"is_reserved":false,"is_disabled":false,"rental_uris":{"android":"levelo://app?vid=22b6b18a-0dff-4fcb-9dca-8537d06b0bba","ios":"levelo://app?vid=22b6b18a-0dff-4fcb-9dca-8537d06b0bba"},"vehicle_type_id":"4","last_reported":1777116664,"current_range_meters":3200,"station_id":"","pricing_plan_id":"cebpf4jnsgd1na2vs0mg"},{"bike_id":"89cb976b-df3a-46fc-a9ef-0025de561630","system_id":"levelo_inurba_marseille","lat":43.29416,"lon":5.43414,"is_reserved":false,"is_disabled":false,"rental_uris":{"android":"levelo://app?vid=89cb976b-df3a-46fc-a9ef-0025de561630","ios":"levelo://app?vid=89cb976b-df3a-46fc-a9ef-0025de561630"},"vehicle_type_id":"4","last_reported":1777116664,"current_range_meters":3200,"station_id":"","pricing_plan_id":"cebpf4jnsgd1na2vs0mg"},{"bike_id":"4a12860e-8131-4ec7-b3ad-1248c64a557b","system_id":"levelo_inurba_marseille","lat":43.29885,"lon":5.43648,"is_reserved":false,"is_disabled":true,"rental_uris":{"android":"levelo://app?vid=4a12860e-8131-4ec7-b3ad-1248c64a557b","ios":"levelo://app?vid=4a12860e-8131-4ec7-b3ad-1248c64a557b"},"vehicle_type_id":"4","last_reported":1777116664,"current_range_meters":3200,"station_id":"ce4bhpp2rcd13ifvqhfg","pricing_plan_id":"cebpf4jnsgd1na2vs0mg"},{"bike_id":"051bb7a6-8b28-4a80-a902-10ee9ea856ed","system_id":"levelo_inurba_marseille","lat":43.24371,"lon":5.37038,"is_reserved":false,"is_disabled":false,"rental_uris":{"android":"levelo://app?vid=051bb7a6-8b28-4a80-a902-10ee9ea856ed","ios":"levelo://app?vid=051bb7a6-8b28-4a80-a902-10ee9ea856ed"},"vehicle_type_id":"4","last_reported":1777116664,"current_range_meters":3200,"station_id":"ce4bhhh2rcd13ifvqfk0","pricing_plan_id":"cebpf4jnsgd1na2vs0mg"},{"bike_id":"a0c29d76-53a4-44e1-ad02-eed739d5224b","system_id":"levelo_inurba_marseille","lat":43.24167,"lon":5.36379,"is_reserved":false,"is_disabled":false,"rental_uris":{"android":"levelo://app?vid=a0c29d76-53a4-44e1-ad02-eed739d5224b","ios":"levelo://app?vid=a0c29d76-53a4-44e1-ad02-eed739d5224b"},"vehicle_type_id":"4","last_reported":1777116664,"current_range_meters":3200,"station_id":"cpo36qri1sfpv3e86is0","pricing_plan_id":"cebpf4jnsgd1na2vs0mg"},{"bike_id":"3762a15a-49a2-4fc6-b2e6-a79b5f91a12f","system_id":"levelo_inurba_marseille","lat":43.28475,"lon":5.4839,"is_reserved":false,"is_disabled":false,"rental_uris":{"android":"levelo://app?vid=3762a15a-49a2-4fc6-b2e6-a79b5f91a12f","ios":"levelo://app?vid=3762a15a-49a2-4fc6-b2e6-a79b5f91a12f"},"vehicle_type_id":"4","last_reported":1777116664,"current_range_meters":3600,"station_id":"","pricing_plan_id":"cebpf4jnsgd1na2vs0mg"},{"bike_id":"cd21f6c1-a1f8-4978-8025-1d254a6bf514","system_id":"levelo_inurba_marseille","lat":43.28476,"lon":5.48396,"is_reserved":false,"is_disabled":false,"rental_uris":{"android":"levelo://app?vid=cd21f6c1-a1f8-4978-8025-1d254a6bf514","ios":"levelo://app?vid=cd21f6c1-a1f8-4978-8025-1d254a6bf514"},"vehicle_type_id":"4","last_reported":1777116664,"current_range_meters":3600,"station_id":"st_d3svhcjqgbts73a3dn0g","pricing_plan_id":"cebpf4jnsgd1na2vs0mg"},{"bike_id":"2813910b-bfe0-425f-a483-9778de4facfb","system_id":"levelo_inurba_marseille","lat":43.3024,"lon":5.44952,"is_reserved":false,"is_disabled":false,"rental_uris":{"android":"levelo://app?vid=2813910b-bfe0-425f-a483-9778de4facfb","ios":"levelo://app?vid=2813910b-bfe0-425f-a483-9778de4facfb"},"vehicle_type_id":"4","last_reported":1777116664,"current_range_meters":3600,"station_id":"","pricing_plan_id":"cebpf4jnsgd1na2vs0mg"},{"bike_id":"26e311ec-734f-477f-9bdc-cee009d68abe","system_id":"levelo_inurba_marseille","lat":43.33529,"lon":5.37453,"is_reserved":false,"is_disabled":false,"rental_uris":{"android":"levelo://app?vid=26e311ec-734f-477f-9bdc-cee009d68abe","ios":"levelo://app?vid=26e311ec-734f-477f-9bdc-cee009d68abe"},"vehicle_type_id":"4","last_reported":1777116664,"current_range_meters":3600,"station_id":"st_d46tts09ee8s73dlu43g","pricing_plan_id":"cebpf4jnsgd1na2vs0mg"},{"bike_id":"e8d6ce3d-1aa9-47ef-9b48-93862ee5f7fd","system_id":"levelo_inurba_marseille","lat":43.21266,"lon":5.35416,"is_reserved":false,"is_disabled":false,"rental_uris":{"android":"levelo://app?vid=e8d6ce3d-1aa9-47ef-9b48-93862ee5f7fd","ios":"levelo://app?vid=e8d6ce3d-1aa9-47ef-9b48-93862ee5f7fd"},"vehicle_type_id":"4","last_reported":1777116664,"current_range_meters":3600,"station_id":"","pricing_plan_id":"cebpf4jnsgd1na2vs0mg"},{"bike_id":"0b697fed-8eca-4a1e-a83f-e8643d4edf97","system_id":"levelo_inurba_marseille","lat":43.29956,"lon":5.41312,"is_reserved":false,"is_disabled":false,"rental_uris":{"android":"levelo://app?vid=0b697fed-8eca-4a1e-a83f-e8643d4edf97","ios":"levelo://app?vid=0b697fed-8eca-4a1e-a83f-e8643d4edf97"},"vehicle_type_id":"4","last_reported":1777116664,"current_range_meters":3600,"station_id":"ce4bhp12rcd13ifvqh9g","pricing_plan_id":"cebpf4jnsgd1na2vs0mg"},{"bike_id":"4e0d0d98-1dda-494b-a6ce-04f5a876f744","system_id":"levelo_inurba_marseille","lat":43.2781,"lon":5.3883,"is_reserved":false,"is_disabled":false,"rental_uris":{"android":"levelo://app?vid=4e0d0d98-1dda-494b-a6ce-04f5a876f744","ios":"levelo://app?vid=4e0d0d98-1dda-494b-a6ce-04f5a876f744"},"vehicle_type_id":"4","last_reported":1777116664,"current_range_meters":3600,"station_id":"","pricing_plan_id":"cebpf4jnsgd1na2vs0mg"},{"bike_id":"745d9c85-028f-4beb-837f-34e50e789eb5","system_id":"levelo_inurba_marseille","lat":43.22559,"lon":5.41618,"is_reserved":false,"is_disabled":false,"rental_uris":{"android":"levelo://app?vid=745d9c85-028f-4beb-837f-34e50e789eb5","ios":"levelo://app?vid=745d9c85-028f-4beb-837f-34e50e789eb5"},"vehicle_type_id":"4","last_reported":1777116664,"current_range_meters":3600,"station_id":"st_d2o4gvlbi1j2169b742g","pricing_plan_id":"cebpf4jnsgd1na2vs0mg"},{"bike_id":"ed9e31f5-25da-4ec8-abe7-0a816c3e138d","system_id":"levelo_inurba_marseille","lat":43.30482,"lon":5.379,"is_reserved":false,"is_disabled":true,"rental_uris":{"android":"levelo://app?vid=ed9e31f5-25da-4ec8-abe7-0a816c3e138d","ios":"levelo://app?vid=ed9e31f5-25da-4ec8-abe7-0a816c3e138d"},"vehicle_type_id":"4","last_reported":1777116664,"current_range_meters":4000,"station_id":"ce4bgup2rcd13ifvqcn0","pricing_plan_id":"cebpf4jnsgd1na2vs0mg"},{"bike_id":"b38d89b8-c3c9-4fae-b6f2-09980d89f2e9","system_id":"levelo_inurba_marseille","lat":43.28469,"lon":5.48397,"is_reserved":false,"is_disabled":false,"rental_uris":{"android":"levelo://app?vid=b38d89b8-c3c9-4fae-b6f2-09980d89f2e9","ios":"levelo://app?vid=b38d89b8-c3c9-4fae-b6f2-09980d89f2e9"},"vehicle_type_id":"4","last_reported":1777116664,"current_range_meters":4000,"station_id":"","pricing_plan_id":"cebpf4jnsgd1na2vs0mg"},{"bike_id":"8ee0a40d-124f-4413-9074-6911095dcd65","system_id":"levelo_inurba_marseille","lat":43.26546,"lon":5.37291,"is_reserved":false,"is_disabled":false,"rental_uris":{"android":"levelo://app?vid=8ee0a40d-124f-4413-9074-6911095dcd65","ios":"levelo://app?vid=8ee0a40d-124f-4413-9074-6911095dcd65"},"vehicle_type_id":"4","last_reported":1777116664,"current_range_meters":4400,"station_id":"ce4bhg12rcd13ifvqf70","pricing_plan_id":"cebpf4jnsgd1na2vs0mg"},{"bike_id":"1da117f2-f893-4ac3-99f7-852c0750949e","system_id":"levelo_inurba_marseille","lat":43.2762,"lon":5.36111,"is_reserved":false,"is_disabled":false,"rental_uris":{"android":"levelo://app?vid=1da117f2-f893-4ac3-99f7-852c0750949e","ios":"levelo://app?vid=1da117f2-f893-4ac3-99f7-852c0750949e"},"vehicle_type_id":"4","last_reported":1777116664,"current_range_meters":4400,"station_id":"ce4bgj92rcd13ifvqbe0","pricing_plan_id":"cebpf4jnsgd1na2vs0mg"},{"bike_id":"7c6f5d31-a587-415f-8cb8-7c50045d3add","system_id":"levelo_inurba_marseille","lat":43.23154,"lon":5.43703,"is_reserved":false,"is_disabled":false,"rental_uris":{"android":"levelo://app?vid=7c6f5d31-a587-415f-8cb8-7c50045d3add","ios":"levelo://app?vid=7c6f5d31-a587-415f-8cb8-7c50045d3add"},"vehicle_type_id":"4","last_reported":1777116664,"current_range_meters":4400,"station_id":"ce4bhmp2rcd13ifvqgog","pricing_plan_id":"cebpf4jnsgd1na2vs0mg"},{"bike_id":"454e9418-0e91-4317-b08f-4fb57294a95b","system_id":"levelo_inurba_marseille","lat":43.28927,"lon":5.38399,"is_reserved":false,"is_disabled":false,"rental_uris":{"android":"levelo://app?vid=454e9418-0e91-4317-b08f-4fb57294a95b","ios":"levelo://app?vid=454e9418-0e91-4317-b08f-4fb57294a95b"},"vehicle_type_id":"4","last_reported":1777116664,"current_range_meters":4400,"station_id":"ce4bh612rcd13ifvqe6g","pricing_plan_id":"cebpf4jnsgd1na2vs0mg"},{"bike_id":"18727794-a7fd-4caf-8ad7-e7c00923143f","system_id":"levelo_inurba_marseille","lat":43.24395,"lon":5.37066,"is_reserved":false,"is_disabled":false,"rental_uris":{"android":"levelo://app?vid=18727794-a7fd-4caf-8ad7-e7c00923143f","ios":"levelo://app?vid=18727794-a7fd-4caf-8ad7-e7c00923143f"},"vehicle_type_id":"4","last_reported":1777116664,"current_range_meters":4400,"station_id":"ce4bhhh2rcd13ifvqfk0","pricing_plan_id":"cebpf4jnsgd1na2vs0mg"},{"bike_id":"96bcface-2350-4510-9d4b-27afe430678c","system_id":"levelo_inurba_marseille","lat":43.23168,"lon":5.39965,"is_reserved":false,"is_disabled":false,"rental_uris":{"android":"levelo://app?vid=96bcface-2350-4510-9d4b-27afe430678c","ios":"levelo://app?vid=96bcface-2350-4510-9d4b-27afe430678c"},"vehicle_type_id":"4","last_reported":1777116664,"current_range_meters":4400,"station_id":"ce4bhn12rcd13ifvqgqg","pricing_plan_id":"cebpf4jnsgd1na2vs0mg"},{"bike_id":"7ab9e9d2-55c6-492f-8e60-126c7a6965ab","system_id":"levelo_inurba_marseille","lat":43.27988,"lon":5.37071,"is_reserved":false,"is_disabled":false,"rental_uris":{"android":"levelo://app?vid=7ab9e9d2-55c6-492f-8e60-126c7a6965ab","ios":"levelo://app?vid=7ab9e9d2-55c6-492f-8e60-126c7a6965ab"},"vehicle_type_id":"4","last_reported":1777116664,"current_range_meters":4400,"station_id":"","pricing_plan_id":"cebpf4jnsgd1na2vs0mg"},{"bike_id":"70776c45-20f9-4fd2-b9a5-37f783010e5e","system_id":"levelo_inurba_marseille","lat":43.30143,"lon":5.37411,"is_reserved":false,"is_disabled":false,"rental_uris":{"android":"levelo://app?vid=70776c45-20f9-4fd2-b9a5-37f783010e5e","ios":"levelo://app?vid=70776c45-20f9-4fd2-b9a5-37f783010e5e"},"vehicle_type_id":"4","last_reported":1777116664,"current_range_meters":4400,"station_id":"ce4bgs92rcd13ifvqcc0","pricing_plan_id":"cebpf4jnsgd1na2vs0mg"},{"bike_id":"95419b71-8c86-4bde-8255-fe74b8ab1ef9","system_id":"levelo_inurba_marseille","lat":43.212,"lon":5.35054,"is_reserved":false,"is_disabled":false,"rental_uris":{"android":"levelo://app?vid=95419b71-8c86-4bde-8255-fe74b8ab1ef9","ios":"levelo://app?vid=95419b71-8c86-4bde-8255-fe74b8ab1ef9"},"vehicle_type_id":"4","last_reported":1777116664,"current_range_meters":4800,"station_id":"st_cvj6sg6p6f1abm77japg","pricing_plan_id":"cebpf4jnsgd1na2vs0mg"},{"bike_id":"3f05885d-944d-475f-9063-c3b1631c9b3c","system_id":"levelo_inurba_marseille","lat":43.23199,"lon":5.35551,"is_reserved":false,"is_disabled":false,"rental_uris":{"android":"levelo://app?vid=3f05885d-944d-475f-9063-c3b1631c9b3c","ios":"levelo://app?vid=3f05885d-944d-475f-9063-c3b1631c9b3c"},"vehicle_type_id":"4","last_reported":1777116664,"current_range_meters":4800,"station_id":"ce4bhu92rcd13ifvqi70","pricing_plan_id":"cebpf4jnsgd1na2vs0mg"},{"bike_id":"6533574e-7540-46ca-bc5e-62e7823dcedd","system_id":"levelo_inurba_marseille","lat":43.21748,"lon":5.34576,"is_reserved":false,"is_disabled":false,"rental_uris":{"android":"levelo://app?vid=6533574e-7540-46ca-bc5e-62e7823dcedd","ios":"levelo://app?vid=6533574e-7540-46ca-bc5e-62e7823dcedd"},"vehicle_type_id":"4","last_reported":1777116664,"current_range_meters":4800,"station_id":"st_cvj6r9ubvosntc0bgbag","pricing_plan_id":"cebpf4jnsgd1na2vs0mg"},{"bike_id":"68385ad1-5a71-4622-9ac2-dcc837084f17","system_id":"levelo_inurba_marseille","lat":43.24074,"lon":5.37767,"is_reserved":false,"is_disabled":false,"rental_uris":{"android":"levelo://app?vid=68385ad1-5a71-4622-9ac2-dcc837084f17","ios":"levelo://app?vid=68385ad1-5a71-4622-9ac2-dcc837084f17"},"vehicle_type_id":"4","last_reported":1777116664,"current_range_meters":4800,"station_id":"ce4bhnp2rcd13ifvqgvg","pricing_plan_id":"cebpf4jnsgd1na2vs0mg"},{"bike_id":"5cf30e10-6831-4a36-9ae1-b5d2f2f557f1","system_id":"levelo_inurba_marseille","lat":43.28259,"lon":5.35057,"is_reserved":false,"is_disabled":false,"rental_uris":{"android":"levelo://app?vid=5cf30e10-6831-4a36-9ae1-b5d2f2f557f1","ios":"levelo://app?vid=5cf30e10-6831-4a36-9ae1-b5d2f2f557f1"},"vehicle_type_id":"4","last_reported":1777116664,"current_range_meters":4800,"station_id":"ce4bhbp2rcd13ifvqerg","pricing_plan_id":"cebpf4jnsgd1na2vs0mg"},{"bike_id":"35c33472-9019-42af-8f5d-789ee93e8ab3","system_id":"levelo_inurba_marseille","lat":43.30277,"lon":5.37698,"is_reserved":false,"is_disabled":false,"rental_uris":{"android":"levelo://app?vid=35c33472-9019-42af-8f5d-789ee93e8ab3","ios":"levelo://app?vid=35c33472-9019-42af-8f5d-789ee93e8ab3"},"vehicle_type_id":"4","last_reported":1777116664,"current_range_meters":4800,"station_id":"ce4bguh2rcd13ifvqcj0","pricing_plan_id":"cebpf4jnsgd1na2vs0mg"},{"bike_id":"aa897415-67a0-4b07-b64e-cbc8da7d4792","system_id":"levelo_inurba_marseille","lat":43.24183,"lon":5.36368,"is_reserved":false,"is_disabled":false,"rental_uris":{"android":"levelo://app?vid=aa897415-67a0-4b07-b64e-cbc8da7d4792","ios":"levelo://app?vid=aa897415-67a0-4b07-b64e-cbc8da7d4792"},"vehicle_type_id":"4","last_reported":1777116664,"current_range_meters":5600,"station_id":"cpo36qri1sfpv3e86is0","pricing_plan_id":"cebpf4jnsgd1na2vs0mg"},{"bike_id":"4af5f932-71ad-4954-ac3b-fecb2a352994","system_id":"levelo_inurba_marseille","lat":43.32349,"lon":5.36717,"is_reserved":false,"is_disabled":false,"rental_uris":{"android":"levelo://app?vid=4af5f932-71ad-4954-ac3b-fecb2a352994","ios":"levelo://app?vid=4af5f932-71ad-4954-ac3b-fecb2a352994"},"vehicle_type_id":"4","last_reported":1777116664,"current_range_meters":5600,"station_id":"ce4bhsh2rcd13ifvqi2g","pricing_plan_id":"cebpf4jnsgd1na2vs0mg"},{"bike_id":"72bab6b4-544d-4081-98f9-3750c4720616","system_id":"levelo_inurba_marseille","lat":43.23154,"lon":5.43689,"is_reserved":false,"is_disabled":false,"rental_uris":{"android":"levelo://app?vid=72bab6b4-544d-4081-98f9-3750c4720616","ios":"levelo://app?vid=72bab6b4-544d-4081-98f9-3750c4720616"},"vehicle_type_id":"4","last_reported":1777116664,"current_range_meters":5600,"station_id":"ce4bhmp2rcd13ifvqgog","pricing_plan_id":"cebpf4jnsgd1na2vs0mg"},{"bike_id":"71e9d7db-0750-4ccc-9b9f-61f5ea13dcb5","system_id":"levelo_inurba_marseille","lat":43.28609,"lon":5.35095,"is_reserved":false,"is_disabled":false,"rental_uris":{"android":"levelo://app?vid=71e9d7db-0750-4ccc-9b9f-61f5ea13dcb5","ios":"levelo://app?vid=71e9d7db-0750-4ccc-9b9f-61f5ea13dcb5"},"vehicle_type_id":"4","last_reported":1777116664,"current_range_meters":5600,"station_id":"ce4bhch2rcd13ifvqeug","pricing_plan_id":"cebpf4jnsgd1na2vs0mg"},{"bike_id":"1370c3f0-6074-43de-a93b-f7f87c829b3b","system_id":"levelo_inurba_marseille","lat":43.2912,"lon":5.39985,"is_reserved":false,"is_disabled":false,"rental_uris":{"android":"levelo://app?vid=1370c3f0-6074-43de-a93b-f7f87c829b3b","ios":"levelo://app?vid=1370c3f0-6074-43de-a93b-f7f87c829b3b"},"vehicle_type_id":"4","last_reported":1777116664,"current_range_meters":5600,"station_id":"","pricing_plan_id":"cebpf4jnsgd1na2vs0mg"},{"bike_id":"6da9ea6a-0e7e-4687-ba27-61cd4860ab6f","system_id":"levelo_inurba_marseille","lat":43.23968,"lon":5.36627,"is_reserved":false,"is_disabled":false,"rental_uris":{"android":"levelo://app?vid=6da9ea6a-0e7e-4687-ba27-61cd4860ab6f","ios":"levelo://app?vid=6da9ea6a-0e7e-4687-ba27-61cd4860ab6f"},"vehicle_type_id":"4","last_reported":1777116664,"current_range_meters":5600,"station_id":"ce4bhi12rcd13ifvqfp0","pricing_plan_id":"cebpf4jnsgd1na2vs0mg"},{"bike_id":"60be4b0d-4c83-4300-8220-7b23e159ba6b","system_id":"levelo_inurba_marseille","lat":43.24797,"lon":5.37441,"is_reserved":false,"is_disabled":false,"rental_uris":{"android":"levelo://app?vid=60be4b0d-4c83-4300-8220-7b23e159ba6b","ios":"levelo://app?vid=60be4b0d-4c83-4300-8220-7b23e159ba6b"},"vehicle_type_id":"4","last_reported":1777116664,"current_range_meters":5600,"station_id":"ce4bhgh2rcd13ifvqfb0","pricing_plan_id":"cebpf4jnsgd1na2vs0mg"},{"bike_id":"4a07e606-38fe-4621-bfc7-e141ab9af9af","system_id":"levelo_inurba_marseille","lat":43.24804,"lon":5.37452,"is_reserved":false,"is_disabled":false,"rental_uris":{"android":"levelo://app?vid=4a07e606-38fe-4621-bfc7-e141ab9af9af","ios":"levelo://app?vid=4a07e606-38fe-4621-bfc7-e141ab9af9af"},"vehicle_type_id":"4","last_reported":1777116664,"current_range_meters":5600,"station_id":"ce4bhgh2rcd13ifvqfb0","pricing_plan_id":"cebpf4jnsgd1na2vs0mg"},{"bike_id":"289e5bb7-2972-49ee-9261-66855137ce31","system_id":"levelo_inurba_marseille","lat":43.27668,"lon":5.38879,"is_reserved":false,"is_disabled":false,"rental_uris":{"android":"levelo://app?vid=289e5bb7-2972-49ee-9261-66855137ce31","ios":"levelo://app?vid=289e5bb7-2972-49ee-9261-66855137ce31"},"vehicle_type_id":"4","last_reported":1777116664,"current_range_meters":5600,"station_id":"ce4bhi12rcd13ifvqfo0","pricing_plan_id":"cebpf4jnsgd1na2vs0mg"},{"bike_id":"4d5b4915-5fc0-4782-a3a4-e445cc2cf470","system_id":"levelo_inurba_marseille","lat":43.29871,"lon":5.42101,"is_reserved":false,"is_disabled":false,"rental_uris":{"android":"levelo://app?vid=4d5b4915-5fc0-4782-a3a4-e445cc2cf470","ios":"levelo://app?vid=4d5b4915-5fc0-4782-a3a4-e445cc2cf470"},"vehicle_type_id":"4","last_reported":1777116664,"current_range_meters":5600,"station_id":"st_d6tc004otcvc738tfe70","pricing_plan_id":"cebpf4jnsgd1na2vs0mg"},{"bike_id":"ab3c8890-256f-468c-832e-f6b12ddd40b9","system_id":"levelo_inurba_marseille","lat":43.28266,"lon":5.35062,"is_reserved":false,"is_disabled":false,"rental_uris":{"android":"levelo://app?vid=ab3c8890-256f-468c-832e-f6b12ddd40b9","ios":"levelo://app?vid=ab3c8890-256f-468c-832e-f6b12ddd40b9"},"vehicle_type_id":"4","last_reported":1777116664,"current_range_meters":5600,"station_id":"ce4bhbp2rcd13ifvqerg","pricing_plan_id":"cebpf4jnsgd1na2vs0mg"},{"bike_id":"261b4d20-3fce-4a9a-b1df-f7d9447249df","system_id":"levelo_inurba_marseille","lat":43.28479,"lon":5.48375,"is_reserved":false,"is_disabled":false,"rental_uris":{"android":"levelo://app?vid=261b4d20-3fce-4a9a-b1df-f7d9447249df","ios":"levelo://app?vid=261b4d20-3fce-4a9a-b1df-f7d9447249df"},"vehicle_type_id":"4","last_reported":1777116664,"current_range_meters":5600,"station_id":"st_d3svhcjqgbts73a3dn0g","pricing_plan_id":"cebpf4jnsgd1na2vs0mg"},{"bike_id":"f393bf4e-bfd4-47d9-a292-7ee6e730e68d","system_id":"levelo_inurba_marseille","lat":43.25587,"lon":5.38212,"is_reserved":false,"is_disabled":false,"rental_uris":{"android":"levelo://app?vid=f393bf4e-bfd4-47d9-a292-7ee6e730e68d","ios":"levelo://app?vid=f393bf4e-bfd4-47d9-a292-7ee6e730e68d"},"vehicle_type_id":"4","last_reported":1777116664,"current_range_meters":5600,"station_id":"ce4bhih2rcd13ifvqfs0","pricing_plan_id":"cebpf4jnsgd1na2vs0mg"},{"bike_id":"c7ac0306-6afc-4781-8692-f962ddfe1a23","system_id":"levelo_inurba_marseille","lat":43.32343,"lon":5.36721,"is_reserved":false,"is_disabled":false,"rental_uris":{"android":"levelo://app?vid=c7ac0306-6afc-4781-8692-f962ddfe1a23","ios":"levelo://app?vid=c7ac0306-6afc-4781-8692-f962ddfe1a23"},"vehicle_type_id":"4","last_reported":1777116664,"current_range_meters":5600,"station_id":"ce4bhsh2rcd13ifvqi2g","pricing_plan_id":"cebpf4jnsgd1na2vs0mg"},{"bike_id":"80964abd-eba5-409d-9cf5-7bb70d84816d","system_id":"levelo_inurba_marseille","lat":43.272115,"lon":5.391797,"is_reserved":false,"is_disabled":false,"rental_uris":{"android":"levelo://app?vid=80964abd-eba5-409d-9cf5-7bb70d84816d","ios":"levelo://app?vid=80964abd-eba5-409d-9cf5-7bb70d84816d"},"vehicle_type_id":"4","last_reported":1777116664,"current_range_meters":6000,"station_id":"ce4bhhp2rcd13ifvqfm0","pricing_plan_id":"cebpf4jnsgd1na2vs0mg"},{"bike_id":"f3ff5ba3-1047-448a-a9da-dc3979cad45f","system_id":"levelo_inurba_marseille","lat":43.30589,"lon":5.3935,"is_reserved":false,"is_disabled":false,"rental_uris":{"android":"levelo://app?vid=f3ff5ba3-1047-448a-a9da-dc3979cad45f","ios":"levelo://app?vid=f3ff5ba3-1047-448a-a9da-dc3979cad45f"},"vehicle_type_id":"4","last_reported":1777116664,"current_range_meters":6000,"station_id":"ce4bh0p2rcd13ifvqd80","pricing_plan_id":"cebpf4jnsgd1na2vs0mg"},{"bike_id":"27cd71a7-0940-4415-a67f-21597fbf1cd9","system_id":"levelo_inurba_marseille","lat":43.3302,"lon":5.39006,"is_reserved":false,"is_disabled":false,"rental_uris":{"android":"levelo://app?vid=27cd71a7-0940-4415-a67f-21597fbf1cd9","ios":"levelo://app?vid=27cd71a7-0940-4415-a67f-21597fbf1cd9"},"vehicle_type_id":"4","last_reported":1777116664,"current_range_meters":6000,"station_id":"ce4bhr92rcd13ifvqhrg","pricing_plan_id":"cebpf4jnsgd1na2vs0mg"},{"bike_id":"359f1439-8fc7-47d5-88a4-ed2279430f08","system_id":"levelo_inurba_marseille","lat":43.27615,"lon":5.36088,"is_reserved":false,"is_disabled":false,"rental_uris":{"android":"levelo://app?vid=359f1439-8fc7-47d5-88a4-ed2279430f08","ios":"levelo://app?vid=359f1439-8fc7-47d5-88a4-ed2279430f08"},"vehicle_type_id":"4","last_reported":1777116664,"current_range_meters":6000,"station_id":"ce4bgj92rcd13ifvqbe0","pricing_plan_id":"cebpf4jnsgd1na2vs0mg"},{"bike_id":"668b7868-0b32-428c-8d37-9db96b111dfd","system_id":"levelo_inurba_marseille","lat":43.27671,"lon":5.38884,"is_reserved":false,"is_disabled":false,"rental_uris":{"android":"levelo://app?vid=668b7868-0b32-428c-8d37-9db96b111dfd","ios":"levelo://app?vid=668b7868-0b32-428c-8d37-9db96b111dfd"},"vehicle_type_id":"4","last_reported":1777116664,"current_range_meters":6000,"station_id":"ce4bhi12rcd13ifvqfo0","pricing_plan_id":"cebpf4jnsgd1na2vs0mg"},{"bike_id":"082e9381-5478-4fa8-bed1-a0ff7502c6ad","system_id":"levelo_inurba_marseille","lat":43.26221,"lon":5.37443,"is_reserved":false,"is_disabled":false,"rental_uris":{"android":"levelo://app?vid=082e9381-5478-4fa8-bed1-a0ff7502c6ad","ios":"levelo://app?vid=082e9381-5478-4fa8-bed1-a0ff7502c6ad"},"vehicle_type_id":"4","last_reported":1777116664,"current_range_meters":6000,"station_id":"ce4bhgp2rcd13ifvqfc0","pricing_plan_id":"cebpf4jnsgd1na2vs0mg"},{"bike_id":"75471a09-e4ee-4438-b4e9-ebcc3c66f359","system_id":"levelo_inurba_marseille","lat":43.21193,"lon":5.35068,"is_reserved":false,"is_disabled":false,"rental_uris":{"android":"levelo://app?vid=75471a09-e4ee-4438-b4e9-ebcc3c66f359","ios":"levelo://app?vid=75471a09-e4ee-4438-b4e9-ebcc3c66f359"},"vehicle_type_id":"4","last_reported":1777116664,"current_range_meters":6000,"station_id":"st_cvj6sg6p6f1abm77japg","pricing_plan_id":"cebpf4jnsgd1na2vs0mg"},{"bike_id":"0355e599-f60c-4714-9255-cfd59030e891","system_id":"levelo_inurba_marseille","lat":43.23961,"lon":5.36616,"is_reserved":false,"is_disabled":false,"rental_uris":{"android":"levelo://app?vid=0355e599-f60c-4714-9255-cfd59030e891","ios":"levelo://app?vid=0355e599-f60c-4714-9255-cfd59030e891"},"vehicle_type_id":"4","last_reported":1777116664,"current_range_meters":6000,"station_id":"ce4bhi12rcd13ifvqfp0","pricing_plan_id":"cebpf4jnsgd1na2vs0mg"},{"bike_id":"a8d06d9a-c2d1-4b7f-96b3-3da153d368cb","system_id":"levelo_inurba_marseille","lat":43.237762,"lon":5.36628,"is_reserved":false,"is_disabled":false,"rental_uris":{"android":"levelo://app?vid=a8d06d9a-c2d1-4b7f-96b3-3da153d368cb","ios":"levelo://app?vid=a8d06d9a-c2d1-4b7f-96b3-3da153d368cb"},"vehicle_type_id":"4","last_reported":1777116664,"current_range_meters":6000,"station_id":"st_d3nk18o9ro0c73en2l3g","pricing_plan_id":"cebpf4jnsgd1na2vs0mg"},{"bike_id":"deb29a3c-5716-4c5b-88fd-6ed665a84dee","system_id":"levelo_inurba_marseille","lat":43.29708,"lon":5.36603,"is_reserved":false,"is_disabled":false,"rental_uris":{"android":"levelo://app?vid=deb29a3c-5716-4c5b-88fd-6ed665a84dee","ios":"levelo://app?vid=deb29a3c-5716-4c5b-88fd-6ed665a84dee"},"vehicle_type_id":"4","last_reported":1777116664,"current_range_meters":6000,"station_id":"ce4bgn12rcd13ifvqbt0","pricing_plan_id":"cebpf4jnsgd1na2vs0mg"},{"bike_id":"f8b71621-9ee0-4284-b9b2-be8fa047ba8a","system_id":"levelo_inurba_marseille","lat":43.30113,"lon":5.43098,"is_reserved":false,"is_disabled":false,"rental_uris":{"android":"levelo://app?vid=f8b71621-9ee0-4284-b9b2-be8fa047ba8a","ios":"levelo://app?vid=f8b71621-9ee0-4284-b9b2-be8fa047ba8a"},"vehicle_type_id":"4","last_reported":1777116664,"current_range_meters":6000,"station_id":"st_d3js3co5814s73ftftug","pricing_plan_id":"cebpf4jnsgd1na2vs0mg"},{"bike_id":"a4f29091-c169-44d5-86ae-0fae6e6376be","system_id":"levelo_inurba_marseille","lat":43.30152,"lon":5.38081,"is_reserved":false,"is_disabled":false,"rental_uris":{"android":"levelo://app?vid=a4f29091-c169-44d5-86ae-0fae6e6376be","ios":"levelo://app?vid=a4f29091-c169-44d5-86ae-0fae6e6376be"},"vehicle_type_id":"4","last_reported":1777116664,"current_range_meters":6400,"station_id":"ce4bgjp2rcd13ifvqbh0","pricing_plan_id":"cebpf4jnsgd1na2vs0mg"},{"bike_id":"8c8d3a1e-3e2c-407c-b8ad-af868cc54226","system_id":"levelo_inurba_marseille","lat":43.294882,"lon":5.393907,"is_reserved":false,"is_disabled":false,"rental_uris":{"android":"levelo://app?vid=8c8d3a1e-3e2c-407c-b8ad-af868cc54226","ios":"levelo://app?vid=8c8d3a1e-3e2c-407c-b8ad-af868cc54226"},"vehicle_type_id":"4","last_reported":1777116664,"current_range_meters":6400,"station_id":"","pricing_plan_id":"cebpf4jnsgd1na2vs0mg"},{"bike_id":"1d368fe1-0c8f-4a40-864c-b54082c58fa1","system_id":"levelo_inurba_marseille","lat":43.33547,"lon":5.37417,"is_reserved":false,"is_disabled":false,"rental_uris":{"android":"levelo://app?vid=1d368fe1-0c8f-4a40-864c-b54082c58fa1","ios":"levelo://app?vid=1d368fe1-0c8f-4a40-864c-b54082c58fa1"},"vehicle_type_id":"4","last_reported":1777116664,"current_range_meters":6400,"station_id":"st_d46tts09ee8s73dlu43g","pricing_plan_id":"cebpf4jnsgd1na2vs0mg"},{"bike_id":"f645e30b-5616-45b3-a17d-faf4a49d971d","system_id":"levelo_inurba_marseille","lat":43.31,"lon":5.37533,"is_reserved":false,"is_disabled":false,"rental_uris":{"android":"levelo://app?vid=f645e30b-5616-45b3-a17d-faf4a49d971d","ios":"levelo://app?vid=f645e30b-5616-45b3-a17d-faf4a49d971d"},"vehicle_type_id":"4","last_reported":1777116664,"current_range_meters":6400,"station_id":"","pricing_plan_id":"cebpf4jnsgd1na2vs0mg"},{"bike_id":"baf5e93f-baa0-4776-9800-afea43e9329e","system_id":"levelo_inurba_marseille","lat":43.23192,"lon":5.35557,"is_reserved":false,"is_disabled":false,"rental_uris":{"android":"levelo://app?vid=baf5e93f-baa0-4776-9800-afea43e9329e","ios":"levelo://app?vid=baf5e93f-baa0-4776-9800-afea43e9329e"},"vehicle_type_id":"4","last_reported":1777116664,"current_range_meters":6400,"station_id":"ce4bhu92rcd13ifvqi70","pricing_plan_id":"cebpf4jnsgd1na2vs0mg"},{"bike_id":"027dcb51-e888-4588-93cc-8684ad3d2915","system_id":"levelo_inurba_marseille","lat":43.23147,"lon":5.43703,"is_reserved":false,"is_disabled":false,"rental_uris":{"android":"levelo://app?vid=027dcb51-e888-4588-93cc-8684ad3d2915","ios":"levelo://app?vid=027dcb51-e888-4588-93cc-8684ad3d2915"},"vehicle_type_id":"4","last_reported":1777116664,"current_range_meters":6400,"station_id":"ce4bhmp2rcd13ifvqgog","pricing_plan_id":"cebpf4jnsgd1na2vs0mg"},{"bike_id":"a3dee876-3af2-46d4-9131-1dd0997e500a","system_id":"levelo_inurba_marseille","lat":43.24397,"lon":5.37067,"is_reserved":false,"is_disabled":true,"rental_uris":{"android":"levelo://app?vid=a3dee876-3af2-46d4-9131-1dd0997e500a","ios":"levelo://app?vid=a3dee876-3af2-46d4-9131-1dd0997e500a"},"vehicle_type_id":"4","last_reported":1777116664,"current_range_meters":6400,"station_id":"ce4bhhh2rcd13ifvqfk0","pricing_plan_id":"cebpf4jnsgd1na2vs0mg"},{"bike_id":"9e736a24-151b-4861-9d3c-68515cd11e0f","system_id":"levelo_inurba_marseille","lat":43.32087,"lon":5.36776,"is_reserved":false,"is_disabled":false,"rental_uris":{"android":"levelo://app?vid=9e736a24-151b-4861-9d3c-68515cd11e0f","ios":"levelo://app?vid=9e736a24-151b-4861-9d3c-68515cd11e0f"},"vehicle_type_id":"4","last_reported":1777116664,"current_range_meters":6400,"station_id":"ce4bhrh2rcd13ifvqhug","pricing_plan_id":"cebpf4jnsgd1na2vs0mg"},{"bike_id":"115d672a-13d4-4305-8044-ca28f0c37ff6","system_id":"levelo_inurba_marseille","lat":43.2509,"lon":5.39499,"is_reserved":false,"is_disabled":false,"rental_uris":{"android":"levelo://app?vid=115d672a-13d4-4305-8044-ca28f0c37ff6","ios":"levelo://app?vid=115d672a-13d4-4305-8044-ca28f0c37ff6"},"vehicle_type_id":"4","last_reported":1777116664,"current_range_meters":6400,"station_id":"ce4bhm12rcd13ifvqgkg","pricing_plan_id":"cebpf4jnsgd1na2vs0mg"},{"bike_id":"0ce641a1-ca62-4f05-b894-4a72f77b98f2","system_id":"levelo_inurba_marseille","lat":43.32362,"lon":5.36724,"is_reserved":false,"is_disabled":false,"rental_uris":{"android":"levelo://app?vid=0ce641a1-ca62-4f05-b894-4a72f77b98f2","ios":"levelo://app?vid=0ce641a1-ca62-4f05-b894-4a72f77b98f2"},"vehicle_type_id":"4","last_reported":1777116664,"current_range_meters":6800,"station_id":"ce4bhsh2rcd13ifvqi2g","pricing_plan_id":"cebpf4jnsgd1na2vs0mg"},{"bike_id":"5eddcf62-d28d-47a6-9895-da2f94ffd6fd","system_id":"levelo_inurba_marseille","lat":43.28582,"lon":5.38311,"is_reserved":false,"is_disabled":false,"rental_uris":{"android":"levelo://app?vid=5eddcf62-d28d-47a6-9895-da2f94ffd6fd","ios":"levelo://app?vid=5eddcf62-d28d-47a6-9895-da2f94ffd6fd"},"vehicle_type_id":"4","last_reported":1777116664,"current_range_meters":6800,"station_id":"","pricing_plan_id":"cebpf4jnsgd1na2vs0mg"},{"bike_id":"bd9c3448-ae68-4278-a859-e07cb1357f24","system_id":"levelo_inurba_marseille","lat":43.31058,"lon":5.37181,"is_reserved":false,"is_disabled":false,"rental_uris":{"android":"levelo://app?vid=bd9c3448-ae68-4278-a859-e07cb1357f24","ios":"levelo://app?vid=bd9c3448-ae68-4278-a859-e07cb1357f24"},"vehicle_type_id":"4","last_reported":1777116664,"current_range_meters":6800,"station_id":"st_d4kl2rp97mjs73e7tdfg","pricing_plan_id":"cebpf4jnsgd1na2vs0mg"},{"bike_id":"b22ec297-62ee-481a-a0d9-79248e80d698","system_id":"levelo_inurba_marseille","lat":43.28287,"lon":5.35071,"is_reserved":false,"is_disabled":false,"rental_uris":{"android":"levelo://app?vid=b22ec297-62ee-481a-a0d9-79248e80d698","ios":"levelo://app?vid=b22ec297-62ee-481a-a0d9-79248e80d698"},"vehicle_type_id":"4","last_reported":1777116664,"current_range_meters":6800,"station_id":"ce4bhbp2rcd13ifvqerg","pricing_plan_id":"cebpf4jnsgd1na2vs0mg"},{"bike_id":"45ad0d0e-efdd-4c05-bbcd-19b309dc3892","system_id":"levelo_inurba_marseille","lat":43.27991,"lon":5.41625,"is_reserved":false,"is_disabled":false,"rental_uris":{"android":"levelo://app?vid=45ad0d0e-efdd-4c05-bbcd-19b309dc3892","ios":"levelo://app?vid=45ad0d0e-efdd-4c05-bbcd-19b309dc3892"},"vehicle_type_id":"4","last_reported":1777116664,"current_range_meters":6800,"station_id":"ce4bho12rcd13ifvqh1g","pricing_plan_id":"cebpf4jnsgd1na2vs0mg"},{"bike_id":"70c7e508-dee8-4c48-84ef-dd92c8416275","system_id":"levelo_inurba_marseille","lat":43.24166,"lon":5.36388,"is_reserved":false,"is_disabled":false,"rental_uris":{"android":"levelo://app?vid=70c7e508-dee8-4c48-84ef-dd92c8416275","ios":"levelo://app?vid=70c7e508-dee8-4c48-84ef-dd92c8416275"},"vehicle_type_id":"4","last_reported":1777116664,"current_range_meters":6800,"station_id":"cpo36qri1sfpv3e86is0","pricing_plan_id":"cebpf4jnsgd1na2vs0mg"},{"bike_id":"219d0e76-da72-4224-ab57-f5a16ce71cd2","system_id":"levelo_inurba_marseille","lat":43.21749,"lon":5.34596,"is_reserved":false,"is_disabled":false,"rental_uris":{"android":"levelo://app?vid=219d0e76-da72-4224-ab57-f5a16ce71cd2","ios":"levelo://app?vid=219d0e76-da72-4224-ab57-f5a16ce71cd2"},"vehicle_type_id":"4","last_reported":1777116664,"current_range_meters":6800,"station_id":"st_cvj6r9ubvosntc0bgbag","pricing_plan_id":"cebpf4jnsgd1na2vs0mg"},{"bike_id":"6b50c11e-02a0-4d45-8994-7a4d05e976bc","system_id":"levelo_inurba_marseille","lat":43.29728,"lon":5.37241,"is_reserved":false,"is_disabled":false,"rental_uris":{"android":"levelo://app?vid=6b50c11e-02a0-4d45-8994-7a4d05e976bc","ios":"levelo://app?vid=6b50c11e-02a0-4d45-8994-7a4d05e976bc"},"vehicle_type_id":"4","last_reported":1777116664,"current_range_meters":6800,"station_id":"","pricing_plan_id":"cebpf4jnsgd1na2vs0mg"},{"bike_id":"95430d5b-44ff-449b-9e09-8a6c48d6930c","system_id":"levelo_inurba_marseille","lat":43.29742,"lon":5.37767,"is_reserved":false,"is_disabled":false,"rental_uris":{"android":"levelo://app?vid=95430d5b-44ff-449b-9e09-8a6c48d6930c","ios":"levelo://app?vid=95430d5b-44ff-449b-9e09-8a6c48d6930c"},"vehicle_type_id":"4","last_reported":1777116664,"current_range_meters":6800,"station_id":"","pricing_plan_id":"cebpf4jnsgd1na2vs0mg"},{"bike_id":"512b289f-7064-43b9-81df-445ba5c8bc75","system_id":"levelo_inurba_marseille","lat":43.2396,"lon":5.36627,"is_reserved":false,"is_disabled":false,"rental_uris":{"android":"levelo://app?vid=512b289f-7064-43b9-81df-445ba5c8bc75","ios":"levelo://app?vid=512b289f-7064-43b9-81df-445ba5c8bc75"},"vehicle_type_id":"4","last_reported":1777116664,"current_range_meters":6800,"station_id":"ce4bhi12rcd13ifvqfp0","pricing_plan_id":"cebpf4jnsgd1na2vs0mg"},{"bike_id":"5091d3df-140a-4a96-ba1e-f44ab742c57b","system_id":"levelo_inurba_marseille","lat":43.23175,"lon":5.39993,"is_reserved":false,"is_disabled":true,"rental_uris":{"android":"levelo://app?vid=5091d3df-140a-4a96-ba1e-f44ab742c57b","ios":"levelo://app?vid=5091d3df-140a-4a96-ba1e-f44ab742c57b"},"vehicle_type_id":"4","last_reported":1777116664,"current_range_meters":6800,"station_id":"ce4bhn12rcd13ifvqgqg","pricing_plan_id":"cebpf4jnsgd1na2vs0mg"},{"bike_id":"8182275d-3e1a-47da-86ac-4d6dadb24e2c","system_id":"levelo_inurba_marseille","lat":43.24381,"lon":5.37034,"is_reserved":false,"is_disabled":false,"rental_uris":{"android":"levelo://app?vid=8182275d-3e1a-47da-86ac-4d6dadb24e2c","ios":"levelo://app?vid=8182275d-3e1a-47da-86ac-4d6dadb24e2c"},"vehicle_type_id":"4","last_reported":1777116664,"current_range_meters":7200,"station_id":"ce4bhhh2rcd13ifvqfk0","pricing_plan_id":"cebpf4jnsgd1na2vs0mg"},{"bike_id":"4e7f60dc-2079-4f51-9d09-01d31cdd2f9b","system_id":"levelo_inurba_marseille","lat":43.24649,"lon":5.4315,"is_reserved":false,"is_disabled":false,"rental_uris":{"android":"levelo://app?vid=4e7f60dc-2079-4f51-9d09-01d31cdd2f9b","ios":"levelo://app?vid=4e7f60dc-2079-4f51-9d09-01d31cdd2f9b"},"vehicle_type_id":"4","last_reported":1777116664,"current_range_meters":7200,"station_id":"st_d2m6c4gdas8pm72e190g","pricing_plan_id":"cebpf4jnsgd1na2vs0mg"},{"bike_id":"7c7a6e62-e130-431f-b3ec-a07feec308d8","system_id":"levelo_inurba_marseille","lat":43.22703,"lon":5.34817,"is_reserved":false,"is_disabled":false,"rental_uris":{"android":"levelo://app?vid=7c7a6e62-e130-431f-b3ec-a07feec308d8","ios":"levelo://app?vid=7c7a6e62-e130-431f-b3ec-a07feec308d8"},"vehicle_type_id":"4","last_reported":1777116664,"current_range_meters":7200,"station_id":"","pricing_plan_id":"cebpf4jnsgd1na2vs0mg"},{"bike_id":"90610949-5042-40f1-8252-076aeddd7d81","system_id":"levelo_inurba_marseille","lat":43.319,"lon":5.36805,"is_reserved":false,"is_disabled":false,"rental_uris":{"android":"levelo://app?vid=90610949-5042-40f1-8252-076aeddd7d81","ios":"levelo://app?vid=90610949-5042-40f1-8252-076aeddd7d81"},"vehicle_type_id":"4","last_reported":1777116664,"current_range_meters":7200,"station_id":"st_d6o2h0d0559c73evc1b0","pricing_plan_id":"cebpf4jnsgd1na2vs0mg"},{"bike_id":"021c3599-d960-4255-bf18-8b3b47549997","system_id":"levelo_inurba_marseille","lat":43.30171,"lon":5.43062,"is_reserved":false,"is_disabled":false,"rental_uris":{"android":"levelo://app?vid=021c3599-d960-4255-bf18-8b3b47549997","ios":"levelo://app?vid=021c3599-d960-4255-bf18-8b3b47549997"},"vehicle_type_id":"4","last_reported":1777116664,"current_range_meters":7200,"station_id":"st_d3js3co5814s73ftftug","pricing_plan_id":"cebpf4jnsgd1na2vs0mg"},{"bike_id":"32896887-9d74-49f7-8e67-3ffcd46dedd6","system_id":"levelo_inurba_marseille","lat":43.262151,"lon":5.374409,"is_reserved":false,"is_disabled":false,"rental_uris":{"android":"levelo://app?vid=32896887-9d74-49f7-8e67-3ffcd46dedd6","ios":"levelo://app?vid=32896887-9d74-49f7-8e67-3ffcd46dedd6"},"vehicle_type_id":"4","last_reported":1777116664,"current_range_meters":7200,"station_id":"ce4bhgp2rcd13ifvqfc0","pricing_plan_id":"cebpf4jnsgd1na2vs0mg"},{"bike_id":"3f953cbe-f6a1-48c4-bd8c-e53b1e605a28","system_id":"levelo_inurba_marseille","lat":43.21189,"lon":5.3507,"is_reserved":false,"is_disabled":false,"rental_uris":{"android":"levelo://app?vid=3f953cbe-f6a1-48c4-bd8c-e53b1e605a28","ios":"levelo://app?vid=3f953cbe-f6a1-48c4-bd8c-e53b1e605a28"},"vehicle_type_id":"4","last_reported":1777116664,"current_range_meters":7200,"station_id":"st_cvj6sg6p6f1abm77japg","pricing_plan_id":"cebpf4jnsgd1na2vs0mg"},{"bike_id":"f899884a-365d-4af6-943a-f70f2db9f759","system_id":"levelo_inurba_marseille","lat":43.24388,"lon":5.37056,"is_reserved":false,"is_disabled":false,"rental_uris":{"android":"levelo://app?vid=f899884a-365d-4af6-943a-f70f2db9f759","ios":"levelo://app?vid=f899884a-365d-4af6-943a-f70f2db9f759"},"vehicle_type_id":"4","last_reported":1777116664,"current_range_meters":7200,"station_id":"ce4bhhh2rcd13ifvqfk0","pricing_plan_id":"cebpf4jnsgd1na2vs0mg"},{"bike_id":"fe1db0a9-7297-450b-9955-f259bfddc53e","system_id":"levelo_inurba_marseille","lat":43.30149,"lon":5.38089,"is_reserved":false,"is_disabled":false,"rental_uris":{"android":"levelo://app?vid=fe1db0a9-7297-450b-9955-f259bfddc53e","ios":"levelo://app?vid=fe1db0a9-7297-450b-9955-f259bfddc53e"},"vehicle_type_id":"4","last_reported":1777116664,"current_range_meters":8000,"station_id":"ce4bgjp2rcd13ifvqbh0","pricing_plan_id":"cebpf4jnsgd1na2vs0mg"},{"bike_id":"47cdfd85-c850-4193-aaa5-b5a23a2b2f3d","system_id":"levelo_inurba_marseille","lat":43.31096,"lon":5.37235,"is_reserved":false,"is_disabled":false,"rental_uris":{"android":"levelo://app?vid=47cdfd85-c850-4193-aaa5-b5a23a2b2f3d","ios":"levelo://app?vid=47cdfd85-c850-4193-aaa5-b5a23a2b2f3d"},"vehicle_type_id":"4","last_reported":1777116664,"current_range_meters":8000,"station_id":"st_d4kl2rp97mjs73e7tdfg","pricing_plan_id":"cebpf4jnsgd1na2vs0mg"},{"bike_id":"4d040ed4-2f2f-4aeb-b484-49b4d95858e3","system_id":"levelo_inurba_marseille","lat":43.21185,"lon":5.35066,"is_reserved":false,"is_disabled":false,"rental_uris":{"android":"levelo://app?vid=4d040ed4-2f2f-4aeb-b484-49b4d95858e3","ios":"levelo://app?vid=4d040ed4-2f2f-4aeb-b484-49b4d95858e3"},"vehicle_type_id":"4","last_reported":1777116664,"current_range_meters":8000,"station_id":"st_cvj6sg6p6f1abm77japg","pricing_plan_id":"cebpf4jnsgd1na2vs0mg"},{"bike_id":"079d348b-32b8-4d0a-b7df-4d4bb7d889e3","system_id":"levelo_inurba_marseille","lat":43.2438,"lon":5.3706,"is_reserved":false,"is_disabled":false,"rental_uris":{"android":"levelo://app?vid=079d348b-32b8-4d0a-b7df-4d4bb7d889e3","ios":"levelo://app?vid=079d348b-32b8-4d0a-b7df-4d4bb7d889e3"},"vehicle_type_id":"4","last_reported":1777116664,"current_range_meters":8000,"station_id":"ce4bhhh2rcd13ifvqfk0","pricing_plan_id":"cebpf4jnsgd1na2vs0mg"},{"bike_id":"6a1cfa44-424c-4486-9c1d-4dd666a8eeca","system_id":"levelo_inurba_marseille","lat":43.21179,"lon":5.35104,"is_reserved":false,"is_disabled":false,"rental_uris":{"android":"levelo://app?vid=6a1cfa44-424c-4486-9c1d-4dd666a8eeca","ios":"levelo://app?vid=6a1cfa44-424c-4486-9c1d-4dd666a8eeca"},"vehicle_type_id":"4","last_reported":1777116664,"current_range_meters":8000,"station_id":"st_cvj6sg6p6f1abm77japg","pricing_plan_id":"cebpf4jnsgd1na2vs0mg"},{"bike_id":"e1b910ef-9f7a-4013-aed7-3f70e1a157ff","system_id":"levelo_inurba_marseille","lat":43.31702,"lon":5.43684,"is_reserved":false,"is_disabled":false,"rental_uris":{"android":"levelo://app?vid=e1b910ef-9f7a-4013-aed7-3f70e1a157ff","ios":"levelo://app?vid=e1b910ef-9f7a-4013-aed7-3f70e1a157ff"},"vehicle_type_id":"4","last_reported":1777116664,"current_range_meters":8000,"station_id":"ce4bhp92rcd13ifvqhcg","pricing_plan_id":"cebpf4jnsgd1na2vs0mg"},{"bike_id":"fb7f5d63-993c-4c7f-b55a-10dfc776bff8","system_id":"levelo_inurba_marseille","lat":43.29582,"lon":5.37483,"is_reserved":false,"is_disabled":false,"rental_uris":{"android":"levelo://app?vid=fb7f5d63-993c-4c7f-b55a-10dfc776bff8","ios":"levelo://app?vid=fb7f5d63-993c-4c7f-b55a-10dfc776bff8"},"vehicle_type_id":"4","last_reported":1777116664,"current_range_meters":8000,"station_id":"ce4bgh92rcd13ifvqb50","pricing_plan_id":"cebpf4jnsgd1na2vs0mg"},{"bike_id":"e9c27d45-b818-4251-95ae-1ae8d1bb0fc1","system_id":"levelo_inurba_marseille","lat":43.30182,"lon":5.3807,"is_reserved":false,"is_disabled":false,"rental_uris":{"android":"levelo://app?vid=e9c27d45-b818-4251-95ae-1ae8d1bb0fc1","ios":"levelo://app?vid=e9c27d45-b818-4251-95ae-1ae8d1bb0fc1"},"vehicle_type_id":"4","last_reported":1777116664,"current_range_meters":8000,"station_id":"ce4bgjp2rcd13ifvqbh0","pricing_plan_id":"cebpf4jnsgd1na2vs0mg"},{"bike_id":"541dbded-315f-4ca8-ac49-47fcb4294bb7","system_id":"levelo_inurba_marseille","lat":43.33538,"lon":5.37458,"is_reserved":false,"is_disabled":false,"rental_uris":{"android":"levelo://app?vid=541dbded-315f-4ca8-ac49-47fcb4294bb7","ios":"levelo://app?vid=541dbded-315f-4ca8-ac49-47fcb4294bb7"},"vehicle_type_id":"4","last_reported":1777116664,"current_range_meters":8000,"station_id":"st_d46tts09ee8s73dlu43g","pricing_plan_id":"cebpf4jnsgd1na2vs0mg"},{"bike_id":"c2498040-b6e0-4de8-8829-12b18e0968e7","system_id":"levelo_inurba_marseille","lat":43.22567,"lon":5.4162,"is_reserved":false,"is_disabled":false,"rental_uris":{"android":"levelo://app?vid=c2498040-b6e0-4de8-8829-12b18e0968e7","ios":"levelo://app?vid=c2498040-b6e0-4de8-8829-12b18e0968e7"},"vehicle_type_id":"4","last_reported":1777116664,"current_range_meters":8000,"station_id":"st_d2o4gvlbi1j2169b742g","pricing_plan_id":"cebpf4jnsgd1na2vs0mg"},{"bike_id":"bdcf6bdb-fa72-49fe-ac71-11216efbd644","system_id":"levelo_inurba_marseille","lat":43.297,"lon":5.37282,"is_reserved":false,"is_disabled":false,"rental_uris":{"android":"levelo://app?vid=bdcf6bdb-fa72-49fe-ac71-11216efbd644","ios":"levelo://app?vid=bdcf6bdb-fa72-49fe-ac71-11216efbd644"},"vehicle_type_id":"4","last_reported":1777116664,"current_range_meters":8000,"station_id":"ce4bgk12rcd13ifvqbj0","pricing_plan_id":"cebpf4jnsgd1na2vs0mg"},{"bike_id":"80d34ee4-9695-41ba-bcd8-fb44ac5753a6","system_id":"levelo_inurba_marseille","lat":43.28534,"lon":5.44112,"is_reserved":false,"is_disabled":false,"rental_uris":{"android":"levelo://app?vid=80d34ee4-9695-41ba-bcd8-fb44ac5753a6","ios":"levelo://app?vid=80d34ee4-9695-41ba-bcd8-fb44ac5753a6"},"vehicle_type_id":"4","last_reported":1777116664,"current_range_meters":8000,"station_id":"st_d3j3df2ikq2c7380ej80","pricing_plan_id":"cebpf4jnsgd1na2vs0mg"},{"bike_id":"413e4623-e4a6-44c0-8fe0-f06c3e224af8","system_id":"levelo_inurba_marseille","lat":43.31905,"lon":5.36788,"is_reserved":false,"is_disabled":false,"rental_uris":{"android":"levelo://app?vid=413e4623-e4a6-44c0-8fe0-f06c3e224af8","ios":"levelo://app?vid=413e4623-e4a6-44c0-8fe0-f06c3e224af8"},"vehicle_type_id":"4","last_reported":1777116664,"current_range_meters":8400,"station_id":"st_d6o2h0d0559c73evc1b0","pricing_plan_id":"cebpf4jnsgd1na2vs0mg"},{"bike_id":"8d715502-1f4d-495a-aba7-e255ad4122f8","system_id":"levelo_inurba_marseille","lat":43.23959,"lon":5.36624,"is_reserved":false,"is_disabled":false,"rental_uris":{"android":"levelo://app?vid=8d715502-1f4d-495a-aba7-e255ad4122f8","ios":"levelo://app?vid=8d715502-1f4d-495a-aba7-e255ad4122f8"},"vehicle_type_id":"4","last_reported":1777116664,"current_range_meters":8400,"station_id":"ce4bhi12rcd13ifvqfp0","pricing_plan_id":"cebpf4jnsgd1na2vs0mg"},{"bike_id":"335d7250-451d-4620-bf87-cc5a457d5216","system_id":"levelo_inurba_marseille","lat":43.28568,"lon":5.38373,"is_reserved":false,"is_disabled":false,"rental_uris":{"android":"levelo://app?vid=335d7250-451d-4620-bf87-cc5a457d5216","ios":"levelo://app?vid=335d7250-451d-4620-bf87-cc5a457d5216"},"vehicle_type_id":"4","last_reported":1777116664,"current_range_meters":8400,"station_id":"","pricing_plan_id":"cebpf4jnsgd1na2vs0mg"},{"bike_id":"876b4ec0-2a51-411e-a5e6-31d974052f23","system_id":"levelo_inurba_marseille","lat":43.28075,"lon":5.39657,"is_reserved":false,"is_disabled":false,"rental_uris":{"android":"levelo://app?vid=876b4ec0-2a51-411e-a5e6-31d974052f23","ios":"levelo://app?vid=876b4ec0-2a51-411e-a5e6-31d974052f23"},"vehicle_type_id":"4","last_reported":1777116664,"current_range_meters":8400,"station_id":"ce4bho12rcd13ifvqh2g","pricing_plan_id":"cebpf4jnsgd1na2vs0mg"},{"bike_id":"3fe60b2d-65d1-4d59-bf1e-422b9e7a469f","system_id":"levelo_inurba_marseille","lat":43.2501,"lon":5.38909,"is_reserved":false,"is_disabled":false,"rental_uris":{"android":"levelo://app?vid=3fe60b2d-65d1-4d59-bf1e-422b9e7a469f","ios":"levelo://app?vid=3fe60b2d-65d1-4d59-bf1e-422b9e7a469f"},"vehicle_type_id":"4","last_reported":1777116664,"current_range_meters":8400,"station_id":"ce4bhgp2rcd13ifvqfd0","pricing_plan_id":"cebpf4jnsgd1na2vs0mg"},{"bike_id":"14dd2a08-5501-429c-b133-7814faf409ff","system_id":"levelo_inurba_marseille","lat":43.29576,"lon":5.37507,"is_reserved":false,"is_disabled":false,"rental_uris":{"android":"levelo://app?vid=14dd2a08-5501-429c-b133-7814faf409ff","ios":"levelo://app?vid=14dd2a08-5501-429c-b133-7814faf409ff"},"vehicle_type_id":"4","last_reported":1777116664,"current_range_meters":8400,"station_id":"ce4bgh92rcd13ifvqb50","pricing_plan_id":"cebpf4jnsgd1na2vs0mg"},{"bike_id":"bcfbc128-d285-4d78-bf51-560ef0a60c72","system_id":"levelo_inurba_marseille","lat":43.28481,"lon":5.48383,"is_reserved":false,"is_disabled":false,"rental_uris":{"android":"levelo://app?vid=bcfbc128-d285-4d78-bf51-560ef0a60c72","ios":"levelo://app?vid=bcfbc128-d285-4d78-bf51-560ef0a60c72"},"vehicle_type_id":"4","last_reported":1777116664,"current_range_meters":8400,"station_id":"","pricing_plan_id":"cebpf4jnsgd1na2vs0mg"},{"bike_id":"7b548114-61f6-4f44-8ad1-8c83ed4c23dc","system_id":"levelo_inurba_marseille","lat":43.24599,"lon":5.4179,"is_reserved":false,"is_disabled":false,"rental_uris":{"android":"levelo://app?vid=7b548114-61f6-4f44-8ad1-8c83ed4c23dc","ios":"levelo://app?vid=7b548114-61f6-4f44-8ad1-8c83ed4c23dc"},"vehicle_type_id":"4","last_reported":1777116664,"current_range_meters":8400,"station_id":"","pricing_plan_id":"cebpf4jnsgd1na2vs0mg"},{"bike_id":"548e4a82-32b2-49d2-a8d0-a6b1676f8a48","system_id":"levelo_inurba_marseille","lat":43.32445,"lon":5.36515,"is_reserved":false,"is_disabled":false,"rental_uris":{"android":"levelo://app?vid=548e4a82-32b2-49d2-a8d0-a6b1676f8a48","ios":"levelo://app?vid=548e4a82-32b2-49d2-a8d0-a6b1676f8a48"},"vehicle_type_id":"4","last_reported":1777116664,"current_range_meters":8400,"station_id":"ce4bhs12rcd13ifvqhvg","pricing_plan_id":"cebpf4jnsgd1na2vs0mg"},{"bike_id":"d1d5c7cf-8e64-4123-ad8a-ccd792fc4d10","system_id":"levelo_inurba_marseille","lat":43.2934,"lon":5.3984,"is_reserved":false,"is_disabled":false,"rental_uris":{"android":"levelo://app?vid=d1d5c7cf-8e64-4123-ad8a-ccd792fc4d10","ios":"levelo://app?vid=d1d5c7cf-8e64-4123-ad8a-ccd792fc4d10"},"vehicle_type_id":"4","last_reported":1777116664,"current_range_meters":8400,"station_id":"","pricing_plan_id":"cebpf4jnsgd1na2vs0mg"},{"bike_id":"85e28e2a-2421-4551-a813-382122811cec","system_id":"levelo_inurba_marseille","lat":43.31878,"lon":5.36797,"is_reserved":false,"is_disabled":false,"rental_uris":{"android":"levelo://app?vid=85e28e2a-2421-4551-a813-382122811cec","ios":"levelo://app?vid=85e28e2a-2421-4551-a813-382122811cec"},"vehicle_type_id":"4","last_reported":1777116664,"current_range_meters":8400,"station_id":"st_d6o2h0d0559c73evc1b0","pricing_plan_id":"cebpf4jnsgd1na2vs0mg"},{"bike_id":"fd49c6c8-309b-4094-a542-f795fb68b18f","system_id":"levelo_inurba_marseille","lat":43.31346,"lon":5.36708,"is_reserved":false,"is_disabled":false,"rental_uris":{"android":"levelo://app?vid=fd49c6c8-309b-4094-a542-f795fb68b18f","ios":"levelo://app?vid=fd49c6c8-309b-4094-a542-f795fb68b18f"},"vehicle_type_id":"4","last_reported":1777116664,"current_range_meters":8400,"station_id":"ce4bgr92rcd13ifvqc6g","pricing_plan_id":"cebpf4jnsgd1na2vs0mg"},{"bike_id":"8341b31b-839a-4791-ba58-b87a54c6f8da","system_id":"levelo_inurba_marseille","lat":43.3031,"lon":5.36892,"is_reserved":false,"is_disabled":false,"rental_uris":{"android":"levelo://app?vid=8341b31b-839a-4791-ba58-b87a54c6f8da","ios":"levelo://app?vid=8341b31b-839a-4791-ba58-b87a54c6f8da"},"vehicle_type_id":"4","last_reported":1777116664,"current_range_meters":8400,"station_id":"ce4bgqh2rcd13ifvqc5g","pricing_plan_id":"cebpf4jnsgd1na2vs0mg"},{"bike_id":"90fac789-06e9-4c33-94b9-e82543e03c21","system_id":"levelo_inurba_marseille","lat":43.22566,"lon":5.4164,"is_reserved":false,"is_disabled":true,"rental_uris":{"android":"levelo://app?vid=90fac789-06e9-4c33-94b9-e82543e03c21","ios":"levelo://app?vid=90fac789-06e9-4c33-94b9-e82543e03c21"},"vehicle_type_id":"4","last_reported":1777116664,"current_range_meters":8400,"station_id":"st_d2o4gvlbi1j2169b742g","pricing_plan_id":"cebpf4jnsgd1na2vs0mg"},{"bike_id":"1cc2b7da-177a-49a3-8213-4f417d318164","system_id":"levelo_inurba_marseille","lat":43.29266,"lon":5.38432,"is_reserved":false,"is_disabled":false,"rental_uris":{"android":"levelo://app?vid=1cc2b7da-177a-49a3-8213-4f417d318164","ios":"levelo://app?vid=1cc2b7da-177a-49a3-8213-4f417d318164"},"vehicle_type_id":"4","last_reported":1777116664,"current_range_meters":8400,"station_id":"ce4bh692rcd13ifvqea0","pricing_plan_id":"cebpf4jnsgd1na2vs0mg"},{"bike_id":"308f68c0-c326-4383-b2d4-3d5ce68f7df6","system_id":"levelo_inurba_marseille","lat":43.27989,"lon":5.36375,"is_reserved":false,"is_disabled":false,"rental_uris":{"android":"levelo://app?vid=308f68c0-c326-4383-b2d4-3d5ce68f7df6","ios":"levelo://app?vid=308f68c0-c326-4383-b2d4-3d5ce68f7df6"},"vehicle_type_id":"4","last_reported":1777116664,"current_range_meters":8800,"station_id":"","pricing_plan_id":"cebpf4jnsgd1na2vs0mg"},{"bike_id":"97f0351e-0015-4f6a-a402-604cdb115786","system_id":"levelo_inurba_marseille","lat":43.2119,"lon":5.35075,"is_reserved":false,"is_disabled":false,"rental_uris":{"android":"levelo://app?vid=97f0351e-0015-4f6a-a402-604cdb115786","ios":"levelo://app?vid=97f0351e-0015-4f6a-a402-604cdb115786"},"vehicle_type_id":"4","last_reported":1777116664,"current_range_meters":8800,"station_id":"st_cvj6sg6p6f1abm77japg","pricing_plan_id":"cebpf4jnsgd1na2vs0mg"},{"bike_id":"7ac59c81-01df-4b8e-9807-86f926b0041a","system_id":"levelo_inurba_marseille","lat":43.28084,"lon":5.3911,"is_reserved":false,"is_disabled":false,"rental_uris":{"android":"levelo://app?vid=7ac59c81-01df-4b8e-9807-86f926b0041a","ios":"levelo://app?vid=7ac59c81-01df-4b8e-9807-86f926b0041a"},"vehicle_type_id":"4","last_reported":1777116664,"current_range_meters":8800,"station_id":"","pricing_plan_id":"cebpf4jnsgd1na2vs0mg"},{"bike_id":"5687bcf3-d7dc-457c-91e4-c37491638fcd","system_id":"levelo_inurba_marseille","lat":43.24167,"lon":5.36381,"is_reserved":false,"is_disabled":false,"rental_uris":{"android":"levelo://app?vid=5687bcf3-d7dc-457c-91e4-c37491638fcd","ios":"levelo://app?vid=5687bcf3-d7dc-457c-91e4-c37491638fcd"},"vehicle_type_id":"4","last_reported":1777116664,"current_range_meters":8800,"station_id":"cpo36qri1sfpv3e86is0","pricing_plan_id":"cebpf4jnsgd1na2vs0mg"},{"bike_id":"7d7edd84-0fa3-48c7-8728-ef8dd9d19770","system_id":"levelo_inurba_marseille","lat":43.24378,"lon":5.37056,"is_reserved":false,"is_disabled":false,"rental_uris":{"android":"levelo://app?vid=7d7edd84-0fa3-48c7-8728-ef8dd9d19770","ios":"levelo://app?vid=7d7edd84-0fa3-48c7-8728-ef8dd9d19770"},"vehicle_type_id":"4","last_reported":1777116664,"current_range_meters":8800,"station_id":"ce4bhhh2rcd13ifvqfk0","pricing_plan_id":"cebpf4jnsgd1na2vs0mg"},{"bike_id":"50c76cdb-61ce-440d-a92e-2ab434610c7f","system_id":"levelo_inurba_marseille","lat":43.27369,"lon":5.36246,"is_reserved":false,"is_disabled":false,"rental_uris":{"android":"levelo://app?vid=50c76cdb-61ce-440d-a92e-2ab434610c7f","ios":"levelo://app?vid=50c76cdb-61ce-440d-a92e-2ab434610c7f"},"vehicle_type_id":"4","last_reported":1777116664,"current_range_meters":8800,"station_id":"ce4bhbh2rcd13ifvqeo0","pricing_plan_id":"cebpf4jnsgd1na2vs0mg"},{"bike_id":"12351776-ce4e-4c65-be2a-084ee71a31ed","system_id":"levelo_inurba_marseille","lat":43.2408,"lon":5.37768,"is_reserved":false,"is_disabled":false,"rental_uris":{"android":"levelo://app?vid=12351776-ce4e-4c65-be2a-084ee71a31ed","ios":"levelo://app?vid=12351776-ce4e-4c65-be2a-084ee71a31ed"},"vehicle_type_id":"4","last_reported":1777116664,"current_range_meters":8800,"station_id":"ce4bhnp2rcd13ifvqgvg","pricing_plan_id":"cebpf4jnsgd1na2vs0mg"},{"bike_id":"ac487a78-83ef-4fbc-a26d-33c3d51f696a","system_id":"levelo_inurba_marseille","lat":43.30932,"lon":5.4014,"is_reserved":false,"is_disabled":false,"rental_uris":{"android":"levelo://app?vid=ac487a78-83ef-4fbc-a26d-33c3d51f696a","ios":"levelo://app?vid=ac487a78-83ef-4fbc-a26d-33c3d51f696a"},"vehicle_type_id":"4","last_reported":1777116664,"current_range_meters":8800,"station_id":"ce4bgvp2rcd13ifvqct0","pricing_plan_id":"cebpf4jnsgd1na2vs0mg"},{"bike_id":"071d1e71-48c5-45bd-bc37-ce81033af5ba","system_id":"levelo_inurba_marseille","lat":43.31536,"lon":5.38045,"is_reserved":false,"is_disabled":false,"rental_uris":{"android":"levelo://app?vid=071d1e71-48c5-45bd-bc37-ce81033af5ba","ios":"levelo://app?vid=071d1e71-48c5-45bd-bc37-ce81033af5ba"},"vehicle_type_id":"4","last_reported":1777116664,"current_range_meters":8800,"station_id":"ce4bhsp2rcd13ifvqi50","pricing_plan_id":"cebpf4jnsgd1na2vs0mg"},{"bike_id":"e99c358c-a857-42b8-8991-f2cc5531f07c","system_id":"levelo_inurba_marseille","lat":43.25087,"lon":5.39522,"is_reserved":false,"is_disabled":false,"rental_uris":{"android":"levelo://app?vid=e99c358c-a857-42b8-8991-f2cc5531f07c","ios":"levelo://app?vid=e99c358c-a857-42b8-8991-f2cc5531f07c"},"vehicle_type_id":"4","last_reported":1777116664,"current_range_meters":8800,"station_id":"ce4bhm12rcd13ifvqgkg","pricing_plan_id":"cebpf4jnsgd1na2vs0mg"},{"bike_id":"7d507d55-089b-4da6-9cba-e3bba178d923","system_id":"levelo_inurba_marseille","lat":43.23182,"lon":5.40001,"is_reserved":false,"is_disabled":false,"rental_uris":{"android":"levelo://app?vid=7d507d55-089b-4da6-9cba-e3bba178d923","ios":"levelo://app?vid=7d507d55-089b-4da6-9cba-e3bba178d923"},"vehicle_type_id":"4","last_reported":1777116664,"current_range_meters":8800,"station_id":"ce4bhn12rcd13ifvqgqg","pricing_plan_id":"cebpf4jnsgd1na2vs0mg"},{"bike_id":"92fe45ed-181b-49c4-b577-34fd3be7badc","system_id":"levelo_inurba_marseille","lat":43.26676,"lon":5.38263,"is_reserved":false,"is_disabled":false,"rental_uris":{"android":"levelo://app?vid=92fe45ed-181b-49c4-b577-34fd3be7badc","ios":"levelo://app?vid=92fe45ed-181b-49c4-b577-34fd3be7badc"},"vehicle_type_id":"4","last_reported":1777116664,"current_range_meters":8800,"station_id":"ce4bhg92rcd13ifvqf90","pricing_plan_id":"cebpf4jnsgd1na2vs0mg"},{"bike_id":"f9b98806-d74c-46ef-8642-07dd46c19f4b","system_id":"levelo_inurba_marseille","lat":43.28698,"lon":5.467,"is_reserved":false,"is_disabled":false,"rental_uris":{"android":"levelo://app?vid=f9b98806-d74c-46ef-8642-07dd46c19f4b","ios":"levelo://app?vid=f9b98806-d74c-46ef-8642-07dd46c19f4b"},"vehicle_type_id":"4","last_reported":1777116664,"current_range_meters":8800,"station_id":"st_d6tc3vkotcvc738tfjhg","pricing_plan_id":"cebpf4jnsgd1na2vs0mg"},{"bike_id":"633ce3f2-1d64-4039-9c69-e753512721a8","system_id":"levelo_inurba_marseille","lat":43.27165,"lon":5.41006,"is_reserved":false,"is_disabled":false,"rental_uris":{"android":"levelo://app?vid=633ce3f2-1d64-4039-9c69-e753512721a8","ios":"levelo://app?vid=633ce3f2-1d64-4039-9c69-e753512721a8"},"vehicle_type_id":"4","last_reported":1777116664,"current_range_meters":8800,"station_id":"ce4bhl12rcd13ifvqgf0","pricing_plan_id":"cebpf4jnsgd1na2vs0mg"},{"bike_id":"fea5a28c-0167-4a62-9062-e629ed9b3e8f","system_id":"levelo_inurba_marseille","lat":43.28477,"lon":5.48389,"is_reserved":false,"is_disabled":false,"rental_uris":{"android":"levelo://app?vid=fea5a28c-0167-4a62-9062-e629ed9b3e8f","ios":"levelo://app?vid=fea5a28c-0167-4a62-9062-e629ed9b3e8f"},"vehicle_type_id":"4","last_reported":1777116664,"current_range_meters":8800,"station_id":"st_d3svhcjqgbts73a3dn0g","pricing_plan_id":"cebpf4jnsgd1na2vs0mg"},{"bike_id":"d3050471-9104-4ea5-b4ff-3c27d3f7898b","system_id":"levelo_inurba_marseille","lat":43.25089,"lon":5.3951,"is_reserved":false,"is_disabled":false,"rental_uris":{"android":"levelo://app?vid=d3050471-9104-4ea5-b4ff-3c27d3f7898b","ios":"levelo://app?vid=d3050471-9104-4ea5-b4ff-3c27d3f7898b"},"vehicle_type_id":"4","last_reported":1777116664,"current_range_meters":8800,"station_id":"ce4bhm12rcd13ifvqgkg","pricing_plan_id":"cebpf4jnsgd1na2vs0mg"},{"bike_id":"73b29586-6035-4b17-8f89-10c778399a16","system_id":"levelo_inurba_marseille","lat":43.31992,"lon":5.38122,"is_reserved":false,"is_disabled":false,"rental_uris":{"android":"levelo://app?vid=73b29586-6035-4b17-8f89-10c778399a16","ios":"levelo://app?vid=73b29586-6035-4b17-8f89-10c778399a16"},"vehicle_type_id":"4","last_reported":1777116664,"current_range_meters":8800,"station_id":"ce4bhr12rcd13ifvqhpg","pricing_plan_id":"cebpf4jnsgd1na2vs0mg"},{"bike_id":"c049792a-7e4f-4794-9cb8-3f58d2fa8f52","system_id":"levelo_inurba_marseille","lat":43.21749,"lon":5.34597,"is_reserved":false,"is_disabled":false,"rental_uris":{"android":"levelo://app?vid=c049792a-7e4f-4794-9cb8-3f58d2fa8f52","ios":"levelo://app?vid=c049792a-7e4f-4794-9cb8-3f58d2fa8f52"},"vehicle_type_id":"4","last_reported":1777116664,"current_range_meters":8800,"station_id":"st_cvj6r9ubvosntc0bgbag","pricing_plan_id":"cebpf4jnsgd1na2vs0mg"},{"bike_id":"915f3511-b21b-4a84-8018-3a43f6b1a303","system_id":"levelo_inurba_marseille","lat":43.2706,"lon":5.42254,"is_reserved":false,"is_disabled":false,"rental_uris":{"android":"levelo://app?vid=915f3511-b21b-4a84-8018-3a43f6b1a303","ios":"levelo://app?vid=915f3511-b21b-4a84-8018-3a43f6b1a303"},"vehicle_type_id":"4","last_reported":1777116664,"current_range_meters":8800,"station_id":"ce4bhk92rcd13ifvqgb0","pricing_plan_id":"cebpf4jnsgd1na2vs0mg"},{"bike_id":"26882210-997c-4922-b3e5-8a44e2a594af","system_id":"levelo_inurba_marseille","lat":43.25515,"lon":5.37654,"is_reserved":false,"is_disabled":false,"rental_uris":{"android":"levelo://app?vid=26882210-997c-4922-b3e5-8a44e2a594af","ios":"levelo://app?vid=26882210-997c-4922-b3e5-8a44e2a594af"},"vehicle_type_id":"4","last_reported":1777116664,"current_range_meters":8800,"station_id":"ce4bhh12rcd13ifvqff0","pricing_plan_id":"cebpf4jnsgd1na2vs0mg"},{"bike_id":"0cd2fd7c-6402-466e-aa1b-fa186d7a7ed3","system_id":"levelo_inurba_marseille","lat":43.33194,"lon":5.37792,"is_reserved":false,"is_disabled":false,"rental_uris":{"android":"levelo://app?vid=0cd2fd7c-6402-466e-aa1b-fa186d7a7ed3","ios":"levelo://app?vid=0cd2fd7c-6402-466e-aa1b-fa186d7a7ed3"},"vehicle_type_id":"4","last_reported":1777116664,"current_range_meters":9200,"station_id":"","pricing_plan_id":"cebpf4jnsgd1na2vs0mg"},{"bike_id":"6b404645-3784-4552-b362-ce2273282500","system_id":"levelo_inurba_marseille","lat":43.28464,"lon":5.38529,"is_reserved":false,"is_disabled":true,"rental_uris":{"android":"levelo://app?vid=6b404645-3784-4552-b362-ce2273282500","ios":"levelo://app?vid=6b404645-3784-4552-b362-ce2273282500"},"vehicle_type_id":"4","last_reported":1777116664,"current_range_meters":9200,"station_id":"ce4bh8p2rcd13ifvqeb0","pricing_plan_id":"cebpf4jnsgd1na2vs0mg"},{"bike_id":"9a7c39d8-ef30-4694-b180-b6fe0a089530","system_id":"levelo_inurba_marseille","lat":43.30123,"lon":5.43117,"is_reserved":false,"is_disabled":false,"rental_uris":{"android":"levelo://app?vid=9a7c39d8-ef30-4694-b180-b6fe0a089530","ios":"levelo://app?vid=9a7c39d8-ef30-4694-b180-b6fe0a089530"},"vehicle_type_id":"4","last_reported":1777116664,"current_range_meters":9200,"station_id":"st_d3js3co5814s73ftftug","pricing_plan_id":"cebpf4jnsgd1na2vs0mg"},{"bike_id":"ace34436-51fe-4536-a1f6-cfa009f56977","system_id":"levelo_inurba_marseille","lat":43.33536,"lon":5.37403,"is_reserved":false,"is_disabled":false,"rental_uris":{"android":"levelo://app?vid=ace34436-51fe-4536-a1f6-cfa009f56977","ios":"levelo://app?vid=ace34436-51fe-4536-a1f6-cfa009f56977"},"vehicle_type_id":"4","last_reported":1777116664,"current_range_meters":9200,"station_id":"","pricing_plan_id":"cebpf4jnsgd1na2vs0mg"},{"bike_id":"a7abb83b-d8f7-4b04-81c9-42ce1f31f52a","system_id":"levelo_inurba_marseille","lat":43.27625,"lon":5.36113,"is_reserved":false,"is_disabled":false,"rental_uris":{"android":"levelo://app?vid=a7abb83b-d8f7-4b04-81c9-42ce1f31f52a","ios":"levelo://app?vid=a7abb83b-d8f7-4b04-81c9-42ce1f31f52a"},"vehicle_type_id":"4","last_reported":1777116664,"current_range_meters":9200,"station_id":"ce4bgj92rcd13ifvqbe0","pricing_plan_id":"cebpf4jnsgd1na2vs0mg"},{"bike_id":"5d3fd44c-b59d-41d4-a478-9d5eb2e2ef58","system_id":"levelo_inurba_marseille","lat":43.30374,"lon":5.42485,"is_reserved":false,"is_disabled":false,"rental_uris":{"android":"levelo://app?vid=5d3fd44c-b59d-41d4-a478-9d5eb2e2ef58","ios":"levelo://app?vid=5d3fd44c-b59d-41d4-a478-9d5eb2e2ef58"},"vehicle_type_id":"4","last_reported":1777116664,"current_range_meters":9200,"station_id":"ce4bhoh2rcd13ifvqh6g","pricing_plan_id":"cebpf4jnsgd1na2vs0mg"},{"bike_id":"270b3504-7efc-4ad9-a72b-907087bacf0e","system_id":"levelo_inurba_marseille","lat":43.2315,"lon":5.43691,"is_reserved":false,"is_disabled":false,"rental_uris":{"android":"levelo://app?vid=270b3504-7efc-4ad9-a72b-907087bacf0e","ios":"levelo://app?vid=270b3504-7efc-4ad9-a72b-907087bacf0e"},"vehicle_type_id":"4","last_reported":1777116664,"current_range_meters":9200,"station_id":"ce4bhmp2rcd13ifvqgog","pricing_plan_id":"cebpf4jnsgd1na2vs0mg"},{"bike_id":"637b365d-c47a-463c-9a1b-2c3abb858bb9","system_id":"levelo_inurba_marseille","lat":43.3031,"lon":5.36882,"is_reserved":false,"is_disabled":false,"rental_uris":{"android":"levelo://app?vid=637b365d-c47a-463c-9a1b-2c3abb858bb9","ios":"levelo://app?vid=637b365d-c47a-463c-9a1b-2c3abb858bb9"},"vehicle_type_id":"4","last_reported":1777116664,"current_range_meters":9200,"station_id":"ce4bgqh2rcd13ifvqc5g","pricing_plan_id":"cebpf4jnsgd1na2vs0mg"},{"bike_id":"26669f21-c2bc-4bde-9041-60db37f3e93e","system_id":"levelo_inurba_marseille","lat":43.25577,"lon":5.3823,"is_reserved":false,"is_disabled":true,"rental_uris":{"android":"levelo://app?vid=26669f21-c2bc-4bde-9041-60db37f3e93e","ios":"levelo://app?vid=26669f21-c2bc-4bde-9041-60db37f3e93e"},"vehicle_type_id":"4","last_reported":1777116664,"current_range_meters":9200,"station_id":"ce4bhih2rcd13ifvqfs0","pricing_plan_id":"cebpf4jnsgd1na2vs0mg"},{"bike_id":"17fe3f56-b486-40dd-ac6a-710ede14c97d","system_id":"levelo_inurba_marseille","lat":43.314869,"lon":5.373029,"is_reserved":false,"is_disabled":false,"rental_uris":{"android":"levelo://app?vid=17fe3f56-b486-40dd-ac6a-710ede14c97d","ios":"levelo://app?vid=17fe3f56-b486-40dd-ac6a-710ede14c97d"},"vehicle_type_id":"4","last_reported":1777116664,"current_range_meters":9200,"station_id":"","pricing_plan_id":"cebpf4jnsgd1na2vs0mg"},{"bike_id":"e90b36ce-bf57-430a-884a-de51fc3a2abd","system_id":"levelo_inurba_marseille","lat":43.24392,"lon":5.3707,"is_reserved":false,"is_disabled":false,"rental_uris":{"android":"levelo://app?vid=e90b36ce-bf57-430a-884a-de51fc3a2abd","ios":"levelo://app?vid=e90b36ce-bf57-430a-884a-de51fc3a2abd"},"vehicle_type_id":"4","last_reported":1777116664,"current_range_meters":9200,"station_id":"ce4bhhh2rcd13ifvqfk0","pricing_plan_id":"cebpf4jnsgd1na2vs0mg"},{"bike_id":"06558e5b-846f-4e20-b375-c8972d75dc5a","system_id":"levelo_inurba_marseille","lat":43.27343,"lon":5.43109,"is_reserved":false,"is_disabled":false,"rental_uris":{"android":"levelo://app?vid=06558e5b-846f-4e20-b375-c8972d75dc5a","ios":"levelo://app?vid=06558e5b-846f-4e20-b375-c8972d75dc5a"},"vehicle_type_id":"4","last_reported":1777116664,"current_range_meters":9200,"station_id":"","pricing_plan_id":"cebpf4jnsgd1na2vs0mg"},{"bike_id":"a04d60df-414e-4af4-864e-5afd610894db","system_id":"levelo_inurba_marseille","lat":43.30136,"lon":5.38084,"is_reserved":false,"is_disabled":false,"rental_uris":{"android":"levelo://app?vid=a04d60df-414e-4af4-864e-5afd610894db","ios":"levelo://app?vid=a04d60df-414e-4af4-864e-5afd610894db"},"vehicle_type_id":"4","last_reported":1777116664,"current_range_meters":9200,"station_id":"ce4bgjp2rcd13ifvqbh0","pricing_plan_id":"cebpf4jnsgd1na2vs0mg"},{"bike_id":"e788ca34-60df-4b1c-a1a5-a422788eab30","system_id":"levelo_inurba_marseille","lat":43.30337,"lon":5.42528,"is_reserved":false,"is_disabled":false,"rental_uris":{"android":"levelo://app?vid=e788ca34-60df-4b1c-a1a5-a422788eab30","ios":"levelo://app?vid=e788ca34-60df-4b1c-a1a5-a422788eab30"},"vehicle_type_id":"4","last_reported":1777116664,"current_range_meters":9200,"station_id":"","pricing_plan_id":"cebpf4jnsgd1na2vs0mg"},{"bike_id":"1367d613-8b93-4919-aa25-ee8d4a725136","system_id":"levelo_inurba_marseille","lat":43.296007,"lon":5.376646,"is_reserved":false,"is_disabled":false,"rental_uris":{"android":"levelo://app?vid=1367d613-8b93-4919-aa25-ee8d4a725136","ios":"levelo://app?vid=1367d613-8b93-4919-aa25-ee8d4a725136"},"vehicle_type_id":"4","last_reported":1777116664,"current_range_meters":9200,"station_id":"ce4bgi92rcd13ifvqb90","pricing_plan_id":"cebpf4jnsgd1na2vs0mg"},{"bike_id":"8eb44f3c-d836-42f9-9003-a0103f4cd9ee","system_id":"levelo_inurba_marseille","lat":43.29567,"lon":5.38442,"is_reserved":false,"is_disabled":false,"rental_uris":{"android":"levelo://app?vid=8eb44f3c-d836-42f9-9003-a0103f4cd9ee","ios":"levelo://app?vid=8eb44f3c-d836-42f9-9003-a0103f4cd9ee"},"vehicle_type_id":"4","last_reported":1777116664,"current_range_meters":9200,"station_id":"","pricing_plan_id":"cebpf4jnsgd1na2vs0mg"},{"bike_id":"0e1e4521-1dac-4c01-872a-f09f1790ab28","system_id":"levelo_inurba_marseille","lat":43.24651,"lon":5.38877,"is_reserved":false,"is_disabled":false,"rental_uris":{"android":"levelo://app?vid=0e1e4521-1dac-4c01-872a-f09f1790ab28","ios":"levelo://app?vid=0e1e4521-1dac-4c01-872a-f09f1790ab28"},"vehicle_type_id":"4","last_reported":1777116664,"current_range_meters":9200,"station_id":"ce4bhg12rcd13ifvqf60","pricing_plan_id":"cebpf4jnsgd1na2vs0mg"},{"bike_id":"07408139-0e0b-42d2-ac2d-94af4e4d3d13","system_id":"levelo_inurba_marseille","lat":43.26444,"lon":5.39564,"is_reserved":false,"is_disabled":false,"rental_uris":{"android":"levelo://app?vid=07408139-0e0b-42d2-ac2d-94af4e4d3d13","ios":"levelo://app?vid=07408139-0e0b-42d2-ac2d-94af4e4d3d13"},"vehicle_type_id":"4","last_reported":1777116664,"current_range_meters":9600,"station_id":"","pricing_plan_id":"cebpf4jnsgd1na2vs0mg"},{"bike_id":"78f5b0da-7ef9-451f-b7a0-89eb969d26f6","system_id":"levelo_inurba_marseille","lat":43.29853,"lon":5.37487,"is_reserved":false,"is_disabled":false,"rental_uris":{"android":"levelo://app?vid=78f5b0da-7ef9-451f-b7a0-89eb969d26f6","ios":"levelo://app?vid=78f5b0da-7ef9-451f-b7a0-89eb969d26f6"},"vehicle_type_id":"4","last_reported":1777116664,"current_range_meters":9600,"station_id":"","pricing_plan_id":"cebpf4jnsgd1na2vs0mg"},{"bike_id":"4cd72995-c6bd-4cb8-9c20-b6bd0f4debc1","system_id":"levelo_inurba_marseille","lat":43.28965,"lon":5.36363,"is_reserved":false,"is_disabled":true,"rental_uris":{"android":"levelo://app?vid=4cd72995-c6bd-4cb8-9c20-b6bd0f4debc1","ios":"levelo://app?vid=4cd72995-c6bd-4cb8-9c20-b6bd0f4debc1"},"vehicle_type_id":"4","last_reported":1777116664,"current_range_meters":9600,"station_id":"ce4bhc92rcd13ifvqetg","pricing_plan_id":"cebpf4jnsgd1na2vs0mg"},{"bike_id":"e9caee44-b787-4c36-a632-4bd6c1ec7cfa","system_id":"levelo_inurba_marseille","lat":43.28479,"lon":5.48395,"is_reserved":false,"is_disabled":false,"rental_uris":{"android":"levelo://app?vid=e9caee44-b787-4c36-a632-4bd6c1ec7cfa","ios":"levelo://app?vid=e9caee44-b787-4c36-a632-4bd6c1ec7cfa"},"vehicle_type_id":"4","last_reported":1777116664,"current_range_meters":9600,"station_id":"st_d3svhcjqgbts73a3dn0g","pricing_plan_id":"cebpf4jnsgd1na2vs0mg"},{"bike_id":"d3e9b620-cd42-4df4-8fae-e98a466e75fe","system_id":"levelo_inurba_marseille","lat":43.25589,"lon":5.38225,"is_reserved":false,"is_disabled":false,"rental_uris":{"android":"levelo://app?vid=d3e9b620-cd42-4df4-8fae-e98a466e75fe","ios":"levelo://app?vid=d3e9b620-cd42-4df4-8fae-e98a466e75fe"},"vehicle_type_id":"4","last_reported":1777116664,"current_range_meters":9600,"station_id":"ce4bhih2rcd13ifvqfs0","pricing_plan_id":"cebpf4jnsgd1na2vs0mg"},{"bike_id":"01ab20ba-1010-4f3e-8686-567609147797","system_id":"levelo_inurba_marseille","lat":43.30131,"lon":5.38085,"is_reserved":false,"is_disabled":false,"rental_uris":{"android":"levelo://app?vid=01ab20ba-1010-4f3e-8686-567609147797","ios":"levelo://app?vid=01ab20ba-1010-4f3e-8686-567609147797"},"vehicle_type_id":"4","last_reported":1777116664,"current_range_meters":9600,"station_id":"ce4bgjp2rcd13ifvqbh0","pricing_plan_id":"cebpf4jnsgd1na2vs0mg"},{"bike_id":"331aed36-1bf5-4901-b2f4-ca1bfe5bd1c0","system_id":"levelo_inurba_marseille","lat":43.21194,"lon":5.35065,"is_reserved":false,"is_disabled":false,"rental_uris":{"android":"levelo://app?vid=331aed36-1bf5-4901-b2f4-ca1bfe5bd1c0","ios":"levelo://app?vid=331aed36-1bf5-4901-b2f4-ca1bfe5bd1c0"},"vehicle_type_id":"4","last_reported":1777116664,"current_range_meters":9600,"station_id":"st_cvj6sg6p6f1abm77japg","pricing_plan_id":"cebpf4jnsgd1na2vs0mg"},{"bike_id":"5639fb9f-0cd7-4986-afbc-abb8982ef98a","system_id":"levelo_inurba_marseille","lat":43.29032,"lon":5.38645,"is_reserved":false,"is_disabled":false,"rental_uris":{"android":"levelo://app?vid=5639fb9f-0cd7-4986-afbc-abb8982ef98a","ios":"levelo://app?vid=5639fb9f-0cd7-4986-afbc-abb8982ef98a"},"vehicle_type_id":"4","last_reported":1777116664,"current_range_meters":9600,"station_id":"ce4bh4p2rcd13ifvqe0g","pricing_plan_id":"cebpf4jnsgd1na2vs0mg"},{"bike_id":"fd08bed3-4bcd-4c7c-9299-bff5b6dac1a6","system_id":"levelo_inurba_marseille","lat":43.30131,"lon":5.38077,"is_reserved":false,"is_disabled":false,"rental_uris":{"android":"levelo://app?vid=fd08bed3-4bcd-4c7c-9299-bff5b6dac1a6","ios":"levelo://app?vid=fd08bed3-4bcd-4c7c-9299-bff5b6dac1a6"},"vehicle_type_id":"4","last_reported":1777116664,"current_range_meters":9600,"station_id":"ce4bgjp2rcd13ifvqbh0","pricing_plan_id":"cebpf4jnsgd1na2vs0mg"},{"bike_id":"648bc781-8e68-4ccd-aedc-987a153e904f","system_id":"levelo_inurba_marseille","lat":43.29265,"lon":5.38457,"is_reserved":false,"is_disabled":false,"rental_uris":{"android":"levelo://app?vid=648bc781-8e68-4ccd-aedc-987a153e904f","ios":"levelo://app?vid=648bc781-8e68-4ccd-aedc-987a153e904f"},"vehicle_type_id":"4","last_reported":1777116664,"current_range_meters":9600,"station_id":"ce4bh692rcd13ifvqea0","pricing_plan_id":"cebpf4jnsgd1na2vs0mg"},{"bike_id":"e79bde01-2f2e-4687-9114-2908a926683e","system_id":"levelo_inurba_marseille","lat":43.33538,"lon":5.3747,"is_reserved":false,"is_disabled":false,"rental_uris":{"android":"levelo://app?vid=e79bde01-2f2e-4687-9114-2908a926683e","ios":"levelo://app?vid=e79bde01-2f2e-4687-9114-2908a926683e"},"vehicle_type_id":"4","last_reported":1777116664,"current_range_meters":9600,"station_id":"st_d46tts09ee8s73dlu43g","pricing_plan_id":"cebpf4jnsgd1na2vs0mg"},{"bike_id":"d3fc06ed-a4a6-4ebd-a012-f82f411a860e","system_id":"levelo_inurba_marseille","lat":43.21192,"lon":5.35071,"is_reserved":false,"is_disabled":false,"rental_uris":{"android":"levelo://app?vid=d3fc06ed-a4a6-4ebd-a012-f82f411a860e","ios":"levelo://app?vid=d3fc06ed-a4a6-4ebd-a012-f82f411a860e"},"vehicle_type_id":"4","last_reported":1777116664,"current_range_meters":9600,"station_id":"st_cvj6sg6p6f1abm77japg","pricing_plan_id":"cebpf4jnsgd1na2vs0mg"},{"bike_id":"fda983b3-301e-40f3-bb07-e5c67ab620e4","system_id":"levelo_inurba_marseille","lat":43.25056,"lon":5.40443,"is_reserved":false,"is_disabled":false,"rental_uris":{"android":"levelo://app?vid=fda983b3-301e-40f3-bb07-e5c67ab620e4","ios":"levelo://app?vid=fda983b3-301e-40f3-bb07-e5c67ab620e4"},"vehicle_type_id":"4","last_reported":1777116664,"current_range_meters":9600,"station_id":"","pricing_plan_id":"cebpf4jnsgd1na2vs0mg"},{"bike_id":"624ad92d-de25-4b22-a09d-02c1f4de90a4","system_id":"levelo_inurba_marseille","lat":43.30544,"lon":5.36682,"is_reserved":false,"is_disabled":false,"rental_uris":{"android":"levelo://app?vid=624ad92d-de25-4b22-a09d-02c1f4de90a4","ios":"levelo://app?vid=624ad92d-de25-4b22-a09d-02c1f4de90a4"},"vehicle_type_id":"4","last_reported":1777116664,"current_range_meters":9600,"station_id":"ce4bgrp2rcd13ifvqc9g","pricing_plan_id":"cebpf4jnsgd1na2vs0mg"},{"bike_id":"f1cffc7b-9140-4f3f-acd5-1357e8e47054","system_id":"levelo_inurba_marseille","lat":43.22528,"lon":5.34839,"is_reserved":false,"is_disabled":false,"rental_uris":{"android":"levelo://app?vid=f1cffc7b-9140-4f3f-acd5-1357e8e47054","ios":"levelo://app?vid=f1cffc7b-9140-4f3f-acd5-1357e8e47054"},"vehicle_type_id":"4","last_reported":1777116664,"current_range_meters":9600,"station_id":"st_cvj5dfep6f1abm77gieg","pricing_plan_id":"cebpf4jnsgd1na2vs0mg"},{"bike_id":"05a33fd5-e436-4ad0-a907-865e546c41d5","system_id":"levelo_inurba_marseille","lat":43.22554,"lon":5.41613,"is_reserved":false,"is_disabled":true,"rental_uris":{"android":"levelo://app?vid=05a33fd5-e436-4ad0-a907-865e546c41d5","ios":"levelo://app?vid=05a33fd5-e436-4ad0-a907-865e546c41d5"},"vehicle_type_id":"4","last_reported":1777116664,"current_range_meters":9600,"station_id":"","pricing_plan_id":"cebpf4jnsgd1na2vs0mg"},{"bike_id":"338d8ead-ba67-489a-972d-87376cee8805","system_id":"levelo_inurba_marseille","lat":43.31883,"lon":5.39982,"is_reserved":false,"is_disabled":false,"rental_uris":{"android":"levelo://app?vid=338d8ead-ba67-489a-972d-87376cee8805","ios":"levelo://app?vid=338d8ead-ba67-489a-972d-87376cee8805"},"vehicle_type_id":"4","last_reported":1777116664,"current_range_meters":9600,"station_id":"","pricing_plan_id":"cebpf4jnsgd1na2vs0mg"},{"bike_id":"be5814ab-fafa-4050-9bfb-cf6845ed159b","system_id":"levelo_inurba_marseille","lat":43.24179,"lon":5.39732,"is_reserved":false,"is_disabled":false,"rental_uris":{"android":"levelo://app?vid=be5814ab-fafa-4050-9bfb-cf6845ed159b","ios":"levelo://app?vid=be5814ab-fafa-4050-9bfb-cf6845ed159b"},"vehicle_type_id":"4","last_reported":1777116664,"current_range_meters":9600,"station_id":"ce4bhn12rcd13ifvqgpg","pricing_plan_id":"cebpf4jnsgd1na2vs0mg"},{"bike_id":"5fdff1d7-b2d7-4e39-ad7f-00ed09411d1d","system_id":"levelo_inurba_marseille","lat":43.28457,"lon":5.48407,"is_reserved":false,"is_disabled":false,"rental_uris":{"android":"levelo://app?vid=5fdff1d7-b2d7-4e39-ad7f-00ed09411d1d","ios":"levelo://app?vid=5fdff1d7-b2d7-4e39-ad7f-00ed09411d1d"},"vehicle_type_id":"4","last_reported":1777116664,"current_range_meters":10000,"station_id":"st_d3svhcjqgbts73a3dn0g","pricing_plan_id":"cebpf4jnsgd1na2vs0mg"},{"bike_id":"f17951b1-f52d-4f5c-9dce-dd5bd0cff11e","system_id":"levelo_inurba_marseille","lat":43.2549,"lon":5.37647,"is_reserved":false,"is_disabled":false,"rental_uris":{"android":"levelo://app?vid=f17951b1-f52d-4f5c-9dce-dd5bd0cff11e","ios":"levelo://app?vid=f17951b1-f52d-4f5c-9dce-dd5bd0cff11e"},"vehicle_type_id":"4","last_reported":1777116664,"current_range_meters":10000,"station_id":"ce4bhh12rcd13ifvqff0","pricing_plan_id":"cebpf4jnsgd1na2vs0mg"},{"bike_id":"f3cb38b8-58ba-44db-8e7c-7c614b255071","system_id":"levelo_inurba_marseille","lat":43.280813,"lon":5.396654,"is_reserved":false,"is_disabled":false,"rental_uris":{"android":"levelo://app?vid=f3cb38b8-58ba-44db-8e7c-7c614b255071","ios":"levelo://app?vid=f3cb38b8-58ba-44db-8e7c-7c614b255071"},"vehicle_type_id":"4","last_reported":1777116664,"current_range_meters":10000,"station_id":"ce4bho12rcd13ifvqh2g","pricing_plan_id":"cebpf4jnsgd1na2vs0mg"},{"bike_id":"2dfec06b-6889-4730-b649-699505e31ac2","system_id":"levelo_inurba_marseille","lat":43.28159,"lon":5.42634,"is_reserved":false,"is_disabled":false,"rental_uris":{"android":"levelo://app?vid=2dfec06b-6889-4730-b649-699505e31ac2","ios":"levelo://app?vid=2dfec06b-6889-4730-b649-699505e31ac2"},"vehicle_type_id":"4","last_reported":1777116664,"current_range_meters":10000,"station_id":"ce4bhnh2rcd13ifvqgug","pricing_plan_id":"cebpf4jnsgd1na2vs0mg"},{"bike_id":"70578acc-b935-4f77-be23-bcde1db99b26","system_id":"levelo_inurba_marseille","lat":43.29794,"lon":5.38155,"is_reserved":false,"is_disabled":false,"rental_uris":{"android":"levelo://app?vid=70578acc-b935-4f77-be23-bcde1db99b26","ios":"levelo://app?vid=70578acc-b935-4f77-be23-bcde1db99b26"},"vehicle_type_id":"4","last_reported":1777116664,"current_range_meters":10000,"station_id":"ce4bgip2rcd13ifvqbb0","pricing_plan_id":"cebpf4jnsgd1na2vs0mg"},{"bike_id":"6b60b3c8-da35-492c-9411-418199a97ad7","system_id":"levelo_inurba_marseille","lat":43.28482,"lon":5.48382,"is_reserved":false,"is_disabled":false,"rental_uris":{"android":"levelo://app?vid=6b60b3c8-da35-492c-9411-418199a97ad7","ios":"levelo://app?vid=6b60b3c8-da35-492c-9411-418199a97ad7"},"vehicle_type_id":"4","last_reported":1777116664,"current_range_meters":10000,"station_id":"","pricing_plan_id":"cebpf4jnsgd1na2vs0mg"},{"bike_id":"e2727c40-d1dd-4cda-a19c-9bad92fe848f","system_id":"levelo_inurba_marseille","lat":43.28471,"lon":5.38394,"is_reserved":false,"is_disabled":true,"rental_uris":{"android":"levelo://app?vid=e2727c40-d1dd-4cda-a19c-9bad92fe848f","ios":"levelo://app?vid=e2727c40-d1dd-4cda-a19c-9bad92fe848f"},"vehicle_type_id":"4","last_reported":1777116664,"current_range_meters":10000,"station_id":"ce4bh512rcd13ifvqe3g","pricing_plan_id":"cebpf4jnsgd1na2vs0mg"},{"bike_id":"3adece82-8800-4e8c-b084-d4c95989ed0e","system_id":"levelo_inurba_marseille","lat":43.23063,"lon":5.35493,"is_reserved":false,"is_disabled":false,"rental_uris":{"android":"levelo://app?vid=3adece82-8800-4e8c-b084-d4c95989ed0e","ios":"levelo://app?vid=3adece82-8800-4e8c-b084-d4c95989ed0e"},"vehicle_type_id":"4","last_reported":1777116664,"current_range_meters":10000,"station_id":"cpo3342slgdg3j2ifvpg","pricing_plan_id":"cebpf4jnsgd1na2vs0mg"},{"bike_id":"c326efe2-d884-4246-aa19-383d3a00aef4","system_id":"levelo_inurba_marseille","lat":43.30795,"lon":5.37655,"is_reserved":false,"is_disabled":false,"rental_uris":{"android":"levelo://app?vid=c326efe2-d884-4246-aa19-383d3a00aef4","ios":"levelo://app?vid=c326efe2-d884-4246-aa19-383d3a00aef4"},"vehicle_type_id":"4","last_reported":1777116664,"current_range_meters":10000,"station_id":"ce4bgv92rcd13ifvqcq0","pricing_plan_id":"cebpf4jnsgd1na2vs0mg"},{"bike_id":"7be11a57-0ea5-473b-baca-f24f9a896b85","system_id":"levelo_inurba_marseille","lat":43.24668,"lon":5.38162,"is_reserved":false,"is_disabled":false,"rental_uris":{"android":"levelo://app?vid=7be11a57-0ea5-473b-baca-f24f9a896b85","ios":"levelo://app?vid=7be11a57-0ea5-473b-baca-f24f9a896b85"},"vehicle_type_id":"4","last_reported":1777116664,"current_range_meters":10000,"station_id":"ce4bhih2rcd13ifvqfr0","pricing_plan_id":"cebpf4jnsgd1na2vs0mg"},{"bike_id":"3833eaec-fd7f-4fbe-8fe3-066d011f3340","system_id":"levelo_inurba_marseille","lat":43.24178,"lon":5.36387,"is_reserved":false,"is_disabled":false,"rental_uris":{"android":"levelo://app?vid=3833eaec-fd7f-4fbe-8fe3-066d011f3340","ios":"levelo://app?vid=3833eaec-fd7f-4fbe-8fe3-066d011f3340"},"vehicle_type_id":"4","last_reported":1777116664,"current_range_meters":10000,"station_id":"cpo36qri1sfpv3e86is0","pricing_plan_id":"cebpf4jnsgd1na2vs0mg"},{"bike_id":"e575fb9f-b526-4f5b-97d1-c208d0c40e1e","system_id":"levelo_inurba_marseille","lat":43.23142,"lon":5.43696,"is_reserved":false,"is_disabled":false,"rental_uris":{"android":"levelo://app?vid=e575fb9f-b526-4f5b-97d1-c208d0c40e1e","ios":"levelo://app?vid=e575fb9f-b526-4f5b-97d1-c208d0c40e1e"},"vehicle_type_id":"4","last_reported":1777116664,"current_range_meters":10000,"station_id":"ce4bhmp2rcd13ifvqgog","pricing_plan_id":"cebpf4jnsgd1na2vs0mg"},{"bike_id":"7bfad3df-98d6-40bd-9e53-0ab108024463","system_id":"levelo_inurba_marseille","lat":43.24815,"lon":5.37465,"is_reserved":false,"is_disabled":false,"rental_uris":{"android":"levelo://app?vid=7bfad3df-98d6-40bd-9e53-0ab108024463","ios":"levelo://app?vid=7bfad3df-98d6-40bd-9e53-0ab108024463"},"vehicle_type_id":"4","last_reported":1777116664,"current_range_meters":10000,"station_id":"ce4bhgh2rcd13ifvqfb0","pricing_plan_id":"cebpf4jnsgd1na2vs0mg"},{"bike_id":"f8bc47b0-d414-485a-9f6f-d2f9a06185ec","system_id":"levelo_inurba_marseille","lat":43.27521,"lon":5.42407,"is_reserved":false,"is_disabled":false,"rental_uris":{"android":"levelo://app?vid=f8bc47b0-d414-485a-9f6f-d2f9a06185ec","ios":"levelo://app?vid=f8bc47b0-d414-485a-9f6f-d2f9a06185ec"},"vehicle_type_id":"4","last_reported":1777116664,"current_range_meters":10000,"station_id":"ce4bhn92rcd13ifvqgrg","pricing_plan_id":"cebpf4jnsgd1na2vs0mg"},{"bike_id":"0cc06d59-5ae6-4f36-9963-6b66375264f1","system_id":"levelo_inurba_marseille","lat":43.29572,"lon":5.36942,"is_reserved":false,"is_disabled":false,"rental_uris":{"android":"levelo://app?vid=0cc06d59-5ae6-4f36-9963-6b66375264f1","ios":"levelo://app?vid=0cc06d59-5ae6-4f36-9963-6b66375264f1"},"vehicle_type_id":"4","last_reported":1777116664,"current_range_meters":10000,"station_id":"","pricing_plan_id":"cebpf4jnsgd1na2vs0mg"},{"bike_id":"f7716b3d-5dc6-4c1f-94ea-dd8b69d23a22","system_id":"levelo_inurba_marseille","lat":43.27535,"lon":5.43461,"is_reserved":false,"is_disabled":false,"rental_uris":{"android":"levelo://app?vid=f7716b3d-5dc6-4c1f-94ea-dd8b69d23a22","ios":"levelo://app?vid=f7716b3d-5dc6-4c1f-94ea-dd8b69d23a22"},"vehicle_type_id":"4","last_reported":1777116664,"current_range_meters":10000,"station_id":"","pricing_plan_id":"cebpf4jnsgd1na2vs0mg"},{"bike_id":"af485194-e376-4626-9b11-ae884fb1ef0c","system_id":"levelo_inurba_marseille","lat":43.28921,"lon":5.43771,"is_reserved":false,"is_disabled":false,"rental_uris":{"android":"levelo://app?vid=af485194-e376-4626-9b11-ae884fb1ef0c","ios":"levelo://app?vid=af485194-e376-4626-9b11-ae884fb1ef0c"},"vehicle_type_id":"4","last_reported":1777116664,"current_range_meters":10800,"station_id":"","pricing_plan_id":"cebpf4jnsgd1na2vs0mg"},{"bike_id":"aaf59152-8891-4f5b-9476-1108daf6bb91","system_id":"levelo_inurba_marseille","lat":43.27367,"lon":5.36255,"is_reserved":false,"is_disabled":false,"rental_uris":{"android":"levelo://app?vid=aaf59152-8891-4f5b-9476-1108daf6bb91","ios":"levelo://app?vid=aaf59152-8891-4f5b-9476-1108daf6bb91"},"vehicle_type_id":"4","last_reported":1777116664,"current_range_meters":10800,"station_id":"ce4bhbh2rcd13ifvqeo0","pricing_plan_id":"cebpf4jnsgd1na2vs0mg"},{"bike_id":"df75676a-7c3f-4d29-80c0-260795f2c62d","system_id":"levelo_inurba_marseille","lat":43.27938,"lon":5.40776,"is_reserved":false,"is_disabled":false,"rental_uris":{"android":"levelo://app?vid=df75676a-7c3f-4d29-80c0-260795f2c62d","ios":"levelo://app?vid=df75676a-7c3f-4d29-80c0-260795f2c62d"},"vehicle_type_id":"4","last_reported":1777116664,"current_range_meters":10800,"station_id":"","pricing_plan_id":"cebpf4jnsgd1na2vs0mg"},{"bike_id":"b1ebae01-d0d5-4c49-869c-0e77b40a16eb","system_id":"levelo_inurba_marseille","lat":43.21193,"lon":5.35069,"is_reserved":false,"is_disabled":false,"rental_uris":{"android":"levelo://app?vid=b1ebae01-d0d5-4c49-869c-0e77b40a16eb","ios":"levelo://app?vid=b1ebae01-d0d5-4c49-869c-0e77b40a16eb"},"vehicle_type_id":"4","last_reported":1777116664,"current_range_meters":10800,"station_id":"st_cvj6sg6p6f1abm77japg","pricing_plan_id":"cebpf4jnsgd1na2vs0mg"},{"bike_id":"f3a003de-3d04-4f6d-bcf6-a00588e1d45a","system_id":"levelo_inurba_marseille","lat":43.2848,"lon":5.48396,"is_reserved":false,"is_disabled":false,"rental_uris":{"android":"levelo://app?vid=f3a003de-3d04-4f6d-bcf6-a00588e1d45a","ios":"levelo://app?vid=f3a003de-3d04-4f6d-bcf6-a00588e1d45a"},"vehicle_type_id":"4","last_reported":1777116664,"current_range_meters":10800,"station_id":"","pricing_plan_id":"cebpf4jnsgd1na2vs0mg"},{"bike_id":"6378d13c-9294-47cb-a201-edcadf79aa34","system_id":"levelo_inurba_marseille","lat":43.27809,"lon":5.40716,"is_reserved":false,"is_disabled":false,"rental_uris":{"android":"levelo://app?vid=6378d13c-9294-47cb-a201-edcadf79aa34","ios":"levelo://app?vid=6378d13c-9294-47cb-a201-edcadf79aa34"},"vehicle_type_id":"4","last_reported":1777116664,"current_range_meters":10800,"station_id":"ce4bhnh2rcd13ifvqgtg","pricing_plan_id":"cebpf4jnsgd1na2vs0mg"},{"bike_id":"e7dd8318-4271-41e7-b4b0-eda1360f384e","system_id":"levelo_inurba_marseille","lat":43.30151,"lon":5.38083,"is_reserved":false,"is_disabled":false,"rental_uris":{"android":"levelo://app?vid=e7dd8318-4271-41e7-b4b0-eda1360f384e","ios":"levelo://app?vid=e7dd8318-4271-41e7-b4b0-eda1360f384e"},"vehicle_type_id":"4","last_reported":1777116664,"current_range_meters":10800,"station_id":"ce4bgjp2rcd13ifvqbh0","pricing_plan_id":"cebpf4jnsgd1na2vs0mg"},{"bike_id":"3641d640-2b8a-4f13-b91c-6c317e71d939","system_id":"levelo_inurba_marseille","lat":43.24166,"lon":5.36392,"is_reserved":false,"is_disabled":false,"rental_uris":{"android":"levelo://app?vid=3641d640-2b8a-4f13-b91c-6c317e71d939","ios":"levelo://app?vid=3641d640-2b8a-4f13-b91c-6c317e71d939"},"vehicle_type_id":"4","last_reported":1777116664,"current_range_meters":10800,"station_id":"cpo36qri1sfpv3e86is0","pricing_plan_id":"cebpf4jnsgd1na2vs0mg"},{"bike_id":"1fa7c290-baf4-43ed-aa99-7181dabef99e","system_id":"levelo_inurba_marseille","lat":43.33546,"lon":5.37457,"is_reserved":false,"is_disabled":false,"rental_uris":{"android":"levelo://app?vid=1fa7c290-baf4-43ed-aa99-7181dabef99e","ios":"levelo://app?vid=1fa7c290-baf4-43ed-aa99-7181dabef99e"},"vehicle_type_id":"4","last_reported":1777116664,"current_range_meters":10800,"station_id":"st_d46tts09ee8s73dlu43g","pricing_plan_id":"cebpf4jnsgd1na2vs0mg"},{"bike_id":"81cfffe2-4477-4769-b5f1-cc928950e40f","system_id":"levelo_inurba_marseille","lat":43.24044,"lon":5.3779,"is_reserved":false,"is_disabled":false,"rental_uris":{"android":"levelo://app?vid=81cfffe2-4477-4769-b5f1-cc928950e40f","ios":"levelo://app?vid=81cfffe2-4477-4769-b5f1-cc928950e40f"},"vehicle_type_id":"4","last_reported":1777116664,"current_range_meters":10800,"station_id":"ce4bhnp2rcd13ifvqgvg","pricing_plan_id":"cebpf4jnsgd1na2vs0mg"},{"bike_id":"77d21afc-038b-43fe-af72-fdc89a449f58","system_id":"levelo_inurba_marseille","lat":43.27376,"lon":5.36245,"is_reserved":false,"is_disabled":false,"rental_uris":{"android":"levelo://app?vid=77d21afc-038b-43fe-af72-fdc89a449f58","ios":"levelo://app?vid=77d21afc-038b-43fe-af72-fdc89a449f58"},"vehicle_type_id":"4","last_reported":1777116664,"current_range_meters":10800,"station_id":"ce4bhbh2rcd13ifvqeo0","pricing_plan_id":"cebpf4jnsgd1na2vs0mg"},{"bike_id":"20bc5234-0759-49c0-8835-ac191c8a95c8","system_id":"levelo_inurba_marseille","lat":43.28605,"lon":5.35107,"is_reserved":false,"is_disabled":true,"rental_uris":{"android":"levelo://app?vid=20bc5234-0759-49c0-8835-ac191c8a95c8","ios":"levelo://app?vid=20bc5234-0759-49c0-8835-ac191c8a95c8"},"vehicle_type_id":"4","last_reported":1777116664,"current_range_meters":10800,"station_id":"ce4bhch2rcd13ifvqeug","pricing_plan_id":"cebpf4jnsgd1na2vs0mg"},{"bike_id":"2b068fe0-0333-4841-ad95-8ad6d3a26006","system_id":"levelo_inurba_marseille","lat":43.31715,"lon":5.40461,"is_reserved":false,"is_disabled":false,"rental_uris":{"android":"levelo://app?vid=2b068fe0-0333-4841-ad95-8ad6d3a26006","ios":"levelo://app?vid=2b068fe0-0333-4841-ad95-8ad6d3a26006"},"vehicle_type_id":"4","last_reported":1777116664,"current_range_meters":10800,"station_id":"ce4bh012rcd13ifvqd00","pricing_plan_id":"cebpf4jnsgd1na2vs0mg"},{"bike_id":"8382b8e2-42a0-4cae-8f3d-d1af83bab971","system_id":"levelo_inurba_marseille","lat":43.24647,"lon":5.38886,"is_reserved":false,"is_disabled":false,"rental_uris":{"android":"levelo://app?vid=8382b8e2-42a0-4cae-8f3d-d1af83bab971","ios":"levelo://app?vid=8382b8e2-42a0-4cae-8f3d-d1af83bab971"},"vehicle_type_id":"4","last_reported":1777116664,"current_range_meters":10800,"station_id":"ce4bhg12rcd13ifvqf60","pricing_plan_id":"cebpf4jnsgd1na2vs0mg"},{"bike_id":"d6efe21b-6d9f-4e0a-90ea-fa0f11d5f86b","system_id":"levelo_inurba_marseille","lat":43.21191,"lon":5.35077,"is_reserved":false,"is_disabled":false,"rental_uris":{"android":"levelo://app?vid=d6efe21b-6d9f-4e0a-90ea-fa0f11d5f86b","ios":"levelo://app?vid=d6efe21b-6d9f-4e0a-90ea-fa0f11d5f86b"},"vehicle_type_id":"4","last_reported":1777116664,"current_range_meters":10800,"station_id":"st_cvj6sg6p6f1abm77japg","pricing_plan_id":"cebpf4jnsgd1na2vs0mg"},{"bike_id":"77ced47c-45b5-4f31-bb4b-6370951fb495","system_id":"levelo_inurba_marseille","lat":43.29715,"lon":5.3769,"is_reserved":false,"is_disabled":false,"rental_uris":{"android":"levelo://app?vid=77ced47c-45b5-4f31-bb4b-6370951fb495","ios":"levelo://app?vid=77ced47c-45b5-4f31-bb4b-6370951fb495"},"vehicle_type_id":"4","last_reported":1777116664,"current_range_meters":10800,"station_id":"ce4bgkh2rcd13ifvqbl0","pricing_plan_id":"cebpf4jnsgd1na2vs0mg"},{"bike_id":"2e4ae2ba-15b3-4556-b0a3-2e10bac651b8","system_id":"levelo_inurba_marseille","lat":43.33527,"lon":5.37458,"is_reserved":false,"is_disabled":false,"rental_uris":{"android":"levelo://app?vid=2e4ae2ba-15b3-4556-b0a3-2e10bac651b8","ios":"levelo://app?vid=2e4ae2ba-15b3-4556-b0a3-2e10bac651b8"},"vehicle_type_id":"4","last_reported":1777116664,"current_range_meters":10800,"station_id":"st_d46tts09ee8s73dlu43g","pricing_plan_id":"cebpf4jnsgd1na2vs0mg"},{"bike_id":"3e689980-8c28-437d-a703-032306253800","system_id":"levelo_inurba_marseille","lat":43.3136,"lon":5.38492,"is_reserved":false,"is_disabled":false,"rental_uris":{"android":"levelo://app?vid=3e689980-8c28-437d-a703-032306253800","ios":"levelo://app?vid=3e689980-8c28-437d-a703-032306253800"},"vehicle_type_id":"4","last_reported":1777116664,"current_range_meters":10800,"station_id":"ce4bgt92rcd13ifvqcf0","pricing_plan_id":"cebpf4jnsgd1na2vs0mg"},{"bike_id":"4d30d647-2bb3-472e-b772-0ac279e5d081","system_id":"levelo_inurba_marseille","lat":43.29576,"lon":5.37506,"is_reserved":false,"is_disabled":true,"rental_uris":{"android":"levelo://app?vid=4d30d647-2bb3-472e-b772-0ac279e5d081","ios":"levelo://app?vid=4d30d647-2bb3-472e-b772-0ac279e5d081"},"vehicle_type_id":"4","last_reported":1777116664,"current_range_meters":10800,"station_id":"ce4bgh92rcd13ifvqb50","pricing_plan_id":"cebpf4jnsgd1na2vs0mg"},{"bike_id":"da777b74-9725-4dce-a8da-8ea337840652","system_id":"levelo_inurba_marseille","lat":43.21746,"lon":5.34615,"is_reserved":false,"is_disabled":false,"rental_uris":{"android":"levelo://app?vid=da777b74-9725-4dce-a8da-8ea337840652","ios":"levelo://app?vid=da777b74-9725-4dce-a8da-8ea337840652"},"vehicle_type_id":"4","last_reported":1777116664,"current_range_meters":10800,"station_id":"st_cvj6r9ubvosntc0bgbag","pricing_plan_id":"cebpf4jnsgd1na2vs0mg"},{"bike_id":"2f13e475-7dd9-404c-bb30-5f1d9fff70fa","system_id":"levelo_inurba_marseille","lat":43.21755,"lon":5.346,"is_reserved":false,"is_disabled":false,"rental_uris":{"android":"levelo://app?vid=2f13e475-7dd9-404c-bb30-5f1d9fff70fa","ios":"levelo://app?vid=2f13e475-7dd9-404c-bb30-5f1d9fff70fa"},"vehicle_type_id":"4","last_reported":1777116664,"current_range_meters":11200,"station_id":"st_cvj6r9ubvosntc0bgbag","pricing_plan_id":"cebpf4jnsgd1na2vs0mg"},{"bike_id":"566d96b8-5e9f-424c-a211-21ad768be894","system_id":"levelo_inurba_marseille","lat":43.28546,"lon":5.44081,"is_reserved":false,"is_disabled":false,"rental_uris":{"android":"levelo://app?vid=566d96b8-5e9f-424c-a211-21ad768be894","ios":"levelo://app?vid=566d96b8-5e9f-424c-a211-21ad768be894"},"vehicle_type_id":"4","last_reported":1777116664,"current_range_meters":11200,"station_id":"st_d3j3df2ikq2c7380ej80","pricing_plan_id":"cebpf4jnsgd1na2vs0mg"},{"bike_id":"a2f341b5-27ef-4c68-bfb8-8bf57d59516a","system_id":"levelo_inurba_marseille","lat":43.30547,"lon":5.36521,"is_reserved":false,"is_disabled":false,"rental_uris":{"android":"levelo://app?vid=a2f341b5-27ef-4c68-bfb8-8bf57d59516a","ios":"levelo://app?vid=a2f341b5-27ef-4c68-bfb8-8bf57d59516a"},"vehicle_type_id":"4","last_reported":1777116664,"current_range_meters":11200,"station_id":"ce4bgs12rcd13ifvqcag","pricing_plan_id":"cebpf4jnsgd1na2vs0mg"},{"bike_id":"494fd0fc-3b39-4504-a26b-321afbf22977","system_id":"levelo_inurba_marseille","lat":43.23832,"lon":5.38567,"is_reserved":false,"is_disabled":false,"rental_uris":{"android":"levelo://app?vid=494fd0fc-3b39-4504-a26b-321afbf22977","ios":"levelo://app?vid=494fd0fc-3b39-4504-a26b-321afbf22977"},"vehicle_type_id":"4","last_reported":1777116664,"current_range_meters":11200,"station_id":"","pricing_plan_id":"cebpf4jnsgd1na2vs0mg"},{"bike_id":"26d26955-b302-4311-88a8-057f7b19117a","system_id":"levelo_inurba_marseille","lat":43.29652,"lon":5.36063,"is_reserved":false,"is_disabled":false,"rental_uris":{"android":"levelo://app?vid=26d26955-b302-4311-88a8-057f7b19117a","ios":"levelo://app?vid=26d26955-b302-4311-88a8-057f7b19117a"},"vehicle_type_id":"4","last_reported":1777116664,"current_range_meters":11200,"station_id":"","pricing_plan_id":"cebpf4jnsgd1na2vs0mg"},{"bike_id":"4ee37fcd-f303-49fc-b658-46f81c8b28db","system_id":"levelo_inurba_marseille","lat":43.30118,"lon":5.43105,"is_reserved":false,"is_disabled":false,"rental_uris":{"android":"levelo://app?vid=4ee37fcd-f303-49fc-b658-46f81c8b28db","ios":"levelo://app?vid=4ee37fcd-f303-49fc-b658-46f81c8b28db"},"vehicle_type_id":"4","last_reported":1777116664,"current_range_meters":11200,"station_id":"st_d3js3co5814s73ftftug","pricing_plan_id":"cebpf4jnsgd1na2vs0mg"},{"bike_id":"870ca0a8-677e-434f-84eb-5d51798508e8","system_id":"levelo_inurba_marseille","lat":43.30186,"lon":5.36619,"is_reserved":false,"is_disabled":false,"rental_uris":{"android":"levelo://app?vid=870ca0a8-677e-434f-84eb-5d51798508e8","ios":"levelo://app?vid=870ca0a8-677e-434f-84eb-5d51798508e8"},"vehicle_type_id":"4","last_reported":1777116664,"current_range_meters":11200,"station_id":"ce4bgrh2rcd13ifvqc8g","pricing_plan_id":"cebpf4jnsgd1na2vs0mg"},{"bike_id":"b21748b2-fb24-4ee6-8e6a-c7c61264faec","system_id":"levelo_inurba_marseille","lat":43.2739,"lon":5.4219,"is_reserved":false,"is_disabled":false,"rental_uris":{"android":"levelo://app?vid=b21748b2-fb24-4ee6-8e6a-c7c61264faec","ios":"levelo://app?vid=b21748b2-fb24-4ee6-8e6a-c7c61264faec"},"vehicle_type_id":"4","last_reported":1777116664,"current_range_meters":11200,"station_id":"","pricing_plan_id":"cebpf4jnsgd1na2vs0mg"},{"bike_id":"8dc766a0-fb3c-42e7-bec1-7c1cdafa0312","system_id":"levelo_inurba_marseille","lat":43.27994,"lon":5.41654,"is_reserved":false,"is_disabled":false,"rental_uris":{"android":"levelo://app?vid=8dc766a0-fb3c-42e7-bec1-7c1cdafa0312","ios":"levelo://app?vid=8dc766a0-fb3c-42e7-bec1-7c1cdafa0312"},"vehicle_type_id":"4","last_reported":1777116664,"current_range_meters":11200,"station_id":"ce4bho12rcd13ifvqh1g","pricing_plan_id":"cebpf4jnsgd1na2vs0mg"},{"bike_id":"3f26a694-117e-44ad-b0db-5f137fad4790","system_id":"levelo_inurba_marseille","lat":43.28615,"lon":5.35095,"is_reserved":false,"is_disabled":false,"rental_uris":{"android":"levelo://app?vid=3f26a694-117e-44ad-b0db-5f137fad4790","ios":"levelo://app?vid=3f26a694-117e-44ad-b0db-5f137fad4790"},"vehicle_type_id":"4","last_reported":1777116664,"current_range_meters":11200,"station_id":"ce4bhch2rcd13ifvqeug","pricing_plan_id":"cebpf4jnsgd1na2vs0mg"},{"bike_id":"4951f924-201f-49d7-8951-8a5883720076","system_id":"levelo_inurba_marseille","lat":43.29021,"lon":5.38116,"is_reserved":false,"is_disabled":true,"rental_uris":{"android":"levelo://app?vid=4951f924-201f-49d7-8951-8a5883720076","ios":"levelo://app?vid=4951f924-201f-49d7-8951-8a5883720076"},"vehicle_type_id":"4","last_reported":1777116664,"current_range_meters":11200,"station_id":"ce4bh4p2rcd13ifvqe1g","pricing_plan_id":"cebpf4jnsgd1na2vs0mg"},{"bike_id":"cc804004-96cc-4bab-868a-bae25f849710","system_id":"levelo_inurba_marseille","lat":43.28265,"lon":5.35065,"is_reserved":false,"is_disabled":false,"rental_uris":{"android":"levelo://app?vid=cc804004-96cc-4bab-868a-bae25f849710","ios":"levelo://app?vid=cc804004-96cc-4bab-868a-bae25f849710"},"vehicle_type_id":"4","last_reported":1777116664,"current_range_meters":11200,"station_id":"ce4bhbp2rcd13ifvqerg","pricing_plan_id":"cebpf4jnsgd1na2vs0mg"},{"bike_id":"32862978-7b0f-4577-bad0-d502f59488da","system_id":"levelo_inurba_marseille","lat":43.26371,"lon":5.41073,"is_reserved":false,"is_disabled":false,"rental_uris":{"android":"levelo://app?vid=32862978-7b0f-4577-bad0-d502f59488da","ios":"levelo://app?vid=32862978-7b0f-4577-bad0-d502f59488da"},"vehicle_type_id":"4","last_reported":1777116664,"current_range_meters":11200,"station_id":"st_d4e5ca6na9uc73bfl5fg","pricing_plan_id":"cebpf4jnsgd1na2vs0mg"},{"bike_id":"edde7a68-84d8-4d52-822d-08dbf9522a68","system_id":"levelo_inurba_marseille","lat":43.21745,"lon":5.34601,"is_reserved":false,"is_disabled":false,"rental_uris":{"android":"levelo://app?vid=edde7a68-84d8-4d52-822d-08dbf9522a68","ios":"levelo://app?vid=edde7a68-84d8-4d52-822d-08dbf9522a68"},"vehicle_type_id":"4","last_reported":1777116664,"current_range_meters":11200,"station_id":"st_cvj6r9ubvosntc0bgbag","pricing_plan_id":"cebpf4jnsgd1na2vs0mg"},{"bike_id":"e59df57b-96e1-4842-a9df-aa5e825368d4","system_id":"levelo_inurba_marseille","lat":43.24994,"lon":5.38936,"is_reserved":false,"is_disabled":false,"rental_uris":{"android":"levelo://app?vid=e59df57b-96e1-4842-a9df-aa5e825368d4","ios":"levelo://app?vid=e59df57b-96e1-4842-a9df-aa5e825368d4"},