{"last_updated":1743016058,"ttl":60,"version":"2.2","data":{"bikes":[{"bike_id":"f92494c8-cb36-4806-838c-6a468c724202","system_id":"levelo_inurba_marseille","lat":43.28707,"lon":5.39997,"is_reserved":false,"is_disabled":false,"rental_uris":{"android":"levelo://app?vid=f92494c8-cb36-4806-838c-6a468c724202","ios":"levelo://app?vid=f92494c8-cb36-4806-838c-6a468c724202"},"vehicle_type_id":"4","last_reported":1743016058,"current_range_meters":2000,"station_id":"ce4bho92rcd13ifvqh3g","pricing_plan_id":"cebpf4jnsgd1na2vs0mg"},{"bike_id":"39045b19-ef4e-4445-9d2c-ca438ed9e414","system_id":"levelo_inurba_marseille","lat":43.26506,"lon":5.39554,"is_reserved":false,"is_disabled":false,"rental_uris":{"android":"levelo://app?vid=39045b19-ef4e-4445-9d2c-ca438ed9e414","ios":"levelo://app?vid=39045b19-ef4e-4445-9d2c-ca438ed9e414"},"vehicle_type_id":"4","last_reported":1743016058,"current_range_meters":2800,"station_id":"ce4bhi12rcd13ifvqfq0","pricing_plan_id":"cebpf4jnsgd1na2vs0mg"},{"bike_id":"38d4fe7e-c94c-4a1d-bd28-ad60d0e90956","system_id":"levelo_inurba_marseille","lat":43.30255,"lon":5.36418,"is_reserved":false,"is_disabled":false,"rental_uris":{"android":"levelo://app?vid=38d4fe7e-c94c-4a1d-bd28-ad60d0e90956","ios":"levelo://app?vid=38d4fe7e-c94c-4a1d-bd28-ad60d0e90956"},"vehicle_type_id":"4","last_reported":1743016058,"current_range_meters":2800,"station_id":"","pricing_plan_id":"cebpf4jnsgd1na2vs0mg"},{"bike_id":"fd7a2af8-9457-4025-b973-dfee612c3338","system_id":"levelo_inurba_marseille","lat":43.30412,"lon":5.39702,"is_reserved":false,"is_disabled":true,"rental_uris":{"android":"levelo://app?vid=fd7a2af8-9457-4025-b973-dfee612c3338","ios":"levelo://app?vid=fd7a2af8-9457-4025-b973-dfee612c3338"},"vehicle_type_id":"4","last_reported":1743016058,"current_range_meters":2800,"station_id":"ce4bh092rcd13ifvqd20","pricing_plan_id":"cebpf4jnsgd1na2vs0mg"},{"bike_id":"a64e1156-0e72-44ab-9ff6-55a1f1dfdbfd","system_id":"levelo_inurba_marseille","lat":43.26929,"lon":5.38922,"is_reserved":false,"is_disabled":false,"rental_uris":{"android":"levelo://app?vid=a64e1156-0e72-44ab-9ff6-55a1f1dfdbfd","ios":"levelo://app?vid=a64e1156-0e72-44ab-9ff6-55a1f1dfdbfd"},"vehicle_type_id":"4","last_reported":1743016058,"current_range_meters":2800,"station_id":"ce4bhhh2rcd13ifvqfl0","pricing_plan_id":"cebpf4jnsgd1na2vs0mg"},{"bike_id":"c1cacb46-ff93-49b6-b36b-999ec0b6e796","system_id":"levelo_inurba_marseille","lat":43.31754,"lon":5.39015,"is_reserved":false,"is_disabled":false,"rental_uris":{"android":"levelo://app?vid=c1cacb46-ff93-49b6-b36b-999ec0b6e796","ios":"levelo://app?vid=c1cacb46-ff93-49b6-b36b-999ec0b6e796"},"vehicle_type_id":"4","last_reported":1743016058,"current_range_meters":2800,"station_id":"ce4bhqp2rcd13ifvqhng","pricing_plan_id":"cebpf4jnsgd1na2vs0mg"},{"bike_id":"717d39b9-d17f-4970-82f4-e4fce629e7da","system_id":"levelo_inurba_marseille","lat":43.290344,"lon":5.375696,"is_reserved":false,"is_disabled":false,"rental_uris":{"android":"levelo://app?vid=717d39b9-d17f-4970-82f4-e4fce629e7da","ios":"levelo://app?vid=717d39b9-d17f-4970-82f4-e4fce629e7da"},"vehicle_type_id":"4","last_reported":1743016058,"current_range_meters":2800,"station_id":"ce4bh692rcd13ifvqe90","pricing_plan_id":"cebpf4jnsgd1na2vs0mg"},{"bike_id":"499285c5-d1d9-4a0c-bbe9-01826e80b554","system_id":"levelo_inurba_marseille","lat":43.296271,"lon":5.405925,"is_reserved":false,"is_disabled":false,"rental_uris":{"android":"levelo://app?vid=499285c5-d1d9-4a0c-bbe9-01826e80b554","ios":"levelo://app?vid=499285c5-d1d9-4a0c-bbe9-01826e80b554"},"vehicle_type_id":"4","last_reported":1743016058,"current_range_meters":2800,"station_id":"ce4bh0h2rcd13ifvqd60","pricing_plan_id":"cebpf4jnsgd1na2vs0mg"},{"bike_id":"7ff8c1f8-9601-4544-b808-c2fb235473f3","system_id":"levelo_inurba_marseille","lat":43.27817,"lon":5.40718,"is_reserved":false,"is_disabled":false,"rental_uris":{"android":"levelo://app?vid=7ff8c1f8-9601-4544-b808-c2fb235473f3","ios":"levelo://app?vid=7ff8c1f8-9601-4544-b808-c2fb235473f3"},"vehicle_type_id":"4","last_reported":1743016058,"current_range_meters":2800,"station_id":"ce4bhnh2rcd13ifvqgtg","pricing_plan_id":"cebpf4jnsgd1na2vs0mg"},{"bike_id":"1aeee937-6a3d-4c1e-9928-31408905c219","system_id":"levelo_inurba_marseille","lat":43.29862,"lon":5.39732,"is_reserved":false,"is_disabled":false,"rental_uris":{"android":"levelo://app?vid=1aeee937-6a3d-4c1e-9928-31408905c219","ios":"levelo://app?vid=1aeee937-6a3d-4c1e-9928-31408905c219"},"vehicle_type_id":"4","last_reported":1743016058,"current_range_meters":2800,"station_id":"ce4bh0h2rcd13ifvqd50","pricing_plan_id":"cebpf4jnsgd1na2vs0mg"},{"bike_id":"d1cc8402-4815-4d58-9436-d62afd4808c1","system_id":"levelo_inurba_marseille","lat":43.32189,"lon":5.39203,"is_reserved":false,"is_disabled":false,"rental_uris":{"android":"levelo://app?vid=d1cc8402-4815-4d58-9436-d62afd4808c1","ios":"levelo://app?vid=d1cc8402-4815-4d58-9436-d62afd4808c1"},"vehicle_type_id":"4","last_reported":1743016058,"current_range_meters":2800,"station_id":"","pricing_plan_id":"cebpf4jnsgd1na2vs0mg"},{"bike_id":"ce5002d0-22b0-47a4-9431-84e5ea41508b","system_id":"levelo_inurba_marseille","lat":43.26544,"lon":5.37312,"is_reserved":false,"is_disabled":false,"rental_uris":{"android":"levelo://app?vid=ce5002d0-22b0-47a4-9431-84e5ea41508b","ios":"levelo://app?vid=ce5002d0-22b0-47a4-9431-84e5ea41508b"},"vehicle_type_id":"4","last_reported":1743016058,"current_range_meters":2800,"station_id":"ce4bhg12rcd13ifvqf70","pricing_plan_id":"cebpf4jnsgd1na2vs0mg"},{"bike_id":"eee0652a-eee3-4376-a2d8-259b0af74717","system_id":"levelo_inurba_marseille","lat":43.29767,"lon":5.37698,"is_reserved":false,"is_disabled":false,"rental_uris":{"android":"levelo://app?vid=eee0652a-eee3-4376-a2d8-259b0af74717","ios":"levelo://app?vid=eee0652a-eee3-4376-a2d8-259b0af74717"},"vehicle_type_id":"4","last_reported":1743016058,"current_range_meters":2800,"station_id":"ce4bgkh2rcd13ifvqbl0","pricing_plan_id":"cebpf4jnsgd1na2vs0mg"},{"bike_id":"de318080-a1bc-49cc-8bb5-8a8ecd4c83c2","system_id":"levelo_inurba_marseille","lat":43.296257,"lon":5.405919,"is_reserved":false,"is_disabled":false,"rental_uris":{"android":"levelo://app?vid=de318080-a1bc-49cc-8bb5-8a8ecd4c83c2","ios":"levelo://app?vid=de318080-a1bc-49cc-8bb5-8a8ecd4c83c2"},"vehicle_type_id":"4","last_reported":1743016058,"current_range_meters":2000,"station_id":"ce4bh5p2rcd13ifvqe4g","pricing_plan_id":"cebpf4jnsgd1na2vs0mg"},{"bike_id":"af8b751d-857b-4238-bdf4-b68f5cbd6485","system_id":"levelo_inurba_marseille","lat":43.28935,"lon":5.38406,"is_reserved":false,"is_disabled":false,"rental_uris":{"android":"levelo://app?vid=af8b751d-857b-4238-bdf4-b68f5cbd6485","ios":"levelo://app?vid=af8b751d-857b-4238-bdf4-b68f5cbd6485"},"vehicle_type_id":"4","last_reported":1743016058,"current_range_meters":2000,"station_id":"ce4bh612rcd13ifvqe6g","pricing_plan_id":"cebpf4jnsgd1na2vs0mg"},{"bike_id":"48fb31a8-b84c-4381-8d46-377e59e64c65","system_id":"levelo_inurba_marseille","lat":43.31345,"lon":5.37947,"is_reserved":false,"is_disabled":true,"rental_uris":{"android":"levelo://app?vid=48fb31a8-b84c-4381-8d46-377e59e64c65","ios":"levelo://app?vid=48fb31a8-b84c-4381-8d46-377e59e64c65"},"vehicle_type_id":"4","last_reported":1743016058,"current_range_meters":2800,"station_id":"","pricing_plan_id":"cebpf4jnsgd1na2vs0mg"},{"bike_id":"bc7b0e4b-e5b4-4b97-b530-0540ba4444c2","system_id":"levelo_inurba_marseille","lat":43.24805,"lon":5.37453,"is_reserved":false,"is_disabled":false,"rental_uris":{"android":"levelo://app?vid=bc7b0e4b-e5b4-4b97-b530-0540ba4444c2","ios":"levelo://app?vid=bc7b0e4b-e5b4-4b97-b530-0540ba4444c2"},"vehicle_type_id":"4","last_reported":1743016058,"current_range_meters":3200,"station_id":"ce4bhgh2rcd13ifvqfb0","pricing_plan_id":"cebpf4jnsgd1na2vs0mg"},{"bike_id":"e3162120-725a-4663-8148-e797ab7d76d4","system_id":"levelo_inurba_marseille","lat":43.30418,"lon":5.3698,"is_reserved":false,"is_disabled":false,"rental_uris":{"android":"levelo://app?vid=e3162120-725a-4663-8148-e797ab7d76d4","ios":"levelo://app?vid=e3162120-725a-4663-8148-e797ab7d76d4"},"vehicle_type_id":"4","last_reported":1743016058,"current_range_meters":3200,"station_id":"","pricing_plan_id":"cebpf4jnsgd1na2vs0mg"},{"bike_id":"6e04aff7-d4f7-46f1-b0bd-942396a60595","system_id":"levelo_inurba_marseille","lat":43.29535,"lon":5.38548,"is_reserved":false,"is_disabled":false,"rental_uris":{"android":"levelo://app?vid=6e04aff7-d4f7-46f1-b0bd-942396a60595","ios":"levelo://app?vid=6e04aff7-d4f7-46f1-b0bd-942396a60595"},"vehicle_type_id":"4","last_reported":1743016058,"current_range_meters":3200,"station_id":"ce4bgih2rcd13ifvqba0","pricing_plan_id":"cebpf4jnsgd1na2vs0mg"},{"bike_id":"81fda80d-f9ef-441b-81d5-bd2795c229e2","system_id":"levelo_inurba_marseille","lat":43.30143,"lon":5.39883,"is_reserved":false,"is_disabled":false,"rental_uris":{"android":"levelo://app?vid=81fda80d-f9ef-441b-81d5-bd2795c229e2","ios":"levelo://app?vid=81fda80d-f9ef-441b-81d5-bd2795c229e2"},"vehicle_type_id":"4","last_reported":1743016058,"current_range_meters":3200,"station_id":"ce4bh0h2rcd13ifvqd40","pricing_plan_id":"cebpf4jnsgd1na2vs0mg"},{"bike_id":"144d798a-c5e8-4897-9c97-691f4421fcf7","system_id":"levelo_inurba_marseille","lat":43.286743,"lon":5.360462,"is_reserved":false,"is_disabled":false,"rental_uris":{"android":"levelo://app?vid=144d798a-c5e8-4897-9c97-691f4421fcf7","ios":"levelo://app?vid=144d798a-c5e8-4897-9c97-691f4421fcf7"},"vehicle_type_id":"4","last_reported":1743016058,"current_range_meters":2800,"station_id":"cki0cbj6b192h4jlfktg","pricing_plan_id":"cebpf4jnsgd1na2vs0mg"},{"bike_id":"fa975199-b010-4861-893f-d8800eabd564","system_id":"levelo_inurba_marseille","lat":43.28941,"lon":5.36641,"is_reserved":false,"is_disabled":false,"rental_uris":{"android":"levelo://app?vid=fa975199-b010-4861-893f-d8800eabd564","ios":"levelo://app?vid=fa975199-b010-4861-893f-d8800eabd564"},"vehicle_type_id":"4","last_reported":1743016058,"current_range_meters":3200,"station_id":"ce4bhap2rcd13ifvqek0","pricing_plan_id":"cebpf4jnsgd1na2vs0mg"},{"bike_id":"34da6bb3-f80a-4f20-a9d3-30c3c918e714","system_id":"levelo_inurba_marseille","lat":43.28294,"lon":5.43222,"is_reserved":false,"is_disabled":false,"rental_uris":{"android":"levelo://app?vid=34da6bb3-f80a-4f20-a9d3-30c3c918e714","ios":"levelo://app?vid=34da6bb3-f80a-4f20-a9d3-30c3c918e714"},"vehicle_type_id":"4","last_reported":1743016058,"current_range_meters":3200,"station_id":"","pricing_plan_id":"cebpf4jnsgd1na2vs0mg"},{"bike_id":"2c283e7d-9721-4ecf-95ff-a349eef1e812","system_id":"levelo_inurba_marseille","lat":43.30271,"lon":5.40076,"is_reserved":false,"is_disabled":false,"rental_uris":{"android":"levelo://app?vid=2c283e7d-9721-4ecf-95ff-a349eef1e812","ios":"levelo://app?vid=2c283e7d-9721-4ecf-95ff-a349eef1e812"},"vehicle_type_id":"4","last_reported":1743016058,"current_range_meters":3200,"station_id":"ce4bgvh2rcd13ifvqcs0","pricing_plan_id":"cebpf4jnsgd1na2vs0mg"},{"bike_id":"cd20d16a-032a-4ea7-a430-255e9d8a59c5","system_id":"levelo_inurba_marseille","lat":43.28153,"lon":5.40699,"is_reserved":false,"is_disabled":false,"rental_uris":{"android":"levelo://app?vid=cd20d16a-032a-4ea7-a430-255e9d8a59c5","ios":"levelo://app?vid=cd20d16a-032a-4ea7-a430-255e9d8a59c5"},"vehicle_type_id":"4","last_reported":1743016058,"current_range_meters":3200,"station_id":"","pricing_plan_id":"cebpf4jnsgd1na2vs0mg"},{"bike_id":"be9b01ef-a9fb-4420-99ff-9d56740d7ebe","system_id":"levelo_inurba_marseille","lat":43.31107,"lon":5.36927,"is_reserved":false,"is_disabled":false,"rental_uris":{"android":"levelo://app?vid=be9b01ef-a9fb-4420-99ff-9d56740d7ebe","ios":"levelo://app?vid=be9b01ef-a9fb-4420-99ff-9d56740d7ebe"},"vehicle_type_id":"4","last_reported":1743016058,"current_range_meters":4000,"station_id":"","pricing_plan_id":"cebpf4jnsgd1na2vs0mg"},{"bike_id":"5a2026a5-ced7-4acb-a533-995f56b56295","system_id":"levelo_inurba_marseille","lat":43.27607,"lon":5.36102,"is_reserved":false,"is_disabled":true,"rental_uris":{"android":"levelo://app?vid=5a2026a5-ced7-4acb-a533-995f56b56295","ios":"levelo://app?vid=5a2026a5-ced7-4acb-a533-995f56b56295"},"vehicle_type_id":"4","last_reported":1743016058,"current_range_meters":3200,"station_id":"ce4bgj92rcd13ifvqbe0","pricing_plan_id":"cebpf4jnsgd1na2vs0mg"},{"bike_id":"41434540-d27d-4111-a639-b5985794431a","system_id":"levelo_inurba_marseille","lat":43.24803,"lon":5.37454,"is_reserved":false,"is_disabled":false,"rental_uris":{"android":"levelo://app?vid=41434540-d27d-4111-a639-b5985794431a","ios":"levelo://app?vid=41434540-d27d-4111-a639-b5985794431a"},"vehicle_type_id":"4","last_reported":1743016058,"current_range_meters":3600,"station_id":"ce4bhgh2rcd13ifvqfb0","pricing_plan_id":"cebpf4jnsgd1na2vs0mg"},{"bike_id":"1ee2b86a-2f89-4c64-8015-bd2df371c39e","system_id":"levelo_inurba_marseille","lat":43.292572,"lon":5.384197,"is_reserved":false,"is_disabled":false,"rental_uris":{"android":"levelo://app?vid=1ee2b86a-2f89-4c64-8015-bd2df371c39e","ios":"levelo://app?vid=1ee2b86a-2f89-4c64-8015-bd2df371c39e"},"vehicle_type_id":"4","last_reported":1743016058,"current_range_meters":3600,"station_id":"ce4bh512rcd13ifvqe2g","pricing_plan_id":"cebpf4jnsgd1na2vs0mg"},{"bike_id":"0c9cada4-2764-4013-a528-15089818cb84","system_id":"levelo_inurba_marseille","lat":43.27763,"lon":5.41161,"is_reserved":false,"is_disabled":false,"rental_uris":{"android":"levelo://app?vid=0c9cada4-2764-4013-a528-15089818cb84","ios":"levelo://app?vid=0c9cada4-2764-4013-a528-15089818cb84"},"vehicle_type_id":"4","last_reported":1743016058,"current_range_meters":3600,"station_id":"","pricing_plan_id":"cebpf4jnsgd1na2vs0mg"},{"bike_id":"e88119b7-a718-4321-b2dc-884b54d91595","system_id":"levelo_inurba_marseille","lat":43.30823,"lon":5.37652,"is_reserved":false,"is_disabled":false,"rental_uris":{"android":"levelo://app?vid=e88119b7-a718-4321-b2dc-884b54d91595","ios":"levelo://app?vid=e88119b7-a718-4321-b2dc-884b54d91595"},"vehicle_type_id":"4","last_reported":1743016058,"current_range_meters":3600,"station_id":"ce4bgv92rcd13ifvqcq0","pricing_plan_id":"cebpf4jnsgd1na2vs0mg"},{"bike_id":"821323bb-9d1f-4f54-84a8-2cda94a0dbe7","system_id":"levelo_inurba_marseille","lat":43.22931,"lon":5.35376,"is_reserved":false,"is_disabled":false,"rental_uris":{"android":"levelo://app?vid=821323bb-9d1f-4f54-84a8-2cda94a0dbe7","ios":"levelo://app?vid=821323bb-9d1f-4f54-84a8-2cda94a0dbe7"},"vehicle_type_id":"4","last_reported":1743016058,"current_range_meters":3600,"station_id":"cpo3532slgdg3j2ikp40","pricing_plan_id":"cebpf4jnsgd1na2vs0mg"},{"bike_id":"1f1abfe6-0c00-4172-80a7-572f4cd9420b","system_id":"levelo_inurba_marseille","lat":43.29919,"lon":5.37494,"is_reserved":false,"is_disabled":false,"rental_uris":{"android":"levelo://app?vid=1f1abfe6-0c00-4172-80a7-572f4cd9420b","ios":"levelo://app?vid=1f1abfe6-0c00-4172-80a7-572f4cd9420b"},"vehicle_type_id":"4","last_reported":1743016058,"current_range_meters":3600,"station_id":"ce4bgjh2rcd13ifvqbg0","pricing_plan_id":"cebpf4jnsgd1na2vs0mg"},{"bike_id":"35f1432b-c929-4f89-82cf-51b4fa739eb0","system_id":"levelo_inurba_marseille","lat":43.28036,"lon":5.36947,"is_reserved":false,"is_disabled":false,"rental_uris":{"android":"levelo://app?vid=35f1432b-c929-4f89-82cf-51b4fa739eb0","ios":"levelo://app?vid=35f1432b-c929-4f89-82cf-51b4fa739eb0"},"vehicle_type_id":"4","last_reported":1743016058,"current_range_meters":3600,"station_id":"ce4bha12rcd13ifvqef0","pricing_plan_id":"cebpf4jnsgd1na2vs0mg"},{"bike_id":"d74aba57-0757-4ca8-9444-3cd3bfa6c4d1","system_id":"levelo_inurba_marseille","lat":43.23962,"lon":5.36638,"is_reserved":false,"is_disabled":false,"rental_uris":{"android":"levelo://app?vid=d74aba57-0757-4ca8-9444-3cd3bfa6c4d1","ios":"levelo://app?vid=d74aba57-0757-4ca8-9444-3cd3bfa6c4d1"},"vehicle_type_id":"4","last_reported":1743016058,"current_range_meters":3600,"station_id":"ce4bhi12rcd13ifvqfp0","pricing_plan_id":"cebpf4jnsgd1na2vs0mg"},{"bike_id":"6328907b-434a-4eb0-8f99-248953d33fc5","system_id":"levelo_inurba_marseille","lat":43.30919,"lon":5.40138,"is_reserved":false,"is_disabled":false,"rental_uris":{"android":"levelo://app?vid=6328907b-434a-4eb0-8f99-248953d33fc5","ios":"levelo://app?vid=6328907b-434a-4eb0-8f99-248953d33fc5"},"vehicle_type_id":"4","last_reported":1743016058,"current_range_meters":3600,"station_id":"ce4bgvp2rcd13ifvqct0","pricing_plan_id":"cebpf4jnsgd1na2vs0mg"},{"bike_id":"44b3becc-57ea-43ab-89af-8793996f6db6","system_id":"levelo_inurba_marseille","lat":43.293085,"lon":5.374534,"is_reserved":false,"is_disabled":false,"rental_uris":{"android":"levelo://app?vid=44b3becc-57ea-43ab-89af-8793996f6db6","ios":"levelo://app?vid=44b3becc-57ea-43ab-89af-8793996f6db6"},"vehicle_type_id":"4","last_reported":1743016058,"current_range_meters":4000,"station_id":"chh1huq6cuj3fo74tm60","pricing_plan_id":"cebpf4jnsgd1na2vs0mg"},{"bike_id":"d9513bf5-f255-462a-a7d5-c6e6b011af31","system_id":"levelo_inurba_marseille","lat":43.27814,"lon":5.40711,"is_reserved":false,"is_disabled":true,"rental_uris":{"android":"levelo://app?vid=d9513bf5-f255-462a-a7d5-c6e6b011af31","ios":"levelo://app?vid=d9513bf5-f255-462a-a7d5-c6e6b011af31"},"vehicle_type_id":"4","last_reported":1743016058,"current_range_meters":4000,"station_id":"ce4bhnh2rcd13ifvqgtg","pricing_plan_id":"cebpf4jnsgd1na2vs0mg"},{"bike_id":"9ded8d89-b087-4195-9a28-004374cd82ff","system_id":"levelo_inurba_marseille","lat":43.23563,"lon":5.37533,"is_reserved":false,"is_disabled":false,"rental_uris":{"android":"levelo://app?vid=9ded8d89-b087-4195-9a28-004374cd82ff","ios":"levelo://app?vid=9ded8d89-b087-4195-9a28-004374cd82ff"},"vehicle_type_id":"4","last_reported":1743016058,"current_range_meters":4000,"station_id":"ce4bgjh2rcd13ifvqbf0","pricing_plan_id":"cebpf4jnsgd1na2vs0mg"},{"bike_id":"89e7e55d-4603-4a66-bed6-93c6e30b4371","system_id":"levelo_inurba_marseille","lat":43.23182,"lon":5.39996,"is_reserved":false,"is_disabled":false,"rental_uris":{"android":"levelo://app?vid=89e7e55d-4603-4a66-bed6-93c6e30b4371","ios":"levelo://app?vid=89e7e55d-4603-4a66-bed6-93c6e30b4371"},"vehicle_type_id":"4","last_reported":1743016058,"current_range_meters":4000,"station_id":"ce4bhn12rcd13ifvqgqg","pricing_plan_id":"cebpf4jnsgd1na2vs0mg"},{"bike_id":"e4ccaac7-101d-402f-b46c-82219ddcac7c","system_id":"levelo_inurba_marseille","lat":43.2558,"lon":5.38233,"is_reserved":false,"is_disabled":false,"rental_uris":{"android":"levelo://app?vid=e4ccaac7-101d-402f-b46c-82219ddcac7c","ios":"levelo://app?vid=e4ccaac7-101d-402f-b46c-82219ddcac7c"},"vehicle_type_id":"4","last_reported":1743016058,"current_range_meters":4000,"station_id":"ce4bhih2rcd13ifvqfs0","pricing_plan_id":"cebpf4jnsgd1na2vs0mg"},{"bike_id":"000afce6-6f60-4b8a-a87b-213d6105417e","system_id":"levelo_inurba_marseille","lat":43.306549,"lon":5.400774,"is_reserved":false,"is_disabled":false,"rental_uris":{"android":"levelo://app?vid=000afce6-6f60-4b8a-a87b-213d6105417e","ios":"levelo://app?vid=000afce6-6f60-4b8a-a87b-213d6105417e"},"vehicle_type_id":"4","last_reported":1743016058,"current_range_meters":4000,"station_id":"ce4bhjp2rcd13ifvqg90","pricing_plan_id":"cebpf4jnsgd1na2vs0mg"},{"bike_id":"9ddafcf7-4a4a-4c54-811a-8117f3f9cbb9","system_id":"levelo_inurba_marseille","lat":43.290161,"lon":5.384472,"is_reserved":false,"is_disabled":false,"rental_uris":{"android":"levelo://app?vid=9ddafcf7-4a4a-4c54-811a-8117f3f9cbb9","ios":"levelo://app?vid=9ddafcf7-4a4a-4c54-811a-8117f3f9cbb9"},"vehicle_type_id":"4","last_reported":1743016058,"current_range_meters":4000,"station_id":"ce4bh612rcd13ifvqe6g","pricing_plan_id":"cebpf4jnsgd1na2vs0mg"},{"bike_id":"b308828d-359a-4d4a-a7d3-68eacf52311b","system_id":"levelo_inurba_marseille","lat":43.2903,"lon":5.38124,"is_reserved":false,"is_disabled":false,"rental_uris":{"android":"levelo://app?vid=b308828d-359a-4d4a-a7d3-68eacf52311b","ios":"levelo://app?vid=b308828d-359a-4d4a-a7d3-68eacf52311b"},"vehicle_type_id":"4","last_reported":1743016058,"current_range_meters":4000,"station_id":"ce4bh4p2rcd13ifvqe1g","pricing_plan_id":"cebpf4jnsgd1na2vs0mg"},{"bike_id":"dee01880-4681-433f-b610-c066e973cf8d","system_id":"levelo_inurba_marseille","lat":43.23964,"lon":5.366274,"is_reserved":false,"is_disabled":false,"rental_uris":{"android":"levelo://app?vid=dee01880-4681-433f-b610-c066e973cf8d","ios":"levelo://app?vid=dee01880-4681-433f-b610-c066e973cf8d"},"vehicle_type_id":"4","last_reported":1743016058,"current_range_meters":4000,"station_id":"ce4bhi12rcd13ifvqfp0","pricing_plan_id":"cebpf4jnsgd1na2vs0mg"},{"bike_id":"3ccb1274-e7ee-4755-bf36-a48d7cc3ffbf","system_id":"levelo_inurba_marseille","lat":43.289363,"lon":5.39625,"is_reserved":false,"is_disabled":false,"rental_uris":{"android":"levelo://app?vid=3ccb1274-e7ee-4755-bf36-a48d7cc3ffbf","ios":"levelo://app?vid=3ccb1274-e7ee-4755-bf36-a48d7cc3ffbf"},"vehicle_type_id":"4","last_reported":1743016058,"current_range_meters":3600,"station_id":"ce4bh3h2rcd13ifvqdn0","pricing_plan_id":"cebpf4jnsgd1na2vs0mg"},{"bike_id":"6ccab4ca-2e84-43a1-8fd5-d4f9c2f393f5","system_id":"levelo_inurba_marseille","lat":43.26539,"lon":5.39567,"is_reserved":false,"is_disabled":false,"rental_uris":{"android":"levelo://app?vid=6ccab4ca-2e84-43a1-8fd5-d4f9c2f393f5","ios":"levelo://app?vid=6ccab4ca-2e84-43a1-8fd5-d4f9c2f393f5"},"vehicle_type_id":"4","last_reported":1743016058,"current_range_meters":4000,"station_id":"","pricing_plan_id":"cebpf4jnsgd1na2vs0mg"},{"bike_id":"ed94e6cc-c6d5-41a5-b844-404afe90a0a5","system_id":"levelo_inurba_marseille","lat":43.29802,"lon":5.38096,"is_reserved":false,"is_disabled":false,"rental_uris":{"android":"levelo://app?vid=ed94e6cc-c6d5-41a5-b844-404afe90a0a5","ios":"levelo://app?vid=ed94e6cc-c6d5-41a5-b844-404afe90a0a5"},"vehicle_type_id":"4","last_reported":1743016058,"current_range_meters":4400,"station_id":"ce4bgip2rcd13ifvqbb0","pricing_plan_id":"cebpf4jnsgd1na2vs0mg"},{"bike_id":"9e055384-a636-40cc-a4e5-f9a8753e116a","system_id":"levelo_inurba_marseille","lat":43.24802,"lon":5.37452,"is_reserved":false,"is_disabled":false,"rental_uris":{"android":"levelo://app?vid=9e055384-a636-40cc-a4e5-f9a8753e116a","ios":"levelo://app?vid=9e055384-a636-40cc-a4e5-f9a8753e116a"},"vehicle_type_id":"4","last_reported":1743016058,"current_range_meters":4400,"station_id":"ce4bhgh2rcd13ifvqfb0","pricing_plan_id":"cebpf4jnsgd1na2vs0mg"},{"bike_id":"2a99ecb7-4bf0-4c00-89bb-11ff019b8a6d","system_id":"levelo_inurba_marseille","lat":43.22914,"lon":5.35386,"is_reserved":false,"is_disabled":false,"rental_uris":{"android":"levelo://app?vid=2a99ecb7-4bf0-4c00-89bb-11ff019b8a6d","ios":"levelo://app?vid=2a99ecb7-4bf0-4c00-89bb-11ff019b8a6d"},"vehicle_type_id":"4","last_reported":1743016058,"current_range_meters":4400,"station_id":"cpo3532slgdg3j2ikp40","pricing_plan_id":"cebpf4jnsgd1na2vs0mg"},{"bike_id":"03908684-304c-46cb-8098-7d26df555d11","system_id":"levelo_inurba_marseille","lat":43.29268,"lon":5.39853,"is_reserved":false,"is_disabled":false,"rental_uris":{"android":"levelo://app?vid=03908684-304c-46cb-8098-7d26df555d11","ios":"levelo://app?vid=03908684-304c-46cb-8098-7d26df555d11"},"vehicle_type_id":"4","last_reported":1743016058,"current_range_meters":4400,"station_id":"","pricing_plan_id":"cebpf4jnsgd1na2vs0mg"},{"bike_id":"c9757738-5699-4f4d-8ebd-5b5fc92ea556","system_id":"levelo_inurba_marseille","lat":43.30138,"lon":5.38772,"is_reserved":false,"is_disabled":false,"rental_uris":{"android":"levelo://app?vid=c9757738-5699-4f4d-8ebd-5b5fc92ea556","ios":"levelo://app?vid=c9757738-5699-4f4d-8ebd-5b5fc92ea556"},"vehicle_type_id":"4","last_reported":1743016058,"current_range_meters":4400,"station_id":"ce4bghh2rcd13ifvqb60","pricing_plan_id":"cebpf4jnsgd1na2vs0mg"},{"bike_id":"ce4e225f-5374-4460-988d-82c7eee3c555","system_id":"levelo_inurba_marseille","lat":43.29276,"lon":5.36847,"is_reserved":false,"is_disabled":true,"rental_uris":{"android":"levelo://app?vid=ce4e225f-5374-4460-988d-82c7eee3c555","ios":"levelo://app?vid=ce4e225f-5374-4460-988d-82c7eee3c555"},"vehicle_type_id":"4","last_reported":1743016058,"current_range_meters":4400,"station_id":"ce4bhbp2rcd13ifvqesg","pricing_plan_id":"cebpf4jnsgd1na2vs0mg"},{"bike_id":"75705591-4fe6-4a5c-bed0-52b1090c6c41","system_id":"levelo_inurba_marseille","lat":43.27205,"lon":5.39191,"is_reserved":false,"is_disabled":false,"rental_uris":{"android":"levelo://app?vid=75705591-4fe6-4a5c-bed0-52b1090c6c41","ios":"levelo://app?vid=75705591-4fe6-4a5c-bed0-52b1090c6c41"},"vehicle_type_id":"4","last_reported":1743016058,"current_range_meters":4400,"station_id":"ce4bhhp2rcd13ifvqfm0","pricing_plan_id":"cebpf4jnsgd1na2vs0mg"},{"bike_id":"a1fed2e1-94a8-4f29-b233-fadbb74aed70","system_id":"levelo_inurba_marseille","lat":43.30144,"lon":5.39878,"is_reserved":false,"is_disabled":false,"rental_uris":{"android":"levelo://app?vid=a1fed2e1-94a8-4f29-b233-fadbb74aed70","ios":"levelo://app?vid=a1fed2e1-94a8-4f29-b233-fadbb74aed70"},"vehicle_type_id":"4","last_reported":1743016058,"current_range_meters":4400,"station_id":"ce4bh0h2rcd13ifvqd40","pricing_plan_id":"cebpf4jnsgd1na2vs0mg"},{"bike_id":"dd8dfa12-28ee-4d1e-bd90-52e14b46101d","system_id":"levelo_inurba_marseille","lat":43.30431,"lon":5.38891,"is_reserved":false,"is_disabled":false,"rental_uris":{"android":"levelo://app?vid=dd8dfa12-28ee-4d1e-bd90-52e14b46101d","ios":"levelo://app?vid=dd8dfa12-28ee-4d1e-bd90-52e14b46101d"},"vehicle_type_id":"4","last_reported":1743016058,"current_range_meters":4400,"station_id":"ce4bgk12rcd13ifvqbi0","pricing_plan_id":"cebpf4jnsgd1na2vs0mg"},{"bike_id":"fc507e55-7fe6-4d81-87c3-bf8e75d99534","system_id":"levelo_inurba_marseille","lat":43.24828,"lon":5.37456,"is_reserved":false,"is_disabled":false,"rental_uris":{"android":"levelo://app?vid=fc507e55-7fe6-4d81-87c3-bf8e75d99534","ios":"levelo://app?vid=fc507e55-7fe6-4d81-87c3-bf8e75d99534"},"vehicle_type_id":"4","last_reported":1743016058,"current_range_meters":4400,"station_id":"ce4bhgh2rcd13ifvqfb0","pricing_plan_id":"cebpf4jnsgd1na2vs0mg"},{"bike_id":"aaae8fd4-5ff6-4625-8779-47fc6fa13074","system_id":"levelo_inurba_marseille","lat":43.28711,"lon":5.40003,"is_reserved":false,"is_disabled":false,"rental_uris":{"android":"levelo://app?vid=aaae8fd4-5ff6-4625-8779-47fc6fa13074","ios":"levelo://app?vid=aaae8fd4-5ff6-4625-8779-47fc6fa13074"},"vehicle_type_id":"4","last_reported":1743016058,"current_range_meters":4400,"station_id":"ce4bho92rcd13ifvqh3g","pricing_plan_id":"cebpf4jnsgd1na2vs0mg"},{"bike_id":"5bc5431f-38ea-436f-9092-b2e2cdd5def6","system_id":"levelo_inurba_marseille","lat":43.294211,"lon":5.38607,"is_reserved":false,"is_disabled":false,"rental_uris":{"android":"levelo://app?vid=5bc5431f-38ea-436f-9092-b2e2cdd5def6","ios":"levelo://app?vid=5bc5431f-38ea-436f-9092-b2e2cdd5def6"},"vehicle_type_id":"4","last_reported":1743016058,"current_range_meters":4400,"station_id":"","pricing_plan_id":"cebpf4jnsgd1na2vs0mg"},{"bike_id":"a56a546e-9c66-4916-bc62-32033656ad5b","system_id":"levelo_inurba_marseille","lat":43.2926,"lon":5.38446,"is_reserved":false,"is_disabled":false,"rental_uris":{"android":"levelo://app?vid=a56a546e-9c66-4916-bc62-32033656ad5b","ios":"levelo://app?vid=a56a546e-9c66-4916-bc62-32033656ad5b"},"vehicle_type_id":"4","last_reported":1743016058,"current_range_meters":4400,"station_id":"ce4bh692rcd13ifvqea0","pricing_plan_id":"cebpf4jnsgd1na2vs0mg"},{"bike_id":"ea006dd2-f417-4f42-87c8-8b6cbaf0acc4","system_id":"levelo_inurba_marseille","lat":43.28456,"lon":5.35905,"is_reserved":false,"is_disabled":false,"rental_uris":{"android":"levelo://app?vid=ea006dd2-f417-4f42-87c8-8b6cbaf0acc4","ios":"levelo://app?vid=ea006dd2-f417-4f42-87c8-8b6cbaf0acc4"},"vehicle_type_id":"4","last_reported":1743016058,"current_range_meters":4800,"station_id":"ce4bhah2rcd13ifvqei0","pricing_plan_id":"cebpf4jnsgd1na2vs0mg"},{"bike_id":"5f6cafa4-7b81-423d-a2bb-1f9576034d44","system_id":"levelo_inurba_marseille","lat":43.30342,"lon":5.4046,"is_reserved":false,"is_disabled":false,"rental_uris":{"android":"levelo://app?vid=5f6cafa4-7b81-423d-a2bb-1f9576034d44","ios":"levelo://app?vid=5f6cafa4-7b81-423d-a2bb-1f9576034d44"},"vehicle_type_id":"4","last_reported":1743016058,"current_range_meters":4800,"station_id":"ce4bh012rcd13ifvqd10","pricing_plan_id":"cebpf4jnsgd1na2vs0mg"},{"bike_id":"067a94e0-664c-45ca-81c9-c82e3b3a4c44","system_id":"levelo_inurba_marseille","lat":43.28927,"lon":5.384037,"is_reserved":false,"is_disabled":false,"rental_uris":{"android":"levelo://app?vid=067a94e0-664c-45ca-81c9-c82e3b3a4c44","ios":"levelo://app?vid=067a94e0-664c-45ca-81c9-c82e3b3a4c44"},"vehicle_type_id":"4","last_reported":1743016058,"current_range_meters":4800,"station_id":"ce4bh612rcd13ifvqe6g","pricing_plan_id":"cebpf4jnsgd1na2vs0mg"},{"bike_id":"1e00490e-401c-497e-af42-6f3d974f68a2","system_id":"levelo_inurba_marseille","lat":43.25729,"lon":5.4111,"is_reserved":false,"is_disabled":false,"rental_uris":{"android":"levelo://app?vid=1e00490e-401c-497e-af42-6f3d974f68a2","ios":"levelo://app?vid=1e00490e-401c-497e-af42-6f3d974f68a2"},"vehicle_type_id":"4","last_reported":1743016058,"current_range_meters":4800,"station_id":"ce4bhkp2rcd13ifvqgd0","pricing_plan_id":"cebpf4jnsgd1na2vs0mg"},{"bike_id":"2e5e087f-e6ae-43b2-a7b3-4d878496512d","system_id":"levelo_inurba_marseille","lat":43.29265,"lon":5.38436,"is_reserved":false,"is_disabled":false,"rental_uris":{"android":"levelo://app?vid=2e5e087f-e6ae-43b2-a7b3-4d878496512d","ios":"levelo://app?vid=2e5e087f-e6ae-43b2-a7b3-4d878496512d"},"vehicle_type_id":"4","last_reported":1743016058,"current_range_meters":4800,"station_id":"ce4bh692rcd13ifvqea0","pricing_plan_id":"cebpf4jnsgd1na2vs0mg"},{"bike_id":"aa3f3be9-0667-4ae5-89a7-efe6b1708560","system_id":"levelo_inurba_marseille","lat":43.2816,"lon":5.42652,"is_reserved":false,"is_disabled":false,"rental_uris":{"android":"levelo://app?vid=aa3f3be9-0667-4ae5-89a7-efe6b1708560","ios":"levelo://app?vid=aa3f3be9-0667-4ae5-89a7-efe6b1708560"},"vehicle_type_id":"4","last_reported":1743016058,"current_range_meters":4800,"station_id":"ce4bhnh2rcd13ifvqgug","pricing_plan_id":"cebpf4jnsgd1na2vs0mg"},{"bike_id":"35105bd8-e826-4045-8b93-b6c68863dee5","system_id":"levelo_inurba_marseille","lat":43.30572,"lon":5.37157,"is_reserved":false,"is_disabled":false,"rental_uris":{"android":"levelo://app?vid=35105bd8-e826-4045-8b93-b6c68863dee5","ios":"levelo://app?vid=35105bd8-e826-4045-8b93-b6c68863dee5"},"vehicle_type_id":"4","last_reported":1743016058,"current_range_meters":4800,"station_id":"","pricing_plan_id":"cebpf4jnsgd1na2vs0mg"},{"bike_id":"402cc30d-39ca-4056-ad42-effd69fbd9c9","system_id":"levelo_inurba_marseille","lat":43.24079,"lon":5.37764,"is_reserved":false,"is_disabled":false,"rental_uris":{"android":"levelo://app?vid=402cc30d-39ca-4056-ad42-effd69fbd9c9","ios":"levelo://app?vid=402cc30d-39ca-4056-ad42-effd69fbd9c9"},"vehicle_type_id":"4","last_reported":1743016058,"current_range_meters":4800,"station_id":"ce4bhnp2rcd13ifvqgvg","pricing_plan_id":"cebpf4jnsgd1na2vs0mg"},{"bike_id":"6d4b037e-cb28-46ef-bb28-b71bb7d3f680","system_id":"levelo_inurba_marseille","lat":43.28676,"lon":5.38667,"is_reserved":false,"is_disabled":false,"rental_uris":{"android":"levelo://app?vid=6d4b037e-cb28-46ef-bb28-b71bb7d3f680","ios":"levelo://app?vid=6d4b037e-cb28-46ef-bb28-b71bb7d3f680"},"vehicle_type_id":"4","last_reported":1743016058,"current_range_meters":5600,"station_id":"ce4bh492rcd13ifvqdug","pricing_plan_id":"cebpf4jnsgd1na2vs0mg"},{"bike_id":"f393c367-4b1a-4822-a11c-2fc8e333083c","system_id":"levelo_inurba_marseille","lat":43.24652,"lon":5.38899,"is_reserved":false,"is_disabled":false,"rental_uris":{"android":"levelo://app?vid=f393c367-4b1a-4822-a11c-2fc8e333083c","ios":"levelo://app?vid=f393c367-4b1a-4822-a11c-2fc8e333083c"},"vehicle_type_id":"4","last_reported":1743016058,"current_range_meters":5600,"station_id":"ce4bhg12rcd13ifvqf60","pricing_plan_id":"cebpf4jnsgd1na2vs0mg"},{"bike_id":"dd6c817f-9dd1-461c-8966-5dc19d9e6d2c","system_id":"levelo_inurba_marseille","lat":43.29422,"lon":5.3862,"is_reserved":false,"is_disabled":false,"rental_uris":{"android":"levelo://app?vid=dd6c817f-9dd1-461c-8966-5dc19d9e6d2c","ios":"levelo://app?vid=dd6c817f-9dd1-461c-8966-5dc19d9e6d2c"},"vehicle_type_id":"4","last_reported":1743016058,"current_range_meters":5600,"station_id":"ce4bh2h2rcd13ifvqdh0","pricing_plan_id":"cebpf4jnsgd1na2vs0mg"},{"bike_id":"2f3e2a92-1301-4a27-8eaa-7b0ea525530e","system_id":"levelo_inurba_marseille","lat":43.31725,"lon":5.43705,"is_reserved":false,"is_disabled":false,"rental_uris":{"android":"levelo://app?vid=2f3e2a92-1301-4a27-8eaa-7b0ea525530e","ios":"levelo://app?vid=2f3e2a92-1301-4a27-8eaa-7b0ea525530e"},"vehicle_type_id":"4","last_reported":1743016058,"current_range_meters":5600,"station_id":"ce4bhp92rcd13ifvqhcg","pricing_plan_id":"cebpf4jnsgd1na2vs0mg"},{"bike_id":"c987315b-c2f4-4cef-9907-a198f1f04f5a","system_id":"levelo_inurba_marseille","lat":43.2801,"lon":5.40053,"is_reserved":false,"is_disabled":false,"rental_uris":{"android":"levelo://app?vid=c987315b-c2f4-4cef-9907-a198f1f04f5a","ios":"levelo://app?vid=c987315b-c2f4-4cef-9907-a198f1f04f5a"},"vehicle_type_id":"4","last_reported":1743016058,"current_range_meters":5600,"station_id":"ce4bho92rcd13ifvqh4g","pricing_plan_id":"cebpf4jnsgd1na2vs0mg"},{"bike_id":"ae64d049-3c54-4b63-a552-b1e07d06f548","system_id":"levelo_inurba_marseille","lat":43.291,"lon":5.38163,"is_reserved":false,"is_disabled":true,"rental_uris":{"android":"levelo://app?vid=ae64d049-3c54-4b63-a552-b1e07d06f548","ios":"levelo://app?vid=ae64d049-3c54-4b63-a552-b1e07d06f548"},"vehicle_type_id":"4","last_reported":1743016058,"current_range_meters":5600,"station_id":"ce4bho12rcd13ifvqh1g","pricing_plan_id":"cebpf4jnsgd1na2vs0mg"},{"bike_id":"d461cf2d-de6e-4ca9-a505-5b02ab98ff4a","system_id":"levelo_inurba_marseille","lat":43.25825,"lon":5.39447,"is_reserved":false,"is_disabled":false,"rental_uris":{"android":"levelo://app?vid=d461cf2d-de6e-4ca9-a505-5b02ab98ff4a","ios":"levelo://app?vid=d461cf2d-de6e-4ca9-a505-5b02ab98ff4a"},"vehicle_type_id":"4","last_reported":1743016058,"current_range_meters":5600,"station_id":"ce4bhip2rcd13ifvqft0","pricing_plan_id":"cebpf4jnsgd1na2vs0mg"},{"bike_id":"fa184a62-ebc9-4b97-9381-e47cf28c2b04","system_id":"levelo_inurba_marseille","lat":43.31166,"lon":5.38657,"is_reserved":false,"is_disabled":false,"rental_uris":{"android":"levelo://app?vid=fa184a62-ebc9-4b97-9381-e47cf28c2b04","ios":"levelo://app?vid=fa184a62-ebc9-4b97-9381-e47cf28c2b04"},"vehicle_type_id":"4","last_reported":1743016058,"current_range_meters":5600,"station_id":"ce4bgv12rcd13ifvqcp0","pricing_plan_id":"cebpf4jnsgd1na2vs0mg"},{"bike_id":"7d944d2b-bdbb-4dfe-b8d5-68d8eb03245d","system_id":"levelo_inurba_marseille","lat":43.24652,"lon":5.38916,"is_reserved":false,"is_disabled":false,"rental_uris":{"android":"levelo://app?vid=7d944d2b-bdbb-4dfe-b8d5-68d8eb03245d","ios":"levelo://app?vid=7d944d2b-bdbb-4dfe-b8d5-68d8eb03245d"},"vehicle_type_id":"4","last_reported":1743016058,"current_range_meters":5600,"station_id":"ce4bhg12rcd13ifvqf60","pricing_plan_id":"cebpf4jnsgd1na2vs0mg"},{"bike_id":"aa2e93ff-b332-4dd8-808b-dfc5c3f0f727","system_id":"levelo_inurba_marseille","lat":43.29869,"lon":5.39733,"is_reserved":false,"is_disabled":false,"rental_uris":{"android":"levelo://app?vid=aa2e93ff-b332-4dd8-808b-dfc5c3f0f727","ios":"levelo://app?vid=aa2e93ff-b332-4dd8-808b-dfc5c3f0f727"},"vehicle_type_id":"4","last_reported":1743016058,"current_range_meters":5600,"station_id":"ce4bh0h2rcd13ifvqd50","pricing_plan_id":"cebpf4jnsgd1na2vs0mg"},{"bike_id":"38c86b61-7eb5-48f6-96ab-cdec5ec805a0","system_id":"levelo_inurba_marseille","lat":43.27949,"lon":5.37973,"is_reserved":false,"is_disabled":false,"rental_uris":{"android":"levelo://app?vid=38c86b61-7eb5-48f6-96ab-cdec5ec805a0","ios":"levelo://app?vid=38c86b61-7eb5-48f6-96ab-cdec5ec805a0"},"vehicle_type_id":"4","last_reported":1743016058,"current_range_meters":5600,"station_id":"","pricing_plan_id":"cebpf4jnsgd1na2vs0mg"},{"bike_id":"8e9a7e2d-3588-489c-9aca-78d965d18399","system_id":"levelo_inurba_marseille","lat":43.29268,"lon":5.3845,"is_reserved":false,"is_disabled":false,"rental_uris":{"android":"levelo://app?vid=8e9a7e2d-3588-489c-9aca-78d965d18399","ios":"levelo://app?vid=8e9a7e2d-3588-489c-9aca-78d965d18399"},"vehicle_type_id":"4","last_reported":1743016058,"current_range_meters":5600,"station_id":"ce4bh692rcd13ifvqea0","pricing_plan_id":"cebpf4jnsgd1na2vs0mg"},{"bike_id":"84c2680c-8ad4-48d2-bdca-b12b6529b0b1","system_id":"levelo_inurba_marseille","lat":43.30136,"lon":5.38782,"is_reserved":false,"is_disabled":false,"rental_uris":{"android":"levelo://app?vid=84c2680c-8ad4-48d2-bdca-b12b6529b0b1","ios":"levelo://app?vid=84c2680c-8ad4-48d2-bdca-b12b6529b0b1"},"vehicle_type_id":"4","last_reported":1743016058,"current_range_meters":4800,"station_id":"ce4bghh2rcd13ifvqb60","pricing_plan_id":"cebpf4jnsgd1na2vs0mg"},{"bike_id":"06c00e1f-d130-4c7c-aeeb-920221016a1a","system_id":"levelo_inurba_marseille","lat":43.30297,"lon":5.39224,"is_reserved":false,"is_disabled":false,"rental_uris":{"android":"levelo://app?vid=06c00e1f-d130-4c7c-aeeb-920221016a1a","ios":"levelo://app?vid=06c00e1f-d130-4c7c-aeeb-920221016a1a"},"vehicle_type_id":"4","last_reported":1743016058,"current_range_meters":5600,"station_id":"ce4bgkh2rcd13ifvqbk0","pricing_plan_id":"cebpf4jnsgd1na2vs0mg"},{"bike_id":"2f47bda1-d7e6-4f6b-9769-25b722b72d35","system_id":"levelo_inurba_marseille","lat":43.29598,"lon":5.38104,"is_reserved":false,"is_disabled":false,"rental_uris":{"android":"levelo://app?vid=2f47bda1-d7e6-4f6b-9769-25b722b72d35","ios":"levelo://app?vid=2f47bda1-d7e6-4f6b-9769-25b722b72d35"},"vehicle_type_id":"4","last_reported":1743016058,"current_range_meters":5600,"station_id":"ce4bgl12rcd13ifvqbo0","pricing_plan_id":"cebpf4jnsgd1na2vs0mg"},{"bike_id":"bcb027de-f21c-46df-af65-77148866e56b","system_id":"levelo_inurba_marseille","lat":43.29427,"lon":5.38645,"is_reserved":false,"is_disabled":false,"rental_uris":{"android":"levelo://app?vid=bcb027de-f21c-46df-af65-77148866e56b","ios":"levelo://app?vid=bcb027de-f21c-46df-af65-77148866e56b"},"vehicle_type_id":"4","last_reported":1743016058,"current_range_meters":6000,"station_id":"ce4bh2h2rcd13ifvqdh0","pricing_plan_id":"cebpf4jnsgd1na2vs0mg"},{"bike_id":"34686373-e89c-419a-b761-12da58c90701","system_id":"levelo_inurba_marseille","lat":43.278137,"lon":5.407272,"is_reserved":false,"is_disabled":false,"rental_uris":{"android":"levelo://app?vid=34686373-e89c-419a-b761-12da58c90701","ios":"levelo://app?vid=34686373-e89c-419a-b761-12da58c90701"},"vehicle_type_id":"4","last_reported":1743016058,"current_range_meters":6000,"station_id":"ce4bhnh2rcd13ifvqgtg","pricing_plan_id":"cebpf4jnsgd1na2vs0mg"},{"bike_id":"0b792fd1-4611-4b05-b1d5-0145989d2dc8","system_id":"levelo_inurba_marseille","lat":43.25832,"lon":5.39436,"is_reserved":false,"is_disabled":false,"rental_uris":{"android":"levelo://app?vid=0b792fd1-4611-4b05-b1d5-0145989d2dc8","ios":"levelo://app?vid=0b792fd1-4611-4b05-b1d5-0145989d2dc8"},"vehicle_type_id":"4","last_reported":1743016058,"current_range_meters":6000,"station_id":"ce4bhip2rcd13ifvqft0","pricing_plan_id":"cebpf4jnsgd1na2vs0mg"},{"bike_id":"3914cd8b-004c-480a-b5e0-bfed65eccbfd","system_id":"levelo_inurba_marseille","lat":43.30444,"lon":5.38892,"is_reserved":false,"is_disabled":false,"rental_uris":{"android":"levelo://app?vid=3914cd8b-004c-480a-b5e0-bfed65eccbfd","ios":"levelo://app?vid=3914cd8b-004c-480a-b5e0-bfed65eccbfd"},"vehicle_type_id":"4","last_reported":1743016058,"current_range_meters":6000,"station_id":"ce4bgk12rcd13ifvqbi0","pricing_plan_id":"cebpf4jnsgd1na2vs0mg"},{"bike_id":"d6ddfaa2-fbb5-446a-b270-7624c8eb3274","system_id":"levelo_inurba_marseille","lat":43.25,"lon":5.38924,"is_reserved":false,"is_disabled":false,"rental_uris":{"android":"levelo://app?vid=d6ddfaa2-fbb5-446a-b270-7624c8eb3274","ios":"levelo://app?vid=d6ddfaa2-fbb5-446a-b270-7624c8eb3274"},"vehicle_type_id":"4","last_reported":1743016058,"current_range_meters":6000,"station_id":"ce4bhgp2rcd13ifvqfd0","pricing_plan_id":"cebpf4jnsgd1na2vs0mg"},{"bike_id":"ea058543-5b6a-48af-855d-c8588b5d0075","system_id":"levelo_inurba_marseille","lat":43.28155,"lon":5.42664,"is_reserved":false,"is_disabled":false,"rental_uris":{"android":"levelo://app?vid=ea058543-5b6a-48af-855d-c8588b5d0075","ios":"levelo://app?vid=ea058543-5b6a-48af-855d-c8588b5d0075"},"vehicle_type_id":"4","last_reported":1743016058,"current_range_meters":6000,"station_id":"ce4bhnh2rcd13ifvqgug","pricing_plan_id":"cebpf4jnsgd1na2vs0mg"},{"bike_id":"2665a3ee-28dd-4c20-be2c-7dbd02678f37","system_id":"levelo_inurba_marseille","lat":43.30143,"lon":5.37431,"is_reserved":false,"is_disabled":false,"rental_uris":{"android":"levelo://app?vid=2665a3ee-28dd-4c20-be2c-7dbd02678f37","ios":"levelo://app?vid=2665a3ee-28dd-4c20-be2c-7dbd02678f37"},"vehicle_type_id":"4","last_reported":1743016058,"current_range_meters":5600,"station_id":"ce4bguh2rcd13ifvqcj0","pricing_plan_id":"cebpf4jnsgd1na2vs0mg"},{"bike_id":"77823725-c761-49bc-902c-64c32b686ae7","system_id":"levelo_inurba_marseille","lat":43.23065,"lon":5.35512,"is_reserved":false,"is_disabled":false,"rental_uris":{"android":"levelo://app?vid=77823725-c761-49bc-902c-64c32b686ae7","ios":"levelo://app?vid=77823725-c761-49bc-902c-64c32b686ae7"},"vehicle_type_id":"4","last_reported":1743016058,"current_range_meters":6000,"station_id":"cpo3342slgdg3j2ifvpg","pricing_plan_id":"cebpf4jnsgd1na2vs0mg"},{"bike_id":"5b6adbc1-ee75-496d-9856-7a7c2c713b5e","system_id":"levelo_inurba_marseille","lat":43.29801,"lon":5.38094,"is_reserved":false,"is_disabled":false,"rental_uris":{"android":"levelo://app?vid=5b6adbc1-ee75-496d-9856-7a7c2c713b5e","ios":"levelo://app?vid=5b6adbc1-ee75-496d-9856-7a7c2c713b5e"},"vehicle_type_id":"4","last_reported":1743016058,"current_range_meters":6000,"station_id":"ce4bgip2rcd13ifvqbb0","pricing_plan_id":"cebpf4jnsgd1na2vs0mg"},{"bike_id":"7e628bd8-f74d-4310-8492-8512d6f315fe","system_id":"levelo_inurba_marseille","lat":43.23209,"lon":5.40006,"is_reserved":false,"is_disabled":false,"rental_uris":{"android":"levelo://app?vid=7e628bd8-f74d-4310-8492-8512d6f315fe","ios":"levelo://app?vid=7e628bd8-f74d-4310-8492-8512d6f315fe"},"vehicle_type_id":"4","last_reported":1743016058,"current_range_meters":6000,"station_id":"ce4bhn12rcd13ifvqgqg","pricing_plan_id":"cebpf4jnsgd1na2vs0mg"},{"bike_id":"ac16162e-9eb6-40a2-ae8b-a763f64ec361","system_id":"levelo_inurba_marseille","lat":43.29,"lon":5.35623,"is_reserved":false,"is_disabled":true,"rental_uris":{"android":"levelo://app?vid=ac16162e-9eb6-40a2-ae8b-a763f64ec361","ios":"levelo://app?vid=ac16162e-9eb6-40a2-ae8b-a763f64ec361"},"vehicle_type_id":"4","last_reported":1743016058,"current_range_meters":6400,"station_id":"ce4bhb92rcd13ifvqen0","pricing_plan_id":"cebpf4jnsgd1na2vs0mg"},{"bike_id":"cfb94627-63fd-4588-ba07-97ec13253103","system_id":"levelo_inurba_marseille","lat":43.31073,"lon":5.38354,"is_reserved":false,"is_disabled":false,"rental_uris":{"android":"levelo://app?vid=cfb94627-63fd-4588-ba07-97ec13253103","ios":"levelo://app?vid=cfb94627-63fd-4588-ba07-97ec13253103"},"vehicle_type_id":"4","last_reported":1743016058,"current_range_meters":6400,"station_id":"ce4bgv92rcd13ifvqcr0","pricing_plan_id":"cebpf4jnsgd1na2vs0mg"},{"bike_id":"3cd9b5bc-fba0-4545-94d0-e86f3d302f0f","system_id":"levelo_inurba_marseille","lat":43.28155,"lon":5.42648,"is_reserved":false,"is_disabled":false,"rental_uris":{"android":"levelo://app?vid=3cd9b5bc-fba0-4545-94d0-e86f3d302f0f","ios":"levelo://app?vid=3cd9b5bc-fba0-4545-94d0-e86f3d302f0f"},"vehicle_type_id":"4","last_reported":1743016058,"current_range_meters":6400,"station_id":"ce4bhnh2rcd13ifvqgug","pricing_plan_id":"cebpf4jnsgd1na2vs0mg"},{"bike_id":"8f3d283b-dc36-49e8-b083-f345bd70d4b1","system_id":"levelo_inurba_marseille","lat":43.3042,"lon":5.41291,"is_reserved":false,"is_disabled":false,"rental_uris":{"android":"levelo://app?vid=8f3d283b-dc36-49e8-b083-f345bd70d4b1","ios":"levelo://app?vid=8f3d283b-dc36-49e8-b083-f345bd70d4b1"},"vehicle_type_id":"4","last_reported":1743016058,"current_range_meters":6000,"station_id":"ce4bhop2rcd13ifvqh8g","pricing_plan_id":"cebpf4jnsgd1na2vs0mg"},{"bike_id":"6633349b-54ae-41b8-88d5-61ec5d012302","system_id":"levelo_inurba_marseille","lat":43.32109,"lon":5.36808,"is_reserved":false,"is_disabled":false,"rental_uris":{"android":"levelo://app?vid=6633349b-54ae-41b8-88d5-61ec5d012302","ios":"levelo://app?vid=6633349b-54ae-41b8-88d5-61ec5d012302"},"vehicle_type_id":"4","last_reported":1743016058,"current_range_meters":6400,"station_id":"ce4bhrh2rcd13ifvqhug","pricing_plan_id":"cebpf4jnsgd1na2vs0mg"},{"bike_id":"6437d489-2133-48f4-8803-453a78cfdfe8","system_id":"levelo_inurba_marseille","lat":43.28461,"lon":5.35887,"is_reserved":false,"is_disabled":false,"rental_uris":{"android":"levelo://app?vid=6437d489-2133-48f4-8803-453a78cfdfe8","ios":"levelo://app?vid=6437d489-2133-48f4-8803-453a78cfdfe8"},"vehicle_type_id":"4","last_reported":1743016058,"current_range_meters":6400,"station_id":"ce4bhah2rcd13ifvqei0","pricing_plan_id":"cebpf4jnsgd1na2vs0mg"},{"bike_id":"223c2160-e20d-492b-8baa-4483b9f66675","system_id":"levelo_inurba_marseille","lat":43.25722,"lon":5.41116,"is_reserved":false,"is_disabled":false,"rental_uris":{"android":"levelo://app?vid=223c2160-e20d-492b-8baa-4483b9f66675","ios":"levelo://app?vid=223c2160-e20d-492b-8baa-4483b9f66675"},"vehicle_type_id":"4","last_reported":1743016058,"current_range_meters":6400,"station_id":"ce4bhkp2rcd13ifvqgd0","pricing_plan_id":"cebpf4jnsgd1na2vs0mg"},{"bike_id":"cd2b0f9c-a3da-4c7a-a369-4095c9b9b42c","system_id":"levelo_inurba_marseille","lat":43.29268,"lon":5.38449,"is_reserved":false,"is_disabled":false,"rental_uris":{"android":"levelo://app?vid=cd2b0f9c-a3da-4c7a-a369-4095c9b9b42c","ios":"levelo://app?vid=cd2b0f9c-a3da-4c7a-a369-4095c9b9b42c"},"vehicle_type_id":"4","last_reported":1743016058,"current_range_meters":6400,"station_id":"ce4bh692rcd13ifvqea0","pricing_plan_id":"cebpf4jnsgd1na2vs0mg"},{"bike_id":"ad697fa0-a9a6-4fbc-b5fd-523e15afbc00","system_id":"levelo_inurba_marseille","lat":43.29814,"lon":5.39364,"is_reserved":false,"is_disabled":false,"rental_uris":{"android":"levelo://app?vid=ad697fa0-a9a6-4fbc-b5fd-523e15afbc00","ios":"levelo://app?vid=ad697fa0-a9a6-4fbc-b5fd-523e15afbc00"},"vehicle_type_id":"4","last_reported":1743016058,"current_range_meters":6400,"station_id":"chh1huq6cuj3fo74tm60","pricing_plan_id":"cebpf4jnsgd1na2vs0mg"},{"bike_id":"e157512c-8da5-4b6e-9c01-be7b95c5d97c","system_id":"levelo_inurba_marseille","lat":43.26818,"lon":5.40239,"is_reserved":false,"is_disabled":false,"rental_uris":{"android":"levelo://app?vid=e157512c-8da5-4b6e-9c01-be7b95c5d97c","ios":"levelo://app?vid=e157512c-8da5-4b6e-9c01-be7b95c5d97c"},"vehicle_type_id":"4","last_reported":1743016058,"current_range_meters":6400,"station_id":"ce501612rcd8frsf0b60","pricing_plan_id":"cebpf4jnsgd1na2vs0mg"},{"bike_id":"b9760421-750e-4656-8e67-3c9ad37b93d6","system_id":"levelo_inurba_marseille","lat":43.30397,"lon":5.38851,"is_reserved":false,"is_disabled":false,"rental_uris":{"android":"levelo://app?vid=b9760421-750e-4656-8e67-3c9ad37b93d6","ios":"levelo://app?vid=b9760421-750e-4656-8e67-3c9ad37b93d6"},"vehicle_type_id":"4","last_reported":1743016058,"current_range_meters":6400,"station_id":"ce4bgk12rcd13ifvqbi0","pricing_plan_id":"cebpf4jnsgd1na2vs0mg"},{"bike_id":"bb592b78-3219-49ca-bcf3-d8c98fecf5aa","system_id":"levelo_inurba_marseille","lat":43.2657,"lon":5.3901,"is_reserved":false,"is_disabled":false,"rental_uris":{"android":"levelo://app?vid=bb592b78-3219-49ca-bcf3-d8c98fecf5aa","ios":"levelo://app?vid=bb592b78-3219-49ca-bcf3-d8c98fecf5aa"},"vehicle_type_id":"4","last_reported":1743016058,"current_range_meters":6400,"station_id":"ce4bhe12rcd13ifvqf30","pricing_plan_id":"cebpf4jnsgd1na2vs0mg"},{"bike_id":"4e35694e-361c-45ed-9393-d2c764fe0eb5","system_id":"levelo_inurba_marseille","lat":43.2571,"lon":5.41129,"is_reserved":false,"is_disabled":false,"rental_uris":{"android":"levelo://app?vid=4e35694e-361c-45ed-9393-d2c764fe0eb5","ios":"levelo://app?vid=4e35694e-361c-45ed-9393-d2c764fe0eb5"},"vehicle_type_id":"4","last_reported":1743016058,"current_range_meters":6400,"station_id":"ce4bhkp2rcd13ifvqgd0","pricing_plan_id":"cebpf4jnsgd1na2vs0mg"},{"bike_id":"450ed788-c0d5-4dd2-9207-e92ce495ba49","system_id":"levelo_inurba_marseille","lat":43.31736,"lon":5.42406,"is_reserved":false,"is_disabled":false,"rental_uris":{"android":"levelo://app?vid=450ed788-c0d5-4dd2-9207-e92ce495ba49","ios":"levelo://app?vid=450ed788-c0d5-4dd2-9207-e92ce495ba49"},"vehicle_type_id":"4","last_reported":1743016058,"current_range_meters":6400,"station_id":"ce4bhp92rcd13ifvqhbg","pricing_plan_id":"cebpf4jnsgd1na2vs0mg"},{"bike_id":"3fce88a9-e982-41c6-b1c3-afb5c6995d96","system_id":"levelo_inurba_marseille","lat":43.27815,"lon":5.40715,"is_reserved":false,"is_disabled":false,"rental_uris":{"android":"levelo://app?vid=3fce88a9-e982-41c6-b1c3-afb5c6995d96","ios":"levelo://app?vid=3fce88a9-e982-41c6-b1c3-afb5c6995d96"},"vehicle_type_id":"4","last_reported":1743016058,"current_range_meters":6400,"station_id":"ce4bhnh2rcd13ifvqgtg","pricing_plan_id":"cebpf4jnsgd1na2vs0mg"},{"bike_id":"d3f9c66e-5e9c-4954-9734-6d6e162acdbd","system_id":"levelo_inurba_marseille","lat":43.31364,"lon":5.38498,"is_reserved":false,"is_disabled":false,"rental_uris":{"android":"levelo://app?vid=d3f9c66e-5e9c-4954-9734-6d6e162acdbd","ios":"levelo://app?vid=d3f9c66e-5e9c-4954-9734-6d6e162acdbd"},"vehicle_type_id":"4","last_reported":1743016058,"current_range_meters":6400,"station_id":"ce4bgt92rcd13ifvqcf0","pricing_plan_id":"cebpf4jnsgd1na2vs0mg"},{"bike_id":"bbd6a67e-9a0f-46e6-a586-2f7b57614f89","system_id":"levelo_inurba_marseille","lat":43.308,"lon":5.38168,"is_reserved":false,"is_disabled":false,"rental_uris":{"android":"levelo://app?vid=bbd6a67e-9a0f-46e6-a586-2f7b57614f89","ios":"levelo://app?vid=bbd6a67e-9a0f-46e6-a586-2f7b57614f89"},"vehicle_type_id":"4","last_reported":1743016058,"current_range_meters":6800,"station_id":"ce4bgt12rcd13ifvqce0","pricing_plan_id":"cebpf4jnsgd1na2vs0mg"},{"bike_id":"80222673-fbc9-4811-bc3b-995746ca5c08","system_id":"levelo_inurba_marseille","lat":43.27813,"lon":5.40718,"is_reserved":false,"is_disabled":false,"rental_uris":{"android":"levelo://app?vid=80222673-fbc9-4811-bc3b-995746ca5c08","ios":"levelo://app?vid=80222673-fbc9-4811-bc3b-995746ca5c08"},"vehicle_type_id":"4","last_reported":1743016058,"current_range_meters":6800,"station_id":"ce4bhnh2rcd13ifvqgtg","pricing_plan_id":"cebpf4jnsgd1na2vs0mg"},{"bike_id":"9a4ce729-daaf-4070-a49d-644e2ca30ccf","system_id":"levelo_inurba_marseille","lat":43.28358,"lon":5.38107,"is_reserved":false,"is_disabled":false,"rental_uris":{"android":"levelo://app?vid=9a4ce729-daaf-4070-a49d-644e2ca30ccf","ios":"levelo://app?vid=9a4ce729-daaf-4070-a49d-644e2ca30ccf"},"vehicle_type_id":"4","last_reported":1743016058,"current_range_meters":6800,"station_id":"ce4bh412rcd13ifvqdr0","pricing_plan_id":"cebpf4jnsgd1na2vs0mg"},{"bike_id":"f268842d-81d5-4007-8618-861677d34f6b","system_id":"levelo_inurba_marseille","lat":43.30804,"lon":5.38166,"is_reserved":false,"is_disabled":false,"rental_uris":{"android":"levelo://app?vid=f268842d-81d5-4007-8618-861677d34f6b","ios":"levelo://app?vid=f268842d-81d5-4007-8618-861677d34f6b"},"vehicle_type_id":"4","last_reported":1743016058,"current_range_meters":6800,"station_id":"ce4bgt12rcd13ifvqce0","pricing_plan_id":"cebpf4jnsgd1na2vs0mg"},{"bike_id":"a6828c83-1227-4142-a36e-6a56146dcac7","system_id":"levelo_inurba_marseille","lat":43.30805,"lon":5.38171,"is_reserved":false,"is_disabled":false,"rental_uris":{"android":"levelo://app?vid=a6828c83-1227-4142-a36e-6a56146dcac7","ios":"levelo://app?vid=a6828c83-1227-4142-a36e-6a56146dcac7"},"vehicle_type_id":"4","last_reported":1743016058,"current_range_meters":6800,"station_id":"ce4bgt12rcd13ifvqce0","pricing_plan_id":"cebpf4jnsgd1na2vs0mg"},{"bike_id":"d5804ad3-33e7-454e-b7d4-322b214049f7","system_id":"levelo_inurba_marseille","lat":43.24672,"lon":5.38138,"is_reserved":false,"is_disabled":false,"rental_uris":{"android":"levelo://app?vid=d5804ad3-33e7-454e-b7d4-322b214049f7","ios":"levelo://app?vid=d5804ad3-33e7-454e-b7d4-322b214049f7"},"vehicle_type_id":"4","last_reported":1743016058,"current_range_meters":6800,"station_id":"ce4bhih2rcd13ifvqfr0","pricing_plan_id":"cebpf4jnsgd1na2vs0mg"},{"bike_id":"2cd38659-3007-4a70-a3c0-4dbdf8d620d5","system_id":"levelo_inurba_marseille","lat":43.31481,"lon":5.37272,"is_reserved":false,"is_disabled":true,"rental_uris":{"android":"levelo://app?vid=2cd38659-3007-4a70-a3c0-4dbdf8d620d5","ios":"levelo://app?vid=2cd38659-3007-4a70-a3c0-4dbdf8d620d5"},"vehicle_type_id":"4","last_reported":1743016058,"current_range_meters":6800,"station_id":"ce4bgt12rcd13ifvqcd0","pricing_plan_id":"cebpf4jnsgd1na2vs0mg"},{"bike_id":"d2d4a013-da47-429f-9400-c6da6763f452","system_id":"levelo_inurba_marseille","lat":43.27826,"lon":5.40733,"is_reserved":false,"is_disabled":false,"rental_uris":{"android":"levelo://app?vid=d2d4a013-da47-429f-9400-c6da6763f452","ios":"levelo://app?vid=d2d4a013-da47-429f-9400-c6da6763f452"},"vehicle_type_id":"4","last_reported":1743016058,"current_range_meters":6800,"station_id":"ce4bhnh2rcd13ifvqgtg","pricing_plan_id":"cebpf4jnsgd1na2vs0mg"},{"bike_id":"e151ce53-9df0-465d-b95f-e37ede278bbb","system_id":"levelo_inurba_marseille","lat":43.29986,"lon":5.385,"is_reserved":false,"is_disabled":false,"rental_uris":{"android":"levelo://app?vid=e151ce53-9df0-465d-b95f-e37ede278bbb","ios":"levelo://app?vid=e151ce53-9df0-465d-b95f-e37ede278bbb"},"vehicle_type_id":"4","last_reported":1743016058,"current_range_meters":6800,"station_id":"ce4bgj92rcd13ifvqbd0","pricing_plan_id":"cebpf4jnsgd1na2vs0mg"},{"bike_id":"6c5d1ce0-6a25-4996-b766-77b6b895e23f","system_id":"levelo_inurba_marseille","lat":43.29258,"lon":5.38437,"is_reserved":false,"is_disabled":false,"rental_uris":{"android":"levelo://app?vid=6c5d1ce0-6a25-4996-b766-77b6b895e23f","ios":"levelo://app?vid=6c5d1ce0-6a25-4996-b766-77b6b895e23f"},"vehicle_type_id":"4","last_reported":1743016058,"current_range_meters":6800,"station_id":"ce4bh692rcd13ifvqea0","pricing_plan_id":"cebpf4jnsgd1na2vs0mg"},{"bike_id":"aae89eff-7518-436e-ad80-07c92e9a8d3c","system_id":"levelo_inurba_marseille","lat":43.29538,"lon":5.38555,"is_reserved":false,"is_disabled":false,"rental_uris":{"android":"levelo://app?vid=aae89eff-7518-436e-ad80-07c92e9a8d3c","ios":"levelo://app?vid=aae89eff-7518-436e-ad80-07c92e9a8d3c"},"vehicle_type_id":"4","last_reported":1743016058,"current_range_meters":6800,"station_id":"ce4bgih2rcd13ifvqba0","pricing_plan_id":"cebpf4jnsgd1na2vs0mg"},{"bike_id":"2bc60d58-eca8-489a-9ab7-436d7b576939","system_id":"levelo_inurba_marseille","lat":43.29918,"lon":5.43666,"is_reserved":false,"is_disabled":false,"rental_uris":{"android":"levelo://app?vid=2bc60d58-eca8-489a-9ab7-436d7b576939","ios":"levelo://app?vid=2bc60d58-eca8-489a-9ab7-436d7b576939"},"vehicle_type_id":"4","last_reported":1743016058,"current_range_meters":7200,"station_id":"ce4bhpp2rcd13ifvqhfg","pricing_plan_id":"cebpf4jnsgd1na2vs0mg"},{"bike_id":"b5511e67-0fc7-49f7-845c-c6fd873b52d1","system_id":"levelo_inurba_marseille","lat":43.2903,"lon":5.38649,"is_reserved":false,"is_disabled":false,"rental_uris":{"android":"levelo://app?vid=b5511e67-0fc7-49f7-845c-c6fd873b52d1","ios":"levelo://app?vid=b5511e67-0fc7-49f7-845c-c6fd873b52d1"},"vehicle_type_id":"4","last_reported":1743016058,"current_range_meters":7200,"station_id":"ce4bh4p2rcd13ifvqe0g","pricing_plan_id":"cebpf4jnsgd1na2vs0mg"},{"bike_id":"2477d515-77b2-4a18-be08-bc056da7f2c1","system_id":"levelo_inurba_marseille","lat":43.29964,"lon":5.3851,"is_reserved":false,"is_disabled":false,"rental_uris":{"android":"levelo://app?vid=2477d515-77b2-4a18-be08-bc056da7f2c1","ios":"levelo://app?vid=2477d515-77b2-4a18-be08-bc056da7f2c1"},"vehicle_type_id":"4","last_reported":1743016058,"current_range_meters":7200,"station_id":"ce4bgj92rcd13ifvqbd0","pricing_plan_id":"cebpf4jnsgd1na2vs0mg"},{"bike_id":"d0b79d47-e71e-4e16-86e5-742b427da272","system_id":"levelo_inurba_marseille","lat":43.26057,"lon":5.39407,"is_reserved":false,"is_disabled":false,"rental_uris":{"android":"levelo://app?vid=d0b79d47-e71e-4e16-86e5-742b427da272","ios":"levelo://app?vid=d0b79d47-e71e-4e16-86e5-742b427da272"},"vehicle_type_id":"4","last_reported":1743016058,"current_range_meters":7200,"station_id":"ce4bhh92rcd13ifvqfj0","pricing_plan_id":"cebpf4jnsgd1na2vs0mg"},{"bike_id":"44156654-a4cf-4f20-b992-8a27bbcc69ed","system_id":"levelo_inurba_marseille","lat":43.23194,"lon":5.39997,"is_reserved":false,"is_disabled":true,"rental_uris":{"android":"levelo://app?vid=44156654-a4cf-4f20-b992-8a27bbcc69ed","ios":"levelo://app?vid=44156654-a4cf-4f20-b992-8a27bbcc69ed"},"vehicle_type_id":"4","last_reported":1743016058,"current_range_meters":7200,"station_id":"ce4bhn12rcd13ifvqgqg","pricing_plan_id":"cebpf4jnsgd1na2vs0mg"},{"bike_id":"2da4dccb-d560-44b9-95c5-3e324f3555e0","system_id":"levelo_inurba_marseille","lat":43.2931,"lon":5.37466,"is_reserved":false,"is_disabled":false,"rental_uris":{"android":"levelo://app?vid=2da4dccb-d560-44b9-95c5-3e324f3555e0","ios":"levelo://app?vid=2da4dccb-d560-44b9-95c5-3e324f3555e0"},"vehicle_type_id":"4","last_reported":1743016058,"current_range_meters":7200,"station_id":"ce4bgi12rcd13ifvqb70","pricing_plan_id":"cebpf4jnsgd1na2vs0mg"},{"bike_id":"98c7ca61-6b4e-4129-ad44-4943fd2074d6","system_id":"levelo_inurba_marseille","lat":43.229306,"lon":5.353751,"is_reserved":false,"is_disabled":false,"rental_uris":{"android":"levelo://app?vid=98c7ca61-6b4e-4129-ad44-4943fd2074d6","ios":"levelo://app?vid=98c7ca61-6b4e-4129-ad44-4943fd2074d6"},"vehicle_type_id":"4","last_reported":1743016058,"current_range_meters":7200,"station_id":"cpo3532slgdg3j2ikp40","pricing_plan_id":"cebpf4jnsgd1na2vs0mg"},{"bike_id":"a6460627-511d-44ea-a912-da2085b0a119","system_id":"levelo_inurba_marseille","lat":43.294168,"lon":5.386205,"is_reserved":false,"is_disabled":true,"rental_uris":{"android":"levelo://app?vid=a6460627-511d-44ea-a912-da2085b0a119","ios":"levelo://app?vid=a6460627-511d-44ea-a912-da2085b0a119"},"vehicle_type_id":"4","last_reported":1743016058,"current_range_meters":7200,"station_id":"ce4bh2h2rcd13ifvqdh0","pricing_plan_id":"cebpf4jnsgd1na2vs0mg"},{"bike_id":"ba514c16-180b-4665-976e-3f1f27c9c0d0","system_id":"levelo_inurba_marseille","lat":43.27815,"lon":5.40719,"is_reserved":false,"is_disabled":false,"rental_uris":{"android":"levelo://app?vid=ba514c16-180b-4665-976e-3f1f27c9c0d0","ios":"levelo://app?vid=ba514c16-180b-4665-976e-3f1f27c9c0d0"},"vehicle_type_id":"4","last_reported":1743016058,"current_range_meters":7200,"station_id":"ce4bhnh2rcd13ifvqgtg","pricing_plan_id":"cebpf4jnsgd1na2vs0mg"},{"bike_id":"ac52b5e2-fa03-49aa-ae52-129b45453363","system_id":"levelo_inurba_marseille","lat":43.28932,"lon":5.36394,"is_reserved":false,"is_disabled":false,"rental_uris":{"android":"levelo://app?vid=ac52b5e2-fa03-49aa-ae52-129b45453363","ios":"levelo://app?vid=ac52b5e2-fa03-49aa-ae52-129b45453363"},"vehicle_type_id":"4","last_reported":1743016058,"current_range_meters":7200,"station_id":"ce4bhc92rcd13ifvqetg","pricing_plan_id":"cebpf4jnsgd1na2vs0mg"},{"bike_id":"8b0643ce-934f-49d4-aae3-32dc3ec1ff83","system_id":"levelo_inurba_marseille","lat":43.281563,"lon":5.426407,"is_reserved":false,"is_disabled":false,"rental_uris":{"android":"levelo://app?vid=8b0643ce-934f-49d4-aae3-32dc3ec1ff83","ios":"levelo://app?vid=8b0643ce-934f-49d4-aae3-32dc3ec1ff83"},"vehicle_type_id":"4","last_reported":1743016058,"current_range_meters":7200,"station_id":"ce4bhnh2rcd13ifvqgug","pricing_plan_id":"cebpf4jnsgd1na2vs0mg"},{"bike_id":"902a94fd-86c8-4780-b037-eb5f5ebaefab","system_id":"levelo_inurba_marseille","lat":43.24075,"lon":5.37763,"is_reserved":false,"is_disabled":false,"rental_uris":{"android":"levelo://app?vid=902a94fd-86c8-4780-b037-eb5f5ebaefab","ios":"levelo://app?vid=902a94fd-86c8-4780-b037-eb5f5ebaefab"},"vehicle_type_id":"4","last_reported":1743016058,"current_range_meters":7200,"station_id":"ce4bhnp2rcd13ifvqgvg","pricing_plan_id":"cebpf4jnsgd1na2vs0mg"},{"bike_id":"3caf9297-9162-427d-b86d-54632f9b80d9","system_id":"levelo_inurba_marseille","lat":43.27819,"lon":5.40729,"is_reserved":false,"is_disabled":false,"rental_uris":{"android":"levelo://app?vid=3caf9297-9162-427d-b86d-54632f9b80d9","ios":"levelo://app?vid=3caf9297-9162-427d-b86d-54632f9b80d9"},"vehicle_type_id":"4","last_reported":1743016058,"current_range_meters":7200,"station_id":"ce4bhnh2rcd13ifvqgtg","pricing_plan_id":"cebpf4jnsgd1na2vs0mg"},{"bike_id":"98dd18d1-9188-4768-b3e5-cf0b45b36a9a","system_id":"levelo_inurba_marseille","lat":43.24811,"lon":5.37467,"is_reserved":false,"is_disabled":false,"rental_uris":{"android":"levelo://app?vid=98dd18d1-9188-4768-b3e5-cf0b45b36a9a","ios":"levelo://app?vid=98dd18d1-9188-4768-b3e5-cf0b45b36a9a"},"vehicle_type_id":"4","last_reported":1743016058,"current_range_meters":7200,"station_id":"ce4bhgh2rcd13ifvqfb0","pricing_plan_id":"cebpf4jnsgd1na2vs0mg"},{"bike_id":"1063e3f8-3e66-4529-bc30-0ca9fe81629d","system_id":"levelo_inurba_marseille","lat":43.28949,"lon":5.36648,"is_reserved":false,"is_disabled":false,"rental_uris":{"android":"levelo://app?vid=1063e3f8-3e66-4529-bc30-0ca9fe81629d","ios":"levelo://app?vid=1063e3f8-3e66-4529-bc30-0ca9fe81629d"},"vehicle_type_id":"4","last_reported":1743016058,"current_range_meters":6800,"station_id":"ce4bhap2rcd13ifvqek0","pricing_plan_id":"cebpf4jnsgd1na2vs0mg"},{"bike_id":"0202b392-4421-47b8-a629-e2de022329d5","system_id":"levelo_inurba_marseille","lat":43.29264,"lon":5.38455,"is_reserved":false,"is_disabled":false,"rental_uris":{"android":"levelo://app?vid=0202b392-4421-47b8-a629-e2de022329d5","ios":"levelo://app?vid=0202b392-4421-47b8-a629-e2de022329d5"},"vehicle_type_id":"4","last_reported":1743016058,"current_range_meters":8000,"station_id":"ce4bh692rcd13ifvqea0","pricing_plan_id":"cebpf4jnsgd1na2vs0mg"},{"bike_id":"9e414f59-5d13-4847-984b-695d5e36104b","system_id":"levelo_inurba_marseille","lat":43.27892,"lon":5.41226,"is_reserved":false,"is_disabled":false,"rental_uris":{"android":"levelo://app?vid=9e414f59-5d13-4847-984b-695d5e36104b","ios":"levelo://app?vid=9e414f59-5d13-4847-984b-695d5e36104b"},"vehicle_type_id":"4","last_reported":1743016058,"current_range_meters":8000,"station_id":"","pricing_plan_id":"cebpf4jnsgd1na2vs0mg"},{"bike_id":"1cb2e6d2-12ad-4aa8-ac31-2e07713d77f5","system_id":"levelo_inurba_marseille","lat":43.28953,"lon":5.36627,"is_reserved":false,"is_disabled":false,"rental_uris":{"android":"levelo://app?vid=1cb2e6d2-12ad-4aa8-ac31-2e07713d77f5","ios":"levelo://app?vid=1cb2e6d2-12ad-4aa8-ac31-2e07713d77f5"},"vehicle_type_id":"4","last_reported":1743016058,"current_range_meters":8000,"station_id":"ce4bhap2rcd13ifvqek0","pricing_plan_id":"cebpf4jnsgd1na2vs0mg"},{"bike_id":"a5fb06d1-c469-4515-9522-548b956fd2b3","system_id":"levelo_inurba_marseille","lat":43.317592,"lon":5.390145,"is_reserved":false,"is_disabled":false,"rental_uris":{"android":"levelo://app?vid=a5fb06d1-c469-4515-9522-548b956fd2b3","ios":"levelo://app?vid=a5fb06d1-c469-4515-9522-548b956fd2b3"},"vehicle_type_id":"4","last_reported":1743016058,"current_range_meters":8000,"station_id":"ce4bhqp2rcd13ifvqhng","pricing_plan_id":"cebpf4jnsgd1na2vs0mg"},{"bike_id":"6f04ff43-41d6-43fc-968c-47d51af3b1ac","system_id":"levelo_inurba_marseille","lat":43.27993,"lon":5.41685,"is_reserved":false,"is_disabled":false,"rental_uris":{"android":"levelo://app?vid=6f04ff43-41d6-43fc-968c-47d51af3b1ac","ios":"levelo://app?vid=6f04ff43-41d6-43fc-968c-47d51af3b1ac"},"vehicle_type_id":"4","last_reported":1743016058,"current_range_meters":8000,"station_id":"ce4bho12rcd13ifvqh1g","pricing_plan_id":"cebpf4jnsgd1na2vs0mg"},{"bike_id":"067247e0-a27c-4e52-9052-c6b9eea5c7f4","system_id":"levelo_inurba_marseille","lat":43.31409,"lon":5.37453,"is_reserved":false,"is_disabled":false,"rental_uris":{"android":"levelo://app?vid=067247e0-a27c-4e52-9052-c6b9eea5c7f4","ios":"levelo://app?vid=067247e0-a27c-4e52-9052-c6b9eea5c7f4"},"vehicle_type_id":"4","last_reported":1743016058,"current_range_meters":8000,"station_id":"","pricing_plan_id":"cebpf4jnsgd1na2vs0mg"},{"bike_id":"681ec03c-5fcc-472b-a4f7-a3ac540e8e2a","system_id":"levelo_inurba_marseille","lat":43.30835,"lon":5.37076,"is_reserved":false,"is_disabled":false,"rental_uris":{"android":"levelo://app?vid=681ec03c-5fcc-472b-a4f7-a3ac540e8e2a","ios":"levelo://app?vid=681ec03c-5fcc-472b-a4f7-a3ac540e8e2a"},"vehicle_type_id":"4","last_reported":1743016058,"current_range_meters":8000,"station_id":"","pricing_plan_id":"cebpf4jnsgd1na2vs0mg"},{"bike_id":"3789873a-1dd9-4f31-847a-52f0d7019a2f","system_id":"levelo_inurba_marseille","lat":43.2397,"lon":5.36652,"is_reserved":false,"is_disabled":false,"rental_uris":{"android":"levelo://app?vid=3789873a-1dd9-4f31-847a-52f0d7019a2f","ios":"levelo://app?vid=3789873a-1dd9-4f31-847a-52f0d7019a2f"},"vehicle_type_id":"4","last_reported":1743016058,"current_range_meters":8000,"station_id":"ce4bhi12rcd13ifvqfp0","pricing_plan_id":"cebpf4jnsgd1na2vs0mg"},{"bike_id":"ee28380f-2566-499f-8ab8-5a75cb1ed72f","system_id":"levelo_inurba_marseille","lat":43.288329,"lon":5.393258,"is_reserved":false,"is_disabled":true,"rental_uris":{"android":"levelo://app?vid=ee28380f-2566-499f-8ab8-5a75cb1ed72f","ios":"levelo://app?vid=ee28380f-2566-499f-8ab8-5a75cb1ed72f"},"vehicle_type_id":"4","last_reported":1743016058,"current_range_meters":8000,"station_id":"","pricing_plan_id":"cebpf4jnsgd1na2vs0mg"},{"bike_id":"494edb5c-8886-472a-b4b2-0033adc0ccbd","system_id":"levelo_inurba_marseille","lat":43.2319,"lon":5.40002,"is_reserved":false,"is_disabled":false,"rental_uris":{"android":"levelo://app?vid=494edb5c-8886-472a-b4b2-0033adc0ccbd","ios":"levelo://app?vid=494edb5c-8886-472a-b4b2-0033adc0ccbd"},"vehicle_type_id":"4","last_reported":1743016058,"current_range_meters":8000,"station_id":"ce4bhn12rcd13ifvqgqg","pricing_plan_id":"cebpf4jnsgd1na2vs0mg"},{"bike_id":"316628de-9261-4f78-bc0d-0476a50caf90","system_id":"levelo_inurba_marseille","lat":43.29887,"lon":5.43657,"is_reserved":false,"is_disabled":false,"rental_uris":{"android":"levelo://app?vid=316628de-9261-4f78-bc0d-0476a50caf90","ios":"levelo://app?vid=316628de-9261-4f78-bc0d-0476a50caf90"},"vehicle_type_id":"4","last_reported":1743016058,"current_range_meters":8000,"station_id":"ce4bhpp2rcd13ifvqhfg","pricing_plan_id":"cebpf4jnsgd1na2vs0mg"},{"bike_id":"41e5f267-ce12-4d49-85f8-a37604430f8e","system_id":"levelo_inurba_marseille","lat":43.22938,"lon":5.35386,"is_reserved":false,"is_disabled":false,"rental_uris":{"android":"levelo://app?vid=41e5f267-ce12-4d49-85f8-a37604430f8e","ios":"levelo://app?vid=41e5f267-ce12-4d49-85f8-a37604430f8e"},"vehicle_type_id":"4","last_reported":1743016058,"current_range_meters":8000,"station_id":"cpo3532slgdg3j2ikp40","pricing_plan_id":"cebpf4jnsgd1na2vs0mg"},{"bike_id":"568a8b64-a445-47a5-81ca-dea1f3c9fc71","system_id":"levelo_inurba_marseille","lat":43.29871,"lon":5.39722,"is_reserved":false,"is_disabled":false,"rental_uris":{"android":"levelo://app?vid=568a8b64-a445-47a5-81ca-dea1f3c9fc71","ios":"levelo://app?vid=568a8b64-a445-47a5-81ca-dea1f3c9fc71"},"vehicle_type_id":"4","last_reported":1743016058,"current_range_meters":8000,"station_id":"ce4bh0h2rcd13ifvqd50","pricing_plan_id":"cebpf4jnsgd1na2vs0mg"},{"bike_id":"ecfbe1b6-91a4-4967-b2f4-1915901f3187","system_id":"levelo_inurba_marseille","lat":43.31754,"lon":5.39016,"is_reserved":false,"is_disabled":false,"rental_uris":{"android":"levelo://app?vid=ecfbe1b6-91a4-4967-b2f4-1915901f3187","ios":"levelo://app?vid=ecfbe1b6-91a4-4967-b2f4-1915901f3187"},"vehicle_type_id":"4","last_reported":1743016058,"current_range_meters":8400,"station_id":"ce4bhqp2rcd13ifvqhng","pricing_plan_id":"cebpf4jnsgd1na2vs0mg"},{"bike_id":"6ab6b099-574d-454a-84a7-96bb5f8025c5","system_id":"levelo_inurba_marseille","lat":43.3117,"lon":5.38723,"is_reserved":false,"is_disabled":false,"rental_uris":{"android":"levelo://app?vid=6ab6b099-574d-454a-84a7-96bb5f8025c5","ios":"levelo://app?vid=6ab6b099-574d-454a-84a7-96bb5f8025c5"},"vehicle_type_id":"4","last_reported":1743016058,"current_range_meters":8400,"station_id":"ce4bgv12rcd13ifvqcp0","pricing_plan_id":"cebpf4jnsgd1na2vs0mg"},{"bike_id":"589f1146-20bc-4a88-9ab7-60ee275b3000","system_id":"levelo_inurba_marseille","lat":43.29698,"lon":5.38011,"is_reserved":false,"is_disabled":false,"rental_uris":{"android":"levelo://app?vid=589f1146-20bc-4a88-9ab7-60ee275b3000","ios":"levelo://app?vid=589f1146-20bc-4a88-9ab7-60ee275b3000"},"vehicle_type_id":"4","last_reported":1743016058,"current_range_meters":8400,"station_id":"","pricing_plan_id":"cebpf4jnsgd1na2vs0mg"},{"bike_id":"b2809567-1a9c-4ce2-96ce-36068e5c2ffd","system_id":"levelo_inurba_marseille","lat":43.29319,"lon":5.37177,"is_reserved":false,"is_disabled":false,"rental_uris":{"android":"levelo://app?vid=b2809567-1a9c-4ce2-96ce-36068e5c2ffd","ios":"levelo://app?vid=b2809567-1a9c-4ce2-96ce-36068e5c2ffd"},"vehicle_type_id":"4","last_reported":1743016058,"current_range_meters":8400,"station_id":"ce4bgh92rcd13ifvqb40","pricing_plan_id":"cebpf4jnsgd1na2vs0mg"},{"bike_id":"4d6d8a3e-5cdb-4d7b-bbad-abcfee7897a7","system_id":"levelo_inurba_marseille","lat":43.28033,"lon":5.36953,"is_reserved":false,"is_disabled":false,"rental_uris":{"android":"levelo://app?vid=4d6d8a3e-5cdb-4d7b-bbad-abcfee7897a7","ios":"levelo://app?vid=4d6d8a3e-5cdb-4d7b-bbad-abcfee7897a7"},"vehicle_type_id":"4","last_reported":1743016058,"current_range_meters":8400,"station_id":"ce4bha12rcd13ifvqef0","pricing_plan_id":"cebpf4jnsgd1na2vs0mg"},{"bike_id":"fda233e7-0d83-4e01-a571-bc17c0532b8c","system_id":"levelo_inurba_marseille","lat":43.27054,"lon":5.4027,"is_reserved":false,"is_disabled":false,"rental_uris":{"android":"levelo://app?vid=fda233e7-0d83-4e01-a571-bc17c0532b8c","ios":"levelo://app?vid=fda233e7-0d83-4e01-a571-bc17c0532b8c"},"vehicle_type_id":"4","last_reported":1743016058,"current_range_meters":8400,"station_id":"ce4bhk92rcd13ifvqgc0","pricing_plan_id":"cebpf4jnsgd1na2vs0mg"},{"bike_id":"81154235-8ef8-43eb-84ca-25a6f1ffd2d5","system_id":"levelo_inurba_marseille","lat":43.25714,"lon":5.41116,"is_reserved":false,"is_disabled":false,"rental_uris":{"android":"levelo://app?vid=81154235-8ef8-43eb-84ca-25a6f1ffd2d5","ios":"levelo://app?vid=81154235-8ef8-43eb-84ca-25a6f1ffd2d5"},"vehicle_type_id":"4","last_reported":1743016058,"current_range_meters":8400,"station_id":"ce4bhkp2rcd13ifvqgd0","pricing_plan_id":"cebpf4jnsgd1na2vs0mg"},{"bike_id":"f331f4a0-921f-47e2-bc64-3b6ed88b17e3","system_id":"levelo_inurba_marseille","lat":43.27198,"lon":5.40967,"is_reserved":false,"is_disabled":false,"rental_uris":{"android":"levelo://app?vid=f331f4a0-921f-47e2-bc64-3b6ed88b17e3","ios":"levelo://app?vid=f331f4a0-921f-47e2-bc64-3b6ed88b17e3"},"vehicle_type_id":"4","last_reported":1743016058,"current_range_meters":8400,"station_id":"ce4bhl12rcd13ifvqgf0","pricing_plan_id":"cebpf4jnsgd1na2vs0mg"},{"bike_id":"5fe2aeaa-d226-4e67-a248-79dc0319f9c7","system_id":"levelo_inurba_marseille","lat":43.26804,"lon":5.40272,"is_reserved":false,"is_disabled":false,"rental_uris":{"android":"levelo://app?vid=5fe2aeaa-d226-4e67-a248-79dc0319f9c7","ios":"levelo://app?vid=5fe2aeaa-d226-4e67-a248-79dc0319f9c7"},"vehicle_type_id":"4","last_reported":1743016058,"current_range_meters":8400,"station_id":"ce501612rcd8frsf0b60","pricing_plan_id":"cebpf4jnsgd1na2vs0mg"},{"bike_id":"ac37fc9a-d817-4016-9ca1-892c24fc68b0","system_id":"levelo_inurba_marseille","lat":43.29972,"lon":5.38497,"is_reserved":false,"is_disabled":false,"rental_uris":{"android":"levelo://app?vid=ac37fc9a-d817-4016-9ca1-892c24fc68b0","ios":"levelo://app?vid=ac37fc9a-d817-4016-9ca1-892c24fc68b0"},"vehicle_type_id":"4","last_reported":1743016058,"current_range_meters":8400,"station_id":"ce4bgj92rcd13ifvqbd0","pricing_plan_id":"cebpf4jnsgd1na2vs0mg"},{"bike_id":"cf5aaf9d-591c-401b-8554-050db64bf1b7","system_id":"levelo_inurba_marseille","lat":43.2926,"lon":5.3845,"is_reserved":false,"is_disabled":false,"rental_uris":{"android":"levelo://app?vid=cf5aaf9d-591c-401b-8554-050db64bf1b7","ios":"levelo://app?vid=cf5aaf9d-591c-401b-8554-050db64bf1b7"},"vehicle_type_id":"4","last_reported":1743016058,"current_range_meters":8400,"station_id":"ce4bh692rcd13ifvqea0","pricing_plan_id":"cebpf4jnsgd1na2vs0mg"},{"bike_id":"92ebc5a6-0d9f-45da-9a83-4dce7e1f76a7","system_id":"levelo_inurba_marseille","lat":43.31166,"lon":5.38728,"is_reserved":false,"is_disabled":false,"rental_uris":{"android":"levelo://app?vid=92ebc5a6-0d9f-45da-9a83-4dce7e1f76a7","ios":"levelo://app?vid=92ebc5a6-0d9f-45da-9a83-4dce7e1f76a7"},"vehicle_type_id":"4","last_reported":1743016058,"current_range_meters":8400,"station_id":"ce4bgv12rcd13ifvqcp0","pricing_plan_id":"cebpf4jnsgd1na2vs0mg"},{"bike_id":"b68dcd17-a0c6-44eb-ae31-f9c5324bc593","system_id":"levelo_inurba_marseille","lat":43.29544,"lon":5.39423,"is_reserved":false,"is_disabled":false,"rental_uris":{"android":"levelo://app?vid=b68dcd17-a0c6-44eb-ae31-f9c5324bc593","ios":"levelo://app?vid=b68dcd17-a0c6-44eb-ae31-f9c5324bc593"},"vehicle_type_id":"4","last_reported":1743016058,"current_range_meters":8400,"station_id":"ce4bh292rcd13ifvqdf0","pricing_plan_id":"cebpf4jnsgd1na2vs0mg"},{"bike_id":"ff9f7600-9c56-498b-8acd-6d29964b7dfd","system_id":"levelo_inurba_marseille","lat":43.292952,"lon":5.374264,"is_reserved":false,"is_disabled":false,"rental_uris":{"android":"levelo://app?vid=ff9f7600-9c56-498b-8acd-6d29964b7dfd","ios":"levelo://app?vid=ff9f7600-9c56-498b-8acd-6d29964b7dfd"},"vehicle_type_id":"4","last_reported":1743016058,"current_range_meters":8400,"station_id":"ce4bgi12rcd13ifvqb70","pricing_plan_id":"cebpf4jnsgd1na2vs0mg"},{"bike_id":"d3ffc280-50ec-4141-93ce-13b27e6f085b","system_id":"levelo_inurba_marseille","lat":43.27542,"lon":5.38431,"is_reserved":false,"is_disabled":false,"rental_uris":{"android":"levelo://app?vid=d3ffc280-50ec-4141-93ce-13b27e6f085b","ios":"levelo://app?vid=d3ffc280-50ec-4141-93ce-13b27e6f085b"},"vehicle_type_id":"4","last_reported":1743016058,"current_range_meters":8400,"station_id":"ce4bhh92rcd13ifvqfi0","pricing_plan_id":"cebpf4jnsgd1na2vs0mg"},{"bike_id":"42b0ca94-a44e-49c3-85f7-0688df7be4e4","system_id":"levelo_inurba_marseille","lat":43.31771,"lon":5.39039,"is_reserved":false,"is_disabled":false,"rental_uris":{"android":"levelo://app?vid=42b0ca94-a44e-49c3-85f7-0688df7be4e4","ios":"levelo://app?vid=42b0ca94-a44e-49c3-85f7-0688df7be4e4"},"vehicle_type_id":"4","last_reported":1743016058,"current_range_meters":8800,"station_id":"ce4bhqp2rcd13ifvqhng","pricing_plan_id":"cebpf4jnsgd1na2vs0mg"},{"bike_id":"a01a2189-8b32-4968-87fa-f3888542280a","system_id":"levelo_inurba_marseille","lat":43.28708,"lon":5.373973,"is_reserved":false,"is_disabled":false,"rental_uris":{"android":"levelo://app?vid=a01a2189-8b32-4968-87fa-f3888542280a","ios":"levelo://app?vid=a01a2189-8b32-4968-87fa-f3888542280a"},"vehicle_type_id":"4","last_reported":1743016058,"current_range_meters":8800,"station_id":"ce4bh3p2rcd13ifvqdq0","pricing_plan_id":"cebpf4jnsgd1na2vs0mg"},{"bike_id":"33b9987d-a35c-4f72-b367-cfd5d1c57699","system_id":"levelo_inurba_marseille","lat":43.29883,"lon":5.38905,"is_reserved":false,"is_disabled":false,"rental_uris":{"android":"levelo://app?vid=33b9987d-a35c-4f72-b367-cfd5d1c57699","ios":"levelo://app?vid=33b9987d-a35c-4f72-b367-cfd5d1c57699"},"vehicle_type_id":"4","last_reported":1743016058,"current_range_meters":8800,"station_id":"ce4bh392rcd13ifvqdl0","pricing_plan_id":"cebpf4jnsgd1na2vs0mg"},{"bike_id":"3ca851fd-1fce-493e-98b5-778cf8fa55b5","system_id":"levelo_inurba_marseille","lat":43.26793,"lon":5.39416,"is_reserved":false,"is_disabled":false,"rental_uris":{"android":"levelo://app?vid=3ca851fd-1fce-493e-98b5-778cf8fa55b5","ios":"levelo://app?vid=3ca851fd-1fce-493e-98b5-778cf8fa55b5"},"vehicle_type_id":"4","last_reported":1743016058,"current_range_meters":8800,"station_id":"ce4bhh12rcd13ifvqfg0","pricing_plan_id":"cebpf4jnsgd1na2vs0mg"},{"bike_id":"94506505-2fcc-41e6-9625-b8826d1b4d3e","system_id":"levelo_inurba_marseille","lat":43.27837,"lon":5.40771,"is_reserved":false,"is_disabled":false,"rental_uris":{"android":"levelo://app?vid=94506505-2fcc-41e6-9625-b8826d1b4d3e","ios":"levelo://app?vid=94506505-2fcc-41e6-9625-b8826d1b4d3e"},"vehicle_type_id":"4","last_reported":1743016058,"current_range_meters":8800,"station_id":"ce4bhnh2rcd13ifvqgtg","pricing_plan_id":"cebpf4jnsgd1na2vs0mg"},{"bike_id":"8a9602e7-e6f2-4dac-845f-cea224e49dd5","system_id":"levelo_inurba_marseille","lat":43.23063,"lon":5.35499,"is_reserved":false,"is_disabled":false,"rental_uris":{"android":"levelo://app?vid=8a9602e7-e6f2-4dac-845f-cea224e49dd5","ios":"levelo://app?vid=8a9602e7-e6f2-4dac-845f-cea224e49dd5"},"vehicle_type_id":"4","last_reported":1743016058,"current_range_meters":8800,"station_id":"cpo3342slgdg3j2ifvpg","pricing_plan_id":"cebpf4jnsgd1na2vs0mg"},{"bike_id":"391f033b-7396-47a1-a3d6-139ede0f5fc8","system_id":"levelo_inurba_marseille","lat":43.29622,"lon":5.37174,"is_reserved":false,"is_disabled":false,"rental_uris":{"android":"levelo://app?vid=391f033b-7396-47a1-a3d6-139ede0f5fc8","ios":"levelo://app?vid=391f033b-7396-47a1-a3d6-139ede0f5fc8"},"vehicle_type_id":"4","last_reported":1743016058,"current_range_meters":8400,"station_id":"ce4bgnh2rcd13ifvqc0g","pricing_plan_id":"cebpf4jnsgd1na2vs0mg"},{"bike_id":"01cbffb0-3fb0-4769-96f8-4c2dd20b8277","system_id":"levelo_inurba_marseille","lat":43.28536,"lon":5.40563,"is_reserved":false,"is_disabled":false,"rental_uris":{"android":"levelo://app?vid=01cbffb0-3fb0-4769-96f8-4c2dd20b8277","ios":"levelo://app?vid=01cbffb0-3fb0-4769-96f8-4c2dd20b8277"},"vehicle_type_id":"4","last_reported":1743016058,"current_range_meters":8800,"station_id":"","pricing_plan_id":"cebpf4jnsgd1na2vs0mg"},{"bike_id":"510cf242-3e37-4c1a-af73-664a88e9eb96","system_id":"levelo_inurba_marseille","lat":43.24388,"lon":5.37062,"is_reserved":false,"is_disabled":false,"rental_uris":{"android":"levelo://app?vid=510cf242-3e37-4c1a-af73-664a88e9eb96","ios":"levelo://app?vid=510cf242-3e37-4c1a-af73-664a88e9eb96"},"vehicle_type_id":"4","last_reported":1743016058,"current_range_meters":8800,"station_id":"ce4bhhh2rcd13ifvqfk0","pricing_plan_id":"cebpf4jnsgd1na2vs0mg"},{"bike_id":"dc5d0d5b-0aa5-44ef-9046-b7d92a5ad9e5","system_id":"levelo_inurba_marseille","lat":43.31348,"lon":5.39721,"is_reserved":false,"is_disabled":false,"rental_uris":{"android":"levelo://app?vid=dc5d0d5b-0aa5-44ef-9046-b7d92a5ad9e5","ios":"levelo://app?vid=dc5d0d5b-0aa5-44ef-9046-b7d92a5ad9e5"},"vehicle_type_id":"4","last_reported":1743016058,"current_range_meters":8800,"station_id":"ce4bgvp2rcd13ifvqcu0","pricing_plan_id":"cebpf4jnsgd1na2vs0mg"},{"bike_id":"77c0ee57-39d3-4f39-931c-db8999cc32bf","system_id":"levelo_inurba_marseille","lat":43.280028,"lon":5.400145,"is_reserved":false,"is_disabled":false,"rental_uris":{"android":"levelo://app?vid=77c0ee57-39d3-4f39-931c-db8999cc32bf","ios":"levelo://app?vid=77c0ee57-39d3-4f39-931c-db8999cc32bf"},"vehicle_type_id":"4","last_reported":1743016058,"current_range_meters":8800,"station_id":"ce4bho92rcd13ifvqh4g","pricing_plan_id":"cebpf4jnsgd1na2vs0mg"},{"bike_id":"48e67352-5c30-411c-afdf-43213bc79c2e","system_id":"levelo_inurba_marseille","lat":43.30278,"lon":5.40065,"is_reserved":false,"is_disabled":false,"rental_uris":{"android":"levelo://app?vid=48e67352-5c30-411c-afdf-43213bc79c2e","ios":"levelo://app?vid=48e67352-5c30-411c-afdf-43213bc79c2e"},"vehicle_type_id":"4","last_reported":1743016058,"current_range_meters":8800,"station_id":"ce4bgvh2rcd13ifvqcs0","pricing_plan_id":"cebpf4jnsgd1na2vs0mg"},{"bike_id":"e4f10672-852b-43d4-b392-80218fb55358","system_id":"levelo_inurba_marseille","lat":43.28952,"lon":5.36402,"is_reserved":false,"is_disabled":false,"rental_uris":{"android":"levelo://app?vid=e4f10672-852b-43d4-b392-80218fb55358","ios":"levelo://app?vid=e4f10672-852b-43d4-b392-80218fb55358"},"vehicle_type_id":"4","last_reported":1743016058,"current_range_meters":8800,"station_id":"ce4bhc92rcd13ifvqetg","pricing_plan_id":"cebpf4jnsgd1na2vs0mg"},{"bike_id":"573087b6-76af-4403-a986-3833782f0927","system_id":"levelo_inurba_marseille","lat":43.2319,"lon":5.3999,"is_reserved":false,"is_disabled":false,"rental_uris":{"android":"levelo://app?vid=573087b6-76af-4403-a986-3833782f0927","ios":"levelo://app?vid=573087b6-76af-4403-a986-3833782f0927"},"vehicle_type_id":"4","last_reported":1743016058,"current_range_meters":8800,"station_id":"ce4bhn12rcd13ifvqgqg","pricing_plan_id":"cebpf4jnsgd1na2vs0mg"},{"bike_id":"efbcaaa6-b11f-400a-9240-cc4b1a3b098a","system_id":"levelo_inurba_marseille","lat":43.30601,"lon":5.39341,"is_reserved":false,"is_disabled":true,"rental_uris":{"android":"levelo://app?vid=efbcaaa6-b11f-400a-9240-cc4b1a3b098a","ios":"levelo://app?vid=efbcaaa6-b11f-400a-9240-cc4b1a3b098a"},"vehicle_type_id":"4","last_reported":1743016058,"current_range_meters":8800,"station_id":"ce4bh0p2rcd13ifvqd80","pricing_plan_id":"cebpf4jnsgd1na2vs0mg"},{"bike_id":"58bbfac0-2437-4ad1-ac78-0dd7ecfd3bc3","system_id":"levelo_inurba_marseille","lat":43.289337,"lon":5.366395,"is_reserved":false,"is_disabled":false,"rental_uris":{"android":"levelo://app?vid=58bbfac0-2437-4ad1-ac78-0dd7ecfd3bc3","ios":"levelo://app?vid=58bbfac0-2437-4ad1-ac78-0dd7ecfd3bc3"},"vehicle_type_id":"4","last_reported":1743016058,"current_range_meters":8400,"station_id":"ce4bhap2rcd13ifvqek0","pricing_plan_id":"cebpf4jnsgd1na2vs0mg"},{"bike_id":"e1b408c6-eca7-4f4a-b96d-36fa60ef2852","system_id":"levelo_inurba_marseille","lat":43.294297,"lon":5.386297,"is_reserved":false,"is_disabled":false,"rental_uris":{"android":"levelo://app?vid=e1b408c6-eca7-4f4a-b96d-36fa60ef2852","ios":"levelo://app?vid=e1b408c6-eca7-4f4a-b96d-36fa60ef2852"},"vehicle_type_id":"4","last_reported":1743016058,"current_range_meters":9200,"station_id":"ce4bh2h2rcd13ifvqdh0","pricing_plan_id":"cebpf4jnsgd1na2vs0mg"},{"bike_id":"8de7059d-00de-4eed-a842-00ac61b0e1a8","system_id":"levelo_inurba_marseille","lat":43.29596,"lon":5.38103,"is_reserved":false,"is_disabled":true,"rental_uris":{"android":"levelo://app?vid=8de7059d-00de-4eed-a842-00ac61b0e1a8","ios":"levelo://app?vid=8de7059d-00de-4eed-a842-00ac61b0e1a8"},"vehicle_type_id":"4","last_reported":1743016058,"current_range_meters":9200,"station_id":"ce4bgl12rcd13ifvqbo0","pricing_plan_id":"cebpf4jnsgd1na2vs0mg"},{"bike_id":"f59fa957-b987-4cc4-a1db-3e9941f1ac54","system_id":"levelo_inurba_marseille","lat":43.28927,"lon":5.38401,"is_reserved":false,"is_disabled":false,"rental_uris":{"android":"levelo://app?vid=f59fa957-b987-4cc4-a1db-3e9941f1ac54","ios":"levelo://app?vid=f59fa957-b987-4cc4-a1db-3e9941f1ac54"},"vehicle_type_id":"4","last_reported":1743016058,"current_range_meters":9200,"station_id":"ce4bh612rcd13ifvqe6g","pricing_plan_id":"cebpf4jnsgd1na2vs0mg"},{"bike_id":"2f4c381f-e5ff-4c29-b578-94a61d0fc0da","system_id":"levelo_inurba_marseille","lat":43.29624,"lon":5.40589,"is_reserved":false,"is_disabled":false,"rental_uris":{"android":"levelo://app?vid=2f4c381f-e5ff-4c29-b578-94a61d0fc0da","ios":"levelo://app?vid=2f4c381f-e5ff-4c29-b578-94a61d0fc0da"},"vehicle_type_id":"4","last_reported":1743016058,"current_range_meters":9200,"station_id":"ce4bh0h2rcd13ifvqd60","pricing_plan_id":"cebpf4jnsgd1na2vs0mg"},{"bike_id":"c147aeb5-ab74-47bf-ab8b-8040872197db","system_id":"levelo_inurba_marseille","lat":43.28429,"lon":5.35001,"is_reserved":false,"is_disabled":false,"rental_uris":{"android":"levelo://app?vid=c147aeb5-ab74-47bf-ab8b-8040872197db","ios":"levelo://app?vid=c147aeb5-ab74-47bf-ab8b-8040872197db"},"vehicle_type_id":"4","last_reported":1743016058,"current_range_meters":9200,"station_id":"ce4bhbh2rcd13ifvqepg","pricing_plan_id":"cebpf4jnsgd1na2vs0mg"},{"bike_id":"c80aa782-5a1c-49dc-82a9-5a6684179a01","system_id":"levelo_inurba_marseille","lat":43.28103,"lon":5.37853,"is_reserved":false,"is_disabled":false,"rental_uris":{"android":"levelo://app?vid=c80aa782-5a1c-49dc-82a9-5a6684179a01","ios":"levelo://app?vid=c80aa782-5a1c-49dc-82a9-5a6684179a01"},"vehicle_type_id":"4","last_reported":1743016058,"current_range_meters":9200,"station_id":"ce4bha12rcd13ifvqee0","pricing_plan_id":"cebpf4jnsgd1na2vs0mg"},{"bike_id":"1ebf0f81-2fc6-42b6-9a20-9a785dbdeaf3","system_id":"levelo_inurba_marseille","lat":43.3042,"lon":5.41278,"is_reserved":false,"is_disabled":false,"rental_uris":{"android":"levelo://app?vid=1ebf0f81-2fc6-42b6-9a20-9a785dbdeaf3","ios":"levelo://app?vid=1ebf0f81-2fc6-42b6-9a20-9a785dbdeaf3"},"vehicle_type_id":"4","last_reported":1743016058,"current_range_meters":9200,"station_id":"ce4bhop2rcd13ifvqh8g","pricing_plan_id":"cebpf4jnsgd1na2vs0mg"},{"bike_id":"974f5876-effd-44d0-911c-76ea7a107a8c","system_id":"levelo_inurba_marseille","lat":43.3335,"lon":5.35999,"is_reserved":false,"is_disabled":false,"rental_uris":{"android":"levelo://app?vid=974f5876-effd-44d0-911c-76ea7a107a8c","ios":"levelo://app?vid=974f5876-effd-44d0-911c-76ea7a107a8c"},"vehicle_type_id":"4","last_reported":1743016058,"current_range_meters":9200,"station_id":"","pricing_plan_id":"cebpf4jnsgd1na2vs0mg"},{"bike_id":"e9ae8e8f-1453-4b95-97cf-aa366990b51a","system_id":"levelo_inurba_marseille","lat":43.29308,"lon":5.37462,"is_reserved":false,"is_disabled":false,"rental_uris":{"android":"levelo://app?vid=e9ae8e8f-1453-4b95-97cf-aa366990b51a","ios":"levelo://app?vid=e9ae8e8f-1453-4b95-97cf-aa366990b51a"},"vehicle_type_id":"4","last_reported":1743016058,"current_range_meters":9200,"station_id":"ce4bgi12rcd13ifvqb70","pricing_plan_id":"cebpf4jnsgd1na2vs0mg"},{"bike_id":"fa6aeafd-60f6-463d-a63b-28d62c1d9ce3","system_id":"levelo_inurba_marseille","lat":43.27806,"lon":5.40701,"is_reserved":false,"is_disabled":false,"rental_uris":{"android":"levelo://app?vid=fa6aeafd-60f6-463d-a63b-28d62c1d9ce3","ios":"levelo://app?vid=fa6aeafd-60f6-463d-a63b-28d62c1d9ce3"},"vehicle_type_id":"4","last_reported":1743016058,"current_range_meters":9200,"station_id":"ce4bhnh2rcd13ifvqgtg","pricing_plan_id":"cebpf4jnsgd1na2vs0mg"},{"bike_id":"cf4f30c0-1d85-4bdc-8086-95bbcbaa697e","system_id":"levelo_inurba_marseille","lat":43.299225,"lon":5.375673,"is_reserved":false,"is_disabled":false,"rental_uris":{"android":"levelo://app?vid=cf4f30c0-1d85-4bdc-8086-95bbcbaa697e","ios":"levelo://app?vid=cf4f30c0-1d85-4bdc-8086-95bbcbaa697e"},"vehicle_type_id":"4","last_reported":1743016058,"current_range_meters":9200,"station_id":"ce4bgjh2rcd13ifvqbg0","pricing_plan_id":"cebpf4jnsgd1na2vs0mg"},{"bike_id":"f408b4d4-0f69-4a55-bf3a-3c3c8e1647f7","system_id":"levelo_inurba_marseille","lat":43.23181,"lon":5.39992,"is_reserved":false,"is_disabled":false,"rental_uris":{"android":"levelo://app?vid=f408b4d4-0f69-4a55-bf3a-3c3c8e1647f7","ios":"levelo://app?vid=f408b4d4-0f69-4a55-bf3a-3c3c8e1647f7"},"vehicle_type_id":"4","last_reported":1743016058,"current_range_meters":9200,"station_id":"ce4bhn12rcd13ifvqgqg","pricing_plan_id":"cebpf4jnsgd1na2vs0mg"},{"bike_id":"273419a0-d378-44c5-b0e7-418074f4b3a0","system_id":"levelo_inurba_marseille","lat":43.30125,"lon":5.3987,"is_reserved":false,"is_disabled":false,"rental_uris":{"android":"levelo://app?vid=273419a0-d378-44c5-b0e7-418074f4b3a0","ios":"levelo://app?vid=273419a0-d378-44c5-b0e7-418074f4b3a0"},"vehicle_type_id":"4","last_reported":1743016058,"current_range_meters":9200,"station_id":"ce4bh0h2rcd13ifvqd40","pricing_plan_id":"cebpf4jnsgd1na2vs0mg"},{"bike_id":"b418d168-f2ad-4db0-9a6f-e88743ba94c8","system_id":"levelo_inurba_marseille","lat":43.292668,"lon":5.376189,"is_reserved":false,"is_disabled":true,"rental_uris":{"android":"levelo://app?vid=b418d168-f2ad-4db0-9a6f-e88743ba94c8","ios":"levelo://app?vid=b418d168-f2ad-4db0-9a6f-e88743ba94c8"},"vehicle_type_id":"4","last_reported":1743016058,"current_range_meters":9600,"station_id":"ce4bgi12rcd13ifvqb80","pricing_plan_id":"cebpf4jnsgd1na2vs0mg"},{"bike_id":"d6b5fb60-5e78-426c-83cf-4251224092f6","system_id":"levelo_inurba_marseille","lat":43.29511,"lon":5.37516,"is_reserved":false,"is_disabled":false,"rental_uris":{"android":"levelo://app?vid=d6b5fb60-5e78-426c-83cf-4251224092f6","ios":"levelo://app?vid=d6b5fb60-5e78-426c-83cf-4251224092f6"},"vehicle_type_id":"4","last_reported":1743016058,"current_range_meters":9600,"station_id":"ce4bgkp2rcd13ifvqbmg","pricing_plan_id":"cebpf4jnsgd1na2vs0mg"},{"bike_id":"ad3a09d6-8194-4bae-a5b1-51b443e279f8","system_id":"levelo_inurba_marseille","lat":43.22954,"lon":5.35398,"is_reserved":false,"is_disabled":false,"rental_uris":{"android":"levelo://app?vid=ad3a09d6-8194-4bae-a5b1-51b443e279f8","ios":"levelo://app?vid=ad3a09d6-8194-4bae-a5b1-51b443e279f8"},"vehicle_type_id":"4","last_reported":1743016058,"current_range_meters":9600,"station_id":"cpo3532slgdg3j2ikp40","pricing_plan_id":"cebpf4jnsgd1na2vs0mg"},{"bike_id":"84a7a785-5392-42bc-8088-fb903bcc7f5c","system_id":"levelo_inurba_marseille","lat":43.230683,"lon":5.35492,"is_reserved":false,"is_disabled":false,"rental_uris":{"android":"levelo://app?vid=84a7a785-5392-42bc-8088-fb903bcc7f5c","ios":"levelo://app?vid=84a7a785-5392-42bc-8088-fb903bcc7f5c"},"vehicle_type_id":"4","last_reported":1743016058,"current_range_meters":9600,"station_id":"cpo3342slgdg3j2ifvpg","pricing_plan_id":"cebpf4jnsgd1na2vs0mg"},{"bike_id":"f53fbbcf-cccc-4096-9f9d-8509d9176fec","system_id":"levelo_inurba_marseille","lat":43.28926,"lon":5.38415,"is_reserved":false,"is_disabled":false,"rental_uris":{"android":"levelo://app?vid=f53fbbcf-cccc-4096-9f9d-8509d9176fec","ios":"levelo://app?vid=f53fbbcf-cccc-4096-9f9d-8509d9176fec"},"vehicle_type_id":"4","last_reported":1743016058,"current_range_meters":9200,"station_id":"ce4bh612rcd13ifvqe6g","pricing_plan_id":"cebpf4jnsgd1na2vs0mg"},{"bike_id":"0a6002c5-2e94-419c-9846-07e4397e2530","system_id":"levelo_inurba_marseille","lat":43.25818,"lon":5.39428,"is_reserved":false,"is_disabled":false,"rental_uris":{"android":"levelo://app?vid=0a6002c5-2e94-419c-9846-07e4397e2530","ios":"levelo://app?vid=0a6002c5-2e94-419c-9846-07e4397e2530"},"vehicle_type_id":"4","last_reported":1743016058,"current_range_meters":9600,"station_id":"ce4bhip2rcd13ifvqft0","pricing_plan_id":"cebpf4jnsgd1na2vs0mg"},{"bike_id":"3cac56df-807f-4447-816b-d3e763990897","system_id":"levelo_inurba_marseille","lat":43.29571,"lon":5.39986,"is_reserved":false,"is_disabled":false,"rental_uris":{"android":"levelo://app?vid=3cac56df-807f-4447-816b-d3e763990897","ios":"levelo://app?vid=3cac56df-807f-4447-816b-d3e763990897"},"vehicle_type_id":"4","last_reported":1743016058,"current_range_meters":9600,"station_id":"ce4bh312rcd13ifvqdj0","pricing_plan_id":"cebpf4jnsgd1na2vs0mg"},{"bike_id":"92740cd8-0c17-439b-aa2a-7afa649be02d","system_id":"levelo_inurba_marseille","lat":43.29527,"lon":5.39054,"is_reserved":false,"is_disabled":false,"rental_uris":{"android":"levelo://app?vid=92740cd8-0c17-439b-aa2a-7afa649be02d","ios":"levelo://app?vid=92740cd8-0c17-439b-aa2a-7afa649be02d"},"vehicle_type_id":"4","last_reported":1743016058,"current_range_meters":9600,"station_id":"ce4bh3p2rcd13ifvqdp0","pricing_plan_id":"cebpf4jnsgd1na2vs0mg"},{"bike_id":"da155e19-5157-4f97-8747-0c15b0609608","system_id":"levelo_inurba_marseille","lat":43.25733,"lon":5.41129,"is_reserved":false,"is_disabled":false,"rental_uris":{"android":"levelo://app?vid=da155e19-5157-4f97-8747-0c15b0609608","ios":"levelo://app?vid=da155e19-5157-4f97-8747-0c15b0609608"},"vehicle_type_id":"4","last_reported":1743016058,"current_range_meters":9600,"station_id":"ce4bhkp2rcd13ifvqgd0","pricing_plan_id":"cebpf4jnsgd1na2vs0mg"},{"bike_id":"5eaa1c72-3281-4981-beb8-111db4db70f3","system_id":"levelo_inurba_marseille","lat":43.29263,"lon":5.38451,"is_reserved":false,"is_disabled":false,"rental_uris":{"android":"levelo://app?vid=5eaa1c72-3281-4981-beb8-111db4db70f3","ios":"levelo://app?vid=5eaa1c72-3281-4981-beb8-111db4db70f3"},"vehicle_type_id":"4","last_reported":1743016058,"current_range_meters":9600,"station_id":"ce4bh692rcd13ifvqea0","pricing_plan_id":"cebpf4jnsgd1na2vs0mg"},{"bike_id":"5f18c038-0d3d-41e5-b03a-cf1226490d1b","system_id":"levelo_inurba_marseille","lat":43.29423,"lon":5.38627,"is_reserved":false,"is_disabled":false,"rental_uris":{"android":"levelo://app?vid=5f18c038-0d3d-41e5-b03a-cf1226490d1b","ios":"levelo://app?vid=5f18c038-0d3d-41e5-b03a-cf1226490d1b"},"vehicle_type_id":"4","last_reported":1743016058,"current_range_meters":9600,"station_id":"ce4bh2h2rcd13ifvqdh0","pricing_plan_id":"cebpf4jnsgd1na2vs0mg"},{"bike_id":"ed36267b-db3d-423e-bbf6-c20050e7c53d","system_id":"levelo_inurba_marseille","lat":43.31125,"lon":5.37776,"is_reserved":false,"is_disabled":false,"rental_uris":{"android":"levelo://app?vid=ed36267b-db3d-423e-bbf6-c20050e7c53d","ios":"levelo://app?vid=ed36267b-db3d-423e-bbf6-c20050e7c53d"},"vehicle_type_id":"4","last_reported":1743016058,"current_range_meters":9600,"station_id":"ce4bgt92rcd13ifvqcg0","pricing_plan_id":"cebpf4jnsgd1na2vs0mg"},{"bike_id":"7534ad62-ca01-405e-8c5e-55d3073599b7","system_id":"levelo_inurba_marseille","lat":43.26785,"lon":5.39433,"is_reserved":false,"is_disabled":false,"rental_uris":{"android":"levelo://app?vid=7534ad62-ca01-405e-8c5e-55d3073599b7","ios":"levelo://app?vid=7534ad62-ca01-405e-8c5e-55d3073599b7"},"vehicle_type_id":"4","last_reported":1743016058,"current_range_meters":9600,"station_id":"ce4bhh12rcd13ifvqfg0","pricing_plan_id":"cebpf4jnsgd1na2vs0mg"},{"bike_id":"c0bcb51c-e542-42ab-855a-5f7195f21ae9","system_id":"levelo_inurba_marseille","lat":43.28682,"lon":5.38689,"is_reserved":false,"is_disabled":false,"rental_uris":{"android":"levelo://app?vid=c0bcb51c-e542-42ab-855a-5f7195f21ae9","ios":"levelo://app?vid=c0bcb51c-e542-42ab-855a-5f7195f21ae9"},"vehicle_type_id":"4","last_reported":1743016058,"current_range_meters":10000,"station_id":"ce4bh492rcd13ifvqdug","pricing_plan_id":"cebpf4jnsgd1na2vs0mg"},{"bike_id":"dbe6eb89-5298-4f04-96c2-8a6bec8f0c17","system_id":"levelo_inurba_marseille","lat":43.2987,"lon":5.39739,"is_reserved":false,"is_disabled":false,"rental_uris":{"android":"levelo://app?vid=dbe6eb89-5298-4f04-96c2-8a6bec8f0c17","ios":"levelo://app?vid=dbe6eb89-5298-4f04-96c2-8a6bec8f0c17"},"vehicle_type_id":"4","last_reported":1743016058,"current_range_meters":10000,"station_id":"ce4bh0h2rcd13ifvqd50","pricing_plan_id":"cebpf4jnsgd1na2vs0mg"},{"bike_id":"d45a2f6c-957b-46cd-bd89-ee8e58d1536e","system_id":"levelo_inurba_marseille","lat":43.27747,"lon":5.4079,"is_reserved":false,"is_disabled":false,"rental_uris":{"android":"levelo://app?vid=d45a2f6c-957b-46cd-bd89-ee8e58d1536e","ios":"levelo://app?vid=d45a2f6c-957b-46cd-bd89-ee8e58d1536e"},"vehicle_type_id":"4","last_reported":1743016058,"current_range_meters":10000,"station_id":"","pricing_plan_id":"cebpf4jnsgd1na2vs0mg"},{"bike_id":"bcc33c46-2f2e-4bea-9368-e16628700258","system_id":"levelo_inurba_marseille","lat":43.296234,"lon":5.38144,"is_reserved":false,"is_disabled":false,"rental_uris":{"android":"levelo://app?vid=bcc33c46-2f2e-4bea-9368-e16628700258","ios":"levelo://app?vid=bcc33c46-2f2e-4bea-9368-e16628700258"},"vehicle_type_id":"4","last_reported":1743016058,"current_range_meters":10000,"station_id":"ce4bgl12rcd13ifvqbo0","pricing_plan_id":"cebpf4jnsgd1na2vs0mg"},{"bike_id":"d2e17a34-39ed-4eb6-8095-71d8b9f2a6ac","system_id":"levelo_inurba_marseille","lat":43.30438,"lon":5.38892,"is_reserved":false,"is_disabled":false,"rental_uris":{"android":"levelo://app?vid=d2e17a34-39ed-4eb6-8095-71d8b9f2a6ac","ios":"levelo://app?vid=d2e17a34-39ed-4eb6-8095-71d8b9f2a6ac"},"vehicle_type_id":"4","last_reported":1743016058,"current_range_meters":10000,"station_id":"ce4bgk12rcd13ifvqbi0","pricing_plan_id":"cebpf4jnsgd1na2vs0mg"},{"bike_id":"887a7784-c70b-46f8-9882-d03745b5c9eb","system_id":"levelo_inurba_marseille","lat":43.31135,"lon":5.37784,"is_reserved":false,"is_disabled":false,"rental_uris":{"android":"levelo://app?vid=887a7784-c70b-46f8-9882-d03745b5c9eb","ios":"levelo://app?vid=887a7784-c70b-46f8-9882-d03745b5c9eb"},"vehicle_type_id":"4","last_reported":1743016058,"current_range_meters":10000,"station_id":"ce4bgt92rcd13ifvqcg0","pricing_plan_id":"cebpf4jnsgd1na2vs0mg"},{"bike_id":"7cc0c2b4-ec3f-4b57-8f5a-4803177e972a","system_id":"levelo_inurba_marseille","lat":43.30305,"lon":5.39199,"is_reserved":false,"is_disabled":false,"rental_uris":{"android":"levelo://app?vid=7cc0c2b4-ec3f-4b57-8f5a-4803177e972a","ios":"levelo://app?vid=7cc0c2b4-ec3f-4b57-8f5a-4803177e972a"},"vehicle_type_id":"4","last_reported":1743016058,"current_range_meters":10000,"station_id":"ce4bgkh2rcd13ifvqbk0","pricing_plan_id":"cebpf4jnsgd1na2vs0mg"},{"bike_id":"84a46064-2e8e-4491-b07a-eae9e9e54a25","system_id":"levelo_inurba_marseille","lat":43.26209,"lon":5.37446,"is_reserved":false,"is_disabled":false,"rental_uris":{"android":"levelo://app?vid=84a46064-2e8e-4491-b07a-eae9e9e54a25","ios":"levelo://app?vid=84a46064-2e8e-4491-b07a-eae9e9e54a25"},"vehicle_type_id":"4","last_reported":1743016058,"current_range_meters":10000,"station_id":"ce4bhgp2rcd13ifvqfc0","pricing_plan_id":"cebpf4jnsgd1na2vs0mg"},{"bike_id":"c8985085-af47-4297-8dd0-86223825d5be","system_id":"levelo_inurba_marseille","lat":43.26782,"lon":5.40258,"is_reserved":false,"is_disabled":false,"rental_uris":{"android":"levelo://app?vid=c8985085-af47-4297-8dd0-86223825d5be","ios":"levelo://app?vid=c8985085-af47-4297-8dd0-86223825d5be"},"vehicle_type_id":"4","last_reported":1743016058,"current_range_meters":10000,"station_id":"ce501612rcd8frsf0b60","pricing_plan_id":"cebpf4jnsgd1na2vs0mg"},{"bike_id":"818cfe2a-3205-453a-a960-4ebf1f298656","system_id":"levelo_inurba_marseille","lat":43.266855,"lon":5.382775,"is_reserved":false,"is_disabled":true,"rental_uris":{"android":"levelo://app?vid=818cfe2a-3205-453a-a960-4ebf1f298656","ios":"levelo://app?vid=818cfe2a-3205-453a-a960-4ebf1f298656"},"vehicle_type_id":"4","last_reported":1743016058,"current_range_meters":10000,"station_id":"ce4bhg92rcd13ifvqf90","pricing_plan_id":"cebpf4jnsgd1na2vs0mg"},{"bike_id":"8776e27b-0f90-41ea-ba59-3697a608b87b","system_id":"levelo_inurba_marseille","lat":43.29253,"lon":5.38463,"is_reserved":false,"is_disabled":false,"rental_uris":{"android":"levelo://app?vid=8776e27b-0f90-41ea-ba59-3697a608b87b","ios":"levelo://app?vid=8776e27b-0f90-41ea-ba59-3697a608b87b"},"vehicle_type_id":"4","last_reported":1743016058,"current_range_meters":10000,"station_id":"ce4bh692rcd13ifvqea0","pricing_plan_id":"cebpf4jnsgd1na2vs0mg"},{"bike_id":"ccdfac36-22da-4f2d-bd50-7bf147cc0fff","system_id":"levelo_inurba_marseille","lat":43.298977,"lon":5.436626,"is_reserved":false,"is_disabled":false,"rental_uris":{"android":"levelo://app?vid=ccdfac36-22da-4f2d-bd50-7bf147cc0fff","ios":"levelo://app?vid=ccdfac36-22da-4f2d-bd50-7bf147cc0fff"},"vehicle_type_id":"4","last_reported":1743016058,"current_range_meters":10800,"station_id":"ce4bhpp2rcd13ifvqhfg","pricing_plan_id":"cebpf4jnsgd1na2vs0mg"},{"bike_id":"2623a753-dcde-4ffa-9bf1-3275e6037e7a","system_id":"levelo_inurba_marseille","lat":43.32508,"lon":5.36616,"is_reserved":false,"is_disabled":false,"rental_uris":{"android":"levelo://app?vid=2623a753-dcde-4ffa-9bf1-3275e6037e7a","ios":"levelo://app?vid=2623a753-dcde-4ffa-9bf1-3275e6037e7a"},"vehicle_type_id":"4","last_reported":1743016058,"current_range_meters":10800,"station_id":"ce4bhs12rcd13ifvqhvg","pricing_plan_id":"cebpf4jnsgd1na2vs0mg"},{"bike_id":"68664748-53bb-4ce6-b583-334399786fed","system_id":"levelo_inurba_marseille","lat":43.28037,"lon":5.4,"is_reserved":false,"is_disabled":false,"rental_uris":{"android":"levelo://app?vid=68664748-53bb-4ce6-b583-334399786fed","ios":"levelo://app?vid=68664748-53bb-4ce6-b583-334399786fed"},"vehicle_type_id":"4","last_reported":1743016058,"current_range_meters":10800,"station_id":"ce4bho92rcd13ifvqh4g","pricing_plan_id":"cebpf4jnsgd1na2vs0mg"},{"bike_id":"4d12e12d-4e06-4701-a92b-3a4f958d3859","system_id":"levelo_inurba_marseille","lat":43.30142,"lon":5.39875,"is_reserved":false,"is_disabled":false,"rental_uris":{"android":"levelo://app?vid=4d12e12d-4e06-4701-a92b-3a4f958d3859","ios":"levelo://app?vid=4d12e12d-4e06-4701-a92b-3a4f958d3859"},"vehicle_type_id":"4","last_reported":1743016058,"current_range_meters":10800,"station_id":"ce4bh0h2rcd13ifvqd40","pricing_plan_id":"cebpf4jnsgd1na2vs0mg"},