{"last_updated":1700402728,"ttl":30,"version":"2.2","data":{"bikes":[{"bike_id":"95455021-4494-4465-940b-977f935d98d7","system_id":"levelo_inurba_marseille","lat":43.309076,"lon":5.368465,"is_reserved":false,"is_disabled":false,"rental_uris":{"android":"levelo://app?vid=95455021-4494-4465-940b-977f935d98d7","ios":"levelo://app?vid=95455021-4494-4465-940b-977f935d98d7"},"vehicle_type_id":"4","last_reported":1700402728,"current_range_meters":6000,"station_id":"ce4bgn92rcd13ifvqbvg","pricing_plan_id":"free"},{"bike_id":"5190bcf8-e6cc-424b-8fbc-aeb051726193","system_id":"levelo_inurba_marseille","lat":43.314811,"lon":5.373104,"is_reserved":false,"is_disabled":false,"rental_uris":{"android":"levelo://app?vid=5190bcf8-e6cc-424b-8fbc-aeb051726193","ios":"levelo://app?vid=5190bcf8-e6cc-424b-8fbc-aeb051726193"},"vehicle_type_id":"4","last_reported":1700402728,"current_range_meters":22800,"station_id":"ce4bgt12rcd13ifvqcd0","pricing_plan_id":"free"},{"bike_id":"210f2de6-7665-44ec-8c07-2928b24b9cc6","system_id":"levelo_inurba_marseille","lat":43.309039,"lon":5.371797,"is_reserved":false,"is_disabled":false,"rental_uris":{"android":"levelo://app?vid=210f2de6-7665-44ec-8c07-2928b24b9cc6","ios":"levelo://app?vid=210f2de6-7665-44ec-8c07-2928b24b9cc6"},"vehicle_type_id":"4","last_reported":1700402728,"current_range_meters":19200,"station_id":"ce4bguh2rcd13ifvqckg","pricing_plan_id":"free"},{"bike_id":"3475d204-43b6-43d9-b615-ca1d0d58200e","system_id":"levelo_inurba_marseille","lat":43.30679,"lon":5.3679,"is_reserved":false,"is_disabled":false,"rental_uris":{"android":"levelo://app?vid=3475d204-43b6-43d9-b615-ca1d0d58200e","ios":"levelo://app?vid=3475d204-43b6-43d9-b615-ca1d0d58200e"},"vehicle_type_id":"4","last_reported":1700402728,"current_range_meters":10800,"station_id":"","pricing_plan_id":"free"},{"bike_id":"c7d00dc3-b6ca-4294-a7db-4b0dee271135","system_id":"levelo_inurba_marseille","lat":43.31282,"lon":5.37566,"is_reserved":false,"is_disabled":false,"rental_uris":{"android":"levelo://app?vid=c7d00dc3-b6ca-4294-a7db-4b0dee271135","ios":"levelo://app?vid=c7d00dc3-b6ca-4294-a7db-4b0dee271135"},"vehicle_type_id":"4","last_reported":1700402728,"current_range_meters":19200,"station_id":"","pricing_plan_id":"free"},{"bike_id":"607819cf-a4fa-4b55-885d-29b97af7d346","system_id":"levelo_inurba_marseille","lat":43.305525,"lon":5.366997,"is_reserved":false,"is_disabled":false,"rental_uris":{"android":"levelo://app?vid=607819cf-a4fa-4b55-885d-29b97af7d346","ios":"levelo://app?vid=607819cf-a4fa-4b55-885d-29b97af7d346"},"vehicle_type_id":"4","last_reported":1700402728,"current_range_meters":0,"station_id":"ce4bgrp2rcd13ifvqc9g","pricing_plan_id":"free"},{"bike_id":"09ccbac6-0f01-4cfb-8bb8-da5484277d5c","system_id":"levelo_inurba_marseille","lat":43.319512,"lon":5.371013,"is_reserved":false,"is_disabled":false,"rental_uris":{"android":"levelo://app?vid=09ccbac6-0f01-4cfb-8bb8-da5484277d5c","ios":"levelo://app?vid=09ccbac6-0f01-4cfb-8bb8-da5484277d5c"},"vehicle_type_id":"4","last_reported":1700402728,"current_range_meters":400,"station_id":"","pricing_plan_id":"free"},{"bike_id":"dcbf9c93-0758-41cf-8699-4ede01d69428","system_id":"levelo_inurba_marseille","lat":43.30819,"lon":5.376554,"is_reserved":false,"is_disabled":false,"rental_uris":{"android":"levelo://app?vid=dcbf9c93-0758-41cf-8699-4ede01d69428","ios":"levelo://app?vid=dcbf9c93-0758-41cf-8699-4ede01d69428"},"vehicle_type_id":"4","last_reported":1700402728,"current_range_meters":11200,"station_id":"ce4bgv92rcd13ifvqcq0","pricing_plan_id":"free"},{"bike_id":"f000fe5d-198d-4acc-b831-aef29fc50aa4","system_id":"levelo_inurba_marseille","lat":43.31177,"lon":5.37976,"is_reserved":false,"is_disabled":false,"rental_uris":{"android":"levelo://app?vid=f000fe5d-198d-4acc-b831-aef29fc50aa4","ios":"levelo://app?vid=f000fe5d-198d-4acc-b831-aef29fc50aa4"},"vehicle_type_id":"4","last_reported":1700402728,"current_range_meters":26000,"station_id":"","pricing_plan_id":"free"},{"bike_id":"c1b6f7bd-7ece-4b07-acb1-5c9f9e2474c0","system_id":"levelo_inurba_marseille","lat":43.321798,"lon":5.374932,"is_reserved":false,"is_disabled":false,"rental_uris":{"android":"levelo://app?vid=c1b6f7bd-7ece-4b07-acb1-5c9f9e2474c0","ios":"levelo://app?vid=c1b6f7bd-7ece-4b07-acb1-5c9f9e2474c0"},"vehicle_type_id":"4","last_reported":1700402728,"current_range_meters":28000,"station_id":"","pricing_plan_id":"free"},{"bike_id":"3a722b20-8d9a-4ed7-bed2-82edca53ad10","system_id":"levelo_inurba_marseille","lat":43.324776,"lon":5.365532,"is_reserved":false,"is_disabled":false,"rental_uris":{"android":"levelo://app?vid=3a722b20-8d9a-4ed7-bed2-82edca53ad10","ios":"levelo://app?vid=3a722b20-8d9a-4ed7-bed2-82edca53ad10"},"vehicle_type_id":"4","last_reported":1700402728,"current_range_meters":16800,"station_id":"ce4bhs12rcd13ifvqhvg","pricing_plan_id":"free"},{"bike_id":"8c6b9948-2f23-41f5-967e-cd18cc963390","system_id":"levelo_inurba_marseille","lat":43.324771,"lon":5.36557,"is_reserved":false,"is_disabled":false,"rental_uris":{"android":"levelo://app?vid=8c6b9948-2f23-41f5-967e-cd18cc963390","ios":"levelo://app?vid=8c6b9948-2f23-41f5-967e-cd18cc963390"},"vehicle_type_id":"4","last_reported":1700402728,"current_range_meters":15200,"station_id":"ce4bhs12rcd13ifvqhvg","pricing_plan_id":"free"},{"bike_id":"5da9dea2-bd9f-4746-b637-56e44ea9e587","system_id":"levelo_inurba_marseille","lat":43.298489,"lon":5.362942,"is_reserved":false,"is_disabled":false,"rental_uris":{"android":"levelo://app?vid=5da9dea2-bd9f-4746-b637-56e44ea9e587","ios":"levelo://app?vid=5da9dea2-bd9f-4746-b637-56e44ea9e587"},"vehicle_type_id":"4","last_reported":1700402728,"current_range_meters":0,"station_id":"","pricing_plan_id":"free"},{"bike_id":"9bd0d4a3-3020-432d-a64e-6ed1d9547d10","system_id":"levelo_inurba_marseille","lat":43.311722,"lon":5.387247,"is_reserved":false,"is_disabled":false,"rental_uris":{"android":"levelo://app?vid=9bd0d4a3-3020-432d-a64e-6ed1d9547d10","ios":"levelo://app?vid=9bd0d4a3-3020-432d-a64e-6ed1d9547d10"},"vehicle_type_id":"4","last_reported":1700402728,"current_range_meters":3200,"station_id":"ce4bgv12rcd13ifvqcp0","pricing_plan_id":"free"},{"bike_id":"6c5d7580-0af2-4711-aac6-b10b4ab61119","system_id":"levelo_inurba_marseille","lat":43.297847,"lon":5.372297,"is_reserved":false,"is_disabled":false,"rental_uris":{"android":"levelo://app?vid=6c5d7580-0af2-4711-aac6-b10b4ab61119","ios":"levelo://app?vid=6c5d7580-0af2-4711-aac6-b10b4ab61119"},"vehicle_type_id":"4","last_reported":1700402728,"current_range_meters":0,"station_id":"","pricing_plan_id":"free"},{"bike_id":"f1823e1a-4a1c-465c-a3d5-b3d8c07ce2f2","system_id":"levelo_inurba_marseille","lat":43.32823,"lon":5.36682,"is_reserved":false,"is_disabled":false,"rental_uris":{"android":"levelo://app?vid=f1823e1a-4a1c-465c-a3d5-b3d8c07ce2f2","ios":"levelo://app?vid=f1823e1a-4a1c-465c-a3d5-b3d8c07ce2f2"},"vehicle_type_id":"4","last_reported":1700402728,"current_range_meters":14000,"station_id":"ce4bhs92rcd13ifvqi0g","pricing_plan_id":"free"},{"bike_id":"400f50f1-8856-47a5-98cc-d6af2c8bca12","system_id":"levelo_inurba_marseille","lat":43.32824,"lon":5.36678,"is_reserved":false,"is_disabled":false,"rental_uris":{"android":"levelo://app?vid=400f50f1-8856-47a5-98cc-d6af2c8bca12","ios":"levelo://app?vid=400f50f1-8856-47a5-98cc-d6af2c8bca12"},"vehicle_type_id":"4","last_reported":1700402728,"current_range_meters":10000,"station_id":"ce4bhs92rcd13ifvqi0g","pricing_plan_id":"free"},{"bike_id":"2a07802c-16d5-4104-9ab3-93ca6dd62601","system_id":"levelo_inurba_marseille","lat":43.29601,"lon":5.368027,"is_reserved":false,"is_disabled":false,"rental_uris":{"android":"levelo://app?vid=2a07802c-16d5-4104-9ab3-93ca6dd62601","ios":"levelo://app?vid=2a07802c-16d5-4104-9ab3-93ca6dd62601"},"vehicle_type_id":"4","last_reported":1700402728,"current_range_meters":26400,"station_id":"","pricing_plan_id":"free"},{"bike_id":"a6542b7f-bfd1-43f0-ad9d-59832e00f4eb","system_id":"levelo_inurba_marseille","lat":43.29573,"lon":5.367355,"is_reserved":false,"is_disabled":false,"rental_uris":{"android":"levelo://app?vid=a6542b7f-bfd1-43f0-ad9d-59832e00f4eb","ios":"levelo://app?vid=a6542b7f-bfd1-43f0-ad9d-59832e00f4eb"},"vehicle_type_id":"4","last_reported":1700402728,"current_range_meters":0,"station_id":"ce4bgph2rcd13ifvqc2g","pricing_plan_id":"free"},{"bike_id":"5baef01a-3971-4d0c-86cd-472b5b85d31e","system_id":"levelo_inurba_marseille","lat":43.29573,"lon":5.367355,"is_reserved":false,"is_disabled":false,"rental_uris":{"android":"levelo://app?vid=5baef01a-3971-4d0c-86cd-472b5b85d31e","ios":"levelo://app?vid=5baef01a-3971-4d0c-86cd-472b5b85d31e"},"vehicle_type_id":"4","last_reported":1700402728,"current_range_meters":29200,"station_id":"ce4bgph2rcd13ifvqc2g","pricing_plan_id":"free"},{"bike_id":"d51c32af-a98e-44be-b3eb-71b7d6525d56","system_id":"levelo_inurba_marseille","lat":43.299028,"lon":5.381509,"is_reserved":false,"is_disabled":false,"rental_uris":{"android":"levelo://app?vid=d51c32af-a98e-44be-b3eb-71b7d6525d56","ios":"levelo://app?vid=d51c32af-a98e-44be-b3eb-71b7d6525d56"},"vehicle_type_id":"4","last_reported":1700402728,"current_range_meters":2400,"station_id":"ce4bgj12rcd13ifvqbc0","pricing_plan_id":"free"},{"bike_id":"67ffd28a-0325-489b-a10f-d90500122751","system_id":"levelo_inurba_marseille","lat":43.295748,"lon":5.37522,"is_reserved":false,"is_disabled":false,"rental_uris":{"android":"levelo://app?vid=67ffd28a-0325-489b-a10f-d90500122751","ios":"levelo://app?vid=67ffd28a-0325-489b-a10f-d90500122751"},"vehicle_type_id":"4","last_reported":1700402728,"current_range_meters":30400,"station_id":"ce4bgh92rcd13ifvqb50","pricing_plan_id":"free"},{"bike_id":"707daf70-486e-4560-ae62-acaca5062a82","system_id":"levelo_inurba_marseille","lat":43.298037,"lon":5.381066,"is_reserved":false,"is_disabled":false,"rental_uris":{"android":"levelo://app?vid=707daf70-486e-4560-ae62-acaca5062a82","ios":"levelo://app?vid=707daf70-486e-4560-ae62-acaca5062a82"},"vehicle_type_id":"4","last_reported":1700402728,"current_range_meters":14400,"station_id":"ce4bgip2rcd13ifvqbb0","pricing_plan_id":"free"},{"bike_id":"3e3e92fe-39b7-4933-99ff-3747b28b5d69","system_id":"levelo_inurba_marseille","lat":43.328154,"lon":5.380034,"is_reserved":false,"is_disabled":false,"rental_uris":{"android":"levelo://app?vid=3e3e92fe-39b7-4933-99ff-3747b28b5d69","ios":"levelo://app?vid=3e3e92fe-39b7-4933-99ff-3747b28b5d69"},"vehicle_type_id":"4","last_reported":1700402728,"current_range_meters":6000,"station_id":"","pricing_plan_id":"free"},{"bike_id":"560f80f1-e4a7-4ad0-a388-2da7136e8799","system_id":"levelo_inurba_marseille","lat":43.29974,"lon":5.38487,"is_reserved":false,"is_disabled":false,"rental_uris":{"android":"levelo://app?vid=560f80f1-e4a7-4ad0-a388-2da7136e8799","ios":"levelo://app?vid=560f80f1-e4a7-4ad0-a388-2da7136e8799"},"vehicle_type_id":"4","last_reported":1700402728,"current_range_meters":30000,"station_id":"ce4bgj92rcd13ifvqbd0","pricing_plan_id":"free"},{"bike_id":"e145a3f7-00ac-4f8f-bfe5-435bc38ccaf7","system_id":"levelo_inurba_marseille","lat":43.293801,"lon":5.363066,"is_reserved":false,"is_disabled":false,"rental_uris":{"android":"levelo://app?vid=e145a3f7-00ac-4f8f-bfe5-435bc38ccaf7","ios":"levelo://app?vid=e145a3f7-00ac-4f8f-bfe5-435bc38ccaf7"},"vehicle_type_id":"4","last_reported":1700402728,"current_range_meters":23600,"station_id":"","pricing_plan_id":"free"},{"bike_id":"4eef38cc-64cf-4f4d-8d5b-99bd9d3b1b37","system_id":"levelo_inurba_marseille","lat":43.29321,"lon":5.37113,"is_reserved":false,"is_disabled":false,"rental_uris":{"android":"levelo://app?vid=4eef38cc-64cf-4f4d-8d5b-99bd9d3b1b37","ios":"levelo://app?vid=4eef38cc-64cf-4f4d-8d5b-99bd9d3b1b37"},"vehicle_type_id":"4","last_reported":1700402728,"current_range_meters":24400,"station_id":"","pricing_plan_id":"free"},{"bike_id":"21eff321-f64f-4267-b3c2-94db97f7e3bf","system_id":"levelo_inurba_marseille","lat":43.293009,"lon":5.374584,"is_reserved":false,"is_disabled":false,"rental_uris":{"android":"levelo://app?vid=21eff321-f64f-4267-b3c2-94db97f7e3bf","ios":"levelo://app?vid=21eff321-f64f-4267-b3c2-94db97f7e3bf"},"vehicle_type_id":"4","last_reported":1700402728,"current_range_meters":26400,"station_id":"ce4bgi12rcd13ifvqb70","pricing_plan_id":"free"},{"bike_id":"2474d823-7e00-4d15-b58f-839e2c1af5b0","system_id":"levelo_inurba_marseille","lat":43.293663,"lon":5.378602,"is_reserved":false,"is_disabled":false,"rental_uris":{"android":"levelo://app?vid=2474d823-7e00-4d15-b58f-839e2c1af5b0","ios":"levelo://app?vid=2474d823-7e00-4d15-b58f-839e2c1af5b0"},"vehicle_type_id":"4","last_reported":1700402728,"current_range_meters":0,"station_id":"ce4bgjh2rcd13ifvqbf0","pricing_plan_id":"free"},{"bike_id":"cad6545f-6677-4ab8-9bd4-9403d07ca73b","system_id":"levelo_inurba_marseille","lat":43.291671,"lon":5.371575,"is_reserved":false,"is_disabled":false,"rental_uris":{"android":"levelo://app?vid=cad6545f-6677-4ab8-9bd4-9403d07ca73b","ios":"levelo://app?vid=cad6545f-6677-4ab8-9bd4-9403d07ca73b"},"vehicle_type_id":"4","last_reported":1700402728,"current_range_meters":3200,"station_id":"ce4bha92rcd13ifvqeh0","pricing_plan_id":"free"},{"bike_id":"a5ff75b4-e698-4972-a762-a37c9f60e4ca","system_id":"levelo_inurba_marseille","lat":43.29182,"lon":5.35692,"is_reserved":false,"is_disabled":false,"rental_uris":{"android":"levelo://app?vid=a5ff75b4-e698-4972-a762-a37c9f60e4ca","ios":"levelo://app?vid=a5ff75b4-e698-4972-a762-a37c9f60e4ca"},"vehicle_type_id":"4","last_reported":1700402728,"current_range_meters":0,"station_id":"","pricing_plan_id":"free"},{"bike_id":"c810080b-6e7e-455d-979c-9baf1817e5a0","system_id":"levelo_inurba_marseille","lat":43.28934,"lon":5.36406,"is_reserved":false,"is_disabled":false,"rental_uris":{"android":"levelo://app?vid=c810080b-6e7e-455d-979c-9baf1817e5a0","ios":"levelo://app?vid=c810080b-6e7e-455d-979c-9baf1817e5a0"},"vehicle_type_id":"4","last_reported":1700402728,"current_range_meters":12800,"station_id":"ce4bhc92rcd13ifvqetg","pricing_plan_id":"free"},{"bike_id":"6e600c71-15ca-4310-a2a3-998290ebc22b","system_id":"levelo_inurba_marseille","lat":43.290995,"lon":5.381361,"is_reserved":false,"is_disabled":false,"rental_uris":{"android":"levelo://app?vid=6e600c71-15ca-4310-a2a3-998290ebc22b","ios":"levelo://app?vid=6e600c71-15ca-4310-a2a3-998290ebc22b"},"vehicle_type_id":"4","last_reported":1700402728,"current_range_meters":1200,"station_id":"ce4bh512rcd13ifvqe2g","pricing_plan_id":"free"},{"bike_id":"ac386dd7-e5c5-487b-8fb1-3330f264d8a5","system_id":"levelo_inurba_marseille","lat":43.28856,"lon":5.358371,"is_reserved":false,"is_disabled":false,"rental_uris":{"android":"levelo://app?vid=ac386dd7-e5c5-487b-8fb1-3330f264d8a5","ios":"levelo://app?vid=ac386dd7-e5c5-487b-8fb1-3330f264d8a5"},"vehicle_type_id":"4","last_reported":1700402728,"current_range_meters":20800,"station_id":"ce4bhb12rcd13ifvqem0","pricing_plan_id":"free"},{"bike_id":"07202f70-50d7-46f0-a5bd-59712659d6a0","system_id":"levelo_inurba_marseille","lat":43.31251,"lon":5.40162,"is_reserved":false,"is_disabled":false,"rental_uris":{"android":"levelo://app?vid=07202f70-50d7-46f0-a5bd-59712659d6a0","ios":"levelo://app?vid=07202f70-50d7-46f0-a5bd-59712659d6a0"},"vehicle_type_id":"4","last_reported":1700402728,"current_range_meters":10800,"station_id":"","pricing_plan_id":"free"},{"bike_id":"fb2bc9e0-c8ae-4d8d-9f5d-f2f5f0d5aecf","system_id":"levelo_inurba_marseille","lat":43.33752,"lon":5.37451,"is_reserved":false,"is_disabled":false,"rental_uris":{"android":"levelo://app?vid=fb2bc9e0-c8ae-4d8d-9f5d-f2f5f0d5aecf","ios":"levelo://app?vid=fb2bc9e0-c8ae-4d8d-9f5d-f2f5f0d5aecf"},"vehicle_type_id":"4","last_reported":1700402728,"current_range_meters":19600,"station_id":"","pricing_plan_id":"free"},{"bike_id":"8b3677d2-ba45-46d5-8680-59b39c3c55a8","system_id":"levelo_inurba_marseille","lat":43.33753,"lon":5.37464,"is_reserved":false,"is_disabled":false,"rental_uris":{"android":"levelo://app?vid=8b3677d2-ba45-46d5-8680-59b39c3c55a8","ios":"levelo://app?vid=8b3677d2-ba45-46d5-8680-59b39c3c55a8"},"vehicle_type_id":"4","last_reported":1700402728,"current_range_meters":29200,"station_id":"","pricing_plan_id":"free"},{"bike_id":"473d2011-ae75-4743-87c2-eb53e5b85a28","system_id":"levelo_inurba_marseille","lat":43.33762,"lon":5.37444,"is_reserved":false,"is_disabled":false,"rental_uris":{"android":"levelo://app?vid=473d2011-ae75-4743-87c2-eb53e5b85a28","ios":"levelo://app?vid=473d2011-ae75-4743-87c2-eb53e5b85a28"},"vehicle_type_id":"4","last_reported":1700402728,"current_range_meters":21200,"station_id":"","pricing_plan_id":"free"},{"bike_id":"46509513-12f0-4bae-91ab-3b5bb7ed22cf","system_id":"levelo_inurba_marseille","lat":43.337746,"lon":5.374264,"is_reserved":false,"is_disabled":false,"rental_uris":{"android":"levelo://app?vid=46509513-12f0-4bae-91ab-3b5bb7ed22cf","ios":"levelo://app?vid=46509513-12f0-4bae-91ab-3b5bb7ed22cf"},"vehicle_type_id":"4","last_reported":1700402728,"current_range_meters":18800,"station_id":"","pricing_plan_id":"free"},{"bike_id":"adbd7592-a03d-423c-af02-c5f684a69468","system_id":"levelo_inurba_marseille","lat":43.301117,"lon":5.398795,"is_reserved":false,"is_disabled":false,"rental_uris":{"android":"levelo://app?vid=adbd7592-a03d-423c-af02-c5f684a69468","ios":"levelo://app?vid=adbd7592-a03d-423c-af02-c5f684a69468"},"vehicle_type_id":"4","last_reported":1700402728,"current_range_meters":6800,"station_id":"ce4bh0h2rcd13ifvqd40","pricing_plan_id":"free"},{"bike_id":"d975fe5b-526b-4ea4-9727-5bbb70ba0301","system_id":"levelo_inurba_marseille","lat":43.286591,"lon":5.363346,"is_reserved":false,"is_disabled":false,"rental_uris":{"android":"levelo://app?vid=d975fe5b-526b-4ea4-9727-5bbb70ba0301","ios":"levelo://app?vid=d975fe5b-526b-4ea4-9727-5bbb70ba0301"},"vehicle_type_id":"4","last_reported":1700402728,"current_range_meters":2000,"station_id":"ce4bhah2rcd13ifvqej0","pricing_plan_id":"free"},{"bike_id":"cab0015d-bf28-422f-b536-2a20b1791859","system_id":"levelo_inurba_marseille","lat":43.316517,"lon":5.404375,"is_reserved":false,"is_disabled":false,"rental_uris":{"android":"levelo://app?vid=cab0015d-bf28-422f-b536-2a20b1791859","ios":"levelo://app?vid=cab0015d-bf28-422f-b536-2a20b1791859"},"vehicle_type_id":"4","last_reported":1700402728,"current_range_meters":16400,"station_id":"ce4bh012rcd13ifvqd00","pricing_plan_id":"free"},{"bike_id":"6cac0969-bec7-4e59-bb68-c8041ecac326","system_id":"levelo_inurba_marseille","lat":43.28611,"lon":5.35103,"is_reserved":false,"is_disabled":false,"rental_uris":{"android":"levelo://app?vid=6cac0969-bec7-4e59-bb68-c8041ecac326","ios":"levelo://app?vid=6cac0969-bec7-4e59-bb68-c8041ecac326"},"vehicle_type_id":"4","last_reported":1700402728,"current_range_meters":0,"station_id":"ce4bhch2rcd13ifvqeug","pricing_plan_id":"free"},{"bike_id":"39d57ba8-1c9d-41ba-8ae8-ead2a13492f7","system_id":"levelo_inurba_marseille","lat":43.319179,"lon":5.407725,"is_reserved":false,"is_disabled":false,"rental_uris":{"android":"levelo://app?vid=39d57ba8-1c9d-41ba-8ae8-ead2a13492f7","ios":"levelo://app?vid=39d57ba8-1c9d-41ba-8ae8-ead2a13492f7"},"vehicle_type_id":"4","last_reported":1700402728,"current_range_meters":28400,"station_id":"ce4bhq12rcd13ifvqhig","pricing_plan_id":"free"},{"bike_id":"5974ad3b-da81-42ca-a08b-1b3632a47afa","system_id":"levelo_inurba_marseille","lat":43.33237,"lon":5.3985,"is_reserved":false,"is_disabled":false,"rental_uris":{"android":"levelo://app?vid=5974ad3b-da81-42ca-a08b-1b3632a47afa","ios":"levelo://app?vid=5974ad3b-da81-42ca-a08b-1b3632a47afa"},"vehicle_type_id":"4","last_reported":1700402728,"current_range_meters":1200,"station_id":"","pricing_plan_id":"free"},{"bike_id":"e696ea47-d5e3-4cb2-9e18-c03f9f6d70ba","system_id":"levelo_inurba_marseille","lat":43.288497,"lon":5.393089,"is_reserved":false,"is_disabled":false,"rental_uris":{"android":"levelo://app?vid=e696ea47-d5e3-4cb2-9e18-c03f9f6d70ba","ios":"levelo://app?vid=e696ea47-d5e3-4cb2-9e18-c03f9f6d70ba"},"vehicle_type_id":"4","last_reported":1700402728,"current_range_meters":11600,"station_id":"ce4bh2p2rcd13ifvqdi0","pricing_plan_id":"free"},{"bike_id":"d3dd3e3d-57b0-4c9e-949f-fddd56c2349c","system_id":"levelo_inurba_marseille","lat":43.32521,"lon":5.40575,"is_reserved":false,"is_disabled":false,"rental_uris":{"android":"levelo://app?vid=d3dd3e3d-57b0-4c9e-949f-fddd56c2349c","ios":"levelo://app?vid=d3dd3e3d-57b0-4c9e-949f-fddd56c2349c"},"vehicle_type_id":"4","last_reported":1700402728,"current_range_meters":0,"station_id":"","pricing_plan_id":"free"},{"bike_id":"e95a67e9-3616-41e6-93ad-1211f4ab7e58","system_id":"levelo_inurba_marseille","lat":43.283494,"lon":5.380945,"is_reserved":false,"is_disabled":false,"rental_uris":{"android":"levelo://app?vid=e95a67e9-3616-41e6-93ad-1211f4ab7e58","ios":"levelo://app?vid=e95a67e9-3616-41e6-93ad-1211f4ab7e58"},"vehicle_type_id":"4","last_reported":1700402728,"current_range_meters":0,"station_id":"ce4bh412rcd13ifvqdr0","pricing_plan_id":"free"},{"bike_id":"e4d089ec-30c4-43c2-b4f1-12f7df37c66c","system_id":"levelo_inurba_marseille","lat":43.282754,"lon":5.350519,"is_reserved":false,"is_disabled":false,"rental_uris":{"android":"levelo://app?vid=e4d089ec-30c4-43c2-b4f1-12f7df37c66c","ios":"levelo://app?vid=e4d089ec-30c4-43c2-b4f1-12f7df37c66c"},"vehicle_type_id":"4","last_reported":1700402728,"current_range_meters":18400,"station_id":"ce4bhbp2rcd13ifvqerg","pricing_plan_id":"free"},{"bike_id":"ac6ebf28-4159-4b5e-a7dd-ffcfff1eaaa9","system_id":"levelo_inurba_marseille","lat":43.28121,"lon":5.35161,"is_reserved":false,"is_disabled":false,"rental_uris":{"android":"levelo://app?vid=ac6ebf28-4159-4b5e-a7dd-ffcfff1eaaa9","ios":"levelo://app?vid=ac6ebf28-4159-4b5e-a7dd-ffcfff1eaaa9"},"vehicle_type_id":"4","last_reported":1700402728,"current_range_meters":0,"station_id":"","pricing_plan_id":"free"},{"bike_id":"01daa386-9cfe-4579-b401-1e78dc2edb12","system_id":"levelo_inurba_marseille","lat":43.284462,"lon":5.392121,"is_reserved":false,"is_disabled":false,"rental_uris":{"android":"levelo://app?vid=01daa386-9cfe-4579-b401-1e78dc2edb12","ios":"levelo://app?vid=01daa386-9cfe-4579-b401-1e78dc2edb12"},"vehicle_type_id":"4","last_reported":1700402728,"current_range_meters":12800,"station_id":"ce4bhoh2rcd13ifvqh5g","pricing_plan_id":"free"},{"bike_id":"ccf9b17e-2fb6-47d5-b5cb-73ea08fcb6e5","system_id":"levelo_inurba_marseille","lat":43.28575,"lon":5.39498,"is_reserved":false,"is_disabled":false,"rental_uris":{"android":"levelo://app?vid=ccf9b17e-2fb6-47d5-b5cb-73ea08fcb6e5","ios":"levelo://app?vid=ccf9b17e-2fb6-47d5-b5cb-73ea08fcb6e5"},"vehicle_type_id":"4","last_reported":1700402728,"current_range_meters":0,"station_id":"ce4bh292rcd13ifvqdg0","pricing_plan_id":"free"},{"bike_id":"0a3adda5-5229-4d2e-a52b-657e4770ee74","system_id":"levelo_inurba_marseille","lat":43.279742,"lon":5.38744,"is_reserved":false,"is_disabled":false,"rental_uris":{"android":"levelo://app?vid=0a3adda5-5229-4d2e-a52b-657e4770ee74","ios":"levelo://app?vid=0a3adda5-5229-4d2e-a52b-657e4770ee74"},"vehicle_type_id":"4","last_reported":1700402728,"current_range_meters":0,"station_id":"ce4bhg12rcd13ifvqf80","pricing_plan_id":"free"},{"bike_id":"a9b3f725-2ed3-4f1b-aeb8-7dd19ff5b1e7","system_id":"levelo_inurba_marseille","lat":43.27976,"lon":5.38748,"is_reserved":false,"is_disabled":false,"rental_uris":{"android":"levelo://app?vid=a9b3f725-2ed3-4f1b-aeb8-7dd19ff5b1e7","ios":"levelo://app?vid=a9b3f725-2ed3-4f1b-aeb8-7dd19ff5b1e7"},"vehicle_type_id":"4","last_reported":1700402728,"current_range_meters":0,"station_id":"ce4bhg12rcd13ifvqf80","pricing_plan_id":"free"},{"bike_id":"0d2aaef9-1f5f-4b07-a689-f5d198fbcc7f","system_id":"levelo_inurba_marseille","lat":43.276194,"lon":5.361121,"is_reserved":false,"is_disabled":false,"rental_uris":{"android":"levelo://app?vid=0d2aaef9-1f5f-4b07-a689-f5d198fbcc7f","ios":"levelo://app?vid=0d2aaef9-1f5f-4b07-a689-f5d198fbcc7f"},"vehicle_type_id":"4","last_reported":1700402728,"current_range_meters":15600,"station_id":"ce4bgj92rcd13ifvqbe0","pricing_plan_id":"free"},{"bike_id":"987e9366-f21d-4bf2-938f-e03bf4a70be1","system_id":"levelo_inurba_marseille","lat":43.296263,"lon":5.377094,"is_reserved":false,"is_disabled":false,"rental_uris":{"android":"levelo://app?vid=987e9366-f21d-4bf2-938f-e03bf4a70be1","ios":"levelo://app?vid=987e9366-f21d-4bf2-938f-e03bf4a70be1"},"vehicle_type_id":"4","last_reported":1700402728,"current_range_meters":29600,"station_id":"ce4bgi92rcd13ifvqb90","pricing_plan_id":"free"},{"bike_id":"cf25223c-09be-48b6-b2a2-96d72c9c0f34","system_id":"levelo_inurba_marseille","lat":43.276179,"lon":5.361009,"is_reserved":false,"is_disabled":false,"rental_uris":{"android":"levelo://app?vid=cf25223c-09be-48b6-b2a2-96d72c9c0f34","ios":"levelo://app?vid=cf25223c-09be-48b6-b2a2-96d72c9c0f34"},"vehicle_type_id":"4","last_reported":1700402728,"current_range_meters":0,"station_id":"ce4bgj92rcd13ifvqbe0","pricing_plan_id":"free"},{"bike_id":"5b121fc4-7279-41dc-9e3a-275c1896221a","system_id":"levelo_inurba_marseille","lat":43.27609,"lon":5.36115,"is_reserved":false,"is_disabled":false,"rental_uris":{"android":"levelo://app?vid=5b121fc4-7279-41dc-9e3a-275c1896221a","ios":"levelo://app?vid=5b121fc4-7279-41dc-9e3a-275c1896221a"},"vehicle_type_id":"4","last_reported":1700402728,"current_range_meters":0,"station_id":"ce4bgj92rcd13ifvqbe0","pricing_plan_id":"free"},{"bike_id":"aa86f12b-16e7-433b-8937-efc97e5bab75","system_id":"levelo_inurba_marseille","lat":43.303837,"lon":5.418724,"is_reserved":false,"is_disabled":false,"rental_uris":{"android":"levelo://app?vid=aa86f12b-16e7-433b-8937-efc97e5bab75","ios":"levelo://app?vid=aa86f12b-16e7-433b-8937-efc97e5bab75"},"vehicle_type_id":"4","last_reported":1700402728,"current_range_meters":6800,"station_id":"ce4bhop2rcd13ifvqh7g","pricing_plan_id":"free"},{"bike_id":"093ae63a-d4bb-4811-a049-b323e39de4db","system_id":"levelo_inurba_marseille","lat":43.27379,"lon":5.36265,"is_reserved":false,"is_disabled":false,"rental_uris":{"android":"levelo://app?vid=093ae63a-d4bb-4811-a049-b323e39de4db","ios":"levelo://app?vid=093ae63a-d4bb-4811-a049-b323e39de4db"},"vehicle_type_id":"4","last_reported":1700402728,"current_range_meters":24800,"station_id":"ce4bhbh2rcd13ifvqeo0","pricing_plan_id":"free"},{"bike_id":"3f323aff-7c6a-421a-a74e-bdbf814ca731","system_id":"levelo_inurba_marseille","lat":43.273613,"lon":5.362705,"is_reserved":false,"is_disabled":false,"rental_uris":{"android":"levelo://app?vid=3f323aff-7c6a-421a-a74e-bdbf814ca731","ios":"levelo://app?vid=3f323aff-7c6a-421a-a74e-bdbf814ca731"},"vehicle_type_id":"4","last_reported":1700402728,"current_range_meters":13200,"station_id":"ce4bhbh2rcd13ifvqeo0","pricing_plan_id":"free"},{"bike_id":"3af9d565-3348-4d90-a349-55a182075a62","system_id":"levelo_inurba_marseille","lat":43.275625,"lon":5.384392,"is_reserved":false,"is_disabled":false,"rental_uris":{"android":"levelo://app?vid=3af9d565-3348-4d90-a349-55a182075a62","ios":"levelo://app?vid=3af9d565-3348-4d90-a349-55a182075a62"},"vehicle_type_id":"4","last_reported":1700402728,"current_range_meters":28400,"station_id":"ce4bhh92rcd13ifvqfi0","pricing_plan_id":"free"},{"bike_id":"3e07df6e-c6a7-4370-9e96-e83e35ddb138","system_id":"levelo_inurba_marseille","lat":43.27371,"lon":5.36259,"is_reserved":false,"is_disabled":false,"rental_uris":{"android":"levelo://app?vid=3e07df6e-c6a7-4370-9e96-e83e35ddb138","ios":"levelo://app?vid=3e07df6e-c6a7-4370-9e96-e83e35ddb138"},"vehicle_type_id":"4","last_reported":1700402728,"current_range_meters":0,"station_id":"ce4bhbh2rcd13ifvqeo0","pricing_plan_id":"free"},{"bike_id":"6f68c2db-a21d-4142-9e92-9021d84a4552","system_id":"levelo_inurba_marseille","lat":43.275625,"lon":5.384392,"is_reserved":false,"is_disabled":false,"rental_uris":{"android":"levelo://app?vid=6f68c2db-a21d-4142-9e92-9021d84a4552","ios":"levelo://app?vid=6f68c2db-a21d-4142-9e92-9021d84a4552"},"vehicle_type_id":"4","last_reported":1700402728,"current_range_meters":18400,"station_id":"ce4bhh92rcd13ifvqfi0","pricing_plan_id":"free"},{"bike_id":"1ef8a270-0d33-4a85-b724-9e79f38e90e3","system_id":"levelo_inurba_marseille","lat":43.27367,"lon":5.36262,"is_reserved":false,"is_disabled":false,"rental_uris":{"android":"levelo://app?vid=1ef8a270-0d33-4a85-b724-9e79f38e90e3","ios":"levelo://app?vid=1ef8a270-0d33-4a85-b724-9e79f38e90e3"},"vehicle_type_id":"4","last_reported":1700402728,"current_range_meters":0,"station_id":"ce4bhbh2rcd13ifvqeo0","pricing_plan_id":"free"},{"bike_id":"26e38500-cf06-412c-84c9-f57ade123ddf","system_id":"levelo_inurba_marseille","lat":43.27998,"lon":5.40006,"is_reserved":false,"is_disabled":false,"rental_uris":{"android":"levelo://app?vid=26e38500-cf06-412c-84c9-f57ade123ddf","ios":"levelo://app?vid=26e38500-cf06-412c-84c9-f57ade123ddf"},"vehicle_type_id":"4","last_reported":1700402728,"current_range_meters":9600,"station_id":"ce4bho92rcd13ifvqh4g","pricing_plan_id":"free"},{"bike_id":"eafeb385-8734-4d6e-872f-817338dfdd8c","system_id":"levelo_inurba_marseille","lat":43.317121,"lon":5.423936,"is_reserved":false,"is_disabled":false,"rental_uris":{"android":"levelo://app?vid=eafeb385-8734-4d6e-872f-817338dfdd8c","ios":"levelo://app?vid=eafeb385-8734-4d6e-872f-817338dfdd8c"},"vehicle_type_id":"4","last_reported":1700402728,"current_range_meters":20800,"station_id":"ce4bhp92rcd13ifvqhbg","pricing_plan_id":"free"},{"bike_id":"5b576cc4-4596-4dca-9de9-0dcf3da99fc3","system_id":"levelo_inurba_marseille","lat":43.31081,"lon":5.42431,"is_reserved":false,"is_disabled":false,"rental_uris":{"android":"levelo://app?vid=5b576cc4-4596-4dca-9de9-0dcf3da99fc3","ios":"levelo://app?vid=5b576cc4-4596-4dca-9de9-0dcf3da99fc3"},"vehicle_type_id":"4","last_reported":1700402728,"current_range_meters":19200,"station_id":"ce4bhp92rcd13ifvqhag","pricing_plan_id":"free"},{"bike_id":"5d5cd13d-413c-444b-aa5e-fefb4b5b2bae","system_id":"levelo_inurba_marseille","lat":43.31083,"lon":5.42433,"is_reserved":false,"is_disabled":false,"rental_uris":{"android":"levelo://app?vid=5d5cd13d-413c-444b-aa5e-fefb4b5b2bae","ios":"levelo://app?vid=5d5cd13d-413c-444b-aa5e-fefb4b5b2bae"},"vehicle_type_id":"4","last_reported":1700402728,"current_range_meters":11600,"station_id":"ce4bhp92rcd13ifvqhag","pricing_plan_id":"free"},{"bike_id":"93a9c0ff-e9e9-4583-aeb5-1923a31613fb","system_id":"levelo_inurba_marseille","lat":43.273129,"lon":5.390725,"is_reserved":false,"is_disabled":false,"rental_uris":{"android":"levelo://app?vid=93a9c0ff-e9e9-4583-aeb5-1923a31613fb","ios":"levelo://app?vid=93a9c0ff-e9e9-4583-aeb5-1923a31613fb"},"vehicle_type_id":"4","last_reported":1700402728,"current_range_meters":12000,"station_id":"ce4bhgp2rcd13ifvqfe0","pricing_plan_id":"free"},{"bike_id":"179e6fdf-fbc3-40d2-ad73-1b4feb33577d","system_id":"levelo_inurba_marseille","lat":43.274099,"lon":5.394019,"is_reserved":false,"is_disabled":false,"rental_uris":{"android":"levelo://app?vid=179e6fdf-fbc3-40d2-ad73-1b4feb33577d","ios":"levelo://app?vid=179e6fdf-fbc3-40d2-ad73-1b4feb33577d"},"vehicle_type_id":"4","last_reported":1700402728,"current_range_meters":28800,"station_id":"ce4bhdp2rcd13ifvqf20","pricing_plan_id":"free"},{"bike_id":"3e6bb94c-1466-42fe-96ce-f271854cd56e","system_id":"levelo_inurba_marseille","lat":43.304096,"lon":5.425385,"is_reserved":false,"is_disabled":false,"rental_uris":{"android":"levelo://app?vid=3e6bb94c-1466-42fe-96ce-f271854cd56e","ios":"levelo://app?vid=3e6bb94c-1466-42fe-96ce-f271854cd56e"},"vehicle_type_id":"4","last_reported":1700402728,"current_range_meters":10400,"station_id":"ce4bhoh2rcd13ifvqh6g","pricing_plan_id":"free"},{"bike_id":"2a7cc644-8f22-4c4c-a64e-ab107532e50a","system_id":"levelo_inurba_marseille","lat":43.295511,"lon":5.422926,"is_reserved":false,"is_disabled":false,"rental_uris":{"android":"levelo://app?vid=2a7cc644-8f22-4c4c-a64e-ab107532e50a","ios":"levelo://app?vid=2a7cc644-8f22-4c4c-a64e-ab107532e50a"},"vehicle_type_id":"4","last_reported":1700402728,"current_range_meters":26000,"station_id":"ce4bhph2rcd13ifvqhdg","pricing_plan_id":"free"},{"bike_id":"81eceddf-9701-4335-b372-12fab2863d12","system_id":"levelo_inurba_marseille","lat":43.272124,"lon":5.391768,"is_reserved":false,"is_disabled":false,"rental_uris":{"android":"levelo://app?vid=81eceddf-9701-4335-b372-12fab2863d12","ios":"levelo://app?vid=81eceddf-9701-4335-b372-12fab2863d12"},"vehicle_type_id":"4","last_reported":1700402728,"current_range_meters":26400,"station_id":"ce4bhhp2rcd13ifvqfm0","pricing_plan_id":"free"},{"bike_id":"f8f5619a-a183-461d-b100-453fb972fcd4","system_id":"levelo_inurba_marseille","lat":43.272118,"lon":5.391758,"is_reserved":false,"is_disabled":false,"rental_uris":{"android":"levelo://app?vid=f8f5619a-a183-461d-b100-453fb972fcd4","ios":"levelo://app?vid=f8f5619a-a183-461d-b100-453fb972fcd4"},"vehicle_type_id":"4","last_reported":1700402728,"current_range_meters":20000,"station_id":"ce4bhhp2rcd13ifvqfm0","pricing_plan_id":"free"},{"bike_id":"139753b1-0b83-4c3a-80f1-5052bac15461","system_id":"levelo_inurba_marseille","lat":43.27215,"lon":5.39265,"is_reserved":false,"is_disabled":false,"rental_uris":{"android":"levelo://app?vid=139753b1-0b83-4c3a-80f1-5052bac15461","ios":"levelo://app?vid=139753b1-0b83-4c3a-80f1-5052bac15461"},"vehicle_type_id":"4","last_reported":1700402728,"current_range_meters":8000,"station_id":"","pricing_plan_id":"free"},{"bike_id":"fe139271-7817-4645-9ec4-f7eee743e805","system_id":"levelo_inurba_marseille","lat":43.271896,"lon":5.392307,"is_reserved":false,"is_disabled":false,"rental_uris":{"android":"levelo://app?vid=fe139271-7817-4645-9ec4-f7eee743e805","ios":"levelo://app?vid=fe139271-7817-4645-9ec4-f7eee743e805"},"vehicle_type_id":"4","last_reported":1700402728,"current_range_meters":0,"station_id":"","pricing_plan_id":"free"},{"bike_id":"f0ed4531-078e-42fb-a007-3ed80505eb54","system_id":"levelo_inurba_marseille","lat":43.271891,"lon":5.392412,"is_reserved":false,"is_disabled":false,"rental_uris":{"android":"levelo://app?vid=f0ed4531-078e-42fb-a007-3ed80505eb54","ios":"levelo://app?vid=f0ed4531-078e-42fb-a007-3ed80505eb54"},"vehicle_type_id":"4","last_reported":1700402728,"current_range_meters":3200,"station_id":"","pricing_plan_id":"free"},{"bike_id":"2971f9ee-acd8-4343-81ed-e381072a4ef1","system_id":"levelo_inurba_marseille","lat":43.269572,"lon":5.386187,"is_reserved":false,"is_disabled":false,"rental_uris":{"android":"levelo://app?vid=2971f9ee-acd8-4343-81ed-e381072a4ef1","ios":"levelo://app?vid=2971f9ee-acd8-4343-81ed-e381072a4ef1"},"vehicle_type_id":"4","last_reported":1700402728,"current_range_meters":13600,"station_id":"ce4bhh92rcd13ifvqfh0","pricing_plan_id":"free"},{"bike_id":"24f398b9-04ac-414d-9e21-e4b2f0ad060d","system_id":"levelo_inurba_marseille","lat":43.279465,"lon":5.410561,"is_reserved":false,"is_disabled":false,"rental_uris":{"android":"levelo://app?vid=24f398b9-04ac-414d-9e21-e4b2f0ad060d","ios":"levelo://app?vid=24f398b9-04ac-414d-9e21-e4b2f0ad060d"},"vehicle_type_id":"4","last_reported":1700402728,"current_range_meters":16800,"station_id":"ce4bhnp2rcd13ifvqh0g","pricing_plan_id":"free"},{"bike_id":"38074b3b-c9b2-42e2-a767-f14a30a8a3bc","system_id":"levelo_inurba_marseille","lat":43.27933,"lon":5.41043,"is_reserved":false,"is_disabled":false,"rental_uris":{"android":"levelo://app?vid=38074b3b-c9b2-42e2-a767-f14a30a8a3bc","ios":"levelo://app?vid=38074b3b-c9b2-42e2-a767-f14a30a8a3bc"},"vehicle_type_id":"4","last_reported":1700402728,"current_range_meters":24400,"station_id":"ce4bhnp2rcd13ifvqh0g","pricing_plan_id":"free"},{"bike_id":"0b743d35-efc0-4383-9f5d-6c9dddc9d3a0","system_id":"levelo_inurba_marseille","lat":43.26555,"lon":5.37285,"is_reserved":false,"is_disabled":false,"rental_uris":{"android":"levelo://app?vid=0b743d35-efc0-4383-9f5d-6c9dddc9d3a0","ios":"levelo://app?vid=0b743d35-efc0-4383-9f5d-6c9dddc9d3a0"},"vehicle_type_id":"4","last_reported":1700402728,"current_range_meters":400,"station_id":"ce4bhg12rcd13ifvqf70","pricing_plan_id":"free"},{"bike_id":"d53e8790-9686-49e7-b75c-dd2ad3ddad2c","system_id":"levelo_inurba_marseille","lat":43.26549,"lon":5.37288,"is_reserved":false,"is_disabled":false,"rental_uris":{"android":"levelo://app?vid=d53e8790-9686-49e7-b75c-dd2ad3ddad2c","ios":"levelo://app?vid=d53e8790-9686-49e7-b75c-dd2ad3ddad2c"},"vehicle_type_id":"4","last_reported":1700402728,"current_range_meters":2800,"station_id":"ce4bhg12rcd13ifvqf70","pricing_plan_id":"free"},{"bike_id":"c7758cb2-2a45-4f89-aa5c-0e391d845c76","system_id":"levelo_inurba_marseille","lat":43.326053,"lon":5.429943,"is_reserved":false,"is_disabled":false,"rental_uris":{"android":"levelo://app?vid=c7758cb2-2a45-4f89-aa5c-0e391d845c76","ios":"levelo://app?vid=c7758cb2-2a45-4f89-aa5c-0e391d845c76"},"vehicle_type_id":"4","last_reported":1700402728,"current_range_meters":400,"station_id":"","pricing_plan_id":"free"},{"bike_id":"42871d3b-8c03-490f-baf1-f4b57c44a331","system_id":"levelo_inurba_marseille","lat":43.326966,"lon":5.430232,"is_reserved":false,"is_disabled":false,"rental_uris":{"android":"levelo://app?vid=42871d3b-8c03-490f-baf1-f4b57c44a331","ios":"levelo://app?vid=42871d3b-8c03-490f-baf1-f4b57c44a331"},"vehicle_type_id":"4","last_reported":1700402728,"current_range_meters":17200,"station_id":"","pricing_plan_id":"free"},{"bike_id":"87be04d4-b68d-4ca4-bc75-5865077b920f","system_id":"levelo_inurba_marseille","lat":43.288468,"lon":5.426327,"is_reserved":false,"is_disabled":false,"rental_uris":{"android":"levelo://app?vid=87be04d4-b68d-4ca4-bc75-5865077b920f","ios":"levelo://app?vid=87be04d4-b68d-4ca4-bc75-5865077b920f"},"vehicle_type_id":"4","last_reported":1700402728,"current_range_meters":2800,"station_id":"","pricing_plan_id":"free"},{"bike_id":"f7fbcf96-85d5-481b-bec9-968b3ef5bdaf","system_id":"levelo_inurba_marseille","lat":43.307994,"lon":5.435264,"is_reserved":false,"is_disabled":false,"rental_uris":{"android":"levelo://app?vid=f7fbcf96-85d5-481b-bec9-968b3ef5bdaf","ios":"levelo://app?vid=f7fbcf96-85d5-481b-bec9-968b3ef5bdaf"},"vehicle_type_id":"4","last_reported":1700402728,"current_range_meters":0,"station_id":"ce4bhph2rcd13ifvqheg","pricing_plan_id":"free"},{"bike_id":"a7639f55-f55a-461e-b582-e922483eeee8","system_id":"levelo_inurba_marseille","lat":43.26569,"lon":5.39011,"is_reserved":false,"is_disabled":false,"rental_uris":{"android":"levelo://app?vid=a7639f55-f55a-461e-b582-e922483eeee8","ios":"levelo://app?vid=a7639f55-f55a-461e-b582-e922483eeee8"},"vehicle_type_id":"4","last_reported":1700402728,"current_range_meters":0,"station_id":"ce4bhe12rcd13ifvqf30","pricing_plan_id":"free"},{"bike_id":"c149f5e8-2933-4a5d-abe9-87cfb2092405","system_id":"levelo_inurba_marseille","lat":43.26565,"lon":5.3901,"is_reserved":false,"is_disabled":false,"rental_uris":{"android":"levelo://app?vid=c149f5e8-2933-4a5d-abe9-87cfb2092405","ios":"levelo://app?vid=c149f5e8-2933-4a5d-abe9-87cfb2092405"},"vehicle_type_id":"4","last_reported":1700402728,"current_range_meters":19600,"station_id":"ce4bhe12rcd13ifvqf30","pricing_plan_id":"free"},{"bike_id":"eefdfceb-fed1-4fc0-af2f-9be38a2f5e92","system_id":"levelo_inurba_marseille","lat":43.26561,"lon":5.39005,"is_reserved":false,"is_disabled":false,"rental_uris":{"android":"levelo://app?vid=eefdfceb-fed1-4fc0-af2f-9be38a2f5e92","ios":"levelo://app?vid=eefdfceb-fed1-4fc0-af2f-9be38a2f5e92"},"vehicle_type_id":"4","last_reported":1700402728,"current_range_meters":0,"station_id":"ce4bhe12rcd13ifvqf30","pricing_plan_id":"free"},{"bike_id":"b1f0427e-1603-4c71-924b-1f304be264ad","system_id":"levelo_inurba_marseille","lat":43.269449,"lon":5.402534,"is_reserved":false,"is_disabled":false,"rental_uris":{"android":"levelo://app?vid=b1f0427e-1603-4c71-924b-1f304be264ad","ios":"levelo://app?vid=b1f0427e-1603-4c71-924b-1f304be264ad"},"vehicle_type_id":"4","last_reported":1700402728,"current_range_meters":27600,"station_id":"","pricing_plan_id":"free"},{"bike_id":"0fe65d7a-e34b-4f18-a9e6-942b51edd37c","system_id":"levelo_inurba_marseille","lat":43.26942,"lon":5.40248,"is_reserved":false,"is_disabled":false,"rental_uris":{"android":"levelo://app?vid=0fe65d7a-e34b-4f18-a9e6-942b51edd37c","ios":"levelo://app?vid=0fe65d7a-e34b-4f18-a9e6-942b51edd37c"},"vehicle_type_id":"4","last_reported":1700402728,"current_range_meters":800,"station_id":"cjm6bp8fraef2m0cb0m0","pricing_plan_id":"free"},{"bike_id":"497af272-322f-4d72-b35b-970014f5dd0a","system_id":"levelo_inurba_marseille","lat":43.261782,"lon":5.374515,"is_reserved":false,"is_disabled":false,"rental_uris":{"android":"levelo://app?vid=497af272-322f-4d72-b35b-970014f5dd0a","ios":"levelo://app?vid=497af272-322f-4d72-b35b-970014f5dd0a"},"vehicle_type_id":"4","last_reported":1700402728,"current_range_meters":1200,"station_id":"ce4bhgp2rcd13ifvqfc0","pricing_plan_id":"free"},{"bike_id":"867e2db1-0e8b-4b71-9069-2f7751bfe819","system_id":"levelo_inurba_marseille","lat":43.271368,"lon":5.40928,"is_reserved":false,"is_disabled":false,"rental_uris":{"android":"levelo://app?vid=867e2db1-0e8b-4b71-9069-2f7751bfe819","ios":"levelo://app?vid=867e2db1-0e8b-4b71-9069-2f7751bfe819"},"vehicle_type_id":"4","last_reported":1700402728,"current_range_meters":6800,"station_id":"ce4bhl12rcd13ifvqgf0","pricing_plan_id":"free"},{"bike_id":"1941c125-4653-4a9f-94a6-3c250ce612bb","system_id":"levelo_inurba_marseille","lat":43.271368,"lon":5.40928,"is_reserved":false,"is_disabled":false,"rental_uris":{"android":"levelo://app?vid=1941c125-4653-4a9f-94a6-3c250ce612bb","ios":"levelo://app?vid=1941c125-4653-4a9f-94a6-3c250ce612bb"},"vehicle_type_id":"4","last_reported":1700402728,"current_range_meters":2400,"station_id":"ce4bhl12rcd13ifvqgf0","pricing_plan_id":"free"},{"bike_id":"0fd410fc-fdce-404b-8c48-bb3f556ee682","system_id":"levelo_inurba_marseille","lat":43.271368,"lon":5.40928,"is_reserved":false,"is_disabled":false,"rental_uris":{"android":"levelo://app?vid=0fd410fc-fdce-404b-8c48-bb3f556ee682","ios":"levelo://app?vid=0fd410fc-fdce-404b-8c48-bb3f556ee682"},"vehicle_type_id":"4","last_reported":1700402728,"current_range_meters":19200,"station_id":"ce4bhl12rcd13ifvqgf0","pricing_plan_id":"free"},{"bike_id":"74ce853b-0d8b-42c9-81c8-17a7564a4b34","system_id":"levelo_inurba_marseille","lat":43.31725,"lon":5.43786,"is_reserved":false,"is_disabled":false,"rental_uris":{"android":"levelo://app?vid=74ce853b-0d8b-42c9-81c8-17a7564a4b34","ios":"levelo://app?vid=74ce853b-0d8b-42c9-81c8-17a7564a4b34"},"vehicle_type_id":"4","last_reported":1700402728,"current_range_meters":14400,"station_id":"","pricing_plan_id":"free"},{"bike_id":"42d76fc2-9af7-4f8c-8bfb-3cb4df2ffa11","system_id":"levelo_inurba_marseille","lat":43.298768,"lon":5.43643,"is_reserved":false,"is_disabled":false,"rental_uris":{"android":"levelo://app?vid=42d76fc2-9af7-4f8c-8bfb-3cb4df2ffa11","ios":"levelo://app?vid=42d76fc2-9af7-4f8c-8bfb-3cb4df2ffa11"},"vehicle_type_id":"4","last_reported":1700402728,"current_range_meters":1200,"station_id":"ce4bhpp2rcd13ifvqhfg","pricing_plan_id":"free"},{"bike_id":"6c5f5458-fca8-47f9-902e-f08cba7bbcaa","system_id":"levelo_inurba_marseille","lat":43.298768,"lon":5.43643,"is_reserved":false,"is_disabled":false,"rental_uris":{"android":"levelo://app?vid=6c5f5458-fca8-47f9-902e-f08cba7bbcaa","ios":"levelo://app?vid=6c5f5458-fca8-47f9-902e-f08cba7bbcaa"},"vehicle_type_id":"4","last_reported":1700402728,"current_range_meters":13200,"station_id":"ce4bhpp2rcd13ifvqhfg","pricing_plan_id":"free"},{"bike_id":"eceaa0f3-52ef-4d0d-b422-04c8e585a271","system_id":"levelo_inurba_marseille","lat":43.28149,"lon":5.42642,"is_reserved":false,"is_disabled":false,"rental_uris":{"android":"levelo://app?vid=eceaa0f3-52ef-4d0d-b422-04c8e585a271","ios":"levelo://app?vid=eceaa0f3-52ef-4d0d-b422-04c8e585a271"},"vehicle_type_id":"4","last_reported":1700402728,"current_range_meters":0,"station_id":"ce4bhnh2rcd13ifvqgug","pricing_plan_id":"free"},{"bike_id":"0db002b5-dbbf-453b-8ea4-13f11976d873","system_id":"levelo_inurba_marseille","lat":43.272116,"lon":5.391747,"is_reserved":false,"is_disabled":false,"rental_uris":{"android":"levelo://app?vid=0db002b5-dbbf-453b-8ea4-13f11976d873","ios":"levelo://app?vid=0db002b5-dbbf-453b-8ea4-13f11976d873"},"vehicle_type_id":"4","last_reported":1700402728,"current_range_meters":8000,"station_id":"ce4bhhp2rcd13ifvqfm0","pricing_plan_id":"free"},{"bike_id":"5f153f02-c4c9-456b-aa48-aeca587f3139","system_id":"levelo_inurba_marseille","lat":43.25557,"lon":5.37634,"is_reserved":false,"is_disabled":false,"rental_uris":{"android":"levelo://app?vid=5f153f02-c4c9-456b-aa48-aeca587f3139","ios":"levelo://app?vid=5f153f02-c4c9-456b-aa48-aeca587f3139"},"vehicle_type_id":"4","last_reported":1700402728,"current_range_meters":21200,"station_id":"","pricing_plan_id":"free"},{"bike_id":"378372a6-bf52-4788-b79b-55a67e3dff09","system_id":"levelo_inurba_marseille","lat":43.254945,"lon":5.376454,"is_reserved":false,"is_disabled":false,"rental_uris":{"android":"levelo://app?vid=378372a6-bf52-4788-b79b-55a67e3dff09","ios":"levelo://app?vid=378372a6-bf52-4788-b79b-55a67e3dff09"},"vehicle_type_id":"4","last_reported":1700402728,"current_range_meters":10400,"station_id":"ce4bhh12rcd13ifvqff0","pricing_plan_id":"free"},{"bike_id":"ee134dca-0e98-4e91-bcab-d847798c398a","system_id":"levelo_inurba_marseille","lat":43.254947,"lon":5.376454,"is_reserved":false,"is_disabled":false,"rental_uris":{"android":"levelo://app?vid=ee134dca-0e98-4e91-bcab-d847798c398a","ios":"levelo://app?vid=ee134dca-0e98-4e91-bcab-d847798c398a"},"vehicle_type_id":"4","last_reported":1700402728,"current_range_meters":0,"station_id":"ce4bhh12rcd13ifvqff0","pricing_plan_id":"free"},{"bike_id":"72d80650-69dc-42fa-a524-f303e1437b9a","system_id":"levelo_inurba_marseille","lat":43.254945,"lon":5.376454,"is_reserved":false,"is_disabled":false,"rental_uris":{"android":"levelo://app?vid=72d80650-69dc-42fa-a524-f303e1437b9a","ios":"levelo://app?vid=72d80650-69dc-42fa-a524-f303e1437b9a"},"vehicle_type_id":"4","last_reported":1700402728,"current_range_meters":0,"station_id":"ce4bhh12rcd13ifvqff0","pricing_plan_id":"free"},{"bike_id":"a4cbb8d1-1d1f-4fdb-a0ae-f83522ac6523","system_id":"levelo_inurba_marseille","lat":43.270721,"lon":5.422764,"is_reserved":false,"is_disabled":false,"rental_uris":{"android":"levelo://app?vid=a4cbb8d1-1d1f-4fdb-a0ae-f83522ac6523","ios":"levelo://app?vid=a4cbb8d1-1d1f-4fdb-a0ae-f83522ac6523"},"vehicle_type_id":"4","last_reported":1700402728,"current_range_meters":9600,"station_id":"ce4bhk92rcd13ifvqgb0","pricing_plan_id":"free"},{"bike_id":"84a6f73d-816c-4926-8a2c-d076b04c8694","system_id":"levelo_inurba_marseille","lat":43.270721,"lon":5.422764,"is_reserved":false,"is_disabled":false,"rental_uris":{"android":"levelo://app?vid=84a6f73d-816c-4926-8a2c-d076b04c8694","ios":"levelo://app?vid=84a6f73d-816c-4926-8a2c-d076b04c8694"},"vehicle_type_id":"4","last_reported":1700402728,"current_range_meters":8800,"station_id":"ce4bhk92rcd13ifvqgb0","pricing_plan_id":"free"},{"bike_id":"b621bb98-ccae-42be-8e20-6221290ae379","system_id":"levelo_inurba_marseille","lat":43.259424,"lon":5.409033,"is_reserved":false,"is_disabled":false,"rental_uris":{"android":"levelo://app?vid=b621bb98-ccae-42be-8e20-6221290ae379","ios":"levelo://app?vid=b621bb98-ccae-42be-8e20-6221290ae379"},"vehicle_type_id":"4","last_reported":1700402728,"current_range_meters":0,"station_id":"","pricing_plan_id":"free"},{"bike_id":"653a93dc-fdc8-45b7-9661-c0469e70ba2a","system_id":"levelo_inurba_marseille","lat":43.25931,"lon":5.40909,"is_reserved":false,"is_disabled":false,"rental_uris":{"android":"levelo://app?vid=653a93dc-fdc8-45b7-9661-c0469e70ba2a","ios":"levelo://app?vid=653a93dc-fdc8-45b7-9661-c0469e70ba2a"},"vehicle_type_id":"4","last_reported":1700402728,"current_range_meters":400,"station_id":"ce4bhm92rcd13ifvqglg","pricing_plan_id":"free"},{"bike_id":"eda73509-5f55-4b2d-95fc-67f3395f85c0","system_id":"levelo_inurba_marseille","lat":43.25723,"lon":5.41108,"is_reserved":false,"is_disabled":false,"rental_uris":{"android":"levelo://app?vid=eda73509-5f55-4b2d-95fc-67f3395f85c0","ios":"levelo://app?vid=eda73509-5f55-4b2d-95fc-67f3395f85c0"},"vehicle_type_id":"4","last_reported":1700402728,"current_range_meters":0,"station_id":"ce4bhkp2rcd13ifvqgd0","pricing_plan_id":"free"},{"bike_id":"805dd61c-d66f-420e-ac81-1f7bbfa243ee","system_id":"levelo_inurba_marseille","lat":43.246461,"lon":5.389014,"is_reserved":false,"is_disabled":false,"rental_uris":{"android":"levelo://app?vid=805dd61c-d66f-420e-ac81-1f7bbfa243ee","ios":"levelo://app?vid=805dd61c-d66f-420e-ac81-1f7bbfa243ee"},"vehicle_type_id":"4","last_reported":1700402728,"current_range_meters":11600,"station_id":"ce4bhg12rcd13ifvqf60","pricing_plan_id":"free"},{"bike_id":"011e8fd4-438e-447f-b78d-6aceaa0c9912","system_id":"levelo_inurba_marseille","lat":43.24648,"lon":5.38892,"is_reserved":false,"is_disabled":false,"rental_uris":{"android":"levelo://app?vid=011e8fd4-438e-447f-b78d-6aceaa0c9912","ios":"levelo://app?vid=011e8fd4-438e-447f-b78d-6aceaa0c9912"},"vehicle_type_id":"4","last_reported":1700402728,"current_range_meters":4400,"station_id":"ce4bhg12rcd13ifvqf60","pricing_plan_id":"free"},{"bike_id":"a8d08ad5-49c3-4d38-9418-d7923a049cc9","system_id":"levelo_inurba_marseille","lat":43.239588,"lon":5.366238,"is_reserved":false,"is_disabled":false,"rental_uris":{"android":"levelo://app?vid=a8d08ad5-49c3-4d38-9418-d7923a049cc9","ios":"levelo://app?vid=a8d08ad5-49c3-4d38-9418-d7923a049cc9"},"vehicle_type_id":"4","last_reported":1700402728,"current_range_meters":10000,"station_id":"ce4bhi12rcd13ifvqfp0","pricing_plan_id":"free"},{"bike_id":"fbe432be-da96-4a7f-8939-b7590401a7a6","system_id":"levelo_inurba_marseille","lat":43.239588,"lon":5.366238,"is_reserved":false,"is_disabled":false,"rental_uris":{"android":"levelo://app?vid=fbe432be-da96-4a7f-8939-b7590401a7a6","ios":"levelo://app?vid=fbe432be-da96-4a7f-8939-b7590401a7a6"},"vehicle_type_id":"4","last_reported":1700402728,"current_range_meters":17600,"station_id":"ce4bhi12rcd13ifvqfp0","pricing_plan_id":"free"},{"bike_id":"8fdd7d2e-025a-41d3-9ddd-9cbaba7c681f","system_id":"levelo_inurba_marseille","lat":43.239588,"lon":5.366238,"is_reserved":false,"is_disabled":false,"rental_uris":{"android":"levelo://app?vid=8fdd7d2e-025a-41d3-9ddd-9cbaba7c681f","ios":"levelo://app?vid=8fdd7d2e-025a-41d3-9ddd-9cbaba7c681f"},"vehicle_type_id":"4","last_reported":1700402728,"current_range_meters":3600,"station_id":"ce4bhi12rcd13ifvqfp0","pricing_plan_id":"free"},{"bike_id":"4370869b-0c59-4e1b-b4c7-59bf3a7bc50e","system_id":"levelo_inurba_marseille","lat":43.24176,"lon":5.39726,"is_reserved":false,"is_disabled":false,"rental_uris":{"android":"levelo://app?vid=4370869b-0c59-4e1b-b4c7-59bf3a7bc50e","ios":"levelo://app?vid=4370869b-0c59-4e1b-b4c7-59bf3a7bc50e"},"vehicle_type_id":"4","last_reported":1700402728,"current_range_meters":13200,"station_id":"ce4bhn12rcd13ifvqgpg","pricing_plan_id":"free"},{"bike_id":"dbfb4ce1-b733-4395-b31f-9c7b7abdcf84","system_id":"levelo_inurba_marseille","lat":43.231923,"lon":5.355545,"is_reserved":false,"is_disabled":false,"rental_uris":{"android":"levelo://app?vid=dbfb4ce1-b733-4395-b31f-9c7b7abdcf84","ios":"levelo://app?vid=dbfb4ce1-b733-4395-b31f-9c7b7abdcf84"},"vehicle_type_id":"4","last_reported":1700402728,"current_range_meters":10800,"station_id":"ce4bhu92rcd13ifvqi70","pricing_plan_id":"free"},{"bike_id":"e4e0f617-756a-494c-8ecd-18e3c4806a7b","system_id":"levelo_inurba_marseille","lat":43.231923,"lon":5.355545,"is_reserved":false,"is_disabled":false,"rental_uris":{"android":"levelo://app?vid=e4e0f617-756a-494c-8ecd-18e3c4806a7b","ios":"levelo://app?vid=e4e0f617-756a-494c-8ecd-18e3c4806a7b"},"vehicle_type_id":"4","last_reported":1700402728,"current_range_meters":16400,"station_id":"ce4bhu92rcd13ifvqi70","pricing_plan_id":"free"},{"bike_id":"6f9c6135-4182-4dda-937a-c52b38c2d1f6","system_id":"levelo_inurba_marseille","lat":43.231923,"lon":5.355545,"is_reserved":false,"is_disabled":false,"rental_uris":{"android":"levelo://app?vid=6f9c6135-4182-4dda-937a-c52b38c2d1f6","ios":"levelo://app?vid=6f9c6135-4182-4dda-937a-c52b38c2d1f6"},"vehicle_type_id":"4","last_reported":1700402728,"current_range_meters":5200,"station_id":"ce4bhu92rcd13ifvqi70","pricing_plan_id":"free"},{"bike_id":"4fc7e59d-8508-422c-8560-7d42e117611d","system_id":"levelo_inurba_marseille","lat":43.231919,"lon":5.355532,"is_reserved":false,"is_disabled":false,"rental_uris":{"android":"levelo://app?vid=4fc7e59d-8508-422c-8560-7d42e117611d","ios":"levelo://app?vid=4fc7e59d-8508-422c-8560-7d42e117611d"},"vehicle_type_id":"4","last_reported":1700402728,"current_range_meters":31600,"station_id":"ce4bhu92rcd13ifvqi70","pricing_plan_id":"free"},{"bike_id":"efe9f44b-467d-42d3-8df0-08df4fdbb017","system_id":"levelo_inurba_marseille","lat":43.231923,"lon":5.355545,"is_reserved":false,"is_disabled":false,"rental_uris":{"android":"levelo://app?vid=efe9f44b-467d-42d3-8df0-08df4fdbb017","ios":"levelo://app?vid=efe9f44b-467d-42d3-8df0-08df4fdbb017"},"vehicle_type_id":"4","last_reported":1700402728,"current_range_meters":23600,"station_id":"ce4bhu92rcd13ifvqi70","pricing_plan_id":"free"},{"bike_id":"a811d707-b06c-42ef-a870-5ad21f1d49ad","system_id":"levelo_inurba_marseille","lat":43.231923,"lon":5.355545,"is_reserved":false,"is_disabled":false,"rental_uris":{"android":"levelo://app?vid=a811d707-b06c-42ef-a870-5ad21f1d49ad","ios":"levelo://app?vid=a811d707-b06c-42ef-a870-5ad21f1d49ad"},"vehicle_type_id":"4","last_reported":1700402728,"current_range_meters":15200,"station_id":"ce4bhu92rcd13ifvqi70","pricing_plan_id":"free"},{"bike_id":"6795abf4-ab15-454d-86c5-81b14e2debba","system_id":"levelo_inurba_marseille","lat":43.231919,"lon":5.355532,"is_reserved":false,"is_disabled":false,"rental_uris":{"android":"levelo://app?vid=6795abf4-ab15-454d-86c5-81b14e2debba","ios":"levelo://app?vid=6795abf4-ab15-454d-86c5-81b14e2debba"},"vehicle_type_id":"4","last_reported":1700402728,"current_range_meters":800,"station_id":"ce4bhu92rcd13ifvqi70","pricing_plan_id":"free"},{"bike_id":"d8457044-e11e-4159-85e8-e12c29610982","system_id":"levelo_inurba_marseille","lat":43.231919,"lon":5.355532,"is_reserved":false,"is_disabled":false,"rental_uris":{"android":"levelo://app?vid=d8457044-e11e-4159-85e8-e12c29610982","ios":"levelo://app?vid=d8457044-e11e-4159-85e8-e12c29610982"},"vehicle_type_id":"4","last_reported":1700402728,"current_range_meters":10400,"station_id":"ce4bhu92rcd13ifvqi70","pricing_plan_id":"free"},{"bike_id":"b3f28fa0-47fb-43fd-82e6-2a2ef1ac5db0","system_id":"levelo_inurba_marseille","lat":43.231923,"lon":5.355545,"is_reserved":false,"is_disabled":false,"rental_uris":{"android":"levelo://app?vid=b3f28fa0-47fb-43fd-82e6-2a2ef1ac5db0","ios":"levelo://app?vid=b3f28fa0-47fb-43fd-82e6-2a2ef1ac5db0"},"vehicle_type_id":"4","last_reported":1700402728,"current_range_meters":21600,"station_id":"ce4bhu92rcd13ifvqi70","pricing_plan_id":"free"},{"bike_id":"8455f21a-e0e1-4873-89da-72b3d3b154e0","system_id":"levelo_inurba_marseille","lat":43.231919,"lon":5.355532,"is_reserved":false,"is_disabled":false,"rental_uris":{"android":"levelo://app?vid=8455f21a-e0e1-4873-89da-72b3d3b154e0","ios":"levelo://app?vid=8455f21a-e0e1-4873-89da-72b3d3b154e0"},"vehicle_type_id":"4","last_reported":1700402728,"current_range_meters":31600,"station_id":"ce4bhu92rcd13ifvqi70","pricing_plan_id":"free"},{"bike_id":"9c0d77bd-3dbd-475c-a364-7b66f096a80e","system_id":"levelo_inurba_marseille","lat":43.231923,"lon":5.355545,"is_reserved":false,"is_disabled":false,"rental_uris":{"android":"levelo://app?vid=9c0d77bd-3dbd-475c-a364-7b66f096a80e","ios":"levelo://app?vid=9c0d77bd-3dbd-475c-a364-7b66f096a80e"},"vehicle_type_id":"4","last_reported":1700402728,"current_range_meters":1200,"station_id":"ce4bhu92rcd13ifvqi70","pricing_plan_id":"free"},{"bike_id":"e5457ee5-4562-42f5-87e4-f39fc52d5dd8","system_id":"levelo_inurba_marseille","lat":43.231919,"lon":5.355532,"is_reserved":false,"is_disabled":false,"rental_uris":{"android":"levelo://app?vid=e5457ee5-4562-42f5-87e4-f39fc52d5dd8","ios":"levelo://app?vid=e5457ee5-4562-42f5-87e4-f39fc52d5dd8"},"vehicle_type_id":"4","last_reported":1700402728,"current_range_meters":23200,"station_id":"ce4bhu92rcd13ifvqi70","pricing_plan_id":"free"},{"bike_id":"662f058d-46b1-4787-b52a-d29e98a28779","system_id":"levelo_inurba_marseille","lat":43.231919,"lon":5.355532,"is_reserved":false,"is_disabled":false,"rental_uris":{"android":"levelo://app?vid=662f058d-46b1-4787-b52a-d29e98a28779","ios":"levelo://app?vid=662f058d-46b1-4787-b52a-d29e98a28779"},"vehicle_type_id":"4","last_reported":1700402728,"current_range_meters":31600,"station_id":"ce4bhu92rcd13ifvqi70","pricing_plan_id":"free"},{"bike_id":"6ee4b9c7-9750-49e6-a7a2-47c4a6e1d116","system_id":"levelo_inurba_marseille","lat":43.231923,"lon":5.355545,"is_reserved":false,"is_disabled":false,"rental_uris":{"android":"levelo://app?vid=6ee4b9c7-9750-49e6-a7a2-47c4a6e1d116","ios":"levelo://app?vid=6ee4b9c7-9750-49e6-a7a2-47c4a6e1d116"},"vehicle_type_id":"4","last_reported":1700402728,"current_range_meters":8000,"station_id":"ce4bhu92rcd13ifvqi70","pricing_plan_id":"free"},{"bike_id":"37416442-308e-4dea-bd51-2ca12166bbc7","system_id":"levelo_inurba_marseille","lat":43.231923,"lon":5.355545,"is_reserved":false,"is_disabled":false,"rental_uris":{"android":"levelo://app?vid=37416442-308e-4dea-bd51-2ca12166bbc7","ios":"levelo://app?vid=37416442-308e-4dea-bd51-2ca12166bbc7"},"vehicle_type_id":"4","last_reported":1700402728,"current_range_meters":24400,"station_id":"ce4bhu92rcd13ifvqi70","pricing_plan_id":"free"},{"bike_id":"7a52b81c-52a8-4776-8fd1-69fdad3dee5e","system_id":"levelo_inurba_marseille","lat":43.231923,"lon":5.355545,"is_reserved":false,"is_disabled":false,"rental_uris":{"android":"levelo://app?vid=7a52b81c-52a8-4776-8fd1-69fdad3dee5e","ios":"levelo://app?vid=7a52b81c-52a8-4776-8fd1-69fdad3dee5e"},"vehicle_type_id":"4","last_reported":1700402728,"current_range_meters":6400,"station_id":"ce4bhu92rcd13ifvqi70","pricing_plan_id":"free"},{"bike_id":"ffa9bbb0-2049-48dc-9860-c3476c934f4b","system_id":"levelo_inurba_marseille","lat":43.231923,"lon":5.355545,"is_reserved":false,"is_disabled":false,"rental_uris":{"android":"levelo://app?vid=ffa9bbb0-2049-48dc-9860-c3476c934f4b","ios":"levelo://app?vid=ffa9bbb0-2049-48dc-9860-c3476c934f4b"},"vehicle_type_id":"4","last_reported":1700402728,"current_range_meters":16800,"station_id":"ce4bhu92rcd13ifvqi70","pricing_plan_id":"free"},{"bike_id":"8a62ccf4-93c4-408c-8efe-bc9afcdd6a80","system_id":"levelo_inurba_marseille","lat":43.231923,"lon":5.355545,"is_reserved":false,"is_disabled":false,"rental_uris":{"android":"levelo://app?vid=8a62ccf4-93c4-408c-8efe-bc9afcdd6a80","ios":"levelo://app?vid=8a62ccf4-93c4-408c-8efe-bc9afcdd6a80"},"vehicle_type_id":"4","last_reported":1700402728,"current_range_meters":24800,"station_id":"ce4bhu92rcd13ifvqi70","pricing_plan_id":"free"},{"bike_id":"d4b8beac-e21d-4a32-bc13-6a5c65e2b33e","system_id":"levelo_inurba_marseille","lat":43.231923,"lon":5.355545,"is_reserved":false,"is_disabled":false,"rental_uris":{"android":"levelo://app?vid=d4b8beac-e21d-4a32-bc13-6a5c65e2b33e","ios":"levelo://app?vid=d4b8beac-e21d-4a32-bc13-6a5c65e2b33e"},"vehicle_type_id":"4","last_reported":1700402728,"current_range_meters":12400,"station_id":"ce4bhu92rcd13ifvqi70","pricing_plan_id":"free"},{"bike_id":"ec62c682-abfa-481a-bb37-e702a24bba76","system_id":"levelo_inurba_marseille","lat":43.231923,"lon":5.355545,"is_reserved":false,"is_disabled":false,"rental_uris":{"android":"levelo://app?vid=ec62c682-abfa-481a-bb37-e702a24bba76","ios":"levelo://app?vid=ec62c682-abfa-481a-bb37-e702a24bba76"},"vehicle_type_id":"4","last_reported":1700402728,"current_range_meters":17200,"station_id":"ce4bhu92rcd13ifvqi70","pricing_plan_id":"free"},{"bike_id":"d9fd4f8d-322c-45fe-b651-4a9394dd3741","system_id":"levelo_inurba_marseille","lat":43.231923,"lon":5.355545,"is_reserved":false,"is_disabled":false,"rental_uris":{"android":"levelo://app?vid=d9fd4f8d-322c-45fe-b651-4a9394dd3741","ios":"levelo://app?vid=d9fd4f8d-322c-45fe-b651-4a9394dd3741"},"vehicle_type_id":"4","last_reported":1700402728,"current_range_meters":30800,"station_id":"ce4bhu92rcd13ifvqi70","pricing_plan_id":"free"},{"bike_id":"e90e6dbe-4103-4584-a33a-a878da9cf267","system_id":"levelo_inurba_marseille","lat":43.231923,"lon":5.355545,"is_reserved":false,"is_disabled":false,"rental_uris":{"android":"levelo://app?vid=e90e6dbe-4103-4584-a33a-a878da9cf267","ios":"levelo://app?vid=e90e6dbe-4103-4584-a33a-a878da9cf267"},"vehicle_type_id":"4","last_reported":1700402728,"current_range_meters":22800,"station_id":"ce4bhu92rcd13ifvqi70","pricing_plan_id":"free"},{"bike_id":"d66f08d8-b6e5-4ad9-be4a-5cd3998403dc","system_id":"levelo_inurba_marseille","lat":43.231919,"lon":5.355532,"is_reserved":false,"is_disabled":false,"rental_uris":{"android":"levelo://app?vid=d66f08d8-b6e5-4ad9-be4a-5cd3998403dc","ios":"levelo://app?vid=d66f08d8-b6e5-4ad9-be4a-5cd3998403dc"},"vehicle_type_id":"4","last_reported":1700402728,"current_range_meters":13600,"station_id":"ce4bhu92rcd13ifvqi70","pricing_plan_id":"free"},{"bike_id":"3541cd34-4053-41de-80a6-bc28dda6e812","system_id":"levelo_inurba_marseille","lat":43.231923,"lon":5.355545,"is_reserved":false,"is_disabled":false,"rental_uris":{"android":"levelo://app?vid=3541cd34-4053-41de-80a6-bc28dda6e812","ios":"levelo://app?vid=3541cd34-4053-41de-80a6-bc28dda6e812"},"vehicle_type_id":"4","last_reported":1700402728,"current_range_meters":0,"station_id":"ce4bhu92rcd13ifvqi70","pricing_plan_id":"free"},{"bike_id":"18a2742a-f4bf-49a9-9e2a-88eea5110e55","system_id":"levelo_inurba_marseille","lat":43.231923,"lon":5.355545,"is_reserved":false,"is_disabled":false,"rental_uris":{"android":"levelo://app?vid=18a2742a-f4bf-49a9-9e2a-88eea5110e55","ios":"levelo://app?vid=18a2742a-f4bf-49a9-9e2a-88eea5110e55"},"vehicle_type_id":"4","last_reported":1700402728,"current_range_meters":3200,"station_id":"ce4bhu92rcd13ifvqi70","pricing_plan_id":"free"},{"bike_id":"73825668-897d-4ba7-8138-a1757218e46a","system_id":"levelo_inurba_marseille","lat":43.231923,"lon":5.355545,"is_reserved":false,"is_disabled":false,"rental_uris":{"android":"levelo://app?vid=73825668-897d-4ba7-8138-a1757218e46a","ios":"levelo://app?vid=73825668-897d-4ba7-8138-a1757218e46a"},"vehicle_type_id":"4","last_reported":1700402728,"current_range_meters":20800,"station_id":"ce4bhu92rcd13ifvqi70","pricing_plan_id":"free"},{"bike_id":"da9c9aea-c3bc-4a71-a581-942883b36e7a","system_id":"levelo_inurba_marseille","lat":43.231923,"lon":5.355545,"is_reserved":false,"is_disabled":false,"rental_uris":{"android":"levelo://app?vid=da9c9aea-c3bc-4a71-a581-942883b36e7a","ios":"levelo://app?vid=da9c9aea-c3bc-4a71-a581-942883b36e7a"},"vehicle_type_id":"4","last_reported":1700402728,"current_range_meters":20800,"station_id":"ce4bhu92rcd13ifvqi70","pricing_plan_id":"free"},{"bike_id":"adac1971-5e73-41e6-9ade-b5ded0f026e7","system_id":"levelo_inurba_marseille","lat":43.231793,"lon":5.400044,"is_reserved":false,"is_disabled":false,"rental_uris":{"android":"levelo://app?vid=adac1971-5e73-41e6-9ade-b5ded0f026e7","ios":"levelo://app?vid=adac1971-5e73-41e6-9ade-b5ded0f026e7"},"vehicle_type_id":"4","last_reported":1700402728,"current_range_meters":30800,"station_id":"ce4bhn12rcd13ifvqgqg","pricing_plan_id":"free"},{"bike_id":"5d8316f4-9b3b-4f22-8b0a-d975b6faa1c0","system_id":"levelo_inurba_marseille","lat":43.231793,"lon":5.400044,"is_reserved":false,"is_disabled":false,"rental_uris":{"android":"levelo://app?vid=5d8316f4-9b3b-4f22-8b0a-d975b6faa1c0","ios":"levelo://app?vid=5d8316f4-9b3b-4f22-8b0a-d975b6faa1c0"},"vehicle_type_id":"4","last_reported":1700402728,"current_range_meters":14400,"station_id":"ce4bhn12rcd13ifvqgqg","pricing_plan_id":"free"},{"bike_id":"486fecf0-765d-4eee-9a85-898f8aa27175","system_id":"levelo_inurba_marseille","lat":43.231793,"lon":5.400044,"is_reserved":false,"is_disabled":false,"rental_uris":{"android":"levelo://app?vid=486fecf0-765d-4eee-9a85-898f8aa27175","ios":"levelo://app?vid=486fecf0-765d-4eee-9a85-898f8aa27175"},"vehicle_type_id":"4","last_reported":1700402728,"current_range_meters":28000,"station_id":"ce4bhn12rcd13ifvqgqg","pricing_plan_id":"free"},{"bike_id":"ad9d26be-fd61-4954-b04a-614ee9d33f7d","system_id":"levelo_inurba_marseille","lat":43.231794,"lon":5.400052,"is_reserved":false,"is_disabled":false,"rental_uris":{"android":"levelo://app?vid=ad9d26be-fd61-4954-b04a-614ee9d33f7d","ios":"levelo://app?vid=ad9d26be-fd61-4954-b04a-614ee9d33f7d"},"vehicle_type_id":"4","last_reported":1700402728,"current_range_meters":31600,"station_id":"ce4bhn12rcd13ifvqgqg","pricing_plan_id":"free"},{"bike_id":"b907c7fa-7a3b-4934-9fa8-b43318154dde","system_id":"levelo_inurba_marseille","lat":43.231793,"lon":5.400044,"is_reserved":false,"is_disabled":false,"rental_uris":{"android":"levelo://app?vid=b907c7fa-7a3b-4934-9fa8-b43318154dde","ios":"levelo://app?vid=b907c7fa-7a3b-4934-9fa8-b43318154dde"},"vehicle_type_id":"4","last_reported":1700402728,"current_range_meters":6000,"station_id":"ce4bhn12rcd13ifvqgqg","pricing_plan_id":"free"},{"bike_id":"7bc95a0e-72f8-4232-b877-46fe8e7f9e0c","system_id":"levelo_inurba_marseille","lat":43.231794,"lon":5.400052,"is_reserved":false,"is_disabled":false,"rental_uris":{"android":"levelo://app?vid=7bc95a0e-72f8-4232-b877-46fe8e7f9e0c","ios":"levelo://app?vid=7bc95a0e-72f8-4232-b877-46fe8e7f9e0c"},"vehicle_type_id":"4","last_reported":1700402728,"current_range_meters":30000,"station_id":"ce4bhn12rcd13ifvqgqg","pricing_plan_id":"free"},{"bike_id":"196e5037-623a-4cc1-ad44-be0976133a20","system_id":"levelo_inurba_marseille","lat":43.231793,"lon":5.400044,"is_reserved":false,"is_disabled":false,"rental_uris":{"android":"levelo://app?vid=196e5037-623a-4cc1-ad44-be0976133a20","ios":"levelo://app?vid=196e5037-623a-4cc1-ad44-be0976133a20"},"vehicle_type_id":"4","last_reported":1700402728,"current_range_meters":18400,"station_id":"ce4bhn12rcd13ifvqgqg","pricing_plan_id":"free"},{"bike_id":"6e04bad6-eaaf-4248-b3bd-6fdee328a855","system_id":"levelo_inurba_marseille","lat":43.231794,"lon":5.400052,"is_reserved":false,"is_disabled":false,"rental_uris":{"android":"levelo://app?vid=6e04bad6-eaaf-4248-b3bd-6fdee328a855","ios":"levelo://app?vid=6e04bad6-eaaf-4248-b3bd-6fdee328a855"},"vehicle_type_id":"4","last_reported":1700402728,"current_range_meters":2800,"station_id":"ce4bhn12rcd13ifvqgqg","pricing_plan_id":"free"},{"bike_id":"65f86e4f-3234-4fca-beae-05f04dc8df5f","system_id":"levelo_inurba_marseille","lat":43.23176,"lon":5.39986,"is_reserved":false,"is_disabled":false,"rental_uris":{"android":"levelo://app?vid=65f86e4f-3234-4fca-beae-05f04dc8df5f","ios":"levelo://app?vid=65f86e4f-3234-4fca-beae-05f04dc8df5f"},"vehicle_type_id":"4","last_reported":1700402728,"current_range_meters":30400,"station_id":"ce4bhn12rcd13ifvqgqg","pricing_plan_id":"free"},{"bike_id":"78c7b8b3-4492-4225-8359-c557b6989c3d","system_id":"levelo_inurba_marseille","lat":43.23155,"lon":5.43698,"is_reserved":false,"is_disabled":false,"rental_uris":{"android":"levelo://app?vid=78c7b8b3-4492-4225-8359-c557b6989c3d","ios":"levelo://app?vid=78c7b8b3-4492-4225-8359-c557b6989c3d"},"vehicle_type_id":"4","last_reported":1700402728,"current_range_meters":8400,"station_id":"ce4bhmp2rcd13ifvqgog","pricing_plan_id":"free"},{"bike_id":"49f546c6-5a89-4d62-b0e6-0167a3bea35f","system_id":"levelo_inurba_marseille","lat":43.23151,"lon":5.43698,"is_reserved":false,"is_disabled":false,"rental_uris":{"android":"levelo://app?vid=49f546c6-5a89-4d62-b0e6-0167a3bea35f","ios":"levelo://app?vid=49f546c6-5a89-4d62-b0e6-0167a3bea35f"},"vehicle_type_id":"4","last_reported":1700402728,"current_range_meters":24400,"station_id":"ce4bhmp2rcd13ifvqgog","pricing_plan_id":"free"},{"bike_id":"172b1adb-2ae3-4c1b-b5fe-96e44bf1344e","system_id":"levelo_inurba_marseille","lat":43.23154,"lon":5.43708,"is_reserved":false,"is_disabled":false,"rental_uris":{"android":"levelo://app?vid=172b1adb-2ae3-4c1b-b5fe-96e44bf1344e","ios":"levelo://app?vid=172b1adb-2ae3-4c1b-b5fe-96e44bf1344e"},"vehicle_type_id":"4","last_reported":1700402728,"current_range_meters":30000,"station_id":"ce4bhmp2rcd13ifvqgog","pricing_plan_id":"free"},{"bike_id":"7cbfe997-e702-4e91-b4e3-43ead622ee2d","system_id":"levelo_inurba_marseille","lat":43.231562,"lon":5.436933,"is_reserved":false,"is_disabled":false,"rental_uris":{"android":"levelo://app?vid=7cbfe997-e702-4e91-b4e3-43ead622ee2d","ios":"levelo://app?vid=7cbfe997-e702-4e91-b4e3-43ead622ee2d"},"vehicle_type_id":"4","last_reported":1700402728,"current_range_meters":3600,"station_id":"ce4bhmp2rcd13ifvqgog","pricing_plan_id":"free"},{"bike_id":"ac753338-7ae7-484b-b345-d535336dbb1b","system_id":"levelo_inurba_marseille","lat":43.231562,"lon":5.436933,"is_reserved":false,"is_disabled":false,"rental_uris":{"android":"levelo://app?vid=ac753338-7ae7-484b-b345-d535336dbb1b","ios":"levelo://app?vid=ac753338-7ae7-484b-b345-d535336dbb1b"},"vehicle_type_id":"4","last_reported":1700402728,"current_range_meters":30800,"station_id":"ce4bhmp2rcd13ifvqgog","pricing_plan_id":"free"}]}}