{"last_updated":1736470085,"ttl":60,"version":"2.2","data":{"bikes":[{"bike_id":"63c920e7-8d35-4253-a5d0-4ae8113a8577","system_id":"levelo_inurba_marseille","lat":43.28464,"lon":5.37518,"is_reserved":false,"is_disabled":false,"rental_uris":{"android":"levelo://app?vid=63c920e7-8d35-4253-a5d0-4ae8113a8577","ios":"levelo://app?vid=63c920e7-8d35-4253-a5d0-4ae8113a8577"},"vehicle_type_id":"4","last_reported":1736470085,"current_range_meters":10800,"station_id":"","pricing_plan_id":"cebpf4jnsgd1na2vs0mg"},{"bike_id":"01030598-7e5b-4658-9c08-654b4b038c29","system_id":"levelo_inurba_marseille","lat":43.32284,"lon":5.38281,"is_reserved":false,"is_disabled":false,"rental_uris":{"android":"levelo://app?vid=01030598-7e5b-4658-9c08-654b4b038c29","ios":"levelo://app?vid=01030598-7e5b-4658-9c08-654b4b038c29"},"vehicle_type_id":"4","last_reported":1736470085,"current_range_meters":28000,"station_id":"ce4bhr12rcd13ifvqhqg","pricing_plan_id":"cebpf4jnsgd1na2vs0mg"},{"bike_id":"08c3061d-9748-41a9-a3ad-a860e966d4d9","system_id":"levelo_inurba_marseille","lat":43.3361,"lon":5.41024,"is_reserved":false,"is_disabled":false,"rental_uris":{"android":"levelo://app?vid=08c3061d-9748-41a9-a3ad-a860e966d4d9","ios":"levelo://app?vid=08c3061d-9748-41a9-a3ad-a860e966d4d9"},"vehicle_type_id":"4","last_reported":1736470085,"current_range_meters":32000,"station_id":"ce4bhqh2rcd13ifvqhmg","pricing_plan_id":"cebpf4jnsgd1na2vs0mg"},{"bike_id":"b53c3124-7959-4680-a5ae-1578651ce1ae","system_id":"levelo_inurba_marseille","lat":43.32131,"lon":5.36753,"is_reserved":false,"is_disabled":false,"rental_uris":{"android":"levelo://app?vid=b53c3124-7959-4680-a5ae-1578651ce1ae","ios":"levelo://app?vid=b53c3124-7959-4680-a5ae-1578651ce1ae"},"vehicle_type_id":"4","last_reported":1736470085,"current_range_meters":38800,"station_id":"ce4bhrh2rcd13ifvqhug","pricing_plan_id":"cebpf4jnsgd1na2vs0mg"},{"bike_id":"87c59741-1f05-4e3d-8c14-38f01f8816a9","system_id":"levelo_inurba_marseille","lat":43.23212,"lon":5.35553,"is_reserved":false,"is_disabled":false,"rental_uris":{"android":"levelo://app?vid=87c59741-1f05-4e3d-8c14-38f01f8816a9","ios":"levelo://app?vid=87c59741-1f05-4e3d-8c14-38f01f8816a9"},"vehicle_type_id":"4","last_reported":1736470085,"current_range_meters":12800,"station_id":"ce4bhu92rcd13ifvqi70","pricing_plan_id":"cebpf4jnsgd1na2vs0mg"},{"bike_id":"e3ed715f-8540-4a0c-8d1a-84fadaf0dd0f","system_id":"levelo_inurba_marseille","lat":43.34162,"lon":5.37763,"is_reserved":false,"is_disabled":false,"rental_uris":{"android":"levelo://app?vid=e3ed715f-8540-4a0c-8d1a-84fadaf0dd0f","ios":"levelo://app?vid=e3ed715f-8540-4a0c-8d1a-84fadaf0dd0f"},"vehicle_type_id":"4","last_reported":1736470085,"current_range_meters":36800,"station_id":"","pricing_plan_id":"cebpf4jnsgd1na2vs0mg"},{"bike_id":"b4490af6-d2d6-45cd-8497-5da268508b26","system_id":"levelo_inurba_marseille","lat":43.27323,"lon":5.39082,"is_reserved":false,"is_disabled":false,"rental_uris":{"android":"levelo://app?vid=b4490af6-d2d6-45cd-8497-5da268508b26","ios":"levelo://app?vid=b4490af6-d2d6-45cd-8497-5da268508b26"},"vehicle_type_id":"4","last_reported":1736470085,"current_range_meters":37600,"station_id":"ce4bhgp2rcd13ifvqfe0","pricing_plan_id":"cebpf4jnsgd1na2vs0mg"},{"bike_id":"08d8bb07-59de-4a24-b07e-94f8244a758c","system_id":"levelo_inurba_marseille","lat":43.28006,"lon":5.41676,"is_reserved":false,"is_disabled":false,"rental_uris":{"android":"levelo://app?vid=08d8bb07-59de-4a24-b07e-94f8244a758c","ios":"levelo://app?vid=08d8bb07-59de-4a24-b07e-94f8244a758c"},"vehicle_type_id":"4","last_reported":1736470085,"current_range_meters":38400,"station_id":"ce4bho12rcd13ifvqh1g","pricing_plan_id":"cebpf4jnsgd1na2vs0mg"},{"bike_id":"1208d0ed-d187-4cde-8615-9f7a82324f63","system_id":"levelo_inurba_marseille","lat":43.27179,"lon":5.40977,"is_reserved":false,"is_disabled":false,"rental_uris":{"android":"levelo://app?vid=1208d0ed-d187-4cde-8615-9f7a82324f63","ios":"levelo://app?vid=1208d0ed-d187-4cde-8615-9f7a82324f63"},"vehicle_type_id":"4","last_reported":1736470085,"current_range_meters":38400,"station_id":"ce4bhl12rcd13ifvqgf0","pricing_plan_id":"cebpf4jnsgd1na2vs0mg"},{"bike_id":"55a02019-1e86-4005-a9d2-298fc0cff8d0","system_id":"levelo_inurba_marseille","lat":43.29789,"lon":5.39352,"is_reserved":false,"is_disabled":false,"rental_uris":{"android":"levelo://app?vid=55a02019-1e86-4005-a9d2-298fc0cff8d0","ios":"levelo://app?vid=55a02019-1e86-4005-a9d2-298fc0cff8d0"},"vehicle_type_id":"4","last_reported":1736470085,"current_range_meters":39200,"station_id":"chh1huq6cuj3fo74tm60","pricing_plan_id":"cebpf4jnsgd1na2vs0mg"},{"bike_id":"bbf890f3-1389-4413-ba0b-dc7306182610","system_id":"levelo_inurba_marseille","lat":43.30892,"lon":5.37204,"is_reserved":false,"is_disabled":false,"rental_uris":{"android":"levelo://app?vid=bbf890f3-1389-4413-ba0b-dc7306182610","ios":"levelo://app?vid=bbf890f3-1389-4413-ba0b-dc7306182610"},"vehicle_type_id":"4","last_reported":1736470085,"current_range_meters":29600,"station_id":"ce4bguh2rcd13ifvqckg","pricing_plan_id":"cebpf4jnsgd1na2vs0mg"},{"bike_id":"5f38078e-d40e-4cdf-9450-9d3cca9ca514","system_id":"levelo_inurba_marseille","lat":43.28702,"lon":5.37381,"is_reserved":false,"is_disabled":false,"rental_uris":{"android":"levelo://app?vid=5f38078e-d40e-4cdf-9450-9d3cca9ca514","ios":"levelo://app?vid=5f38078e-d40e-4cdf-9450-9d3cca9ca514"},"vehicle_type_id":"4","last_reported":1736470085,"current_range_meters":38400,"station_id":"ce4bh3p2rcd13ifvqdq0","pricing_plan_id":"cebpf4jnsgd1na2vs0mg"},{"bike_id":"6727a1a4-fd3a-4415-a389-697df82e67ba","system_id":"levelo_inurba_marseille","lat":43.28001,"lon":5.41649,"is_reserved":false,"is_disabled":true,"rental_uris":{"android":"levelo://app?vid=6727a1a4-fd3a-4415-a389-697df82e67ba","ios":"levelo://app?vid=6727a1a4-fd3a-4415-a389-697df82e67ba"},"vehicle_type_id":"4","last_reported":1736470085,"current_range_meters":25600,"station_id":"ce4bho12rcd13ifvqh1g","pricing_plan_id":"cebpf4jnsgd1na2vs0mg"},{"bike_id":"b1346f2c-7cab-41f4-b9e9-053904c9fb2b","system_id":"levelo_inurba_marseille","lat":43.23951,"lon":5.36658,"is_reserved":false,"is_disabled":false,"rental_uris":{"android":"levelo://app?vid=b1346f2c-7cab-41f4-b9e9-053904c9fb2b","ios":"levelo://app?vid=b1346f2c-7cab-41f4-b9e9-053904c9fb2b"},"vehicle_type_id":"4","last_reported":1736470085,"current_range_meters":9200,"station_id":"ce4bhi12rcd13ifvqfp0","pricing_plan_id":"cebpf4jnsgd1na2vs0mg"},{"bike_id":"f7413654-df4e-422b-9047-0ea454e837d7","system_id":"levelo_inurba_marseille","lat":43.30133,"lon":5.39872,"is_reserved":false,"is_disabled":false,"rental_uris":{"android":"levelo://app?vid=f7413654-df4e-422b-9047-0ea454e837d7","ios":"levelo://app?vid=f7413654-df4e-422b-9047-0ea454e837d7"},"vehicle_type_id":"4","last_reported":1736470085,"current_range_meters":36000,"station_id":"ce4bh0h2rcd13ifvqd40","pricing_plan_id":"cebpf4jnsgd1na2vs0mg"},{"bike_id":"8ac065fc-b1ce-469c-acde-164501bfbfe4","system_id":"levelo_inurba_marseille","lat":43.28689,"lon":5.3998,"is_reserved":false,"is_disabled":false,"rental_uris":{"android":"levelo://app?vid=8ac065fc-b1ce-469c-acde-164501bfbfe4","ios":"levelo://app?vid=8ac065fc-b1ce-469c-acde-164501bfbfe4"},"vehicle_type_id":"4","last_reported":1736470085,"current_range_meters":26800,"station_id":"ce4bho92rcd13ifvqh3g","pricing_plan_id":"cebpf4jnsgd1na2vs0mg"},{"bike_id":"93fa7c71-5d8f-4feb-89b1-77e70dee5a4d","system_id":"levelo_inurba_marseille","lat":43.284338,"lon":5.391863,"is_reserved":false,"is_disabled":true,"rental_uris":{"android":"levelo://app?vid=93fa7c71-5d8f-4feb-89b1-77e70dee5a4d","ios":"levelo://app?vid=93fa7c71-5d8f-4feb-89b1-77e70dee5a4d"},"vehicle_type_id":"4","last_reported":1736470085,"current_range_meters":12800,"station_id":"ce4bhoh2rcd13ifvqh5g","pricing_plan_id":"cebpf4jnsgd1na2vs0mg"},{"bike_id":"ece82557-6569-4215-9027-5b44a37fe52e","system_id":"levelo_inurba_marseille","lat":43.29073,"lon":5.37963,"is_reserved":false,"is_disabled":true,"rental_uris":{"android":"levelo://app?vid=ece82557-6569-4215-9027-5b44a37fe52e","ios":"levelo://app?vid=ece82557-6569-4215-9027-5b44a37fe52e"},"vehicle_type_id":"4","last_reported":1736470085,"current_range_meters":0,"station_id":"","pricing_plan_id":"cebpf4jnsgd1na2vs0mg"},{"bike_id":"77bafcdf-0c66-4975-883f-0563ef9bd76e","system_id":"levelo_inurba_marseille","lat":43.28038,"lon":5.36948,"is_reserved":false,"is_disabled":false,"rental_uris":{"android":"levelo://app?vid=77bafcdf-0c66-4975-883f-0563ef9bd76e","ios":"levelo://app?vid=77bafcdf-0c66-4975-883f-0563ef9bd76e"},"vehicle_type_id":"4","last_reported":1736470085,"current_range_meters":22800,"station_id":"ce4bha12rcd13ifvqef0","pricing_plan_id":"cebpf4jnsgd1na2vs0mg"},{"bike_id":"16f527db-c42c-48b4-9e8a-1fb2566fcb19","system_id":"levelo_inurba_marseille","lat":43.32333,"lon":5.40622,"is_reserved":false,"is_disabled":false,"rental_uris":{"android":"levelo://app?vid=16f527db-c42c-48b4-9e8a-1fb2566fcb19","ios":"levelo://app?vid=16f527db-c42c-48b4-9e8a-1fb2566fcb19"},"vehicle_type_id":"4","last_reported":1736470085,"current_range_meters":39200,"station_id":"ce4bhq92rcd13ifvqhjg","pricing_plan_id":"cebpf4jnsgd1na2vs0mg"},{"bike_id":"9d8eb451-b9f9-4d2c-b9e7-91ab8b21026d","system_id":"levelo_inurba_marseille","lat":43.28662,"lon":5.36348,"is_reserved":false,"is_disabled":false,"rental_uris":{"android":"levelo://app?vid=9d8eb451-b9f9-4d2c-b9e7-91ab8b21026d","ios":"levelo://app?vid=9d8eb451-b9f9-4d2c-b9e7-91ab8b21026d"},"vehicle_type_id":"4","last_reported":1736470085,"current_range_meters":38800,"station_id":"ce4bhah2rcd13ifvqej0","pricing_plan_id":"cebpf4jnsgd1na2vs0mg"},{"bike_id":"38f0dbc0-5843-45de-a0cf-8d4a0f6c60f2","system_id":"levelo_inurba_marseille","lat":43.28658,"lon":5.36368,"is_reserved":false,"is_disabled":false,"rental_uris":{"android":"levelo://app?vid=38f0dbc0-5843-45de-a0cf-8d4a0f6c60f2","ios":"levelo://app?vid=38f0dbc0-5843-45de-a0cf-8d4a0f6c60f2"},"vehicle_type_id":"4","last_reported":1736470085,"current_range_meters":39200,"station_id":"ce4bhah2rcd13ifvqej0","pricing_plan_id":"cebpf4jnsgd1na2vs0mg"},{"bike_id":"fc0017d1-a5c2-49f3-b71e-f11ac03acfc8","system_id":"levelo_inurba_marseille","lat":43.308855,"lon":5.396525,"is_reserved":false,"is_disabled":true,"rental_uris":{"android":"levelo://app?vid=fc0017d1-a5c2-49f3-b71e-f11ac03acfc8","ios":"levelo://app?vid=fc0017d1-a5c2-49f3-b71e-f11ac03acfc8"},"vehicle_type_id":"4","last_reported":1736470085,"current_range_meters":1600,"station_id":"ce4bh012rcd13ifvqcv0","pricing_plan_id":"cebpf4jnsgd1na2vs0mg"},{"bike_id":"04745ce5-c863-4d05-a4b1-70a293af40c0","system_id":"levelo_inurba_marseille","lat":43.30826,"lon":5.37414,"is_reserved":false,"is_disabled":false,"rental_uris":{"android":"levelo://app?vid=04745ce5-c863-4d05-a4b1-70a293af40c0","ios":"levelo://app?vid=04745ce5-c863-4d05-a4b1-70a293af40c0"},"vehicle_type_id":"4","last_reported":1736470085,"current_range_meters":12400,"station_id":"","pricing_plan_id":"cebpf4jnsgd1na2vs0mg"},{"bike_id":"f25879f8-26dc-4402-975d-f320aa433a8a","system_id":"levelo_inurba_marseille","lat":43.28695,"lon":5.37385,"is_reserved":false,"is_disabled":false,"rental_uris":{"android":"levelo://app?vid=f25879f8-26dc-4402-975d-f320aa433a8a","ios":"levelo://app?vid=f25879f8-26dc-4402-975d-f320aa433a8a"},"vehicle_type_id":"4","last_reported":1736470085,"current_range_meters":24400,"station_id":"ce4bh3p2rcd13ifvqdq0","pricing_plan_id":"cebpf4jnsgd1na2vs0mg"},{"bike_id":"004c2ac5-7f25-4e48-8a80-9a02537f6ba6","system_id":"levelo_inurba_marseille","lat":43.32112,"lon":5.36763,"is_reserved":false,"is_disabled":false,"rental_uris":{"android":"levelo://app?vid=004c2ac5-7f25-4e48-8a80-9a02537f6ba6","ios":"levelo://app?vid=004c2ac5-7f25-4e48-8a80-9a02537f6ba6"},"vehicle_type_id":"4","last_reported":1736470085,"current_range_meters":37600,"station_id":"ce4bhrh2rcd13ifvqhug","pricing_plan_id":"cebpf4jnsgd1na2vs0mg"},{"bike_id":"c0839e9e-8837-44d9-8be3-da2e34eeb788","system_id":"levelo_inurba_marseille","lat":43.248079,"lon":5.374591,"is_reserved":false,"is_disabled":false,"rental_uris":{"android":"levelo://app?vid=c0839e9e-8837-44d9-8be3-da2e34eeb788","ios":"levelo://app?vid=c0839e9e-8837-44d9-8be3-da2e34eeb788"},"vehicle_type_id":"4","last_reported":1736470085,"current_range_meters":38800,"station_id":"ce4bhgh2rcd13ifvqfb0","pricing_plan_id":"cebpf4jnsgd1na2vs0mg"},{"bike_id":"be8f2ffe-9cb3-405c-b420-528c08d93838","system_id":"levelo_inurba_marseille","lat":43.27808,"lon":5.40699,"is_reserved":false,"is_disabled":false,"rental_uris":{"android":"levelo://app?vid=be8f2ffe-9cb3-405c-b420-528c08d93838","ios":"levelo://app?vid=be8f2ffe-9cb3-405c-b420-528c08d93838"},"vehicle_type_id":"4","last_reported":1736470085,"current_range_meters":38800,"station_id":"ce4bhnh2rcd13ifvqgtg","pricing_plan_id":"cebpf4jnsgd1na2vs0mg"},{"bike_id":"e308d6a8-2d7e-4ec8-8299-52af8d795456","system_id":"levelo_inurba_marseille","lat":43.30778,"lon":5.3765,"is_reserved":false,"is_disabled":false,"rental_uris":{"android":"levelo://app?vid=e308d6a8-2d7e-4ec8-8299-52af8d795456","ios":"levelo://app?vid=e308d6a8-2d7e-4ec8-8299-52af8d795456"},"vehicle_type_id":"4","last_reported":1736470085,"current_range_meters":23200,"station_id":"ce4bgv92rcd13ifvqcq0","pricing_plan_id":"cebpf4jnsgd1na2vs0mg"},{"bike_id":"533bc63a-db50-4c62-9b68-283781947748","system_id":"levelo_inurba_marseille","lat":43.28467,"lon":5.35904,"is_reserved":false,"is_disabled":false,"rental_uris":{"android":"levelo://app?vid=533bc63a-db50-4c62-9b68-283781947748","ios":"levelo://app?vid=533bc63a-db50-4c62-9b68-283781947748"},"vehicle_type_id":"4","last_reported":1736470085,"current_range_meters":6400,"station_id":"ce4bhah2rcd13ifvqei0","pricing_plan_id":"cebpf4jnsgd1na2vs0mg"},{"bike_id":"4a2601ce-b8a3-401d-9bcf-b1a5174e0572","system_id":"levelo_inurba_marseille","lat":43.29878,"lon":5.39742,"is_reserved":false,"is_disabled":false,"rental_uris":{"android":"levelo://app?vid=4a2601ce-b8a3-401d-9bcf-b1a5174e0572","ios":"levelo://app?vid=4a2601ce-b8a3-401d-9bcf-b1a5174e0572"},"vehicle_type_id":"4","last_reported":1736470085,"current_range_meters":36800,"station_id":"ce4bh0h2rcd13ifvqd50","pricing_plan_id":"cebpf4jnsgd1na2vs0mg"},{"bike_id":"ca0bb423-3f33-4e39-9f4e-1a0269c2026d","system_id":"levelo_inurba_marseille","lat":43.29002,"lon":5.35609,"is_reserved":false,"is_disabled":false,"rental_uris":{"android":"levelo://app?vid=ca0bb423-3f33-4e39-9f4e-1a0269c2026d","ios":"levelo://app?vid=ca0bb423-3f33-4e39-9f4e-1a0269c2026d"},"vehicle_type_id":"4","last_reported":1736470085,"current_range_meters":36800,"station_id":"ce4bhb92rcd13ifvqen0","pricing_plan_id":"cebpf4jnsgd1na2vs0mg"},{"bike_id":"8a0df70f-3b60-4510-bdf9-1eb41a2abb80","system_id":"levelo_inurba_marseille","lat":43.33623,"lon":5.40971,"is_reserved":false,"is_disabled":false,"rental_uris":{"android":"levelo://app?vid=8a0df70f-3b60-4510-bdf9-1eb41a2abb80","ios":"levelo://app?vid=8a0df70f-3b60-4510-bdf9-1eb41a2abb80"},"vehicle_type_id":"4","last_reported":1736470085,"current_range_meters":38800,"station_id":"ce4bhqh2rcd13ifvqhmg","pricing_plan_id":"cebpf4jnsgd1na2vs0mg"},{"bike_id":"08ebd065-3460-485c-b87e-be3206071c79","system_id":"levelo_inurba_marseille","lat":43.25112,"lon":5.40315,"is_reserved":false,"is_disabled":false,"rental_uris":{"android":"levelo://app?vid=08ebd065-3460-485c-b87e-be3206071c79","ios":"levelo://app?vid=08ebd065-3460-485c-b87e-be3206071c79"},"vehicle_type_id":"4","last_reported":1736470085,"current_range_meters":8800,"station_id":"ce4bhlh2rcd13ifvqgig","pricing_plan_id":"cebpf4jnsgd1na2vs0mg"},{"bike_id":"110db1ea-37e1-462f-bb85-4ae7841dc342","system_id":"levelo_inurba_marseille","lat":43.33611,"lon":5.41036,"is_reserved":false,"is_disabled":false,"rental_uris":{"android":"levelo://app?vid=110db1ea-37e1-462f-bb85-4ae7841dc342","ios":"levelo://app?vid=110db1ea-37e1-462f-bb85-4ae7841dc342"},"vehicle_type_id":"4","last_reported":1736470085,"current_range_meters":28800,"station_id":"ce4bhqh2rcd13ifvqhmg","pricing_plan_id":"cebpf4jnsgd1na2vs0mg"},{"bike_id":"9daa52eb-e234-4064-9ae4-412fb366edd4","system_id":"levelo_inurba_marseille","lat":43.30702,"lon":5.40093,"is_reserved":false,"is_disabled":false,"rental_uris":{"android":"levelo://app?vid=9daa52eb-e234-4064-9ae4-412fb366edd4","ios":"levelo://app?vid=9daa52eb-e234-4064-9ae4-412fb366edd4"},"vehicle_type_id":"4","last_reported":1736470085,"current_range_meters":38400,"station_id":"","pricing_plan_id":"cebpf4jnsgd1na2vs0mg"},{"bike_id":"ba0edd42-7315-4ea8-a352-5696d392e3e0","system_id":"levelo_inurba_marseille","lat":43.29067,"lon":5.37165,"is_reserved":false,"is_disabled":false,"rental_uris":{"android":"levelo://app?vid=ba0edd42-7315-4ea8-a352-5696d392e3e0","ios":"levelo://app?vid=ba0edd42-7315-4ea8-a352-5696d392e3e0"},"vehicle_type_id":"4","last_reported":1736470085,"current_range_meters":38400,"station_id":"ce4bh5p2rcd13ifvqe4g","pricing_plan_id":"cebpf4jnsgd1na2vs0mg"},{"bike_id":"01eb461a-cee0-4c1b-a46e-5caeaa77ac9a","system_id":"levelo_inurba_marseille","lat":43.279842,"lon":5.416521,"is_reserved":false,"is_disabled":true,"rental_uris":{"android":"levelo://app?vid=01eb461a-cee0-4c1b-a46e-5caeaa77ac9a","ios":"levelo://app?vid=01eb461a-cee0-4c1b-a46e-5caeaa77ac9a"},"vehicle_type_id":"4","last_reported":1736470085,"current_range_meters":38000,"station_id":"ce4bho12rcd13ifvqh1g","pricing_plan_id":"cebpf4jnsgd1na2vs0mg"},{"bike_id":"cc34605e-36bd-46d5-953e-9a68c7b90f5b","system_id":"levelo_inurba_marseille","lat":43.29691,"lon":5.3658,"is_reserved":false,"is_disabled":false,"rental_uris":{"android":"levelo://app?vid=cc34605e-36bd-46d5-953e-9a68c7b90f5b","ios":"levelo://app?vid=cc34605e-36bd-46d5-953e-9a68c7b90f5b"},"vehicle_type_id":"4","last_reported":1736470085,"current_range_meters":32400,"station_id":"ce4bgn12rcd13ifvqbt0","pricing_plan_id":"cebpf4jnsgd1na2vs0mg"},{"bike_id":"9d5535df-7edb-47f9-ac14-54793dd626e0","system_id":"levelo_inurba_marseille","lat":43.22941,"lon":5.35378,"is_reserved":false,"is_disabled":false,"rental_uris":{"android":"levelo://app?vid=9d5535df-7edb-47f9-ac14-54793dd626e0","ios":"levelo://app?vid=9d5535df-7edb-47f9-ac14-54793dd626e0"},"vehicle_type_id":"4","last_reported":1736470085,"current_range_meters":26800,"station_id":"cpo3532slgdg3j2ikp40","pricing_plan_id":"cebpf4jnsgd1na2vs0mg"},{"bike_id":"cd74b435-abe0-4cf5-a5f9-5cfe53ea4be2","system_id":"levelo_inurba_marseille","lat":43.30192,"lon":5.36621,"is_reserved":false,"is_disabled":false,"rental_uris":{"android":"levelo://app?vid=cd74b435-abe0-4cf5-a5f9-5cfe53ea4be2","ios":"levelo://app?vid=cd74b435-abe0-4cf5-a5f9-5cfe53ea4be2"},"vehicle_type_id":"4","last_reported":1736470085,"current_range_meters":28400,"station_id":"ce4bgrh2rcd13ifvqc8g","pricing_plan_id":"cebpf4jnsgd1na2vs0mg"},{"bike_id":"0617fde0-97c2-4716-8570-25581d6a6543","system_id":"levelo_inurba_marseille","lat":43.27498,"lon":5.42435,"is_reserved":false,"is_disabled":false,"rental_uris":{"android":"levelo://app?vid=0617fde0-97c2-4716-8570-25581d6a6543","ios":"levelo://app?vid=0617fde0-97c2-4716-8570-25581d6a6543"},"vehicle_type_id":"4","last_reported":1736470085,"current_range_meters":38800,"station_id":"ce4bhn92rcd13ifvqgrg","pricing_plan_id":"cebpf4jnsgd1na2vs0mg"},{"bike_id":"ce28c0a5-7456-4b2b-a52e-78e0e193ff6c","system_id":"levelo_inurba_marseille","lat":43.28657,"lon":5.36353,"is_reserved":false,"is_disabled":false,"rental_uris":{"android":"levelo://app?vid=ce28c0a5-7456-4b2b-a52e-78e0e193ff6c","ios":"levelo://app?vid=ce28c0a5-7456-4b2b-a52e-78e0e193ff6c"},"vehicle_type_id":"4","last_reported":1736470085,"current_range_meters":38000,"station_id":"ce4bhah2rcd13ifvqej0","pricing_plan_id":"cebpf4jnsgd1na2vs0mg"},{"bike_id":"5ceb2aaf-3a49-4d54-acf0-c7dc7dfe31a7","system_id":"levelo_inurba_marseille","lat":43.28945,"lon":5.36629,"is_reserved":false,"is_disabled":false,"rental_uris":{"android":"levelo://app?vid=5ceb2aaf-3a49-4d54-acf0-c7dc7dfe31a7","ios":"levelo://app?vid=5ceb2aaf-3a49-4d54-acf0-c7dc7dfe31a7"},"vehicle_type_id":"4","last_reported":1736470085,"current_range_meters":6000,"station_id":"ce4bhap2rcd13ifvqek0","pricing_plan_id":"cebpf4jnsgd1na2vs0mg"},{"bike_id":"7ac75c7e-5fca-4ef7-976e-1670e421ebf6","system_id":"levelo_inurba_marseille","lat":43.28633,"lon":5.35077,"is_reserved":false,"is_disabled":false,"rental_uris":{"android":"levelo://app?vid=7ac75c7e-5fca-4ef7-976e-1670e421ebf6","ios":"levelo://app?vid=7ac75c7e-5fca-4ef7-976e-1670e421ebf6"},"vehicle_type_id":"4","last_reported":1736470085,"current_range_meters":12400,"station_id":"ce4bhch2rcd13ifvqeug","pricing_plan_id":"cebpf4jnsgd1na2vs0mg"},{"bike_id":"b4e93bde-c7c0-45ab-a558-80aa5d2eccf8","system_id":"levelo_inurba_marseille","lat":43.30243,"lon":5.4004,"is_reserved":false,"is_disabled":false,"rental_uris":{"android":"levelo://app?vid=b4e93bde-c7c0-45ab-a558-80aa5d2eccf8","ios":"levelo://app?vid=b4e93bde-c7c0-45ab-a558-80aa5d2eccf8"},"vehicle_type_id":"4","last_reported":1736470085,"current_range_meters":38000,"station_id":"ce4bgvh2rcd13ifvqcs0","pricing_plan_id":"cebpf4jnsgd1na2vs0mg"},{"bike_id":"feeeae9a-4bcc-477a-bc8c-e9391fa8aedd","system_id":"levelo_inurba_marseille","lat":43.29188,"lon":5.39331,"is_reserved":false,"is_disabled":false,"rental_uris":{"android":"levelo://app?vid=feeeae9a-4bcc-477a-bc8c-e9391fa8aedd","ios":"levelo://app?vid=feeeae9a-4bcc-477a-bc8c-e9391fa8aedd"},"vehicle_type_id":"4","last_reported":1736470085,"current_range_meters":38400,"station_id":"ce4bh192rcd13ifvqdd0","pricing_plan_id":"cebpf4jnsgd1na2vs0mg"},{"bike_id":"bbb42691-618e-438b-93dc-2acd2c34e075","system_id":"levelo_inurba_marseille","lat":43.30809,"lon":5.43545,"is_reserved":false,"is_disabled":false,"rental_uris":{"android":"levelo://app?vid=bbb42691-618e-438b-93dc-2acd2c34e075","ios":"levelo://app?vid=bbb42691-618e-438b-93dc-2acd2c34e075"},"vehicle_type_id":"4","last_reported":1736470085,"current_range_meters":38800,"station_id":"ce4bhph2rcd13ifvqheg","pricing_plan_id":"cebpf4jnsgd1na2vs0mg"},{"bike_id":"dbe4d7d2-95f9-4a28-b000-f9ac7c3f52eb","system_id":"levelo_inurba_marseille","lat":43.29201,"lon":5.3933,"is_reserved":false,"is_disabled":true,"rental_uris":{"android":"levelo://app?vid=dbe4d7d2-95f9-4a28-b000-f9ac7c3f52eb","ios":"levelo://app?vid=dbe4d7d2-95f9-4a28-b000-f9ac7c3f52eb"},"vehicle_type_id":"4","last_reported":1736470085,"current_range_meters":0,"station_id":"ce4bh192rcd13ifvqdd0","pricing_plan_id":"cebpf4jnsgd1na2vs0mg"},{"bike_id":"4d837533-9634-4003-a158-316faeed00a8","system_id":"levelo_inurba_marseille","lat":43.317565,"lon":5.39009,"is_reserved":false,"is_disabled":false,"rental_uris":{"android":"levelo://app?vid=4d837533-9634-4003-a158-316faeed00a8","ios":"levelo://app?vid=4d837533-9634-4003-a158-316faeed00a8"},"vehicle_type_id":"4","last_reported":1736470085,"current_range_meters":38000,"station_id":"ce4bhqp2rcd13ifvqhng","pricing_plan_id":"cebpf4jnsgd1na2vs0mg"},{"bike_id":"2dc66654-3021-43ef-bbb3-3e8b62333eb6","system_id":"levelo_inurba_marseille","lat":43.31113,"lon":5.39374,"is_reserved":false,"is_disabled":true,"rental_uris":{"android":"levelo://app?vid=2dc66654-3021-43ef-bbb3-3e8b62333eb6","ios":"levelo://app?vid=2dc66654-3021-43ef-bbb3-3e8b62333eb6"},"vehicle_type_id":"4","last_reported":1736470085,"current_range_meters":0,"station_id":"","pricing_plan_id":"cebpf4jnsgd1na2vs0mg"},{"bike_id":"ba934327-f06a-4136-9118-297313cf32de","system_id":"levelo_inurba_marseille","lat":43.30518,"lon":5.39894,"is_reserved":false,"is_disabled":false,"rental_uris":{"android":"levelo://app?vid=ba934327-f06a-4136-9118-297313cf32de","ios":"levelo://app?vid=ba934327-f06a-4136-9118-297313cf32de"},"vehicle_type_id":"4","last_reported":1736470085,"current_range_meters":24000,"station_id":"","pricing_plan_id":"cebpf4jnsgd1na2vs0mg"},{"bike_id":"3b0e496e-fb5d-467b-9517-d654f577d492","system_id":"levelo_inurba_marseille","lat":43.31054,"lon":5.38334,"is_reserved":false,"is_disabled":false,"rental_uris":{"android":"levelo://app?vid=3b0e496e-fb5d-467b-9517-d654f577d492","ios":"levelo://app?vid=3b0e496e-fb5d-467b-9517-d654f577d492"},"vehicle_type_id":"4","last_reported":1736470085,"current_range_meters":31200,"station_id":"ce4bgv92rcd13ifvqcr0","pricing_plan_id":"cebpf4jnsgd1na2vs0mg"},{"bike_id":"1b347b6b-23fa-46e1-b35b-40be16793e4d","system_id":"levelo_inurba_marseille","lat":43.31092,"lon":5.42427,"is_reserved":false,"is_disabled":false,"rental_uris":{"android":"levelo://app?vid=1b347b6b-23fa-46e1-b35b-40be16793e4d","ios":"levelo://app?vid=1b347b6b-23fa-46e1-b35b-40be16793e4d"},"vehicle_type_id":"4","last_reported":1736470085,"current_range_meters":24800,"station_id":"ce4bhp92rcd13ifvqhag","pricing_plan_id":"cebpf4jnsgd1na2vs0mg"},{"bike_id":"6d907632-b7a4-409f-98d5-031bae93ab87","system_id":"levelo_inurba_marseille","lat":43.23959,"lon":5.36641,"is_reserved":false,"is_disabled":false,"rental_uris":{"android":"levelo://app?vid=6d907632-b7a4-409f-98d5-031bae93ab87","ios":"levelo://app?vid=6d907632-b7a4-409f-98d5-031bae93ab87"},"vehicle_type_id":"4","last_reported":1736470085,"current_range_meters":9200,"station_id":"ce4bhi12rcd13ifvqfp0","pricing_plan_id":"cebpf4jnsgd1na2vs0mg"},{"bike_id":"c578e259-3de8-445c-801e-bca618442a69","system_id":"levelo_inurba_marseille","lat":43.29801,"lon":5.38102,"is_reserved":false,"is_disabled":true,"rental_uris":{"android":"levelo://app?vid=c578e259-3de8-445c-801e-bca618442a69","ios":"levelo://app?vid=c578e259-3de8-445c-801e-bca618442a69"},"vehicle_type_id":"4","last_reported":1736470085,"current_range_meters":28000,"station_id":"ce4bgip2rcd13ifvqbb0","pricing_plan_id":"cebpf4jnsgd1na2vs0mg"},{"bike_id":"aa67cf98-d46b-41be-be1e-bfc5f3fa3df3","system_id":"levelo_inurba_marseille","lat":43.29863,"lon":5.39747,"is_reserved":false,"is_disabled":false,"rental_uris":{"android":"levelo://app?vid=aa67cf98-d46b-41be-be1e-bfc5f3fa3df3","ios":"levelo://app?vid=aa67cf98-d46b-41be-be1e-bfc5f3fa3df3"},"vehicle_type_id":"4","last_reported":1736470085,"current_range_meters":38000,"station_id":"ce4bh0h2rcd13ifvqd50","pricing_plan_id":"cebpf4jnsgd1na2vs0mg"},{"bike_id":"28dfc315-0b25-42c1-8a96-8f2f52119faa","system_id":"levelo_inurba_marseille","lat":43.28668,"lon":5.36343,"is_reserved":false,"is_disabled":false,"rental_uris":{"android":"levelo://app?vid=28dfc315-0b25-42c1-8a96-8f2f52119faa","ios":"levelo://app?vid=28dfc315-0b25-42c1-8a96-8f2f52119faa"},"vehicle_type_id":"4","last_reported":1736470085,"current_range_meters":39200,"station_id":"ce4bhah2rcd13ifvqej0","pricing_plan_id":"cebpf4jnsgd1na2vs0mg"},{"bike_id":"5a67e9e1-2bc9-433e-8b95-966ce594c3da","system_id":"levelo_inurba_marseille","lat":43.25103,"lon":5.40328,"is_reserved":false,"is_disabled":false,"rental_uris":{"android":"levelo://app?vid=5a67e9e1-2bc9-433e-8b95-966ce594c3da","ios":"levelo://app?vid=5a67e9e1-2bc9-433e-8b95-966ce594c3da"},"vehicle_type_id":"4","last_reported":1736470085,"current_range_meters":35600,"station_id":"ce4bhlh2rcd13ifvqgig","pricing_plan_id":"cebpf4jnsgd1na2vs0mg"},{"bike_id":"1c4af67f-8fa5-48f1-8a74-50fb1828db9d","system_id":"levelo_inurba_marseille","lat":43.24182,"lon":5.39731,"is_reserved":false,"is_disabled":false,"rental_uris":{"android":"levelo://app?vid=1c4af67f-8fa5-48f1-8a74-50fb1828db9d","ios":"levelo://app?vid=1c4af67f-8fa5-48f1-8a74-50fb1828db9d"},"vehicle_type_id":"4","last_reported":1736470085,"current_range_meters":36000,"station_id":"ce4bhn12rcd13ifvqgpg","pricing_plan_id":"cebpf4jnsgd1na2vs0mg"},{"bike_id":"9cb8a906-71dd-46be-9815-edd34e4374f5","system_id":"levelo_inurba_marseille","lat":43.28375,"lon":5.38641,"is_reserved":false,"is_disabled":false,"rental_uris":{"android":"levelo://app?vid=9cb8a906-71dd-46be-9815-edd34e4374f5","ios":"levelo://app?vid=9cb8a906-71dd-46be-9815-edd34e4374f5"},"vehicle_type_id":"4","last_reported":1736470085,"current_range_meters":38400,"station_id":"ce4bh492rcd13ifvqdvg","pricing_plan_id":"cebpf4jnsgd1na2vs0mg"},{"bike_id":"20daafc9-4aaa-4b54-8b79-eac236f93e15","system_id":"levelo_inurba_marseille","lat":43.27917,"lon":5.39595,"is_reserved":false,"is_disabled":false,"rental_uris":{"android":"levelo://app?vid=20daafc9-4aaa-4b54-8b79-eac236f93e15","ios":"levelo://app?vid=20daafc9-4aaa-4b54-8b79-eac236f93e15"},"vehicle_type_id":"4","last_reported":1736470085,"current_range_meters":14800,"station_id":"ce4bhf92rcd13ifvqf40","pricing_plan_id":"cebpf4jnsgd1na2vs0mg"},{"bike_id":"070425c2-6220-406f-8690-e8e23ea6aee7","system_id":"levelo_inurba_marseille","lat":43.27185,"lon":5.40998,"is_reserved":false,"is_disabled":false,"rental_uris":{"android":"levelo://app?vid=070425c2-6220-406f-8690-e8e23ea6aee7","ios":"levelo://app?vid=070425c2-6220-406f-8690-e8e23ea6aee7"},"vehicle_type_id":"4","last_reported":1736470085,"current_range_meters":24400,"station_id":"ce4bhl12rcd13ifvqgf0","pricing_plan_id":"cebpf4jnsgd1na2vs0mg"},{"bike_id":"db464d9c-bb44-42ac-bd09-4c22fe8aeaae","system_id":"levelo_inurba_marseille","lat":43.28958,"lon":5.36403,"is_reserved":false,"is_disabled":false,"rental_uris":{"android":"levelo://app?vid=db464d9c-bb44-42ac-bd09-4c22fe8aeaae","ios":"levelo://app?vid=db464d9c-bb44-42ac-bd09-4c22fe8aeaae"},"vehicle_type_id":"4","last_reported":1736470085,"current_range_meters":9200,"station_id":"ce4bhc92rcd13ifvqetg","pricing_plan_id":"cebpf4jnsgd1na2vs0mg"},{"bike_id":"8fe05cd3-a784-46ac-b769-4a3bb713f28f","system_id":"levelo_inurba_marseille","lat":43.23206,"lon":5.3997,"is_reserved":false,"is_disabled":false,"rental_uris":{"android":"levelo://app?vid=8fe05cd3-a784-46ac-b769-4a3bb713f28f","ios":"levelo://app?vid=8fe05cd3-a784-46ac-b769-4a3bb713f28f"},"vehicle_type_id":"4","last_reported":1736470085,"current_range_meters":39200,"station_id":"ce4bhn12rcd13ifvqgqg","pricing_plan_id":"cebpf4jnsgd1na2vs0mg"},{"bike_id":"38d0c53e-a765-4eb8-9fcf-204c9744ffd4","system_id":"levelo_inurba_marseille","lat":43.26201,"lon":5.37934,"is_reserved":false,"is_disabled":false,"rental_uris":{"android":"levelo://app?vid=38d0c53e-a765-4eb8-9fcf-204c9744ffd4","ios":"levelo://app?vid=38d0c53e-a765-4eb8-9fcf-204c9744ffd4"},"vehicle_type_id":"4","last_reported":1736470085,"current_range_meters":27600,"station_id":"ce4bhjp2rcd13ifvqg90","pricing_plan_id":"cebpf4jnsgd1na2vs0mg"},{"bike_id":"c6f45082-4f52-43c4-af86-c1fa309fdcc4","system_id":"levelo_inurba_marseille","lat":43.28717,"lon":5.37953,"is_reserved":false,"is_disabled":false,"rental_uris":{"android":"levelo://app?vid=c6f45082-4f52-43c4-af86-c1fa309fdcc4","ios":"levelo://app?vid=c6f45082-4f52-43c4-af86-c1fa309fdcc4"},"vehicle_type_id":"4","last_reported":1736470085,"current_range_meters":38800,"station_id":"ce4bh9p2rcd13ifvqec0","pricing_plan_id":"cebpf4jnsgd1na2vs0mg"},{"bike_id":"819a5f60-2d7f-42df-9995-26b855f63a06","system_id":"levelo_inurba_marseille","lat":43.28563,"lon":5.39494,"is_reserved":false,"is_disabled":false,"rental_uris":{"android":"levelo://app?vid=819a5f60-2d7f-42df-9995-26b855f63a06","ios":"levelo://app?vid=819a5f60-2d7f-42df-9995-26b855f63a06"},"vehicle_type_id":"4","last_reported":1736470085,"current_range_meters":38000,"station_id":"ce4bh292rcd13ifvqdg0","pricing_plan_id":"cebpf4jnsgd1na2vs0mg"},{"bike_id":"a5c06b98-327f-4ef3-8771-3b3cef97d779","system_id":"levelo_inurba_marseille","lat":43.288448,"lon":5.39337,"is_reserved":false,"is_disabled":false,"rental_uris":{"android":"levelo://app?vid=a5c06b98-327f-4ef3-8771-3b3cef97d779","ios":"levelo://app?vid=a5c06b98-327f-4ef3-8771-3b3cef97d779"},"vehicle_type_id":"4","last_reported":1736470085,"current_range_meters":38000,"station_id":"ce4bh2p2rcd13ifvqdi0","pricing_plan_id":"cebpf4jnsgd1na2vs0mg"},{"bike_id":"426ee80e-06b0-4d0f-86a5-ea8ad64aaa11","system_id":"levelo_inurba_marseille","lat":43.28917,"lon":5.4378,"is_reserved":false,"is_disabled":false,"rental_uris":{"android":"levelo://app?vid=426ee80e-06b0-4d0f-86a5-ea8ad64aaa11","ios":"levelo://app?vid=426ee80e-06b0-4d0f-86a5-ea8ad64aaa11"},"vehicle_type_id":"4","last_reported":1736470085,"current_range_meters":24000,"station_id":"","pricing_plan_id":"cebpf4jnsgd1na2vs0mg"},{"bike_id":"e0ea19af-08a1-4e9b-9f47-ddb9af2a766a","system_id":"levelo_inurba_marseille","lat":43.2904,"lon":5.39948,"is_reserved":false,"is_disabled":false,"rental_uris":{"android":"levelo://app?vid=e0ea19af-08a1-4e9b-9f47-ddb9af2a766a","ios":"levelo://app?vid=e0ea19af-08a1-4e9b-9f47-ddb9af2a766a"},"vehicle_type_id":"4","last_reported":1736470085,"current_range_meters":36400,"station_id":"ce4bh392rcd13ifvqdm0","pricing_plan_id":"cebpf4jnsgd1na2vs0mg"},{"bike_id":"24181dd3-0787-4379-b3c6-dd5adf68524c","system_id":"levelo_inurba_marseille","lat":43.30434,"lon":5.38886,"is_reserved":false,"is_disabled":false,"rental_uris":{"android":"levelo://app?vid=24181dd3-0787-4379-b3c6-dd5adf68524c","ios":"levelo://app?vid=24181dd3-0787-4379-b3c6-dd5adf68524c"},"vehicle_type_id":"4","last_reported":1736470085,"current_range_meters":30400,"station_id":"ce4bgk12rcd13ifvqbi0","pricing_plan_id":"cebpf4jnsgd1na2vs0mg"},{"bike_id":"f5ca1267-8796-4e04-ae34-eb0613d65667","system_id":"levelo_inurba_marseille","lat":43.29612,"lon":5.37722,"is_reserved":false,"is_disabled":true,"rental_uris":{"android":"levelo://app?vid=f5ca1267-8796-4e04-ae34-eb0613d65667","ios":"levelo://app?vid=f5ca1267-8796-4e04-ae34-eb0613d65667"},"vehicle_type_id":"4","last_reported":1736470085,"current_range_meters":17600,"station_id":"ce4bgi92rcd13ifvqb90","pricing_plan_id":"cebpf4jnsgd1na2vs0mg"},{"bike_id":"9c47c775-04aa-4b54-b6e1-7042964c96fd","system_id":"levelo_inurba_marseille","lat":43.28084,"lon":5.39657,"is_reserved":false,"is_disabled":false,"rental_uris":{"android":"levelo://app?vid=9c47c775-04aa-4b54-b6e1-7042964c96fd","ios":"levelo://app?vid=9c47c775-04aa-4b54-b6e1-7042964c96fd"},"vehicle_type_id":"4","last_reported":1736470085,"current_range_meters":18000,"station_id":"ce4bho12rcd13ifvqh2g","pricing_plan_id":"cebpf4jnsgd1na2vs0mg"},{"bike_id":"bedf8779-e71b-4300-92ee-d10552e3a166","system_id":"levelo_inurba_marseille","lat":43.27979,"lon":5.387,"is_reserved":false,"is_disabled":false,"rental_uris":{"android":"levelo://app?vid=bedf8779-e71b-4300-92ee-d10552e3a166","ios":"levelo://app?vid=bedf8779-e71b-4300-92ee-d10552e3a166"},"vehicle_type_id":"4","last_reported":1736470085,"current_range_meters":39200,"station_id":"ce4bhg12rcd13ifvqf80","pricing_plan_id":"cebpf4jnsgd1na2vs0mg"},{"bike_id":"4df811ea-88c9-4a4d-b995-e07c2c3109fe","system_id":"levelo_inurba_marseille","lat":43.25876,"lon":5.39912,"is_reserved":false,"is_disabled":false,"rental_uris":{"android":"levelo://app?vid=4df811ea-88c9-4a4d-b995-e07c2c3109fe","ios":"levelo://app?vid=4df811ea-88c9-4a4d-b995-e07c2c3109fe"},"vehicle_type_id":"4","last_reported":1736470085,"current_range_meters":12000,"station_id":"ce4bhl92rcd13ifvqghg","pricing_plan_id":"cebpf4jnsgd1na2vs0mg"},{"bike_id":"2f7753a3-c1a9-49b7-88cb-919e6920ff96","system_id":"levelo_inurba_marseille","lat":43.310741,"lon":5.38347,"is_reserved":false,"is_disabled":false,"rental_uris":{"android":"levelo://app?vid=2f7753a3-c1a9-49b7-88cb-919e6920ff96","ios":"levelo://app?vid=2f7753a3-c1a9-49b7-88cb-919e6920ff96"},"vehicle_type_id":"4","last_reported":1736470085,"current_range_meters":26800,"station_id":"ce4bgv92rcd13ifvqcr0","pricing_plan_id":"cebpf4jnsgd1na2vs0mg"},{"bike_id":"d7b567b0-5bf6-440a-ad0b-a9e97b2b42d9","system_id":"levelo_inurba_marseille","lat":43.27841,"lon":5.39203,"is_reserved":false,"is_disabled":false,"rental_uris":{"android":"levelo://app?vid=d7b567b0-5bf6-440a-ad0b-a9e97b2b42d9","ios":"levelo://app?vid=d7b567b0-5bf6-440a-ad0b-a9e97b2b42d9"},"vehicle_type_id":"4","last_reported":1736470085,"current_range_meters":12000,"station_id":"ce4bhjp2rcd13ifvqga0","pricing_plan_id":"cebpf4jnsgd1na2vs0mg"},{"bike_id":"4b38882c-ba9d-4741-88fd-5a0cd2a690f7","system_id":"levelo_inurba_marseille","lat":43.28445,"lon":5.39191,"is_reserved":false,"is_disabled":true,"rental_uris":{"android":"levelo://app?vid=4b38882c-ba9d-4741-88fd-5a0cd2a690f7","ios":"levelo://app?vid=4b38882c-ba9d-4741-88fd-5a0cd2a690f7"},"vehicle_type_id":"4","last_reported":1736470085,"current_range_meters":10800,"station_id":"ce4bhoh2rcd13ifvqh5g","pricing_plan_id":"cebpf4jnsgd1na2vs0mg"},{"bike_id":"0317929c-89b6-4577-9aca-e7837e00f864","system_id":"levelo_inurba_marseille","lat":43.31751,"lon":5.39021,"is_reserved":false,"is_disabled":false,"rental_uris":{"android":"levelo://app?vid=0317929c-89b6-4577-9aca-e7837e00f864","ios":"levelo://app?vid=0317929c-89b6-4577-9aca-e7837e00f864"},"vehicle_type_id":"4","last_reported":1736470085,"current_range_meters":35600,"station_id":"ce4bhqp2rcd13ifvqhng","pricing_plan_id":"cebpf4jnsgd1na2vs0mg"},{"bike_id":"e51b2d29-f6fd-4ba7-80e0-f85ab68cc69e","system_id":"levelo_inurba_marseille","lat":43.27071,"lon":5.42271,"is_reserved":false,"is_disabled":false,"rental_uris":{"android":"levelo://app?vid=e51b2d29-f6fd-4ba7-80e0-f85ab68cc69e","ios":"levelo://app?vid=e51b2d29-f6fd-4ba7-80e0-f85ab68cc69e"},"vehicle_type_id":"4","last_reported":1736470085,"current_range_meters":38800,"station_id":"ce4bhk92rcd13ifvqgb0","pricing_plan_id":"cebpf4jnsgd1na2vs0mg"},{"bike_id":"0be5c951-be7d-4b30-8e18-971451e86186","system_id":"levelo_inurba_marseille","lat":43.30411,"lon":5.41286,"is_reserved":false,"is_disabled":false,"rental_uris":{"android":"levelo://app?vid=0be5c951-be7d-4b30-8e18-971451e86186","ios":"levelo://app?vid=0be5c951-be7d-4b30-8e18-971451e86186"},"vehicle_type_id":"4","last_reported":1736470085,"current_range_meters":38800,"station_id":"ce4bhop2rcd13ifvqh8g","pricing_plan_id":"cebpf4jnsgd1na2vs0mg"},{"bike_id":"c603c76e-af9c-449d-bf09-0700cc0eea19","system_id":"levelo_inurba_marseille","lat":43.29576,"lon":5.39976,"is_reserved":false,"is_disabled":true,"rental_uris":{"android":"levelo://app?vid=c603c76e-af9c-449d-bf09-0700cc0eea19","ios":"levelo://app?vid=c603c76e-af9c-449d-bf09-0700cc0eea19"},"vehicle_type_id":"4","last_reported":1736470085,"current_range_meters":32000,"station_id":"ce4bh312rcd13ifvqdj0","pricing_plan_id":"cebpf4jnsgd1na2vs0mg"},{"bike_id":"60cef3e6-efb8-4af9-bda0-2b05ca770c04","system_id":"levelo_inurba_marseille","lat":43.305932,"lon":5.393497,"is_reserved":false,"is_disabled":false,"rental_uris":{"android":"levelo://app?vid=60cef3e6-efb8-4af9-bda0-2b05ca770c04","ios":"levelo://app?vid=60cef3e6-efb8-4af9-bda0-2b05ca770c04"},"vehicle_type_id":"4","last_reported":1736470085,"current_range_meters":38400,"station_id":"ce4bh0p2rcd13ifvqd80","pricing_plan_id":"cebpf4jnsgd1na2vs0mg"},{"bike_id":"b2878935-9780-4ff7-a4ad-43aa1a4d7bf8","system_id":"levelo_inurba_marseille","lat":43.29164,"lon":5.38803,"is_reserved":false,"is_disabled":false,"rental_uris":{"android":"levelo://app?vid=b2878935-9780-4ff7-a4ad-43aa1a4d7bf8","ios":"levelo://app?vid=b2878935-9780-4ff7-a4ad-43aa1a4d7bf8"},"vehicle_type_id":"4","last_reported":1736470085,"current_range_meters":33200,"station_id":"","pricing_plan_id":"cebpf4jnsgd1na2vs0mg"},{"bike_id":"dcd7ed84-5252-48ce-a902-254576ae9895","system_id":"levelo_inurba_marseille","lat":43.28565,"lon":5.39502,"is_reserved":false,"is_disabled":false,"rental_uris":{"android":"levelo://app?vid=dcd7ed84-5252-48ce-a902-254576ae9895","ios":"levelo://app?vid=dcd7ed84-5252-48ce-a902-254576ae9895"},"vehicle_type_id":"4","last_reported":1736470085,"current_range_meters":12000,"station_id":"ce4bh292rcd13ifvqdg0","pricing_plan_id":"cebpf4jnsgd1na2vs0mg"},{"bike_id":"8fc8447b-86c1-428c-946d-f8c4d0eaae78","system_id":"levelo_inurba_marseille","lat":43.28108,"lon":5.37888,"is_reserved":false,"is_disabled":false,"rental_uris":{"android":"levelo://app?vid=8fc8447b-86c1-428c-946d-f8c4d0eaae78","ios":"levelo://app?vid=8fc8447b-86c1-428c-946d-f8c4d0eaae78"},"vehicle_type_id":"4","last_reported":1736470085,"current_range_meters":32800,"station_id":"ce4bha12rcd13ifvqee0","pricing_plan_id":"cebpf4jnsgd1na2vs0mg"},{"bike_id":"f01f0f94-5dc8-4d45-a78b-e92392a58073","system_id":"levelo_inurba_marseille","lat":43.25851,"lon":5.39437,"is_reserved":false,"is_disabled":false,"rental_uris":{"android":"levelo://app?vid=f01f0f94-5dc8-4d45-a78b-e92392a58073","ios":"levelo://app?vid=f01f0f94-5dc8-4d45-a78b-e92392a58073"},"vehicle_type_id":"4","last_reported":1736470085,"current_range_meters":33200,"station_id":"ce4bhip2rcd13ifvqft0","pricing_plan_id":"cebpf4jnsgd1na2vs0mg"},{"bike_id":"40d56fd5-44d8-437a-8241-71ee621b0f70","system_id":"levelo_inurba_marseille","lat":43.31538,"lon":5.38046,"is_reserved":false,"is_disabled":false,"rental_uris":{"android":"levelo://app?vid=40d56fd5-44d8-437a-8241-71ee621b0f70","ios":"levelo://app?vid=40d56fd5-44d8-437a-8241-71ee621b0f70"},"vehicle_type_id":"4","last_reported":1736470085,"current_range_meters":38800,"station_id":"ce4bhsp2rcd13ifvqi50","pricing_plan_id":"cebpf4jnsgd1na2vs0mg"},{"bike_id":"dead459e-2d5d-46f9-b10c-aecd76580e82","system_id":"levelo_inurba_marseille","lat":43.3064,"lon":5.40082,"is_reserved":false,"is_disabled":false,"rental_uris":{"android":"levelo://app?vid=dead459e-2d5d-46f9-b10c-aecd76580e82","ios":"levelo://app?vid=dead459e-2d5d-46f9-b10c-aecd76580e82"},"vehicle_type_id":"4","last_reported":1736470085,"current_range_meters":38800,"station_id":"ce4bh112rcd13ifvqda0","pricing_plan_id":"cebpf4jnsgd1na2vs0mg"},{"bike_id":"330caf49-bf8a-4b52-9b4f-9b49ecdf8ec8","system_id":"levelo_inurba_marseille","lat":43.29006,"lon":5.35601,"is_reserved":false,"is_disabled":false,"rental_uris":{"android":"levelo://app?vid=330caf49-bf8a-4b52-9b4f-9b49ecdf8ec8","ios":"levelo://app?vid=330caf49-bf8a-4b52-9b4f-9b49ecdf8ec8"},"vehicle_type_id":"4","last_reported":1736470085,"current_range_meters":30800,"station_id":"ce4bhb92rcd13ifvqen0","pricing_plan_id":"cebpf4jnsgd1na2vs0mg"},{"bike_id":"9792a101-be1e-4b85-80df-b1b0c64f0508","system_id":"levelo_inurba_marseille","lat":43.24808,"lon":5.37457,"is_reserved":false,"is_disabled":false,"rental_uris":{"android":"levelo://app?vid=9792a101-be1e-4b85-80df-b1b0c64f0508","ios":"levelo://app?vid=9792a101-be1e-4b85-80df-b1b0c64f0508"},"vehicle_type_id":"4","last_reported":1736470085,"current_range_meters":38800,"station_id":"ce4bhgh2rcd13ifvqfb0","pricing_plan_id":"cebpf4jnsgd1na2vs0mg"},{"bike_id":"6c16b955-c13c-49a6-a5bb-29559922d02c","system_id":"levelo_inurba_marseille","lat":43.239596,"lon":5.366233,"is_reserved":false,"is_disabled":false,"rental_uris":{"android":"levelo://app?vid=6c16b955-c13c-49a6-a5bb-29559922d02c","ios":"levelo://app?vid=6c16b955-c13c-49a6-a5bb-29559922d02c"},"vehicle_type_id":"4","last_reported":1736470085,"current_range_meters":27200,"station_id":"ce4bhi12rcd13ifvqfp0","pricing_plan_id":"cebpf4jnsgd1na2vs0mg"},{"bike_id":"67b9abbd-c1c8-4f38-ae38-dface5964065","system_id":"levelo_inurba_marseille","lat":43.29765,"lon":5.370793,"is_reserved":false,"is_disabled":false,"rental_uris":{"android":"levelo://app?vid=67b9abbd-c1c8-4f38-ae38-dface5964065","ios":"levelo://app?vid=67b9abbd-c1c8-4f38-ae38-dface5964065"},"vehicle_type_id":"4","last_reported":1736470085,"current_range_meters":38000,"station_id":"ce4bgop2rcd13ifvqc1g","pricing_plan_id":"cebpf4jnsgd1na2vs0mg"},{"bike_id":"cefba1a6-48d2-4516-8f00-e61ffe1c8379","system_id":"levelo_inurba_marseille","lat":43.28654,"lon":5.36356,"is_reserved":false,"is_disabled":false,"rental_uris":{"android":"levelo://app?vid=cefba1a6-48d2-4516-8f00-e61ffe1c8379","ios":"levelo://app?vid=cefba1a6-48d2-4516-8f00-e61ffe1c8379"},"vehicle_type_id":"4","last_reported":1736470085,"current_range_meters":26000,"station_id":"ce4bhah2rcd13ifvqej0","pricing_plan_id":"cebpf4jnsgd1na2vs0mg"},{"bike_id":"dd95b172-24fd-4056-9bb1-1ba37d74b460","system_id":"levelo_inurba_marseille","lat":43.25577,"lon":5.38199,"is_reserved":false,"is_disabled":false,"rental_uris":{"android":"levelo://app?vid=dd95b172-24fd-4056-9bb1-1ba37d74b460","ios":"levelo://app?vid=dd95b172-24fd-4056-9bb1-1ba37d74b460"},"vehicle_type_id":"4","last_reported":1736470085,"current_range_meters":18000,"station_id":"ce4bhih2rcd13ifvqfs0","pricing_plan_id":"cebpf4jnsgd1na2vs0mg"},{"bike_id":"bf236211-66c7-4105-b8d3-8eece7c20d8f","system_id":"levelo_inurba_marseille","lat":43.30907,"lon":5.39644,"is_reserved":false,"is_disabled":false,"rental_uris":{"android":"levelo://app?vid=bf236211-66c7-4105-b8d3-8eece7c20d8f","ios":"levelo://app?vid=bf236211-66c7-4105-b8d3-8eece7c20d8f"},"vehicle_type_id":"4","last_reported":1736470085,"current_range_meters":6400,"station_id":"ce4bh012rcd13ifvqcv0","pricing_plan_id":"cebpf4jnsgd1na2vs0mg"},{"bike_id":"f084531d-ccce-4cc1-9bfc-4eabd31d5728","system_id":"levelo_inurba_marseille","lat":43.28474,"lon":5.35898,"is_reserved":false,"is_disabled":false,"rental_uris":{"android":"levelo://app?vid=f084531d-ccce-4cc1-9bfc-4eabd31d5728","ios":"levelo://app?vid=f084531d-ccce-4cc1-9bfc-4eabd31d5728"},"vehicle_type_id":"4","last_reported":1736470085,"current_range_meters":31200,"station_id":"ce4bhah2rcd13ifvqei0","pricing_plan_id":"cebpf4jnsgd1na2vs0mg"},{"bike_id":"0e0bf7be-88bc-4eb6-a240-3c95916527df","system_id":"levelo_inurba_marseille","lat":43.29254,"lon":5.40914,"is_reserved":false,"is_disabled":false,"rental_uris":{"android":"levelo://app?vid=0e0bf7be-88bc-4eb6-a240-3c95916527df","ios":"levelo://app?vid=0e0bf7be-88bc-4eb6-a240-3c95916527df"},"vehicle_type_id":"4","last_reported":1736470085,"current_range_meters":38800,"station_id":"ce4bh192rcd13ifvqdc0","pricing_plan_id":"cebpf4jnsgd1na2vs0mg"},{"bike_id":"a5590201-951a-4aa2-bb1e-08dba774e466","system_id":"levelo_inurba_marseille","lat":43.2582,"lon":5.39424,"is_reserved":false,"is_disabled":false,"rental_uris":{"android":"levelo://app?vid=a5590201-951a-4aa2-bb1e-08dba774e466","ios":"levelo://app?vid=a5590201-951a-4aa2-bb1e-08dba774e466"},"vehicle_type_id":"4","last_reported":1736470085,"current_range_meters":38800,"station_id":"ce4bhip2rcd13ifvqft0","pricing_plan_id":"cebpf4jnsgd1na2vs0mg"},{"bike_id":"c6c08f57-1b2b-4d53-aabf-26763484169b","system_id":"levelo_inurba_marseille","lat":43.26563,"lon":5.38992,"is_reserved":false,"is_disabled":true,"rental_uris":{"android":"levelo://app?vid=c6c08f57-1b2b-4d53-aabf-26763484169b","ios":"levelo://app?vid=c6c08f57-1b2b-4d53-aabf-26763484169b"},"vehicle_type_id":"4","last_reported":1736470085,"current_range_meters":0,"station_id":"ce4bhe12rcd13ifvqf30","pricing_plan_id":"cebpf4jnsgd1na2vs0mg"},{"bike_id":"3b4478aa-aa08-44e3-8c3e-0ca0badb5e7a","system_id":"levelo_inurba_marseille","lat":43.31526,"lon":5.38963,"is_reserved":false,"is_disabled":false,"rental_uris":{"android":"levelo://app?vid=3b4478aa-aa08-44e3-8c3e-0ca0badb5e7a","ios":"levelo://app?vid=3b4478aa-aa08-44e3-8c3e-0ca0badb5e7a"},"vehicle_type_id":"4","last_reported":1736470085,"current_range_meters":38800,"station_id":"","pricing_plan_id":"cebpf4jnsgd1na2vs0mg"},{"bike_id":"a77baf89-7945-4f1b-b071-6dbd6b745010","system_id":"levelo_inurba_marseille","lat":43.30891,"lon":5.39653,"is_reserved":false,"is_disabled":false,"rental_uris":{"android":"levelo://app?vid=a77baf89-7945-4f1b-b071-6dbd6b745010","ios":"levelo://app?vid=a77baf89-7945-4f1b-b071-6dbd6b745010"},"vehicle_type_id":"4","last_reported":1736470085,"current_range_meters":12400,"station_id":"ce4bh012rcd13ifvqcv0","pricing_plan_id":"cebpf4jnsgd1na2vs0mg"},{"bike_id":"2a2319f3-5df5-4a7d-afc9-396339b99459","system_id":"levelo_inurba_marseille","lat":43.2713,"lon":5.40998,"is_reserved":false,"is_disabled":true,"rental_uris":{"android":"levelo://app?vid=2a2319f3-5df5-4a7d-afc9-396339b99459","ios":"levelo://app?vid=2a2319f3-5df5-4a7d-afc9-396339b99459"},"vehicle_type_id":"4","last_reported":1736470085,"current_range_meters":30800,"station_id":"ce4bhl12rcd13ifvqgf0","pricing_plan_id":"cebpf4jnsgd1na2vs0mg"},{"bike_id":"a22443c1-ab22-40d4-ac9b-e8d04700d700","system_id":"levelo_inurba_marseille","lat":43.27944,"lon":5.4104,"is_reserved":false,"is_disabled":false,"rental_uris":{"android":"levelo://app?vid=a22443c1-ab22-40d4-ac9b-e8d04700d700","ios":"levelo://app?vid=a22443c1-ab22-40d4-ac9b-e8d04700d700"},"vehicle_type_id":"4","last_reported":1736470085,"current_range_meters":6800,"station_id":"ce4bhnp2rcd13ifvqh0g","pricing_plan_id":"cebpf4jnsgd1na2vs0mg"},{"bike_id":"db2bb327-84ca-49b3-a980-9c69d6ef41a2","system_id":"levelo_inurba_marseille","lat":43.23197,"lon":5.35569,"is_reserved":false,"is_disabled":false,"rental_uris":{"android":"levelo://app?vid=db2bb327-84ca-49b3-a980-9c69d6ef41a2","ios":"levelo://app?vid=db2bb327-84ca-49b3-a980-9c69d6ef41a2"},"vehicle_type_id":"4","last_reported":1736470085,"current_range_meters":38800,"station_id":"ce4bhu92rcd13ifvqi70","pricing_plan_id":"cebpf4jnsgd1na2vs0mg"},{"bike_id":"b1cd05bd-cc6d-452b-8b8c-f24ee7fb627f","system_id":"levelo_inurba_marseille","lat":43.25842,"lon":5.39437,"is_reserved":false,"is_disabled":false,"rental_uris":{"android":"levelo://app?vid=b1cd05bd-cc6d-452b-8b8c-f24ee7fb627f","ios":"levelo://app?vid=b1cd05bd-cc6d-452b-8b8c-f24ee7fb627f"},"vehicle_type_id":"4","last_reported":1736470085,"current_range_meters":38000,"station_id":"ce4bhip2rcd13ifvqft0","pricing_plan_id":"cebpf4jnsgd1na2vs0mg"},{"bike_id":"0efc64bf-284f-4e33-b1df-0d37f1b904ea","system_id":"levelo_inurba_marseille","lat":43.33605,"lon":5.41016,"is_reserved":false,"is_disabled":false,"rental_uris":{"android":"levelo://app?vid=0efc64bf-284f-4e33-b1df-0d37f1b904ea","ios":"levelo://app?vid=0efc64bf-284f-4e33-b1df-0d37f1b904ea"},"vehicle_type_id":"4","last_reported":1736470085,"current_range_meters":39200,"station_id":"ce4bhqh2rcd13ifvqhmg","pricing_plan_id":"cebpf4jnsgd1na2vs0mg"},{"bike_id":"9d27d288-9638-4ffa-a41f-98c9e72676c0","system_id":"levelo_inurba_marseille","lat":43.23189,"lon":5.35549,"is_reserved":false,"is_disabled":false,"rental_uris":{"android":"levelo://app?vid=9d27d288-9638-4ffa-a41f-98c9e72676c0","ios":"levelo://app?vid=9d27d288-9638-4ffa-a41f-98c9e72676c0"},"vehicle_type_id":"4","last_reported":1736470085,"current_range_meters":10000,"station_id":"ce4bhu92rcd13ifvqi70","pricing_plan_id":"cebpf4jnsgd1na2vs0mg"},{"bike_id":"5aee579e-4d1a-4cdd-b13b-286ee35e83d9","system_id":"levelo_inurba_marseille","lat":43.25942,"lon":5.40927,"is_reserved":false,"is_disabled":false,"rental_uris":{"android":"levelo://app?vid=5aee579e-4d1a-4cdd-b13b-286ee35e83d9","ios":"levelo://app?vid=5aee579e-4d1a-4cdd-b13b-286ee35e83d9"},"vehicle_type_id":"4","last_reported":1736470085,"current_range_meters":38400,"station_id":"ce4bhm92rcd13ifvqglg","pricing_plan_id":"cebpf4jnsgd1na2vs0mg"},{"bike_id":"d7c65588-4135-45ba-a72e-ee6776949c5a","system_id":"levelo_inurba_marseille","lat":43.29971,"lon":5.38486,"is_reserved":false,"is_disabled":true,"rental_uris":{"android":"levelo://app?vid=d7c65588-4135-45ba-a72e-ee6776949c5a","ios":"levelo://app?vid=d7c65588-4135-45ba-a72e-ee6776949c5a"},"vehicle_type_id":"4","last_reported":1736470085,"current_range_meters":28400,"station_id":"ce4bgj92rcd13ifvqbd0","pricing_plan_id":"cebpf4jnsgd1na2vs0mg"},{"bike_id":"1c368d5d-818a-4226-8ad8-6658f57fbac1","system_id":"levelo_inurba_marseille","lat":43.32366,"lon":5.38881,"is_reserved":false,"is_disabled":false,"rental_uris":{"android":"levelo://app?vid=1c368d5d-818a-4226-8ad8-6658f57fbac1","ios":"levelo://app?vid=1c368d5d-818a-4226-8ad8-6658f57fbac1"},"vehicle_type_id":"4","last_reported":1736470085,"current_range_meters":32800,"station_id":"ce4bhqp2rcd13ifvqhog","pricing_plan_id":"cebpf4jnsgd1na2vs0mg"},{"bike_id":"3a93340b-3303-4865-8e1e-90ef10f80bdd","system_id":"levelo_inurba_marseille","lat":43.31721,"lon":5.42401,"is_reserved":false,"is_disabled":false,"rental_uris":{"android":"levelo://app?vid=3a93340b-3303-4865-8e1e-90ef10f80bdd","ios":"levelo://app?vid=3a93340b-3303-4865-8e1e-90ef10f80bdd"},"vehicle_type_id":"4","last_reported":1736470085,"current_range_meters":38400,"station_id":"ce4bhp92rcd13ifvqhbg","pricing_plan_id":"cebpf4jnsgd1na2vs0mg"},{"bike_id":"b925ef54-2c19-477d-88be-703368298407","system_id":"levelo_inurba_marseille","lat":43.2848,"lon":5.35913,"is_reserved":false,"is_disabled":false,"rental_uris":{"android":"levelo://app?vid=b925ef54-2c19-477d-88be-703368298407","ios":"levelo://app?vid=b925ef54-2c19-477d-88be-703368298407"},"vehicle_type_id":"4","last_reported":1736470085,"current_range_meters":27200,"station_id":"ce4bhah2rcd13ifvqei0","pricing_plan_id":"cebpf4jnsgd1na2vs0mg"},{"bike_id":"a023b9e2-2413-4b3d-a218-b9727e7097b5","system_id":"levelo_inurba_marseille","lat":43.292991,"lon":5.374633,"is_reserved":false,"is_disabled":true,"rental_uris":{"android":"levelo://app?vid=a023b9e2-2413-4b3d-a218-b9727e7097b5","ios":"levelo://app?vid=a023b9e2-2413-4b3d-a218-b9727e7097b5"},"vehicle_type_id":"4","last_reported":1736470085,"current_range_meters":27600,"station_id":"ce4bgi12rcd13ifvqb70","pricing_plan_id":"cebpf4jnsgd1na2vs0mg"},{"bike_id":"6a751b35-9d68-426a-9e40-1d1cd88bcd8b","system_id":"levelo_inurba_marseille","lat":43.2946,"lon":5.39741,"is_reserved":false,"is_disabled":false,"rental_uris":{"android":"levelo://app?vid=6a751b35-9d68-426a-9e40-1d1cd88bcd8b","ios":"levelo://app?vid=6a751b35-9d68-426a-9e40-1d1cd88bcd8b"},"vehicle_type_id":"4","last_reported":1736470085,"current_range_meters":39200,"station_id":"ce4bh3h2rcd13ifvqdo0","pricing_plan_id":"cebpf4jnsgd1na2vs0mg"},{"bike_id":"307d1598-82eb-46a3-94cc-454f6b403ff6","system_id":"levelo_inurba_marseille","lat":43.311724,"lon":5.387056,"is_reserved":false,"is_disabled":false,"rental_uris":{"android":"levelo://app?vid=307d1598-82eb-46a3-94cc-454f6b403ff6","ios":"levelo://app?vid=307d1598-82eb-46a3-94cc-454f6b403ff6"},"vehicle_type_id":"4","last_reported":1736470085,"current_range_meters":36400,"station_id":"ce4bgv12rcd13ifvqcp0","pricing_plan_id":"cebpf4jnsgd1na2vs0mg"},{"bike_id":"2363cfa9-42a4-4920-b3ca-a2b4f9bf43f9","system_id":"levelo_inurba_marseille","lat":43.28558,"lon":5.395,"is_reserved":false,"is_disabled":false,"rental_uris":{"android":"levelo://app?vid=2363cfa9-42a4-4920-b3ca-a2b4f9bf43f9","ios":"levelo://app?vid=2363cfa9-42a4-4920-b3ca-a2b4f9bf43f9"},"vehicle_type_id":"4","last_reported":1736470085,"current_range_meters":34800,"station_id":"ce4bh292rcd13ifvqdg0","pricing_plan_id":"cebpf4jnsgd1na2vs0mg"},{"bike_id":"6db24be0-87cf-4437-9d32-a18bcf76ec30","system_id":"levelo_inurba_marseille","lat":43.287181,"lon":5.379274,"is_reserved":false,"is_disabled":false,"rental_uris":{"android":"levelo://app?vid=6db24be0-87cf-4437-9d32-a18bcf76ec30","ios":"levelo://app?vid=6db24be0-87cf-4437-9d32-a18bcf76ec30"},"vehicle_type_id":"4","last_reported":1736470085,"current_range_meters":18000,"station_id":"ce4bh9p2rcd13ifvqec0","pricing_plan_id":"cebpf4jnsgd1na2vs0mg"},{"bike_id":"2afebeb9-4711-4bce-acfc-e1e48cc66e5b","system_id":"levelo_inurba_marseille","lat":43.27957,"lon":5.41042,"is_reserved":false,"is_disabled":false,"rental_uris":{"android":"levelo://app?vid=2afebeb9-4711-4bce-acfc-e1e48cc66e5b","ios":"levelo://app?vid=2afebeb9-4711-4bce-acfc-e1e48cc66e5b"},"vehicle_type_id":"4","last_reported":1736470085,"current_range_meters":38800,"station_id":"ce4bhnp2rcd13ifvqh0g","pricing_plan_id":"cebpf4jnsgd1na2vs0mg"},{"bike_id":"ba5c6ff7-25ab-4332-9fbe-f61040fefd2a","system_id":"levelo_inurba_marseille","lat":43.28935,"lon":5.39639,"is_reserved":false,"is_disabled":false,"rental_uris":{"android":"levelo://app?vid=ba5c6ff7-25ab-4332-9fbe-f61040fefd2a","ios":"levelo://app?vid=ba5c6ff7-25ab-4332-9fbe-f61040fefd2a"},"vehicle_type_id":"4","last_reported":1736470085,"current_range_meters":36800,"station_id":"ce4bh3h2rcd13ifvqdn0","pricing_plan_id":"cebpf4jnsgd1na2vs0mg"},{"bike_id":"8cc52d57-1419-4f10-b016-941fc60bdbd1","system_id":"levelo_inurba_marseille","lat":43.28699,"lon":5.40005,"is_reserved":false,"is_disabled":false,"rental_uris":{"android":"levelo://app?vid=8cc52d57-1419-4f10-b016-941fc60bdbd1","ios":"levelo://app?vid=8cc52d57-1419-4f10-b016-941fc60bdbd1"},"vehicle_type_id":"4","last_reported":1736470085,"current_range_meters":10000,"station_id":"ce4bho92rcd13ifvqh3g","pricing_plan_id":"cebpf4jnsgd1na2vs0mg"},{"bike_id":"640e3aab-fb08-45fa-836c-6610ffe254f8","system_id":"levelo_inurba_marseille","lat":43.29887,"lon":5.38933,"is_reserved":false,"is_disabled":false,"rental_uris":{"android":"levelo://app?vid=640e3aab-fb08-45fa-836c-6610ffe254f8","ios":"levelo://app?vid=640e3aab-fb08-45fa-836c-6610ffe254f8"},"vehicle_type_id":"4","last_reported":1736470085,"current_range_meters":36800,"station_id":"ce4bh392rcd13ifvqdl0","pricing_plan_id":"cebpf4jnsgd1na2vs0mg"},{"bike_id":"ed3f17cf-5778-43ab-8288-fa0ac533608e","system_id":"levelo_inurba_marseille","lat":43.27957,"lon":5.41043,"is_reserved":false,"is_disabled":false,"rental_uris":{"android":"levelo://app?vid=ed3f17cf-5778-43ab-8288-fa0ac533608e","ios":"levelo://app?vid=ed3f17cf-5778-43ab-8288-fa0ac533608e"},"vehicle_type_id":"4","last_reported":1736470085,"current_range_meters":12800,"station_id":"ce4bhnp2rcd13ifvqh0g","pricing_plan_id":"cebpf4jnsgd1na2vs0mg"},{"bike_id":"238c4a44-bc27-42db-9afb-803c690b6139","system_id":"levelo_inurba_marseille","lat":43.28076,"lon":5.39646,"is_reserved":false,"is_disabled":false,"rental_uris":{"android":"levelo://app?vid=238c4a44-bc27-42db-9afb-803c690b6139","ios":"levelo://app?vid=238c4a44-bc27-42db-9afb-803c690b6139"},"vehicle_type_id":"4","last_reported":1736470085,"current_range_meters":33600,"station_id":"ce4bho12rcd13ifvqh2g","pricing_plan_id":"cebpf4jnsgd1na2vs0mg"},{"bike_id":"5aa46582-8066-4fee-8988-4c6252810ea1","system_id":"levelo_inurba_marseille","lat":43.32372,"lon":5.38877,"is_reserved":false,"is_disabled":false,"rental_uris":{"android":"levelo://app?vid=5aa46582-8066-4fee-8988-4c6252810ea1","ios":"levelo://app?vid=5aa46582-8066-4fee-8988-4c6252810ea1"},"vehicle_type_id":"4","last_reported":1736470085,"current_range_meters":16000,"station_id":"ce4bhqp2rcd13ifvqhog","pricing_plan_id":"cebpf4jnsgd1na2vs0mg"},{"bike_id":"96a40384-5be5-42c9-8d6e-564bcc3f6faa","system_id":"levelo_inurba_marseille","lat":43.28467,"lon":5.359,"is_reserved":false,"is_disabled":false,"rental_uris":{"android":"levelo://app?vid=96a40384-5be5-42c9-8d6e-564bcc3f6faa","ios":"levelo://app?vid=96a40384-5be5-42c9-8d6e-564bcc3f6faa"},"vehicle_type_id":"4","last_reported":1736470085,"current_range_meters":17600,"station_id":"ce4bhah2rcd13ifvqei0","pricing_plan_id":"cebpf4jnsgd1na2vs0mg"},{"bike_id":"305ec27c-7b37-49a8-8ebc-0d861b475388","system_id":"levelo_inurba_marseille","lat":43.31336,"lon":5.39721,"is_reserved":false,"is_disabled":false,"rental_uris":{"android":"levelo://app?vid=305ec27c-7b37-49a8-8ebc-0d861b475388","ios":"levelo://app?vid=305ec27c-7b37-49a8-8ebc-0d861b475388"},"vehicle_type_id":"4","last_reported":1736470085,"current_range_meters":22000,"station_id":"ce4bgvp2rcd13ifvqcu0","pricing_plan_id":"cebpf4jnsgd1na2vs0mg"},{"bike_id":"f7267b4b-5559-4363-962c-61ea7867b5d1","system_id":"levelo_inurba_marseille","lat":43.25817,"lon":5.39428,"is_reserved":false,"is_disabled":false,"rental_uris":{"android":"levelo://app?vid=f7267b4b-5559-4363-962c-61ea7867b5d1","ios":"levelo://app?vid=f7267b4b-5559-4363-962c-61ea7867b5d1"},"vehicle_type_id":"4","last_reported":1736470085,"current_range_meters":9600,"station_id":"ce4bhip2rcd13ifvqft0","pricing_plan_id":"cebpf4jnsgd1na2vs0mg"},{"bike_id":"877806f5-fd4c-4780-b9e2-22d68bbc29a6","system_id":"levelo_inurba_marseille","lat":43.284465,"lon":5.391983,"is_reserved":false,"is_disabled":false,"rental_uris":{"android":"levelo://app?vid=877806f5-fd4c-4780-b9e2-22d68bbc29a6","ios":"levelo://app?vid=877806f5-fd4c-4780-b9e2-22d68bbc29a6"},"vehicle_type_id":"4","last_reported":1736470085,"current_range_meters":38800,"station_id":"ce4bhoh2rcd13ifvqh5g","pricing_plan_id":"cebpf4jnsgd1na2vs0mg"},{"bike_id":"62a46132-e4b6-4443-b911-decf42c04838","system_id":"levelo_inurba_marseille","lat":43.290287,"lon":5.386539,"is_reserved":false,"is_disabled":true,"rental_uris":{"android":"levelo://app?vid=62a46132-e4b6-4443-b911-decf42c04838","ios":"levelo://app?vid=62a46132-e4b6-4443-b911-decf42c04838"},"vehicle_type_id":"4","last_reported":1736470085,"current_range_meters":37600,"station_id":"ce4bh4p2rcd13ifvqe0g","pricing_plan_id":"cebpf4jnsgd1na2vs0mg"},{"bike_id":"7a0a8a69-615c-43f3-a001-073b74f4a57b","system_id":"levelo_inurba_marseille","lat":43.25571,"lon":5.38243,"is_reserved":false,"is_disabled":false,"rental_uris":{"android":"levelo://app?vid=7a0a8a69-615c-43f3-a001-073b74f4a57b","ios":"levelo://app?vid=7a0a8a69-615c-43f3-a001-073b74f4a57b"},"vehicle_type_id":"4","last_reported":1736470085,"current_range_meters":28400,"station_id":"ce4bhih2rcd13ifvqfs0","pricing_plan_id":"cebpf4jnsgd1na2vs0mg"},{"bike_id":"8e9b7426-4337-4cd7-9c5d-8fb0e8d9b77e","system_id":"levelo_inurba_marseille","lat":43.258593,"lon":5.399014,"is_reserved":false,"is_disabled":false,"rental_uris":{"android":"levelo://app?vid=8e9b7426-4337-4cd7-9c5d-8fb0e8d9b77e","ios":"levelo://app?vid=8e9b7426-4337-4cd7-9c5d-8fb0e8d9b77e"},"vehicle_type_id":"4","last_reported":1736470085,"current_range_meters":38800,"station_id":"ce4bhl92rcd13ifvqghg","pricing_plan_id":"cebpf4jnsgd1na2vs0mg"},{"bike_id":"04b99ebe-7927-40e6-9554-a7aa6d8ff5da","system_id":"levelo_inurba_marseille","lat":43.33004,"lon":5.39043,"is_reserved":false,"is_disabled":false,"rental_uris":{"android":"levelo://app?vid=04b99ebe-7927-40e6-9554-a7aa6d8ff5da","ios":"levelo://app?vid=04b99ebe-7927-40e6-9554-a7aa6d8ff5da"},"vehicle_type_id":"4","last_reported":1736470085,"current_range_meters":38000,"station_id":"ce4bhr92rcd13ifvqhrg","pricing_plan_id":"cebpf4jnsgd1na2vs0mg"},{"bike_id":"284e1831-9922-4f3c-809c-0f802c9ef2e6","system_id":"levelo_inurba_marseille","lat":43.29553,"lon":5.42295,"is_reserved":false,"is_disabled":false,"rental_uris":{"android":"levelo://app?vid=284e1831-9922-4f3c-809c-0f802c9ef2e6","ios":"levelo://app?vid=284e1831-9922-4f3c-809c-0f802c9ef2e6"},"vehicle_type_id":"4","last_reported":1736470085,"current_range_meters":17200,"station_id":"ce4bhph2rcd13ifvqhdg","pricing_plan_id":"cebpf4jnsgd1na2vs0mg"},{"bike_id":"ad744619-fbc5-4026-9541-81b1adebd4d3","system_id":"levelo_inurba_marseille","lat":43.26039,"lon":5.37556,"is_reserved":false,"is_disabled":true,"rental_uris":{"android":"levelo://app?vid=ad744619-fbc5-4026-9541-81b1adebd4d3","ios":"levelo://app?vid=ad744619-fbc5-4026-9541-81b1adebd4d3"},"vehicle_type_id":"4","last_reported":1736470085,"current_range_meters":38800,"station_id":"ce4bhgh2rcd13ifvqfa0","pricing_plan_id":"cebpf4jnsgd1na2vs0mg"},{"bike_id":"2b68127b-8c99-46f9-b65f-98bf288dc9b7","system_id":"levelo_inurba_marseille","lat":43.25578,"lon":5.38215,"is_reserved":false,"is_disabled":false,"rental_uris":{"android":"levelo://app?vid=2b68127b-8c99-46f9-b65f-98bf288dc9b7","ios":"levelo://app?vid=2b68127b-8c99-46f9-b65f-98bf288dc9b7"},"vehicle_type_id":"4","last_reported":1736470085,"current_range_meters":8400,"station_id":"ce4bhih2rcd13ifvqfs0","pricing_plan_id":"cebpf4jnsgd1na2vs0mg"},{"bike_id":"2587b108-3a86-4d12-8bf1-afcd146fb343","system_id":"levelo_inurba_marseille","lat":43.29973,"lon":5.37183,"is_reserved":false,"is_disabled":false,"rental_uris":{"android":"levelo://app?vid=2587b108-3a86-4d12-8bf1-afcd146fb343","ios":"levelo://app?vid=2587b108-3a86-4d12-8bf1-afcd146fb343"},"vehicle_type_id":"4","last_reported":1736470085,"current_range_meters":31200,"station_id":"ce4bgr92rcd13ifvqc7g","pricing_plan_id":"cebpf4jnsgd1na2vs0mg"},{"bike_id":"c3e8e82b-3d74-4fc1-a45d-7c7b1317c76b","system_id":"levelo_inurba_marseille","lat":43.28721,"lon":5.39998,"is_reserved":false,"is_disabled":false,"rental_uris":{"android":"levelo://app?vid=c3e8e82b-3d74-4fc1-a45d-7c7b1317c76b","ios":"levelo://app?vid=c3e8e82b-3d74-4fc1-a45d-7c7b1317c76b"},"vehicle_type_id":"4","last_reported":1736470085,"current_range_meters":27200,"station_id":"ce4bho92rcd13ifvqh3g","pricing_plan_id":"cebpf4jnsgd1na2vs0mg"},{"bike_id":"3a4c38ff-8e4d-4b5c-ba1c-d8dd442dc761","system_id":"levelo_inurba_marseille","lat":43.28942,"lon":5.39628,"is_reserved":false,"is_disabled":false,"rental_uris":{"android":"levelo://app?vid=3a4c38ff-8e4d-4b5c-ba1c-d8dd442dc761","ios":"levelo://app?vid=3a4c38ff-8e4d-4b5c-ba1c-d8dd442dc761"},"vehicle_type_id":"4","last_reported":1736470085,"current_range_meters":32000,"station_id":"ce4bh3h2rcd13ifvqdn0","pricing_plan_id":"cebpf4jnsgd1na2vs0mg"},{"bike_id":"a909d044-925f-4cad-9d20-5633b42ae69f","system_id":"levelo_inurba_marseille","lat":43.24656,"lon":5.38893,"is_reserved":false,"is_disabled":false,"rental_uris":{"android":"levelo://app?vid=a909d044-925f-4cad-9d20-5633b42ae69f","ios":"levelo://app?vid=a909d044-925f-4cad-9d20-5633b42ae69f"},"vehicle_type_id":"4","last_reported":1736470085,"current_range_meters":36800,"station_id":"ce4bhg12rcd13ifvqf60","pricing_plan_id":"cebpf4jnsgd1na2vs0mg"},{"bike_id":"f72ec506-2b55-4620-84fe-c24c2d579719","system_id":"levelo_inurba_marseille","lat":43.31068,"lon":5.38335,"is_reserved":false,"is_disabled":false,"rental_uris":{"android":"levelo://app?vid=f72ec506-2b55-4620-84fe-c24c2d579719","ios":"levelo://app?vid=f72ec506-2b55-4620-84fe-c24c2d579719"},"vehicle_type_id":"4","last_reported":1736470085,"current_range_meters":22400,"station_id":"ce4bgv92rcd13ifvqcr0","pricing_plan_id":"cebpf4jnsgd1na2vs0mg"},{"bike_id":"55fea5e7-e440-416a-842c-fc1fe848fa87","system_id":"levelo_inurba_marseille","lat":43.30806,"lon":5.43531,"is_reserved":false,"is_disabled":false,"rental_uris":{"android":"levelo://app?vid=55fea5e7-e440-416a-842c-fc1fe848fa87","ios":"levelo://app?vid=55fea5e7-e440-416a-842c-fc1fe848fa87"},"vehicle_type_id":"4","last_reported":1736470085,"current_range_meters":38800,"station_id":"ce4bhph2rcd13ifvqheg","pricing_plan_id":"cebpf4jnsgd1na2vs0mg"},{"bike_id":"afa2f74c-aedb-47b2-97a5-134023fc4e7f","system_id":"levelo_inurba_marseille","lat":43.26073,"lon":5.39397,"is_reserved":false,"is_disabled":false,"rental_uris":{"android":"levelo://app?vid=afa2f74c-aedb-47b2-97a5-134023fc4e7f","ios":"levelo://app?vid=afa2f74c-aedb-47b2-97a5-134023fc4e7f"},"vehicle_type_id":"4","last_reported":1736470085,"current_range_meters":38400,"station_id":"ce4bhh92rcd13ifvqfj0","pricing_plan_id":"cebpf4jnsgd1na2vs0mg"},{"bike_id":"53d6a716-2f6e-4189-b40c-4c7a43101f5c","system_id":"levelo_inurba_marseille","lat":43.31689,"lon":5.37756,"is_reserved":false,"is_disabled":false,"rental_uris":{"android":"levelo://app?vid=53d6a716-2f6e-4189-b40c-4c7a43101f5c","ios":"levelo://app?vid=53d6a716-2f6e-4189-b40c-4c7a43101f5c"},"vehicle_type_id":"4","last_reported":1736470085,"current_range_meters":38800,"station_id":"ce4bgth2rcd13ifvqch0","pricing_plan_id":"cebpf4jnsgd1na2vs0mg"},{"bike_id":"09758ab2-87d2-4511-bbf5-77efd8530345","system_id":"levelo_inurba_marseille","lat":43.289352,"lon":5.363923,"is_reserved":false,"is_disabled":false,"rental_uris":{"android":"levelo://app?vid=09758ab2-87d2-4511-bbf5-77efd8530345","ios":"levelo://app?vid=09758ab2-87d2-4511-bbf5-77efd8530345"},"vehicle_type_id":"4","last_reported":1736470085,"current_range_meters":8000,"station_id":"ce4bhc92rcd13ifvqetg","pricing_plan_id":"cebpf4jnsgd1na2vs0mg"},{"bike_id":"e93f83ab-0e3e-4fd9-8d9e-6775678c8e02","system_id":"levelo_inurba_marseille","lat":43.33006,"lon":5.39045,"is_reserved":false,"is_disabled":false,"rental_uris":{"android":"levelo://app?vid=e93f83ab-0e3e-4fd9-8d9e-6775678c8e02","ios":"levelo://app?vid=e93f83ab-0e3e-4fd9-8d9e-6775678c8e02"},"vehicle_type_id":"4","last_reported":1736470085,"current_range_meters":38800,"station_id":"ce4bhr92rcd13ifvqhrg","pricing_plan_id":"cebpf4jnsgd1na2vs0mg"},{"bike_id":"63c28a27-4281-4c19-a194-95b864bba408","system_id":"levelo_inurba_marseille","lat":43.31078,"lon":5.38362,"is_reserved":false,"is_disabled":false,"rental_uris":{"android":"levelo://app?vid=63c28a27-4281-4c19-a194-95b864bba408","ios":"levelo://app?vid=63c28a27-4281-4c19-a194-95b864bba408"},"vehicle_type_id":"4","last_reported":1736470085,"current_range_meters":38800,"station_id":"ce4bgv92rcd13ifvqcr0","pricing_plan_id":"cebpf4jnsgd1na2vs0mg"},{"bike_id":"ec089d31-68e9-41f6-8882-3ea1c7c6730b","system_id":"levelo_inurba_marseille","lat":43.32342,"lon":5.40615,"is_reserved":false,"is_disabled":false,"rental_uris":{"android":"levelo://app?vid=ec089d31-68e9-41f6-8882-3ea1c7c6730b","ios":"levelo://app?vid=ec089d31-68e9-41f6-8882-3ea1c7c6730b"},"vehicle_type_id":"4","last_reported":1736470085,"current_range_meters":39200,"station_id":"ce4bhq92rcd13ifvqhjg","pricing_plan_id":"cebpf4jnsgd1na2vs0mg"},{"bike_id":"27b5647d-ca62-42d8-bbac-f5c71be57bb5","system_id":"levelo_inurba_marseille","lat":43.2946,"lon":5.39752,"is_reserved":false,"is_disabled":false,"rental_uris":{"android":"levelo://app?vid=27b5647d-ca62-42d8-bbac-f5c71be57bb5","ios":"levelo://app?vid=27b5647d-ca62-42d8-bbac-f5c71be57bb5"},"vehicle_type_id":"4","last_reported":1736470085,"current_range_meters":36400,"station_id":"ce4bh3h2rcd13ifvqdo0","pricing_plan_id":"cebpf4jnsgd1na2vs0mg"},{"bike_id":"78ccac9a-f5e4-490f-841f-cd6ed2c22949","system_id":"levelo_inurba_marseille","lat":43.32551,"lon":5.4145,"is_reserved":false,"is_disabled":false,"rental_uris":{"android":"levelo://app?vid=78ccac9a-f5e4-490f-841f-cd6ed2c22949","ios":"levelo://app?vid=78ccac9a-f5e4-490f-841f-cd6ed2c22949"},"vehicle_type_id":"4","last_reported":1736470085,"current_range_meters":39200,"station_id":"ce4bhq12rcd13ifvqhhg","pricing_plan_id":"cebpf4jnsgd1na2vs0mg"},{"bike_id":"b0fafa40-bba8-4c31-b33c-cf20f34626d1","system_id":"levelo_inurba_marseille","lat":43.311705,"lon":5.387148,"is_reserved":false,"is_disabled":false,"rental_uris":{"android":"levelo://app?vid=b0fafa40-bba8-4c31-b33c-cf20f34626d1","ios":"levelo://app?vid=b0fafa40-bba8-4c31-b33c-cf20f34626d1"},"vehicle_type_id":"4","last_reported":1736470085,"current_range_meters":35200,"station_id":"ce4bgv12rcd13ifvqcp0","pricing_plan_id":"cebpf4jnsgd1na2vs0mg"},{"bike_id":"214b9b5f-19f1-491f-af4e-5e03bf6adf13","system_id":"levelo_inurba_marseille","lat":43.28347,"lon":5.38125,"is_reserved":false,"is_disabled":false,"rental_uris":{"android":"levelo://app?vid=214b9b5f-19f1-491f-af4e-5e03bf6adf13","ios":"levelo://app?vid=214b9b5f-19f1-491f-af4e-5e03bf6adf13"},"vehicle_type_id":"4","last_reported":1736470085,"current_range_meters":30800,"station_id":"ce4bh412rcd13ifvqdr0","pricing_plan_id":"cebpf4jnsgd1na2vs0mg"},{"bike_id":"780493d4-89a9-4cb8-8c11-206c98688626","system_id":"levelo_inurba_marseille","lat":43.24091,"lon":5.37737,"is_reserved":false,"is_disabled":false,"rental_uris":{"android":"levelo://app?vid=780493d4-89a9-4cb8-8c11-206c98688626","ios":"levelo://app?vid=780493d4-89a9-4cb8-8c11-206c98688626"},"vehicle_type_id":"4","last_reported":1736470085,"current_range_meters":38000,"station_id":"ce4bhnp2rcd13ifvqgvg","pricing_plan_id":"cebpf4jnsgd1na2vs0mg"},{"bike_id":"4283d4d0-3a84-4f4f-958d-08b7bb254c9b","system_id":"levelo_inurba_marseille","lat":43.30804,"lon":5.37635,"is_reserved":false,"is_disabled":false,"rental_uris":{"android":"levelo://app?vid=4283d4d0-3a84-4f4f-958d-08b7bb254c9b","ios":"levelo://app?vid=4283d4d0-3a84-4f4f-958d-08b7bb254c9b"},"vehicle_type_id":"4","last_reported":1736470085,"current_range_meters":38800,"station_id":"ce4bgv92rcd13ifvqcq0","pricing_plan_id":"cebpf4jnsgd1na2vs0mg"},{"bike_id":"5900bca9-7a17-4753-b91d-33adc9c94c3b","system_id":"levelo_inurba_marseille","lat":43.289347,"lon":5.363963,"is_reserved":false,"is_disabled":false,"rental_uris":{"android":"levelo://app?vid=5900bca9-7a17-4753-b91d-33adc9c94c3b","ios":"levelo://app?vid=5900bca9-7a17-4753-b91d-33adc9c94c3b"},"vehicle_type_id":"4","last_reported":1736470085,"current_range_meters":30000,"station_id":"ce4bhc92rcd13ifvqetg","pricing_plan_id":"cebpf4jnsgd1na2vs0mg"},{"bike_id":"c257a268-0e75-4aeb-a6cf-2a946a2c8544","system_id":"levelo_inurba_marseille","lat":43.27174,"lon":5.40996,"is_reserved":false,"is_disabled":false,"rental_uris":{"android":"levelo://app?vid=c257a268-0e75-4aeb-a6cf-2a946a2c8544","ios":"levelo://app?vid=c257a268-0e75-4aeb-a6cf-2a946a2c8544"},"vehicle_type_id":"4","last_reported":1736470085,"current_range_meters":27200,"station_id":"ce4bhl12rcd13ifvqgf0","pricing_plan_id":"cebpf4jnsgd1na2vs0mg"},{"bike_id":"9c034c72-3b9e-49ce-9a4d-4c4d5e20e5dd","system_id":"levelo_inurba_marseille","lat":43.33012,"lon":5.39044,"is_reserved":false,"is_disabled":false,"rental_uris":{"android":"levelo://app?vid=9c034c72-3b9e-49ce-9a4d-4c4d5e20e5dd","ios":"levelo://app?vid=9c034c72-3b9e-49ce-9a4d-4c4d5e20e5dd"},"vehicle_type_id":"4","last_reported":1736470085,"current_range_meters":11200,"station_id":"ce4bhr92rcd13ifvqhrg","pricing_plan_id":"cebpf4jnsgd1na2vs0mg"},{"bike_id":"5521374a-910d-44eb-8d93-ffc242709188","system_id":"levelo_inurba_marseille","lat":43.31371,"lon":5.37393,"is_reserved":false,"is_disabled":false,"rental_uris":{"android":"levelo://app?vid=5521374a-910d-44eb-8d93-ffc242709188","ios":"levelo://app?vid=5521374a-910d-44eb-8d93-ffc242709188"},"vehicle_type_id":"4","last_reported":1736470085,"current_range_meters":12000,"station_id":"","pricing_plan_id":"cebpf4jnsgd1na2vs0mg"},{"bike_id":"d4b9ec52-492e-41b6-8dae-be3aec56cf81","system_id":"levelo_inurba_marseille","lat":43.28623,"lon":5.35082,"is_reserved":false,"is_disabled":false,"rental_uris":{"android":"levelo://app?vid=d4b9ec52-492e-41b6-8dae-be3aec56cf81","ios":"levelo://app?vid=d4b9ec52-492e-41b6-8dae-be3aec56cf81"},"vehicle_type_id":"4","last_reported":1736470085,"current_range_meters":12000,"station_id":"ce4bhch2rcd13ifvqeug","pricing_plan_id":"cebpf4jnsgd1na2vs0mg"},{"bike_id":"d564cb8f-aa2f-4363-8156-40c4871cbd15","system_id":"levelo_inurba_marseille","lat":43.25112,"lon":5.40303,"is_reserved":false,"is_disabled":false,"rental_uris":{"android":"levelo://app?vid=d564cb8f-aa2f-4363-8156-40c4871cbd15","ios":"levelo://app?vid=d564cb8f-aa2f-4363-8156-40c4871cbd15"},"vehicle_type_id":"4","last_reported":1736470085,"current_range_meters":9200,"station_id":"ce4bhlh2rcd13ifvqgig","pricing_plan_id":"cebpf4jnsgd1na2vs0mg"},{"bike_id":"37d8e1ef-d932-49d7-b893-49542cf44d13","system_id":"levelo_inurba_marseille","lat":43.32345,"lon":5.40629,"is_reserved":false,"is_disabled":true,"rental_uris":{"android":"levelo://app?vid=37d8e1ef-d932-49d7-b893-49542cf44d13","ios":"levelo://app?vid=37d8e1ef-d932-49d7-b893-49542cf44d13"},"vehicle_type_id":"4","last_reported":1736470085,"current_range_meters":0,"station_id":"ce4bhq92rcd13ifvqhjg","pricing_plan_id":"cebpf4jnsgd1na2vs0mg"},{"bike_id":"458c3d58-e6a5-4d1a-8df2-05d9cb3e0072","system_id":"levelo_inurba_marseille","lat":43.255767,"lon":5.382321,"is_reserved":false,"is_disabled":false,"rental_uris":{"android":"levelo://app?vid=458c3d58-e6a5-4d1a-8df2-05d9cb3e0072","ios":"levelo://app?vid=458c3d58-e6a5-4d1a-8df2-05d9cb3e0072"},"vehicle_type_id":"4","last_reported":1736470085,"current_range_meters":18800,"station_id":"ce4bhih2rcd13ifvqfs0","pricing_plan_id":"cebpf4jnsgd1na2vs0mg"},{"bike_id":"10f7d31a-ef8d-4e8a-acbf-8aa9a8c72143","system_id":"levelo_inurba_marseille","lat":43.24388,"lon":5.370471,"is_reserved":false,"is_disabled":false,"rental_uris":{"android":"levelo://app?vid=10f7d31a-ef8d-4e8a-acbf-8aa9a8c72143","ios":"levelo://app?vid=10f7d31a-ef8d-4e8a-acbf-8aa9a8c72143"},"vehicle_type_id":"4","last_reported":1736470085,"current_range_meters":26000,"station_id":"ce4bhhh2rcd13ifvqfk0","pricing_plan_id":"cebpf4jnsgd1na2vs0mg"},{"bike_id":"76eaaf1c-e5b2-4837-8b65-3d4f379582c9","system_id":"levelo_inurba_marseille","lat":43.31536,"lon":5.38038,"is_reserved":false,"is_disabled":false,"rental_uris":{"android":"levelo://app?vid=76eaaf1c-e5b2-4837-8b65-3d4f379582c9","ios":"levelo://app?vid=76eaaf1c-e5b2-4837-8b65-3d4f379582c9"},"vehicle_type_id":"4","last_reported":1736470085,"current_range_meters":38800,"station_id":"ce4bhsp2rcd13ifvqi50","pricing_plan_id":"cebpf4jnsgd1na2vs0mg"},{"bike_id":"265ccaa9-677e-4387-a485-17aa67c4f6fa","system_id":"levelo_inurba_marseille","lat":43.292346,"lon":5.372037,"is_reserved":false,"is_disabled":false,"rental_uris":{"android":"levelo://app?vid=265ccaa9-677e-4387-a485-17aa67c4f6fa","ios":"levelo://app?vid=265ccaa9-677e-4387-a485-17aa67c4f6fa"},"vehicle_type_id":"4","last_reported":1736470085,"current_range_meters":28800,"station_id":"","pricing_plan_id":"cebpf4jnsgd1na2vs0mg"},{"bike_id":"769f0a4c-2b15-4779-92f0-2d70aea7d518","system_id":"levelo_inurba_marseille","lat":43.28339,"lon":5.38103,"is_reserved":false,"is_disabled":false,"rental_uris":{"android":"levelo://app?vid=769f0a4c-2b15-4779-92f0-2d70aea7d518","ios":"levelo://app?vid=769f0a4c-2b15-4779-92f0-2d70aea7d518"},"vehicle_type_id":"4","last_reported":1736470085,"current_range_meters":24000,"station_id":"ce4bh412rcd13ifvqdr0","pricing_plan_id":"cebpf4jnsgd1na2vs0mg"},{"bike_id":"a2b8733f-18d3-4c7f-a699-4ad1eee082fe","system_id":"levelo_inurba_marseille","lat":43.31724,"lon":5.42406,"is_reserved":false,"is_disabled":false,"rental_uris":{"android":"levelo://app?vid=a2b8733f-18d3-4c7f-a699-4ad1eee082fe","ios":"levelo://app?vid=a2b8733f-18d3-4c7f-a699-4ad1eee082fe"},"vehicle_type_id":"4","last_reported":1736470085,"current_range_meters":38800,"station_id":"ce4bhp92rcd13ifvqhbg","pricing_plan_id":"cebpf4jnsgd1na2vs0mg"},{"bike_id":"eb8ec716-9ed9-4f14-bfcc-bb23ae5fe60a","system_id":"levelo_inurba_marseille","lat":43.30905,"lon":5.37214,"is_reserved":false,"is_disabled":false,"rental_uris":{"android":"levelo://app?vid=eb8ec716-9ed9-4f14-bfcc-bb23ae5fe60a","ios":"levelo://app?vid=eb8ec716-9ed9-4f14-bfcc-bb23ae5fe60a"},"vehicle_type_id":"4","last_reported":1736470085,"current_range_meters":19600,"station_id":"ce4bguh2rcd13ifvqckg","pricing_plan_id":"cebpf4jnsgd1na2vs0mg"},{"bike_id":"c0206d3b-e2e9-423c-9056-fc2381d7e8b1","system_id":"levelo_inurba_marseille","lat":43.296101,"lon":5.38108,"is_reserved":false,"is_disabled":true,"rental_uris":{"android":"levelo://app?vid=c0206d3b-e2e9-423c-9056-fc2381d7e8b1","ios":"levelo://app?vid=c0206d3b-e2e9-423c-9056-fc2381d7e8b1"},"vehicle_type_id":"4","last_reported":1736470085,"current_range_meters":28000,"station_id":"ce4bgl12rcd13ifvqbo0","pricing_plan_id":"cebpf4jnsgd1na2vs0mg"},{"bike_id":"385264b1-4061-488d-8853-f978ac44f3cb","system_id":"levelo_inurba_marseille","lat":43.292545,"lon":5.409086,"is_reserved":false,"is_disabled":false,"rental_uris":{"android":"levelo://app?vid=385264b1-4061-488d-8853-f978ac44f3cb","ios":"levelo://app?vid=385264b1-4061-488d-8853-f978ac44f3cb"},"vehicle_type_id":"4","last_reported":1736470085,"current_range_meters":38800,"station_id":"ce4bh192rcd13ifvqdc0","pricing_plan_id":"cebpf4jnsgd1na2vs0mg"},{"bike_id":"4b9552e7-7313-44cc-ba72-6ebb3cfea997","system_id":"levelo_inurba_marseille","lat":43.2607,"lon":5.39399,"is_reserved":false,"is_disabled":false,"rental_uris":{"android":"levelo://app?vid=4b9552e7-7313-44cc-ba72-6ebb3cfea997","ios":"levelo://app?vid=4b9552e7-7313-44cc-ba72-6ebb3cfea997"},"vehicle_type_id":"4","last_reported":1736470085,"current_range_meters":38800,"station_id":"ce4bhh92rcd13ifvqfj0","pricing_plan_id":"cebpf4jnsgd1na2vs0mg"},{"bike_id":"c150f8af-fc8f-4eb5-ac98-0b06dadf4ce0","system_id":"levelo_inurba_marseille","lat":43.25572,"lon":5.38234,"is_reserved":false,"is_disabled":false,"rental_uris":{"android":"levelo://app?vid=c150f8af-fc8f-4eb5-ac98-0b06dadf4ce0","ios":"levelo://app?vid=c150f8af-fc8f-4eb5-ac98-0b06dadf4ce0"},"vehicle_type_id":"4","last_reported":1736470085,"current_range_meters":36000,"station_id":"ce4bhih2rcd13ifvqfs0","pricing_plan_id":"cebpf4jnsgd1na2vs0mg"},{"bike_id":"98516c6c-770c-419d-b009-47d399b69de8","system_id":"levelo_inurba_marseille","lat":43.28048,"lon":5.36956,"is_reserved":false,"is_disabled":false,"rental_uris":{"android":"levelo://app?vid=98516c6c-770c-419d-b009-47d399b69de8","ios":"levelo://app?vid=98516c6c-770c-419d-b009-47d399b69de8"},"vehicle_type_id":"4","last_reported":1736470085,"current_range_meters":38800,"station_id":"ce4bha12rcd13ifvqef0","pricing_plan_id":"cebpf4jnsgd1na2vs0mg"},{"bike_id":"bd6f090a-63c4-4856-adcf-8f9d44b0b172","system_id":"levelo_inurba_marseille","lat":43.3234,"lon":5.4062,"is_reserved":false,"is_disabled":false,"rental_uris":{"android":"levelo://app?vid=bd6f090a-63c4-4856-adcf-8f9d44b0b172","ios":"levelo://app?vid=bd6f090a-63c4-4856-adcf-8f9d44b0b172"},"vehicle_type_id":"4","last_reported":1736470085,"current_range_meters":30400,"station_id":"ce4bhq92rcd13ifvqhjg","pricing_plan_id":"cebpf4jnsgd1na2vs0mg"},{"bike_id":"80e6d864-209b-44fb-bebb-aeae347160a6","system_id":"levelo_inurba_marseille","lat":43.24077,"lon":5.37765,"is_reserved":false,"is_disabled":false,"rental_uris":{"android":"levelo://app?vid=80e6d864-209b-44fb-bebb-aeae347160a6","ios":"levelo://app?vid=80e6d864-209b-44fb-bebb-aeae347160a6"},"vehicle_type_id":"4","last_reported":1736470085,"current_range_meters":25200,"station_id":"ce4bhnp2rcd13ifvqgvg","pricing_plan_id":"cebpf4jnsgd1na2vs0mg"},{"bike_id":"f25bca06-58e2-4668-99f6-4f1ba0ec5e2b","system_id":"levelo_inurba_marseille","lat":43.30421,"lon":5.38885,"is_reserved":false,"is_disabled":false,"rental_uris":{"android":"levelo://app?vid=f25bca06-58e2-4668-99f6-4f1ba0ec5e2b","ios":"levelo://app?vid=f25bca06-58e2-4668-99f6-4f1ba0ec5e2b"},"vehicle_type_id":"4","last_reported":1736470085,"current_range_meters":38800,"station_id":"ce4bgk12rcd13ifvqbi0","pricing_plan_id":"cebpf4jnsgd1na2vs0mg"},{"bike_id":"c82f6ec3-591e-4e72-a6c4-cd4b8d46ce94","system_id":"levelo_inurba_marseille","lat":43.30129,"lon":5.39866,"is_reserved":false,"is_disabled":false,"rental_uris":{"android":"levelo://app?vid=c82f6ec3-591e-4e72-a6c4-cd4b8d46ce94","ios":"levelo://app?vid=c82f6ec3-591e-4e72-a6c4-cd4b8d46ce94"},"vehicle_type_id":"4","last_reported":1736470085,"current_range_meters":26000,"station_id":"ce4bh0h2rcd13ifvqd40","pricing_plan_id":"cebpf4jnsgd1na2vs0mg"},{"bike_id":"1a2f0ab1-f66c-49a5-8317-c823c5c59ec8","system_id":"levelo_inurba_marseille","lat":43.28271,"lon":5.35073,"is_reserved":false,"is_disabled":false,"rental_uris":{"android":"levelo://app?vid=1a2f0ab1-f66c-49a5-8317-c823c5c59ec8","ios":"levelo://app?vid=1a2f0ab1-f66c-49a5-8317-c823c5c59ec8"},"vehicle_type_id":"4","last_reported":1736470085,"current_range_meters":20400,"station_id":"ce4bhbp2rcd13ifvqerg","pricing_plan_id":"cebpf4jnsgd1na2vs0mg"},{"bike_id":"60ce1b70-e47d-4caf-abee-52e7d5bfe299","system_id":"levelo_inurba_marseille","lat":43.24645,"lon":5.389,"is_reserved":false,"is_disabled":false,"rental_uris":{"android":"levelo://app?vid=60ce1b70-e47d-4caf-abee-52e7d5bfe299","ios":"levelo://app?vid=60ce1b70-e47d-4caf-abee-52e7d5bfe299"},"vehicle_type_id":"4","last_reported":1736470085,"current_range_meters":36800,"station_id":"ce4bhg12rcd13ifvqf60","pricing_plan_id":"cebpf4jnsgd1na2vs0mg"},{"bike_id":"7627c0f8-e30b-4018-a991-3dd21750fc78","system_id":"levelo_inurba_marseille","lat":43.287199,"lon":5.379354,"is_reserved":false,"is_disabled":true,"rental_uris":{"android":"levelo://app?vid=7627c0f8-e30b-4018-a991-3dd21750fc78","ios":"levelo://app?vid=7627c0f8-e30b-4018-a991-3dd21750fc78"},"vehicle_type_id":"4","last_reported":1736470085,"current_range_meters":38800,"station_id":"ce4bh9p2rcd13ifvqec0","pricing_plan_id":"cebpf4jnsgd1na2vs0mg"},{"bike_id":"bf34816d-cef3-45df-a814-b99e8dc67c6d","system_id":"levelo_inurba_marseille","lat":43.23191,"lon":5.399761,"is_reserved":false,"is_disabled":false,"rental_uris":{"android":"levelo://app?vid=bf34816d-cef3-45df-a814-b99e8dc67c6d","ios":"levelo://app?vid=bf34816d-cef3-45df-a814-b99e8dc67c6d"},"vehicle_type_id":"4","last_reported":1736470085,"current_range_meters":38800,"station_id":"ce4bhn12rcd13ifvqgqg","pricing_plan_id":"cebpf4jnsgd1na2vs0mg"},{"bike_id":"fdd1c975-72e3-4a95-84d0-3b98dbe8418d","system_id":"levelo_inurba_marseille","lat":43.27831,"lon":5.4068,"is_reserved":false,"is_disabled":false,"rental_uris":{"android":"levelo://app?vid=fdd1c975-72e3-4a95-84d0-3b98dbe8418d","ios":"levelo://app?vid=fdd1c975-72e3-4a95-84d0-3b98dbe8418d"},"vehicle_type_id":"4","last_reported":1736470085,"current_range_meters":36800,"station_id":"ce4bhnh2rcd13ifvqgtg","pricing_plan_id":"cebpf4jnsgd1na2vs0mg"},{"bike_id":"308984d2-4ac2-4e57-a3b8-f9c39a3111f1","system_id":"levelo_inurba_marseille","lat":43.30932,"lon":5.40145,"is_reserved":false,"is_disabled":false,"rental_uris":{"android":"levelo://app?vid=308984d2-4ac2-4e57-a3b8-f9c39a3111f1","ios":"levelo://app?vid=308984d2-4ac2-4e57-a3b8-f9c39a3111f1"},"vehicle_type_id":"4","last_reported":1736470085,"current_range_meters":30800,"station_id":"ce4bgvp2rcd13ifvqct0","pricing_plan_id":"cebpf4jnsgd1na2vs0mg"},{"bike_id":"faf0050b-b5a7-4bec-bfa0-e7a9d68766e9","system_id":"levelo_inurba_marseille","lat":43.31527,"lon":5.38035,"is_reserved":false,"is_disabled":false,"rental_uris":{"android":"levelo://app?vid=faf0050b-b5a7-4bec-bfa0-e7a9d68766e9","ios":"levelo://app?vid=faf0050b-b5a7-4bec-bfa0-e7a9d68766e9"},"vehicle_type_id":"4","last_reported":1736470085,"current_range_meters":24800,"station_id":"ce4bhsp2rcd13ifvqi50","pricing_plan_id":"cebpf4jnsgd1na2vs0mg"},{"bike_id":"1a384f5f-6317-4052-aef8-4ec0b89855d7","system_id":"levelo_inurba_marseille","lat":43.28706,"lon":5.39991,"is_reserved":false,"is_disabled":false,"rental_uris":{"android":"levelo://app?vid=1a384f5f-6317-4052-aef8-4ec0b89855d7","ios":"levelo://app?vid=1a384f5f-6317-4052-aef8-4ec0b89855d7"},"vehicle_type_id":"4","last_reported":1736470085,"current_range_meters":16400,"station_id":"ce4bho92rcd13ifvqh3g","pricing_plan_id":"cebpf4jnsgd1na2vs0mg"},{"bike_id":"5d936a77-9a97-44aa-8f10-c405e2c81429","system_id":"levelo_inurba_marseille","lat":43.31342,"lon":5.39694,"is_reserved":false,"is_disabled":false,"rental_uris":{"android":"levelo://app?vid=5d936a77-9a97-44aa-8f10-c405e2c81429","ios":"levelo://app?vid=5d936a77-9a97-44aa-8f10-c405e2c81429"},"vehicle_type_id":"4","last_reported":1736470085,"current_range_meters":32000,"station_id":"ce4bgvp2rcd13ifvqcu0","pricing_plan_id":"cebpf4jnsgd1na2vs0mg"},{"bike_id":"48998462-e2fe-4046-8dbf-a3db091ad704","system_id":"levelo_inurba_marseille","lat":43.25544,"lon":5.38207,"is_reserved":false,"is_disabled":true,"rental_uris":{"android":"levelo://app?vid=48998462-e2fe-4046-8dbf-a3db091ad704","ios":"levelo://app?vid=48998462-e2fe-4046-8dbf-a3db091ad704"},"vehicle_type_id":"4","last_reported":1736470085,"current_range_meters":25600,"station_id":"ce4bhih2rcd13ifvqfs0","pricing_plan_id":"cebpf4jnsgd1na2vs0mg"},{"bike_id":"cad4a6a5-5208-47dd-a17d-ca38efa63f22","system_id":"levelo_inurba_marseille","lat":43.31092,"lon":5.38211,"is_reserved":false,"is_disabled":true,"rental_uris":{"android":"levelo://app?vid=cad4a6a5-5208-47dd-a17d-ca38efa63f22","ios":"levelo://app?vid=cad4a6a5-5208-47dd-a17d-ca38efa63f22"},"vehicle_type_id":"4","last_reported":1736470085,"current_range_meters":28000,"station_id":"","pricing_plan_id":"cebpf4jnsgd1na2vs0mg"},{"bike_id":"59680959-993e-49d5-827b-d5b17bfefc71","system_id":"levelo_inurba_marseille","lat":43.27835,"lon":5.39199,"is_reserved":false,"is_disabled":true,"rental_uris":{"android":"levelo://app?vid=59680959-993e-49d5-827b-d5b17bfefc71","ios":"levelo://app?vid=59680959-993e-49d5-827b-d5b17bfefc71"},"vehicle_type_id":"4","last_reported":1736470085,"current_range_meters":1200,"station_id":"ce4bhjp2rcd13ifvqga0","pricing_plan_id":"cebpf4jnsgd1na2vs0mg"},{"bike_id":"56066566-e71e-4864-b4c5-3cf252ae8ebf","system_id":"levelo_inurba_marseille","lat":43.28155,"lon":5.42653,"is_reserved":false,"is_disabled":false,"rental_uris":{"android":"levelo://app?vid=56066566-e71e-4864-b4c5-3cf252ae8ebf","ios":"levelo://app?vid=56066566-e71e-4864-b4c5-3cf252ae8ebf"},"vehicle_type_id":"4","last_reported":1736470085,"current_range_meters":27200,"station_id":"ce4bhnh2rcd13ifvqgug","pricing_plan_id":"cebpf4jnsgd1na2vs0mg"},{"bike_id":"fc1057d4-90a1-4917-8219-50abd6b84da3","system_id":"levelo_inurba_marseille","lat":43.32108,"lon":5.367719,"is_reserved":false,"is_disabled":false,"rental_uris":{"android":"levelo://app?vid=fc1057d4-90a1-4917-8219-50abd6b84da3","ios":"levelo://app?vid=fc1057d4-90a1-4917-8219-50abd6b84da3"},"vehicle_type_id":"4","last_reported":1736470085,"current_range_meters":24800,"station_id":"ce4bhrh2rcd13ifvqhug","pricing_plan_id":"cebpf4jnsgd1na2vs0mg"},{"bike_id":"4f8f2366-d8ce-4c12-8ff1-9881cb0f3be0","system_id":"levelo_inurba_marseille","lat":43.27948,"lon":5.41014,"is_reserved":false,"is_disabled":false,"rental_uris":{"android":"levelo://app?vid=4f8f2366-d8ce-4c12-8ff1-9881cb0f3be0","ios":"levelo://app?vid=4f8f2366-d8ce-4c12-8ff1-9881cb0f3be0"},"vehicle_type_id":"4","last_reported":1736470085,"current_range_meters":30000,"station_id":"ce4bhnp2rcd13ifvqh0g","pricing_plan_id":"cebpf4jnsgd1na2vs0mg"},{"bike_id":"aa637afa-5dab-4e4f-a5b1-a846e41a59b6","system_id":"levelo_inurba_marseille","lat":43.240719,"lon":5.37754,"is_reserved":false,"is_disabled":false,"rental_uris":{"android":"levelo://app?vid=aa637afa-5dab-4e4f-a5b1-a846e41a59b6","ios":"levelo://app?vid=aa637afa-5dab-4e4f-a5b1-a846e41a59b6"},"vehicle_type_id":"4","last_reported":1736470085,"current_range_meters":38000,"station_id":"ce4bhnp2rcd13ifvqgvg","pricing_plan_id":"cebpf4jnsgd1na2vs0mg"},{"bike_id":"0ef3ebb3-ef22-4405-9956-256235530679","system_id":"levelo_inurba_marseille","lat":43.3112,"lon":5.37765,"is_reserved":false,"is_disabled":false,"rental_uris":{"android":"levelo://app?vid=0ef3ebb3-ef22-4405-9956-256235530679","ios":"levelo://app?vid=0ef3ebb3-ef22-4405-9956-256235530679"},"vehicle_type_id":"4","last_reported":1736470085,"current_range_meters":36800,"station_id":"ce4bgt92rcd13ifvqcg0","pricing_plan_id":"cebpf4jnsgd1na2vs0mg"},{"bike_id":"7475f743-fa68-4b23-ab37-60e01b01184f","system_id":"levelo_inurba_marseille","lat":43.32131,"lon":5.36796,"is_reserved":false,"is_disabled":false,"rental_uris":{"android":"levelo://app?vid=7475f743-fa68-4b23-ab37-60e01b01184f","ios":"levelo://app?vid=7475f743-fa68-4b23-ab37-60e01b01184f"},"vehicle_type_id":"4","last_reported":1736470085,"current_range_meters":34800,"station_id":"ce4bhrh2rcd13ifvqhug","pricing_plan_id":"cebpf4jnsgd1na2vs0mg"},{"bike_id":"d1d000c4-6fcf-4cb4-a087-1ba0652affb6","system_id":"levelo_inurba_marseille","lat":43.278952,"lon":5.380043,"is_reserved":false,"is_disabled":false,"rental_uris":{"android":"levelo://app?vid=d1d000c4-6fcf-4cb4-a087-1ba0652affb6","ios":"levelo://app?vid=d1d000c4-6fcf-4cb4-a087-1ba0652affb6"},"vehicle_type_id":"4","last_reported":1736470085,"current_range_meters":36800,"station_id":"ce4bhf92rcd13ifvqf50","pricing_plan_id":"cebpf4jnsgd1na2vs0mg"},{"bike_id":"5cf29208-2372-494a-8ba6-49dc999fdb5d","system_id":"levelo_inurba_marseille","lat":43.28454,"lon":5.35894,"is_reserved":false,"is_disabled":false,"rental_uris":{"android":"levelo://app?vid=5cf29208-2372-494a-8ba6-49dc999fdb5d","ios":"levelo://app?vid=5cf29208-2372-494a-8ba6-49dc999fdb5d"},"vehicle_type_id":"4","last_reported":1736470085,"current_range_meters":38800,"station_id":"ce4bhah2rcd13ifvqei0","pricing_plan_id":"cebpf4jnsgd1na2vs0mg"},{"bike_id":"32e4f23c-4681-4116-80d2-6e73c5fc5a79","system_id":"levelo_inurba_marseille","lat":43.28466,"lon":5.35892,"is_reserved":false,"is_disabled":false,"rental_uris":{"android":"levelo://app?vid=32e4f23c-4681-4116-80d2-6e73c5fc5a79","ios":"levelo://app?vid=32e4f23c-4681-4116-80d2-6e73c5fc5a79"},"vehicle_type_id":"4","last_reported":1736470085,"current_range_meters":29600,"station_id":"ce4bhah2rcd13ifvqei0","pricing_plan_id":"cebpf4jnsgd1na2vs0mg"},{"bike_id":"95137cb2-3e5e-4bda-b53c-fb03d7bd6ba3","system_id":"levelo_inurba_marseille","lat":43.30931,"lon":5.40144,"is_reserved":false,"is_disabled":false,"rental_uris":{"android":"levelo://app?vid=95137cb2-3e5e-4bda-b53c-fb03d7bd6ba3","ios":"levelo://app?vid=95137cb2-3e5e-4bda-b53c-fb03d7bd6ba3"},"vehicle_type_id":"4","last_reported":1736470085,"current_range_meters":37600,"station_id":"ce4bgvp2rcd13ifvqct0","pricing_plan_id":"cebpf4jnsgd1na2vs0mg"},{"bike_id":"9a317132-64ac-46cf-a22f-3828debffdf3","system_id":"levelo_inurba_marseille","lat":43.33609,"lon":5.41024,"is_reserved":false,"is_disabled":false,"rental_uris":{"android":"levelo://app?vid=9a317132-64ac-46cf-a22f-3828debffdf3","ios":"levelo://app?vid=9a317132-64ac-46cf-a22f-3828debffdf3"},"vehicle_type_id":"4","last_reported":1736470085,"current_range_meters":36400,"station_id":"ce4bhqh2rcd13ifvqhmg","pricing_plan_id":"cebpf4jnsgd1na2vs0mg"},{"bike_id":"3d97d3e0-d45c-47c2-9a56-3b2182dc5b15","system_id":"levelo_inurba_marseille","lat":43.2795,"lon":5.3869,"is_reserved":false,"is_disabled":true,"rental_uris":{"android":"levelo://app?vid=3d97d3e0-d45c-47c2-9a56-3b2182dc5b15","ios":"levelo://app?vid=3d97d3e0-d45c-47c2-9a56-3b2182dc5b15"},"vehicle_type_id":"4","last_reported":1736470085,"current_range_meters":0,"station_id":"","pricing_plan_id":"cebpf4jnsgd1na2vs0mg"},{"bike_id":"823c8575-8623-4f9d-b212-32e17c339b79","system_id":"levelo_inurba_marseille","lat":43.29805,"lon":5.40407,"is_reserved":false,"is_disabled":false,"rental_uris":{"android":"levelo://app?vid=823c8575-8623-4f9d-b212-32e17c339b79","ios":"levelo://app?vid=823c8575-8623-4f9d-b212-32e17c339b79"},"vehicle_type_id":"4","last_reported":1736470085,"current_range_meters":38800,"station_id":"ce4bh112rcd13ifvqd90","pricing_plan_id":"cebpf4jnsgd1na2vs0mg"},{"bike_id":"4e0019cf-52cd-46d1-aea3-0326268bc0d3","system_id":"levelo_inurba_marseille","lat":43.31533,"lon":5.38038,"is_reserved":false,"is_disabled":false,"rental_uris":{"android":"levelo://app?vid=4e0019cf-52cd-46d1-aea3-0326268bc0d3","ios":"levelo://app?vid=4e0019cf-52cd-46d1-aea3-0326268bc0d3"},"vehicle_type_id":"4","last_reported":1736470085,"current_range_meters":27600,"station_id":"ce4bhsp2rcd13ifvqi50","pricing_plan_id":"cebpf4jnsgd1na2vs0mg"},{"bike_id":"941336d8-cbdc-4d16-8677-6483f7579cc9","system_id":"levelo_inurba_marseille","lat":43.26212,"lon":5.37459,"is_reserved":false,"is_disabled":false,"rental_uris":{"android":"levelo://app?vid=941336d8-cbdc-4d16-8677-6483f7579cc9","ios":"levelo://app?vid=941336d8-cbdc-4d16-8677-6483f7579cc9"},"vehicle_type_id":"4","last_reported":1736470085,"current_range_meters":29600,"station_id":"ce4bhgp2rcd13ifvqfc0","pricing_plan_id":"cebpf4jnsgd1na2vs0mg"},{"bike_id":"87ce24d1-2898-442b-8045-27ec953b3ea6","system_id":"levelo_inurba_marseille","lat":43.33597,"lon":5.40977,"is_reserved":false,"is_disabled":false,"rental_uris":{"android":"levelo://app?vid=87ce24d1-2898-442b-8045-27ec953b3ea6","ios":"levelo://app?vid=87ce24d1-2898-442b-8045-27ec953b3ea6"},"vehicle_type_id":"4","last_reported":1736470085,"current_range_meters":39200,"station_id":"ce4bhqh2rcd13ifvqhmg","pricing_plan_id":"cebpf4jnsgd1na2vs0mg"},{"bike_id":"2eb264c8-1e8d-4f17-a831-3cda07857865","system_id":"levelo_inurba_marseille","lat":43.32119,"lon":5.36783,"is_reserved":false,"is_disabled":false,"rental_uris":{"android":"levelo://app?vid=2eb264c8-1e8d-4f17-a831-3cda07857865","ios":"levelo://app?vid=2eb264c8-1e8d-4f17-a831-3cda07857865"},"vehicle_type_id":"4","last_reported":1736470085,"current_range_meters":36800,"station_id":"ce4bhrh2rcd13ifvqhug","pricing_plan_id":"cebpf4jnsgd1na2vs0mg"},{"bike_id":"01c271f5-76bb-43c9-9ffa-59f26cb0ed1e","system_id":"levelo_inurba_marseille","lat":43.28922,"lon":5.36385,"is_reserved":false,"is_disabled":false,"rental_uris":{"android":"levelo://app?vid=01c271f5-76bb-43c9-9ffa-59f26cb0ed1e","ios":"levelo://app?vid=01c271f5-76bb-43c9-9ffa-59f26cb0ed1e"},"vehicle_type_id":"4","last_reported":1736470085,"current_range_meters":38800,"station_id":"ce4bhc92rcd13ifvqetg","pricing_plan_id":"cebpf4jnsgd1na2vs0mg"},{"bike_id":"c6797cf1-f0cd-4826-b75a-873856b4d3b9","system_id":"levelo_inurba_marseille","lat":43.30462,"lon":5.38918,"is_reserved":false,"is_disabled":false,"rental_uris":{"android":"levelo://app?vid=c6797cf1-f0cd-4826-b75a-873856b4d3b9","ios":"levelo://app?vid=c6797cf1-f0cd-4826-b75a-873856b4d3b9"},"vehicle_type_id":"4","last_reported":1736470085,"current_range_meters":38800,"station_id":"ce4bgk12rcd13ifvqbi0","pricing_plan_id":"cebpf4jnsgd1na2vs0mg"},{"bike_id":"1e2223a2-c032-49e7-8dbf-982df86a0520","system_id":"levelo_inurba_marseille","lat":43.2292,"lon":5.35357,"is_reserved":false,"is_disabled":false,"rental_uris":{"android":"levelo://app?vid=1e2223a2-c032-49e7-8dbf-982df86a0520","ios":"levelo://app?vid=1e2223a2-c032-49e7-8dbf-982df86a0520"},"vehicle_type_id":"4","last_reported":1736470085,"current_range_meters":34800,"station_id":"cpo3532slgdg3j2ikp40","pricing_plan_id":"cebpf4jnsgd1na2vs0mg"},{"bike_id":"4a20735a-ebc8-49e8-b75a-98caa4fb63fb","system_id":"levelo_inurba_marseille","lat":43.29905,"lon":5.39722,"is_reserved":false,"is_disabled":false,"rental_uris":{"android":"levelo://app?vid=4a20735a-ebc8-49e8-b75a-98caa4fb63fb","ios":"levelo://app?vid=4a20735a-ebc8-49e8-b75a-98caa4fb63fb"},"vehicle_type_id":"4","last_reported":1736470085,"current_range_meters":33600,"station_id":"ce4bh0h2rcd13ifvqd50","pricing_plan_id":"cebpf4jnsgd1na2vs0mg"},{"bike_id":"c9c5e0ac-efb1-41af-b5a7-fc18dd462468","system_id":"levelo_inurba_marseille","lat":43.30355,"lon":5.41887,"is_reserved":false,"is_disabled":false,"rental_uris":{"android":"levelo://app?vid=c9c5e0ac-efb1-41af-b5a7-fc18dd462468","ios":"levelo://app?vid=c9c5e0ac-efb1-41af-b5a7-fc18dd462468"},"vehicle_type_id":"4","last_reported":1736470085,"current_range_meters":38800,"station_id":"ce4bhop2rcd13ifvqh7g","pricing_plan_id":"cebpf4jnsgd1na2vs0mg"},{"bike_id":"0c4074c2-dc16-4ce5-a81a-e106d246d5dc","system_id":"levelo_inurba_marseille","lat":43.29956,"lon":5.41322,"is_reserved":false,"is_disabled":false,"rental_uris":{"android":"levelo://app?vid=0c4074c2-dc16-4ce5-a81a-e106d246d5dc","ios":"levelo://app?vid=0c4074c2-dc16-4ce5-a81a-e106d246d5dc"},"vehicle_type_id":"4","last_reported":1736470085,"current_range_meters":38000,"station_id":"ce4bhp12rcd13ifvqh9g","pricing_plan_id":"cebpf4jnsgd1na2vs0mg"},{"bike_id":"be8a233f-ad85-41b2-af03-bfa1e3033438","system_id":"levelo_inurba_marseille","lat":43.23204,"lon":5.3555,"is_reserved":false,"is_disabled":false,"rental_uris":{"android":"levelo://app?vid=be8a233f-ad85-41b2-af03-bfa1e3033438","ios":"levelo://app?vid=be8a233f-ad85-41b2-af03-bfa1e3033438"},"vehicle_type_id":"4","last_reported":1736470085,"current_range_meters":26800,"station_id":"ce4bhu92rcd13ifvqi70","pricing_plan_id":"cebpf4jnsgd1na2vs0mg"},{"bike_id":"b124ca2f-2fd0-4c56-960f-1b8a90949c3b","system_id":"levelo_inurba_marseille","lat":43.2953,"lon":5.37504,"is_reserved":false,"is_disabled":true,"rental_uris":{"android":"levelo://app?vid=b124ca2f-2fd0-4c56-960f-1b8a90949c3b","ios":"levelo://app?vid=b124ca2f-2fd0-4c56-960f-1b8a90949c3b"},"vehicle_type_id":"4","last_reported":1736470085,"current_range_meters":27600,"station_id":"ce4bgkp2rcd13ifvqbmg","pricing_plan_id":"cebpf4jnsgd1na2vs0mg"},{"bike_id":"12c2287f-9e8d-49c0-b3f9-311c8762c93f","system_id":"levelo_inurba_marseille","lat":43.31328,"lon":5.39705,"is_reserved":false,"is_disabled":false,"rental_uris":{"android":"levelo://app?vid=12c2287f-9e8d-49c0-b3f9-311c8762c93f","ios":"levelo://app?vid=12c2287f-9e8d-49c0-b3f9-311c8762c93f"},"vehicle_type_id":"4","last_reported":1736470085,"current_range_meters":24800,"station_id":"ce4bgvp2rcd13ifvqcu0","pricing_plan_id":"cebpf4jnsgd1na2vs0mg"},{"bike_id":"093d9ce3-4d12-4d1d-bdcc-8d78ef369464","system_id":"levelo_inurba_marseille","lat":43.3039,"lon":5.37084,"is_reserved":false,"is_disabled":false,"rental_uris":{"android":"levelo://app?vid=093d9ce3-4d12-4d1d-bdcc-8d78ef369464","ios":"levelo://app?vid=093d9ce3-4d12-4d1d-bdcc-8d78ef369464"},"vehicle_type_id":"4","last_reported":1736470085,"current_range_meters":19600,"station_id":"","pricing_plan_id":"cebpf4jnsgd1na2vs0mg"},{"bike_id":"2bf137df-75b1-44ad-8782-8d7ae5906911","system_id":"levelo_inurba_marseille","lat":43.30436,"lon":5.38877,"is_reserved":false,"is_disabled":false,"rental_uris":{"android":"levelo://app?vid=2bf137df-75b1-44ad-8782-8d7ae5906911","ios":"levelo://app?vid=2bf137df-75b1-44ad-8782-8d7ae5906911"},"vehicle_type_id":"4","last_reported":1736470085,"current_range_meters":35600,"station_id":"ce4bgk12rcd13ifvqbi0","pricing_plan_id":"cebpf4jnsgd1na2vs0mg"},{"bike_id":"4aad0410-bd95-44cd-abd3-4e2ef7290f2c","system_id":"levelo_inurba_marseille","lat":43.254992,"lon":5.376507,"is_reserved":false,"is_disabled":false,"rental_uris":{"android":"levelo://app?vid=4aad0410-bd95-44cd-abd3-4e2ef7290f2c","ios":"levelo://app?vid=4aad0410-bd95-44cd-abd3-4e2ef7290f2c"},"vehicle_type_id":"4","last_reported":1736470085,"current_range_meters":37600,"station_id":"ce4bhh12rcd13ifvqff0","pricing_plan_id":"cebpf4jnsgd1na2vs0mg"},