{"last_updated":1702058956,"ttl":30,"version":"2.2","data":{"bikes":[{"bike_id":"b053c569-655a-44d5-b085-a0d4ef0fcc19","system_id":"levelo_inurba_marseille","lat":43.31341,"lon":5.367098,"is_reserved":false,"is_disabled":false,"rental_uris":{"android":"levelo://app?vid=b053c569-655a-44d5-b085-a0d4ef0fcc19","ios":"levelo://app?vid=b053c569-655a-44d5-b085-a0d4ef0fcc19"},"vehicle_type_id":"4","last_reported":1702058956,"current_range_meters":1600,"station_id":"ce4bgr92rcd13ifvqc6g","pricing_plan_id":"free"},{"bike_id":"d66356e1-c330-406d-8c0b-f8c62c703981","system_id":"levelo_inurba_marseille","lat":43.312239,"lon":5.368562,"is_reserved":false,"is_disabled":false,"rental_uris":{"android":"levelo://app?vid=d66356e1-c330-406d-8c0b-f8c62c703981","ios":"levelo://app?vid=d66356e1-c330-406d-8c0b-f8c62c703981"},"vehicle_type_id":"4","last_reported":1702058956,"current_range_meters":22800,"station_id":"ce4bgl92rcd13ifvqbq0","pricing_plan_id":"free"},{"bike_id":"4cec0a5d-552d-4e11-b6d1-20ef51e25022","system_id":"levelo_inurba_marseille","lat":43.312239,"lon":5.368562,"is_reserved":false,"is_disabled":false,"rental_uris":{"android":"levelo://app?vid=4cec0a5d-552d-4e11-b6d1-20ef51e25022","ios":"levelo://app?vid=4cec0a5d-552d-4e11-b6d1-20ef51e25022"},"vehicle_type_id":"4","last_reported":1702058956,"current_range_meters":22400,"station_id":"ce4bgl92rcd13ifvqbq0","pricing_plan_id":"free"},{"bike_id":"ecd343a8-99d7-4faa-8988-4489dd79c926","system_id":"levelo_inurba_marseille","lat":43.314811,"lon":5.373103,"is_reserved":false,"is_disabled":false,"rental_uris":{"android":"levelo://app?vid=ecd343a8-99d7-4faa-8988-4489dd79c926","ios":"levelo://app?vid=ecd343a8-99d7-4faa-8988-4489dd79c926"},"vehicle_type_id":"4","last_reported":1702058956,"current_range_meters":10000,"station_id":"ce4bgt12rcd13ifvqcd0","pricing_plan_id":"free"},{"bike_id":"0290330a-c6a0-4dfe-993c-5c810aa7b4a0","system_id":"levelo_inurba_marseille","lat":43.305989,"lon":5.37225,"is_reserved":false,"is_disabled":false,"rental_uris":{"android":"levelo://app?vid=0290330a-c6a0-4dfe-993c-5c810aa7b4a0","ios":"levelo://app?vid=0290330a-c6a0-4dfe-993c-5c810aa7b4a0"},"vehicle_type_id":"4","last_reported":1702058956,"current_range_meters":25600,"station_id":"ce4bgqh2rcd13ifvqc4g","pricing_plan_id":"free"},{"bike_id":"28ac117c-ee0b-448b-9af0-0060e2df938b","system_id":"levelo_inurba_marseille","lat":43.303046,"lon":5.368981,"is_reserved":false,"is_disabled":false,"rental_uris":{"android":"levelo://app?vid=28ac117c-ee0b-448b-9af0-0060e2df938b","ios":"levelo://app?vid=28ac117c-ee0b-448b-9af0-0060e2df938b"},"vehicle_type_id":"4","last_reported":1702058956,"current_range_meters":30000,"station_id":"ce4bgqh2rcd13ifvqc5g","pricing_plan_id":"free"},{"bike_id":"e51432b4-426d-4f58-82f5-490e46d771c7","system_id":"levelo_inurba_marseille","lat":43.30304,"lon":5.368987,"is_reserved":false,"is_disabled":false,"rental_uris":{"android":"levelo://app?vid=e51432b4-426d-4f58-82f5-490e46d771c7","ios":"levelo://app?vid=e51432b4-426d-4f58-82f5-490e46d771c7"},"vehicle_type_id":"4","last_reported":1702058956,"current_range_meters":30000,"station_id":"ce4bgqh2rcd13ifvqc5g","pricing_plan_id":"free"},{"bike_id":"24fdeb85-046c-49ec-ab94-6a168c787047","system_id":"levelo_inurba_marseille","lat":43.303125,"lon":5.369155,"is_reserved":false,"is_disabled":false,"rental_uris":{"android":"levelo://app?vid=24fdeb85-046c-49ec-ab94-6a168c787047","ios":"levelo://app?vid=24fdeb85-046c-49ec-ab94-6a168c787047"},"vehicle_type_id":"4","last_reported":1702058956,"current_range_meters":28000,"station_id":"ce4bgqh2rcd13ifvqc5g","pricing_plan_id":"free"},{"bike_id":"a22f511e-938f-46b2-9681-d6510437cd41","system_id":"levelo_inurba_marseille","lat":43.301939,"lon":5.366286,"is_reserved":false,"is_disabled":false,"rental_uris":{"android":"levelo://app?vid=a22f511e-938f-46b2-9681-d6510437cd41","ios":"levelo://app?vid=a22f511e-938f-46b2-9681-d6510437cd41"},"vehicle_type_id":"4","last_reported":1702058956,"current_range_meters":24800,"station_id":"ce4bgrh2rcd13ifvqc8g","pricing_plan_id":"free"},{"bike_id":"d233aa34-43e2-42b9-9a82-c5ab58c78cc5","system_id":"levelo_inurba_marseille","lat":43.301939,"lon":5.366286,"is_reserved":false,"is_disabled":false,"rental_uris":{"android":"levelo://app?vid=d233aa34-43e2-42b9-9a82-c5ab58c78cc5","ios":"levelo://app?vid=d233aa34-43e2-42b9-9a82-c5ab58c78cc5"},"vehicle_type_id":"4","last_reported":1702058956,"current_range_meters":10800,"station_id":"ce4bgrh2rcd13ifvqc8g","pricing_plan_id":"free"},{"bike_id":"4b46eaf5-5b90-481c-93ca-a7708a93f253","system_id":"levelo_inurba_marseille","lat":43.301939,"lon":5.366286,"is_reserved":false,"is_disabled":false,"rental_uris":{"android":"levelo://app?vid=4b46eaf5-5b90-481c-93ca-a7708a93f253","ios":"levelo://app?vid=4b46eaf5-5b90-481c-93ca-a7708a93f253"},"vehicle_type_id":"4","last_reported":1702058956,"current_range_meters":1200,"station_id":"ce4bgrh2rcd13ifvqc8g","pricing_plan_id":"free"},{"bike_id":"1ea60f58-75f7-4484-b705-1156df4b02ad","system_id":"levelo_inurba_marseille","lat":43.30276,"lon":5.37336,"is_reserved":false,"is_disabled":false,"rental_uris":{"android":"levelo://app?vid=1ea60f58-75f7-4484-b705-1156df4b02ad","ios":"levelo://app?vid=1ea60f58-75f7-4484-b705-1156df4b02ad"},"vehicle_type_id":"4","last_reported":1702058956,"current_range_meters":0,"station_id":"","pricing_plan_id":"free"},{"bike_id":"502407f1-6834-4964-8bf5-a7b4680766c6","system_id":"levelo_inurba_marseille","lat":43.305989,"lon":5.37225,"is_reserved":false,"is_disabled":false,"rental_uris":{"android":"levelo://app?vid=502407f1-6834-4964-8bf5-a7b4680766c6","ios":"levelo://app?vid=502407f1-6834-4964-8bf5-a7b4680766c6"},"vehicle_type_id":"4","last_reported":1702058956,"current_range_meters":14800,"station_id":"ce4bgqh2rcd13ifvqc4g","pricing_plan_id":"free"},{"bike_id":"2365a996-063e-442e-8c38-f2a96e31da1d","system_id":"levelo_inurba_marseille","lat":43.304606,"lon":5.379026,"is_reserved":false,"is_disabled":false,"rental_uris":{"android":"levelo://app?vid=2365a996-063e-442e-8c38-f2a96e31da1d","ios":"levelo://app?vid=2365a996-063e-442e-8c38-f2a96e31da1d"},"vehicle_type_id":"4","last_reported":1702058956,"current_range_meters":27200,"station_id":"ce4bgup2rcd13ifvqcn0","pricing_plan_id":"free"},{"bike_id":"cfe53920-4abf-4835-bcc3-9d894d632f25","system_id":"levelo_inurba_marseille","lat":43.304606,"lon":5.379026,"is_reserved":false,"is_disabled":false,"rental_uris":{"android":"levelo://app?vid=cfe53920-4abf-4835-bcc3-9d894d632f25","ios":"levelo://app?vid=cfe53920-4abf-4835-bcc3-9d894d632f25"},"vehicle_type_id":"4","last_reported":1702058956,"current_range_meters":23200,"station_id":"ce4bgup2rcd13ifvqcn0","pricing_plan_id":"free"},{"bike_id":"7d565ee6-f85e-4f8b-9b93-c091176238bd","system_id":"levelo_inurba_marseille","lat":43.304606,"lon":5.379026,"is_reserved":false,"is_disabled":false,"rental_uris":{"android":"levelo://app?vid=7d565ee6-f85e-4f8b-9b93-c091176238bd","ios":"levelo://app?vid=7d565ee6-f85e-4f8b-9b93-c091176238bd"},"vehicle_type_id":"4","last_reported":1702058956,"current_range_meters":0,"station_id":"ce4bgup2rcd13ifvqcn0","pricing_plan_id":"free"},{"bike_id":"bd1c2473-901a-4d28-9368-465646d2e48b","system_id":"levelo_inurba_marseille","lat":43.302784,"lon":5.377158,"is_reserved":false,"is_disabled":false,"rental_uris":{"android":"levelo://app?vid=bd1c2473-901a-4d28-9368-465646d2e48b","ios":"levelo://app?vid=bd1c2473-901a-4d28-9368-465646d2e48b"},"vehicle_type_id":"4","last_reported":1702058956,"current_range_meters":14800,"station_id":"ce4bguh2rcd13ifvqcj0","pricing_plan_id":"free"},{"bike_id":"b30b327b-6d86-48e8-851d-736fabc296b1","system_id":"levelo_inurba_marseille","lat":43.301429,"lon":5.37413,"is_reserved":false,"is_disabled":false,"rental_uris":{"android":"levelo://app?vid=b30b327b-6d86-48e8-851d-736fabc296b1","ios":"levelo://app?vid=b30b327b-6d86-48e8-851d-736fabc296b1"},"vehicle_type_id":"4","last_reported":1702058956,"current_range_meters":3200,"station_id":"ce4bgs92rcd13ifvqcc0","pricing_plan_id":"free"},{"bike_id":"6ace8705-5605-429d-ba0b-209838c2a45e","system_id":"levelo_inurba_marseille","lat":43.301429,"lon":5.37413,"is_reserved":false,"is_disabled":false,"rental_uris":{"android":"levelo://app?vid=6ace8705-5605-429d-ba0b-209838c2a45e","ios":"levelo://app?vid=6ace8705-5605-429d-ba0b-209838c2a45e"},"vehicle_type_id":"4","last_reported":1702058956,"current_range_meters":19600,"station_id":"ce4bgs92rcd13ifvqcc0","pricing_plan_id":"free"},{"bike_id":"20285aa8-2eba-4717-9e1c-c6e88470976d","system_id":"levelo_inurba_marseille","lat":43.313571,"lon":5.384829,"is_reserved":false,"is_disabled":false,"rental_uris":{"android":"levelo://app?vid=20285aa8-2eba-4717-9e1c-c6e88470976d","ios":"levelo://app?vid=20285aa8-2eba-4717-9e1c-c6e88470976d"},"vehicle_type_id":"4","last_reported":1702058956,"current_range_meters":13600,"station_id":"ce4bgt92rcd13ifvqcf0","pricing_plan_id":"free"},{"bike_id":"2bab9349-8bbf-4079-8fd4-249b9faaa5f7","system_id":"levelo_inurba_marseille","lat":43.31356,"lon":5.38486,"is_reserved":false,"is_disabled":false,"rental_uris":{"android":"levelo://app?vid=2bab9349-8bbf-4079-8fd4-249b9faaa5f7","ios":"levelo://app?vid=2bab9349-8bbf-4079-8fd4-249b9faaa5f7"},"vehicle_type_id":"4","last_reported":1702058956,"current_range_meters":5600,"station_id":"ce4bgt92rcd13ifvqcf0","pricing_plan_id":"free"},{"bike_id":"8c3424d0-8f08-4545-bbaf-efe1907fb9e9","system_id":"levelo_inurba_marseille","lat":43.313571,"lon":5.384829,"is_reserved":false,"is_disabled":false,"rental_uris":{"android":"levelo://app?vid=8c3424d0-8f08-4545-bbaf-efe1907fb9e9","ios":"levelo://app?vid=8c3424d0-8f08-4545-bbaf-efe1907fb9e9"},"vehicle_type_id":"4","last_reported":1702058956,"current_range_meters":22400,"station_id":"ce4bgt92rcd13ifvqcf0","pricing_plan_id":"free"},{"bike_id":"0d4b35ed-bc87-4c41-b6dc-d6239182c01e","system_id":"levelo_inurba_marseille","lat":43.313571,"lon":5.384829,"is_reserved":false,"is_disabled":false,"rental_uris":{"android":"levelo://app?vid=0d4b35ed-bc87-4c41-b6dc-d6239182c01e","ios":"levelo://app?vid=0d4b35ed-bc87-4c41-b6dc-d6239182c01e"},"vehicle_type_id":"4","last_reported":1702058956,"current_range_meters":21600,"station_id":"ce4bgt92rcd13ifvqcf0","pricing_plan_id":"free"},{"bike_id":"3da15a1c-2949-49cf-8e78-6b699fb36a23","system_id":"levelo_inurba_marseille","lat":43.298433,"lon":5.362774,"is_reserved":false,"is_disabled":false,"rental_uris":{"android":"levelo://app?vid=3da15a1c-2949-49cf-8e78-6b699fb36a23","ios":"levelo://app?vid=3da15a1c-2949-49cf-8e78-6b699fb36a23"},"vehicle_type_id":"4","last_reported":1702058956,"current_range_meters":5600,"station_id":"ce4bgpp2rcd13ifvqc3g","pricing_plan_id":"free"},{"bike_id":"ef97e934-397e-405e-a5d1-967e459973a3","system_id":"levelo_inurba_marseille","lat":43.311722,"lon":5.387247,"is_reserved":false,"is_disabled":false,"rental_uris":{"android":"levelo://app?vid=ef97e934-397e-405e-a5d1-967e459973a3","ios":"levelo://app?vid=ef97e934-397e-405e-a5d1-967e459973a3"},"vehicle_type_id":"4","last_reported":1702058956,"current_range_meters":13200,"station_id":"ce4bgv12rcd13ifvqcp0","pricing_plan_id":"free"},{"bike_id":"072dee8f-e1b5-4037-a5ff-e05acc51e651","system_id":"levelo_inurba_marseille","lat":43.311722,"lon":5.387247,"is_reserved":false,"is_disabled":false,"rental_uris":{"android":"levelo://app?vid=072dee8f-e1b5-4037-a5ff-e05acc51e651","ios":"levelo://app?vid=072dee8f-e1b5-4037-a5ff-e05acc51e651"},"vehicle_type_id":"4","last_reported":1702058956,"current_range_meters":20400,"station_id":"ce4bgv12rcd13ifvqcp0","pricing_plan_id":"free"},{"bike_id":"ed6d25ef-ff6e-41e1-a0b4-6cee0f945f6b","system_id":"levelo_inurba_marseille","lat":43.297774,"lon":5.370875,"is_reserved":false,"is_disabled":false,"rental_uris":{"android":"levelo://app?vid=ed6d25ef-ff6e-41e1-a0b4-6cee0f945f6b","ios":"levelo://app?vid=ed6d25ef-ff6e-41e1-a0b4-6cee0f945f6b"},"vehicle_type_id":"4","last_reported":1702058956,"current_range_meters":28800,"station_id":"ce4bgop2rcd13ifvqc1g","pricing_plan_id":"free"},{"bike_id":"7b04c468-d67d-486d-aa31-b467eddee7c0","system_id":"levelo_inurba_marseille","lat":43.32301,"lon":5.38249,"is_reserved":false,"is_disabled":false,"rental_uris":{"android":"levelo://app?vid=7b04c468-d67d-486d-aa31-b467eddee7c0","ios":"levelo://app?vid=7b04c468-d67d-486d-aa31-b467eddee7c0"},"vehicle_type_id":"4","last_reported":1702058956,"current_range_meters":1600,"station_id":"ce4bhr12rcd13ifvqhqg","pricing_plan_id":"free"},{"bike_id":"6ac675f1-e0be-498c-ad2f-b742a949d4b0","system_id":"levelo_inurba_marseille","lat":43.298218,"lon":5.374416,"is_reserved":false,"is_disabled":false,"rental_uris":{"android":"levelo://app?vid=6ac675f1-e0be-498c-ad2f-b742a949d4b0","ios":"levelo://app?vid=6ac675f1-e0be-498c-ad2f-b742a949d4b0"},"vehicle_type_id":"4","last_reported":1702058956,"current_range_meters":5200,"station_id":"","pricing_plan_id":"free"},{"bike_id":"564a5359-55d1-44d2-bbea-cbae37beb520","system_id":"levelo_inurba_marseille","lat":43.328433,"lon":5.366723,"is_reserved":false,"is_disabled":false,"rental_uris":{"android":"levelo://app?vid=564a5359-55d1-44d2-bbea-cbae37beb520","ios":"levelo://app?vid=564a5359-55d1-44d2-bbea-cbae37beb520"},"vehicle_type_id":"4","last_reported":1702058956,"current_range_meters":4800,"station_id":"ce4bhs92rcd13ifvqi0g","pricing_plan_id":"free"},{"bike_id":"92dc65d6-6823-4de3-93d4-056f738f090c","system_id":"levelo_inurba_marseille","lat":43.316538,"lon":5.38954,"is_reserved":false,"is_disabled":false,"rental_uris":{"android":"levelo://app?vid=92dc65d6-6823-4de3-93d4-056f738f090c","ios":"levelo://app?vid=92dc65d6-6823-4de3-93d4-056f738f090c"},"vehicle_type_id":"4","last_reported":1702058956,"current_range_meters":800,"station_id":"","pricing_plan_id":"free"},{"bike_id":"4c22d0c6-7785-4957-8090-0207d511bcd4","system_id":"levelo_inurba_marseille","lat":43.2991,"lon":5.38138,"is_reserved":false,"is_disabled":false,"rental_uris":{"android":"levelo://app?vid=4c22d0c6-7785-4957-8090-0207d511bcd4","ios":"levelo://app?vid=4c22d0c6-7785-4957-8090-0207d511bcd4"},"vehicle_type_id":"4","last_reported":1702058956,"current_range_meters":24800,"station_id":"ce4bgj12rcd13ifvqbc0","pricing_plan_id":"free"},{"bike_id":"6b7be904-af3b-470c-87bf-1a2c056f8f41","system_id":"levelo_inurba_marseille","lat":43.29909,"lon":5.38139,"is_reserved":false,"is_disabled":false,"rental_uris":{"android":"levelo://app?vid=6b7be904-af3b-470c-87bf-1a2c056f8f41","ios":"levelo://app?vid=6b7be904-af3b-470c-87bf-1a2c056f8f41"},"vehicle_type_id":"4","last_reported":1702058956,"current_range_meters":8400,"station_id":"ce4bgj12rcd13ifvqbc0","pricing_plan_id":"free"},{"bike_id":"57ca3dec-1aaa-4740-a1a1-346763f4c078","system_id":"levelo_inurba_marseille","lat":43.29898,"lon":5.38128,"is_reserved":false,"is_disabled":false,"rental_uris":{"android":"levelo://app?vid=57ca3dec-1aaa-4740-a1a1-346763f4c078","ios":"levelo://app?vid=57ca3dec-1aaa-4740-a1a1-346763f4c078"},"vehicle_type_id":"4","last_reported":1702058956,"current_range_meters":24800,"station_id":"ce4bgj12rcd13ifvqbc0","pricing_plan_id":"free"},{"bike_id":"1ac0b244-68f8-45b7-8d82-864156d78203","system_id":"levelo_inurba_marseille","lat":43.317557,"lon":5.390173,"is_reserved":false,"is_disabled":false,"rental_uris":{"android":"levelo://app?vid=1ac0b244-68f8-45b7-8d82-864156d78203","ios":"levelo://app?vid=1ac0b244-68f8-45b7-8d82-864156d78203"},"vehicle_type_id":"4","last_reported":1702058956,"current_range_meters":30000,"station_id":"ce4bhqp2rcd13ifvqhng","pricing_plan_id":"free"},{"bike_id":"a59edb33-11b1-4d13-ae88-e2b73038447a","system_id":"levelo_inurba_marseille","lat":43.30432,"lon":5.38896,"is_reserved":false,"is_disabled":false,"rental_uris":{"android":"levelo://app?vid=a59edb33-11b1-4d13-ae88-e2b73038447a","ios":"levelo://app?vid=a59edb33-11b1-4d13-ae88-e2b73038447a"},"vehicle_type_id":"4","last_reported":1702058956,"current_range_meters":15600,"station_id":"ce4bgk12rcd13ifvqbi0","pricing_plan_id":"free"},{"bike_id":"51502d1d-f6de-4d0d-8262-99e2fc793199","system_id":"levelo_inurba_marseille","lat":43.29987,"lon":5.38488,"is_reserved":false,"is_disabled":false,"rental_uris":{"android":"levelo://app?vid=51502d1d-f6de-4d0d-8262-99e2fc793199","ios":"levelo://app?vid=51502d1d-f6de-4d0d-8262-99e2fc793199"},"vehicle_type_id":"4","last_reported":1702058956,"current_range_meters":24800,"station_id":"ce4bgj92rcd13ifvqbd0","pricing_plan_id":"free"},{"bike_id":"c46db299-5431-42cf-948c-36c64eb8fcd0","system_id":"levelo_inurba_marseille","lat":43.299717,"lon":5.384845,"is_reserved":false,"is_disabled":false,"rental_uris":{"android":"levelo://app?vid=c46db299-5431-42cf-948c-36c64eb8fcd0","ios":"levelo://app?vid=c46db299-5431-42cf-948c-36c64eb8fcd0"},"vehicle_type_id":"4","last_reported":1702058956,"current_range_meters":14000,"station_id":"ce4bgj92rcd13ifvqbd0","pricing_plan_id":"free"},{"bike_id":"0c36b66f-c435-491f-9e1c-abd1cf7e6d7b","system_id":"levelo_inurba_marseille","lat":43.294779,"lon":5.375799,"is_reserved":false,"is_disabled":false,"rental_uris":{"android":"levelo://app?vid=0c36b66f-c435-491f-9e1c-abd1cf7e6d7b","ios":"levelo://app?vid=0c36b66f-c435-491f-9e1c-abd1cf7e6d7b"},"vehicle_type_id":"4","last_reported":1702058956,"current_range_meters":27200,"station_id":"","pricing_plan_id":"free"},{"bike_id":"d5e8b8ce-eee4-468d-9794-21a3361ca416","system_id":"levelo_inurba_marseille","lat":43.29278,"lon":5.36845,"is_reserved":false,"is_disabled":false,"rental_uris":{"android":"levelo://app?vid=d5e8b8ce-eee4-468d-9794-21a3361ca416","ios":"levelo://app?vid=d5e8b8ce-eee4-468d-9794-21a3361ca416"},"vehicle_type_id":"4","last_reported":1702058956,"current_range_meters":5200,"station_id":"ce4bhbp2rcd13ifvqesg","pricing_plan_id":"free"},{"bike_id":"0cd5b19e-3577-4c75-8027-7a36d3656b3f","system_id":"levelo_inurba_marseille","lat":43.293009,"lon":5.374584,"is_reserved":false,"is_disabled":false,"rental_uris":{"android":"levelo://app?vid=0cd5b19e-3577-4c75-8027-7a36d3656b3f","ios":"levelo://app?vid=0cd5b19e-3577-4c75-8027-7a36d3656b3f"},"vehicle_type_id":"4","last_reported":1702058956,"current_range_meters":400,"station_id":"ce4bgi12rcd13ifvqb70","pricing_plan_id":"free"},{"bike_id":"b4bd5014-9555-44e4-bb51-82a1b521cf27","system_id":"levelo_inurba_marseille","lat":43.293009,"lon":5.374584,"is_reserved":false,"is_disabled":false,"rental_uris":{"android":"levelo://app?vid=b4bd5014-9555-44e4-bb51-82a1b521cf27","ios":"levelo://app?vid=b4bd5014-9555-44e4-bb51-82a1b521cf27"},"vehicle_type_id":"4","last_reported":1702058956,"current_range_meters":13600,"station_id":"ce4bgi12rcd13ifvqb70","pricing_plan_id":"free"},{"bike_id":"ffe8e861-9583-46be-9da3-462d5c1037ee","system_id":"levelo_inurba_marseille","lat":43.29295,"lon":5.37447,"is_reserved":false,"is_disabled":false,"rental_uris":{"android":"levelo://app?vid=ffe8e861-9583-46be-9da3-462d5c1037ee","ios":"levelo://app?vid=ffe8e861-9583-46be-9da3-462d5c1037ee"},"vehicle_type_id":"4","last_reported":1702058956,"current_range_meters":16400,"station_id":"ce4bgi12rcd13ifvqb70","pricing_plan_id":"free"},{"bike_id":"f54cce81-24e4-44b7-978b-713350a2404c","system_id":"levelo_inurba_marseille","lat":43.29874,"lon":5.38896,"is_reserved":false,"is_disabled":false,"rental_uris":{"android":"levelo://app?vid=f54cce81-24e4-44b7-978b-713350a2404c","ios":"levelo://app?vid=f54cce81-24e4-44b7-978b-713350a2404c"},"vehicle_type_id":"4","last_reported":1702058956,"current_range_meters":0,"station_id":"","pricing_plan_id":"free"},{"bike_id":"2f70f68c-6b1a-4376-b34c-2463429ef839","system_id":"levelo_inurba_marseille","lat":43.291671,"lon":5.371575,"is_reserved":false,"is_disabled":false,"rental_uris":{"android":"levelo://app?vid=2f70f68c-6b1a-4376-b34c-2463429ef839","ios":"levelo://app?vid=2f70f68c-6b1a-4376-b34c-2463429ef839"},"vehicle_type_id":"4","last_reported":1702058956,"current_range_meters":12000,"station_id":"ce4bha92rcd13ifvqeh0","pricing_plan_id":"free"},{"bike_id":"34282eef-736c-43b4-94e4-b8e65f0e793e","system_id":"levelo_inurba_marseille","lat":43.291662,"lon":5.371972,"is_reserved":false,"is_disabled":false,"rental_uris":{"android":"levelo://app?vid=34282eef-736c-43b4-94e4-b8e65f0e793e","ios":"levelo://app?vid=34282eef-736c-43b4-94e4-b8e65f0e793e"},"vehicle_type_id":"4","last_reported":1702058956,"current_range_meters":22000,"station_id":"ce4bha92rcd13ifvqeh0","pricing_plan_id":"free"},{"bike_id":"03515359-d3c5-4fb2-ba94-df50482ae5de","system_id":"levelo_inurba_marseille","lat":43.29187,"lon":5.35797,"is_reserved":false,"is_disabled":false,"rental_uris":{"android":"levelo://app?vid=03515359-d3c5-4fb2-ba94-df50482ae5de","ios":"levelo://app?vid=03515359-d3c5-4fb2-ba94-df50482ae5de"},"vehicle_type_id":"4","last_reported":1702058956,"current_range_meters":19600,"station_id":"ce4bhb12rcd13ifvqel0","pricing_plan_id":"free"},{"bike_id":"958b4183-68d6-4df7-b3de-892581fefd85","system_id":"levelo_inurba_marseille","lat":43.313245,"lon":5.397055,"is_reserved":false,"is_disabled":false,"rental_uris":{"android":"levelo://app?vid=958b4183-68d6-4df7-b3de-892581fefd85","ios":"levelo://app?vid=958b4183-68d6-4df7-b3de-892581fefd85"},"vehicle_type_id":"4","last_reported":1702058956,"current_range_meters":30800,"station_id":"ce4bgvp2rcd13ifvqcu0","pricing_plan_id":"free"},{"bike_id":"6b58f088-8e1d-4df5-b2f7-1e298ea1d5ce","system_id":"levelo_inurba_marseille","lat":43.29538,"lon":5.38546,"is_reserved":false,"is_disabled":false,"rental_uris":{"android":"levelo://app?vid=6b58f088-8e1d-4df5-b2f7-1e298ea1d5ce","ios":"levelo://app?vid=6b58f088-8e1d-4df5-b2f7-1e298ea1d5ce"},"vehicle_type_id":"4","last_reported":1702058956,"current_range_meters":8800,"station_id":"ce4bgih2rcd13ifvqba0","pricing_plan_id":"free"},{"bike_id":"8bb87fe7-584d-406b-bed2-1a54317ceb09","system_id":"levelo_inurba_marseille","lat":43.290631,"lon":5.359244,"is_reserved":false,"is_disabled":false,"rental_uris":{"android":"levelo://app?vid=8bb87fe7-584d-406b-bed2-1a54317ceb09","ios":"levelo://app?vid=8bb87fe7-584d-406b-bed2-1a54317ceb09"},"vehicle_type_id":"4","last_reported":1702058956,"current_range_meters":0,"station_id":"ce4bha92rcd13ifvqeg0","pricing_plan_id":"free"},{"bike_id":"f74e0884-8dd7-4cf6-8561-3cadb1e2211d","system_id":"levelo_inurba_marseille","lat":43.294153,"lon":5.386305,"is_reserved":false,"is_disabled":false,"rental_uris":{"android":"levelo://app?vid=f74e0884-8dd7-4cf6-8561-3cadb1e2211d","ios":"levelo://app?vid=f74e0884-8dd7-4cf6-8561-3cadb1e2211d"},"vehicle_type_id":"4","last_reported":1702058956,"current_range_meters":24000,"station_id":"ce4bh2h2rcd13ifvqdh0","pricing_plan_id":"free"},{"bike_id":"a7823894-120b-4c4a-9135-87eab970aeb0","system_id":"levelo_inurba_marseille","lat":43.294162,"lon":5.386292,"is_reserved":false,"is_disabled":false,"rental_uris":{"android":"levelo://app?vid=a7823894-120b-4c4a-9135-87eab970aeb0","ios":"levelo://app?vid=a7823894-120b-4c4a-9135-87eab970aeb0"},"vehicle_type_id":"4","last_reported":1702058956,"current_range_meters":13200,"station_id":"ce4bh2h2rcd13ifvqdh0","pricing_plan_id":"free"},{"bike_id":"34184a08-712e-46e8-ac83-86a8ed9823c0","system_id":"levelo_inurba_marseille","lat":43.28945,"lon":5.36627,"is_reserved":false,"is_disabled":false,"rental_uris":{"android":"levelo://app?vid=34184a08-712e-46e8-ac83-86a8ed9823c0","ios":"levelo://app?vid=34184a08-712e-46e8-ac83-86a8ed9823c0"},"vehicle_type_id":"4","last_reported":1702058956,"current_range_meters":23200,"station_id":"ce4bhap2rcd13ifvqek0","pricing_plan_id":"free"},{"bike_id":"d3f7a5de-15d5-418c-8730-5544e5648f72","system_id":"levelo_inurba_marseille","lat":43.289184,"lon":5.366408,"is_reserved":false,"is_disabled":false,"rental_uris":{"android":"levelo://app?vid=d3f7a5de-15d5-418c-8730-5544e5648f72","ios":"levelo://app?vid=d3f7a5de-15d5-418c-8730-5544e5648f72"},"vehicle_type_id":"4","last_reported":1702058956,"current_range_meters":27600,"station_id":"ce4bhap2rcd13ifvqek0","pricing_plan_id":"free"},{"bike_id":"af918ca3-92fd-4382-a3e5-cc21509e5658","system_id":"levelo_inurba_marseille","lat":43.290161,"lon":5.375651,"is_reserved":false,"is_disabled":false,"rental_uris":{"android":"levelo://app?vid=af918ca3-92fd-4382-a3e5-cc21509e5658","ios":"levelo://app?vid=af918ca3-92fd-4382-a3e5-cc21509e5658"},"vehicle_type_id":"4","last_reported":1702058956,"current_range_meters":16400,"station_id":"","pricing_plan_id":"free"},{"bike_id":"a02a1b20-1fb1-4951-988a-77389649024d","system_id":"levelo_inurba_marseille","lat":43.289259,"lon":5.366364,"is_reserved":false,"is_disabled":false,"rental_uris":{"android":"levelo://app?vid=a02a1b20-1fb1-4951-988a-77389649024d","ios":"levelo://app?vid=a02a1b20-1fb1-4951-988a-77389649024d"},"vehicle_type_id":"4","last_reported":1702058956,"current_range_meters":15200,"station_id":"","pricing_plan_id":"free"},{"bike_id":"4b9ae10b-6d3f-446c-94bd-5ff76770ba63","system_id":"levelo_inurba_marseille","lat":43.292644,"lon":5.384257,"is_reserved":false,"is_disabled":false,"rental_uris":{"android":"levelo://app?vid=4b9ae10b-6d3f-446c-94bd-5ff76770ba63","ios":"levelo://app?vid=4b9ae10b-6d3f-446c-94bd-5ff76770ba63"},"vehicle_type_id":"4","last_reported":1702058956,"current_range_meters":0,"station_id":"ce4bh692rcd13ifvqea0","pricing_plan_id":"free"},{"bike_id":"c1d5bb95-27c5-435a-a770-3e5c153950cf","system_id":"levelo_inurba_marseille","lat":43.33045,"lon":5.38917,"is_reserved":false,"is_disabled":false,"rental_uris":{"android":"levelo://app?vid=c1d5bb95-27c5-435a-a770-3e5c153950cf","ios":"levelo://app?vid=c1d5bb95-27c5-435a-a770-3e5c153950cf"},"vehicle_type_id":"4","last_reported":1702058956,"current_range_meters":22000,"station_id":"ce4bhr92rcd13ifvqhrg","pricing_plan_id":"free"},{"bike_id":"a99dd9b6-3fd7-4a31-8d24-a751688c73dc","system_id":"levelo_inurba_marseille","lat":43.330442,"lon":5.389148,"is_reserved":false,"is_disabled":false,"rental_uris":{"android":"levelo://app?vid=a99dd9b6-3fd7-4a31-8d24-a751688c73dc","ios":"levelo://app?vid=a99dd9b6-3fd7-4a31-8d24-a751688c73dc"},"vehicle_type_id":"4","last_reported":1702058956,"current_range_meters":4000,"station_id":"ce4bhr92rcd13ifvqhrg","pricing_plan_id":"free"},{"bike_id":"a7cd26e9-56ad-40ec-949a-b4d3d9b5950b","system_id":"levelo_inurba_marseille","lat":43.29792,"lon":5.39359,"is_reserved":false,"is_disabled":false,"rental_uris":{"android":"levelo://app?vid=a7cd26e9-56ad-40ec-949a-b4d3d9b5950b","ios":"levelo://app?vid=a7cd26e9-56ad-40ec-949a-b4d3d9b5950b"},"vehicle_type_id":"4","last_reported":1702058956,"current_range_meters":17200,"station_id":"chh1huq6cuj3fo74tm60","pricing_plan_id":"free"},{"bike_id":"02557906-f3bf-4ed6-926f-6908557263da","system_id":"levelo_inurba_marseille","lat":43.28856,"lon":5.358371,"is_reserved":false,"is_disabled":false,"rental_uris":{"android":"levelo://app?vid=02557906-f3bf-4ed6-926f-6908557263da","ios":"levelo://app?vid=02557906-f3bf-4ed6-926f-6908557263da"},"vehicle_type_id":"4","last_reported":1702058956,"current_range_meters":6400,"station_id":"ce4bhb12rcd13ifvqem0","pricing_plan_id":"free"},{"bike_id":"0d9d2fe8-a597-4516-90d7-6de41489de06","system_id":"levelo_inurba_marseille","lat":43.288565,"lon":5.35832,"is_reserved":false,"is_disabled":false,"rental_uris":{"android":"levelo://app?vid=0d9d2fe8-a597-4516-90d7-6de41489de06","ios":"levelo://app?vid=0d9d2fe8-a597-4516-90d7-6de41489de06"},"vehicle_type_id":"4","last_reported":1702058956,"current_range_meters":26800,"station_id":"ce4bhb12rcd13ifvqem0","pricing_plan_id":"free"},{"bike_id":"7c41cc07-f05e-4794-83eb-57a6c3332f36","system_id":"levelo_inurba_marseille","lat":43.33749,"lon":5.37455,"is_reserved":false,"is_disabled":false,"rental_uris":{"android":"levelo://app?vid=7c41cc07-f05e-4794-83eb-57a6c3332f36","ios":"levelo://app?vid=7c41cc07-f05e-4794-83eb-57a6c3332f36"},"vehicle_type_id":"4","last_reported":1702058956,"current_range_meters":29600,"station_id":"","pricing_plan_id":"free"},{"bike_id":"23f7660e-a0e5-4bcb-9fc3-05c8d2d217d1","system_id":"levelo_inurba_marseille","lat":43.337619,"lon":5.374666,"is_reserved":false,"is_disabled":false,"rental_uris":{"android":"levelo://app?vid=23f7660e-a0e5-4bcb-9fc3-05c8d2d217d1","ios":"levelo://app?vid=23f7660e-a0e5-4bcb-9fc3-05c8d2d217d1"},"vehicle_type_id":"4","last_reported":1702058956,"current_range_meters":24800,"station_id":"","pricing_plan_id":"free"},{"bike_id":"bc587e0b-e3fa-4a3d-8d7f-2a471f1ad19d","system_id":"levelo_inurba_marseille","lat":43.301117,"lon":5.398795,"is_reserved":false,"is_disabled":false,"rental_uris":{"android":"levelo://app?vid=bc587e0b-e3fa-4a3d-8d7f-2a471f1ad19d","ios":"levelo://app?vid=bc587e0b-e3fa-4a3d-8d7f-2a471f1ad19d"},"vehicle_type_id":"4","last_reported":1702058956,"current_range_meters":24400,"station_id":"ce4bh0h2rcd13ifvqd40","pricing_plan_id":"free"},{"bike_id":"ee28ec17-2249-4513-86ad-7a0a065ec9e8","system_id":"levelo_inurba_marseille","lat":43.301275,"lon":5.398725,"is_reserved":false,"is_disabled":false,"rental_uris":{"android":"levelo://app?vid=ee28ec17-2249-4513-86ad-7a0a065ec9e8","ios":"levelo://app?vid=ee28ec17-2249-4513-86ad-7a0a065ec9e8"},"vehicle_type_id":"4","last_reported":1702058956,"current_range_meters":7200,"station_id":"ce4bh0h2rcd13ifvqd40","pricing_plan_id":"free"},{"bike_id":"ab0a8e53-93ab-4130-890d-0a4182e0c616","system_id":"levelo_inurba_marseille","lat":43.28727,"lon":5.36078,"is_reserved":false,"is_disabled":false,"rental_uris":{"android":"levelo://app?vid=ab0a8e53-93ab-4130-890d-0a4182e0c616","ios":"levelo://app?vid=ab0a8e53-93ab-4130-890d-0a4182e0c616"},"vehicle_type_id":"4","last_reported":1702058956,"current_range_meters":9600,"station_id":"cki0cbj6b192h4jlfktg","pricing_plan_id":"free"},{"bike_id":"f2e20d6d-9a07-48b2-8923-c91396fda118","system_id":"levelo_inurba_marseille","lat":43.28673,"lon":5.36348,"is_reserved":false,"is_disabled":false,"rental_uris":{"android":"levelo://app?vid=f2e20d6d-9a07-48b2-8923-c91396fda118","ios":"levelo://app?vid=f2e20d6d-9a07-48b2-8923-c91396fda118"},"vehicle_type_id":"4","last_reported":1702058956,"current_range_meters":22000,"station_id":"","pricing_plan_id":"free"},{"bike_id":"64900f97-f36f-4f55-828a-25e2d693c6ba","system_id":"levelo_inurba_marseille","lat":43.286593,"lon":5.363346,"is_reserved":false,"is_disabled":false,"rental_uris":{"android":"levelo://app?vid=64900f97-f36f-4f55-828a-25e2d693c6ba","ios":"levelo://app?vid=64900f97-f36f-4f55-828a-25e2d693c6ba"},"vehicle_type_id":"4","last_reported":1702058956,"current_range_meters":31200,"station_id":"ce4bhah2rcd13ifvqej0","pricing_plan_id":"free"},{"bike_id":"33d1fb9e-85a1-475b-94f0-bed7b3394fa0","system_id":"levelo_inurba_marseille","lat":43.286591,"lon":5.363346,"is_reserved":false,"is_disabled":false,"rental_uris":{"android":"levelo://app?vid=33d1fb9e-85a1-475b-94f0-bed7b3394fa0","ios":"levelo://app?vid=33d1fb9e-85a1-475b-94f0-bed7b3394fa0"},"vehicle_type_id":"4","last_reported":1702058956,"current_range_meters":3600,"station_id":"ce4bhah2rcd13ifvqej0","pricing_plan_id":"free"},{"bike_id":"7707dfde-5acf-422e-840a-0a7e8831aba2","system_id":"levelo_inurba_marseille","lat":43.28702,"lon":5.37377,"is_reserved":false,"is_disabled":false,"rental_uris":{"android":"levelo://app?vid=7707dfde-5acf-422e-840a-0a7e8831aba2","ios":"levelo://app?vid=7707dfde-5acf-422e-840a-0a7e8831aba2"},"vehicle_type_id":"4","last_reported":1702058956,"current_range_meters":13200,"station_id":"ce4bh3p2rcd13ifvqdq0","pricing_plan_id":"free"},{"bike_id":"d4c29696-21cd-4816-bd5c-3d8b98bdd615","system_id":"levelo_inurba_marseille","lat":43.295194,"lon":5.39397,"is_reserved":false,"is_disabled":false,"rental_uris":{"android":"levelo://app?vid=d4c29696-21cd-4816-bd5c-3d8b98bdd615","ios":"levelo://app?vid=d4c29696-21cd-4816-bd5c-3d8b98bdd615"},"vehicle_type_id":"4","last_reported":1702058956,"current_range_meters":8400,"station_id":"ce4bh292rcd13ifvqdf0","pricing_plan_id":"free"},{"bike_id":"2cb902c1-ce87-4b88-9951-03c5a143a8ac","system_id":"levelo_inurba_marseille","lat":43.290345,"lon":5.38646,"is_reserved":false,"is_disabled":false,"rental_uris":{"android":"levelo://app?vid=2cb902c1-ce87-4b88-9951-03c5a143a8ac","ios":"levelo://app?vid=2cb902c1-ce87-4b88-9951-03c5a143a8ac"},"vehicle_type_id":"4","last_reported":1702058956,"current_range_meters":26400,"station_id":"ce4bh4p2rcd13ifvqe0g","pricing_plan_id":"free"},{"bike_id":"eb1c6d8f-0007-4468-9059-fcbc7658c037","system_id":"levelo_inurba_marseille","lat":43.29027,"lon":5.386335,"is_reserved":false,"is_disabled":false,"rental_uris":{"android":"levelo://app?vid=eb1c6d8f-0007-4468-9059-fcbc7658c037","ios":"levelo://app?vid=eb1c6d8f-0007-4468-9059-fcbc7658c037"},"vehicle_type_id":"4","last_reported":1702058956,"current_range_meters":20400,"station_id":"ce4bh4p2rcd13ifvqe0g","pricing_plan_id":"free"},{"bike_id":"65ec0698-d506-4a4c-a131-58f5f012a186","system_id":"levelo_inurba_marseille","lat":43.290345,"lon":5.38646,"is_reserved":false,"is_disabled":false,"rental_uris":{"android":"levelo://app?vid=65ec0698-d506-4a4c-a131-58f5f012a186","ios":"levelo://app?vid=65ec0698-d506-4a4c-a131-58f5f012a186"},"vehicle_type_id":"4","last_reported":1702058956,"current_range_meters":11600,"station_id":"ce4bh4p2rcd13ifvqe0g","pricing_plan_id":"free"},{"bike_id":"a2e86047-f51f-47bf-9b1c-10ec5e39d810","system_id":"levelo_inurba_marseille","lat":43.29509,"lon":5.394286,"is_reserved":false,"is_disabled":false,"rental_uris":{"android":"levelo://app?vid=a2e86047-f51f-47bf-9b1c-10ec5e39d810","ios":"levelo://app?vid=a2e86047-f51f-47bf-9b1c-10ec5e39d810"},"vehicle_type_id":"4","last_reported":1702058956,"current_range_meters":22400,"station_id":"","pricing_plan_id":"free"},{"bike_id":"41113a1d-06c3-41ef-87cd-4bf80eadeaad","system_id":"levelo_inurba_marseille","lat":43.30244,"lon":5.40068,"is_reserved":false,"is_disabled":false,"rental_uris":{"android":"levelo://app?vid=41113a1d-06c3-41ef-87cd-4bf80eadeaad","ios":"levelo://app?vid=41113a1d-06c3-41ef-87cd-4bf80eadeaad"},"vehicle_type_id":"4","last_reported":1702058956,"current_range_meters":0,"station_id":"ce4bgvh2rcd13ifvqcs0","pricing_plan_id":"free"},{"bike_id":"30f946f0-c7cb-462e-bff2-dc4805d2693d","system_id":"levelo_inurba_marseille","lat":43.286039,"lon":5.370681,"is_reserved":false,"is_disabled":false,"rental_uris":{"android":"levelo://app?vid=30f946f0-c7cb-462e-bff2-dc4805d2693d","ios":"levelo://app?vid=30f946f0-c7cb-462e-bff2-dc4805d2693d"},"vehicle_type_id":"4","last_reported":1702058956,"current_range_meters":14400,"station_id":"ce4bht12rcd13ifvqi60","pricing_plan_id":"free"},{"bike_id":"1bc102b9-5b64-43da-8aa9-2a9ee294c705","system_id":"levelo_inurba_marseille","lat":43.29215,"lon":5.39316,"is_reserved":false,"is_disabled":false,"rental_uris":{"android":"levelo://app?vid=1bc102b9-5b64-43da-8aa9-2a9ee294c705","ios":"levelo://app?vid=1bc102b9-5b64-43da-8aa9-2a9ee294c705"},"vehicle_type_id":"4","last_reported":1702058956,"current_range_meters":6800,"station_id":"ce4bh192rcd13ifvqdd0","pricing_plan_id":"free"},{"bike_id":"ff40c8df-16df-438b-83d5-9cbc49257fe4","system_id":"levelo_inurba_marseille","lat":43.285856,"lon":5.350771,"is_reserved":false,"is_disabled":false,"rental_uris":{"android":"levelo://app?vid=ff40c8df-16df-438b-83d5-9cbc49257fe4","ios":"levelo://app?vid=ff40c8df-16df-438b-83d5-9cbc49257fe4"},"vehicle_type_id":"4","last_reported":1702058956,"current_range_meters":5600,"station_id":"ce4bhch2rcd13ifvqeug","pricing_plan_id":"free"},{"bike_id":"de45a405-819f-486b-a7cb-2479ba7e99e4","system_id":"levelo_inurba_marseille","lat":43.29574,"lon":5.39966,"is_reserved":false,"is_disabled":false,"rental_uris":{"android":"levelo://app?vid=de45a405-819f-486b-a7cb-2479ba7e99e4","ios":"levelo://app?vid=de45a405-819f-486b-a7cb-2479ba7e99e4"},"vehicle_type_id":"4","last_reported":1702058956,"current_range_meters":16400,"station_id":"ce4bh312rcd13ifvqdj0","pricing_plan_id":"free"},{"bike_id":"6510aae6-ae12-4a19-923c-8b1ea1d0d98a","system_id":"levelo_inurba_marseille","lat":43.295713,"lon":5.399639,"is_reserved":false,"is_disabled":false,"rental_uris":{"android":"levelo://app?vid=6510aae6-ae12-4a19-923c-8b1ea1d0d98a","ios":"levelo://app?vid=6510aae6-ae12-4a19-923c-8b1ea1d0d98a"},"vehicle_type_id":"4","last_reported":1702058956,"current_range_meters":19200,"station_id":"ce4bh312rcd13ifvqdj0","pricing_plan_id":"free"},{"bike_id":"29ae8734-b888-472a-a3f7-1175bddbcd1c","system_id":"levelo_inurba_marseille","lat":43.286595,"lon":5.386795,"is_reserved":false,"is_disabled":false,"rental_uris":{"android":"levelo://app?vid=29ae8734-b888-472a-a3f7-1175bddbcd1c","ios":"levelo://app?vid=29ae8734-b888-472a-a3f7-1175bddbcd1c"},"vehicle_type_id":"4","last_reported":1702058956,"current_range_meters":800,"station_id":"ce4bh492rcd13ifvqdug","pricing_plan_id":"free"},{"bike_id":"fe81288a-c731-4127-bd78-2e99bcc67442","system_id":"levelo_inurba_marseille","lat":43.286595,"lon":5.386795,"is_reserved":false,"is_disabled":false,"rental_uris":{"android":"levelo://app?vid=fe81288a-c731-4127-bd78-2e99bcc67442","ios":"levelo://app?vid=fe81288a-c731-4127-bd78-2e99bcc67442"},"vehicle_type_id":"4","last_reported":1702058956,"current_range_meters":18800,"station_id":"ce4bh492rcd13ifvqdug","pricing_plan_id":"free"},{"bike_id":"3b44b279-4508-4e90-b4ff-6cbec8acfee3","system_id":"levelo_inurba_marseille","lat":43.284684,"lon":5.380479,"is_reserved":false,"is_disabled":false,"rental_uris":{"android":"levelo://app?vid=3b44b279-4508-4e90-b4ff-6cbec8acfee3","ios":"levelo://app?vid=3b44b279-4508-4e90-b4ff-6cbec8acfee3"},"vehicle_type_id":"4","last_reported":1702058956,"current_range_meters":20000,"station_id":"","pricing_plan_id":"free"},{"bike_id":"5fa2720f-b0a3-4eaa-a008-b5ec1328f2ea","system_id":"levelo_inurba_marseille","lat":43.286595,"lon":5.386795,"is_reserved":false,"is_disabled":false,"rental_uris":{"android":"levelo://app?vid=5fa2720f-b0a3-4eaa-a008-b5ec1328f2ea","ios":"levelo://app?vid=5fa2720f-b0a3-4eaa-a008-b5ec1328f2ea"},"vehicle_type_id":"4","last_reported":1702058956,"current_range_meters":19600,"station_id":"ce4bh492rcd13ifvqdug","pricing_plan_id":"free"},{"bike_id":"230a9bf4-ac2d-4698-8dc7-2ab006fbda86","system_id":"levelo_inurba_marseille","lat":43.319179,"lon":5.407725,"is_reserved":false,"is_disabled":false,"rental_uris":{"android":"levelo://app?vid=230a9bf4-ac2d-4698-8dc7-2ab006fbda86","ios":"levelo://app?vid=230a9bf4-ac2d-4698-8dc7-2ab006fbda86"},"vehicle_type_id":"4","last_reported":1702058956,"current_range_meters":15600,"station_id":"ce4bhq12rcd13ifvqhig","pricing_plan_id":"free"},{"bike_id":"efe9d2cc-d0eb-4e85-b313-6bf62b4d4d4c","system_id":"levelo_inurba_marseille","lat":43.33717,"lon":5.391857,"is_reserved":false,"is_disabled":false,"rental_uris":{"android":"levelo://app?vid=efe9d2cc-d0eb-4e85-b313-6bf62b4d4d4c","ios":"levelo://app?vid=efe9d2cc-d0eb-4e85-b313-6bf62b4d4d4c"},"vehicle_type_id":"4","last_reported":1702058956,"current_range_meters":2800,"station_id":"ce4bhr92rcd13ifvqhsg","pricing_plan_id":"free"},{"bike_id":"7a7b210a-f03d-40ce-aca7-448ac7739566","system_id":"levelo_inurba_marseille","lat":43.297946,"lon":5.404063,"is_reserved":false,"is_disabled":false,"rental_uris":{"android":"levelo://app?vid=7a7b210a-f03d-40ce-aca7-448ac7739566","ios":"levelo://app?vid=7a7b210a-f03d-40ce-aca7-448ac7739566"},"vehicle_type_id":"4","last_reported":1702058956,"current_range_meters":0,"station_id":"ce4bh112rcd13ifvqd90","pricing_plan_id":"free"},{"bike_id":"81965f14-66ae-4664-b4e5-cfa91b2f3acd","system_id":"levelo_inurba_marseille","lat":43.284217,"lon":5.349697,"is_reserved":false,"is_disabled":false,"rental_uris":{"android":"levelo://app?vid=81965f14-66ae-4664-b4e5-cfa91b2f3acd","ios":"levelo://app?vid=81965f14-66ae-4664-b4e5-cfa91b2f3acd"},"vehicle_type_id":"4","last_reported":1702058956,"current_range_meters":20400,"station_id":"ce4bhbh2rcd13ifvqepg","pricing_plan_id":"free"},{"bike_id":"a6dc6351-d50c-4bb4-97ef-076c187b22e2","system_id":"levelo_inurba_marseille","lat":43.292724,"lon":5.401131,"is_reserved":false,"is_disabled":false,"rental_uris":{"android":"levelo://app?vid=a6dc6351-d50c-4bb4-97ef-076c187b22e2","ios":"levelo://app?vid=a6dc6351-d50c-4bb4-97ef-076c187b22e2"},"vehicle_type_id":"4","last_reported":1702058956,"current_range_meters":2000,"station_id":"ce4bh312rcd13ifvqdk0","pricing_plan_id":"free"},{"bike_id":"fd8c18fb-9c27-4d64-a3dc-92c70f713a3e","system_id":"levelo_inurba_marseille","lat":43.283502,"lon":5.386471,"is_reserved":false,"is_disabled":false,"rental_uris":{"android":"levelo://app?vid=fd8c18fb-9c27-4d64-a3dc-92c70f713a3e","ios":"levelo://app?vid=fd8c18fb-9c27-4d64-a3dc-92c70f713a3e"},"vehicle_type_id":"4","last_reported":1702058956,"current_range_meters":0,"station_id":"ce4bh492rcd13ifvqdvg","pricing_plan_id":"free"},{"bike_id":"49a2b01c-59c2-4eee-9666-6f6c0f98beae","system_id":"levelo_inurba_marseille","lat":43.283502,"lon":5.386471,"is_reserved":false,"is_disabled":false,"rental_uris":{"android":"levelo://app?vid=49a2b01c-59c2-4eee-9666-6f6c0f98beae","ios":"levelo://app?vid=49a2b01c-59c2-4eee-9666-6f6c0f98beae"},"vehicle_type_id":"4","last_reported":1702058956,"current_range_meters":14800,"station_id":"ce4bh492rcd13ifvqdvg","pricing_plan_id":"free"},{"bike_id":"29127798-f0d1-43cd-8c59-99031171b288","system_id":"levelo_inurba_marseille","lat":43.282744,"lon":5.350533,"is_reserved":false,"is_disabled":false,"rental_uris":{"android":"levelo://app?vid=29127798-f0d1-43cd-8c59-99031171b288","ios":"levelo://app?vid=29127798-f0d1-43cd-8c59-99031171b288"},"vehicle_type_id":"4","last_reported":1702058956,"current_range_meters":6800,"station_id":"ce4bhbp2rcd13ifvqerg","pricing_plan_id":"free"},{"bike_id":"099d8551-7391-4404-85e1-352d07ea4b53","system_id":"levelo_inurba_marseille","lat":43.282754,"lon":5.350519,"is_reserved":false,"is_disabled":false,"rental_uris":{"android":"levelo://app?vid=099d8551-7391-4404-85e1-352d07ea4b53","ios":"levelo://app?vid=099d8551-7391-4404-85e1-352d07ea4b53"},"vehicle_type_id":"4","last_reported":1702058956,"current_range_meters":8800,"station_id":"ce4bhbp2rcd13ifvqerg","pricing_plan_id":"free"},{"bike_id":"7f4e197e-5a2d-4d49-a8c9-03ff02922ea1","system_id":"levelo_inurba_marseille","lat":43.28266,"lon":5.35066,"is_reserved":false,"is_disabled":false,"rental_uris":{"android":"levelo://app?vid=7f4e197e-5a2d-4d49-a8c9-03ff02922ea1","ios":"levelo://app?vid=7f4e197e-5a2d-4d49-a8c9-03ff02922ea1"},"vehicle_type_id":"4","last_reported":1702058956,"current_range_meters":9600,"station_id":"ce4bhbp2rcd13ifvqerg","pricing_plan_id":"free"},{"bike_id":"c48b6501-ac07-4717-8611-4c92f7941653","system_id":"levelo_inurba_marseille","lat":43.283502,"lon":5.386471,"is_reserved":false,"is_disabled":false,"rental_uris":{"android":"levelo://app?vid=c48b6501-ac07-4717-8611-4c92f7941653","ios":"levelo://app?vid=c48b6501-ac07-4717-8611-4c92f7941653"},"vehicle_type_id":"4","last_reported":1702058956,"current_range_meters":6400,"station_id":"ce4bh492rcd13ifvqdvg","pricing_plan_id":"free"},{"bike_id":"7d6afa9a-2929-4189-ab76-6f7a34af73b3","system_id":"levelo_inurba_marseille","lat":43.280382,"lon":5.369291,"is_reserved":false,"is_disabled":false,"rental_uris":{"android":"levelo://app?vid=7d6afa9a-2929-4189-ab76-6f7a34af73b3","ios":"levelo://app?vid=7d6afa9a-2929-4189-ab76-6f7a34af73b3"},"vehicle_type_id":"4","last_reported":1702058956,"current_range_meters":14000,"station_id":"ce4bha12rcd13ifvqef0","pricing_plan_id":"free"},{"bike_id":"49b7c10c-6c28-433b-951e-f27cbf9519b6","system_id":"levelo_inurba_marseille","lat":43.28573,"lon":5.394992,"is_reserved":false,"is_disabled":false,"rental_uris":{"android":"levelo://app?vid=49b7c10c-6c28-433b-951e-f27cbf9519b6","ios":"levelo://app?vid=49b7c10c-6c28-433b-951e-f27cbf9519b6"},"vehicle_type_id":"4","last_reported":1702058956,"current_range_meters":23600,"station_id":"ce4bh292rcd13ifvqdg0","pricing_plan_id":"free"},{"bike_id":"b26c8630-323c-4045-8811-b7bc791c08ad","system_id":"levelo_inurba_marseille","lat":43.277985,"lon":5.36248,"is_reserved":false,"is_disabled":false,"rental_uris":{"android":"levelo://app?vid=b26c8630-323c-4045-8811-b7bc791c08ad","ios":"levelo://app?vid=b26c8630-323c-4045-8811-b7bc791c08ad"},"vehicle_type_id":"4","last_reported":1702058956,"current_range_meters":26800,"station_id":"","pricing_plan_id":"free"},{"bike_id":"6f030f03-7aaa-4bab-abfa-e2a6cef65cfc","system_id":"levelo_inurba_marseille","lat":43.279087,"lon":5.380114,"is_reserved":false,"is_disabled":false,"rental_uris":{"android":"levelo://app?vid=6f030f03-7aaa-4bab-abfa-e2a6cef65cfc","ios":"levelo://app?vid=6f030f03-7aaa-4bab-abfa-e2a6cef65cfc"},"vehicle_type_id":"4","last_reported":1702058956,"current_range_meters":16000,"station_id":"ce4bhf92rcd13ifvqf50","pricing_plan_id":"free"},{"bike_id":"542badd7-0106-40b0-bc0e-a28d3732168f","system_id":"levelo_inurba_marseille","lat":43.287154,"lon":5.399979,"is_reserved":false,"is_disabled":false,"rental_uris":{"android":"levelo://app?vid=542badd7-0106-40b0-bc0e-a28d3732168f","ios":"levelo://app?vid=542badd7-0106-40b0-bc0e-a28d3732168f"},"vehicle_type_id":"4","last_reported":1702058956,"current_range_meters":2000,"station_id":"ce4bho92rcd13ifvqh3g","pricing_plan_id":"free"},{"bike_id":"52832d75-f173-43b0-b687-b0a1c734cbac","system_id":"levelo_inurba_marseille","lat":43.299579,"lon":5.413255,"is_reserved":false,"is_disabled":false,"rental_uris":{"android":"levelo://app?vid=52832d75-f173-43b0-b687-b0a1c734cbac","ios":"levelo://app?vid=52832d75-f173-43b0-b687-b0a1c734cbac"},"vehicle_type_id":"4","last_reported":1702058956,"current_range_meters":30400,"station_id":"ce4bhp12rcd13ifvqh9g","pricing_plan_id":"free"},{"bike_id":"86db44d6-61b9-45ec-944c-d0af540e3bf6","system_id":"levelo_inurba_marseille","lat":43.292571,"lon":5.409107,"is_reserved":false,"is_disabled":false,"rental_uris":{"android":"levelo://app?vid=86db44d6-61b9-45ec-944c-d0af540e3bf6","ios":"levelo://app?vid=86db44d6-61b9-45ec-944c-d0af540e3bf6"},"vehicle_type_id":"4","last_reported":1702058956,"current_range_meters":12800,"station_id":"ce4bh192rcd13ifvqdc0","pricing_plan_id":"free"},{"bike_id":"51fdf4a9-5f99-49b6-9601-b089ec9a3fa6","system_id":"levelo_inurba_marseille","lat":43.29259,"lon":5.40912,"is_reserved":false,"is_disabled":false,"rental_uris":{"android":"levelo://app?vid=51fdf4a9-5f99-49b6-9601-b089ec9a3fa6","ios":"levelo://app?vid=51fdf4a9-5f99-49b6-9601-b089ec9a3fa6"},"vehicle_type_id":"4","last_reported":1702058956,"current_range_meters":15600,"station_id":"ce4bh192rcd13ifvqdc0","pricing_plan_id":"free"},{"bike_id":"73d8f6d9-a5f6-4801-abb1-bed58a917ae3","system_id":"levelo_inurba_marseille","lat":43.27618,"lon":5.361009,"is_reserved":false,"is_disabled":false,"rental_uris":{"android":"levelo://app?vid=73d8f6d9-a5f6-4801-abb1-bed58a917ae3","ios":"levelo://app?vid=73d8f6d9-a5f6-4801-abb1-bed58a917ae3"},"vehicle_type_id":"4","last_reported":1702058956,"current_range_meters":29200,"station_id":"ce4bgj92rcd13ifvqbe0","pricing_plan_id":"free"},{"bike_id":"987bec9a-0255-4757-acc6-5e808866d820","system_id":"levelo_inurba_marseille","lat":43.27612,"lon":5.36113,"is_reserved":false,"is_disabled":false,"rental_uris":{"android":"levelo://app?vid=987bec9a-0255-4757-acc6-5e808866d820","ios":"levelo://app?vid=987bec9a-0255-4757-acc6-5e808866d820"},"vehicle_type_id":"4","last_reported":1702058956,"current_range_meters":19600,"station_id":"ce4bgj92rcd13ifvqbe0","pricing_plan_id":"free"},{"bike_id":"9f13b79a-78f9-4e00-8665-b7445f0be391","system_id":"levelo_inurba_marseille","lat":43.303837,"lon":5.418724,"is_reserved":false,"is_disabled":false,"rental_uris":{"android":"levelo://app?vid=9f13b79a-78f9-4e00-8665-b7445f0be391","ios":"levelo://app?vid=9f13b79a-78f9-4e00-8665-b7445f0be391"},"vehicle_type_id":"4","last_reported":1702058956,"current_range_meters":6400,"station_id":"ce4bhop2rcd13ifvqh7g","pricing_plan_id":"free"},{"bike_id":"02a5014f-2f5f-46ac-98e1-c8e1cce18a60","system_id":"levelo_inurba_marseille","lat":43.33612,"lon":5.410321,"is_reserved":false,"is_disabled":false,"rental_uris":{"android":"levelo://app?vid=02a5014f-2f5f-46ac-98e1-c8e1cce18a60","ios":"levelo://app?vid=02a5014f-2f5f-46ac-98e1-c8e1cce18a60"},"vehicle_type_id":"4","last_reported":1702058956,"current_range_meters":5200,"station_id":"ce4bhqh2rcd13ifvqhmg","pricing_plan_id":"free"},{"bike_id":"7f7e97a2-a41e-4916-9bcb-8bb0579093e4","system_id":"levelo_inurba_marseille","lat":43.303837,"lon":5.418724,"is_reserved":false,"is_disabled":false,"rental_uris":{"android":"levelo://app?vid=7f7e97a2-a41e-4916-9bcb-8bb0579093e4","ios":"levelo://app?vid=7f7e97a2-a41e-4916-9bcb-8bb0579093e4"},"vehicle_type_id":"4","last_reported":1702058956,"current_range_meters":11200,"station_id":"ce4bhop2rcd13ifvqh7g","pricing_plan_id":"free"},{"bike_id":"157af4e7-c49d-49f7-a951-176a77b3c1ab","system_id":"levelo_inurba_marseille","lat":43.275625,"lon":5.384392,"is_reserved":false,"is_disabled":false,"rental_uris":{"android":"levelo://app?vid=157af4e7-c49d-49f7-a951-176a77b3c1ab","ios":"levelo://app?vid=157af4e7-c49d-49f7-a951-176a77b3c1ab"},"vehicle_type_id":"4","last_reported":1702058956,"current_range_meters":25600,"station_id":"ce4bhh92rcd13ifvqfi0","pricing_plan_id":"free"},{"bike_id":"2abded1d-9f11-45db-8477-4128691be79b","system_id":"levelo_inurba_marseille","lat":43.336134,"lon":5.410341,"is_reserved":false,"is_disabled":false,"rental_uris":{"android":"levelo://app?vid=2abded1d-9f11-45db-8477-4128691be79b","ios":"levelo://app?vid=2abded1d-9f11-45db-8477-4128691be79b"},"vehicle_type_id":"4","last_reported":1702058956,"current_range_meters":18000,"station_id":"ce4bhqh2rcd13ifvqhmg","pricing_plan_id":"free"},{"bike_id":"ffa02098-8013-4af5-abaa-8ca04c47a69f","system_id":"levelo_inurba_marseille","lat":43.279975,"lon":5.40009,"is_reserved":false,"is_disabled":false,"rental_uris":{"android":"levelo://app?vid=ffa02098-8013-4af5-abaa-8ca04c47a69f","ios":"levelo://app?vid=ffa02098-8013-4af5-abaa-8ca04c47a69f"},"vehicle_type_id":"4","last_reported":1702058956,"current_range_meters":1200,"station_id":"ce4bho92rcd13ifvqh4g","pricing_plan_id":"free"},{"bike_id":"fc4bcc5b-5f4e-42a1-8cca-78d5c651475f","system_id":"levelo_inurba_marseille","lat":43.317121,"lon":5.423936,"is_reserved":false,"is_disabled":false,"rental_uris":{"android":"levelo://app?vid=fc4bcc5b-5f4e-42a1-8cca-78d5c651475f","ios":"levelo://app?vid=fc4bcc5b-5f4e-42a1-8cca-78d5c651475f"},"vehicle_type_id":"4","last_reported":1702058956,"current_range_meters":0,"station_id":"ce4bhp92rcd13ifvqhbg","pricing_plan_id":"free"},{"bike_id":"acb93199-703e-420a-a35c-b8d1666ead40","system_id":"levelo_inurba_marseille","lat":43.317121,"lon":5.423936,"is_reserved":false,"is_disabled":false,"rental_uris":{"android":"levelo://app?vid=acb93199-703e-420a-a35c-b8d1666ead40","ios":"levelo://app?vid=acb93199-703e-420a-a35c-b8d1666ead40"},"vehicle_type_id":"4","last_reported":1702058956,"current_range_meters":22800,"station_id":"ce4bhp92rcd13ifvqhbg","pricing_plan_id":"free"},{"bike_id":"dd860398-f66c-4ee2-9bf8-6345305d0079","system_id":"levelo_inurba_marseille","lat":43.34353,"lon":5.40583,"is_reserved":false,"is_disabled":false,"rental_uris":{"android":"levelo://app?vid=dd860398-f66c-4ee2-9bf8-6345305d0079","ios":"levelo://app?vid=dd860398-f66c-4ee2-9bf8-6345305d0079"},"vehicle_type_id":"4","last_reported":1702058956,"current_range_meters":2400,"station_id":"","pricing_plan_id":"free"},{"bike_id":"63133364-316e-458e-b234-bbd4926c63fc","system_id":"levelo_inurba_marseille","lat":43.27583,"lon":5.39474,"is_reserved":false,"is_disabled":false,"rental_uris":{"android":"levelo://app?vid=63133364-316e-458e-b234-bbd4926c63fc","ios":"levelo://app?vid=63133364-316e-458e-b234-bbd4926c63fc"},"vehicle_type_id":"4","last_reported":1702058956,"current_range_meters":11600,"station_id":"","pricing_plan_id":"free"},{"bike_id":"0c078373-00da-419b-9325-d5a9a24ae2f1","system_id":"levelo_inurba_marseille","lat":43.274103,"lon":5.394016,"is_reserved":false,"is_disabled":false,"rental_uris":{"android":"levelo://app?vid=0c078373-00da-419b-9325-d5a9a24ae2f1","ios":"levelo://app?vid=0c078373-00da-419b-9325-d5a9a24ae2f1"},"vehicle_type_id":"4","last_reported":1702058956,"current_range_meters":28400,"station_id":"ce4bhdp2rcd13ifvqf20","pricing_plan_id":"free"},{"bike_id":"4f9e48a0-eacd-4e63-bd3c-330b19e5c041","system_id":"levelo_inurba_marseille","lat":43.295511,"lon":5.422926,"is_reserved":false,"is_disabled":false,"rental_uris":{"android":"levelo://app?vid=4f9e48a0-eacd-4e63-bd3c-330b19e5c041","ios":"levelo://app?vid=4f9e48a0-eacd-4e63-bd3c-330b19e5c041"},"vehicle_type_id":"4","last_reported":1702058956,"current_range_meters":5600,"station_id":"ce4bhph2rcd13ifvqhdg","pricing_plan_id":"free"},{"bike_id":"5ed4ca3b-e38e-4196-acea-f278768787eb","system_id":"levelo_inurba_marseille","lat":43.295511,"lon":5.422926,"is_reserved":false,"is_disabled":false,"rental_uris":{"android":"levelo://app?vid=5ed4ca3b-e38e-4196-acea-f278768787eb","ios":"levelo://app?vid=5ed4ca3b-e38e-4196-acea-f278768787eb"},"vehicle_type_id":"4","last_reported":1702058956,"current_range_meters":4400,"station_id":"ce4bhph2rcd13ifvqhdg","pricing_plan_id":"free"},{"bike_id":"aed20910-2f26-49bf-9766-c6bdcb7981dd","system_id":"levelo_inurba_marseille","lat":43.295511,"lon":5.422926,"is_reserved":false,"is_disabled":false,"rental_uris":{"android":"levelo://app?vid=aed20910-2f26-49bf-9766-c6bdcb7981dd","ios":"levelo://app?vid=aed20910-2f26-49bf-9766-c6bdcb7981dd"},"vehicle_type_id":"4","last_reported":1702058956,"current_range_meters":3200,"station_id":"ce4bhph2rcd13ifvqhdg","pricing_plan_id":"free"},{"bike_id":"8f021145-48f8-459b-aef0-f8921e18b0a0","system_id":"levelo_inurba_marseille","lat":43.27214,"lon":5.3925,"is_reserved":false,"is_disabled":false,"rental_uris":{"android":"levelo://app?vid=8f021145-48f8-459b-aef0-f8921e18b0a0","ios":"levelo://app?vid=8f021145-48f8-459b-aef0-f8921e18b0a0"},"vehicle_type_id":"4","last_reported":1702058956,"current_range_meters":4800,"station_id":"","pricing_plan_id":"free"},{"bike_id":"c103b478-e4fe-4671-a366-d10af3e865c2","system_id":"levelo_inurba_marseille","lat":43.279465,"lon":5.410561,"is_reserved":false,"is_disabled":false,"rental_uris":{"android":"levelo://app?vid=c103b478-e4fe-4671-a366-d10af3e865c2","ios":"levelo://app?vid=c103b478-e4fe-4671-a366-d10af3e865c2"},"vehicle_type_id":"4","last_reported":1702058956,"current_range_meters":1600,"station_id":"ce4bhnp2rcd13ifvqh0g","pricing_plan_id":"free"},{"bike_id":"6683c0c1-4a43-4244-adb8-a58ecbad3c97","system_id":"levelo_inurba_marseille","lat":43.26681,"lon":5.382694,"is_reserved":false,"is_disabled":false,"rental_uris":{"android":"levelo://app?vid=6683c0c1-4a43-4244-adb8-a58ecbad3c97","ios":"levelo://app?vid=6683c0c1-4a43-4244-adb8-a58ecbad3c97"},"vehicle_type_id":"4","last_reported":1702058956,"current_range_meters":24800,"station_id":"ce4bhg92rcd13ifvqf90","pricing_plan_id":"free"},{"bike_id":"97627de0-3ae4-4d7c-8af1-563bda40f6e7","system_id":"levelo_inurba_marseille","lat":43.27996,"lon":5.416624,"is_reserved":false,"is_disabled":false,"rental_uris":{"android":"levelo://app?vid=97627de0-3ae4-4d7c-8af1-563bda40f6e7","ios":"levelo://app?vid=97627de0-3ae4-4d7c-8af1-563bda40f6e7"},"vehicle_type_id":"4","last_reported":1702058956,"current_range_meters":16400,"station_id":"ce4bho12rcd13ifvqh1g","pricing_plan_id":"free"},{"bike_id":"07e36153-aa0f-4cca-96f8-e66c779a2079","system_id":"levelo_inurba_marseille","lat":43.27996,"lon":5.416624,"is_reserved":false,"is_disabled":false,"rental_uris":{"android":"levelo://app?vid=07e36153-aa0f-4cca-96f8-e66c779a2079","ios":"levelo://app?vid=07e36153-aa0f-4cca-96f8-e66c779a2079"},"vehicle_type_id":"4","last_reported":1702058956,"current_range_meters":4800,"station_id":"ce4bho12rcd13ifvqh1g","pricing_plan_id":"free"},{"bike_id":"3e829242-8378-4f77-8cce-f483a3d51f1d","system_id":"levelo_inurba_marseille","lat":43.279881,"lon":5.416579,"is_reserved":false,"is_disabled":false,"rental_uris":{"android":"levelo://app?vid=3e829242-8378-4f77-8cce-f483a3d51f1d","ios":"levelo://app?vid=3e829242-8378-4f77-8cce-f483a3d51f1d"},"vehicle_type_id":"4","last_reported":1702058956,"current_range_meters":6000,"station_id":"ce4bho12rcd13ifvqh1g","pricing_plan_id":"free"},{"bike_id":"70a141dd-e515-46ea-a977-0210a2f14dfc","system_id":"levelo_inurba_marseille","lat":43.26949,"lon":5.40262,"is_reserved":false,"is_disabled":false,"rental_uris":{"android":"levelo://app?vid=70a141dd-e515-46ea-a977-0210a2f14dfc","ios":"levelo://app?vid=70a141dd-e515-46ea-a977-0210a2f14dfc"},"vehicle_type_id":"4","last_reported":1702058956,"current_range_meters":6000,"station_id":"cjm6bp8fraef2m0cb0m0","pricing_plan_id":"free"},{"bike_id":"45c3480f-21c4-453a-bee9-c03c7df6b387","system_id":"levelo_inurba_marseille","lat":43.308051,"lon":5.43527,"is_reserved":false,"is_disabled":false,"rental_uris":{"android":"levelo://app?vid=45c3480f-21c4-453a-bee9-c03c7df6b387","ios":"levelo://app?vid=45c3480f-21c4-453a-bee9-c03c7df6b387"},"vehicle_type_id":"4","last_reported":1702058956,"current_range_meters":30800,"station_id":"ce4bhph2rcd13ifvqheg","pricing_plan_id":"free"},{"bike_id":"57f667b8-3870-4664-a2c0-e1e7a4b409ed","system_id":"levelo_inurba_marseille","lat":43.26941,"lon":5.4025,"is_reserved":false,"is_disabled":false,"rental_uris":{"android":"levelo://app?vid=57f667b8-3870-4664-a2c0-e1e7a4b409ed","ios":"levelo://app?vid=57f667b8-3870-4664-a2c0-e1e7a4b409ed"},"vehicle_type_id":"4","last_reported":1702058956,"current_range_meters":29600,"station_id":"cjm6bp8fraef2m0cb0m0","pricing_plan_id":"free"},{"bike_id":"845e2a9a-ed30-4c21-9d40-21952560eea0","system_id":"levelo_inurba_marseille","lat":43.317104,"lon":5.436818,"is_reserved":false,"is_disabled":false,"rental_uris":{"android":"levelo://app?vid=845e2a9a-ed30-4c21-9d40-21952560eea0","ios":"levelo://app?vid=845e2a9a-ed30-4c21-9d40-21952560eea0"},"vehicle_type_id":"4","last_reported":1702058956,"current_range_meters":17200,"station_id":"ce4bhp92rcd13ifvqhcg","pricing_plan_id":"free"},{"bike_id":"65166aa0-4c67-48b2-8b68-40b28fb4f6c3","system_id":"levelo_inurba_marseille","lat":43.26184,"lon":5.37444,"is_reserved":false,"is_disabled":false,"rental_uris":{"android":"levelo://app?vid=65166aa0-4c67-48b2-8b68-40b28fb4f6c3","ios":"levelo://app?vid=65166aa0-4c67-48b2-8b68-40b28fb4f6c3"},"vehicle_type_id":"4","last_reported":1702058956,"current_range_meters":22400,"station_id":"ce4bhgp2rcd13ifvqfc0","pricing_plan_id":"free"},{"bike_id":"26a316ce-cbd3-4799-8b70-99bfb6f0c11e","system_id":"levelo_inurba_marseille","lat":43.317104,"lon":5.436818,"is_reserved":false,"is_disabled":false,"rental_uris":{"android":"levelo://app?vid=26a316ce-cbd3-4799-8b70-99bfb6f0c11e","ios":"levelo://app?vid=26a316ce-cbd3-4799-8b70-99bfb6f0c11e"},"vehicle_type_id":"4","last_reported":1702058956,"current_range_meters":28400,"station_id":"ce4bhp92rcd13ifvqhcg","pricing_plan_id":"free"},{"bike_id":"b55f1520-7d10-4662-a0d1-297eaf087bd5","system_id":"levelo_inurba_marseille","lat":43.26202,"lon":5.379299,"is_reserved":false,"is_disabled":false,"rental_uris":{"android":"levelo://app?vid=b55f1520-7d10-4662-a0d1-297eaf087bd5","ios":"levelo://app?vid=b55f1520-7d10-4662-a0d1-297eaf087bd5"},"vehicle_type_id":"4","last_reported":1702058956,"current_range_meters":31200,"station_id":"ce4bhjp2rcd13ifvqg90","pricing_plan_id":"free"},{"bike_id":"6b17b896-99f2-456b-929e-df3811eeb274","system_id":"levelo_inurba_marseille","lat":43.298768,"lon":5.43643,"is_reserved":false,"is_disabled":false,"rental_uris":{"android":"levelo://app?vid=6b17b896-99f2-456b-929e-df3811eeb274","ios":"levelo://app?vid=6b17b896-99f2-456b-929e-df3811eeb274"},"vehicle_type_id":"4","last_reported":1702058956,"current_range_meters":28400,"station_id":"ce4bhpp2rcd13ifvqhfg","pricing_plan_id":"free"},{"bike_id":"ca4db8a8-5b98-4b78-bc3d-514f38028a3d","system_id":"levelo_inurba_marseille","lat":43.298768,"lon":5.43643,"is_reserved":false,"is_disabled":false,"rental_uris":{"android":"levelo://app?vid=ca4db8a8-5b98-4b78-bc3d-514f38028a3d","ios":"levelo://app?vid=ca4db8a8-5b98-4b78-bc3d-514f38028a3d"},"vehicle_type_id":"4","last_reported":1702058956,"current_range_meters":31200,"station_id":"ce4bhpp2rcd13ifvqhfg","pricing_plan_id":"free"},{"bike_id":"4f68f183-a711-4386-a731-e8ea8e2f115e","system_id":"levelo_inurba_marseille","lat":43.298768,"lon":5.43643,"is_reserved":false,"is_disabled":false,"rental_uris":{"android":"levelo://app?vid=4f68f183-a711-4386-a731-e8ea8e2f115e","ios":"levelo://app?vid=4f68f183-a711-4386-a731-e8ea8e2f115e"},"vehicle_type_id":"4","last_reported":1702058956,"current_range_meters":26000,"station_id":"ce4bhpp2rcd13ifvqhfg","pricing_plan_id":"free"},{"bike_id":"fefd6292-44ce-4157-bbe2-869eef8e483b","system_id":"levelo_inurba_marseille","lat":43.298768,"lon":5.43643,"is_reserved":false,"is_disabled":false,"rental_uris":{"android":"levelo://app?vid=fefd6292-44ce-4157-bbe2-869eef8e483b","ios":"levelo://app?vid=fefd6292-44ce-4157-bbe2-869eef8e483b"},"vehicle_type_id":"4","last_reported":1702058956,"current_range_meters":24800,"station_id":"ce4bhpp2rcd13ifvqhfg","pricing_plan_id":"free"},{"bike_id":"5215ad78-0811-4492-88ee-04afc35bf3a5","system_id":"levelo_inurba_marseille","lat":43.298768,"lon":5.43643,"is_reserved":false,"is_disabled":false,"rental_uris":{"android":"levelo://app?vid=5215ad78-0811-4492-88ee-04afc35bf3a5","ios":"levelo://app?vid=5215ad78-0811-4492-88ee-04afc35bf3a5"},"vehicle_type_id":"4","last_reported":1702058956,"current_range_meters":31200,"station_id":"ce4bhpp2rcd13ifvqhfg","pricing_plan_id":"free"},{"bike_id":"83e2018e-7127-4415-8bbf-2e347a9c6750","system_id":"levelo_inurba_marseille","lat":43.298908,"lon":5.436721,"is_reserved":false,"is_disabled":false,"rental_uris":{"android":"levelo://app?vid=83e2018e-7127-4415-8bbf-2e347a9c6750","ios":"levelo://app?vid=83e2018e-7127-4415-8bbf-2e347a9c6750"},"vehicle_type_id":"4","last_reported":1702058956,"current_range_meters":2800,"station_id":"ce4bhpp2rcd13ifvqhfg","pricing_plan_id":"free"},{"bike_id":"97f0aeee-0429-4eb5-90ac-ee9995376180","system_id":"levelo_inurba_marseille","lat":43.281548,"lon":5.42643,"is_reserved":false,"is_disabled":false,"rental_uris":{"android":"levelo://app?vid=97f0aeee-0429-4eb5-90ac-ee9995376180","ios":"levelo://app?vid=97f0aeee-0429-4eb5-90ac-ee9995376180"},"vehicle_type_id":"4","last_reported":1702058956,"current_range_meters":19200,"station_id":"ce4bhnh2rcd13ifvqgug","pricing_plan_id":"free"},{"bike_id":"f56607a5-8c0d-4214-a86e-b954d1fd309d","system_id":"levelo_inurba_marseille","lat":43.28151,"lon":5.42638,"is_reserved":false,"is_disabled":false,"rental_uris":{"android":"levelo://app?vid=f56607a5-8c0d-4214-a86e-b954d1fd309d","ios":"levelo://app?vid=f56607a5-8c0d-4214-a86e-b954d1fd309d"},"vehicle_type_id":"4","last_reported":1702058956,"current_range_meters":3600,"station_id":"ce4bhnh2rcd13ifvqgug","pricing_plan_id":"free"},{"bike_id":"b2a7414e-ba57-41df-af69-d573068767fd","system_id":"levelo_inurba_marseille","lat":43.296263,"lon":5.40601,"is_reserved":false,"is_disabled":false,"rental_uris":{"android":"levelo://app?vid=b2a7414e-ba57-41df-af69-d573068767fd","ios":"levelo://app?vid=b2a7414e-ba57-41df-af69-d573068767fd"},"vehicle_type_id":"4","last_reported":1702058956,"current_range_meters":4800,"station_id":"ce4bh0h2rcd13ifvqd60","pricing_plan_id":"free"},{"bike_id":"c226204f-0f4e-4955-b3e1-64dc0be8bfe8","system_id":"levelo_inurba_marseille","lat":43.281548,"lon":5.42643,"is_reserved":false,"is_disabled":false,"rental_uris":{"android":"levelo://app?vid=c226204f-0f4e-4955-b3e1-64dc0be8bfe8","ios":"levelo://app?vid=c226204f-0f4e-4955-b3e1-64dc0be8bfe8"},"vehicle_type_id":"4","last_reported":1702058956,"current_range_meters":26800,"station_id":"ce4bhnh2rcd13ifvqgug","pricing_plan_id":"free"},{"bike_id":"86bc8df8-5e9a-4a89-b89e-a3cbca0f6c7b","system_id":"levelo_inurba_marseille","lat":43.281548,"lon":5.42643,"is_reserved":false,"is_disabled":false,"rental_uris":{"android":"levelo://app?vid=86bc8df8-5e9a-4a89-b89e-a3cbca0f6c7b","ios":"levelo://app?vid=86bc8df8-5e9a-4a89-b89e-a3cbca0f6c7b"},"vehicle_type_id":"4","last_reported":1702058956,"current_range_meters":4400,"station_id":"ce4bhnh2rcd13ifvqgug","pricing_plan_id":"free"},{"bike_id":"6a8c64df-4f21-4e13-851c-650cde239b49","system_id":"levelo_inurba_marseille","lat":43.26065,"lon":5.39394,"is_reserved":false,"is_disabled":false,"rental_uris":{"android":"levelo://app?vid=6a8c64df-4f21-4e13-851c-650cde239b49","ios":"levelo://app?vid=6a8c64df-4f21-4e13-851c-650cde239b49"},"vehicle_type_id":"4","last_reported":1702058956,"current_range_meters":22400,"station_id":"ce4bhh92rcd13ifvqfj0","pricing_plan_id":"free"},{"bike_id":"000acef0-d2f9-45d3-985c-f854071a0283","system_id":"levelo_inurba_marseille","lat":43.275028,"lon":5.424534,"is_reserved":false,"is_disabled":false,"rental_uris":{"android":"levelo://app?vid=000acef0-d2f9-45d3-985c-f854071a0283","ios":"levelo://app?vid=000acef0-d2f9-45d3-985c-f854071a0283"},"vehicle_type_id":"4","last_reported":1702058956,"current_range_meters":27600,"station_id":"ce4bhn92rcd13ifvqgrg","pricing_plan_id":"free"},{"bike_id":"da69c03d-8b1e-42a8-b760-dd4ff8060f1e","system_id":"levelo_inurba_marseille","lat":43.254947,"lon":5.376454,"is_reserved":false,"is_disabled":false,"rental_uris":{"android":"levelo://app?vid=da69c03d-8b1e-42a8-b760-dd4ff8060f1e","ios":"levelo://app?vid=da69c03d-8b1e-42a8-b760-dd4ff8060f1e"},"vehicle_type_id":"4","last_reported":1702058956,"current_range_meters":16400,"station_id":"ce4bhh12rcd13ifvqff0","pricing_plan_id":"free"},{"bike_id":"7b3f25af-f68e-46e7-844c-61311030b49a","system_id":"levelo_inurba_marseille","lat":43.254947,"lon":5.376454,"is_reserved":false,"is_disabled":false,"rental_uris":{"android":"levelo://app?vid=7b3f25af-f68e-46e7-844c-61311030b49a","ios":"levelo://app?vid=7b3f25af-f68e-46e7-844c-61311030b49a"},"vehicle_type_id":"4","last_reported":1702058956,"current_range_meters":8800,"station_id":"ce4bhh12rcd13ifvqff0","pricing_plan_id":"free"},{"bike_id":"b88a488d-a2e1-4bb5-914a-a2345c915fff","system_id":"levelo_inurba_marseille","lat":43.270721,"lon":5.422764,"is_reserved":false,"is_disabled":false,"rental_uris":{"android":"levelo://app?vid=b88a488d-a2e1-4bb5-914a-a2345c915fff","ios":"levelo://app?vid=b88a488d-a2e1-4bb5-914a-a2345c915fff"},"vehicle_type_id":"4","last_reported":1702058956,"current_range_meters":10000,"station_id":"ce4bhk92rcd13ifvqgb0","pricing_plan_id":"free"},{"bike_id":"5b2bc537-1785-4d3a-808e-6069c26f1f56","system_id":"levelo_inurba_marseille","lat":43.257079,"lon":5.411051,"is_reserved":false,"is_disabled":false,"rental_uris":{"android":"levelo://app?vid=5b2bc537-1785-4d3a-808e-6069c26f1f56","ios":"levelo://app?vid=5b2bc537-1785-4d3a-808e-6069c26f1f56"},"vehicle_type_id":"4","last_reported":1702058956,"current_range_meters":28400,"station_id":"ce4bhkp2rcd13ifvqgd0","pricing_plan_id":"free"},{"bike_id":"4bea3748-70d0-4f45-9e78-0d35b55884f7","system_id":"levelo_inurba_marseille","lat":43.250009,"lon":5.389195,"is_reserved":false,"is_disabled":false,"rental_uris":{"android":"levelo://app?vid=4bea3748-70d0-4f45-9e78-0d35b55884f7","ios":"levelo://app?vid=4bea3748-70d0-4f45-9e78-0d35b55884f7"},"vehicle_type_id":"4","last_reported":1702058956,"current_range_meters":2400,"station_id":"ce4bhgp2rcd13ifvqfd0","pricing_plan_id":"free"},{"bike_id":"f8a7bf31-9d1a-49f5-bce1-a960e3b93f47","system_id":"levelo_inurba_marseille","lat":43.250009,"lon":5.389195,"is_reserved":false,"is_disabled":false,"rental_uris":{"android":"levelo://app?vid=f8a7bf31-9d1a-49f5-bce1-a960e3b93f47","ios":"levelo://app?vid=f8a7bf31-9d1a-49f5-bce1-a960e3b93f47"},"vehicle_type_id":"4","last_reported":1702058956,"current_range_meters":21200,"station_id":"ce4bhgp2rcd13ifvqfd0","pricing_plan_id":"free"},{"bike_id":"63afb3f1-bdd3-406a-87f7-77dbf418796d","system_id":"levelo_inurba_marseille","lat":43.250023,"lon":5.38919,"is_reserved":false,"is_disabled":false,"rental_uris":{"android":"levelo://app?vid=63afb3f1-bdd3-406a-87f7-77dbf418796d","ios":"levelo://app?vid=63afb3f1-bdd3-406a-87f7-77dbf418796d"},"vehicle_type_id":"4","last_reported":1702058956,"current_range_meters":23200,"station_id":"ce4bhgp2rcd13ifvqfd0","pricing_plan_id":"free"},{"bike_id":"7d1ab110-4282-4e4e-89fe-f12a65b8b76b","system_id":"levelo_inurba_marseille","lat":43.25089,"lon":5.3951,"is_reserved":false,"is_disabled":false,"rental_uris":{"android":"levelo://app?vid=7d1ab110-4282-4e4e-89fe-f12a65b8b76b","ios":"levelo://app?vid=7d1ab110-4282-4e4e-89fe-f12a65b8b76b"},"vehicle_type_id":"4","last_reported":1702058956,"current_range_meters":20800,"station_id":"ce4bhm12rcd13ifvqgkg","pricing_plan_id":"free"},{"bike_id":"0bd03824-9245-4880-842a-a0ef87e69368","system_id":"levelo_inurba_marseille","lat":43.250966,"lon":5.395186,"is_reserved":false,"is_disabled":false,"rental_uris":{"android":"levelo://app?vid=0bd03824-9245-4880-842a-a0ef87e69368","ios":"levelo://app?vid=0bd03824-9245-4880-842a-a0ef87e69368"},"vehicle_type_id":"4","last_reported":1702058956,"current_range_meters":10000,"station_id":"ce4bhm12rcd13ifvqgkg","pricing_plan_id":"free"},{"bike_id":"e742488b-2fce-4073-9557-bb1eca2448bb","system_id":"levelo_inurba_marseille","lat":43.250966,"lon":5.395186,"is_reserved":false,"is_disabled":false,"rental_uris":{"android":"levelo://app?vid=e742488b-2fce-4073-9557-bb1eca2448bb","ios":"levelo://app?vid=e742488b-2fce-4073-9557-bb1eca2448bb"},"vehicle_type_id":"4","last_reported":1702058956,"current_range_meters":26800,"station_id":"ce4bhm12rcd13ifvqgkg","pricing_plan_id":"free"},{"bike_id":"9c0e9007-0f6c-4f8b-adbb-953844c9fbac","system_id":"levelo_inurba_marseille","lat":43.24665,"lon":5.38169,"is_reserved":false,"is_disabled":false,"rental_uris":{"android":"levelo://app?vid=9c0e9007-0f6c-4f8b-adbb-953844c9fbac","ios":"levelo://app?vid=9c0e9007-0f6c-4f8b-adbb-953844c9fbac"},"vehicle_type_id":"4","last_reported":1702058956,"current_range_meters":20400,"station_id":"ce4bhih2rcd13ifvqfr0","pricing_plan_id":"free"},{"bike_id":"79e9f53f-f903-418f-a588-3c87d90b97a5","system_id":"levelo_inurba_marseille","lat":43.24663,"lon":5.38164,"is_reserved":false,"is_disabled":false,"rental_uris":{"android":"levelo://app?vid=79e9f53f-f903-418f-a588-3c87d90b97a5","ios":"levelo://app?vid=79e9f53f-f903-418f-a588-3c87d90b97a5"},"vehicle_type_id":"4","last_reported":1702058956,"current_range_meters":21600,"station_id":"ce4bhih2rcd13ifvqfr0","pricing_plan_id":"free"},{"bike_id":"16efbfc5-6db8-4621-b6ad-2055755116c4","system_id":"levelo_inurba_marseille","lat":43.243884,"lon":5.370737,"is_reserved":false,"is_disabled":false,"rental_uris":{"android":"levelo://app?vid=16efbfc5-6db8-4621-b6ad-2055755116c4","ios":"levelo://app?vid=16efbfc5-6db8-4621-b6ad-2055755116c4"},"vehicle_type_id":"4","last_reported":1702058956,"current_range_meters":400,"station_id":"ce4bhhh2rcd13ifvqfk0","pricing_plan_id":"free"},{"bike_id":"1f7f2605-d14b-4381-8f1a-f2f1d368b836","system_id":"levelo_inurba_marseille","lat":43.245581,"lon":5.395069,"is_reserved":false,"is_disabled":false,"rental_uris":{"android":"levelo://app?vid=1f7f2605-d14b-4381-8f1a-f2f1d368b836","ios":"levelo://app?vid=1f7f2605-d14b-4381-8f1a-f2f1d368b836"},"vehicle_type_id":"4","last_reported":1702058956,"current_range_meters":7200,"station_id":"ce4bhlp2rcd13ifvqgjg","pricing_plan_id":"free"},{"bike_id":"509f30c2-caad-4dd0-997d-5a6b34523b31","system_id":"levelo_inurba_marseille","lat":43.245581,"lon":5.395069,"is_reserved":false,"is_disabled":false,"rental_uris":{"android":"levelo://app?vid=509f30c2-caad-4dd0-997d-5a6b34523b31","ios":"levelo://app?vid=509f30c2-caad-4dd0-997d-5a6b34523b31"},"vehicle_type_id":"4","last_reported":1702058956,"current_range_meters":18800,"station_id":"ce4bhlp2rcd13ifvqgjg","pricing_plan_id":"free"},{"bike_id":"b3705516-da65-4902-b345-4cc53e261fdf","system_id":"levelo_inurba_marseille","lat":43.2408,"lon":5.37759,"is_reserved":false,"is_disabled":false,"rental_uris":{"android":"levelo://app?vid=b3705516-da65-4902-b345-4cc53e261fdf","ios":"levelo://app?vid=b3705516-da65-4902-b345-4cc53e261fdf"},"vehicle_type_id":"4","last_reported":1702058956,"current_range_meters":21200,"station_id":"","pricing_plan_id":"free"},{"bike_id":"f17dd305-fc7d-4b11-bf2b-39f2dee334a7","system_id":"levelo_inurba_marseille","lat":43.240623,"lon":5.377642,"is_reserved":false,"is_disabled":false,"rental_uris":{"android":"levelo://app?vid=f17dd305-fc7d-4b11-bf2b-39f2dee334a7","ios":"levelo://app?vid=f17dd305-fc7d-4b11-bf2b-39f2dee334a7"},"vehicle_type_id":"4","last_reported":1702058956,"current_range_meters":12400,"station_id":"ce4bhnp2rcd13ifvqgvg","pricing_plan_id":"free"},{"bike_id":"9dce8c70-38a6-4e4a-ac2f-a6d41b83db29","system_id":"levelo_inurba_marseille","lat":43.240623,"lon":5.377642,"is_reserved":false,"is_disabled":false,"rental_uris":{"android":"levelo://app?vid=9dce8c70-38a6-4e4a-ac2f-a6d41b83db29","ios":"levelo://app?vid=9dce8c70-38a6-4e4a-ac2f-a6d41b83db29"},"vehicle_type_id":"4","last_reported":1702058956,"current_range_meters":21200,"station_id":"ce4bhnp2rcd13ifvqgvg","pricing_plan_id":"free"},{"bike_id":"40dde033-2aba-4d1b-be08-45409104d0c7","system_id":"levelo_inurba_marseille","lat":43.239588,"lon":5.366238,"is_reserved":false,"is_disabled":false,"rental_uris":{"android":"levelo://app?vid=40dde033-2aba-4d1b-be08-45409104d0c7","ios":"levelo://app?vid=40dde033-2aba-4d1b-be08-45409104d0c7"},"vehicle_type_id":"4","last_reported":1702058956,"current_range_meters":1600,"station_id":"ce4bhi12rcd13ifvqfp0","pricing_plan_id":"free"},{"bike_id":"93954539-37ab-42cb-8148-c6cd6174d0ce","system_id":"levelo_inurba_marseille","lat":43.239588,"lon":5.366238,"is_reserved":false,"is_disabled":false,"rental_uris":{"android":"levelo://app?vid=93954539-37ab-42cb-8148-c6cd6174d0ce","ios":"levelo://app?vid=93954539-37ab-42cb-8148-c6cd6174d0ce"},"vehicle_type_id":"4","last_reported":1702058956,"current_range_meters":31600,"station_id":"ce4bhi12rcd13ifvqfp0","pricing_plan_id":"free"},{"bike_id":"7d1b079b-6126-472b-bea2-f9f3ddfefcda","system_id":"levelo_inurba_marseille","lat":43.239588,"lon":5.366238,"is_reserved":false,"is_disabled":false,"rental_uris":{"android":"levelo://app?vid=7d1b079b-6126-472b-bea2-f9f3ddfefcda","ios":"levelo://app?vid=7d1b079b-6126-472b-bea2-f9f3ddfefcda"},"vehicle_type_id":"4","last_reported":1702058956,"current_range_meters":16000,"station_id":"ce4bhi12rcd13ifvqfp0","pricing_plan_id":"free"},{"bike_id":"19de1d90-0ef7-4697-bd3a-3e98bd2bf2e7","system_id":"levelo_inurba_marseille","lat":43.239588,"lon":5.366238,"is_reserved":false,"is_disabled":false,"rental_uris":{"android":"levelo://app?vid=19de1d90-0ef7-4697-bd3a-3e98bd2bf2e7","ios":"levelo://app?vid=19de1d90-0ef7-4697-bd3a-3e98bd2bf2e7"},"vehicle_type_id":"4","last_reported":1702058956,"current_range_meters":30400,"station_id":"ce4bhi12rcd13ifvqfp0","pricing_plan_id":"free"},{"bike_id":"2eb27742-70c1-4546-a970-87f077054113","system_id":"levelo_inurba_marseille","lat":43.241782,"lon":5.397261,"is_reserved":false,"is_disabled":false,"rental_uris":{"android":"levelo://app?vid=2eb27742-70c1-4546-a970-87f077054113","ios":"levelo://app?vid=2eb27742-70c1-4546-a970-87f077054113"},"vehicle_type_id":"4","last_reported":1702058956,"current_range_meters":9600,"station_id":"ce4bhn12rcd13ifvqgpg","pricing_plan_id":"free"},{"bike_id":"af788a6f-3785-4c60-9307-e699af0dffdd","system_id":"levelo_inurba_marseille","lat":43.241782,"lon":5.397261,"is_reserved":false,"is_disabled":false,"rental_uris":{"android":"levelo://app?vid=af788a6f-3785-4c60-9307-e699af0dffdd","ios":"levelo://app?vid=af788a6f-3785-4c60-9307-e699af0dffdd"},"vehicle_type_id":"4","last_reported":1702058956,"current_range_meters":23200,"station_id":"ce4bhn12rcd13ifvqgpg","pricing_plan_id":"free"},{"bike_id":"c6004eb4-873a-4661-a0e7-ea9140f6bd61","system_id":"levelo_inurba_marseille","lat":43.231919,"lon":5.355532,"is_reserved":false,"is_disabled":false,"rental_uris":{"android":"levelo://app?vid=c6004eb4-873a-4661-a0e7-ea9140f6bd61","ios":"levelo://app?vid=c6004eb4-873a-4661-a0e7-ea9140f6bd61"},"vehicle_type_id":"4","last_reported":1702058956,"current_range_meters":24400,"station_id":"ce4bhu92rcd13ifvqi70","pricing_plan_id":"free"},{"bike_id":"be845917-f52e-4a9f-83ff-909546a09332","system_id":"levelo_inurba_marseille","lat":43.231794,"lon":5.400052,"is_reserved":false,"is_disabled":false,"rental_uris":{"android":"levelo://app?vid=be845917-f52e-4a9f-83ff-909546a09332","ios":"levelo://app?vid=be845917-f52e-4a9f-83ff-909546a09332"},"vehicle_type_id":"4","last_reported":1702058956,"current_range_meters":31600,"station_id":"ce4bhn12rcd13ifvqgqg","pricing_plan_id":"free"},{"bike_id":"6c4620c0-0d4d-493f-9950-4fd3c4457696","system_id":"levelo_inurba_marseille","lat":43.231794,"lon":5.400052,"is_reserved":false,"is_disabled":false,"rental_uris":{"android":"levelo://app?vid=6c4620c0-0d4d-493f-9950-4fd3c4457696","ios":"levelo://app?vid=6c4620c0-0d4d-493f-9950-4fd3c4457696"},"vehicle_type_id":"4","last_reported":1702058956,"current_range_meters":31600,"station_id":"ce4bhn12rcd13ifvqgqg","pricing_plan_id":"free"},{"bike_id":"1364bb53-1feb-4c66-bc1b-fe1d777b1c2f","system_id":"levelo_inurba_marseille","lat":43.23181,"lon":5.39992,"is_reserved":false,"is_disabled":false,"rental_uris":{"android":"levelo://app?vid=1364bb53-1feb-4c66-bc1b-fe1d777b1c2f","ios":"levelo://app?vid=1364bb53-1feb-4c66-bc1b-fe1d777b1c2f"},"vehicle_type_id":"4","last_reported":1702058956,"current_range_meters":6000,"station_id":"ce4bhn12rcd13ifvqgqg","pricing_plan_id":"free"},{"bike_id":"1c690641-a72b-433d-b1af-d36beaec8f2e","system_id":"levelo_inurba_marseille","lat":43.23179,"lon":5.39993,"is_reserved":false,"is_disabled":false,"rental_uris":{"android":"levelo://app?vid=1c690641-a72b-433d-b1af-d36beaec8f2e","ios":"levelo://app?vid=1c690641-a72b-433d-b1af-d36beaec8f2e"},"vehicle_type_id":"4","last_reported":1702058956,"current_range_meters":30000,"station_id":"ce4bhn12rcd13ifvqgqg","pricing_plan_id":"free"},{"bike_id":"d7354235-71f2-4aeb-aa26-9572f0d131ef","system_id":"levelo_inurba_marseille","lat":43.231794,"lon":5.400052,"is_reserved":false,"is_disabled":false,"rental_uris":{"android":"levelo://app?vid=d7354235-71f2-4aeb-aa26-9572f0d131ef","ios":"levelo://app?vid=d7354235-71f2-4aeb-aa26-9572f0d131ef"},"vehicle_type_id":"4","last_reported":1702058956,"current_range_meters":7200,"station_id":"ce4bhn12rcd13ifvqgqg","pricing_plan_id":"free"},{"bike_id":"6d43085e-34e4-49e6-b24c-3b9997422e74","system_id":"levelo_inurba_marseille","lat":43.231562,"lon":5.436933,"is_reserved":false,"is_disabled":false,"rental_uris":{"android":"levelo://app?vid=6d43085e-34e4-49e6-b24c-3b9997422e74","ios":"levelo://app?vid=6d43085e-34e4-49e6-b24c-3b9997422e74"},"vehicle_type_id":"4","last_reported":1702058956,"current_range_meters":4800,"station_id":"ce4bhmp2rcd13ifvqgog","pricing_plan_id":"free"}]}}