{"last_updated":1732990302,"ttl":60,"version":"2.2","data":{"bikes":[{"bike_id":"163b8c26-c422-4da3-8b76-7d66c8b0daed","system_id":"levelo_inurba_marseille","lat":43.311199,"lon":5.377779,"is_reserved":false,"is_disabled":false,"rental_uris":{"android":"levelo://app?vid=163b8c26-c422-4da3-8b76-7d66c8b0daed","ios":"levelo://app?vid=163b8c26-c422-4da3-8b76-7d66c8b0daed"},"vehicle_type_id":"4","last_reported":1732990303,"current_range_meters":30400,"station_id":"ce4bgt92rcd13ifvqcg0","pricing_plan_id":"cebpf4jnsgd1na2vs0mg"},{"bike_id":"e5e6619b-917b-4fb1-9f9d-2eefcef6baae","system_id":"levelo_inurba_marseille","lat":43.29529,"lon":5.39044,"is_reserved":false,"is_disabled":false,"rental_uris":{"android":"levelo://app?vid=e5e6619b-917b-4fb1-9f9d-2eefcef6baae","ios":"levelo://app?vid=e5e6619b-917b-4fb1-9f9d-2eefcef6baae"},"vehicle_type_id":"4","last_reported":1732990303,"current_range_meters":12800,"station_id":"ce4bh3p2rcd13ifvqdp0","pricing_plan_id":"cebpf4jnsgd1na2vs0mg"},{"bike_id":"b856c8b4-412d-4c25-bdd4-e6b29aed04cb","system_id":"levelo_inurba_marseille","lat":43.22933,"lon":5.35379,"is_reserved":false,"is_disabled":false,"rental_uris":{"android":"levelo://app?vid=b856c8b4-412d-4c25-bdd4-e6b29aed04cb","ios":"levelo://app?vid=b856c8b4-412d-4c25-bdd4-e6b29aed04cb"},"vehicle_type_id":"4","last_reported":1732990303,"current_range_meters":39200,"station_id":"cpo3532slgdg3j2ikp40","pricing_plan_id":"cebpf4jnsgd1na2vs0mg"},{"bike_id":"a8d29c62-8d7e-48a2-8db6-2b09bc00452d","system_id":"levelo_inurba_marseille","lat":43.2925,"lon":5.40901,"is_reserved":false,"is_disabled":true,"rental_uris":{"android":"levelo://app?vid=a8d29c62-8d7e-48a2-8db6-2b09bc00452d","ios":"levelo://app?vid=a8d29c62-8d7e-48a2-8db6-2b09bc00452d"},"vehicle_type_id":"4","last_reported":1732990303,"current_range_meters":0,"station_id":"ce4bh192rcd13ifvqdc0","pricing_plan_id":"cebpf4jnsgd1na2vs0mg"},{"bike_id":"6344dd07-ab4d-4dc2-a076-a63a8dc38c9f","system_id":"levelo_inurba_marseille","lat":43.30327,"lon":5.40432,"is_reserved":false,"is_disabled":false,"rental_uris":{"android":"levelo://app?vid=6344dd07-ab4d-4dc2-a076-a63a8dc38c9f","ios":"levelo://app?vid=6344dd07-ab4d-4dc2-a076-a63a8dc38c9f"},"vehicle_type_id":"4","last_reported":1732990303,"current_range_meters":4800,"station_id":"ce4bh012rcd13ifvqd10","pricing_plan_id":"cebpf4jnsgd1na2vs0mg"},{"bike_id":"24b58811-c922-45fc-9bd8-9af52b722bc3","system_id":"levelo_inurba_marseille","lat":43.32481,"lon":5.36568,"is_reserved":false,"is_disabled":false,"rental_uris":{"android":"levelo://app?vid=24b58811-c922-45fc-9bd8-9af52b722bc3","ios":"levelo://app?vid=24b58811-c922-45fc-9bd8-9af52b722bc3"},"vehicle_type_id":"4","last_reported":1732990303,"current_range_meters":26800,"station_id":"ce4bhs12rcd13ifvqhvg","pricing_plan_id":"cebpf4jnsgd1na2vs0mg"},{"bike_id":"a75eca9f-1397-4b23-8caa-cc6b4bfe01e8","system_id":"levelo_inurba_marseille","lat":43.27381,"lon":5.36256,"is_reserved":false,"is_disabled":true,"rental_uris":{"android":"levelo://app?vid=a75eca9f-1397-4b23-8caa-cc6b4bfe01e8","ios":"levelo://app?vid=a75eca9f-1397-4b23-8caa-cc6b4bfe01e8"},"vehicle_type_id":"4","last_reported":1732990303,"current_range_meters":0,"station_id":"ce4bhbh2rcd13ifvqeo0","pricing_plan_id":"cebpf4jnsgd1na2vs0mg"},{"bike_id":"5b811d3a-cae0-4f12-9af9-b5fb1f651755","system_id":"levelo_inurba_marseille","lat":43.25107,"lon":5.40331,"is_reserved":false,"is_disabled":false,"rental_uris":{"android":"levelo://app?vid=5b811d3a-cae0-4f12-9af9-b5fb1f651755","ios":"levelo://app?vid=5b811d3a-cae0-4f12-9af9-b5fb1f651755"},"vehicle_type_id":"4","last_reported":1732990303,"current_range_meters":38800,"station_id":"ce4bhlh2rcd13ifvqgig","pricing_plan_id":"cebpf4jnsgd1na2vs0mg"},{"bike_id":"304b1681-d55f-4d01-ad35-bdd573088eb4","system_id":"levelo_inurba_marseille","lat":43.29786,"lon":5.39345,"is_reserved":false,"is_disabled":false,"rental_uris":{"android":"levelo://app?vid=304b1681-d55f-4d01-ad35-bdd573088eb4","ios":"levelo://app?vid=304b1681-d55f-4d01-ad35-bdd573088eb4"},"vehicle_type_id":"4","last_reported":1732990303,"current_range_meters":38400,"station_id":"chh1huq6cuj3fo74tm60","pricing_plan_id":"cebpf4jnsgd1na2vs0mg"},{"bike_id":"966791e8-cdff-4838-a42b-c9b609a533a7","system_id":"levelo_inurba_marseille","lat":43.26993,"lon":5.3912,"is_reserved":false,"is_disabled":true,"rental_uris":{"android":"levelo://app?vid=966791e8-cdff-4838-a42b-c9b609a533a7","ios":"levelo://app?vid=966791e8-cdff-4838-a42b-c9b609a533a7"},"vehicle_type_id":"4","last_reported":1732990303,"current_range_meters":0,"station_id":"","pricing_plan_id":"cebpf4jnsgd1na2vs0mg"},{"bike_id":"c7eb0609-d704-41ec-8999-dd02bd777b23","system_id":"levelo_inurba_marseille","lat":43.29262,"lon":5.38432,"is_reserved":false,"is_disabled":false,"rental_uris":{"android":"levelo://app?vid=c7eb0609-d704-41ec-8999-dd02bd777b23","ios":"levelo://app?vid=c7eb0609-d704-41ec-8999-dd02bd777b23"},"vehicle_type_id":"4","last_reported":1732990303,"current_range_meters":38800,"station_id":"ce4bh692rcd13ifvqea0","pricing_plan_id":"cebpf4jnsgd1na2vs0mg"},{"bike_id":"7974306f-50f1-4979-96e6-42a3a669c81a","system_id":"levelo_inurba_marseille","lat":43.32005,"lon":5.38159,"is_reserved":false,"is_disabled":false,"rental_uris":{"android":"levelo://app?vid=7974306f-50f1-4979-96e6-42a3a669c81a","ios":"levelo://app?vid=7974306f-50f1-4979-96e6-42a3a669c81a"},"vehicle_type_id":"4","last_reported":1732990303,"current_range_meters":9200,"station_id":"ce4bhr12rcd13ifvqhpg","pricing_plan_id":"cebpf4jnsgd1na2vs0mg"},{"bike_id":"fc9af8e5-5bc7-48c3-a52f-024e48a62a30","system_id":"levelo_inurba_marseille","lat":43.29301,"lon":5.37174,"is_reserved":false,"is_disabled":false,"rental_uris":{"android":"levelo://app?vid=fc9af8e5-5bc7-48c3-a52f-024e48a62a30","ios":"levelo://app?vid=fc9af8e5-5bc7-48c3-a52f-024e48a62a30"},"vehicle_type_id":"4","last_reported":1732990303,"current_range_meters":25200,"station_id":"ce4bgh92rcd13ifvqb40","pricing_plan_id":"cebpf4jnsgd1na2vs0mg"},{"bike_id":"ee3c4318-4146-4fe4-86b0-fc0b9ce70693","system_id":"levelo_inurba_marseille","lat":43.23068,"lon":5.35487,"is_reserved":false,"is_disabled":false,"rental_uris":{"android":"levelo://app?vid=ee3c4318-4146-4fe4-86b0-fc0b9ce70693","ios":"levelo://app?vid=ee3c4318-4146-4fe4-86b0-fc0b9ce70693"},"vehicle_type_id":"4","last_reported":1732990303,"current_range_meters":34800,"station_id":"cpo3342slgdg3j2ifvpg","pricing_plan_id":"cebpf4jnsgd1na2vs0mg"},{"bike_id":"835d82ec-8886-4952-80b0-4820a09a8d3d","system_id":"levelo_inurba_marseille","lat":43.29262,"lon":5.38436,"is_reserved":false,"is_disabled":false,"rental_uris":{"android":"levelo://app?vid=835d82ec-8886-4952-80b0-4820a09a8d3d","ios":"levelo://app?vid=835d82ec-8886-4952-80b0-4820a09a8d3d"},"vehicle_type_id":"4","last_reported":1732990303,"current_range_meters":27600,"station_id":"ce4bh692rcd13ifvqea0","pricing_plan_id":"cebpf4jnsgd1na2vs0mg"},{"bike_id":"4c372f2d-9233-4b44-8a57-21c51baa82b5","system_id":"levelo_inurba_marseille","lat":43.31171,"lon":5.38708,"is_reserved":false,"is_disabled":true,"rental_uris":{"android":"levelo://app?vid=4c372f2d-9233-4b44-8a57-21c51baa82b5","ios":"levelo://app?vid=4c372f2d-9233-4b44-8a57-21c51baa82b5"},"vehicle_type_id":"4","last_reported":1732990303,"current_range_meters":0,"station_id":"ce4bgv12rcd13ifvqcp0","pricing_plan_id":"cebpf4jnsgd1na2vs0mg"},{"bike_id":"c7124f38-3d56-473c-9e8b-76061f1c5a09","system_id":"levelo_inurba_marseille","lat":43.27069,"lon":5.42275,"is_reserved":false,"is_disabled":true,"rental_uris":{"android":"levelo://app?vid=c7124f38-3d56-473c-9e8b-76061f1c5a09","ios":"levelo://app?vid=c7124f38-3d56-473c-9e8b-76061f1c5a09"},"vehicle_type_id":"4","last_reported":1732990303,"current_range_meters":400,"station_id":"ce4bhk92rcd13ifvqgb0","pricing_plan_id":"cebpf4jnsgd1na2vs0mg"},{"bike_id":"be8da527-cb65-4e12-ba77-e18870142a40","system_id":"levelo_inurba_marseille","lat":43.2923,"lon":5.36063,"is_reserved":false,"is_disabled":false,"rental_uris":{"android":"levelo://app?vid=be8da527-cb65-4e12-ba77-e18870142a40","ios":"levelo://app?vid=be8da527-cb65-4e12-ba77-e18870142a40"},"vehicle_type_id":"4","last_reported":1732990303,"current_range_meters":12400,"station_id":"ce4bhbh2rcd13ifvqeqg","pricing_plan_id":"cebpf4jnsgd1na2vs0mg"},{"bike_id":"b0bd4cdf-7308-45f0-8e99-a0d5811907ff","system_id":"levelo_inurba_marseille","lat":43.25442,"lon":5.38147,"is_reserved":false,"is_disabled":true,"rental_uris":{"android":"levelo://app?vid=b0bd4cdf-7308-45f0-8e99-a0d5811907ff","ios":"levelo://app?vid=b0bd4cdf-7308-45f0-8e99-a0d5811907ff"},"vehicle_type_id":"4","last_reported":1732990303,"current_range_meters":0,"station_id":"","pricing_plan_id":"cebpf4jnsgd1na2vs0mg"},{"bike_id":"2b934695-b4e9-4969-8beb-09d4426506f4","system_id":"levelo_inurba_marseille","lat":43.29273,"lon":5.38444,"is_reserved":false,"is_disabled":false,"rental_uris":{"android":"levelo://app?vid=2b934695-b4e9-4969-8beb-09d4426506f4","ios":"levelo://app?vid=2b934695-b4e9-4969-8beb-09d4426506f4"},"vehicle_type_id":"4","last_reported":1732990303,"current_range_meters":38800,"station_id":"ce4bh692rcd13ifvqea0","pricing_plan_id":"cebpf4jnsgd1na2vs0mg"},{"bike_id":"f0ca66be-c5fa-4f1d-8e2b-9450ca0243d7","system_id":"levelo_inurba_marseille","lat":43.30159,"lon":5.38081,"is_reserved":false,"is_disabled":true,"rental_uris":{"android":"levelo://app?vid=f0ca66be-c5fa-4f1d-8e2b-9450ca0243d7","ios":"levelo://app?vid=f0ca66be-c5fa-4f1d-8e2b-9450ca0243d7"},"vehicle_type_id":"4","last_reported":1732990303,"current_range_meters":36400,"station_id":"ce4bgjp2rcd13ifvqbh0","pricing_plan_id":"cebpf4jnsgd1na2vs0mg"},{"bike_id":"6f7949e1-de87-4a49-8620-fec27e04447f","system_id":"levelo_inurba_marseille","lat":43.33721,"lon":5.39229,"is_reserved":false,"is_disabled":false,"rental_uris":{"android":"levelo://app?vid=6f7949e1-de87-4a49-8620-fec27e04447f","ios":"levelo://app?vid=6f7949e1-de87-4a49-8620-fec27e04447f"},"vehicle_type_id":"4","last_reported":1732990303,"current_range_meters":27200,"station_id":"ce4bhr92rcd13ifvqhsg","pricing_plan_id":"cebpf4jnsgd1na2vs0mg"},{"bike_id":"b03936f4-0154-4dd8-b457-48f23be2b9b0","system_id":"levelo_inurba_marseille","lat":43.29265,"lon":5.38431,"is_reserved":false,"is_disabled":false,"rental_uris":{"android":"levelo://app?vid=b03936f4-0154-4dd8-b457-48f23be2b9b0","ios":"levelo://app?vid=b03936f4-0154-4dd8-b457-48f23be2b9b0"},"vehicle_type_id":"4","last_reported":1732990303,"current_range_meters":15200,"station_id":"ce4bh692rcd13ifvqea0","pricing_plan_id":"cebpf4jnsgd1na2vs0mg"},{"bike_id":"c545f1b7-c60b-4c52-90f8-228b77c8bf47","system_id":"levelo_inurba_marseille","lat":43.31695,"lon":5.40475,"is_reserved":false,"is_disabled":false,"rental_uris":{"android":"levelo://app?vid=c545f1b7-c60b-4c52-90f8-228b77c8bf47","ios":"levelo://app?vid=c545f1b7-c60b-4c52-90f8-228b77c8bf47"},"vehicle_type_id":"4","last_reported":1732990303,"current_range_meters":10800,"station_id":"ce4bh012rcd13ifvqd00","pricing_plan_id":"cebpf4jnsgd1na2vs0mg"},{"bike_id":"7066298c-8444-4dbb-8e5a-afa45f0890f5","system_id":"levelo_inurba_marseille","lat":43.28856,"lon":5.39318,"is_reserved":false,"is_disabled":true,"rental_uris":{"android":"levelo://app?vid=7066298c-8444-4dbb-8e5a-afa45f0890f5","ios":"levelo://app?vid=7066298c-8444-4dbb-8e5a-afa45f0890f5"},"vehicle_type_id":"4","last_reported":1732990303,"current_range_meters":11200,"station_id":"ce4bh2p2rcd13ifvqdi0","pricing_plan_id":"cebpf4jnsgd1na2vs0mg"},{"bike_id":"79da6e11-068f-4f85-891a-bf5d6033ae1b","system_id":"levelo_inurba_marseille","lat":43.29213,"lon":5.39314,"is_reserved":false,"is_disabled":true,"rental_uris":{"android":"levelo://app?vid=79da6e11-068f-4f85-891a-bf5d6033ae1b","ios":"levelo://app?vid=79da6e11-068f-4f85-891a-bf5d6033ae1b"},"vehicle_type_id":"4","last_reported":1732990303,"current_range_meters":24000,"station_id":"ce4bh192rcd13ifvqdd0","pricing_plan_id":"cebpf4jnsgd1na2vs0mg"},{"bike_id":"0d99b134-f846-446d-8687-0e74d202ed65","system_id":"levelo_inurba_marseille","lat":43.30931,"lon":5.40159,"is_reserved":false,"is_disabled":false,"rental_uris":{"android":"levelo://app?vid=0d99b134-f846-446d-8687-0e74d202ed65","ios":"levelo://app?vid=0d99b134-f846-446d-8687-0e74d202ed65"},"vehicle_type_id":"4","last_reported":1732990303,"current_range_meters":28000,"station_id":"ce4bgvp2rcd13ifvqct0","pricing_plan_id":"cebpf4jnsgd1na2vs0mg"},{"bike_id":"3093e3f3-9038-4795-9495-6ceb058bf027","system_id":"levelo_inurba_marseille","lat":43.30792,"lon":5.3816,"is_reserved":false,"is_disabled":false,"rental_uris":{"android":"levelo://app?vid=3093e3f3-9038-4795-9495-6ceb058bf027","ios":"levelo://app?vid=3093e3f3-9038-4795-9495-6ceb058bf027"},"vehicle_type_id":"4","last_reported":1732990303,"current_range_meters":8800,"station_id":"ce4bgt12rcd13ifvqce0","pricing_plan_id":"cebpf4jnsgd1na2vs0mg"},{"bike_id":"f3d38427-bb28-4d18-89e5-711df8c56625","system_id":"levelo_inurba_marseille","lat":43.30595,"lon":5.37227,"is_reserved":false,"is_disabled":true,"rental_uris":{"android":"levelo://app?vid=f3d38427-bb28-4d18-89e5-711df8c56625","ios":"levelo://app?vid=f3d38427-bb28-4d18-89e5-711df8c56625"},"vehicle_type_id":"4","last_reported":1732990303,"current_range_meters":0,"station_id":"ce4bgqh2rcd13ifvqc4g","pricing_plan_id":"cebpf4jnsgd1na2vs0mg"},{"bike_id":"326ea5f8-3ae3-45db-a4e6-628c8e987aeb","system_id":"levelo_inurba_marseille","lat":43.27377,"lon":5.36255,"is_reserved":false,"is_disabled":false,"rental_uris":{"android":"levelo://app?vid=326ea5f8-3ae3-45db-a4e6-628c8e987aeb","ios":"levelo://app?vid=326ea5f8-3ae3-45db-a4e6-628c8e987aeb"},"vehicle_type_id":"4","last_reported":1732990303,"current_range_meters":9600,"station_id":"ce4bhbh2rcd13ifvqeo0","pricing_plan_id":"cebpf4jnsgd1na2vs0mg"},{"bike_id":"8bb3f199-51ec-4782-bbf0-4948bb68010d","system_id":"levelo_inurba_marseille","lat":43.27183,"lon":5.41001,"is_reserved":false,"is_disabled":false,"rental_uris":{"android":"levelo://app?vid=8bb3f199-51ec-4782-bbf0-4948bb68010d","ios":"levelo://app?vid=8bb3f199-51ec-4782-bbf0-4948bb68010d"},"vehicle_type_id":"4","last_reported":1732990303,"current_range_meters":26800,"station_id":"ce4bhl12rcd13ifvqgf0","pricing_plan_id":"cebpf4jnsgd1na2vs0mg"},{"bike_id":"4cd0fae9-9b96-4c08-80a7-0987ebb39a57","system_id":"levelo_inurba_marseille","lat":43.29005,"lon":5.35611,"is_reserved":false,"is_disabled":true,"rental_uris":{"android":"levelo://app?vid=4cd0fae9-9b96-4c08-80a7-0987ebb39a57","ios":"levelo://app?vid=4cd0fae9-9b96-4c08-80a7-0987ebb39a57"},"vehicle_type_id":"4","last_reported":1732990303,"current_range_meters":0,"station_id":"ce4bhb92rcd13ifvqen0","pricing_plan_id":"cebpf4jnsgd1na2vs0mg"},{"bike_id":"98037c3a-9b2c-4fc3-b5c9-984ee3607601","system_id":"levelo_inurba_marseille","lat":43.32363,"lon":5.36756,"is_reserved":false,"is_disabled":false,"rental_uris":{"android":"levelo://app?vid=98037c3a-9b2c-4fc3-b5c9-984ee3607601","ios":"levelo://app?vid=98037c3a-9b2c-4fc3-b5c9-984ee3607601"},"vehicle_type_id":"4","last_reported":1732990303,"current_range_meters":7200,"station_id":"ce4bhsh2rcd13ifvqi2g","pricing_plan_id":"cebpf4jnsgd1na2vs0mg"},{"bike_id":"44d79380-0bdf-4fb4-8fdb-01d2fa6eeeb3","system_id":"levelo_inurba_marseille","lat":43.26682,"lon":5.38268,"is_reserved":false,"is_disabled":true,"rental_uris":{"android":"levelo://app?vid=44d79380-0bdf-4fb4-8fdb-01d2fa6eeeb3","ios":"levelo://app?vid=44d79380-0bdf-4fb4-8fdb-01d2fa6eeeb3"},"vehicle_type_id":"4","last_reported":1732990303,"current_range_meters":21600,"station_id":"ce4bhg92rcd13ifvqf90","pricing_plan_id":"cebpf4jnsgd1na2vs0mg"},{"bike_id":"c3b5c072-c86c-4e11-964e-dae7db79e3e2","system_id":"levelo_inurba_marseille","lat":43.29886,"lon":5.38914,"is_reserved":false,"is_disabled":false,"rental_uris":{"android":"levelo://app?vid=c3b5c072-c86c-4e11-964e-dae7db79e3e2","ios":"levelo://app?vid=c3b5c072-c86c-4e11-964e-dae7db79e3e2"},"vehicle_type_id":"4","last_reported":1732990303,"current_range_meters":19600,"station_id":"ce4bh392rcd13ifvqdl0","pricing_plan_id":"cebpf4jnsgd1na2vs0mg"},{"bike_id":"2ff6e186-e99e-49eb-abe1-2820c49eb5f1","system_id":"levelo_inurba_marseille","lat":43.28469,"lon":5.35895,"is_reserved":false,"is_disabled":false,"rental_uris":{"android":"levelo://app?vid=2ff6e186-e99e-49eb-abe1-2820c49eb5f1","ios":"levelo://app?vid=2ff6e186-e99e-49eb-abe1-2820c49eb5f1"},"vehicle_type_id":"4","last_reported":1732990303,"current_range_meters":21600,"station_id":"ce4bhah2rcd13ifvqei0","pricing_plan_id":"cebpf4jnsgd1na2vs0mg"},{"bike_id":"c0054edb-5a8c-4cde-93a6-194d063ea63c","system_id":"levelo_inurba_marseille","lat":43.26198,"lon":5.37933,"is_reserved":false,"is_disabled":true,"rental_uris":{"android":"levelo://app?vid=c0054edb-5a8c-4cde-93a6-194d063ea63c","ios":"levelo://app?vid=c0054edb-5a8c-4cde-93a6-194d063ea63c"},"vehicle_type_id":"4","last_reported":1732990303,"current_range_meters":1200,"station_id":"ce4bhjp2rcd13ifvqg90","pricing_plan_id":"cebpf4jnsgd1na2vs0mg"},{"bike_id":"72ee6850-57b4-46ef-a0e6-fd38117a45c4","system_id":"levelo_inurba_marseille","lat":43.29958,"lon":5.41314,"is_reserved":false,"is_disabled":false,"rental_uris":{"android":"levelo://app?vid=72ee6850-57b4-46ef-a0e6-fd38117a45c4","ios":"levelo://app?vid=72ee6850-57b4-46ef-a0e6-fd38117a45c4"},"vehicle_type_id":"4","last_reported":1732990303,"current_range_meters":31200,"station_id":"ce4bhp12rcd13ifvqh9g","pricing_plan_id":"cebpf4jnsgd1na2vs0mg"},{"bike_id":"01fdf9cf-8e8d-4439-8430-8e7662854c2a","system_id":"levelo_inurba_marseille","lat":43.26207,"lon":5.37919,"is_reserved":false,"is_disabled":false,"rental_uris":{"android":"levelo://app?vid=01fdf9cf-8e8d-4439-8430-8e7662854c2a","ios":"levelo://app?vid=01fdf9cf-8e8d-4439-8430-8e7662854c2a"},"vehicle_type_id":"4","last_reported":1732990303,"current_range_meters":7200,"station_id":"ce4bhjp2rcd13ifvqg90","pricing_plan_id":"cebpf4jnsgd1na2vs0mg"},{"bike_id":"b0cea9bc-74be-4c25-a56f-e7f8b0ea7632","system_id":"levelo_inurba_marseille","lat":43.32651,"lon":5.4097,"is_reserved":false,"is_disabled":false,"rental_uris":{"android":"levelo://app?vid=b0cea9bc-74be-4c25-a56f-e7f8b0ea7632","ios":"levelo://app?vid=b0cea9bc-74be-4c25-a56f-e7f8b0ea7632"},"vehicle_type_id":"4","last_reported":1732990303,"current_range_meters":29600,"station_id":"ce4bhpp2rcd13ifvqhgg","pricing_plan_id":"cebpf4jnsgd1na2vs0mg"},{"bike_id":"1aa61925-f4ba-4fd5-b1de-08db522586c3","system_id":"levelo_inurba_marseille","lat":43.2706,"lon":5.40262,"is_reserved":false,"is_disabled":true,"rental_uris":{"android":"levelo://app?vid=1aa61925-f4ba-4fd5-b1de-08db522586c3","ios":"levelo://app?vid=1aa61925-f4ba-4fd5-b1de-08db522586c3"},"vehicle_type_id":"4","last_reported":1732990303,"current_range_meters":0,"station_id":"ce4bhk92rcd13ifvqgc0","pricing_plan_id":"cebpf4jnsgd1na2vs0mg"},{"bike_id":"730e0911-edf1-449e-b0d4-bdc294ba1140","system_id":"levelo_inurba_marseille","lat":43.30282,"lon":5.39168,"is_reserved":false,"is_disabled":false,"rental_uris":{"android":"levelo://app?vid=730e0911-edf1-449e-b0d4-bdc294ba1140","ios":"levelo://app?vid=730e0911-edf1-449e-b0d4-bdc294ba1140"},"vehicle_type_id":"4","last_reported":1732990303,"current_range_meters":39200,"station_id":"ce4bgkh2rcd13ifvqbk0","pricing_plan_id":"cebpf4jnsgd1na2vs0mg"},{"bike_id":"694ada16-62be-4cd2-822e-a4599887121c","system_id":"levelo_inurba_marseille","lat":43.23191,"lon":5.35557,"is_reserved":false,"is_disabled":false,"rental_uris":{"android":"levelo://app?vid=694ada16-62be-4cd2-822e-a4599887121c","ios":"levelo://app?vid=694ada16-62be-4cd2-822e-a4599887121c"},"vehicle_type_id":"4","last_reported":1732990303,"current_range_meters":36000,"station_id":"ce4bhu92rcd13ifvqi70","pricing_plan_id":"cebpf4jnsgd1na2vs0mg"},{"bike_id":"1a17b60d-2755-4a31-8fe5-e93f284b6823","system_id":"levelo_inurba_marseille","lat":43.28927,"lon":5.38401,"is_reserved":false,"is_disabled":false,"rental_uris":{"android":"levelo://app?vid=1a17b60d-2755-4a31-8fe5-e93f284b6823","ios":"levelo://app?vid=1a17b60d-2755-4a31-8fe5-e93f284b6823"},"vehicle_type_id":"4","last_reported":1732990303,"current_range_meters":24000,"station_id":"ce4bh612rcd13ifvqe6g","pricing_plan_id":"cebpf4jnsgd1na2vs0mg"},{"bike_id":"67fa2a9e-eed8-4ed6-bdd8-7d1023a52b4e","system_id":"levelo_inurba_marseille","lat":43.26937,"lon":5.38925,"is_reserved":false,"is_disabled":true,"rental_uris":{"android":"levelo://app?vid=67fa2a9e-eed8-4ed6-bdd8-7d1023a52b4e","ios":"levelo://app?vid=67fa2a9e-eed8-4ed6-bdd8-7d1023a52b4e"},"vehicle_type_id":"4","last_reported":1732990303,"current_range_meters":8800,"station_id":"ce4bhhh2rcd13ifvqfl0","pricing_plan_id":"cebpf4jnsgd1na2vs0mg"},{"bike_id":"7aea2cc0-8fb7-4051-bad9-d49d559b2b34","system_id":"levelo_inurba_marseille","lat":43.3088,"lon":5.39634,"is_reserved":false,"is_disabled":false,"rental_uris":{"android":"levelo://app?vid=7aea2cc0-8fb7-4051-bad9-d49d559b2b34","ios":"levelo://app?vid=7aea2cc0-8fb7-4051-bad9-d49d559b2b34"},"vehicle_type_id":"4","last_reported":1732990303,"current_range_meters":30800,"station_id":"ce4bh012rcd13ifvqcv0","pricing_plan_id":"cebpf4jnsgd1na2vs0mg"},{"bike_id":"d68f5cba-5524-49e0-b7bc-b2a8721e6c47","system_id":"levelo_inurba_marseille","lat":43.28609,"lon":5.37061,"is_reserved":false,"is_disabled":false,"rental_uris":{"android":"levelo://app?vid=d68f5cba-5524-49e0-b7bc-b2a8721e6c47","ios":"levelo://app?vid=d68f5cba-5524-49e0-b7bc-b2a8721e6c47"},"vehicle_type_id":"4","last_reported":1732990303,"current_range_meters":18800,"station_id":"ce4bht12rcd13ifvqi60","pricing_plan_id":"cebpf4jnsgd1na2vs0mg"},{"bike_id":"c88d273a-fd0e-460a-9afc-6e7c90823356","system_id":"levelo_inurba_marseille","lat":43.29024,"lon":5.3814,"is_reserved":false,"is_disabled":true,"rental_uris":{"android":"levelo://app?vid=c88d273a-fd0e-460a-9afc-6e7c90823356","ios":"levelo://app?vid=c88d273a-fd0e-460a-9afc-6e7c90823356"},"vehicle_type_id":"4","last_reported":1732990303,"current_range_meters":0,"station_id":"ce4bh4p2rcd13ifvqe1g","pricing_plan_id":"cebpf4jnsgd1na2vs0mg"},{"bike_id":"f453dc37-c945-448b-80e2-38bae3f013a5","system_id":"levelo_inurba_marseille","lat":43.31993,"lon":5.38169,"is_reserved":false,"is_disabled":false,"rental_uris":{"android":"levelo://app?vid=f453dc37-c945-448b-80e2-38bae3f013a5","ios":"levelo://app?vid=f453dc37-c945-448b-80e2-38bae3f013a5"},"vehicle_type_id":"4","last_reported":1732990303,"current_range_meters":33200,"station_id":"ce4bhr12rcd13ifvqhpg","pricing_plan_id":"cebpf4jnsgd1na2vs0mg"},{"bike_id":"161f1967-f9eb-42cf-ac98-c0e9ac0708f1","system_id":"levelo_inurba_marseille","lat":43.33026,"lon":5.39039,"is_reserved":false,"is_disabled":false,"rental_uris":{"android":"levelo://app?vid=161f1967-f9eb-42cf-ac98-c0e9ac0708f1","ios":"levelo://app?vid=161f1967-f9eb-42cf-ac98-c0e9ac0708f1"},"vehicle_type_id":"4","last_reported":1732990303,"current_range_meters":16000,"station_id":"ce4bhr92rcd13ifvqhrg","pricing_plan_id":"cebpf4jnsgd1na2vs0mg"},{"bike_id":"db859837-cb21-41ca-b64b-3ebed09d2649","system_id":"levelo_inurba_marseille","lat":43.26689,"lon":5.3827,"is_reserved":false,"is_disabled":true,"rental_uris":{"android":"levelo://app?vid=db859837-cb21-41ca-b64b-3ebed09d2649","ios":"levelo://app?vid=db859837-cb21-41ca-b64b-3ebed09d2649"},"vehicle_type_id":"4","last_reported":1732990303,"current_range_meters":800,"station_id":"ce4bhg92rcd13ifvqf90","pricing_plan_id":"cebpf4jnsgd1na2vs0mg"},{"bike_id":"b048c7f8-26ab-4136-af35-eaceb31d65ab","system_id":"levelo_inurba_marseille","lat":43.29893,"lon":5.43677,"is_reserved":false,"is_disabled":false,"rental_uris":{"android":"levelo://app?vid=b048c7f8-26ab-4136-af35-eaceb31d65ab","ios":"levelo://app?vid=b048c7f8-26ab-4136-af35-eaceb31d65ab"},"vehicle_type_id":"4","last_reported":1732990303,"current_range_meters":17200,"station_id":"ce4bhpp2rcd13ifvqhfg","pricing_plan_id":"cebpf4jnsgd1na2vs0mg"},{"bike_id":"f8968860-9ebe-425f-866f-a253a48101dd","system_id":"levelo_inurba_marseille","lat":43.28457,"lon":5.35897,"is_reserved":false,"is_disabled":true,"rental_uris":{"android":"levelo://app?vid=f8968860-9ebe-425f-866f-a253a48101dd","ios":"levelo://app?vid=f8968860-9ebe-425f-866f-a253a48101dd"},"vehicle_type_id":"4","last_reported":1732990303,"current_range_meters":4400,"station_id":"ce4bhah2rcd13ifvqei0","pricing_plan_id":"cebpf4jnsgd1na2vs0mg"},{"bike_id":"bc749360-3ce4-4dd6-a0ac-83aa82c323a7","system_id":"levelo_inurba_marseille","lat":43.28161,"lon":5.42634,"is_reserved":false,"is_disabled":true,"rental_uris":{"android":"levelo://app?vid=bc749360-3ce4-4dd6-a0ac-83aa82c323a7","ios":"levelo://app?vid=bc749360-3ce4-4dd6-a0ac-83aa82c323a7"},"vehicle_type_id":"4","last_reported":1732990303,"current_range_meters":34000,"station_id":"ce4bhnh2rcd13ifvqgug","pricing_plan_id":"cebpf4jnsgd1na2vs0mg"},{"bike_id":"d82b4c68-a5c7-4bd6-8271-174d3edf956b","system_id":"levelo_inurba_marseille","lat":43.28414,"lon":5.34976,"is_reserved":false,"is_disabled":false,"rental_uris":{"android":"levelo://app?vid=d82b4c68-a5c7-4bd6-8271-174d3edf956b","ios":"levelo://app?vid=d82b4c68-a5c7-4bd6-8271-174d3edf956b"},"vehicle_type_id":"4","last_reported":1732990303,"current_range_meters":25600,"station_id":"ce4bhbh2rcd13ifvqepg","pricing_plan_id":"cebpf4jnsgd1na2vs0mg"},{"bike_id":"558747a2-4017-443c-bd21-43d4dcdb19d0","system_id":"levelo_inurba_marseille","lat":43.23195,"lon":5.35554,"is_reserved":false,"is_disabled":false,"rental_uris":{"android":"levelo://app?vid=558747a2-4017-443c-bd21-43d4dcdb19d0","ios":"levelo://app?vid=558747a2-4017-443c-bd21-43d4dcdb19d0"},"vehicle_type_id":"4","last_reported":1732990303,"current_range_meters":38800,"station_id":"ce4bhu92rcd13ifvqi70","pricing_plan_id":"cebpf4jnsgd1na2vs0mg"},{"bike_id":"4d4c884f-6933-49c0-8899-f9856d90f44d","system_id":"levelo_inurba_marseille","lat":43.29748,"lon":5.37971,"is_reserved":false,"is_disabled":true,"rental_uris":{"android":"levelo://app?vid=4d4c884f-6933-49c0-8899-f9856d90f44d","ios":"levelo://app?vid=4d4c884f-6933-49c0-8899-f9856d90f44d"},"vehicle_type_id":"4","last_reported":1732990303,"current_range_meters":0,"station_id":"","pricing_plan_id":"cebpf4jnsgd1na2vs0mg"},{"bike_id":"49383f8c-5e0c-4bb5-aa2b-e1c81f4536f3","system_id":"levelo_inurba_marseille","lat":43.32284,"lon":5.38261,"is_reserved":false,"is_disabled":false,"rental_uris":{"android":"levelo://app?vid=49383f8c-5e0c-4bb5-aa2b-e1c81f4536f3","ios":"levelo://app?vid=49383f8c-5e0c-4bb5-aa2b-e1c81f4536f3"},"vehicle_type_id":"4","last_reported":1732990303,"current_range_meters":28800,"station_id":"ce4bhr12rcd13ifvqhqg","pricing_plan_id":"cebpf4jnsgd1na2vs0mg"},{"bike_id":"e96276ca-5819-4213-966e-89c06b167c22","system_id":"levelo_inurba_marseille","lat":43.26932,"lon":5.38928,"is_reserved":false,"is_disabled":false,"rental_uris":{"android":"levelo://app?vid=e96276ca-5819-4213-966e-89c06b167c22","ios":"levelo://app?vid=e96276ca-5819-4213-966e-89c06b167c22"},"vehicle_type_id":"4","last_reported":1732990303,"current_range_meters":38400,"station_id":"ce4bhhh2rcd13ifvqfl0","pricing_plan_id":"cebpf4jnsgd1na2vs0mg"},{"bike_id":"d92f4791-2942-44be-8ccd-4e4eea089d31","system_id":"levelo_inurba_marseille","lat":43.31724,"lon":5.42393,"is_reserved":false,"is_disabled":false,"rental_uris":{"android":"levelo://app?vid=d92f4791-2942-44be-8ccd-4e4eea089d31","ios":"levelo://app?vid=d92f4791-2942-44be-8ccd-4e4eea089d31"},"vehicle_type_id":"4","last_reported":1732990303,"current_range_meters":38400,"station_id":"ce4bhp92rcd13ifvqhbg","pricing_plan_id":"cebpf4jnsgd1na2vs0mg"},{"bike_id":"9009be37-c6b1-406b-b0a8-fbab355f715e","system_id":"levelo_inurba_marseille","lat":43.33763,"lon":5.37495,"is_reserved":false,"is_disabled":false,"rental_uris":{"android":"levelo://app?vid=9009be37-c6b1-406b-b0a8-fbab355f715e","ios":"levelo://app?vid=9009be37-c6b1-406b-b0a8-fbab355f715e"},"vehicle_type_id":"4","last_reported":1732990303,"current_range_meters":35600,"station_id":"","pricing_plan_id":"cebpf4jnsgd1na2vs0mg"},{"bike_id":"b7b33697-14a7-4110-9b8b-4194e6ef5f3f","system_id":"levelo_inurba_marseille","lat":43.27287,"lon":5.39213,"is_reserved":false,"is_disabled":true,"rental_uris":{"android":"levelo://app?vid=b7b33697-14a7-4110-9b8b-4194e6ef5f3f","ios":"levelo://app?vid=b7b33697-14a7-4110-9b8b-4194e6ef5f3f"},"vehicle_type_id":"4","last_reported":1732990303,"current_range_meters":0,"station_id":"","pricing_plan_id":"cebpf4jnsgd1na2vs0mg"},{"bike_id":"0b6aee06-e735-46a7-803e-8a833830fabf","system_id":"levelo_inurba_marseille","lat":43.30375,"lon":5.41884,"is_reserved":false,"is_disabled":false,"rental_uris":{"android":"levelo://app?vid=0b6aee06-e735-46a7-803e-8a833830fabf","ios":"levelo://app?vid=0b6aee06-e735-46a7-803e-8a833830fabf"},"vehicle_type_id":"4","last_reported":1732990303,"current_range_meters":38800,"station_id":"ce4bhop2rcd13ifvqh7g","pricing_plan_id":"cebpf4jnsgd1na2vs0mg"},{"bike_id":"ac49fba4-30df-4893-b052-7d9d76fd86a2","system_id":"levelo_inurba_marseille","lat":43.29258,"lon":5.38434,"is_reserved":false,"is_disabled":true,"rental_uris":{"android":"levelo://app?vid=ac49fba4-30df-4893-b052-7d9d76fd86a2","ios":"levelo://app?vid=ac49fba4-30df-4893-b052-7d9d76fd86a2"},"vehicle_type_id":"4","last_reported":1732990303,"current_range_meters":16800,"station_id":"ce4bh692rcd13ifvqea0","pricing_plan_id":"cebpf4jnsgd1na2vs0mg"},{"bike_id":"0dec4c33-fc81-47bf-a6e9-526a4587ffda","system_id":"levelo_inurba_marseille","lat":43.30296,"lon":5.39204,"is_reserved":false,"is_disabled":false,"rental_uris":{"android":"levelo://app?vid=0dec4c33-fc81-47bf-a6e9-526a4587ffda","ios":"levelo://app?vid=0dec4c33-fc81-47bf-a6e9-526a4587ffda"},"vehicle_type_id":"4","last_reported":1732990303,"current_range_meters":39200,"station_id":"ce4bgkh2rcd13ifvqbk0","pricing_plan_id":"cebpf4jnsgd1na2vs0mg"},{"bike_id":"6689b5be-35a5-4c9e-a5c4-8800b71e0424","system_id":"levelo_inurba_marseille","lat":43.29793,"lon":5.39336,"is_reserved":false,"is_disabled":false,"rental_uris":{"android":"levelo://app?vid=6689b5be-35a5-4c9e-a5c4-8800b71e0424","ios":"levelo://app?vid=6689b5be-35a5-4c9e-a5c4-8800b71e0424"},"vehicle_type_id":"4","last_reported":1732990303,"current_range_meters":26800,"station_id":"chh1huq6cuj3fo74tm60","pricing_plan_id":"cebpf4jnsgd1na2vs0mg"},{"bike_id":"be1ea8ae-bb6c-4cc9-9878-4dd6e7c328d6","system_id":"levelo_inurba_marseille","lat":43.32109,"lon":5.36778,"is_reserved":false,"is_disabled":false,"rental_uris":{"android":"levelo://app?vid=be1ea8ae-bb6c-4cc9-9878-4dd6e7c328d6","ios":"levelo://app?vid=be1ea8ae-bb6c-4cc9-9878-4dd6e7c328d6"},"vehicle_type_id":"4","last_reported":1732990303,"current_range_meters":29600,"station_id":"ce4bhrh2rcd13ifvqhug","pricing_plan_id":"cebpf4jnsgd1na2vs0mg"},{"bike_id":"3abdb507-aca9-41cf-ab5c-c13fb795c3a0","system_id":"levelo_inurba_marseille","lat":43.284054,"lon":5.349836,"is_reserved":false,"is_disabled":true,"rental_uris":{"android":"levelo://app?vid=3abdb507-aca9-41cf-ab5c-c13fb795c3a0","ios":"levelo://app?vid=3abdb507-aca9-41cf-ab5c-c13fb795c3a0"},"vehicle_type_id":"4","last_reported":1732990303,"current_range_meters":38800,"station_id":"ce4bhbh2rcd13ifvqepg","pricing_plan_id":"cebpf4jnsgd1na2vs0mg"},{"bike_id":"7fda7038-d61c-405a-a660-6de6859d9497","system_id":"levelo_inurba_marseille","lat":43.32658,"lon":5.40988,"is_reserved":false,"is_disabled":false,"rental_uris":{"android":"levelo://app?vid=7fda7038-d61c-405a-a660-6de6859d9497","ios":"levelo://app?vid=7fda7038-d61c-405a-a660-6de6859d9497"},"vehicle_type_id":"4","last_reported":1732990303,"current_range_meters":24000,"station_id":"ce4bhpp2rcd13ifvqhgg","pricing_plan_id":"cebpf4jnsgd1na2vs0mg"},{"bike_id":"dd7aaa2f-e068-4168-a544-1acac21d69d2","system_id":"levelo_inurba_marseille","lat":43.25118,"lon":5.40316,"is_reserved":false,"is_disabled":false,"rental_uris":{"android":"levelo://app?vid=dd7aaa2f-e068-4168-a544-1acac21d69d2","ios":"levelo://app?vid=dd7aaa2f-e068-4168-a544-1acac21d69d2"},"vehicle_type_id":"4","last_reported":1732990303,"current_range_meters":38800,"station_id":"ce4bhlh2rcd13ifvqgig","pricing_plan_id":"cebpf4jnsgd1na2vs0mg"},{"bike_id":"97b35c0e-7e77-4f0a-83fa-58fbc99a2959","system_id":"levelo_inurba_marseille","lat":43.337444,"lon":5.374475,"is_reserved":false,"is_disabled":false,"rental_uris":{"android":"levelo://app?vid=97b35c0e-7e77-4f0a-83fa-58fbc99a2959","ios":"levelo://app?vid=97b35c0e-7e77-4f0a-83fa-58fbc99a2959"},"vehicle_type_id":"4","last_reported":1732990303,"current_range_meters":34000,"station_id":"","pricing_plan_id":"cebpf4jnsgd1na2vs0mg"},{"bike_id":"90e6624d-f15b-40a9-aa21-66d0047fb8c0","system_id":"levelo_inurba_marseille","lat":43.3374,"lon":5.37445,"is_reserved":false,"is_disabled":false,"rental_uris":{"android":"levelo://app?vid=90e6624d-f15b-40a9-aa21-66d0047fb8c0","ios":"levelo://app?vid=90e6624d-f15b-40a9-aa21-66d0047fb8c0"},"vehicle_type_id":"4","last_reported":1732990303,"current_range_meters":9200,"station_id":"","pricing_plan_id":"cebpf4jnsgd1na2vs0mg"},{"bike_id":"2b49a6ca-db77-4589-92ad-cadfe7c2e87b","system_id":"levelo_inurba_marseille","lat":43.24997,"lon":5.38935,"is_reserved":false,"is_disabled":false,"rental_uris":{"android":"levelo://app?vid=2b49a6ca-db77-4589-92ad-cadfe7c2e87b","ios":"levelo://app?vid=2b49a6ca-db77-4589-92ad-cadfe7c2e87b"},"vehicle_type_id":"4","last_reported":1732990303,"current_range_meters":30800,"station_id":"ce4bhgp2rcd13ifvqfd0","pricing_plan_id":"cebpf4jnsgd1na2vs0mg"},{"bike_id":"5d7560ca-2d2d-46fd-ba91-63027f6383d6","system_id":"levelo_inurba_marseille","lat":43.31214,"lon":5.36859,"is_reserved":false,"is_disabled":true,"rental_uris":{"android":"levelo://app?vid=5d7560ca-2d2d-46fd-ba91-63027f6383d6","ios":"levelo://app?vid=5d7560ca-2d2d-46fd-ba91-63027f6383d6"},"vehicle_type_id":"4","last_reported":1732990303,"current_range_meters":1600,"station_id":"ce4bgl92rcd13ifvqbq0","pricing_plan_id":"cebpf4jnsgd1na2vs0mg"},{"bike_id":"e84a94b6-ec01-4cd3-81b8-7994bec59b2d","system_id":"levelo_inurba_marseille","lat":43.29003,"lon":5.35618,"is_reserved":false,"is_disabled":false,"rental_uris":{"android":"levelo://app?vid=e84a94b6-ec01-4cd3-81b8-7994bec59b2d","ios":"levelo://app?vid=e84a94b6-ec01-4cd3-81b8-7994bec59b2d"},"vehicle_type_id":"4","last_reported":1732990303,"current_range_meters":2800,"station_id":"ce4bhb92rcd13ifvqen0","pricing_plan_id":"cebpf4jnsgd1na2vs0mg"},{"bike_id":"c460178b-6df6-4478-98a9-6104412c9c24","system_id":"levelo_inurba_marseille","lat":43.2851,"lon":5.40435,"is_reserved":false,"is_disabled":false,"rental_uris":{"android":"levelo://app?vid=c460178b-6df6-4478-98a9-6104412c9c24","ios":"levelo://app?vid=c460178b-6df6-4478-98a9-6104412c9c24"},"vehicle_type_id":"4","last_reported":1732990303,"current_range_meters":6800,"station_id":"","pricing_plan_id":"cebpf4jnsgd1na2vs0mg"},{"bike_id":"89f47e37-4e53-4d34-85b5-8621ebadda5d","system_id":"levelo_inurba_marseille","lat":43.30306,"lon":5.39205,"is_reserved":false,"is_disabled":false,"rental_uris":{"android":"levelo://app?vid=89f47e37-4e53-4d34-85b5-8621ebadda5d","ios":"levelo://app?vid=89f47e37-4e53-4d34-85b5-8621ebadda5d"},"vehicle_type_id":"4","last_reported":1732990303,"current_range_meters":29600,"station_id":"ce4bgkh2rcd13ifvqbk0","pricing_plan_id":"cebpf4jnsgd1na2vs0mg"},{"bike_id":"256ed7b4-aff1-4687-9338-98ca1590cf7b","system_id":"levelo_inurba_marseille","lat":43.33747,"lon":5.37444,"is_reserved":false,"is_disabled":false,"rental_uris":{"android":"levelo://app?vid=256ed7b4-aff1-4687-9338-98ca1590cf7b","ios":"levelo://app?vid=256ed7b4-aff1-4687-9338-98ca1590cf7b"},"vehicle_type_id":"4","last_reported":1732990303,"current_range_meters":22800,"station_id":"","pricing_plan_id":"cebpf4jnsgd1na2vs0mg"},{"bike_id":"3fd5c0ed-6119-4d03-a498-e14290e3cd84","system_id":"levelo_inurba_marseille","lat":43.24803,"lon":5.37453,"is_reserved":false,"is_disabled":false,"rental_uris":{"android":"levelo://app?vid=3fd5c0ed-6119-4d03-a498-e14290e3cd84","ios":"levelo://app?vid=3fd5c0ed-6119-4d03-a498-e14290e3cd84"},"vehicle_type_id":"4","last_reported":1732990303,"current_range_meters":38800,"station_id":"ce4bhgh2rcd13ifvqfb0","pricing_plan_id":"cebpf4jnsgd1na2vs0mg"},{"bike_id":"064861a6-5a15-4e22-bc40-26ea165590ab","system_id":"levelo_inurba_marseille","lat":43.29207,"lon":5.39319,"is_reserved":false,"is_disabled":true,"rental_uris":{"android":"levelo://app?vid=064861a6-5a15-4e22-bc40-26ea165590ab","ios":"levelo://app?vid=064861a6-5a15-4e22-bc40-26ea165590ab"},"vehicle_type_id":"4","last_reported":1732990303,"current_range_meters":27600,"station_id":"ce4bh192rcd13ifvqdd0","pricing_plan_id":"cebpf4jnsgd1na2vs0mg"},{"bike_id":"46452842-0c51-442a-8e4b-06549ec6f0d5","system_id":"levelo_inurba_marseille","lat":43.26557,"lon":5.37279,"is_reserved":false,"is_disabled":false,"rental_uris":{"android":"levelo://app?vid=46452842-0c51-442a-8e4b-06549ec6f0d5","ios":"levelo://app?vid=46452842-0c51-442a-8e4b-06549ec6f0d5"},"vehicle_type_id":"4","last_reported":1732990303,"current_range_meters":30800,"station_id":"ce4bhg12rcd13ifvqf70","pricing_plan_id":"cebpf4jnsgd1na2vs0mg"},{"bike_id":"b8d221d1-00cf-4129-b324-48f704893d04","system_id":"levelo_inurba_marseille","lat":43.28423,"lon":5.37518,"is_reserved":false,"is_disabled":true,"rental_uris":{"android":"levelo://app?vid=b8d221d1-00cf-4129-b324-48f704893d04","ios":"levelo://app?vid=b8d221d1-00cf-4129-b324-48f704893d04"},"vehicle_type_id":"4","last_reported":1732990303,"current_range_meters":0,"station_id":"ce4bh412rcd13ifvqds0","pricing_plan_id":"cebpf4jnsgd1na2vs0mg"},{"bike_id":"e8fa7be1-2407-41a7-b843-e7c70f1917ef","system_id":"levelo_inurba_marseille","lat":43.27611,"lon":5.36109,"is_reserved":false,"is_disabled":true,"rental_uris":{"android":"levelo://app?vid=e8fa7be1-2407-41a7-b843-e7c70f1917ef","ios":"levelo://app?vid=e8fa7be1-2407-41a7-b843-e7c70f1917ef"},"vehicle_type_id":"4","last_reported":1732990303,"current_range_meters":0,"station_id":"ce4bgj92rcd13ifvqbe0","pricing_plan_id":"cebpf4jnsgd1na2vs0mg"},{"bike_id":"3637e225-4940-4b29-bb1d-ad28ed0b9da6","system_id":"levelo_inurba_marseille","lat":43.31288,"lon":5.40165,"is_reserved":false,"is_disabled":false,"rental_uris":{"android":"levelo://app?vid=3637e225-4940-4b29-bb1d-ad28ed0b9da6","ios":"levelo://app?vid=3637e225-4940-4b29-bb1d-ad28ed0b9da6"},"vehicle_type_id":"4","last_reported":1732990303,"current_range_meters":27600,"station_id":"ce4bh092rcd13ifvqd30","pricing_plan_id":"cebpf4jnsgd1na2vs0mg"},{"bike_id":"a4404dac-00c5-4861-a1ae-6d042a4030f1","system_id":"levelo_inurba_marseille","lat":43.3374,"lon":5.37461,"is_reserved":false,"is_disabled":false,"rental_uris":{"android":"levelo://app?vid=a4404dac-00c5-4861-a1ae-6d042a4030f1","ios":"levelo://app?vid=a4404dac-00c5-4861-a1ae-6d042a4030f1"},"vehicle_type_id":"4","last_reported":1732990303,"current_range_meters":8000,"station_id":"","pricing_plan_id":"cebpf4jnsgd1na2vs0mg"},{"bike_id":"ae110baa-6fa5-463d-9c19-2aa3237d6213","system_id":"levelo_inurba_marseille","lat":43.23194,"lon":5.35549,"is_reserved":false,"is_disabled":false,"rental_uris":{"android":"levelo://app?vid=ae110baa-6fa5-463d-9c19-2aa3237d6213","ios":"levelo://app?vid=ae110baa-6fa5-463d-9c19-2aa3237d6213"},"vehicle_type_id":"4","last_reported":1732990303,"current_range_meters":24800,"station_id":"ce4bhu92rcd13ifvqi70","pricing_plan_id":"cebpf4jnsgd1na2vs0mg"},{"bike_id":"f9e7380c-71fb-466f-a6e1-db412b086ce5","system_id":"levelo_inurba_marseille","lat":43.30292,"lon":5.39213,"is_reserved":false,"is_disabled":false,"rental_uris":{"android":"levelo://app?vid=f9e7380c-71fb-466f-a6e1-db412b086ce5","ios":"levelo://app?vid=f9e7380c-71fb-466f-a6e1-db412b086ce5"},"vehicle_type_id":"4","last_reported":1732990303,"current_range_meters":27600,"station_id":"ce4bgkh2rcd13ifvqbk0","pricing_plan_id":"cebpf4jnsgd1na2vs0mg"},{"bike_id":"c909dcd1-0360-4367-84a3-618ea86dd22f","system_id":"levelo_inurba_marseille","lat":43.30633,"lon":5.4123,"is_reserved":false,"is_disabled":false,"rental_uris":{"android":"levelo://app?vid=c909dcd1-0360-4367-84a3-618ea86dd22f","ios":"levelo://app?vid=c909dcd1-0360-4367-84a3-618ea86dd22f"},"vehicle_type_id":"4","last_reported":1732990303,"current_range_meters":27600,"station_id":"ce4bhp12rcd13ifvqh9g","pricing_plan_id":"cebpf4jnsgd1na2vs0mg"},{"bike_id":"9700beae-0fbf-4e58-beda-d02b6fed27fe","system_id":"levelo_inurba_marseille","lat":43.337444,"lon":5.374475,"is_reserved":false,"is_disabled":false,"rental_uris":{"android":"levelo://app?vid=9700beae-0fbf-4e58-beda-d02b6fed27fe","ios":"levelo://app?vid=9700beae-0fbf-4e58-beda-d02b6fed27fe"},"vehicle_type_id":"4","last_reported":1732990303,"current_range_meters":37600,"station_id":"","pricing_plan_id":"cebpf4jnsgd1na2vs0mg"},{"bike_id":"3273ef61-6a79-49ac-be8c-1b00948b01ac","system_id":"levelo_inurba_marseille","lat":43.28443,"lon":5.39196,"is_reserved":false,"is_disabled":false,"rental_uris":{"android":"levelo://app?vid=3273ef61-6a79-49ac-be8c-1b00948b01ac","ios":"levelo://app?vid=3273ef61-6a79-49ac-be8c-1b00948b01ac"},"vehicle_type_id":"4","last_reported":1732990303,"current_range_meters":11200,"station_id":"ce4bhoh2rcd13ifvqh5g","pricing_plan_id":"cebpf4jnsgd1na2vs0mg"},{"bike_id":"2c8171a1-8a54-4d9b-bad9-a852b29223b5","system_id":"levelo_inurba_marseille","lat":43.29528,"lon":5.37457,"is_reserved":false,"is_disabled":false,"rental_uris":{"android":"levelo://app?vid=2c8171a1-8a54-4d9b-bad9-a852b29223b5","ios":"levelo://app?vid=2c8171a1-8a54-4d9b-bad9-a852b29223b5"},"vehicle_type_id":"4","last_reported":1732990303,"current_range_meters":8800,"station_id":"ce4bgkp2rcd13ifvqbmg","pricing_plan_id":"cebpf4jnsgd1na2vs0mg"},{"bike_id":"3a877d6b-2eb1-46e6-86a2-bdd9923122ef","system_id":"levelo_inurba_marseille","lat":43.30327,"lon":5.40428,"is_reserved":false,"is_disabled":false,"rental_uris":{"android":"levelo://app?vid=3a877d6b-2eb1-46e6-86a2-bdd9923122ef","ios":"levelo://app?vid=3a877d6b-2eb1-46e6-86a2-bdd9923122ef"},"vehicle_type_id":"4","last_reported":1732990303,"current_range_meters":33600,"station_id":"ce4bh012rcd13ifvqd10","pricing_plan_id":"cebpf4jnsgd1na2vs0mg"},{"bike_id":"ea7ed1f0-5e13-4a69-8946-de815b4f277b","system_id":"levelo_inurba_marseille","lat":43.25498,"lon":5.37653,"is_reserved":false,"is_disabled":true,"rental_uris":{"android":"levelo://app?vid=ea7ed1f0-5e13-4a69-8946-de815b4f277b","ios":"levelo://app?vid=ea7ed1f0-5e13-4a69-8946-de815b4f277b"},"vehicle_type_id":"4","last_reported":1732990303,"current_range_meters":1600,"station_id":"ce4bhh12rcd13ifvqff0","pricing_plan_id":"cebpf4jnsgd1na2vs0mg"},{"bike_id":"1c0c48bd-ab52-4368-b7db-670733b060ec","system_id":"levelo_inurba_marseille","lat":43.29532,"lon":5.39965,"is_reserved":false,"is_disabled":false,"rental_uris":{"android":"levelo://app?vid=1c0c48bd-ab52-4368-b7db-670733b060ec","ios":"levelo://app?vid=1c0c48bd-ab52-4368-b7db-670733b060ec"},"vehicle_type_id":"4","last_reported":1732990303,"current_range_meters":25600,"station_id":"ce4bh312rcd13ifvqdj0","pricing_plan_id":"cebpf4jnsgd1na2vs0mg"},{"bike_id":"0e96713c-43c9-4b8b-9c5b-bf6a4f8723d0","system_id":"levelo_inurba_marseille","lat":43.28932,"lon":5.39627,"is_reserved":false,"is_disabled":false,"rental_uris":{"android":"levelo://app?vid=0e96713c-43c9-4b8b-9c5b-bf6a4f8723d0","ios":"levelo://app?vid=0e96713c-43c9-4b8b-9c5b-bf6a4f8723d0"},"vehicle_type_id":"4","last_reported":1732990303,"current_range_meters":31200,"station_id":"ce4bh3h2rcd13ifvqdn0","pricing_plan_id":"cebpf4jnsgd1na2vs0mg"},{"bike_id":"4a2be555-d056-454c-bed3-fe781ba86f8e","system_id":"levelo_inurba_marseille","lat":43.25886,"lon":5.39954,"is_reserved":false,"is_disabled":true,"rental_uris":{"android":"levelo://app?vid=4a2be555-d056-454c-bed3-fe781ba86f8e","ios":"levelo://app?vid=4a2be555-d056-454c-bed3-fe781ba86f8e"},"vehicle_type_id":"4","last_reported":1732990303,"current_range_meters":0,"station_id":"","pricing_plan_id":"cebpf4jnsgd1na2vs0mg"},{"bike_id":"0762035b-11a6-43b1-906c-953817361917","system_id":"levelo_inurba_marseille","lat":43.32484,"lon":5.36561,"is_reserved":false,"is_disabled":false,"rental_uris":{"android":"levelo://app?vid=0762035b-11a6-43b1-906c-953817361917","ios":"levelo://app?vid=0762035b-11a6-43b1-906c-953817361917"},"vehicle_type_id":"4","last_reported":1732990303,"current_range_meters":40000,"station_id":"ce4bhs12rcd13ifvqhvg","pricing_plan_id":"cebpf4jnsgd1na2vs0mg"},{"bike_id":"44fcc223-df6c-4aa5-8394-5ceb72788c73","system_id":"levelo_inurba_marseille","lat":43.28705,"lon":5.39991,"is_reserved":false,"is_disabled":false,"rental_uris":{"android":"levelo://app?vid=44fcc223-df6c-4aa5-8394-5ceb72788c73","ios":"levelo://app?vid=44fcc223-df6c-4aa5-8394-5ceb72788c73"},"vehicle_type_id":"4","last_reported":1732990303,"current_range_meters":30800,"station_id":"ce4bho92rcd13ifvqh3g","pricing_plan_id":"cebpf4jnsgd1na2vs0mg"},{"bike_id":"41329919-d8a6-4529-9c36-e6723e50ee60","system_id":"levelo_inurba_marseille","lat":43.30301,"lon":5.39198,"is_reserved":false,"is_disabled":true,"rental_uris":{"android":"levelo://app?vid=41329919-d8a6-4529-9c36-e6723e50ee60","ios":"levelo://app?vid=41329919-d8a6-4529-9c36-e6723e50ee60"},"vehicle_type_id":"4","last_reported":1732990303,"current_range_meters":34800,"station_id":"ce4bgkh2rcd13ifvqbk0","pricing_plan_id":"cebpf4jnsgd1na2vs0mg"},{"bike_id":"f9e38304-47c0-472e-ba01-8ebbcd8adaf6","system_id":"levelo_inurba_marseille","lat":43.2717,"lon":5.4099,"is_reserved":false,"is_disabled":false,"rental_uris":{"android":"levelo://app?vid=f9e38304-47c0-472e-ba01-8ebbcd8adaf6","ios":"levelo://app?vid=f9e38304-47c0-472e-ba01-8ebbcd8adaf6"},"vehicle_type_id":"4","last_reported":1732990303,"current_range_meters":11200,"station_id":"ce4bhl12rcd13ifvqgf0","pricing_plan_id":"cebpf4jnsgd1na2vs0mg"},{"bike_id":"80ee5806-271f-4b24-a602-2dc27d804313","system_id":"levelo_inurba_marseille","lat":43.3211,"lon":5.36771,"is_reserved":false,"is_disabled":false,"rental_uris":{"android":"levelo://app?vid=80ee5806-271f-4b24-a602-2dc27d804313","ios":"levelo://app?vid=80ee5806-271f-4b24-a602-2dc27d804313"},"vehicle_type_id":"4","last_reported":1732990303,"current_range_meters":8800,"station_id":"ce4bhrh2rcd13ifvqhug","pricing_plan_id":"cebpf4jnsgd1na2vs0mg"},{"bike_id":"877fdb95-448a-4597-a2d1-bc201af6876c","system_id":"levelo_inurba_marseille","lat":43.31275,"lon":5.4017,"is_reserved":false,"is_disabled":false,"rental_uris":{"android":"levelo://app?vid=877fdb95-448a-4597-a2d1-bc201af6876c","ios":"levelo://app?vid=877fdb95-448a-4597-a2d1-bc201af6876c"},"vehicle_type_id":"4","last_reported":1732990303,"current_range_meters":22000,"station_id":"ce4bh092rcd13ifvqd30","pricing_plan_id":"cebpf4jnsgd1na2vs0mg"},{"bike_id":"000b518d-442b-4752-8b9a-e2fc3654d286","system_id":"levelo_inurba_marseille","lat":43.29445,"lon":5.39765,"is_reserved":false,"is_disabled":true,"rental_uris":{"android":"levelo://app?vid=000b518d-442b-4752-8b9a-e2fc3654d286","ios":"levelo://app?vid=000b518d-442b-4752-8b9a-e2fc3654d286"},"vehicle_type_id":"4","last_reported":1732990303,"current_range_meters":22000,"station_id":"ce4bh3h2rcd13ifvqdo0","pricing_plan_id":"cebpf4jnsgd1na2vs0mg"},{"bike_id":"60fce107-d1e8-4c35-b800-132747357ae8","system_id":"levelo_inurba_marseille","lat":43.2953,"lon":5.38545,"is_reserved":false,"is_disabled":false,"rental_uris":{"android":"levelo://app?vid=60fce107-d1e8-4c35-b800-132747357ae8","ios":"levelo://app?vid=60fce107-d1e8-4c35-b800-132747357ae8"},"vehicle_type_id":"4","last_reported":1732990303,"current_range_meters":20800,"station_id":"ce4bgih2rcd13ifvqba0","pricing_plan_id":"cebpf4jnsgd1na2vs0mg"},{"bike_id":"c927b52d-64c3-47a8-bce1-17dbb1e4d63c","system_id":"levelo_inurba_marseille","lat":43.23183,"lon":5.39986,"is_reserved":false,"is_disabled":false,"rental_uris":{"android":"levelo://app?vid=c927b52d-64c3-47a8-bce1-17dbb1e4d63c","ios":"levelo://app?vid=c927b52d-64c3-47a8-bce1-17dbb1e4d63c"},"vehicle_type_id":"4","last_reported":1732990303,"current_range_meters":9600,"station_id":"ce4bhn12rcd13ifvqgqg","pricing_plan_id":"cebpf4jnsgd1na2vs0mg"},{"bike_id":"b2da2633-98d6-42c6-aa7f-68fbf806b027","system_id":"levelo_inurba_marseille","lat":43.31272,"lon":5.40171,"is_reserved":false,"is_disabled":false,"rental_uris":{"android":"levelo://app?vid=b2da2633-98d6-42c6-aa7f-68fbf806b027","ios":"levelo://app?vid=b2da2633-98d6-42c6-aa7f-68fbf806b027"},"vehicle_type_id":"4","last_reported":1732990303,"current_range_meters":39200,"station_id":"ce4bh092rcd13ifvqd30","pricing_plan_id":"cebpf4jnsgd1na2vs0mg"},{"bike_id":"489fc078-53ba-46cd-9b33-a7c9c289306b","system_id":"levelo_inurba_marseille","lat":43.2695,"lon":5.4024,"is_reserved":false,"is_disabled":true,"rental_uris":{"android":"levelo://app?vid=489fc078-53ba-46cd-9b33-a7c9c289306b","ios":"levelo://app?vid=489fc078-53ba-46cd-9b33-a7c9c289306b"},"vehicle_type_id":"4","last_reported":1732990303,"current_range_meters":0,"station_id":"cjm6bp8fraef2m0cb0m0","pricing_plan_id":"cebpf4jnsgd1na2vs0mg"},{"bike_id":"981f5323-76ee-4aff-abdb-308b2ece5ca8","system_id":"levelo_inurba_marseille","lat":43.33729,"lon":5.39182,"is_reserved":false,"is_disabled":false,"rental_uris":{"android":"levelo://app?vid=981f5323-76ee-4aff-abdb-308b2ece5ca8","ios":"levelo://app?vid=981f5323-76ee-4aff-abdb-308b2ece5ca8"},"vehicle_type_id":"4","last_reported":1732990303,"current_range_meters":38800,"station_id":"ce4bhr92rcd13ifvqhsg","pricing_plan_id":"cebpf4jnsgd1na2vs0mg"},{"bike_id":"4691b678-f604-46b2-bff5-4e3b3a69a693","system_id":"levelo_inurba_marseille","lat":43.29257,"lon":5.38439,"is_reserved":false,"is_disabled":false,"rental_uris":{"android":"levelo://app?vid=4691b678-f604-46b2-bff5-4e3b3a69a693","ios":"levelo://app?vid=4691b678-f604-46b2-bff5-4e3b3a69a693"},"vehicle_type_id":"4","last_reported":1732990303,"current_range_meters":38800,"station_id":"ce4bh692rcd13ifvqea0","pricing_plan_id":"cebpf4jnsgd1na2vs0mg"},{"bike_id":"d8d14ee3-c20a-417c-90ab-ebe5055a62dc","system_id":"levelo_inurba_marseille","lat":43.28467,"lon":5.38401,"is_reserved":false,"is_disabled":false,"rental_uris":{"android":"levelo://app?vid=d8d14ee3-c20a-417c-90ab-ebe5055a62dc","ios":"levelo://app?vid=d8d14ee3-c20a-417c-90ab-ebe5055a62dc"},"vehicle_type_id":"4","last_reported":1732990303,"current_range_meters":4400,"station_id":"ce4bh512rcd13ifvqe3g","pricing_plan_id":"cebpf4jnsgd1na2vs0mg"},{"bike_id":"b535dfd0-ec01-4a13-996f-71245b6113cc","system_id":"levelo_inurba_marseille","lat":43.27982,"lon":5.4123,"is_reserved":false,"is_disabled":true,"rental_uris":{"android":"levelo://app?vid=b535dfd0-ec01-4a13-996f-71245b6113cc","ios":"levelo://app?vid=b535dfd0-ec01-4a13-996f-71245b6113cc"},"vehicle_type_id":"4","last_reported":1732990303,"current_range_meters":800,"station_id":"","pricing_plan_id":"cebpf4jnsgd1na2vs0mg"},{"bike_id":"c5c278c9-13a7-490d-aa79-594e97e9c00b","system_id":"levelo_inurba_marseille","lat":43.29171,"lon":5.37157,"is_reserved":false,"is_disabled":false,"rental_uris":{"android":"levelo://app?vid=c5c278c9-13a7-490d-aa79-594e97e9c00b","ios":"levelo://app?vid=c5c278c9-13a7-490d-aa79-594e97e9c00b"},"vehicle_type_id":"4","last_reported":1732990303,"current_range_meters":17600,"station_id":"ce4bha92rcd13ifvqeh0","pricing_plan_id":"cebpf4jnsgd1na2vs0mg"},{"bike_id":"16b18a07-d67c-4173-81f7-b1eed8556e60","system_id":"levelo_inurba_marseille","lat":43.27813,"lon":5.40715,"is_reserved":false,"is_disabled":false,"rental_uris":{"android":"levelo://app?vid=16b18a07-d67c-4173-81f7-b1eed8556e60","ios":"levelo://app?vid=16b18a07-d67c-4173-81f7-b1eed8556e60"},"vehicle_type_id":"4","last_reported":1732990303,"current_range_meters":33200,"station_id":"ce4bhnh2rcd13ifvqgtg","pricing_plan_id":"cebpf4jnsgd1na2vs0mg"},{"bike_id":"5428c1d6-82de-4457-96cc-6924d2aa0584","system_id":"levelo_inurba_marseille","lat":43.287,"lon":5.37382,"is_reserved":false,"is_disabled":false,"rental_uris":{"android":"levelo://app?vid=5428c1d6-82de-4457-96cc-6924d2aa0584","ios":"levelo://app?vid=5428c1d6-82de-4457-96cc-6924d2aa0584"},"vehicle_type_id":"4","last_reported":1732990303,"current_range_meters":11600,"station_id":"ce4bh3p2rcd13ifvqdq0","pricing_plan_id":"cebpf4jnsgd1na2vs0mg"},{"bike_id":"b642d79a-bd2c-495a-acdd-099583f67bf5","system_id":"levelo_inurba_marseille","lat":43.3229,"lon":5.38257,"is_reserved":false,"is_disabled":false,"rental_uris":{"android":"levelo://app?vid=b642d79a-bd2c-495a-acdd-099583f67bf5","ios":"levelo://app?vid=b642d79a-bd2c-495a-acdd-099583f67bf5"},"vehicle_type_id":"4","last_reported":1732990303,"current_range_meters":30400,"station_id":"ce4bhr12rcd13ifvqhqg","pricing_plan_id":"cebpf4jnsgd1na2vs0mg"},{"bike_id":"62cddbab-381c-4181-95b4-93fa2aa045c0","system_id":"levelo_inurba_marseille","lat":43.28696,"lon":5.3739,"is_reserved":false,"is_disabled":false,"rental_uris":{"android":"levelo://app?vid=62cddbab-381c-4181-95b4-93fa2aa045c0","ios":"levelo://app?vid=62cddbab-381c-4181-95b4-93fa2aa045c0"},"vehicle_type_id":"4","last_reported":1732990303,"current_range_meters":9200,"station_id":"ce4bh3p2rcd13ifvqdq0","pricing_plan_id":"cebpf4jnsgd1na2vs0mg"},{"bike_id":"6639e1dd-23bb-4150-9399-d9445be02990","system_id":"levelo_inurba_marseille","lat":43.28708,"lon":5.37387,"is_reserved":false,"is_disabled":false,"rental_uris":{"android":"levelo://app?vid=6639e1dd-23bb-4150-9399-d9445be02990","ios":"levelo://app?vid=6639e1dd-23bb-4150-9399-d9445be02990"},"vehicle_type_id":"4","last_reported":1732990303,"current_range_meters":34000,"station_id":"ce4bh3p2rcd13ifvqdq0","pricing_plan_id":"cebpf4jnsgd1na2vs0mg"},{"bike_id":"9f782354-acda-4e43-88b6-07a0442c41bb","system_id":"levelo_inurba_marseille","lat":43.27054,"lon":5.40262,"is_reserved":false,"is_disabled":false,"rental_uris":{"android":"levelo://app?vid=9f782354-acda-4e43-88b6-07a0442c41bb","ios":"levelo://app?vid=9f782354-acda-4e43-88b6-07a0442c41bb"},"vehicle_type_id":"4","last_reported":1732990303,"current_range_meters":16400,"station_id":"ce4bhk92rcd13ifvqgc0","pricing_plan_id":"cebpf4jnsgd1na2vs0mg"},{"bike_id":"0174841e-8011-4a7b-bd18-480101bee765","system_id":"levelo_inurba_marseille","lat":43.2396,"lon":5.36634,"is_reserved":false,"is_disabled":true,"rental_uris":{"android":"levelo://app?vid=0174841e-8011-4a7b-bd18-480101bee765","ios":"levelo://app?vid=0174841e-8011-4a7b-bd18-480101bee765"},"vehicle_type_id":"4","last_reported":1732990303,"current_range_meters":0,"station_id":"ce4bhi12rcd13ifvqfp0","pricing_plan_id":"cebpf4jnsgd1na2vs0mg"},{"bike_id":"1f1230a1-2278-4e87-a5e2-701d6194a36d","system_id":"levelo_inurba_marseille","lat":43.27168,"lon":5.40992,"is_reserved":false,"is_disabled":false,"rental_uris":{"android":"levelo://app?vid=1f1230a1-2278-4e87-a5e2-701d6194a36d","ios":"levelo://app?vid=1f1230a1-2278-4e87-a5e2-701d6194a36d"},"vehicle_type_id":"4","last_reported":1732990303,"current_range_meters":36000,"station_id":"ce4bhl12rcd13ifvqgf0","pricing_plan_id":"cebpf4jnsgd1na2vs0mg"},{"bike_id":"6137ec34-d95e-4b4e-8f16-a182a79a7a0b","system_id":"levelo_inurba_marseille","lat":43.31355,"lon":5.38501,"is_reserved":false,"is_disabled":false,"rental_uris":{"android":"levelo://app?vid=6137ec34-d95e-4b4e-8f16-a182a79a7a0b","ios":"levelo://app?vid=6137ec34-d95e-4b4e-8f16-a182a79a7a0b"},"vehicle_type_id":"4","last_reported":1732990303,"current_range_meters":38400,"station_id":"ce4bgt92rcd13ifvqcf0","pricing_plan_id":"cebpf4jnsgd1na2vs0mg"},{"bike_id":"a233b25b-869e-422b-bf5e-63d3d8ff686f","system_id":"levelo_inurba_marseille","lat":43.30929,"lon":5.40137,"is_reserved":false,"is_disabled":true,"rental_uris":{"android":"levelo://app?vid=a233b25b-869e-422b-bf5e-63d3d8ff686f","ios":"levelo://app?vid=a233b25b-869e-422b-bf5e-63d3d8ff686f"},"vehicle_type_id":"4","last_reported":1732990303,"current_range_meters":24000,"station_id":"ce4bgvp2rcd13ifvqct0","pricing_plan_id":"cebpf4jnsgd1na2vs0mg"},{"bike_id":"14603f7c-e634-431b-90ff-f1d3547e5a2e","system_id":"levelo_inurba_marseille","lat":43.29266,"lon":5.38451,"is_reserved":false,"is_disabled":false,"rental_uris":{"android":"levelo://app?vid=14603f7c-e634-431b-90ff-f1d3547e5a2e","ios":"levelo://app?vid=14603f7c-e634-431b-90ff-f1d3547e5a2e"},"vehicle_type_id":"4","last_reported":1732990303,"current_range_meters":38800,"station_id":"ce4bh692rcd13ifvqea0","pricing_plan_id":"cebpf4jnsgd1na2vs0mg"},{"bike_id":"12ba7dd0-6a56-48af-8971-129f9405fb29","system_id":"levelo_inurba_marseille","lat":43.32487,"lon":5.3656,"is_reserved":false,"is_disabled":false,"rental_uris":{"android":"levelo://app?vid=12ba7dd0-6a56-48af-8971-129f9405fb29","ios":"levelo://app?vid=12ba7dd0-6a56-48af-8971-129f9405fb29"},"vehicle_type_id":"4","last_reported":1732990303,"current_range_meters":12800,"station_id":"ce4bhs12rcd13ifvqhvg","pricing_plan_id":"cebpf4jnsgd1na2vs0mg"},{"bike_id":"3c77f46c-7f4d-4089-bcf9-0405b8b749e4","system_id":"levelo_inurba_marseille","lat":43.32,"lon":5.38142,"is_reserved":false,"is_disabled":false,"rental_uris":{"android":"levelo://app?vid=3c77f46c-7f4d-4089-bcf9-0405b8b749e4","ios":"levelo://app?vid=3c77f46c-7f4d-4089-bcf9-0405b8b749e4"},"vehicle_type_id":"4","last_reported":1732990303,"current_range_meters":38000,"station_id":"ce4bhr12rcd13ifvqhpg","pricing_plan_id":"cebpf4jnsgd1na2vs0mg"},{"bike_id":"7db095fe-335f-455d-9456-2582bbc72d93","system_id":"levelo_inurba_marseille","lat":43.29898,"lon":5.43662,"is_reserved":false,"is_disabled":false,"rental_uris":{"android":"levelo://app?vid=7db095fe-335f-455d-9456-2582bbc72d93","ios":"levelo://app?vid=7db095fe-335f-455d-9456-2582bbc72d93"},"vehicle_type_id":"4","last_reported":1732990303,"current_range_meters":22400,"station_id":"ce4bhpp2rcd13ifvqhfg","pricing_plan_id":"cebpf4jnsgd1na2vs0mg"},{"bike_id":"68a4cd12-9d40-462d-b0cc-12c70d3c7555","system_id":"levelo_inurba_marseille","lat":43.25005,"lon":5.38928,"is_reserved":false,"is_disabled":false,"rental_uris":{"android":"levelo://app?vid=68a4cd12-9d40-462d-b0cc-12c70d3c7555","ios":"levelo://app?vid=68a4cd12-9d40-462d-b0cc-12c70d3c7555"},"vehicle_type_id":"4","last_reported":1732990303,"current_range_meters":3200,"station_id":"ce4bhgp2rcd13ifvqfd0","pricing_plan_id":"cebpf4jnsgd1na2vs0mg"},{"bike_id":"03107b64-fefa-4c55-85a0-a09f13c6d2c4","system_id":"levelo_inurba_marseille","lat":43.30594,"lon":5.39353,"is_reserved":false,"is_disabled":false,"rental_uris":{"android":"levelo://app?vid=03107b64-fefa-4c55-85a0-a09f13c6d2c4","ios":"levelo://app?vid=03107b64-fefa-4c55-85a0-a09f13c6d2c4"},"vehicle_type_id":"4","last_reported":1732990303,"current_range_meters":15200,"station_id":"ce4bh0p2rcd13ifvqd80","pricing_plan_id":"cebpf4jnsgd1na2vs0mg"},{"bike_id":"27d13c7a-6338-48dc-81dd-618b3e4ff60b","system_id":"levelo_inurba_marseille","lat":43.28367,"lon":5.38647,"is_reserved":false,"is_disabled":true,"rental_uris":{"android":"levelo://app?vid=27d13c7a-6338-48dc-81dd-618b3e4ff60b","ios":"levelo://app?vid=27d13c7a-6338-48dc-81dd-618b3e4ff60b"},"vehicle_type_id":"4","last_reported":1732990303,"current_range_meters":38400,"station_id":"ce4bh492rcd13ifvqdvg","pricing_plan_id":"cebpf4jnsgd1na2vs0mg"},{"bike_id":"af738cad-2fae-43f2-b058-8390c379ec67","system_id":"levelo_inurba_marseille","lat":43.25498,"lon":5.37649,"is_reserved":false,"is_disabled":false,"rental_uris":{"android":"levelo://app?vid=af738cad-2fae-43f2-b058-8390c379ec67","ios":"levelo://app?vid=af738cad-2fae-43f2-b058-8390c379ec67"},"vehicle_type_id":"4","last_reported":1732990303,"current_range_meters":16800,"station_id":"ce4bhh12rcd13ifvqff0","pricing_plan_id":"cebpf4jnsgd1na2vs0mg"},{"bike_id":"13151158-c4ba-49c7-a920-9a61c5dd56f2","system_id":"levelo_inurba_marseille","lat":43.23955,"lon":5.36644,"is_reserved":false,"is_disabled":true,"rental_uris":{"android":"levelo://app?vid=13151158-c4ba-49c7-a920-9a61c5dd56f2","ios":"levelo://app?vid=13151158-c4ba-49c7-a920-9a61c5dd56f2"},"vehicle_type_id":"4","last_reported":1732990303,"current_range_meters":0,"station_id":"ce4bhi12rcd13ifvqfp0","pricing_plan_id":"cebpf4jnsgd1na2vs0mg"},{"bike_id":"5df6808d-6cda-4f0c-b0f7-815a04899887","system_id":"levelo_inurba_marseille","lat":43.27973,"lon":5.38744,"is_reserved":false,"is_disabled":false,"rental_uris":{"android":"levelo://app?vid=5df6808d-6cda-4f0c-b0f7-815a04899887","ios":"levelo://app?vid=5df6808d-6cda-4f0c-b0f7-815a04899887"},"vehicle_type_id":"4","last_reported":1732990303,"current_range_meters":15200,"station_id":"ce4bhg12rcd13ifvqf80","pricing_plan_id":"cebpf4jnsgd1na2vs0mg"},{"bike_id":"acf4a756-d86a-4aba-99d9-8148b7db3378","system_id":"levelo_inurba_marseille","lat":43.27995,"lon":5.4001,"is_reserved":false,"is_disabled":true,"rental_uris":{"android":"levelo://app?vid=acf4a756-d86a-4aba-99d9-8148b7db3378","ios":"levelo://app?vid=acf4a756-d86a-4aba-99d9-8148b7db3378"},"vehicle_type_id":"4","last_reported":1732990303,"current_range_meters":0,"station_id":"ce4bho92rcd13ifvqh4g","pricing_plan_id":"cebpf4jnsgd1na2vs0mg"},{"bike_id":"0da3d294-52c6-458d-95e4-37a78c6e5a5d","system_id":"levelo_inurba_marseille","lat":43.27674,"lon":5.38881,"is_reserved":false,"is_disabled":false,"rental_uris":{"android":"levelo://app?vid=0da3d294-52c6-458d-95e4-37a78c6e5a5d","ios":"levelo://app?vid=0da3d294-52c6-458d-95e4-37a78c6e5a5d"},"vehicle_type_id":"4","last_reported":1732990303,"current_range_meters":35600,"station_id":"ce4bhi12rcd13ifvqfo0","pricing_plan_id":"cebpf4jnsgd1na2vs0mg"},{"bike_id":"1d9cdb22-0ce6-4146-a4fa-006c559a96b7","system_id":"levelo_inurba_marseille","lat":43.29959,"lon":5.41317,"is_reserved":false,"is_disabled":false,"rental_uris":{"android":"levelo://app?vid=1d9cdb22-0ce6-4146-a4fa-006c559a96b7","ios":"levelo://app?vid=1d9cdb22-0ce6-4146-a4fa-006c559a96b7"},"vehicle_type_id":"4","last_reported":1732990303,"current_range_meters":39200,"station_id":"ce4bhp12rcd13ifvqh9g","pricing_plan_id":"cebpf4jnsgd1na2vs0mg"},{"bike_id":"cf9f3a3f-ec66-4a92-abcd-f016e9c0310b","system_id":"levelo_inurba_marseille","lat":43.33022,"lon":5.39039,"is_reserved":false,"is_disabled":false,"rental_uris":{"android":"levelo://app?vid=cf9f3a3f-ec66-4a92-abcd-f016e9c0310b","ios":"levelo://app?vid=cf9f3a3f-ec66-4a92-abcd-f016e9c0310b"},"vehicle_type_id":"4","last_reported":1732990303,"current_range_meters":40000,"station_id":"ce4bhr92rcd13ifvqhrg","pricing_plan_id":"cebpf4jnsgd1na2vs0mg"},{"bike_id":"6f5ced74-757b-4f45-bace-e4a82fbc87da","system_id":"levelo_inurba_marseille","lat":43.3064,"lon":5.4007,"is_reserved":false,"is_disabled":true,"rental_uris":{"android":"levelo://app?vid=6f5ced74-757b-4f45-bace-e4a82fbc87da","ios":"levelo://app?vid=6f5ced74-757b-4f45-bace-e4a82fbc87da"},"vehicle_type_id":"4","last_reported":1732990303,"current_range_meters":39200,"station_id":"ce4bh112rcd13ifvqda0","pricing_plan_id":"cebpf4jnsgd1na2vs0mg"},{"bike_id":"f4d19859-dbfb-4982-b796-c8007145699f","system_id":"levelo_inurba_marseille","lat":43.28616,"lon":5.35098,"is_reserved":false,"is_disabled":true,"rental_uris":{"android":"levelo://app?vid=f4d19859-dbfb-4982-b796-c8007145699f","ios":"levelo://app?vid=f4d19859-dbfb-4982-b796-c8007145699f"},"vehicle_type_id":"4","last_reported":1732990303,"current_range_meters":22000,"station_id":"ce4bhch2rcd13ifvqeug","pricing_plan_id":"cebpf4jnsgd1na2vs0mg"},{"bike_id":"5fe4fe52-2a66-4fc3-9511-b94b5706c217","system_id":"levelo_inurba_marseille","lat":43.2997,"lon":5.38489,"is_reserved":false,"is_disabled":false,"rental_uris":{"android":"levelo://app?vid=5fe4fe52-2a66-4fc3-9511-b94b5706c217","ios":"levelo://app?vid=5fe4fe52-2a66-4fc3-9511-b94b5706c217"},"vehicle_type_id":"4","last_reported":1732990303,"current_range_meters":32800,"station_id":"ce4bgj92rcd13ifvqbd0","pricing_plan_id":"cebpf4jnsgd1na2vs0mg"},{"bike_id":"bfb856cf-7615-4aa7-a7e4-859a62ce8248","system_id":"levelo_inurba_marseille","lat":43.33738,"lon":5.3745,"is_reserved":false,"is_disabled":false,"rental_uris":{"android":"levelo://app?vid=bfb856cf-7615-4aa7-a7e4-859a62ce8248","ios":"levelo://app?vid=bfb856cf-7615-4aa7-a7e4-859a62ce8248"},"vehicle_type_id":"4","last_reported":1732990303,"current_range_meters":15200,"station_id":"","pricing_plan_id":"cebpf4jnsgd1na2vs0mg"},{"bike_id":"9f701a2f-5ee6-4b8d-bac2-b6646022822c","system_id":"levelo_inurba_marseille","lat":43.24079,"lon":5.37756,"is_reserved":false,"is_disabled":false,"rental_uris":{"android":"levelo://app?vid=9f701a2f-5ee6-4b8d-bac2-b6646022822c","ios":"levelo://app?vid=9f701a2f-5ee6-4b8d-bac2-b6646022822c"},"vehicle_type_id":"4","last_reported":1732990303,"current_range_meters":38800,"station_id":"ce4bhnp2rcd13ifvqgvg","pricing_plan_id":"cebpf4jnsgd1na2vs0mg"},{"bike_id":"5baa659d-e71f-42bc-8f51-d692490970ed","system_id":"levelo_inurba_marseille","lat":43.3036,"lon":5.4189,"is_reserved":false,"is_disabled":false,"rental_uris":{"android":"levelo://app?vid=5baa659d-e71f-42bc-8f51-d692490970ed","ios":"levelo://app?vid=5baa659d-e71f-42bc-8f51-d692490970ed"},"vehicle_type_id":"4","last_reported":1732990303,"current_range_meters":38800,"station_id":"ce4bhop2rcd13ifvqh7g","pricing_plan_id":"cebpf4jnsgd1na2vs0mg"},{"bike_id":"72387e1c-66c9-4333-8fcd-637470357fef","system_id":"levelo_inurba_marseille","lat":43.33607,"lon":5.41031,"is_reserved":false,"is_disabled":false,"rental_uris":{"android":"levelo://app?vid=72387e1c-66c9-4333-8fcd-637470357fef","ios":"levelo://app?vid=72387e1c-66c9-4333-8fcd-637470357fef"},"vehicle_type_id":"4","last_reported":1732990303,"current_range_meters":39200,"station_id":"ce4bhqh2rcd13ifvqhmg","pricing_plan_id":"cebpf4jnsgd1na2vs0mg"},{"bike_id":"73bc946f-2c71-4665-9dc2-46ce8c8fae1e","system_id":"levelo_inurba_marseille","lat":43.29793,"lon":5.38109,"is_reserved":false,"is_disabled":false,"rental_uris":{"android":"levelo://app?vid=73bc946f-2c71-4665-9dc2-46ce8c8fae1e","ios":"levelo://app?vid=73bc946f-2c71-4665-9dc2-46ce8c8fae1e"},"vehicle_type_id":"4","last_reported":1732990303,"current_range_meters":22800,"station_id":"ce4bgip2rcd13ifvqbb0","pricing_plan_id":"cebpf4jnsgd1na2vs0mg"},{"bike_id":"4abebe2b-dec7-442c-a6a0-da33deb742de","system_id":"levelo_inurba_marseille","lat":43.32109,"lon":5.36767,"is_reserved":false,"is_disabled":false,"rental_uris":{"android":"levelo://app?vid=4abebe2b-dec7-442c-a6a0-da33deb742de","ios":"levelo://app?vid=4abebe2b-dec7-442c-a6a0-da33deb742de"},"vehicle_type_id":"4","last_reported":1732990303,"current_range_meters":36400,"station_id":"ce4bhrh2rcd13ifvqhug","pricing_plan_id":"cebpf4jnsgd1na2vs0mg"},{"bike_id":"ce20c844-7914-4b0b-b70c-e7bdec0d808d","system_id":"levelo_inurba_marseille","lat":43.25937,"lon":5.40887,"is_reserved":false,"is_disabled":false,"rental_uris":{"android":"levelo://app?vid=ce20c844-7914-4b0b-b70c-e7bdec0d808d","ios":"levelo://app?vid=ce20c844-7914-4b0b-b70c-e7bdec0d808d"},"vehicle_type_id":"4","last_reported":1732990303,"current_range_meters":16800,"station_id":"ce4bhm92rcd13ifvqglg","pricing_plan_id":"cebpf4jnsgd1na2vs0mg"},{"bike_id":"810bf328-85de-4596-9b09-e2f01b830587","system_id":"levelo_inurba_marseille","lat":43.30531,"lon":5.36716,"is_reserved":false,"is_disabled":false,"rental_uris":{"android":"levelo://app?vid=810bf328-85de-4596-9b09-e2f01b830587","ios":"levelo://app?vid=810bf328-85de-4596-9b09-e2f01b830587"},"vehicle_type_id":"4","last_reported":1732990303,"current_range_meters":22000,"station_id":"ce4bgrp2rcd13ifvqc9g","pricing_plan_id":"cebpf4jnsgd1na2vs0mg"},{"bike_id":"5a611c5d-797f-4bfd-8428-57f80dec50e7","system_id":"levelo_inurba_marseille","lat":43.26955,"lon":5.38637,"is_reserved":false,"is_disabled":false,"rental_uris":{"android":"levelo://app?vid=5a611c5d-797f-4bfd-8428-57f80dec50e7","ios":"levelo://app?vid=5a611c5d-797f-4bfd-8428-57f80dec50e7"},"vehicle_type_id":"4","last_reported":1732990303,"current_range_meters":10800,"station_id":"ce4bhh92rcd13ifvqfh0","pricing_plan_id":"cebpf4jnsgd1na2vs0mg"},{"bike_id":"3224a736-0583-42a4-bfb8-b979676af4f5","system_id":"levelo_inurba_marseille","lat":43.27975,"lon":5.38738,"is_reserved":false,"is_disabled":false,"rental_uris":{"android":"levelo://app?vid=3224a736-0583-42a4-bfb8-b979676af4f5","ios":"levelo://app?vid=3224a736-0583-42a4-bfb8-b979676af4f5"},"vehicle_type_id":"4","last_reported":1732990303,"current_range_meters":29600,"station_id":"ce4bhg12rcd13ifvqf80","pricing_plan_id":"cebpf4jnsgd1na2vs0mg"},{"bike_id":"1c0eccd2-3f67-4edf-b5d8-85ff4b1e6a8e","system_id":"levelo_inurba_marseille","lat":43.29423,"lon":5.38623,"is_reserved":false,"is_disabled":false,"rental_uris":{"android":"levelo://app?vid=1c0eccd2-3f67-4edf-b5d8-85ff4b1e6a8e","ios":"levelo://app?vid=1c0eccd2-3f67-4edf-b5d8-85ff4b1e6a8e"},"vehicle_type_id":"4","last_reported":1732990303,"current_range_meters":33200,"station_id":"ce4bh2h2rcd13ifvqdh0","pricing_plan_id":"cebpf4jnsgd1na2vs0mg"},{"bike_id":"7dc2caec-37b5-482a-abad-d1d2f62e7e82","system_id":"levelo_inurba_marseille","lat":43.3121,"lon":5.36804,"is_reserved":false,"is_disabled":true,"rental_uris":{"android":"levelo://app?vid=7dc2caec-37b5-482a-abad-d1d2f62e7e82","ios":"levelo://app?vid=7dc2caec-37b5-482a-abad-d1d2f62e7e82"},"vehicle_type_id":"4","last_reported":1732990303,"current_range_meters":0,"station_id":"ce4bgl92rcd13ifvqbq0","pricing_plan_id":"cebpf4jnsgd1na2vs0mg"},{"bike_id":"f7e6ae30-1fb8-4301-9a08-304db570cfea","system_id":"levelo_inurba_marseille","lat":43.28568,"lon":5.39487,"is_reserved":false,"is_disabled":true,"rental_uris":{"android":"levelo://app?vid=f7e6ae30-1fb8-4301-9a08-304db570cfea","ios":"levelo://app?vid=f7e6ae30-1fb8-4301-9a08-304db570cfea"},"vehicle_type_id":"4","last_reported":1732990303,"current_range_meters":0,"station_id":"ce4bh292rcd13ifvqdg0","pricing_plan_id":"cebpf4jnsgd1na2vs0mg"},{"bike_id":"9dd1fc98-a89e-437a-b707-6eb8b3c899e8","system_id":"levelo_inurba_marseille","lat":43.290375,"lon":5.35923,"is_reserved":false,"is_disabled":true,"rental_uris":{"android":"levelo://app?vid=9dd1fc98-a89e-437a-b707-6eb8b3c899e8","ios":"levelo://app?vid=9dd1fc98-a89e-437a-b707-6eb8b3c899e8"},"vehicle_type_id":"4","last_reported":1732990303,"current_range_meters":0,"station_id":"ce4bha92rcd13ifvqeg0","pricing_plan_id":"cebpf4jnsgd1na2vs0mg"},{"bike_id":"aea6b7a8-fa3c-4842-89c6-693b08a99724","system_id":"levelo_inurba_marseille","lat":43.33752,"lon":5.37428,"is_reserved":false,"is_disabled":false,"rental_uris":{"android":"levelo://app?vid=aea6b7a8-fa3c-4842-89c6-693b08a99724","ios":"levelo://app?vid=aea6b7a8-fa3c-4842-89c6-693b08a99724"},"vehicle_type_id":"4","last_reported":1732990303,"current_range_meters":38000,"station_id":"","pricing_plan_id":"cebpf4jnsgd1na2vs0mg"},{"bike_id":"5ef508be-cba3-4904-a5ff-8716b2a622e5","system_id":"levelo_inurba_marseille","lat":43.29917,"lon":5.37484,"is_reserved":false,"is_disabled":false,"rental_uris":{"android":"levelo://app?vid=5ef508be-cba3-4904-a5ff-8716b2a622e5","ios":"levelo://app?vid=5ef508be-cba3-4904-a5ff-8716b2a622e5"},"vehicle_type_id":"4","last_reported":1732990303,"current_range_meters":29600,"station_id":"ce4bgjh2rcd13ifvqbg0","pricing_plan_id":"cebpf4jnsgd1na2vs0mg"},{"bike_id":"55d7c16b-c9c7-4669-86ce-f407361eeb53","system_id":"levelo_inurba_marseille","lat":43.2894,"lon":5.3664,"is_reserved":false,"is_disabled":false,"rental_uris":{"android":"levelo://app?vid=55d7c16b-c9c7-4669-86ce-f407361eeb53","ios":"levelo://app?vid=55d7c16b-c9c7-4669-86ce-f407361eeb53"},"vehicle_type_id":"4","last_reported":1732990303,"current_range_meters":19600,"station_id":"ce4bhap2rcd13ifvqek0","pricing_plan_id":"cebpf4jnsgd1na2vs0mg"},{"bike_id":"c2c044d4-107e-4acb-ba55-854f8545cbe0","system_id":"levelo_inurba_marseille","lat":43.32466,"lon":5.36562,"is_reserved":false,"is_disabled":false,"rental_uris":{"android":"levelo://app?vid=c2c044d4-107e-4acb-ba55-854f8545cbe0","ios":"levelo://app?vid=c2c044d4-107e-4acb-ba55-854f8545cbe0"},"vehicle_type_id":"4","last_reported":1732990303,"current_range_meters":8400,"station_id":"ce4bhs12rcd13ifvqhvg","pricing_plan_id":"cebpf4jnsgd1na2vs0mg"},{"bike_id":"1b4091b4-9da5-4e08-a623-15bd0eb83e75","system_id":"levelo_inurba_marseille","lat":43.29307,"lon":5.37177,"is_reserved":false,"is_disabled":true,"rental_uris":{"android":"levelo://app?vid=1b4091b4-9da5-4e08-a623-15bd0eb83e75","ios":"levelo://app?vid=1b4091b4-9da5-4e08-a623-15bd0eb83e75"},"vehicle_type_id":"4","last_reported":1732990303,"current_range_meters":10000,"station_id":"ce4bgh92rcd13ifvqb40","pricing_plan_id":"cebpf4jnsgd1na2vs0mg"},{"bike_id":"a5909545-3e09-4859-9fda-9ffe4e6e4883","system_id":"levelo_inurba_marseille","lat":43.23066,"lon":5.35492,"is_reserved":false,"is_disabled":false,"rental_uris":{"android":"levelo://app?vid=a5909545-3e09-4859-9fda-9ffe4e6e4883","ios":"levelo://app?vid=a5909545-3e09-4859-9fda-9ffe4e6e4883"},"vehicle_type_id":"4","last_reported":1732990303,"current_range_meters":10000,"station_id":"cpo3342slgdg3j2ifvpg","pricing_plan_id":"cebpf4jnsgd1na2vs0mg"},{"bike_id":"01dd0f6c-5d7c-4e63-a161-668f65657b81","system_id":"levelo_inurba_marseille","lat":43.22938,"lon":5.35383,"is_reserved":false,"is_disabled":false,"rental_uris":{"android":"levelo://app?vid=01dd0f6c-5d7c-4e63-a161-668f65657b81","ios":"levelo://app?vid=01dd0f6c-5d7c-4e63-a161-668f65657b81"},"vehicle_type_id":"4","last_reported":1732990303,"current_range_meters":40000,"station_id":"cpo3532slgdg3j2ikp40","pricing_plan_id":"cebpf4jnsgd1na2vs0mg"},{"bike_id":"399cab56-b649-46de-a879-44fe089c0251","system_id":"levelo_inurba_marseille","lat":43.285576,"lon":5.395113,"is_reserved":false,"is_disabled":false,"rental_uris":{"android":"levelo://app?vid=399cab56-b649-46de-a879-44fe089c0251","ios":"levelo://app?vid=399cab56-b649-46de-a879-44fe089c0251"},"vehicle_type_id":"4","last_reported":1732990303,"current_range_meters":27600,"station_id":"ce4bh292rcd13ifvqdg0","pricing_plan_id":"cebpf4jnsgd1na2vs0mg"},{"bike_id":"56e42e7c-aa72-4864-a4d7-ec58fb9d7739","system_id":"levelo_inurba_marseille","lat":43.30559,"lon":5.36561,"is_reserved":false,"is_disabled":false,"rental_uris":{"android":"levelo://app?vid=56e42e7c-aa72-4864-a4d7-ec58fb9d7739","ios":"levelo://app?vid=56e42e7c-aa72-4864-a4d7-ec58fb9d7739"},"vehicle_type_id":"4","last_reported":1732990303,"current_range_meters":24800,"station_id":"ce4bgs12rcd13ifvqcag","pricing_plan_id":"cebpf4jnsgd1na2vs0mg"},{"bike_id":"e5951ee3-4a5a-4ebb-b469-096c5188dfa3","system_id":"levelo_inurba_marseille","lat":43.23193,"lon":5.35557,"is_reserved":false,"is_disabled":false,"rental_uris":{"android":"levelo://app?vid=e5951ee3-4a5a-4ebb-b469-096c5188dfa3","ios":"levelo://app?vid=e5951ee3-4a5a-4ebb-b469-096c5188dfa3"},"vehicle_type_id":"4","last_reported":1732990303,"current_range_meters":17200,"station_id":"ce4bhu92rcd13ifvqi70","pricing_plan_id":"cebpf4jnsgd1na2vs0mg"},{"bike_id":"f9a63393-5401-4f98-ae5a-dfbb8291ab6d","system_id":"levelo_inurba_marseille","lat":43.3004,"lon":5.37551,"is_reserved":false,"is_disabled":true,"rental_uris":{"android":"levelo://app?vid=f9a63393-5401-4f98-ae5a-dfbb8291ab6d","ios":"levelo://app?vid=f9a63393-5401-4f98-ae5a-dfbb8291ab6d"},"vehicle_type_id":"4","last_reported":1732990303,"current_range_meters":0,"station_id":"","pricing_plan_id":"cebpf4jnsgd1na2vs0mg"},{"bike_id":"b38c09bb-a215-4e8b-b764-0091f548550c","system_id":"levelo_inurba_marseille","lat":43.22941,"lon":5.35381,"is_reserved":false,"is_disabled":false,"rental_uris":{"android":"levelo://app?vid=b38c09bb-a215-4e8b-b764-0091f548550c","ios":"levelo://app?vid=b38c09bb-a215-4e8b-b764-0091f548550c"},"vehicle_type_id":"4","last_reported":1732990303,"current_range_meters":38800,"station_id":"cpo3532slgdg3j2ikp40","pricing_plan_id":"cebpf4jnsgd1na2vs0mg"},{"bike_id":"d5975a70-c8a4-4063-8649-3aca22762d54","system_id":"levelo_inurba_marseille","lat":43.28694,"lon":5.39965,"is_reserved":false,"is_disabled":false,"rental_uris":{"android":"levelo://app?vid=d5975a70-c8a4-4063-8649-3aca22762d54","ios":"levelo://app?vid=d5975a70-c8a4-4063-8649-3aca22762d54"},"vehicle_type_id":"4","last_reported":1732990303,"current_range_meters":33600,"station_id":"ce4bho92rcd13ifvqh3g","pricing_plan_id":"cebpf4jnsgd1na2vs0mg"},{"bike_id":"12eb8744-d6e3-4cc2-a8a3-67560abc1e26","system_id":"levelo_inurba_marseille","lat":43.22927,"lon":5.3538,"is_reserved":false,"is_disabled":false,"rental_uris":{"android":"levelo://app?vid=12eb8744-d6e3-4cc2-a8a3-67560abc1e26","ios":"levelo://app?vid=12eb8744-d6e3-4cc2-a8a3-67560abc1e26"},"vehicle_type_id":"4","last_reported":1732990303,"current_range_meters":16800,"station_id":"cpo3532slgdg3j2ikp40","pricing_plan_id":"cebpf4jnsgd1na2vs0mg"},{"bike_id":"209edce5-94bd-42b7-894c-233f806592a5","system_id":"levelo_inurba_marseille","lat":43.32358,"lon":5.36756,"is_reserved":false,"is_disabled":false,"rental_uris":{"android":"levelo://app?vid=209edce5-94bd-42b7-894c-233f806592a5","ios":"levelo://app?vid=209edce5-94bd-42b7-894c-233f806592a5"},"vehicle_type_id":"4","last_reported":1732990303,"current_range_meters":27600,"station_id":"ce4bhsh2rcd13ifvqi2g","pricing_plan_id":"cebpf4jnsgd1na2vs0mg"},{"bike_id":"ea461fa6-489e-4de7-89c7-2f448445227c","system_id":"levelo_inurba_marseille","lat":43.29305,"lon":5.37177,"is_reserved":false,"is_disabled":true,"rental_uris":{"android":"levelo://app?vid=ea461fa6-489e-4de7-89c7-2f448445227c","ios":"levelo://app?vid=ea461fa6-489e-4de7-89c7-2f448445227c"},"vehicle_type_id":"4","last_reported":1732990303,"current_range_meters":38800,"station_id":"ce4bgh92rcd13ifvqb40","pricing_plan_id":"cebpf4jnsgd1na2vs0mg"},{"bike_id":"b0bda3a0-8d9d-4bd3-a5b8-75ccdf39fdf3","system_id":"levelo_inurba_marseille","lat":43.29442,"lon":5.3976,"is_reserved":false,"is_disabled":true,"rental_uris":{"android":"levelo://app?vid=b0bda3a0-8d9d-4bd3-a5b8-75ccdf39fdf3","ios":"levelo://app?vid=b0bda3a0-8d9d-4bd3-a5b8-75ccdf39fdf3"},"vehicle_type_id":"4","last_reported":1732990303,"current_range_meters":28000,"station_id":"ce4bh3h2rcd13ifvqdo0","pricing_plan_id":"cebpf4jnsgd1na2vs0mg"},{"bike_id":"04791269-9bad-451a-a252-9b63a8db9660","system_id":"levelo_inurba_marseille","lat":43.28045,"lon":5.36945,"is_reserved":false,"is_disabled":false,"rental_uris":{"android":"levelo://app?vid=04791269-9bad-451a-a252-9b63a8db9660","ios":"levelo://app?vid=04791269-9bad-451a-a252-9b63a8db9660"},"vehicle_type_id":"4","last_reported":1732990303,"current_range_meters":6800,"station_id":"ce4bha12rcd13ifvqef0","pricing_plan_id":"cebpf4jnsgd1na2vs0mg"},{"bike_id":"b760e09c-e667-4639-9bc4-6e7274a2d6f4","system_id":"levelo_inurba_marseille","lat":43.30128,"lon":5.3877,"is_reserved":false,"is_disabled":false,"rental_uris":{"android":"levelo://app?vid=b760e09c-e667-4639-9bc4-6e7274a2d6f4","ios":"levelo://app?vid=b760e09c-e667-4639-9bc4-6e7274a2d6f4"},"vehicle_type_id":"4","last_reported":1732990303,"current_range_meters":12800,"station_id":"ce4bghh2rcd13ifvqb60","pricing_plan_id":"cebpf4jnsgd1na2vs0mg"},{"bike_id":"ffee92d3-4119-470f-811e-5a167fe07917","system_id":"levelo_inurba_marseille","lat":43.33024,"lon":5.39039,"is_reserved":false,"is_disabled":false,"rental_uris":{"android":"levelo://app?vid=ffee92d3-4119-470f-811e-5a167fe07917","ios":"levelo://app?vid=ffee92d3-4119-470f-811e-5a167fe07917"},"vehicle_type_id":"4","last_reported":1732990303,"current_range_meters":40000,"station_id":"ce4bhr92rcd13ifvqhrg","pricing_plan_id":"cebpf4jnsgd1na2vs0mg"},{"bike_id":"7ee75274-4e71-4f47-beb5-75df442a650b","system_id":"levelo_inurba_marseille","lat":43.31157,"lon":5.38722,"is_reserved":false,"is_disabled":false,"rental_uris":{"android":"levelo://app?vid=7ee75274-4e71-4f47-beb5-75df442a650b","ios":"levelo://app?vid=7ee75274-4e71-4f47-beb5-75df442a650b"},"vehicle_type_id":"4","last_reported":1732990303,"current_range_meters":16000,"station_id":"ce4bgv12rcd13ifvqcp0","pricing_plan_id":"cebpf4jnsgd1na2vs0mg"},{"bike_id":"38798db8-5bd5-4792-b41b-6f809d1b1c45","system_id":"levelo_inurba_marseille","lat":43.31998,"lon":5.38159,"is_reserved":false,"is_disabled":false,"rental_uris":{"android":"levelo://app?vid=38798db8-5bd5-4792-b41b-6f809d1b1c45","ios":"levelo://app?vid=38798db8-5bd5-4792-b41b-6f809d1b1c45"},"vehicle_type_id":"4","last_reported":1732990303,"current_range_meters":17600,"station_id":"ce4bhr12rcd13ifvqhpg","pricing_plan_id":"cebpf4jnsgd1na2vs0mg"},{"bike_id":"4f7d45ef-7d61-41e4-93ae-e39543ce3066","system_id":"levelo_inurba_marseille","lat":43.28042,"lon":5.36941,"is_reserved":false,"is_disabled":false,"rental_uris":{"android":"levelo://app?vid=4f7d45ef-7d61-41e4-93ae-e39543ce3066","ios":"levelo://app?vid=4f7d45ef-7d61-41e4-93ae-e39543ce3066"},"vehicle_type_id":"4","last_reported":1732990303,"current_range_meters":36400,"station_id":"ce4bha12rcd13ifvqef0","pricing_plan_id":"cebpf4jnsgd1na2vs0mg"},{"bike_id":"e122f1d5-fa2c-4467-8dad-1efe4f01301d","system_id":"levelo_inurba_marseille","lat":43.2953,"lon":5.38538,"is_reserved":false,"is_disabled":false,"rental_uris":{"android":"levelo://app?vid=e122f1d5-fa2c-4467-8dad-1efe4f01301d","ios":"levelo://app?vid=e122f1d5-fa2c-4467-8dad-1efe4f01301d"},"vehicle_type_id":"4","last_reported":1732990303,"current_range_meters":19600,"station_id":"ce4bgih2rcd13ifvqba0","pricing_plan_id":"cebpf4jnsgd1na2vs0mg"},{"bike_id":"8c05a29e-728a-4b29-80bd-40718114c6e8","system_id":"levelo_inurba_marseille","lat":43.3028,"lon":5.37682,"is_reserved":false,"is_disabled":false,"rental_uris":{"android":"levelo://app?vid=8c05a29e-728a-4b29-80bd-40718114c6e8","ios":"levelo://app?vid=8c05a29e-728a-4b29-80bd-40718114c6e8"},"vehicle_type_id":"4","last_reported":1732990303,"current_range_meters":36000,"station_id":"ce4bguh2rcd13ifvqcj0","pricing_plan_id":"cebpf4jnsgd1na2vs0mg"},{"bike_id":"ed151763-9b18-498c-894b-855dfd42d28d","system_id":"levelo_inurba_marseille","lat":43.26033,"lon":5.37545,"is_reserved":false,"is_disabled":true,"rental_uris":{"android":"levelo://app?vid=ed151763-9b18-498c-894b-855dfd42d28d","ios":"levelo://app?vid=ed151763-9b18-498c-894b-855dfd42d28d"},"vehicle_type_id":"4","last_reported":1732990303,"current_range_meters":0,"station_id":"ce4bhgh2rcd13ifvqfa0","pricing_plan_id":"cebpf4jnsgd1na2vs0mg"},{"bike_id":"2e5f3fb8-ab69-4bb8-bb54-f0e5e787f8dd","system_id":"levelo_inurba_marseille","lat":43.28487,"lon":5.3858,"is_reserved":false,"is_disabled":false,"rental_uris":{"android":"levelo://app?vid=2e5f3fb8-ab69-4bb8-bb54-f0e5e787f8dd","ios":"levelo://app?vid=2e5f3fb8-ab69-4bb8-bb54-f0e5e787f8dd"},"vehicle_type_id":"4","last_reported":1732990303,"current_range_meters":9200,"station_id":"ce4bh8p2rcd13ifvqeb0","pricing_plan_id":"cebpf4jnsgd1na2vs0mg"},{"bike_id":"8b7bc44b-c481-433f-b397-5cd095f261fd","system_id":"levelo_inurba_marseille","lat":43.23194,"lon":5.35558,"is_reserved":false,"is_disabled":false,"rental_uris":{"android":"levelo://app?vid=8b7bc44b-c481-433f-b397-5cd095f261fd","ios":"levelo://app?vid=8b7bc44b-c481-433f-b397-5cd095f261fd"},"vehicle_type_id":"4","last_reported":1732990303,"current_range_meters":17600,"station_id":"ce4bhu92rcd13ifvqi70","pricing_plan_id":"cebpf4jnsgd1na2vs0mg"},{"bike_id":"96b27800-f11c-44a0-a1c4-be400e11057c","system_id":"levelo_inurba_marseille","lat":43.30206,"lon":5.39463,"is_reserved":false,"is_disabled":false,"rental_uris":{"android":"levelo://app?vid=96b27800-f11c-44a0-a1c4-be400e11057c","ios":"levelo://app?vid=96b27800-f11c-44a0-a1c4-be400e11057c"},"vehicle_type_id":"4","last_reported":1732990303,"current_range_meters":39200,"station_id":"","pricing_plan_id":"cebpf4jnsgd1na2vs0mg"},{"bike_id":"05f9d312-735f-4378-9793-89956ac95dc4","system_id":"levelo_inurba_marseille","lat":43.33025,"lon":5.39038,"is_reserved":false,"is_disabled":false,"rental_uris":{"android":"levelo://app?vid=05f9d312-735f-4378-9793-89956ac95dc4","ios":"levelo://app?vid=05f9d312-735f-4378-9793-89956ac95dc4"},"vehicle_type_id":"4","last_reported":1732990303,"current_range_meters":18800,"station_id":"ce4bhr92rcd13ifvqhrg","pricing_plan_id":"cebpf4jnsgd1na2vs0mg"},{"bike_id":"6edb09e7-d857-405d-9f08-0aaf2c94136b","system_id":"levelo_inurba_marseille","lat":43.2768,"lon":5.3887,"is_reserved":false,"is_disabled":false,"rental_uris":{"android":"levelo://app?vid=6edb09e7-d857-405d-9f08-0aaf2c94136b","ios":"levelo://app?vid=6edb09e7-d857-405d-9f08-0aaf2c94136b"},"vehicle_type_id":"4","last_reported":1732990303,"current_range_meters":24800,"station_id":"ce4bhi12rcd13ifvqfo0","pricing_plan_id":"cebpf4jnsgd1na2vs0mg"},{"bike_id":"43746d86-8a13-4845-9faf-ae69b548d714","system_id":"levelo_inurba_marseille","lat":43.29459,"lon":5.37917,"is_reserved":false,"is_disabled":true,"rental_uris":{"android":"levelo://app?vid=43746d86-8a13-4845-9faf-ae69b548d714","ios":"levelo://app?vid=43746d86-8a13-4845-9faf-ae69b548d714"},"vehicle_type_id":"4","last_reported":1732990303,"current_range_meters":0,"station_id":"","pricing_plan_id":"cebpf4jnsgd1na2vs0mg"},{"bike_id":"fe48b4b1-012c-4163-9909-fb6b5220c692","system_id":"levelo_inurba_marseille","lat":43.29519,"lon":5.39396,"is_reserved":false,"is_disabled":true,"rental_uris":{"android":"levelo://app?vid=fe48b4b1-012c-4163-9909-fb6b5220c692","ios":"levelo://app?vid=fe48b4b1-012c-4163-9909-fb6b5220c692"},"vehicle_type_id":"4","last_reported":1732990303,"current_range_meters":0,"station_id":"ce4bh292rcd13ifvqdf0","pricing_plan_id":"cebpf4jnsgd1na2vs0mg"},{"bike_id":"3bdc8fbf-bfbf-4809-a75f-fc5898ed1f3c","system_id":"levelo_inurba_marseille","lat":43.28444,"lon":5.39203,"is_reserved":false,"is_disabled":false,"rental_uris":{"android":"levelo://app?vid=3bdc8fbf-bfbf-4809-a75f-fc5898ed1f3c","ios":"levelo://app?vid=3bdc8fbf-bfbf-4809-a75f-fc5898ed1f3c"},"vehicle_type_id":"4","last_reported":1732990303,"current_range_meters":8400,"station_id":"ce4bhoh2rcd13ifvqh5g","pricing_plan_id":"cebpf4jnsgd1na2vs0mg"},{"bike_id":"137649ec-4182-4515-b2d2-806974cb5866","system_id":"levelo_inurba_marseille","lat":43.29259,"lon":5.38431,"is_reserved":false,"is_disabled":false,"rental_uris":{"android":"levelo://app?vid=137649ec-4182-4515-b2d2-806974cb5866","ios":"levelo://app?vid=137649ec-4182-4515-b2d2-806974cb5866"},"vehicle_type_id":"4","last_reported":1732990303,"current_range_meters":34000,"station_id":"ce4bh692rcd13ifvqea0","pricing_plan_id":"cebpf4jnsgd1na2vs0mg"},{"bike_id":"1e2eaa3c-fb22-42b8-9e83-41ea512d2c4b","system_id":"levelo_inurba_marseille","lat":43.28684,"lon":5.39921,"is_reserved":false,"is_disabled":true,"rental_uris":{"android":"levelo://app?vid=1e2eaa3c-fb22-42b8-9e83-41ea512d2c4b","ios":"levelo://app?vid=1e2eaa3c-fb22-42b8-9e83-41ea512d2c4b"},"vehicle_type_id":"4","last_reported":1732990303,"current_range_meters":12400,"station_id":"","pricing_plan_id":"cebpf4jnsgd1na2vs0mg"},{"bike_id":"81516122-e843-4035-a3ec-125e1810abf6","system_id":"levelo_inurba_marseille","lat":43.28856,"lon":5.35856,"is_reserved":false,"is_disabled":false,"rental_uris":{"android":"levelo://app?vid=81516122-e843-4035-a3ec-125e1810abf6","ios":"levelo://app?vid=81516122-e843-4035-a3ec-125e1810abf6"},"vehicle_type_id":"4","last_reported":1732990303,"current_range_meters":29600,"station_id":"ce4bhb12rcd13ifvqem0","pricing_plan_id":"cebpf4jnsgd1na2vs0mg"},{"bike_id":"efe32a30-d075-42b3-88a6-e2a1a28f2121","system_id":"levelo_inurba_marseille","lat":43.28044,"lon":5.36944,"is_reserved":false,"is_disabled":false,"rental_uris":{"android":"levelo://app?vid=efe32a30-d075-42b3-88a6-e2a1a28f2121","ios":"levelo://app?vid=efe32a30-d075-42b3-88a6-e2a1a28f2121"},"vehicle_type_id":"4","last_reported":1732990303,"current_range_meters":20800,"station_id":"ce4bha12rcd13ifvqef0","pricing_plan_id":"cebpf4jnsgd1na2vs0mg"},{"bike_id":"32166cf3-6ae2-4ff3-b5e6-44e4b1ee8304","system_id":"levelo_inurba_marseille","lat":43.29528,"lon":5.38542,"is_reserved":false,"is_disabled":false,"rental_uris":{"android":"levelo://app?vid=32166cf3-6ae2-4ff3-b5e6-44e4b1ee8304","ios":"levelo://app?vid=32166cf3-6ae2-4ff3-b5e6-44e4b1ee8304"},"vehicle_type_id":"4","last_reported":1732990303,"current_range_meters":10800,"station_id":"ce4bgih2rcd13ifvqba0","pricing_plan_id":"cebpf4jnsgd1na2vs0mg"},{"bike_id":"958aa8b2-84bf-4733-83cc-dd0e6f08771c","system_id":"levelo_inurba_marseille","lat":43.26782,"lon":5.39414,"is_reserved":false,"is_disabled":false,"rental_uris":{"android":"levelo://app?vid=958aa8b2-84bf-4733-83cc-dd0e6f08771c","ios":"levelo://app?vid=958aa8b2-84bf-4733-83cc-dd0e6f08771c"},"vehicle_type_id":"4","last_reported":1732990303,"current_range_meters":29600,"station_id":"ce4bhh12rcd13ifvqfg0","pricing_plan_id":"cebpf4jnsgd1na2vs0mg"},{"bike_id":"15e24c31-4292-4084-bcd3-e24f0a31685e","system_id":"levelo_inurba_marseille","lat":43.28428,"lon":5.34978,"is_reserved":false,"is_disabled":true,"rental_uris":{"android":"levelo://app?vid=15e24c31-4292-4084-bcd3-e24f0a31685e","ios":"levelo://app?vid=15e24c31-4292-4084-bcd3-e24f0a31685e"},"vehicle_type_id":"4","last_reported":1732990303,"current_range_meters":0,"station_id":"ce4bhbh2rcd13ifvqepg","pricing_plan_id":"cebpf4jnsgd1na2vs0mg"},{"bike_id":"b3d12ac5-e065-4b77-83d8-6cd36d3a39d9","system_id":"levelo_inurba_marseille","lat":43.33735,"lon":5.37466,"is_reserved":false,"is_disabled":false,"rental_uris":{"android":"levelo://app?vid=b3d12ac5-e065-4b77-83d8-6cd36d3a39d9","ios":"levelo://app?vid=b3d12ac5-e065-4b77-83d8-6cd36d3a39d9"},"vehicle_type_id":"4","last_reported":1732990303,"current_range_meters":8800,"station_id":"","pricing_plan_id":"cebpf4jnsgd1na2vs0mg"},{"bike_id":"c67affd0-758a-47c8-bb19-f58fff7a7b97","system_id":"levelo_inurba_marseille","lat":43.33021,"lon":5.39049,"is_reserved":false,"is_disabled":false,"rental_uris":{"android":"levelo://app?vid=c67affd0-758a-47c8-bb19-f58fff7a7b97","ios":"levelo://app?vid=c67affd0-758a-47c8-bb19-f58fff7a7b97"},"vehicle_type_id":"4","last_reported":1732990303,"current_range_meters":39200,"station_id":"ce4bhr92rcd13ifvqhrg","pricing_plan_id":"cebpf4jnsgd1na2vs0mg"},{"bike_id":"ed2e18cb-6b73-482a-997d-872d2e2185a6","system_id":"levelo_inurba_marseille","lat":43.22931,"lon":5.35372,"is_reserved":false,"is_disabled":false,"rental_uris":{"android":"levelo://app?vid=ed2e18cb-6b73-482a-997d-872d2e2185a6","ios":"levelo://app?vid=ed2e18cb-6b73-482a-997d-872d2e2185a6"},"vehicle_type_id":"4","last_reported":1732990303,"current_range_meters":40000,"station_id":"cpo3532slgdg3j2ikp40","pricing_plan_id":"cebpf4jnsgd1na2vs0mg"},{"bike_id":"626420d7-d948-4e76-8514-81b653e980fd","system_id":"levelo_inurba_marseille","lat":43.28933,"lon":5.36639,"is_reserved":false,"is_disabled":false,"rental_uris":{"android":"levelo://app?vid=626420d7-d948-4e76-8514-81b653e980fd","ios":"levelo://app?vid=626420d7-d948-4e76-8514-81b653e980fd"},"vehicle_type_id":"4","last_reported":1732990303,"current_range_meters":20000,"station_id":"ce4bhap2rcd13ifvqek0","pricing_plan_id":"cebpf4jnsgd1na2vs0mg"},{"bike_id":"3618ce5c-a69e-4302-8d36-f68fc147381b","system_id":"levelo_inurba_marseille","lat":43.29264,"lon":5.38445,"is_reserved":false,"is_disabled":false,"rental_uris":{"android":"levelo://app?vid=3618ce5c-a69e-4302-8d36-f68fc147381b","ios":"levelo://app?vid=3618ce5c-a69e-4302-8d36-f68fc147381b"},"vehicle_type_id":"4","last_reported":1732990303,"current_range_meters":24400,"station_id":"ce4bh692rcd13ifvqea0","pricing_plan_id":"cebpf4jnsgd1na2vs0mg"},{"bike_id":"fc4d15f5-6256-45a3-90d6-77bb4c676955","system_id":"levelo_inurba_marseille","lat":43.296284,"lon":5.377877,"is_reserved":false,"is_disabled":true,"rental_uris":{"android":"levelo://app?vid=fc4d15f5-6256-45a3-90d6-77bb4c676955","ios":"levelo://app?vid=fc4d15f5-6256-45a3-90d6-77bb4c676955"},"vehicle_type_id":"4","last_reported":1732990303,"current_range_meters":24000,"station_id":"","pricing_plan_id":"cebpf4jnsgd1na2vs0mg"},{"bike_id":"ea32a820-bbfc-45de-9992-3190955b4a56","system_id":"levelo_inurba_marseille","lat":43.2962,"lon":5.37148,"is_reserved":false,"is_disabled":true,"rental_uris":{"android":"levelo://app?vid=ea32a820-bbfc-45de-9992-3190955b4a56","ios":"levelo://app?vid=ea32a820-bbfc-45de-9992-3190955b4a56"},"vehicle_type_id":"4","last_reported":1732990303,"current_range_meters":1200,"station_id":"ce4bgnh2rcd13ifvqc0g","pricing_plan_id":"cebpf4jnsgd1na2vs0mg"},{"bike_id":"a16afe75-0fd4-4a69-b96a-bb6ed635780c","system_id":"levelo_inurba_marseille","lat":43.31126,"lon":5.37773,"is_reserved":false,"is_disabled":true,"rental_uris":{"android":"levelo://app?vid=a16afe75-0fd4-4a69-b96a-bb6ed635780c","ios":"levelo://app?vid=a16afe75-0fd4-4a69-b96a-bb6ed635780c"},"vehicle_type_id":"4","last_reported":1732990303,"current_range_meters":20000,"station_id":"ce4bgt92rcd13ifvqcg0","pricing_plan_id":"cebpf4jnsgd1na2vs0mg"},{"bike_id":"da719756-3742-4209-8d60-b3804f08c501","system_id":"levelo_inurba_marseille","lat":43.29824,"lon":5.37998,"is_reserved":false,"is_disabled":false,"rental_uris":{"android":"levelo://app?vid=da719756-3742-4209-8d60-b3804f08c501","ios":"levelo://app?vid=da719756-3742-4209-8d60-b3804f08c501"},"vehicle_type_id":"4","last_reported":1732990303,"current_range_meters":26000,"station_id":"","pricing_plan_id":"cebpf4jnsgd1na2vs0mg"},{"bike_id":"ae484449-9c08-49aa-8ca8-c701c477c6ad","system_id":"levelo_inurba_marseille","lat":43.2811,"lon":5.37843,"is_reserved":false,"is_disabled":false,"rental_uris":{"android":"levelo://app?vid=ae484449-9c08-49aa-8ca8-c701c477c6ad","ios":"levelo://app?vid=ae484449-9c08-49aa-8ca8-c701c477c6ad"},"vehicle_type_id":"4","last_reported":1732990303,"current_range_meters":16000,"station_id":"ce4bha12rcd13ifvqee0","pricing_plan_id":"cebpf4jnsgd1na2vs0mg"},{"bike_id":"5547a441-9653-482c-905c-97a54076438b","system_id":"levelo_inurba_marseille","lat":43.32364,"lon":5.36747,"is_reserved":false,"is_disabled":false,"rental_uris":{"android":"levelo://app?vid=5547a441-9653-482c-905c-97a54076438b","ios":"levelo://app?vid=5547a441-9653-482c-905c-97a54076438b"},"vehicle_type_id":"4","last_reported":1732990303,"current_range_meters":13600,"station_id":"ce4bhsh2rcd13ifvqi2g","pricing_plan_id":"cebpf4jnsgd1na2vs0mg"},{"bike_id":"616ada9d-9cd3-4c3e-a175-1c6a062c4785","system_id":"levelo_inurba_marseille","lat":43.281,"lon":5.37836,"is_reserved":false,"is_disabled":false,"rental_uris":{"android":"levelo://app?vid=616ada9d-9cd3-4c3e-a175-1c6a062c4785","ios":"levelo://app?vid=616ada9d-9cd3-4c3e-a175-1c6a062c4785"},"vehicle_type_id":"4","last_reported":1732990303,"current_range_meters":20000,"station_id":"ce4bha12rcd13ifvqee0","pricing_plan_id":"cebpf4jnsgd1na2vs0mg"},{"bike_id":"8d028105-3dea-4488-99f9-3177306144a6","system_id":"levelo_inurba_marseille","lat":43.29349,"lon":5.42811,"is_reserved":false,"is_disabled":false,"rental_uris":{"android":"levelo://app?vid=8d028105-3dea-4488-99f9-3177306144a6","ios":"levelo://app?vid=8d028105-3dea-4488-99f9-3177306144a6"},"vehicle_type_id":"4","last_reported":1732990303,"current_range_meters":15200,"station_id":"","pricing_plan_id":"cebpf4jnsgd1na2vs0mg"},{"bike_id":"afecb784-776f-447b-a489-a9ac24a4309e","system_id":"levelo_inurba_marseille","lat":43.29616,"lon":5.37718,"is_reserved":false,"is_disabled":false,"rental_uris":{"android":"levelo://app?vid=afecb784-776f-447b-a489-a9ac24a4309e","ios":"levelo://app?vid=afecb784-776f-447b-a489-a9ac24a4309e"},"vehicle_type_id":"4","last_reported":1732990303,"current_range_meters":27600,"station_id":"ce4bgi92rcd13ifvqb90","pricing_plan_id":"cebpf4jnsgd1na2vs0mg"},{"bike_id":"4b622fdc-668d-4da3-b5fd-59fb088d9c8e","system_id":"levelo_inurba_marseille","lat":43.26953,"lon":5.38637,"is_reserved":false,"is_disabled":false,"rental_uris":{"android":"levelo://app?vid=4b622fdc-668d-4da3-b5fd-59fb088d9c8e","ios":"levelo://app?vid=4b622fdc-668d-4da3-b5fd-59fb088d9c8e"},"vehicle_type_id":"4","last_reported":1732990303,"current_range_meters":17600,"station_id":"ce4bhh92rcd13ifvqfh0","pricing_plan_id":"cebpf4jnsgd1na2vs0mg"},{"bike_id":"b82a79cb-317d-4a07-bd58-e39d483630b9","system_id":"levelo_inurba_marseille","lat":43.28269,"lon":5.35065,"is_reserved":false,"is_disabled":false,"rental_uris":{"android":"levelo://app?vid=b82a79cb-317d-4a07-bd58-e39d483630b9","ios":"levelo://app?vid=b82a79cb-317d-4a07-bd58-e39d483630b9"},"vehicle_type_id":"4","last_reported":1732990303,"current_range_meters":22800,"station_id":"ce4bhbp2rcd13ifvqerg","pricing_plan_id":"cebpf4jnsgd1na2vs0mg"},{"bike_id":"20d1cf11-2c48-4777-aec6-5604ddea504e","system_id":"levelo_inurba_marseille","lat":43.27942,"lon":5.41039,"is_reserved":false,"is_disabled":false,"rental_uris":{"android":"levelo://app?vid=20d1cf11-2c48-4777-aec6-5604ddea504e","ios":"levelo://app?vid=20d1cf11-2c48-4777-aec6-5604ddea504e"},"vehicle_type_id":"4","last_reported":1732990303,"current_range_meters":30800,"station_id":"ce4bhnp2rcd13ifvqh0g","pricing_plan_id":"cebpf4jnsgd1na2vs0mg"},{"bike_id":"9190531c-a7f4-4ca9-a50f-fa5e06587120","system_id":"levelo_inurba_marseille","lat":43.29258,"lon":5.39467,"is_reserved":false,"is_disabled":false,"rental_uris":{"android":"levelo://app?vid=9190531c-a7f4-4ca9-a50f-fa5e06587120","ios":"levelo://app?vid=9190531c-a7f4-4ca9-a50f-fa5e06587120"},"vehicle_type_id":"4","last_reported":1732990303,"current_range_meters":36400,"station_id":"ce4bh3p2rcd13ifvqdp0","pricing_plan_id":"cebpf4jnsgd1na2vs0mg"},{"bike_id":"b69579fa-8e8f-41b9-bc0a-2a716393d399","system_id":"levelo_inurba_marseille","lat":43.31758,"lon":5.39023,"is_reserved":false,"is_disabled":false,"rental_uris":{"android":"levelo://app?vid=b69579fa-8e8f-41b9-bc0a-2a716393d399","ios":"levelo://app?vid=b69579fa-8e8f-41b9-bc0a-2a716393d399"},"vehicle_type_id":"4","last_reported":1732990303,"current_range_meters":38800,"station_id":"ce4bhqp2rcd13ifvqhng","pricing_plan_id":"cebpf4jnsgd1na2vs0mg"},{"bike_id":"242f1b64-ebcd-46f7-9c6d-509f33fd5fe2","system_id":"levelo_inurba_marseille","lat":43.28674,"lon":5.38662,"is_reserved":false,"is_disabled":false,"rental_uris":{"android":"levelo://app?vid=242f1b64-ebcd-46f7-9c6d-509f33fd5fe2","ios":"levelo://app?vid=242f1b64-ebcd-46f7-9c6d-509f33fd5fe2"},"vehicle_type_id":"4","last_reported":1732990303,"current_range_meters":8800,"station_id":"ce4bh492rcd13ifvqdug","pricing_plan_id":"cebpf4jnsgd1na2vs0mg"},{"bike_id":"14a4f0e3-d54f-47b8-a445-c36225f4c58d","system_id":"levelo_inurba_marseille","lat":43.24549,"lon":5.39524,"is_reserved":false,"is_disabled":true,"rental_uris":{"android":"levelo://app?vid=14a4f0e3-d54f-47b8-a445-c36225f4c58d","ios":"levelo://app?vid=14a4f0e3-d54f-47b8-a445-c36225f4c58d"},"vehicle_type_id":"4","last_reported":1732990303,"current_range_meters":0,"station_id":"ce4bhlp2rcd13ifvqgjg","pricing_plan_id":"cebpf4jnsgd1na2vs0mg"},{"bike_id":"dbb10811-ea18-4711-a07f-a8a2ba4a7b6a","system_id":"levelo_inurba_marseille","lat":43.27811,"lon":5.40712,"is_reserved":false,"is_disabled":false,"rental_uris":{"android":"levelo://app?vid=dbb10811-ea18-4711-a07f-a8a2ba4a7b6a","ios":"levelo://app?vid=dbb10811-ea18-4711-a07f-a8a2ba4a7b6a"},"vehicle_type_id":"4","last_reported":1732990303,"current_range_meters":3600,"station_id":"ce4bhnh2rcd13ifvqgtg","pricing_plan_id":"cebpf4jnsgd1na2vs0mg"},{"bike_id":"154972ea-eb4a-468d-a236-3f96067731e7","system_id":"levelo_inurba_marseille","lat":43.28263,"lon":5.35064,"is_reserved":false,"is_disabled":false,"rental_uris":{"android":"levelo://app?vid=154972ea-eb4a-468d-a236-3f96067731e7","ios":"levelo://app?vid=154972ea-eb4a-468d-a236-3f96067731e7"},"vehicle_type_id":"4","last_reported":1732990303,"current_range_meters":6400,"station_id":"ce4bhbp2rcd13ifvqerg","pricing_plan_id":"cebpf4jnsgd1na2vs0mg"},{"bike_id":"1a00f908-3719-4a0e-a06f-5b3691aa3d0c","system_id":"levelo_inurba_marseille","lat":43.337444,"lon":5.374475,"is_reserved":false,"is_disabled":false,"rental_uris":{"android":"levelo://app?vid=1a00f908-3719-4a0e-a06f-5b3691aa3d0c","ios":"levelo://app?vid=1a00f908-3719-4a0e-a06f-5b3691aa3d0c"},"vehicle_type_id":"4","last_reported":1732990303,"current_range_meters":36800,"station_id":"","pricing_plan_id":"cebpf4jnsgd1na2vs0mg"},{"bike_id":"19480ffa-4599-46a9-87d6-81e7aa6a671c","system_id":"levelo_inurba_marseille","lat":43.33726,"lon":5.3919,"is_reserved":false,"is_disabled":false,"rental_uris":{"android":"levelo://app?vid=19480ffa-4599-46a9-87d6-81e7aa6a671c","ios":"levelo://app?vid=19480ffa-4599-46a9-87d6-81e7aa6a671c"},"vehicle_type_id":"4","last_reported":1732990303,"current_range_meters":17600,"station_id":"ce4bhr92rcd13ifvqhsg","pricing_plan_id":"cebpf4jnsgd1na2vs0mg"},{"bike_id":"03807e7a-0f7f-4f76-985d-9db05532f6de","system_id":"levelo_inurba_marseille","lat":43.28683,"lon":5.38671,"is_reserved":false,"is_disabled":false,"rental_uris":{"android":"levelo://app?vid=03807e7a-0f7f-4f76-985d-9db05532f6de","ios":"levelo://app?vid=03807e7a-0f7f-4f76-985d-9db05532f6de"},"vehicle_type_id":"4","last_reported":1732990303,"current_range_meters":40000,"station_id":"ce4bh492rcd13ifvqdug","pricing_plan_id":"cebpf4jnsgd1na2vs0mg"},