{"last_updated":1762431723,"ttl":60,"version":"2.2","data":{"bikes":[{"bike_id":"9c46a9f5-39cb-461a-ac28-286dc216524b","system_id":"levelo_inurba_marseille","lat":43.337444,"lon":5.374475,"is_reserved":false,"is_disabled":false,"rental_uris":{"android":"levelo://app?vid=9c46a9f5-39cb-461a-ac28-286dc216524b","ios":"levelo://app?vid=9c46a9f5-39cb-461a-ac28-286dc216524b"},"vehicle_type_id":"4","last_reported":1762431723,"current_range_meters":0,"station_id":"","pricing_plan_id":"cebpf4jnsgd1na2vs0mg"},{"bike_id":"ca027186-72c6-4358-8d7a-70b219e6273a","system_id":"levelo_inurba_marseille","lat":43.350983,"lon":5.380864,"is_reserved":false,"is_disabled":false,"rental_uris":{"android":"levelo://app?vid=ca027186-72c6-4358-8d7a-70b219e6273a","ios":"levelo://app?vid=ca027186-72c6-4358-8d7a-70b219e6273a"},"vehicle_type_id":"4","last_reported":1762431723,"current_range_meters":2800,"station_id":"","pricing_plan_id":"cebpf4jnsgd1na2vs0mg"},{"bike_id":"043cf183-e4b9-4c17-9899-868bd2aca1cf","system_id":"levelo_inurba_marseille","lat":43.29569,"lon":5.37524,"is_reserved":false,"is_disabled":false,"rental_uris":{"android":"levelo://app?vid=043cf183-e4b9-4c17-9899-868bd2aca1cf","ios":"levelo://app?vid=043cf183-e4b9-4c17-9899-868bd2aca1cf"},"vehicle_type_id":"4","last_reported":1762431723,"current_range_meters":2800,"station_id":"ce4bgh92rcd13ifvqb50","pricing_plan_id":"cebpf4jnsgd1na2vs0mg"},{"bike_id":"94fcdbaa-39de-47d4-81dc-699d4a101a07","system_id":"levelo_inurba_marseille","lat":43.30956,"lon":5.39043,"is_reserved":false,"is_disabled":false,"rental_uris":{"android":"levelo://app?vid=94fcdbaa-39de-47d4-81dc-699d4a101a07","ios":"levelo://app?vid=94fcdbaa-39de-47d4-81dc-699d4a101a07"},"vehicle_type_id":"4","last_reported":1762431723,"current_range_meters":3600,"station_id":"ce4bgup2rcd13ifvqco0","pricing_plan_id":"cebpf4jnsgd1na2vs0mg"},{"bike_id":"5eff7cc9-38a1-4978-bb2a-7201e4e859d2","system_id":"levelo_inurba_marseille","lat":43.29029,"lon":5.38644,"is_reserved":false,"is_disabled":false,"rental_uris":{"android":"levelo://app?vid=5eff7cc9-38a1-4978-bb2a-7201e4e859d2","ios":"levelo://app?vid=5eff7cc9-38a1-4978-bb2a-7201e4e859d2"},"vehicle_type_id":"4","last_reported":1762431723,"current_range_meters":3600,"station_id":"ce4bh4p2rcd13ifvqe0g","pricing_plan_id":"cebpf4jnsgd1na2vs0mg"},{"bike_id":"73e80099-622d-48da-8b4b-90eb8aa23b56","system_id":"levelo_inurba_marseille","lat":43.28716,"lon":5.37938,"is_reserved":false,"is_disabled":false,"rental_uris":{"android":"levelo://app?vid=73e80099-622d-48da-8b4b-90eb8aa23b56","ios":"levelo://app?vid=73e80099-622d-48da-8b4b-90eb8aa23b56"},"vehicle_type_id":"4","last_reported":1762431723,"current_range_meters":4000,"station_id":"ce4bh9p2rcd13ifvqec0","pricing_plan_id":"cebpf4jnsgd1na2vs0mg"},{"bike_id":"3d620f8f-c333-4cf0-adfc-9cdf43b5d359","system_id":"levelo_inurba_marseille","lat":43.29299,"lon":5.37452,"is_reserved":false,"is_disabled":false,"rental_uris":{"android":"levelo://app?vid=3d620f8f-c333-4cf0-adfc-9cdf43b5d359","ios":"levelo://app?vid=3d620f8f-c333-4cf0-adfc-9cdf43b5d359"},"vehicle_type_id":"4","last_reported":1762431723,"current_range_meters":4000,"station_id":"ce4bgi12rcd13ifvqb70","pricing_plan_id":"cebpf4jnsgd1na2vs0mg"},{"bike_id":"3ca5b211-9053-412a-9f02-49f59b05a023","system_id":"levelo_inurba_marseille","lat":43.30227,"lon":5.37236,"is_reserved":false,"is_disabled":false,"rental_uris":{"android":"levelo://app?vid=3ca5b211-9053-412a-9f02-49f59b05a023","ios":"levelo://app?vid=3ca5b211-9053-412a-9f02-49f59b05a023"},"vehicle_type_id":"4","last_reported":1762431723,"current_range_meters":4400,"station_id":"","pricing_plan_id":"cebpf4jnsgd1na2vs0mg"},{"bike_id":"aca97c05-7ed2-47eb-bc98-702cda14affe","system_id":"levelo_inurba_marseille","lat":43.28936,"lon":5.36648,"is_reserved":false,"is_disabled":false,"rental_uris":{"android":"levelo://app?vid=aca97c05-7ed2-47eb-bc98-702cda14affe","ios":"levelo://app?vid=aca97c05-7ed2-47eb-bc98-702cda14affe"},"vehicle_type_id":"4","last_reported":1762431723,"current_range_meters":4400,"station_id":"ce4bhap2rcd13ifvqek0","pricing_plan_id":"cebpf4jnsgd1na2vs0mg"},{"bike_id":"0252750c-908c-4fed-afa0-56c70f430c51","system_id":"levelo_inurba_marseille","lat":43.253365,"lon":5.42174,"is_reserved":false,"is_disabled":false,"rental_uris":{"android":"levelo://app?vid=0252750c-908c-4fed-afa0-56c70f430c51","ios":"levelo://app?vid=0252750c-908c-4fed-afa0-56c70f430c51"},"vehicle_type_id":"4","last_reported":1762431723,"current_range_meters":4400,"station_id":"st_d2m65c5bi1j21697t3ng","pricing_plan_id":"cebpf4jnsgd1na2vs0mg"},{"bike_id":"6cc11afe-01b4-4c37-a85e-d33c157bd1fa","system_id":"levelo_inurba_marseille","lat":43.27686,"lon":5.38871,"is_reserved":false,"is_disabled":false,"rental_uris":{"android":"levelo://app?vid=6cc11afe-01b4-4c37-a85e-d33c157bd1fa","ios":"levelo://app?vid=6cc11afe-01b4-4c37-a85e-d33c157bd1fa"},"vehicle_type_id":"4","last_reported":1762431723,"current_range_meters":4800,"station_id":"ce4bhi12rcd13ifvqfo0","pricing_plan_id":"cebpf4jnsgd1na2vs0mg"},{"bike_id":"dd213e09-a980-4d17-ae13-ba2ffcf720f6","system_id":"levelo_inurba_marseille","lat":43.24803,"lon":5.37498,"is_reserved":false,"is_disabled":false,"rental_uris":{"android":"levelo://app?vid=dd213e09-a980-4d17-ae13-ba2ffcf720f6","ios":"levelo://app?vid=dd213e09-a980-4d17-ae13-ba2ffcf720f6"},"vehicle_type_id":"4","last_reported":1762431723,"current_range_meters":4800,"station_id":"ce4bhgh2rcd13ifvqfb0","pricing_plan_id":"cebpf4jnsgd1na2vs0mg"},{"bike_id":"072bb24a-9e5a-41e8-8a23-f687a46e169a","system_id":"levelo_inurba_marseille","lat":43.32368,"lon":5.38886,"is_reserved":false,"is_disabled":false,"rental_uris":{"android":"levelo://app?vid=072bb24a-9e5a-41e8-8a23-f687a46e169a","ios":"levelo://app?vid=072bb24a-9e5a-41e8-8a23-f687a46e169a"},"vehicle_type_id":"4","last_reported":1762431723,"current_range_meters":4800,"station_id":"ce4bhqp2rcd13ifvqhog","pricing_plan_id":"cebpf4jnsgd1na2vs0mg"},{"bike_id":"7f7ea565-9cf5-4613-8524-30c39403f860","system_id":"levelo_inurba_marseille","lat":43.296,"lon":5.38107,"is_reserved":false,"is_disabled":false,"rental_uris":{"android":"levelo://app?vid=7f7ea565-9cf5-4613-8524-30c39403f860","ios":"levelo://app?vid=7f7ea565-9cf5-4613-8524-30c39403f860"},"vehicle_type_id":"4","last_reported":1762431723,"current_range_meters":4800,"station_id":"ce4bgl12rcd13ifvqbo0","pricing_plan_id":"cebpf4jnsgd1na2vs0mg"},{"bike_id":"43241b2a-4cb5-4e4c-8865-8a8693625499","system_id":"levelo_inurba_marseille","lat":43.312861,"lon":5.378418,"is_reserved":false,"is_disabled":false,"rental_uris":{"android":"levelo://app?vid=43241b2a-4cb5-4e4c-8865-8a8693625499","ios":"levelo://app?vid=43241b2a-4cb5-4e4c-8865-8a8693625499"},"vehicle_type_id":"4","last_reported":1762431723,"current_range_meters":4800,"station_id":"","pricing_plan_id":"cebpf4jnsgd1na2vs0mg"},{"bike_id":"5f731f76-9d83-42a2-9f7f-71c03353ee11","system_id":"levelo_inurba_marseille","lat":43.226788,"lon":5.415871,"is_reserved":false,"is_disabled":false,"rental_uris":{"android":"levelo://app?vid=5f731f76-9d83-42a2-9f7f-71c03353ee11","ios":"levelo://app?vid=5f731f76-9d83-42a2-9f7f-71c03353ee11"},"vehicle_type_id":"4","last_reported":1762431723,"current_range_meters":4800,"station_id":"ce4bgj92rcd13ifvqbd0","pricing_plan_id":"cebpf4jnsgd1na2vs0mg"},{"bike_id":"bee2dd8c-c015-414b-92f9-8934c321b382","system_id":"levelo_inurba_marseille","lat":43.26959,"lon":5.38629,"is_reserved":false,"is_disabled":false,"rental_uris":{"android":"levelo://app?vid=bee2dd8c-c015-414b-92f9-8934c321b382","ios":"levelo://app?vid=bee2dd8c-c015-414b-92f9-8934c321b382"},"vehicle_type_id":"4","last_reported":1762431723,"current_range_meters":4800,"station_id":"ce4bhh92rcd13ifvqfh0","pricing_plan_id":"cebpf4jnsgd1na2vs0mg"},{"bike_id":"d742c900-f22e-4f2c-a6e4-6eebefa4ca1f","system_id":"levelo_inurba_marseille","lat":43.29372,"lon":5.37852,"is_reserved":false,"is_disabled":false,"rental_uris":{"android":"levelo://app?vid=d742c900-f22e-4f2c-a6e4-6eebefa4ca1f","ios":"levelo://app?vid=d742c900-f22e-4f2c-a6e4-6eebefa4ca1f"},"vehicle_type_id":"4","last_reported":1762431723,"current_range_meters":5600,"station_id":"ce4bgjh2rcd13ifvqbf0","pricing_plan_id":"cebpf4jnsgd1na2vs0mg"},{"bike_id":"e88e2938-309b-490b-b175-e4dc8f4ac6da","system_id":"levelo_inurba_marseille","lat":43.29772,"lon":5.37122,"is_reserved":false,"is_disabled":false,"rental_uris":{"android":"levelo://app?vid=e88e2938-309b-490b-b175-e4dc8f4ac6da","ios":"levelo://app?vid=e88e2938-309b-490b-b175-e4dc8f4ac6da"},"vehicle_type_id":"4","last_reported":1762431723,"current_range_meters":5600,"station_id":"ce4bgop2rcd13ifvqc1g","pricing_plan_id":"cebpf4jnsgd1na2vs0mg"},{"bike_id":"cd9c6c8f-813a-4b2c-b0c7-7a3265cb2fa0","system_id":"levelo_inurba_marseille","lat":43.24251,"lon":5.393,"is_reserved":false,"is_disabled":false,"rental_uris":{"android":"levelo://app?vid=cd9c6c8f-813a-4b2c-b0c7-7a3265cb2fa0","ios":"levelo://app?vid=cd9c6c8f-813a-4b2c-b0c7-7a3265cb2fa0"},"vehicle_type_id":"4","last_reported":1762431723,"current_range_meters":5600,"station_id":"","pricing_plan_id":"cebpf4jnsgd1na2vs0mg"},{"bike_id":"f4d139cb-8d97-4843-89c4-6537aae52f2f","system_id":"levelo_inurba_marseille","lat":43.29303,"lon":5.37455,"is_reserved":false,"is_disabled":false,"rental_uris":{"android":"levelo://app?vid=f4d139cb-8d97-4843-89c4-6537aae52f2f","ios":"levelo://app?vid=f4d139cb-8d97-4843-89c4-6537aae52f2f"},"vehicle_type_id":"4","last_reported":1762431723,"current_range_meters":5600,"station_id":"ce4bgi12rcd13ifvqb70","pricing_plan_id":"cebpf4jnsgd1na2vs0mg"},{"bike_id":"2e7bd310-1a5f-4d72-a5aa-19f0c8e64587","system_id":"levelo_inurba_marseille","lat":43.309263,"lon":5.40141,"is_reserved":false,"is_disabled":false,"rental_uris":{"android":"levelo://app?vid=2e7bd310-1a5f-4d72-a5aa-19f0c8e64587","ios":"levelo://app?vid=2e7bd310-1a5f-4d72-a5aa-19f0c8e64587"},"vehicle_type_id":"4","last_reported":1762431723,"current_range_meters":5600,"station_id":"","pricing_plan_id":"cebpf4jnsgd1na2vs0mg"},{"bike_id":"47ef77cf-932e-4efa-b2ee-c6ff0a0ce4bc","system_id":"levelo_inurba_marseille","lat":43.24802,"lon":5.37455,"is_reserved":false,"is_disabled":false,"rental_uris":{"android":"levelo://app?vid=47ef77cf-932e-4efa-b2ee-c6ff0a0ce4bc","ios":"levelo://app?vid=47ef77cf-932e-4efa-b2ee-c6ff0a0ce4bc"},"vehicle_type_id":"4","last_reported":1762431723,"current_range_meters":5600,"station_id":"ce4bhgh2rcd13ifvqfb0","pricing_plan_id":"cebpf4jnsgd1na2vs0mg"},{"bike_id":"a3d867ae-f4dd-486a-a20d-682f4496217d","system_id":"levelo_inurba_marseille","lat":43.337753,"lon":5.374367,"is_reserved":false,"is_disabled":false,"rental_uris":{"android":"levelo://app?vid=a3d867ae-f4dd-486a-a20d-682f4496217d","ios":"levelo://app?vid=a3d867ae-f4dd-486a-a20d-682f4496217d"},"vehicle_type_id":"4","last_reported":1762431723,"current_range_meters":6000,"station_id":"","pricing_plan_id":"cebpf4jnsgd1na2vs0mg"},{"bike_id":"5e6b5e6b-9f8a-43ab-9eb8-b69e41a6c1e6","system_id":"levelo_inurba_marseille","lat":43.22538,"lon":5.34841,"is_reserved":false,"is_disabled":false,"rental_uris":{"android":"levelo://app?vid=5e6b5e6b-9f8a-43ab-9eb8-b69e41a6c1e6","ios":"levelo://app?vid=5e6b5e6b-9f8a-43ab-9eb8-b69e41a6c1e6"},"vehicle_type_id":"4","last_reported":1762431723,"current_range_meters":6000,"station_id":"","pricing_plan_id":"cebpf4jnsgd1na2vs0mg"},{"bike_id":"16e8ecd0-1bbc-4db1-8997-1affeee864a8","system_id":"levelo_inurba_marseille","lat":43.29814,"lon":5.44065,"is_reserved":false,"is_disabled":false,"rental_uris":{"android":"levelo://app?vid=16e8ecd0-1bbc-4db1-8997-1affeee864a8","ios":"levelo://app?vid=16e8ecd0-1bbc-4db1-8997-1affeee864a8"},"vehicle_type_id":"4","last_reported":1762431723,"current_range_meters":6000,"station_id":"st_d3jp68qikq2c7381ktn0","pricing_plan_id":"cebpf4jnsgd1na2vs0mg"},{"bike_id":"ea4f4b84-78b0-4180-a7f8-ecb8c6182713","system_id":"levelo_inurba_marseille","lat":43.2953,"lon":5.36104,"is_reserved":false,"is_disabled":true,"rental_uris":{"android":"levelo://app?vid=ea4f4b84-78b0-4180-a7f8-ecb8c6182713","ios":"levelo://app?vid=ea4f4b84-78b0-4180-a7f8-ecb8c6182713"},"vehicle_type_id":"4","last_reported":1762431723,"current_range_meters":6000,"station_id":"","pricing_plan_id":"cebpf4jnsgd1na2vs0mg"},{"bike_id":"03e6a4f6-58d1-44ab-a68b-8911a696a02d","system_id":"levelo_inurba_marseille","lat":43.30888,"lon":5.39658,"is_reserved":false,"is_disabled":false,"rental_uris":{"android":"levelo://app?vid=03e6a4f6-58d1-44ab-a68b-8911a696a02d","ios":"levelo://app?vid=03e6a4f6-58d1-44ab-a68b-8911a696a02d"},"vehicle_type_id":"4","last_reported":1762431723,"current_range_meters":6000,"station_id":"ce4bh012rcd13ifvqcv0","pricing_plan_id":"cebpf4jnsgd1na2vs0mg"},{"bike_id":"ea390113-4167-44d7-9168-5439be3cb001","system_id":"levelo_inurba_marseille","lat":43.29914,"lon":5.37472,"is_reserved":false,"is_disabled":false,"rental_uris":{"android":"levelo://app?vid=ea390113-4167-44d7-9168-5439be3cb001","ios":"levelo://app?vid=ea390113-4167-44d7-9168-5439be3cb001"},"vehicle_type_id":"4","last_reported":1762431723,"current_range_meters":6000,"station_id":"ce4bgjh2rcd13ifvqbg0","pricing_plan_id":"cebpf4jnsgd1na2vs0mg"},{"bike_id":"9db23817-100d-4feb-906a-faeaa5a942cd","system_id":"levelo_inurba_marseille","lat":43.30528,"lon":5.3652,"is_reserved":false,"is_disabled":false,"rental_uris":{"android":"levelo://app?vid=9db23817-100d-4feb-906a-faeaa5a942cd","ios":"levelo://app?vid=9db23817-100d-4feb-906a-faeaa5a942cd"},"vehicle_type_id":"4","last_reported":1762431723,"current_range_meters":6000,"station_id":"","pricing_plan_id":"cebpf4jnsgd1na2vs0mg"},{"bike_id":"88c6174e-347b-46fd-bb97-b08f443e1027","system_id":"levelo_inurba_marseille","lat":43.30119,"lon":5.3812,"is_reserved":false,"is_disabled":false,"rental_uris":{"android":"levelo://app?vid=88c6174e-347b-46fd-bb97-b08f443e1027","ios":"levelo://app?vid=88c6174e-347b-46fd-bb97-b08f443e1027"},"vehicle_type_id":"4","last_reported":1762431723,"current_range_meters":6000,"station_id":"","pricing_plan_id":"cebpf4jnsgd1na2vs0mg"},{"bike_id":"a795872e-1e3c-4623-beb5-7385b95c3e8e","system_id":"levelo_inurba_marseille","lat":43.28971,"lon":5.3784,"is_reserved":false,"is_disabled":false,"rental_uris":{"android":"levelo://app?vid=a795872e-1e3c-4623-beb5-7385b95c3e8e","ios":"levelo://app?vid=a795872e-1e3c-4623-beb5-7385b95c3e8e"},"vehicle_type_id":"4","last_reported":1762431723,"current_range_meters":6400,"station_id":"ce4bh9p2rcd13ifvqed0","pricing_plan_id":"cebpf4jnsgd1na2vs0mg"},{"bike_id":"2d974836-e9bc-45e5-beae-d771135a49fa","system_id":"levelo_inurba_marseille","lat":43.27619,"lon":5.36107,"is_reserved":false,"is_disabled":false,"rental_uris":{"android":"levelo://app?vid=2d974836-e9bc-45e5-beae-d771135a49fa","ios":"levelo://app?vid=2d974836-e9bc-45e5-beae-d771135a49fa"},"vehicle_type_id":"4","last_reported":1762431723,"current_range_meters":6400,"station_id":"ce4bgj92rcd13ifvqbe0","pricing_plan_id":"cebpf4jnsgd1na2vs0mg"},{"bike_id":"36dadbf7-a228-4f6f-8b08-391008b68693","system_id":"levelo_inurba_marseille","lat":43.345513,"lon":5.368426,"is_reserved":false,"is_disabled":false,"rental_uris":{"android":"levelo://app?vid=36dadbf7-a228-4f6f-8b08-391008b68693","ios":"levelo://app?vid=36dadbf7-a228-4f6f-8b08-391008b68693"},"vehicle_type_id":"4","last_reported":1762431723,"current_range_meters":6800,"station_id":"","pricing_plan_id":"cebpf4jnsgd1na2vs0mg"},{"bike_id":"55c11397-133f-4a1e-b6f6-fa3bc535bfa1","system_id":"levelo_inurba_marseille","lat":43.27432,"lon":5.39418,"is_reserved":false,"is_disabled":false,"rental_uris":{"android":"levelo://app?vid=55c11397-133f-4a1e-b6f6-fa3bc535bfa1","ios":"levelo://app?vid=55c11397-133f-4a1e-b6f6-fa3bc535bfa1"},"vehicle_type_id":"4","last_reported":1762431723,"current_range_meters":6800,"station_id":"ce4bhdp2rcd13ifvqf20","pricing_plan_id":"cebpf4jnsgd1na2vs0mg"},{"bike_id":"e7002296-a724-4792-9c77-9aa7da662e7d","system_id":"levelo_inurba_marseille","lat":43.29752,"lon":5.36248,"is_reserved":false,"is_disabled":false,"rental_uris":{"android":"levelo://app?vid=e7002296-a724-4792-9c77-9aa7da662e7d","ios":"levelo://app?vid=e7002296-a724-4792-9c77-9aa7da662e7d"},"vehicle_type_id":"4","last_reported":1762431723,"current_range_meters":6800,"station_id":"","pricing_plan_id":"cebpf4jnsgd1na2vs0mg"},{"bike_id":"9ab09cb1-c492-4571-8a54-31a32ae4292d","system_id":"levelo_inurba_marseille","lat":43.273167,"lon":5.390897,"is_reserved":false,"is_disabled":false,"rental_uris":{"android":"levelo://app?vid=9ab09cb1-c492-4571-8a54-31a32ae4292d","ios":"levelo://app?vid=9ab09cb1-c492-4571-8a54-31a32ae4292d"},"vehicle_type_id":"4","last_reported":1762431723,"current_range_meters":7200,"station_id":"ce4bhgp2rcd13ifvqfe0","pricing_plan_id":"cebpf4jnsgd1na2vs0mg"},{"bike_id":"241674d5-8adf-4f03-95cc-d981036b4086","system_id":"levelo_inurba_marseille","lat":43.28471,"lon":5.3842,"is_reserved":false,"is_disabled":false,"rental_uris":{"android":"levelo://app?vid=241674d5-8adf-4f03-95cc-d981036b4086","ios":"levelo://app?vid=241674d5-8adf-4f03-95cc-d981036b4086"},"vehicle_type_id":"4","last_reported":1762431723,"current_range_meters":7200,"station_id":"ce4bh512rcd13ifvqe3g","pricing_plan_id":"cebpf4jnsgd1na2vs0mg"},{"bike_id":"b565574a-9bdf-4792-b451-221643610acf","system_id":"levelo_inurba_marseille","lat":43.22535,"lon":5.34834,"is_reserved":false,"is_disabled":false,"rental_uris":{"android":"levelo://app?vid=b565574a-9bdf-4792-b451-221643610acf","ios":"levelo://app?vid=b565574a-9bdf-4792-b451-221643610acf"},"vehicle_type_id":"4","last_reported":1762431723,"current_range_meters":7200,"station_id":"","pricing_plan_id":"cebpf4jnsgd1na2vs0mg"},{"bike_id":"ed8e7bc1-5378-494f-912b-a55c9760132f","system_id":"levelo_inurba_marseille","lat":43.23782,"lon":5.36642,"is_reserved":false,"is_disabled":false,"rental_uris":{"android":"levelo://app?vid=ed8e7bc1-5378-494f-912b-a55c9760132f","ios":"levelo://app?vid=ed8e7bc1-5378-494f-912b-a55c9760132f"},"vehicle_type_id":"4","last_reported":1762431723,"current_range_meters":7200,"station_id":"st_d3nk18o9ro0c73en2l3g","pricing_plan_id":"cebpf4jnsgd1na2vs0mg"},{"bike_id":"4bfeb54d-285c-4582-b042-4ab0555ef41d","system_id":"levelo_inurba_marseille","lat":43.2842,"lon":5.34977,"is_reserved":false,"is_disabled":false,"rental_uris":{"android":"levelo://app?vid=4bfeb54d-285c-4582-b042-4ab0555ef41d","ios":"levelo://app?vid=4bfeb54d-285c-4582-b042-4ab0555ef41d"},"vehicle_type_id":"4","last_reported":1762431723,"current_range_meters":7200,"station_id":"ce4bhbh2rcd13ifvqepg","pricing_plan_id":"cebpf4jnsgd1na2vs0mg"},{"bike_id":"765b9661-2b24-4c0f-a9fb-732d7409b10c","system_id":"levelo_inurba_marseille","lat":43.21614,"lon":5.34429,"is_reserved":false,"is_disabled":false,"rental_uris":{"android":"levelo://app?vid=765b9661-2b24-4c0f-a9fb-732d7409b10c","ios":"levelo://app?vid=765b9661-2b24-4c0f-a9fb-732d7409b10c"},"vehicle_type_id":"4","last_reported":1762431723,"current_range_meters":7200,"station_id":"","pricing_plan_id":"cebpf4jnsgd1na2vs0mg"},{"bike_id":"7d9ad092-ce2a-4bee-856c-cc38892326e3","system_id":"levelo_inurba_marseille","lat":43.32541,"lon":5.41426,"is_reserved":false,"is_disabled":false,"rental_uris":{"android":"levelo://app?vid=7d9ad092-ce2a-4bee-856c-cc38892326e3","ios":"levelo://app?vid=7d9ad092-ce2a-4bee-856c-cc38892326e3"},"vehicle_type_id":"4","last_reported":1762431723,"current_range_meters":7200,"station_id":"ce4bhq12rcd13ifvqhhg","pricing_plan_id":"cebpf4jnsgd1na2vs0mg"},{"bike_id":"dcd7cc05-09ca-451c-b5c3-aec30ed844a3","system_id":"levelo_inurba_marseille","lat":43.294743,"lon":5.427303,"is_reserved":false,"is_disabled":false,"rental_uris":{"android":"levelo://app?vid=dcd7cc05-09ca-451c-b5c3-aec30ed844a3","ios":"levelo://app?vid=dcd7cc05-09ca-451c-b5c3-aec30ed844a3"},"vehicle_type_id":"4","last_reported":1762431723,"current_range_meters":8000,"station_id":"","pricing_plan_id":"cebpf4jnsgd1na2vs0mg"},{"bike_id":"e63b906b-1e2b-4b0e-bbf0-4d3516fe1c53","system_id":"levelo_inurba_marseille","lat":43.29635,"lon":5.41912,"is_reserved":false,"is_disabled":false,"rental_uris":{"android":"levelo://app?vid=e63b906b-1e2b-4b0e-bbf0-4d3516fe1c53","ios":"levelo://app?vid=e63b906b-1e2b-4b0e-bbf0-4d3516fe1c53"},"vehicle_type_id":"4","last_reported":1762431723,"current_range_meters":8000,"station_id":"","pricing_plan_id":"cebpf4jnsgd1na2vs0mg"},{"bike_id":"ac3661dd-248f-4b92-ad04-1fbf8e5c6660","system_id":"levelo_inurba_marseille","lat":43.28028,"lon":5.36955,"is_reserved":false,"is_disabled":true,"rental_uris":{"android":"levelo://app?vid=ac3661dd-248f-4b92-ad04-1fbf8e5c6660","ios":"levelo://app?vid=ac3661dd-248f-4b92-ad04-1fbf8e5c6660"},"vehicle_type_id":"4","last_reported":1762431723,"current_range_meters":8000,"station_id":"ce4bha12rcd13ifvqef0","pricing_plan_id":"cebpf4jnsgd1na2vs0mg"},{"bike_id":"5acdc11c-6c1f-444c-bb57-d16d4f340efc","system_id":"levelo_inurba_marseille","lat":43.246346,"lon":5.431448,"is_reserved":false,"is_disabled":false,"rental_uris":{"android":"levelo://app?vid=5acdc11c-6c1f-444c-bb57-d16d4f340efc","ios":"levelo://app?vid=5acdc11c-6c1f-444c-bb57-d16d4f340efc"},"vehicle_type_id":"4","last_reported":1762431723,"current_range_meters":8400,"station_id":"st_d2m6c4gdas8pm72e190g","pricing_plan_id":"cebpf4jnsgd1na2vs0mg"},{"bike_id":"02c565c9-e1be-4475-b1a9-b37751cdb830","system_id":"levelo_inurba_marseille","lat":43.34322,"lon":5.34824,"is_reserved":false,"is_disabled":false,"rental_uris":{"android":"levelo://app?vid=02c565c9-e1be-4475-b1a9-b37751cdb830","ios":"levelo://app?vid=02c565c9-e1be-4475-b1a9-b37751cdb830"},"vehicle_type_id":"4","last_reported":1762431723,"current_range_meters":8400,"station_id":"","pricing_plan_id":"cebpf4jnsgd1na2vs0mg"},{"bike_id":"94b0c8b8-8f4c-4510-99c3-3125e8372759","system_id":"levelo_inurba_marseille","lat":43.27072,"lon":5.42295,"is_reserved":false,"is_disabled":false,"rental_uris":{"android":"levelo://app?vid=94b0c8b8-8f4c-4510-99c3-3125e8372759","ios":"levelo://app?vid=94b0c8b8-8f4c-4510-99c3-3125e8372759"},"vehicle_type_id":"4","last_reported":1762431723,"current_range_meters":8400,"station_id":"ce4bhk92rcd13ifvqgb0","pricing_plan_id":"cebpf4jnsgd1na2vs0mg"},{"bike_id":"3ed02add-87f3-41d7-bdf1-1cf82493034f","system_id":"levelo_inurba_marseille","lat":43.29311,"lon":5.38334,"is_reserved":false,"is_disabled":false,"rental_uris":{"android":"levelo://app?vid=3ed02add-87f3-41d7-bdf1-1cf82493034f","ios":"levelo://app?vid=3ed02add-87f3-41d7-bdf1-1cf82493034f"},"vehicle_type_id":"4","last_reported":1762431723,"current_range_meters":8400,"station_id":"","pricing_plan_id":"cebpf4jnsgd1na2vs0mg"},{"bike_id":"a27d82a7-fb40-43b0-8d89-f822bd7fec77","system_id":"levelo_inurba_marseille","lat":43.248869,"lon":5.37483,"is_reserved":false,"is_disabled":false,"rental_uris":{"android":"levelo://app?vid=a27d82a7-fb40-43b0-8d89-f822bd7fec77","ios":"levelo://app?vid=a27d82a7-fb40-43b0-8d89-f822bd7fec77"},"vehicle_type_id":"4","last_reported":1762431723,"current_range_meters":8400,"station_id":"ce4bhlp2rcd13ifvqgjg","pricing_plan_id":"cebpf4jnsgd1na2vs0mg"},{"bike_id":"2b8d7a93-23cc-4c44-a9e8-ba127b0a2a61","system_id":"levelo_inurba_marseille","lat":43.29491,"lon":5.43306,"is_reserved":false,"is_disabled":false,"rental_uris":{"android":"levelo://app?vid=2b8d7a93-23cc-4c44-a9e8-ba127b0a2a61","ios":"levelo://app?vid=2b8d7a93-23cc-4c44-a9e8-ba127b0a2a61"},"vehicle_type_id":"4","last_reported":1762431723,"current_range_meters":8400,"station_id":"st_d3j5ugp08ojc73fj9d10","pricing_plan_id":"cebpf4jnsgd1na2vs0mg"},{"bike_id":"d3a8c452-bd73-4909-9cfe-f1c0285f3d0c","system_id":"levelo_inurba_marseille","lat":43.2847,"lon":5.48407,"is_reserved":false,"is_disabled":false,"rental_uris":{"android":"levelo://app?vid=d3a8c452-bd73-4909-9cfe-f1c0285f3d0c","ios":"levelo://app?vid=d3a8c452-bd73-4909-9cfe-f1c0285f3d0c"},"vehicle_type_id":"4","last_reported":1762431723,"current_range_meters":8800,"station_id":"","pricing_plan_id":"cebpf4jnsgd1na2vs0mg"},{"bike_id":"8ce6d135-902a-48be-89c2-0a92934fd1e3","system_id":"levelo_inurba_marseille","lat":43.260449,"lon":5.39406,"is_reserved":false,"is_disabled":false,"rental_uris":{"android":"levelo://app?vid=8ce6d135-902a-48be-89c2-0a92934fd1e3","ios":"levelo://app?vid=8ce6d135-902a-48be-89c2-0a92934fd1e3"},"vehicle_type_id":"4","last_reported":1762431723,"current_range_meters":8800,"station_id":"ce4bhh92rcd13ifvqfj0","pricing_plan_id":"cebpf4jnsgd1na2vs0mg"},{"bike_id":"571bd3a6-912b-44a3-9841-50c558a61481","system_id":"levelo_inurba_marseille","lat":43.28101,"lon":5.40588,"is_reserved":false,"is_disabled":false,"rental_uris":{"android":"levelo://app?vid=571bd3a6-912b-44a3-9841-50c558a61481","ios":"levelo://app?vid=571bd3a6-912b-44a3-9841-50c558a61481"},"vehicle_type_id":"4","last_reported":1762431723,"current_range_meters":8800,"station_id":"","pricing_plan_id":"cebpf4jnsgd1na2vs0mg"},{"bike_id":"db22803a-4cf8-4159-a31b-a9287364c9f7","system_id":"levelo_inurba_marseille","lat":43.27427,"lon":5.39427,"is_reserved":false,"is_disabled":false,"rental_uris":{"android":"levelo://app?vid=db22803a-4cf8-4159-a31b-a9287364c9f7","ios":"levelo://app?vid=db22803a-4cf8-4159-a31b-a9287364c9f7"},"vehicle_type_id":"4","last_reported":1762431723,"current_range_meters":8800,"station_id":"ce4bhdp2rcd13ifvqf20","pricing_plan_id":"cebpf4jnsgd1na2vs0mg"},{"bike_id":"42008d85-be8e-4a37-b21f-1004e9adac96","system_id":"levelo_inurba_marseille","lat":43.24546,"lon":5.39524,"is_reserved":false,"is_disabled":false,"rental_uris":{"android":"levelo://app?vid=42008d85-be8e-4a37-b21f-1004e9adac96","ios":"levelo://app?vid=42008d85-be8e-4a37-b21f-1004e9adac96"},"vehicle_type_id":"4","last_reported":1762431723,"current_range_meters":8800,"station_id":"ce4bhlp2rcd13ifvqgjg","pricing_plan_id":"cebpf4jnsgd1na2vs0mg"},{"bike_id":"0fab926b-c2b2-4770-9b15-0f7a0ec0119a","system_id":"levelo_inurba_marseille","lat":43.29096,"lon":5.38124,"is_reserved":false,"is_disabled":false,"rental_uris":{"android":"levelo://app?vid=0fab926b-c2b2-4770-9b15-0f7a0ec0119a","ios":"levelo://app?vid=0fab926b-c2b2-4770-9b15-0f7a0ec0119a"},"vehicle_type_id":"4","last_reported":1762431723,"current_range_meters":8800,"station_id":"ce4bh512rcd13ifvqe2g","pricing_plan_id":"cebpf4jnsgd1na2vs0mg"},{"bike_id":"f4d1e15f-151b-4330-8bb3-d2bb64080634","system_id":"levelo_inurba_marseille","lat":43.290478,"lon":5.359347,"is_reserved":false,"is_disabled":false,"rental_uris":{"android":"levelo://app?vid=f4d1e15f-151b-4330-8bb3-d2bb64080634","ios":"levelo://app?vid=f4d1e15f-151b-4330-8bb3-d2bb64080634"},"vehicle_type_id":"4","last_reported":1762431723,"current_range_meters":8800,"station_id":"ce4bha92rcd13ifvqeg0","pricing_plan_id":"cebpf4jnsgd1na2vs0mg"},{"bike_id":"a80322af-ed5b-4292-a927-2fe8792435d5","system_id":"levelo_inurba_marseille","lat":43.294116,"lon":5.384765,"is_reserved":false,"is_disabled":false,"rental_uris":{"android":"levelo://app?vid=a80322af-ed5b-4292-a927-2fe8792435d5","ios":"levelo://app?vid=a80322af-ed5b-4292-a927-2fe8792435d5"},"vehicle_type_id":"4","last_reported":1762431723,"current_range_meters":8800,"station_id":"","pricing_plan_id":"cebpf4jnsgd1na2vs0mg"},{"bike_id":"be94565f-c029-49ca-9a74-9de7ddbbce1b","system_id":"levelo_inurba_marseille","lat":43.28346,"lon":5.38111,"is_reserved":false,"is_disabled":false,"rental_uris":{"android":"levelo://app?vid=be94565f-c029-49ca-9a74-9de7ddbbce1b","ios":"levelo://app?vid=be94565f-c029-49ca-9a74-9de7ddbbce1b"},"vehicle_type_id":"4","last_reported":1762431723,"current_range_meters":9200,"station_id":"ce4bh412rcd13ifvqdr0","pricing_plan_id":"cebpf4jnsgd1na2vs0mg"},{"bike_id":"72a98681-547d-4960-ae98-985b359b95a3","system_id":"levelo_inurba_marseille","lat":43.28656,"lon":5.36348,"is_reserved":false,"is_disabled":true,"rental_uris":{"android":"levelo://app?vid=72a98681-547d-4960-ae98-985b359b95a3","ios":"levelo://app?vid=72a98681-547d-4960-ae98-985b359b95a3"},"vehicle_type_id":"4","last_reported":1762431723,"current_range_meters":9200,"station_id":"ce4bhah2rcd13ifvqej0","pricing_plan_id":"cebpf4jnsgd1na2vs0mg"},{"bike_id":"78a2d1c4-e446-49cb-96eb-bcb004fd8b6b","system_id":"levelo_inurba_marseille","lat":43.29277,"lon":5.38448,"is_reserved":false,"is_disabled":false,"rental_uris":{"android":"levelo://app?vid=78a2d1c4-e446-49cb-96eb-bcb004fd8b6b","ios":"levelo://app?vid=78a2d1c4-e446-49cb-96eb-bcb004fd8b6b"},"vehicle_type_id":"4","last_reported":1762431723,"current_range_meters":9200,"station_id":"ce4bh692rcd13ifvqea0","pricing_plan_id":"cebpf4jnsgd1na2vs0mg"},{"bike_id":"b8ed7b94-8e78-46f8-af24-5688da9875e4","system_id":"levelo_inurba_marseille","lat":43.30541,"lon":5.36524,"is_reserved":false,"is_disabled":false,"rental_uris":{"android":"levelo://app?vid=b8ed7b94-8e78-46f8-af24-5688da9875e4","ios":"levelo://app?vid=b8ed7b94-8e78-46f8-af24-5688da9875e4"},"vehicle_type_id":"4","last_reported":1762431723,"current_range_meters":9600,"station_id":"ce4bgs12rcd13ifvqcag","pricing_plan_id":"cebpf4jnsgd1na2vs0mg"},{"bike_id":"7bd9f9f2-f971-4abf-83bc-1a072f3680fa","system_id":"levelo_inurba_marseille","lat":43.29777,"lon":5.371,"is_reserved":false,"is_disabled":false,"rental_uris":{"android":"levelo://app?vid=7bd9f9f2-f971-4abf-83bc-1a072f3680fa","ios":"levelo://app?vid=7bd9f9f2-f971-4abf-83bc-1a072f3680fa"},"vehicle_type_id":"4","last_reported":1762431723,"current_range_meters":9600,"station_id":"ce4bgop2rcd13ifvqc1g","pricing_plan_id":"cebpf4jnsgd1na2vs0mg"},{"bike_id":"e6299803-687a-44f7-ab77-c666f6f13b58","system_id":"levelo_inurba_marseille","lat":43.33588,"lon":5.40995,"is_reserved":false,"is_disabled":false,"rental_uris":{"android":"levelo://app?vid=e6299803-687a-44f7-ab77-c666f6f13b58","ios":"levelo://app?vid=e6299803-687a-44f7-ab77-c666f6f13b58"},"vehicle_type_id":"4","last_reported":1762431723,"current_range_meters":10000,"station_id":"ce4bhqh2rcd13ifvqhmg","pricing_plan_id":"cebpf4jnsgd1na2vs0mg"},{"bike_id":"49a3088a-96fb-49d1-a1ac-b5faedca203a","system_id":"levelo_inurba_marseille","lat":43.309275,"lon":5.401406,"is_reserved":false,"is_disabled":false,"rental_uris":{"android":"levelo://app?vid=49a3088a-96fb-49d1-a1ac-b5faedca203a","ios":"levelo://app?vid=49a3088a-96fb-49d1-a1ac-b5faedca203a"},"vehicle_type_id":"4","last_reported":1762431723,"current_range_meters":10000,"station_id":"ce4bgvp2rcd13ifvqct0","pricing_plan_id":"cebpf4jnsgd1na2vs0mg"},{"bike_id":"341b8648-1055-4832-9a1f-322572b56071","system_id":"levelo_inurba_marseille","lat":43.312192,"lon":5.368631,"is_reserved":false,"is_disabled":false,"rental_uris":{"android":"levelo://app?vid=341b8648-1055-4832-9a1f-322572b56071","ios":"levelo://app?vid=341b8648-1055-4832-9a1f-322572b56071"},"vehicle_type_id":"4","last_reported":1762431723,"current_range_meters":10000,"station_id":"","pricing_plan_id":"cebpf4jnsgd1na2vs0mg"},{"bike_id":"794b0378-7658-40ab-8f57-a84e739e60bf","system_id":"levelo_inurba_marseille","lat":43.24171,"lon":5.39731,"is_reserved":false,"is_disabled":false,"rental_uris":{"android":"levelo://app?vid=794b0378-7658-40ab-8f57-a84e739e60bf","ios":"levelo://app?vid=794b0378-7658-40ab-8f57-a84e739e60bf"},"vehicle_type_id":"4","last_reported":1762431723,"current_range_meters":10000,"station_id":"ce4bhn12rcd13ifvqgpg","pricing_plan_id":"cebpf4jnsgd1na2vs0mg"},{"bike_id":"81dcc136-dea2-46c0-98af-42dbdee92b54","system_id":"levelo_inurba_marseille","lat":43.28467,"lon":5.48418,"is_reserved":false,"is_disabled":false,"rental_uris":{"android":"levelo://app?vid=81dcc136-dea2-46c0-98af-42dbdee92b54","ios":"levelo://app?vid=81dcc136-dea2-46c0-98af-42dbdee92b54"},"vehicle_type_id":"4","last_reported":1762431723,"current_range_meters":10000,"station_id":"","pricing_plan_id":"cebpf4jnsgd1na2vs0mg"},{"bike_id":"cf00cecc-e009-4de8-919b-c3f609f78b1c","system_id":"levelo_inurba_marseille","lat":43.28853,"lon":5.39314,"is_reserved":false,"is_disabled":false,"rental_uris":{"android":"levelo://app?vid=cf00cecc-e009-4de8-919b-c3f609f78b1c","ios":"levelo://app?vid=cf00cecc-e009-4de8-919b-c3f609f78b1c"},"vehicle_type_id":"4","last_reported":1762431723,"current_range_meters":10000,"station_id":"ce4bh2p2rcd13ifvqdi0","pricing_plan_id":"cebpf4jnsgd1na2vs0mg"},{"bike_id":"ee4bd169-01c5-4e23-b78e-d453e271adbc","system_id":"levelo_inurba_marseille","lat":43.28401,"lon":5.37519,"is_reserved":false,"is_disabled":false,"rental_uris":{"android":"levelo://app?vid=ee4bd169-01c5-4e23-b78e-d453e271adbc","ios":"levelo://app?vid=ee4bd169-01c5-4e23-b78e-d453e271adbc"},"vehicle_type_id":"4","last_reported":1762431723,"current_range_meters":10000,"station_id":"ce4bh412rcd13ifvqds0","pricing_plan_id":"cebpf4jnsgd1na2vs0mg"},{"bike_id":"94b06f3e-9c43-404e-899a-d1e48d6d7a76","system_id":"levelo_inurba_marseille","lat":43.287102,"lon":5.399967,"is_reserved":false,"is_disabled":false,"rental_uris":{"android":"levelo://app?vid=94b06f3e-9c43-404e-899a-d1e48d6d7a76","ios":"levelo://app?vid=94b06f3e-9c43-404e-899a-d1e48d6d7a76"},"vehicle_type_id":"4","last_reported":1762431723,"current_range_meters":10800,"station_id":"ce4bho92rcd13ifvqh3g","pricing_plan_id":"cebpf4jnsgd1na2vs0mg"},{"bike_id":"bcb3c39b-ec48-48ef-9eac-eb8b71840959","system_id":"levelo_inurba_marseille","lat":43.33757,"lon":5.37464,"is_reserved":false,"is_disabled":false,"rental_uris":{"android":"levelo://app?vid=bcb3c39b-ec48-48ef-9eac-eb8b71840959","ios":"levelo://app?vid=bcb3c39b-ec48-48ef-9eac-eb8b71840959"},"vehicle_type_id":"4","last_reported":1762431723,"current_range_meters":10800,"station_id":"","pricing_plan_id":"cebpf4jnsgd1na2vs0mg"},{"bike_id":"ea668466-7c20-4f26-a1ba-3e084bc4a00a","system_id":"levelo_inurba_marseille","lat":43.29976,"lon":5.37178,"is_reserved":false,"is_disabled":false,"rental_uris":{"android":"levelo://app?vid=ea668466-7c20-4f26-a1ba-3e084bc4a00a","ios":"levelo://app?vid=ea668466-7c20-4f26-a1ba-3e084bc4a00a"},"vehicle_type_id":"4","last_reported":1762431723,"current_range_meters":10800,"station_id":"ce4bgr92rcd13ifvqc7g","pricing_plan_id":"cebpf4jnsgd1na2vs0mg"},{"bike_id":"4650e02f-f60a-4ff2-a214-56837e0e12af","system_id":"levelo_inurba_marseille","lat":43.26029,"lon":5.37549,"is_reserved":false,"is_disabled":false,"rental_uris":{"android":"levelo://app?vid=4650e02f-f60a-4ff2-a214-56837e0e12af","ios":"levelo://app?vid=4650e02f-f60a-4ff2-a214-56837e0e12af"},"vehicle_type_id":"4","last_reported":1762431723,"current_range_meters":11200,"station_id":"ce4bhgh2rcd13ifvqfa0","pricing_plan_id":"cebpf4jnsgd1na2vs0mg"},{"bike_id":"2c89c3ed-62de-4c74-8e11-a37172c6c77b","system_id":"levelo_inurba_marseille","lat":43.22873,"lon":5.4024,"is_reserved":false,"is_disabled":false,"rental_uris":{"android":"levelo://app?vid=2c89c3ed-62de-4c74-8e11-a37172c6c77b","ios":"levelo://app?vid=2c89c3ed-62de-4c74-8e11-a37172c6c77b"},"vehicle_type_id":"4","last_reported":1762431723,"current_range_meters":11200,"station_id":"","pricing_plan_id":"cebpf4jnsgd1na2vs0mg"},{"bike_id":"1e64f841-2523-4052-8332-53bd69dca005","system_id":"levelo_inurba_marseille","lat":43.24071,"lon":5.37763,"is_reserved":false,"is_disabled":false,"rental_uris":{"android":"levelo://app?vid=1e64f841-2523-4052-8332-53bd69dca005","ios":"levelo://app?vid=1e64f841-2523-4052-8332-53bd69dca005"},"vehicle_type_id":"4","last_reported":1762431723,"current_range_meters":11200,"station_id":"ce4bhnp2rcd13ifvqgvg","pricing_plan_id":"cebpf4jnsgd1na2vs0mg"},{"bike_id":"7573b0ce-2bea-4f9b-b8d0-df9704e404a1","system_id":"levelo_inurba_marseille","lat":43.337444,"lon":5.374475,"is_reserved":false,"is_disabled":false,"rental_uris":{"android":"levelo://app?vid=7573b0ce-2bea-4f9b-b8d0-df9704e404a1","ios":"levelo://app?vid=7573b0ce-2bea-4f9b-b8d0-df9704e404a1"},"vehicle_type_id":"4","last_reported":1762431723,"current_range_meters":11200,"station_id":"","pricing_plan_id":"cebpf4jnsgd1na2vs0mg"},{"bike_id":"9d36a80c-eae4-4a34-ad9e-249dceebb36f","system_id":"levelo_inurba_marseille","lat":43.29529,"lon":5.38547,"is_reserved":false,"is_disabled":false,"rental_uris":{"android":"levelo://app?vid=9d36a80c-eae4-4a34-ad9e-249dceebb36f","ios":"levelo://app?vid=9d36a80c-eae4-4a34-ad9e-249dceebb36f"},"vehicle_type_id":"4","last_reported":1762431723,"current_range_meters":11200,"station_id":"ce4bgih2rcd13ifvqba0","pricing_plan_id":"cebpf4jnsgd1na2vs0mg"},{"bike_id":"830fa151-368a-4a2c-a7de-f57899cb4b95","system_id":"levelo_inurba_marseille","lat":43.28724,"lon":5.36089,"is_reserved":false,"is_disabled":false,"rental_uris":{"android":"levelo://app?vid=830fa151-368a-4a2c-a7de-f57899cb4b95","ios":"levelo://app?vid=830fa151-368a-4a2c-a7de-f57899cb4b95"},"vehicle_type_id":"4","last_reported":1762431723,"current_range_meters":11600,"station_id":"cki0cbj6b192h4jlfktg","pricing_plan_id":"cebpf4jnsgd1na2vs0mg"},{"bike_id":"a715c0ef-3857-414c-967a-b5d1a542eb13","system_id":"levelo_inurba_marseille","lat":43.22539,"lon":5.34833,"is_reserved":false,"is_disabled":false,"rental_uris":{"android":"levelo://app?vid=a715c0ef-3857-414c-967a-b5d1a542eb13","ios":"levelo://app?vid=a715c0ef-3857-414c-967a-b5d1a542eb13"},"vehicle_type_id":"4","last_reported":1762431723,"current_range_meters":11600,"station_id":"","pricing_plan_id":"cebpf4jnsgd1na2vs0mg"},{"bike_id":"e58ae4a3-103b-43a8-b8af-1414a4fc91bb","system_id":"levelo_inurba_marseille","lat":43.26683,"lon":5.38263,"is_reserved":false,"is_disabled":false,"rental_uris":{"android":"levelo://app?vid=e58ae4a3-103b-43a8-b8af-1414a4fc91bb","ios":"levelo://app?vid=e58ae4a3-103b-43a8-b8af-1414a4fc91bb"},"vehicle_type_id":"4","last_reported":1762431723,"current_range_meters":11600,"station_id":"ce4bhg92rcd13ifvqf90","pricing_plan_id":"cebpf4jnsgd1na2vs0mg"},{"bike_id":"a86f8c4d-f2a3-45a8-a118-df82dc77faea","system_id":"levelo_inurba_marseille","lat":43.30556,"lon":5.36546,"is_reserved":false,"is_disabled":false,"rental_uris":{"android":"levelo://app?vid=a86f8c4d-f2a3-45a8-a118-df82dc77faea","ios":"levelo://app?vid=a86f8c4d-f2a3-45a8-a118-df82dc77faea"},"vehicle_type_id":"4","last_reported":1762431723,"current_range_meters":11600,"station_id":"ce4bgs12rcd13ifvqcag","pricing_plan_id":"cebpf4jnsgd1na2vs0mg"},{"bike_id":"bd3d6166-ef12-455e-9330-7bbb61173a8e","system_id":"levelo_inurba_marseille","lat":43.29843,"lon":5.36287,"is_reserved":false,"is_disabled":false,"rental_uris":{"android":"levelo://app?vid=bd3d6166-ef12-455e-9330-7bbb61173a8e","ios":"levelo://app?vid=bd3d6166-ef12-455e-9330-7bbb61173a8e"},"vehicle_type_id":"4","last_reported":1762431723,"current_range_meters":12000,"station_id":"ce4bgpp2rcd13ifvqc3g","pricing_plan_id":"cebpf4jnsgd1na2vs0mg"},{"bike_id":"dae30738-204c-4787-a9b5-e056fa94e0c9","system_id":"levelo_inurba_marseille","lat":43.22569,"lon":5.41617,"is_reserved":false,"is_disabled":false,"rental_uris":{"android":"levelo://app?vid=dae30738-204c-4787-a9b5-e056fa94e0c9","ios":"levelo://app?vid=dae30738-204c-4787-a9b5-e056fa94e0c9"},"vehicle_type_id":"4","last_reported":1762431723,"current_range_meters":12000,"station_id":"st_d2o4gvlbi1j2169b742g","pricing_plan_id":"cebpf4jnsgd1na2vs0mg"},{"bike_id":"3fa7c643-4927-4ee3-8da1-aa3907877685","system_id":"levelo_inurba_marseille","lat":43.246437,"lon":5.431515,"is_reserved":false,"is_disabled":false,"rental_uris":{"android":"levelo://app?vid=3fa7c643-4927-4ee3-8da1-aa3907877685","ios":"levelo://app?vid=3fa7c643-4927-4ee3-8da1-aa3907877685"},"vehicle_type_id":"4","last_reported":1762431723,"current_range_meters":12000,"station_id":"st_d2m6c4gdas8pm72e190g","pricing_plan_id":"cebpf4jnsgd1na2vs0mg"},{"bike_id":"929999a6-b071-4278-81b4-e68a96607eec","system_id":"levelo_inurba_marseille","lat":43.24073,"lon":5.37782,"is_reserved":false,"is_disabled":false,"rental_uris":{"android":"levelo://app?vid=929999a6-b071-4278-81b4-e68a96607eec","ios":"levelo://app?vid=929999a6-b071-4278-81b4-e68a96607eec"},"vehicle_type_id":"4","last_reported":1762431723,"current_range_meters":12000,"station_id":"ce4bhnp2rcd13ifvqgvg","pricing_plan_id":"cebpf4jnsgd1na2vs0mg"},{"bike_id":"ac476264-8637-45e1-ab30-cfbe9efcde98","system_id":"levelo_inurba_marseille","lat":43.27317,"lon":5.39095,"is_reserved":false,"is_disabled":false,"rental_uris":{"android":"levelo://app?vid=ac476264-8637-45e1-ab30-cfbe9efcde98","ios":"levelo://app?vid=ac476264-8637-45e1-ab30-cfbe9efcde98"},"vehicle_type_id":"4","last_reported":1762431723,"current_range_meters":12000,"station_id":"ce4bhgp2rcd13ifvqfe0","pricing_plan_id":"cebpf4jnsgd1na2vs0mg"},{"bike_id":"d10d48cb-0ddd-426b-9e8f-8e99183b228d","system_id":"levelo_inurba_marseille","lat":43.29099,"lon":5.3813,"is_reserved":false,"is_disabled":false,"rental_uris":{"android":"levelo://app?vid=d10d48cb-0ddd-426b-9e8f-8e99183b228d","ios":"levelo://app?vid=d10d48cb-0ddd-426b-9e8f-8e99183b228d"},"vehicle_type_id":"4","last_reported":1762431723,"current_range_meters":12000,"station_id":"ce4bh512rcd13ifvqe2g","pricing_plan_id":"cebpf4jnsgd1na2vs0mg"},{"bike_id":"325aef59-3b80-4e47-a89c-5c976388eeb5","system_id":"levelo_inurba_marseille","lat":43.29163,"lon":5.37165,"is_reserved":false,"is_disabled":false,"rental_uris":{"android":"levelo://app?vid=325aef59-3b80-4e47-a89c-5c976388eeb5","ios":"levelo://app?vid=325aef59-3b80-4e47-a89c-5c976388eeb5"},"vehicle_type_id":"4","last_reported":1762431723,"current_range_meters":12000,"station_id":"ce4bha92rcd13ifvqeh0","pricing_plan_id":"cebpf4jnsgd1na2vs0mg"},{"bike_id":"a7e7f257-1ec0-45fa-ba2a-d37e356947c5","system_id":"levelo_inurba_marseille","lat":43.28558,"lon":5.39489,"is_reserved":false,"is_disabled":false,"rental_uris":{"android":"levelo://app?vid=a7e7f257-1ec0-45fa-ba2a-d37e356947c5","ios":"levelo://app?vid=a7e7f257-1ec0-45fa-ba2a-d37e356947c5"},"vehicle_type_id":"4","last_reported":1762431723,"current_range_meters":12400,"station_id":"ce4bh292rcd13ifvqdg0","pricing_plan_id":"cebpf4jnsgd1na2vs0mg"},{"bike_id":"71780e99-fa28-419a-90c0-bdb3d098d5ca","system_id":"levelo_inurba_marseille","lat":43.30168,"lon":5.38088,"is_reserved":false,"is_disabled":false,"rental_uris":{"android":"levelo://app?vid=71780e99-fa28-419a-90c0-bdb3d098d5ca","ios":"levelo://app?vid=71780e99-fa28-419a-90c0-bdb3d098d5ca"},"vehicle_type_id":"4","last_reported":1762431723,"current_range_meters":12400,"station_id":"ce4bgjp2rcd13ifvqbh0","pricing_plan_id":"cebpf4jnsgd1na2vs0mg"},{"bike_id":"09ed3eb5-c2d4-4c5e-b9d1-44fb102a0a7e","system_id":"levelo_inurba_marseille","lat":43.225665,"lon":5.416316,"is_reserved":false,"is_disabled":false,"rental_uris":{"android":"levelo://app?vid=09ed3eb5-c2d4-4c5e-b9d1-44fb102a0a7e","ios":"levelo://app?vid=09ed3eb5-c2d4-4c5e-b9d1-44fb102a0a7e"},"vehicle_type_id":"4","last_reported":1762431723,"current_range_meters":12400,"station_id":"st_d2o4gvlbi1j2169b742g","pricing_plan_id":"cebpf4jnsgd1na2vs0mg"},{"bike_id":"d0b0b105-0a96-4a93-973d-2149e05c5d66","system_id":"levelo_inurba_marseille","lat":43.301518,"lon":5.380991,"is_reserved":false,"is_disabled":false,"rental_uris":{"android":"levelo://app?vid=d0b0b105-0a96-4a93-973d-2149e05c5d66","ios":"levelo://app?vid=d0b0b105-0a96-4a93-973d-2149e05c5d66"},"vehicle_type_id":"4","last_reported":1762431723,"current_range_meters":12400,"station_id":"ce4bgjp2rcd13ifvqbh0","pricing_plan_id":"cebpf4jnsgd1na2vs0mg"},{"bike_id":"7379c795-f276-4d4b-8980-a413e7149d3a","system_id":"levelo_inurba_marseille","lat":43.27957,"lon":5.3875,"is_reserved":false,"is_disabled":false,"rental_uris":{"android":"levelo://app?vid=7379c795-f276-4d4b-8980-a413e7149d3a","ios":"levelo://app?vid=7379c795-f276-4d4b-8980-a413e7149d3a"},"vehicle_type_id":"4","last_reported":1762431723,"current_range_meters":12800,"station_id":"ce4bhg12rcd13ifvqf80","pricing_plan_id":"cebpf4jnsgd1na2vs0mg"},{"bike_id":"8d00dbca-b5c1-42d2-89ba-f167016578da","system_id":"levelo_inurba_marseille","lat":43.298506,"lon":5.362769,"is_reserved":false,"is_disabled":false,"rental_uris":{"android":"levelo://app?vid=8d00dbca-b5c1-42d2-89ba-f167016578da","ios":"levelo://app?vid=8d00dbca-b5c1-42d2-89ba-f167016578da"},"vehicle_type_id":"4","last_reported":1762431723,"current_range_meters":12800,"station_id":"ce4bgpp2rcd13ifvqc3g","pricing_plan_id":"cebpf4jnsgd1na2vs0mg"},{"bike_id":"80263a0e-9653-475d-a31a-06390ffd363c","system_id":"levelo_inurba_marseille","lat":43.24642,"lon":5.43125,"is_reserved":false,"is_disabled":false,"rental_uris":{"android":"levelo://app?vid=80263a0e-9653-475d-a31a-06390ffd363c","ios":"levelo://app?vid=80263a0e-9653-475d-a31a-06390ffd363c"},"vehicle_type_id":"4","last_reported":1762431723,"current_range_meters":12800,"station_id":"st_d2m6c4gdas8pm72e190g","pricing_plan_id":"cebpf4jnsgd1na2vs0mg"},{"bike_id":"3ffe2c7b-f27f-49bd-95c3-0ecfbf0880d2","system_id":"levelo_inurba_marseille","lat":43.307,"lon":5.38446,"is_reserved":false,"is_disabled":false,"rental_uris":{"android":"levelo://app?vid=3ffe2c7b-f27f-49bd-95c3-0ecfbf0880d2","ios":"levelo://app?vid=3ffe2c7b-f27f-49bd-95c3-0ecfbf0880d2"},"vehicle_type_id":"4","last_reported":1762431723,"current_range_meters":12800,"station_id":"","pricing_plan_id":"cebpf4jnsgd1na2vs0mg"},{"bike_id":"71967476-752a-4f5e-b222-99c0eea95f39","system_id":"levelo_inurba_marseille","lat":43.32324,"lon":5.38406,"is_reserved":false,"is_disabled":false,"rental_uris":{"android":"levelo://app?vid=71967476-752a-4f5e-b222-99c0eea95f39","ios":"levelo://app?vid=71967476-752a-4f5e-b222-99c0eea95f39"},"vehicle_type_id":"4","last_reported":1762431723,"current_range_meters":12800,"station_id":"","pricing_plan_id":"cebpf4jnsgd1na2vs0mg"},{"bike_id":"ae82e153-80ed-4947-8d1c-abd3913c25a7","system_id":"levelo_inurba_marseille","lat":43.29372,"lon":5.37852,"is_reserved":false,"is_disabled":false,"rental_uris":{"android":"levelo://app?vid=ae82e153-80ed-4947-8d1c-abd3913c25a7","ios":"levelo://app?vid=ae82e153-80ed-4947-8d1c-abd3913c25a7"},"vehicle_type_id":"4","last_reported":1762431723,"current_range_meters":12800,"station_id":"ce4bgjh2rcd13ifvqbf0","pricing_plan_id":"cebpf4jnsgd1na2vs0mg"},{"bike_id":"4e07c06d-c5ee-4ed3-b2f8-a10334235511","system_id":"levelo_inurba_marseille","lat":43.237855,"lon":5.36622,"is_reserved":false,"is_disabled":false,"rental_uris":{"android":"levelo://app?vid=4e07c06d-c5ee-4ed3-b2f8-a10334235511","ios":"levelo://app?vid=4e07c06d-c5ee-4ed3-b2f8-a10334235511"},"vehicle_type_id":"4","last_reported":1762431723,"current_range_meters":13600,"station_id":"st_d3nk18o9ro0c73en2l3g","pricing_plan_id":"cebpf4jnsgd1na2vs0mg"},{"bike_id":"0b9d693a-d4f7-4e09-a7d1-cbe6313a3709","system_id":"levelo_inurba_marseille","lat":43.29787,"lon":5.37101,"is_reserved":false,"is_disabled":false,"rental_uris":{"android":"levelo://app?vid=0b9d693a-d4f7-4e09-a7d1-cbe6313a3709","ios":"levelo://app?vid=0b9d693a-d4f7-4e09-a7d1-cbe6313a3709"},"vehicle_type_id":"4","last_reported":1762431723,"current_range_meters":13600,"station_id":"ce4bgop2rcd13ifvqc1g","pricing_plan_id":"cebpf4jnsgd1na2vs0mg"},{"bike_id":"77769b6f-dd51-4d4b-a9a0-f0ababa9b091","system_id":"levelo_inurba_marseille","lat":43.24806,"lon":5.37461,"is_reserved":false,"is_disabled":false,"rental_uris":{"android":"levelo://app?vid=77769b6f-dd51-4d4b-a9a0-f0ababa9b091","ios":"levelo://app?vid=77769b6f-dd51-4d4b-a9a0-f0ababa9b091"},"vehicle_type_id":"4","last_reported":1762431723,"current_range_meters":13600,"station_id":"ce4bhgh2rcd13ifvqfb0","pricing_plan_id":"cebpf4jnsgd1na2vs0mg"},{"bike_id":"56d34c6d-4b17-45a3-8855-f46cd66b0e07","system_id":"levelo_inurba_marseille","lat":43.24064,"lon":5.37785,"is_reserved":false,"is_disabled":false,"rental_uris":{"android":"levelo://app?vid=56d34c6d-4b17-45a3-8855-f46cd66b0e07","ios":"levelo://app?vid=56d34c6d-4b17-45a3-8855-f46cd66b0e07"},"vehicle_type_id":"4","last_reported":1762431723,"current_range_meters":13600,"station_id":"ce4bhnp2rcd13ifvqgvg","pricing_plan_id":"cebpf4jnsgd1na2vs0mg"},{"bike_id":"ea3493ac-549f-4563-8ebc-3496272766af","system_id":"levelo_inurba_marseille","lat":43.2622,"lon":5.37919,"is_reserved":false,"is_disabled":false,"rental_uris":{"android":"levelo://app?vid=ea3493ac-549f-4563-8ebc-3496272766af","ios":"levelo://app?vid=ea3493ac-549f-4563-8ebc-3496272766af"},"vehicle_type_id":"4","last_reported":1762431723,"current_range_meters":13600,"station_id":"ce4bhjp2rcd13ifvqg90","pricing_plan_id":"cebpf4jnsgd1na2vs0mg"},{"bike_id":"bb1b1199-0aff-4e93-9dcc-486912ec5f57","system_id":"levelo_inurba_marseille","lat":43.24158,"lon":5.3974,"is_reserved":false,"is_disabled":false,"rental_uris":{"android":"levelo://app?vid=bb1b1199-0aff-4e93-9dcc-486912ec5f57","ios":"levelo://app?vid=bb1b1199-0aff-4e93-9dcc-486912ec5f57"},"vehicle_type_id":"4","last_reported":1762431723,"current_range_meters":13600,"station_id":"ce4bhn12rcd13ifvqgpg","pricing_plan_id":"cebpf4jnsgd1na2vs0mg"},{"bike_id":"59b31ef2-3fe3-46e5-b5a5-685f264695ce","system_id":"levelo_inurba_marseille","lat":43.284824,"lon":5.483999,"is_reserved":false,"is_disabled":false,"rental_uris":{"android":"levelo://app?vid=59b31ef2-3fe3-46e5-b5a5-685f264695ce","ios":"levelo://app?vid=59b31ef2-3fe3-46e5-b5a5-685f264695ce"},"vehicle_type_id":"4","last_reported":1762431723,"current_range_meters":13600,"station_id":"","pricing_plan_id":"cebpf4jnsgd1na2vs0mg"},{"bike_id":"1be15ad6-0175-4d9f-ac40-15c34d4992fa","system_id":"levelo_inurba_marseille","lat":43.24178,"lon":5.364032,"is_reserved":false,"is_disabled":false,"rental_uris":{"android":"levelo://app?vid=1be15ad6-0175-4d9f-ac40-15c34d4992fa","ios":"levelo://app?vid=1be15ad6-0175-4d9f-ac40-15c34d4992fa"},"vehicle_type_id":"4","last_reported":1762431723,"current_range_meters":13600,"station_id":"cpo36qri1sfpv3e86is0","pricing_plan_id":"cebpf4jnsgd1na2vs0mg"},{"bike_id":"ab9b2bcc-ea75-449d-adbb-4add292d38c4","system_id":"levelo_inurba_marseille","lat":43.34014,"lon":5.38403,"is_reserved":false,"is_disabled":false,"rental_uris":{"android":"levelo://app?vid=ab9b2bcc-ea75-449d-adbb-4add292d38c4","ios":"levelo://app?vid=ab9b2bcc-ea75-449d-adbb-4add292d38c4"},"vehicle_type_id":"4","last_reported":1762431723,"current_range_meters":14000,"station_id":"","pricing_plan_id":"cebpf4jnsgd1na2vs0mg"},{"bike_id":"ab3a4d6b-b442-44b9-8f02-c1c222f445ba","system_id":"levelo_inurba_marseille","lat":43.27449,"lon":5.392727,"is_reserved":false,"is_disabled":false,"rental_uris":{"android":"levelo://app?vid=ab3a4d6b-b442-44b9-8f02-c1c222f445ba","ios":"levelo://app?vid=ab3a4d6b-b442-44b9-8f02-c1c222f445ba"},"vehicle_type_id":"4","last_reported":1762431723,"current_range_meters":14400,"station_id":"","pricing_plan_id":"cebpf4jnsgd1na2vs0mg"},{"bike_id":"9a7007ab-d863-4c92-a736-9a68d316b6cc","system_id":"levelo_inurba_marseille","lat":43.30148,"lon":5.37421,"is_reserved":false,"is_disabled":false,"rental_uris":{"android":"levelo://app?vid=9a7007ab-d863-4c92-a736-9a68d316b6cc","ios":"levelo://app?vid=9a7007ab-d863-4c92-a736-9a68d316b6cc"},"vehicle_type_id":"4","last_reported":1762431723,"current_range_meters":14400,"station_id":"ce4bgs92rcd13ifvqcc0","pricing_plan_id":"cebpf4jnsgd1na2vs0mg"},{"bike_id":"8d52ea93-c1b3-4c53-844e-a20efd913cd8","system_id":"levelo_inurba_marseille","lat":43.246492,"lon":5.38891,"is_reserved":false,"is_disabled":false,"rental_uris":{"android":"levelo://app?vid=8d52ea93-c1b3-4c53-844e-a20efd913cd8","ios":"levelo://app?vid=8d52ea93-c1b3-4c53-844e-a20efd913cd8"},"vehicle_type_id":"4","last_reported":1762431723,"current_range_meters":14400,"station_id":"ce4bhg12rcd13ifvqf60","pricing_plan_id":"cebpf4jnsgd1na2vs0mg"},{"bike_id":"f3080d76-d1d2-442b-a61f-92b9c969ee87","system_id":"levelo_inurba_marseille","lat":43.29247,"lon":5.37598,"is_reserved":false,"is_disabled":false,"rental_uris":{"android":"levelo://app?vid=f3080d76-d1d2-442b-a61f-92b9c969ee87","ios":"levelo://app?vid=f3080d76-d1d2-442b-a61f-92b9c969ee87"},"vehicle_type_id":"4","last_reported":1762431723,"current_range_meters":14800,"station_id":"ce4bgi12rcd13ifvqb80","pricing_plan_id":"cebpf4jnsgd1na2vs0mg"},{"bike_id":"9da43d7f-d658-46a3-9dbe-3747fbcad679","system_id":"levelo_inurba_marseille","lat":43.324976,"lon":5.414969,"is_reserved":false,"is_disabled":false,"rental_uris":{"android":"levelo://app?vid=9da43d7f-d658-46a3-9dbe-3747fbcad679","ios":"levelo://app?vid=9da43d7f-d658-46a3-9dbe-3747fbcad679"},"vehicle_type_id":"4","last_reported":1762431723,"current_range_meters":14800,"station_id":"ce4bhq12rcd13ifvqhhg","pricing_plan_id":"cebpf4jnsgd1na2vs0mg"},{"bike_id":"58913ae0-74ea-49b4-8d46-6c500447e71d","system_id":"levelo_inurba_marseille","lat":43.29941,"lon":5.37708,"is_reserved":false,"is_disabled":false,"rental_uris":{"android":"levelo://app?vid=58913ae0-74ea-49b4-8d46-6c500447e71d","ios":"levelo://app?vid=58913ae0-74ea-49b4-8d46-6c500447e71d"},"vehicle_type_id":"4","last_reported":1762431723,"current_range_meters":14800,"station_id":"","pricing_plan_id":"cebpf4jnsgd1na2vs0mg"},{"bike_id":"1dc23359-7693-4181-b319-3ba5be392342","system_id":"levelo_inurba_marseille","lat":43.28854,"lon":5.35854,"is_reserved":false,"is_disabled":false,"rental_uris":{"android":"levelo://app?vid=1dc23359-7693-4181-b319-3ba5be392342","ios":"levelo://app?vid=1dc23359-7693-4181-b319-3ba5be392342"},"vehicle_type_id":"4","last_reported":1762431723,"current_range_meters":14800,"station_id":"ce4bhb12rcd13ifvqem0","pricing_plan_id":"cebpf4jnsgd1na2vs0mg"},{"bike_id":"cadd4071-63aa-4813-b93b-e35f581086a7","system_id":"levelo_inurba_marseille","lat":43.29003,"lon":5.38631,"is_reserved":false,"is_disabled":false,"rental_uris":{"android":"levelo://app?vid=cadd4071-63aa-4813-b93b-e35f581086a7","ios":"levelo://app?vid=cadd4071-63aa-4813-b93b-e35f581086a7"},"vehicle_type_id":"4","last_reported":1762431723,"current_range_meters":14800,"station_id":"ce4bh4p2rcd13ifvqe0g","pricing_plan_id":"cebpf4jnsgd1na2vs0mg"},{"bike_id":"7f351769-ed8e-4e67-9297-5863323cc299","system_id":"levelo_inurba_marseille","lat":43.28155,"lon":5.42647,"is_reserved":false,"is_disabled":false,"rental_uris":{"android":"levelo://app?vid=7f351769-ed8e-4e67-9297-5863323cc299","ios":"levelo://app?vid=7f351769-ed8e-4e67-9297-5863323cc299"},"vehicle_type_id":"4","last_reported":1762431723,"current_range_meters":14800,"station_id":"ce4bhnh2rcd13ifvqgug","pricing_plan_id":"cebpf4jnsgd1na2vs0mg"},{"bike_id":"07e12cf6-8c9a-41d4-a0c9-fa3e3cbde7e3","system_id":"levelo_inurba_marseille","lat":43.29913,"lon":5.37487,"is_reserved":false,"is_disabled":false,"rental_uris":{"android":"levelo://app?vid=07e12cf6-8c9a-41d4-a0c9-fa3e3cbde7e3","ios":"levelo://app?vid=07e12cf6-8c9a-41d4-a0c9-fa3e3cbde7e3"},"vehicle_type_id":"4","last_reported":1762431723,"current_range_meters":14800,"station_id":"ce4bgjh2rcd13ifvqbg0","pricing_plan_id":"cebpf4jnsgd1na2vs0mg"},{"bike_id":"17a110aa-d764-46c1-a7dc-7cfd775ba942","system_id":"levelo_inurba_marseille","lat":43.249582,"lon":5.375026,"is_reserved":false,"is_disabled":false,"rental_uris":{"android":"levelo://app?vid=17a110aa-d764-46c1-a7dc-7cfd775ba942","ios":"levelo://app?vid=17a110aa-d764-46c1-a7dc-7cfd775ba942"},"vehicle_type_id":"4","last_reported":1762431723,"current_range_meters":14800,"station_id":"ce4bhgh2rcd13ifvqfb0","pricing_plan_id":"cebpf4jnsgd1na2vs0mg"},{"bike_id":"90fb8975-4c34-4228-869a-efb507d720cf","system_id":"levelo_inurba_marseille","lat":43.27475,"lon":5.42466,"is_reserved":false,"is_disabled":false,"rental_uris":{"android":"levelo://app?vid=90fb8975-4c34-4228-869a-efb507d720cf","ios":"levelo://app?vid=90fb8975-4c34-4228-869a-efb507d720cf"},"vehicle_type_id":"4","last_reported":1762431723,"current_range_meters":15200,"station_id":"ce4bhn92rcd13ifvqgrg","pricing_plan_id":"cebpf4jnsgd1na2vs0mg"},{"bike_id":"2b895ba9-2b5e-4b59-8020-0f03159ad1d1","system_id":"levelo_inurba_marseille","lat":43.30591,"lon":5.39361,"is_reserved":false,"is_disabled":false,"rental_uris":{"android":"levelo://app?vid=2b895ba9-2b5e-4b59-8020-0f03159ad1d1","ios":"levelo://app?vid=2b895ba9-2b5e-4b59-8020-0f03159ad1d1"},"vehicle_type_id":"4","last_reported":1762431723,"current_range_meters":15200,"station_id":"ce4bh0p2rcd13ifvqd80","pricing_plan_id":"cebpf4jnsgd1na2vs0mg"},{"bike_id":"4d66e4d0-7093-4c52-8b6e-f9cc3625d8e4","system_id":"levelo_inurba_marseille","lat":43.24948,"lon":5.40486,"is_reserved":false,"is_disabled":false,"rental_uris":{"android":"levelo://app?vid=4d66e4d0-7093-4c52-8b6e-f9cc3625d8e4","ios":"levelo://app?vid=4d66e4d0-7093-4c52-8b6e-f9cc3625d8e4"},"vehicle_type_id":"4","last_reported":1762431723,"current_range_meters":15200,"station_id":"st_d2ngiaodas8pm72gd1h0","pricing_plan_id":"cebpf4jnsgd1na2vs0mg"},{"bike_id":"b03fc7f2-3e91-4203-aba6-afaae3f0c1fc","system_id":"levelo_inurba_marseille","lat":43.29041,"lon":5.39961,"is_reserved":false,"is_disabled":false,"rental_uris":{"android":"levelo://app?vid=b03fc7f2-3e91-4203-aba6-afaae3f0c1fc","ios":"levelo://app?vid=b03fc7f2-3e91-4203-aba6-afaae3f0c1fc"},"vehicle_type_id":"4","last_reported":1762431723,"current_range_meters":15200,"station_id":"ce4bh392rcd13ifvqdm0","pricing_plan_id":"cebpf4jnsgd1na2vs0mg"},{"bike_id":"48c2b0b9-f598-42fb-baa7-44213ce03a52","system_id":"levelo_inurba_marseille","lat":43.231519,"lon":5.437176,"is_reserved":false,"is_disabled":false,"rental_uris":{"android":"levelo://app?vid=48c2b0b9-f598-42fb-baa7-44213ce03a52","ios":"levelo://app?vid=48c2b0b9-f598-42fb-baa7-44213ce03a52"},"vehicle_type_id":"4","last_reported":1762431723,"current_range_meters":15200,"station_id":"ce4bhmp2rcd13ifvqgog","pricing_plan_id":"cebpf4jnsgd1na2vs0mg"},{"bike_id":"d0581743-e06c-4ad1-9f8a-41b25975ba07","system_id":"levelo_inurba_marseille","lat":43.29826,"lon":5.44041,"is_reserved":false,"is_disabled":false,"rental_uris":{"android":"levelo://app?vid=d0581743-e06c-4ad1-9f8a-41b25975ba07","ios":"levelo://app?vid=d0581743-e06c-4ad1-9f8a-41b25975ba07"},"vehicle_type_id":"4","last_reported":1762431723,"current_range_meters":15200,"station_id":"st_d3jp68qikq2c7381ktn0","pricing_plan_id":"cebpf4jnsgd1na2vs0mg"},{"bike_id":"8f1b3681-028f-4f70-bf38-787cd1a3672f","system_id":"levelo_inurba_marseille","lat":43.295278,"lon":5.374993,"is_reserved":false,"is_disabled":false,"rental_uris":{"android":"levelo://app?vid=8f1b3681-028f-4f70-bf38-787cd1a3672f","ios":"levelo://app?vid=8f1b3681-028f-4f70-bf38-787cd1a3672f"},"vehicle_type_id":"4","last_reported":1762431723,"current_range_meters":16000,"station_id":"","pricing_plan_id":"cebpf4jnsgd1na2vs0mg"},{"bike_id":"0990d13d-02e1-4e54-9d32-bff81dbbfd6f","system_id":"levelo_inurba_marseille","lat":43.30149,"lon":5.37413,"is_reserved":false,"is_disabled":false,"rental_uris":{"android":"levelo://app?vid=0990d13d-02e1-4e54-9d32-bff81dbbfd6f","ios":"levelo://app?vid=0990d13d-02e1-4e54-9d32-bff81dbbfd6f"},"vehicle_type_id":"4","last_reported":1762431723,"current_range_meters":16000,"station_id":"ce4bgs92rcd13ifvqcc0","pricing_plan_id":"cebpf4jnsgd1na2vs0mg"},{"bike_id":"33ae4984-5f12-485a-9589-62afcaed0591","system_id":"levelo_inurba_marseille","lat":43.29132,"lon":5.40787,"is_reserved":false,"is_disabled":false,"rental_uris":{"android":"levelo://app?vid=33ae4984-5f12-485a-9589-62afcaed0591","ios":"levelo://app?vid=33ae4984-5f12-485a-9589-62afcaed0591"},"vehicle_type_id":"4","last_reported":1762431723,"current_range_meters":16000,"station_id":"","pricing_plan_id":"cebpf4jnsgd1na2vs0mg"},{"bike_id":"864a9729-ce58-4e79-982b-8161767b37d8","system_id":"levelo_inurba_marseille","lat":43.337444,"lon":5.374475,"is_reserved":false,"is_disabled":false,"rental_uris":{"android":"levelo://app?vid=864a9729-ce58-4e79-982b-8161767b37d8","ios":"levelo://app?vid=864a9729-ce58-4e79-982b-8161767b37d8"},"vehicle_type_id":"4","last_reported":1762431723,"current_range_meters":16000,"station_id":"","pricing_plan_id":"cebpf4jnsgd1na2vs0mg"},{"bike_id":"a0dc2ab3-bc0b-4517-855e-a8facdaf8ef4","system_id":"levelo_inurba_marseille","lat":43.321083,"lon":5.41401,"is_reserved":false,"is_disabled":false,"rental_uris":{"android":"levelo://app?vid=a0dc2ab3-bc0b-4517-855e-a8facdaf8ef4","ios":"levelo://app?vid=a0dc2ab3-bc0b-4517-855e-a8facdaf8ef4"},"vehicle_type_id":"4","last_reported":1762431723,"current_range_meters":16000,"station_id":"ce4bhq92rcd13ifvqhkg","pricing_plan_id":"cebpf4jnsgd1na2vs0mg"},{"bike_id":"f8e16bd4-22f0-4fb8-87da-d3aaa5679d05","system_id":"levelo_inurba_marseille","lat":43.28664,"lon":5.36343,"is_reserved":false,"is_disabled":false,"rental_uris":{"android":"levelo://app?vid=f8e16bd4-22f0-4fb8-87da-d3aaa5679d05","ios":"levelo://app?vid=f8e16bd4-22f0-4fb8-87da-d3aaa5679d05"},"vehicle_type_id":"4","last_reported":1762431723,"current_range_meters":16000,"station_id":"ce4bhah2rcd13ifvqej0","pricing_plan_id":"cebpf4jnsgd1na2vs0mg"},{"bike_id":"ef860c1c-3e4f-49da-9f52-3ad2e51b444c","system_id":"levelo_inurba_marseille","lat":43.30562,"lon":5.36553,"is_reserved":false,"is_disabled":false,"rental_uris":{"android":"levelo://app?vid=ef860c1c-3e4f-49da-9f52-3ad2e51b444c","ios":"levelo://app?vid=ef860c1c-3e4f-49da-9f52-3ad2e51b444c"},"vehicle_type_id":"4","last_reported":1762431723,"current_range_meters":16400,"station_id":"ce4bgs12rcd13ifvqcag","pricing_plan_id":"cebpf4jnsgd1na2vs0mg"},{"bike_id":"1c1406c3-ccbf-4c7e-948d-af3d562996c8","system_id":"levelo_inurba_marseille","lat":43.298181,"lon":5.44059,"is_reserved":false,"is_disabled":false,"rental_uris":{"android":"levelo://app?vid=1c1406c3-ccbf-4c7e-948d-af3d562996c8","ios":"levelo://app?vid=1c1406c3-ccbf-4c7e-948d-af3d562996c8"},"vehicle_type_id":"4","last_reported":1762431723,"current_range_meters":16400,"station_id":"st_d3jp68qikq2c7381ktn0","pricing_plan_id":"cebpf4jnsgd1na2vs0mg"},{"bike_id":"dec507c1-6699-4a54-9215-69c5203b9f32","system_id":"levelo_inurba_marseille","lat":43.30149,"lon":5.38105,"is_reserved":false,"is_disabled":false,"rental_uris":{"android":"levelo://app?vid=dec507c1-6699-4a54-9215-69c5203b9f32","ios":"levelo://app?vid=dec507c1-6699-4a54-9215-69c5203b9f32"},"vehicle_type_id":"4","last_reported":1762431723,"current_range_meters":16400,"station_id":"ce4bgjp2rcd13ifvqbh0","pricing_plan_id":"cebpf4jnsgd1na2vs0mg"},{"bike_id":"218d47a3-c6e7-4c3c-9685-02a7ebcef396","system_id":"levelo_inurba_marseille","lat":43.25917,"lon":5.40915,"is_reserved":false,"is_disabled":false,"rental_uris":{"android":"levelo://app?vid=218d47a3-c6e7-4c3c-9685-02a7ebcef396","ios":"levelo://app?vid=218d47a3-c6e7-4c3c-9685-02a7ebcef396"},"vehicle_type_id":"4","last_reported":1762431723,"current_range_meters":16400,"station_id":"ce4bhm92rcd13ifvqglg","pricing_plan_id":"cebpf4jnsgd1na2vs0mg"},{"bike_id":"15b54e6d-22a9-4e87-bca1-10f51918d8f7","system_id":"levelo_inurba_marseille","lat":43.242,"lon":5.39732,"is_reserved":false,"is_disabled":false,"rental_uris":{"android":"levelo://app?vid=15b54e6d-22a9-4e87-bca1-10f51918d8f7","ios":"levelo://app?vid=15b54e6d-22a9-4e87-bca1-10f51918d8f7"},"vehicle_type_id":"4","last_reported":1762431723,"current_range_meters":16400,"station_id":"ce4bhn12rcd13ifvqgpg","pricing_plan_id":"cebpf4jnsgd1na2vs0mg"},{"bike_id":"43cfab9e-f547-4304-9999-4a8329474751","system_id":"levelo_inurba_marseille","lat":43.212086,"lon":5.350829,"is_reserved":false,"is_disabled":false,"rental_uris":{"android":"levelo://app?vid=43cfab9e-f547-4304-9999-4a8329474751","ios":"levelo://app?vid=43cfab9e-f547-4304-9999-4a8329474751"},"vehicle_type_id":"4","last_reported":1762431723,"current_range_meters":16400,"station_id":"st_cvj6sg6p6f1abm77japg","pricing_plan_id":"cebpf4jnsgd1na2vs0mg"},{"bike_id":"3a1ebb35-b8b1-48de-aefa-968d2deb7204","system_id":"levelo_inurba_marseille","lat":43.24642,"lon":5.38907,"is_reserved":false,"is_disabled":false,"rental_uris":{"android":"levelo://app?vid=3a1ebb35-b8b1-48de-aefa-968d2deb7204","ios":"levelo://app?vid=3a1ebb35-b8b1-48de-aefa-968d2deb7204"},"vehicle_type_id":"4","last_reported":1762431723,"current_range_meters":16400,"station_id":"ce4bhg12rcd13ifvqf60","pricing_plan_id":"cebpf4jnsgd1na2vs0mg"},{"bike_id":"319ffc4e-7711-40e6-a5bd-4d90d7a995da","system_id":"levelo_inurba_marseille","lat":43.3108,"lon":5.42427,"is_reserved":false,"is_disabled":false,"rental_uris":{"android":"levelo://app?vid=319ffc4e-7711-40e6-a5bd-4d90d7a995da","ios":"levelo://app?vid=319ffc4e-7711-40e6-a5bd-4d90d7a995da"},"vehicle_type_id":"4","last_reported":1762431723,"current_range_meters":16400,"station_id":"ce4bhp92rcd13ifvqhag","pricing_plan_id":"cebpf4jnsgd1na2vs0mg"},{"bike_id":"6b965bfc-884a-484d-88c5-749454f2331e","system_id":"levelo_inurba_marseille","lat":43.27489,"lon":5.42463,"is_reserved":false,"is_disabled":true,"rental_uris":{"android":"levelo://app?vid=6b965bfc-884a-484d-88c5-749454f2331e","ios":"levelo://app?vid=6b965bfc-884a-484d-88c5-749454f2331e"},"vehicle_type_id":"4","last_reported":1762431723,"current_range_meters":16400,"station_id":"ce4bhn92rcd13ifvqgrg","pricing_plan_id":"cebpf4jnsgd1na2vs0mg"},{"bike_id":"7f765d5c-c788-4359-b193-b0c38d9af2c0","system_id":"levelo_inurba_marseille","lat":43.23142,"lon":5.43725,"is_reserved":false,"is_disabled":false,"rental_uris":{"android":"levelo://app?vid=7f765d5c-c788-4359-b193-b0c38d9af2c0","ios":"levelo://app?vid=7f765d5c-c788-4359-b193-b0c38d9af2c0"},"vehicle_type_id":"4","last_reported":1762431723,"current_range_meters":16400,"station_id":"ce4bhmp2rcd13ifvqgog","pricing_plan_id":"cebpf4jnsgd1na2vs0mg"},{"bike_id":"548d52fc-2f99-49b4-bb3b-df9aacaed4b3","system_id":"levelo_inurba_marseille","lat":43.3079,"lon":5.37652,"is_reserved":false,"is_disabled":false,"rental_uris":{"android":"levelo://app?vid=548d52fc-2f99-49b4-bb3b-df9aacaed4b3","ios":"levelo://app?vid=548d52fc-2f99-49b4-bb3b-df9aacaed4b3"},"vehicle_type_id":"4","last_reported":1762431723,"current_range_meters":16800,"station_id":"ce4bgv92rcd13ifvqcq0","pricing_plan_id":"cebpf4jnsgd1na2vs0mg"},{"bike_id":"6df038dd-adf1-4a41-9fda-f0f599735e31","system_id":"levelo_inurba_marseille","lat":43.2904,"lon":5.39962,"is_reserved":false,"is_disabled":false,"rental_uris":{"android":"levelo://app?vid=6df038dd-adf1-4a41-9fda-f0f599735e31","ios":"levelo://app?vid=6df038dd-adf1-4a41-9fda-f0f599735e31"},"vehicle_type_id":"4","last_reported":1762431723,"current_range_meters":16800,"station_id":"ce4bh392rcd13ifvqdm0","pricing_plan_id":"cebpf4jnsgd1na2vs0mg"},{"bike_id":"50f35bea-92ed-4e32-ba2e-82aefed2c152","system_id":"levelo_inurba_marseille","lat":43.306064,"lon":5.372252,"is_reserved":false,"is_disabled":false,"rental_uris":{"android":"levelo://app?vid=50f35bea-92ed-4e32-ba2e-82aefed2c152","ios":"levelo://app?vid=50f35bea-92ed-4e32-ba2e-82aefed2c152"},"vehicle_type_id":"4","last_reported":1762431723,"current_range_meters":16800,"station_id":"ce4bgqh2rcd13ifvqc4g","pricing_plan_id":"cebpf4jnsgd1na2vs0mg"},{"bike_id":"b2ee5b49-600b-4507-ad32-80e18dcfde19","system_id":"levelo_inurba_marseille","lat":43.240488,"lon":5.377431,"is_reserved":false,"is_disabled":false,"rental_uris":{"android":"levelo://app?vid=b2ee5b49-600b-4507-ad32-80e18dcfde19","ios":"levelo://app?vid=b2ee5b49-600b-4507-ad32-80e18dcfde19"},"vehicle_type_id":"4","last_reported":1762431723,"current_range_meters":16800,"station_id":"ce4bhnp2rcd13ifvqgvg","pricing_plan_id":"cebpf4jnsgd1na2vs0mg"},{"bike_id":"06f25dea-ca18-4cca-a251-573298dd6aba","system_id":"levelo_inurba_marseille","lat":43.321,"lon":5.36774,"is_reserved":false,"is_disabled":false,"rental_uris":{"android":"levelo://app?vid=06f25dea-ca18-4cca-a251-573298dd6aba","ios":"levelo://app?vid=06f25dea-ca18-4cca-a251-573298dd6aba"},"vehicle_type_id":"4","last_reported":1762431723,"current_range_meters":16800,"station_id":"ce4bhrh2rcd13ifvqhug","pricing_plan_id":"cebpf4jnsgd1na2vs0mg"},{"bike_id":"d33f6ac7-3e22-4df9-8876-fdc2bf14cdbc","system_id":"levelo_inurba_marseille","lat":43.2894,"lon":5.36645,"is_reserved":false,"is_disabled":false,"rental_uris":{"android":"levelo://app?vid=d33f6ac7-3e22-4df9-8876-fdc2bf14cdbc","ios":"levelo://app?vid=d33f6ac7-3e22-4df9-8876-fdc2bf14cdbc"},"vehicle_type_id":"4","last_reported":1762431723,"current_range_meters":16800,"station_id":"ce4bhap2rcd13ifvqek0","pricing_plan_id":"cebpf4jnsgd1na2vs0mg"},{"bike_id":"b148e393-33e6-4bc0-8680-cffa27072dbc","system_id":"levelo_inurba_marseille","lat":43.28462,"lon":5.3589,"is_reserved":false,"is_disabled":false,"rental_uris":{"android":"levelo://app?vid=b148e393-33e6-4bc0-8680-cffa27072dbc","ios":"levelo://app?vid=b148e393-33e6-4bc0-8680-cffa27072dbc"},"vehicle_type_id":"4","last_reported":1762431723,"current_range_meters":16800,"station_id":"ce4bhah2rcd13ifvqei0","pricing_plan_id":"cebpf4jnsgd1na2vs0mg"},{"bike_id":"8a2414d3-51de-43a6-9cd8-3ce5e607c609","system_id":"levelo_inurba_marseille","lat":43.24645,"lon":5.38894,"is_reserved":false,"is_disabled":false,"rental_uris":{"android":"levelo://app?vid=8a2414d3-51de-43a6-9cd8-3ce5e607c609","ios":"levelo://app?vid=8a2414d3-51de-43a6-9cd8-3ce5e607c609"},"vehicle_type_id":"4","last_reported":1762431723,"current_range_meters":16800,"station_id":"ce4bhg12rcd13ifvqf60","pricing_plan_id":"cebpf4jnsgd1na2vs0mg"},{"bike_id":"c082f1e5-aa8a-4a54-9aa6-a28671157d29","system_id":"levelo_inurba_marseille","lat":43.295666,"lon":5.399719,"is_reserved":false,"is_disabled":false,"rental_uris":{"android":"levelo://app?vid=c082f1e5-aa8a-4a54-9aa6-a28671157d29","ios":"levelo://app?vid=c082f1e5-aa8a-4a54-9aa6-a28671157d29"},"vehicle_type_id":"4","last_reported":1762431723,"current_range_meters":16800,"station_id":"ce4bh312rcd13ifvqdj0","pricing_plan_id":"cebpf4jnsgd1na2vs0mg"},{"bike_id":"e071e82c-cdb6-459f-b22d-eefcbaca951d","system_id":"levelo_inurba_marseille","lat":43.31613,"lon":5.38338,"is_reserved":false,"is_disabled":false,"rental_uris":{"android":"levelo://app?vid=e071e82c-cdb6-459f-b22d-eefcbaca951d","ios":"levelo://app?vid=e071e82c-cdb6-459f-b22d-eefcbaca951d"},"vehicle_type_id":"4","last_reported":1762431723,"current_range_meters":17200,"station_id":"","pricing_plan_id":"cebpf4jnsgd1na2vs0mg"},{"bike_id":"6fdbfd8a-9ba4-443e-9710-b25099ddda81","system_id":"levelo_inurba_marseille","lat":43.2317,"lon":5.43701,"is_reserved":false,"is_disabled":false,"rental_uris":{"android":"levelo://app?vid=6fdbfd8a-9ba4-443e-9710-b25099ddda81","ios":"levelo://app?vid=6fdbfd8a-9ba4-443e-9710-b25099ddda81"},"vehicle_type_id":"4","last_reported":1762431723,"current_range_meters":17200,"station_id":"ce4bhmp2rcd13ifvqgog","pricing_plan_id":"cebpf4jnsgd1na2vs0mg"},{"bike_id":"8c469623-2e38-46c0-af40-d2bd7c685bdf","system_id":"levelo_inurba_marseille","lat":43.32356,"lon":5.38897,"is_reserved":false,"is_disabled":false,"rental_uris":{"android":"levelo://app?vid=8c469623-2e38-46c0-af40-d2bd7c685bdf","ios":"levelo://app?vid=8c469623-2e38-46c0-af40-d2bd7c685bdf"},"vehicle_type_id":"4","last_reported":1762431723,"current_range_meters":17200,"station_id":"ce4bhqp2rcd13ifvqhog","pricing_plan_id":"cebpf4jnsgd1na2vs0mg"},{"bike_id":"d4e350b2-17ed-4f06-a4e6-9a77f8576c62","system_id":"levelo_inurba_marseille","lat":43.23161,"lon":5.43703,"is_reserved":false,"is_disabled":false,"rental_uris":{"android":"levelo://app?vid=d4e350b2-17ed-4f06-a4e6-9a77f8576c62","ios":"levelo://app?vid=d4e350b2-17ed-4f06-a4e6-9a77f8576c62"},"vehicle_type_id":"4","last_reported":1762431723,"current_range_meters":17200,"station_id":"ce4bhmp2rcd13ifvqgog","pricing_plan_id":"cebpf4jnsgd1na2vs0mg"},{"bike_id":"287f319a-520b-479b-867a-3977075b1073","system_id":"levelo_inurba_marseille","lat":43.32491,"lon":5.3656,"is_reserved":false,"is_disabled":false,"rental_uris":{"android":"levelo://app?vid=287f319a-520b-479b-867a-3977075b1073","ios":"levelo://app?vid=287f319a-520b-479b-867a-3977075b1073"},"vehicle_type_id":"4","last_reported":1762431723,"current_range_meters":17200,"station_id":"ce4bhs12rcd13ifvqhvg","pricing_plan_id":"cebpf4jnsgd1na2vs0mg"},{"bike_id":"5ef84235-eddd-425b-8be4-c31c46a00271","system_id":"levelo_inurba_marseille","lat":43.241713,"lon":5.364023,"is_reserved":false,"is_disabled":false,"rental_uris":{"android":"levelo://app?vid=5ef84235-eddd-425b-8be4-c31c46a00271","ios":"levelo://app?vid=5ef84235-eddd-425b-8be4-c31c46a00271"},"vehicle_type_id":"4","last_reported":1762431723,"current_range_meters":17200,"station_id":"cpo36qri1sfpv3e86is0","pricing_plan_id":"cebpf4jnsgd1na2vs0mg"},{"bike_id":"6f7316b6-7794-4dd2-b5d2-399fa4c4f2b8","system_id":"levelo_inurba_marseille","lat":43.304607,"lon":5.379026,"is_reserved":false,"is_disabled":false,"rental_uris":{"android":"levelo://app?vid=6f7316b6-7794-4dd2-b5d2-399fa4c4f2b8","ios":"levelo://app?vid=6f7316b6-7794-4dd2-b5d2-399fa4c4f2b8"},"vehicle_type_id":"4","last_reported":1762431723,"current_range_meters":17200,"station_id":"ce4bgup2rcd13ifvqcn0","pricing_plan_id":"cebpf4jnsgd1na2vs0mg"},{"bike_id":"0ab43d90-1272-4d3e-93ca-d153c21b67be","system_id":"levelo_inurba_marseille","lat":43.30551,"lon":5.365,"is_reserved":false,"is_disabled":false,"rental_uris":{"android":"levelo://app?vid=0ab43d90-1272-4d3e-93ca-d153c21b67be","ios":"levelo://app?vid=0ab43d90-1272-4d3e-93ca-d153c21b67be"},"vehicle_type_id":"4","last_reported":1762431723,"current_range_meters":17200,"station_id":"","pricing_plan_id":"cebpf4jnsgd1na2vs0mg"},{"bike_id":"0353ef61-d165-4f7f-81d7-08ba3f92f21c","system_id":"levelo_inurba_marseille","lat":43.28426,"lon":5.34982,"is_reserved":false,"is_disabled":false,"rental_uris":{"android":"levelo://app?vid=0353ef61-d165-4f7f-81d7-08ba3f92f21c","ios":"levelo://app?vid=0353ef61-d165-4f7f-81d7-08ba3f92f21c"},"vehicle_type_id":"4","last_reported":1762431723,"current_range_meters":17200,"station_id":"ce4bhbh2rcd13ifvqepg","pricing_plan_id":"cebpf4jnsgd1na2vs0mg"},{"bike_id":"711b5184-06a1-46c6-b1ad-270408b914a4","system_id":"levelo_inurba_marseille","lat":43.30007,"lon":5.40971,"is_reserved":false,"is_disabled":false,"rental_uris":{"android":"levelo://app?vid=711b5184-06a1-46c6-b1ad-270408b914a4","ios":"levelo://app?vid=711b5184-06a1-46c6-b1ad-270408b914a4"},"vehicle_type_id":"4","last_reported":1762431723,"current_range_meters":17600,"station_id":"","pricing_plan_id":"cebpf4jnsgd1na2vs0mg"},{"bike_id":"8aba6a3b-fd13-4733-a719-6d7546477997","system_id":"levelo_inurba_marseille","lat":43.29673,"lon":5.3771,"is_reserved":false,"is_disabled":false,"rental_uris":{"android":"levelo://app?vid=8aba6a3b-fd13-4733-a719-6d7546477997","ios":"levelo://app?vid=8aba6a3b-fd13-4733-a719-6d7546477997"},"vehicle_type_id":"4","last_reported":1762431723,"current_range_meters":17600,"station_id":"ce4bgkh2rcd13ifvqbl0","pricing_plan_id":"cebpf4jnsgd1na2vs0mg"},{"bike_id":"28b54568-250f-48ad-b030-25d760bf4abc","system_id":"levelo_inurba_marseille","lat":43.321122,"lon":5.367792,"is_reserved":false,"is_disabled":false,"rental_uris":{"android":"levelo://app?vid=28b54568-250f-48ad-b030-25d760bf4abc","ios":"levelo://app?vid=28b54568-250f-48ad-b030-25d760bf4abc"},"vehicle_type_id":"4","last_reported":1762431723,"current_range_meters":17600,"station_id":"ce4bhrh2rcd13ifvqhug","pricing_plan_id":"cebpf4jnsgd1na2vs0mg"},{"bike_id":"b6d6ed38-4c87-427d-b530-709237f9a962","system_id":"levelo_inurba_marseille","lat":43.231616,"lon":5.436954,"is_reserved":false,"is_disabled":false,"rental_uris":{"android":"levelo://app?vid=b6d6ed38-4c87-427d-b530-709237f9a962","ios":"levelo://app?vid=b6d6ed38-4c87-427d-b530-709237f9a962"},"vehicle_type_id":"4","last_reported":1762431723,"current_range_meters":17600,"station_id":"ce4bhmp2rcd13ifvqgog","pricing_plan_id":"cebpf4jnsgd1na2vs0mg"},{"bike_id":"ea7c93f5-45ff-40e7-8dd0-c602191b4699","system_id":"levelo_inurba_marseille","lat":43.27052,"lon":5.40263,"is_reserved":false,"is_disabled":false,"rental_uris":{"android":"levelo://app?vid=ea7c93f5-45ff-40e7-8dd0-c602191b4699","ios":"levelo://app?vid=ea7c93f5-45ff-40e7-8dd0-c602191b4699"},"vehicle_type_id":"4","last_reported":1762431723,"current_range_meters":17600,"station_id":"ce4bhk92rcd13ifvqgc0","pricing_plan_id":"cebpf4jnsgd1na2vs0mg"},{"bike_id":"b3ef1f8f-45a0-41b6-b3fd-960c674e4ba3","system_id":"levelo_inurba_marseille","lat":43.30126,"lon":5.37438,"is_reserved":false,"is_disabled":false,"rental_uris":{"android":"levelo://app?vid=b3ef1f8f-45a0-41b6-b3fd-960c674e4ba3","ios":"levelo://app?vid=b3ef1f8f-45a0-41b6-b3fd-960c674e4ba3"},"vehicle_type_id":"4","last_reported":1762431723,"current_range_meters":17600,"station_id":"ce4bgs92rcd13ifvqcc0","pricing_plan_id":"cebpf4jnsgd1na2vs0mg"},{"bike_id":"281516ed-45ec-456c-b627-ab26a5d3e981","system_id":"levelo_inurba_marseille","lat":43.30316,"lon":5.40443,"is_reserved":false,"is_disabled":false,"rental_uris":{"android":"levelo://app?vid=281516ed-45ec-456c-b627-ab26a5d3e981","ios":"levelo://app?vid=281516ed-45ec-456c-b627-ab26a5d3e981"},"vehicle_type_id":"4","last_reported":1762431723,"current_range_meters":17600,"station_id":"ce4bh012rcd13ifvqd10","pricing_plan_id":"cebpf4jnsgd1na2vs0mg"},{"bike_id":"364e7252-6c8d-481d-b075-6ed46540f13b","system_id":"levelo_inurba_marseille","lat":43.2626,"lon":5.39863,"is_reserved":false,"is_disabled":false,"rental_uris":{"android":"levelo://app?vid=364e7252-6c8d-481d-b075-6ed46540f13b","ios":"levelo://app?vid=364e7252-6c8d-481d-b075-6ed46540f13b"},"vehicle_type_id":"4","last_reported":1762431723,"current_range_meters":18000,"station_id":"","pricing_plan_id":"cebpf4jnsgd1na2vs0mg"},{"bike_id":"91195dc3-7219-4139-a8eb-8e52bb6d271e","system_id":"levelo_inurba_marseille","lat":43.23185,"lon":5.35556,"is_reserved":false,"is_disabled":false,"rental_uris":{"android":"levelo://app?vid=91195dc3-7219-4139-a8eb-8e52bb6d271e","ios":"levelo://app?vid=91195dc3-7219-4139-a8eb-8e52bb6d271e"},"vehicle_type_id":"4","last_reported":1762431723,"current_range_meters":18000,"station_id":"ce4bhu92rcd13ifvqi70","pricing_plan_id":"cebpf4jnsgd1na2vs0mg"},{"bike_id":"4e87d557-fc93-49b9-a683-28fb43a9036d","system_id":"levelo_inurba_marseille","lat":43.279752,"lon":5.387476,"is_reserved":false,"is_disabled":false,"rental_uris":{"android":"levelo://app?vid=4e87d557-fc93-49b9-a683-28fb43a9036d","ios":"levelo://app?vid=4e87d557-fc93-49b9-a683-28fb43a9036d"},"vehicle_type_id":"4","last_reported":1762431723,"current_range_meters":18000,"station_id":"ce4bhg12rcd13ifvqf80","pricing_plan_id":"cebpf4jnsgd1na2vs0mg"},{"bike_id":"65d83eaf-428a-43cd-a356-ecaed95948ff","system_id":"levelo_inurba_marseille","lat":43.24849,"lon":5.39776,"is_reserved":false,"is_disabled":false,"rental_uris":{"android":"levelo://app?vid=65d83eaf-428a-43cd-a356-ecaed95948ff","ios":"levelo://app?vid=65d83eaf-428a-43cd-a356-ecaed95948ff"},"vehicle_type_id":"4","last_reported":1762431723,"current_range_meters":18000,"station_id":"","pricing_plan_id":"cebpf4jnsgd1na2vs0mg"},{"bike_id":"735af335-66bf-4340-87fb-78f795989dcc","system_id":"levelo_inurba_marseille","lat":43.29933,"lon":5.38248,"is_reserved":false,"is_disabled":false,"rental_uris":{"android":"levelo://app?vid=735af335-66bf-4340-87fb-78f795989dcc","ios":"levelo://app?vid=735af335-66bf-4340-87fb-78f795989dcc"},"vehicle_type_id":"4","last_reported":1762431723,"current_range_meters":18000,"station_id":"","pricing_plan_id":"cebpf4jnsgd1na2vs0mg"},{"bike_id":"329070e8-d502-4a6c-b48c-e60c98fc285b","system_id":"levelo_inurba_marseille","lat":43.31266,"lon":5.38954,"is_reserved":false,"is_disabled":false,"rental_uris":{"android":"levelo://app?vid=329070e8-d502-4a6c-b48c-e60c98fc285b","ios":"levelo://app?vid=329070e8-d502-4a6c-b48c-e60c98fc285b"},"vehicle_type_id":"4","last_reported":1762431723,"current_range_meters":18000,"station_id":"","pricing_plan_id":"cebpf4jnsgd1na2vs0mg"},{"bike_id":"acd11f1f-a797-4d8a-ac97-7cfd85277af2","system_id":"levelo_inurba_marseille","lat":43.229322,"lon":5.353803,"is_reserved":false,"is_disabled":false,"rental_uris":{"android":"levelo://app?vid=acd11f1f-a797-4d8a-ac97-7cfd85277af2","ios":"levelo://app?vid=acd11f1f-a797-4d8a-ac97-7cfd85277af2"},"vehicle_type_id":"4","last_reported":1762431723,"current_range_meters":18000,"station_id":"cpo3532slgdg3j2ikp40","pricing_plan_id":"cebpf4jnsgd1na2vs0mg"},{"bike_id":"4db561fa-0133-449c-a0eb-011343a5bd3a","system_id":"levelo_inurba_marseille","lat":43.28857,"lon":5.42517,"is_reserved":false,"is_disabled":false,"rental_uris":{"android":"levelo://app?vid=4db561fa-0133-449c-a0eb-011343a5bd3a","ios":"levelo://app?vid=4db561fa-0133-449c-a0eb-011343a5bd3a"},"vehicle_type_id":"4","last_reported":1762431723,"current_range_meters":18000,"station_id":"st_d3b462108ojc7389ooeg","pricing_plan_id":"cebpf4jnsgd1na2vs0mg"},{"bike_id":"a906c8f7-b25b-4dd8-acc7-fd101c297e0c","system_id":"levelo_inurba_marseille","lat":43.25923,"lon":5.40894,"is_reserved":false,"is_disabled":false,"rental_uris":{"android":"levelo://app?vid=a906c8f7-b25b-4dd8-acc7-fd101c297e0c","ios":"levelo://app?vid=a906c8f7-b25b-4dd8-acc7-fd101c297e0c"},"vehicle_type_id":"4","last_reported":1762431723,"current_range_meters":18000,"station_id":"ce4bhm92rcd13ifvqglg","pricing_plan_id":"cebpf4jnsgd1na2vs0mg"},{"bike_id":"c4782ca8-9df6-4404-b399-0d23509e2361","system_id":"levelo_inurba_marseille","lat":43.29614,"lon":5.37739,"is_reserved":false,"is_disabled":false,"rental_uris":{"android":"levelo://app?vid=c4782ca8-9df6-4404-b399-0d23509e2361","ios":"levelo://app?vid=c4782ca8-9df6-4404-b399-0d23509e2361"},"vehicle_type_id":"4","last_reported":1762431723,"current_range_meters":18000,"station_id":"ce4bgi92rcd13ifvqb90","pricing_plan_id":"cebpf4jnsgd1na2vs0mg"},{"bike_id":"ada7c068-07f5-4885-8cb5-5c4f9b537ace","system_id":"levelo_inurba_marseille","lat":43.23143,"lon":5.43733,"is_reserved":false,"is_disabled":false,"rental_uris":{"android":"levelo://app?vid=ada7c068-07f5-4885-8cb5-5c4f9b537ace","ios":"levelo://app?vid=ada7c068-07f5-4885-8cb5-5c4f9b537ace"},"vehicle_type_id":"4","last_reported":1762431723,"current_range_meters":18800,"station_id":"ce4bhmp2rcd13ifvqgog","pricing_plan_id":"cebpf4jnsgd1na2vs0mg"},{"bike_id":"9bafa7b3-2b30-48b0-82e6-a665a4050f05","system_id":"levelo_inurba_marseille","lat":43.278427,"lon":5.388498,"is_reserved":false,"is_disabled":false,"rental_uris":{"android":"levelo://app?vid=9bafa7b3-2b30-48b0-82e6-a665a4050f05","ios":"levelo://app?vid=9bafa7b3-2b30-48b0-82e6-a665a4050f05"},"vehicle_type_id":"4","last_reported":1762431723,"current_range_meters":18800,"station_id":"ce4bgn12rcd13ifvqbt0","pricing_plan_id":"cebpf4jnsgd1na2vs0mg"},{"bike_id":"ec44e195-cde1-4252-aadf-701a64256dd7","system_id":"levelo_inurba_marseille","lat":43.24619,"lon":5.43148,"is_reserved":false,"is_disabled":false,"rental_uris":{"android":"levelo://app?vid=ec44e195-cde1-4252-aadf-701a64256dd7","ios":"levelo://app?vid=ec44e195-cde1-4252-aadf-701a64256dd7"},"vehicle_type_id":"4","last_reported":1762431723,"current_range_meters":18800,"station_id":"st_d2m6c4gdas8pm72e190g","pricing_plan_id":"cebpf4jnsgd1na2vs0mg"},{"bike_id":"d890247a-d1e4-4d74-969d-76a3eef11230","system_id":"levelo_inurba_marseille","lat":43.23129,"lon":5.35625,"is_reserved":false,"is_disabled":false,"rental_uris":{"android":"levelo://app?vid=d890247a-d1e4-4d74-969d-76a3eef11230","ios":"levelo://app?vid=d890247a-d1e4-4d74-969d-76a3eef11230"},"vehicle_type_id":"4","last_reported":1762431723,"current_range_meters":18800,"station_id":"","pricing_plan_id":"cebpf4jnsgd1na2vs0mg"},{"bike_id":"a0780bc9-5bab-46f2-8d08-98e1e3141e80","system_id":"levelo_inurba_marseille","lat":43.30911,"lon":5.36859,"is_reserved":false,"is_disabled":false,"rental_uris":{"android":"levelo://app?vid=a0780bc9-5bab-46f2-8d08-98e1e3141e80","ios":"levelo://app?vid=a0780bc9-5bab-46f2-8d08-98e1e3141e80"},"vehicle_type_id":"4","last_reported":1762431723,"current_range_meters":18800,"station_id":"ce4bgn92rcd13ifvqbvg","pricing_plan_id":"cebpf4jnsgd1na2vs0mg"},{"bike_id":"decad613-875f-4e39-a5cc-a2636a2419c6","system_id":"levelo_inurba_marseille","lat":43.23147,"lon":5.43708,"is_reserved":false,"is_disabled":false,"rental_uris":{"android":"levelo://app?vid=decad613-875f-4e39-a5cc-a2636a2419c6","ios":"levelo://app?vid=decad613-875f-4e39-a5cc-a2636a2419c6"},"vehicle_type_id":"4","last_reported":1762431723,"current_range_meters":18800,"station_id":"ce4bhmp2rcd13ifvqgog","pricing_plan_id":"cebpf4jnsgd1na2vs0mg"},{"bike_id":"73ed52bb-43cb-47e6-af05-9416cc126872","system_id":"levelo_inurba_marseille","lat":43.30797,"lon":5.38153,"is_reserved":false,"is_disabled":false,"rental_uris":{"android":"levelo://app?vid=73ed52bb-43cb-47e6-af05-9416cc126872","ios":"levelo://app?vid=73ed52bb-43cb-47e6-af05-9416cc126872"},"vehicle_type_id":"4","last_reported":1762431723,"current_range_meters":18800,"station_id":"ce4bgt12rcd13ifvqce0","pricing_plan_id":"cebpf4jnsgd1na2vs0mg"},{"bike_id":"5a8373f2-34af-4dec-8770-c5a1fea01f56","system_id":"levelo_inurba_marseille","lat":43.258849,"lon":5.398845,"is_reserved":false,"is_disabled":false,"rental_uris":{"android":"levelo://app?vid=5a8373f2-34af-4dec-8770-c5a1fea01f56","ios":"levelo://app?vid=5a8373f2-34af-4dec-8770-c5a1fea01f56"},"vehicle_type_id":"4","last_reported":1762431723,"current_range_meters":19200,"station_id":"ce4bhl92rcd13ifvqghg","pricing_plan_id":"cebpf4jnsgd1na2vs0mg"},{"bike_id":"e2c55dbe-c8eb-4fa4-a10d-086816821bf3","system_id":"levelo_inurba_marseille","lat":43.3016,"lon":5.38092,"is_reserved":false,"is_disabled":false,"rental_uris":{"android":"levelo://app?vid=e2c55dbe-c8eb-4fa4-a10d-086816821bf3","ios":"levelo://app?vid=e2c55dbe-c8eb-4fa4-a10d-086816821bf3"},"vehicle_type_id":"4","last_reported":1762431723,"current_range_meters":19200,"station_id":"ce4bgjp2rcd13ifvqbh0","pricing_plan_id":"cebpf4jnsgd1na2vs0mg"},{"bike_id":"55c6a609-9074-4f89-a752-5a65b39a1df5","system_id":"levelo_inurba_marseille","lat":43.32124,"lon":5.36746,"is_reserved":false,"is_disabled":false,"rental_uris":{"android":"levelo://app?vid=55c6a609-9074-4f89-a752-5a65b39a1df5","ios":"levelo://app?vid=55c6a609-9074-4f89-a752-5a65b39a1df5"},"vehicle_type_id":"4","last_reported":1762431723,"current_range_meters":19200,"station_id":"ce4bhrh2rcd13ifvqhug","pricing_plan_id":"cebpf4jnsgd1na2vs0mg"},{"bike_id":"a88522c2-7f31-460d-8b59-1c10109fed19","system_id":"levelo_inurba_marseille","lat":43.3143,"lon":5.37587,"is_reserved":false,"is_disabled":false,"rental_uris":{"android":"levelo://app?vid=a88522c2-7f31-460d-8b59-1c10109fed19","ios":"levelo://app?vid=a88522c2-7f31-460d-8b59-1c10109fed19"},"vehicle_type_id":"4","last_reported":1762431723,"current_range_meters":19200,"station_id":"","pricing_plan_id":"cebpf4jnsgd1na2vs0mg"},{"bike_id":"0767b797-8806-47e8-9164-d5c7e2e97d33","system_id":"levelo_inurba_marseille","lat":43.30111,"lon":5.37423,"is_reserved":false,"is_disabled":false,"rental_uris":{"android":"levelo://app?vid=0767b797-8806-47e8-9164-d5c7e2e97d33","ios":"levelo://app?vid=0767b797-8806-47e8-9164-d5c7e2e97d33"},"vehicle_type_id":"4","last_reported":1762431723,"current_range_meters":19200,"station_id":"ce4bgs92rcd13ifvqcc0","pricing_plan_id":"cebpf4jnsgd1na2vs0mg"},{"bike_id":"aa9b409b-c6df-4fe5-932f-a82c17cc1a1b","system_id":"levelo_inurba_marseille","lat":43.30149,"lon":5.38109,"is_reserved":false,"is_disabled":false,"rental_uris":{"android":"levelo://app?vid=aa9b409b-c6df-4fe5-932f-a82c17cc1a1b","ios":"levelo://app?vid=aa9b409b-c6df-4fe5-932f-a82c17cc1a1b"},"vehicle_type_id":"4","last_reported":1762431723,"current_range_meters":19200,"station_id":"ce4bgjp2rcd13ifvqbh0","pricing_plan_id":"cebpf4jnsgd1na2vs0mg"},{"bike_id":"b1187458-0c9f-452e-bdaf-4cf422ba9c2e","system_id":"levelo_inurba_marseille","lat":43.2906,"lon":5.40119,"is_reserved":false,"is_disabled":false,"rental_uris":{"android":"levelo://app?vid=b1187458-0c9f-452e-bdaf-4cf422ba9c2e","ios":"levelo://app?vid=b1187458-0c9f-452e-bdaf-4cf422ba9c2e"},"vehicle_type_id":"4","last_reported":1762431723,"current_range_meters":19200,"station_id":"","pricing_plan_id":"cebpf4jnsgd1na2vs0mg"},{"bike_id":"d9217edb-2a77-46d2-8c74-1939f00ab8dd","system_id":"levelo_inurba_marseille","lat":43.25093,"lon":5.39518,"is_reserved":false,"is_disabled":false,"rental_uris":{"android":"levelo://app?vid=d9217edb-2a77-46d2-8c74-1939f00ab8dd","ios":"levelo://app?vid=d9217edb-2a77-46d2-8c74-1939f00ab8dd"},"vehicle_type_id":"4","last_reported":1762431723,"current_range_meters":19200,"station_id":"ce4bhm12rcd13ifvqgkg","pricing_plan_id":"cebpf4jnsgd1na2vs0mg"},{"bike_id":"2214147d-b2bc-47a5-8262-b29a2f3cbd90","system_id":"levelo_inurba_marseille","lat":43.28881,"lon":5.42522,"is_reserved":false,"is_disabled":false,"rental_uris":{"android":"levelo://app?vid=2214147d-b2bc-47a5-8262-b29a2f3cbd90","ios":"levelo://app?vid=2214147d-b2bc-47a5-8262-b29a2f3cbd90"},"vehicle_type_id":"4","last_reported":1762431723,"current_range_meters":19200,"station_id":"st_d3b462108ojc7389ooeg","pricing_plan_id":"cebpf4jnsgd1na2vs0mg"},{"bike_id":"b095ad1b-f53d-4624-aad8-9ed0f18a183b","system_id":"levelo_inurba_marseille","lat":43.32307,"lon":5.36777,"is_reserved":false,"is_disabled":false,"rental_uris":{"android":"levelo://app?vid=b095ad1b-f53d-4624-aad8-9ed0f18a183b","ios":"levelo://app?vid=b095ad1b-f53d-4624-aad8-9ed0f18a183b"},"vehicle_type_id":"4","last_reported":1762431723,"current_range_meters":19200,"station_id":"","pricing_plan_id":"cebpf4jnsgd1na2vs0mg"},{"bike_id":"83f4ec92-6a0d-4292-9ba9-480669a90bc2","system_id":"levelo_inurba_marseille","lat":43.29273,"lon":5.38446,"is_reserved":false,"is_disabled":false,"rental_uris":{"android":"levelo://app?vid=83f4ec92-6a0d-4292-9ba9-480669a90bc2","ios":"levelo://app?vid=83f4ec92-6a0d-4292-9ba9-480669a90bc2"},"vehicle_type_id":"4","last_reported":1762431723,"current_range_meters":19600,"station_id":"ce4bh692rcd13ifvqea0","pricing_plan_id":"cebpf4jnsgd1na2vs0mg"},{"bike_id":"ece6ff12-c289-42d9-a9c1-38f073fa3f8d","system_id":"levelo_inurba_marseille","lat":43.30954,"lon":5.39018,"is_reserved":false,"is_disabled":false,"rental_uris":{"android":"levelo://app?vid=ece6ff12-c289-42d9-a9c1-38f073fa3f8d","ios":"levelo://app?vid=ece6ff12-c289-42d9-a9c1-38f073fa3f8d"},"vehicle_type_id":"4","last_reported":1762431723,"current_range_meters":19600,"station_id":"ce4bgup2rcd13ifvqco0","pricing_plan_id":"cebpf4jnsgd1na2vs0mg"},{"bike_id":"e0ffa736-aa7b-4ece-a280-7f2484f620da","system_id":"levelo_inurba_marseille","lat":43.23178,"lon":5.39989,"is_reserved":false,"is_disabled":false,"rental_uris":{"android":"levelo://app?vid=e0ffa736-aa7b-4ece-a280-7f2484f620da","ios":"levelo://app?vid=e0ffa736-aa7b-4ece-a280-7f2484f620da"},"vehicle_type_id":"4","last_reported":1762431723,"current_range_meters":19600,"station_id":"ce4bhn12rcd13ifvqgqg","pricing_plan_id":"cebpf4jnsgd1na2vs0mg"},{"bike_id":"ba00a797-bc94-42f1-aba8-9bf207fe458c","system_id":"levelo_inurba_marseille","lat":43.30535,"lon":5.36553,"is_reserved":false,"is_disabled":false,"rental_uris":{"android":"levelo://app?vid=ba00a797-bc94-42f1-aba8-9bf207fe458c","ios":"levelo://app?vid=ba00a797-bc94-42f1-aba8-9bf207fe458c"},"vehicle_type_id":"4","last_reported":1762431723,"current_range_meters":19600,"station_id":"ce4bgs12rcd13ifvqcag","pricing_plan_id":"cebpf4jnsgd1na2vs0mg"},{"bike_id":"1c00dc3a-2c98-4d26-a48f-4093630a1fde","system_id":"levelo_inurba_marseille","lat":43.32498,"lon":5.36556,"is_reserved":false,"is_disabled":false,"rental_uris":{"android":"levelo://app?vid=1c00dc3a-2c98-4d26-a48f-4093630a1fde","ios":"levelo://app?vid=1c00dc3a-2c98-4d26-a48f-4093630a1fde"},"vehicle_type_id":"4","last_reported":1762431723,"current_range_meters":20000,"station_id":"ce4bhs12rcd13ifvqhvg","pricing_plan_id":"cebpf4jnsgd1na2vs0mg"},{"bike_id":"873a5518-47d8-4f17-8c86-42e2effc83b9","system_id":"levelo_inurba_marseille","lat":43.28858,"lon":5.35863,"is_reserved":false,"is_disabled":false,"rental_uris":{"android":"levelo://app?vid=873a5518-47d8-4f17-8c86-42e2effc83b9","ios":"levelo://app?vid=873a5518-47d8-4f17-8c86-42e2effc83b9"},"vehicle_type_id":"4","last_reported":1762431723,"current_range_meters":20000,"station_id":"ce4bhb12rcd13ifvqem0","pricing_plan_id":"cebpf4jnsgd1na2vs0mg"},{"bike_id":"31b2e8c8-abf4-4cb9-909b-282f4f4a7ad6","system_id":"levelo_inurba_marseille","lat":43.30185,"lon":5.36618,"is_reserved":false,"is_disabled":false,"rental_uris":{"android":"levelo://app?vid=31b2e8c8-abf4-4cb9-909b-282f4f4a7ad6","ios":"levelo://app?vid=31b2e8c8-abf4-4cb9-909b-282f4f4a7ad6"},"vehicle_type_id":"4","last_reported":1762431723,"current_range_meters":20000,"station_id":"ce4bgrh2rcd13ifvqc8g","pricing_plan_id":"cebpf4jnsgd1na2vs0mg"},{"bike_id":"0399a2ac-9988-4d7f-a016-b9b15fd2ae4c","system_id":"levelo_inurba_marseille","lat":43.28861,"lon":5.4253,"is_reserved":false,"is_disabled":false,"rental_uris":{"android":"levelo://app?vid=0399a2ac-9988-4d7f-a016-b9b15fd2ae4c","ios":"levelo://app?vid=0399a2ac-9988-4d7f-a016-b9b15fd2ae4c"},"vehicle_type_id":"4","last_reported":1762431723,"current_range_meters":20000,"station_id":"st_d3b462108ojc7389ooeg","pricing_plan_id":"cebpf4jnsgd1na2vs0mg"},{"bike_id":"9599e800-c0f3-4d1c-ae6f-0370f8960f5c","system_id":"levelo_inurba_marseille","lat":43.321074,"lon":5.367645,"is_reserved":false,"is_disabled":false,"rental_uris":{"android":"levelo://app?vid=9599e800-c0f3-4d1c-ae6f-0370f8960f5c","ios":"levelo://app?vid=9599e800-c0f3-4d1c-ae6f-0370f8960f5c"},"vehicle_type_id":"4","last_reported":1762431723,"current_range_meters":20000,"station_id":"ce4bhrh2rcd13ifvqhug","pricing_plan_id":"cebpf4jnsgd1na2vs0mg"},{"bike_id":"9350f380-0894-488f-93ed-c8c017fa2838","system_id":"levelo_inurba_marseille","lat":43.27475,"lon":5.42459,"is_reserved":false,"is_disabled":false,"rental_uris":{"android":"levelo://app?vid=9350f380-0894-488f-93ed-c8c017fa2838","ios":"levelo://app?vid=9350f380-0894-488f-93ed-c8c017fa2838"},"vehicle_type_id":"4","last_reported":1762431723,"current_range_meters":20400,"station_id":"ce4bhn92rcd13ifvqgrg","pricing_plan_id":"cebpf4jnsgd1na2vs0mg"},{"bike_id":"b47f75b2-729b-4f3c-8458-52506401c951","system_id":"levelo_inurba_marseille","lat":43.28996,"lon":5.366768,"is_reserved":false,"is_disabled":false,"rental_uris":{"android":"levelo://app?vid=b47f75b2-729b-4f3c-8458-52506401c951","ios":"levelo://app?vid=b47f75b2-729b-4f3c-8458-52506401c951"},"vehicle_type_id":"4","last_reported":1762431723,"current_range_meters":20400,"station_id":"ce4bhap2rcd13ifvqek0","pricing_plan_id":"cebpf4jnsgd1na2vs0mg"},{"bike_id":"adc728c4-7d88-468c-be89-220c19218372","system_id":"levelo_inurba_marseille","lat":43.3233,"lon":5.38293,"is_reserved":false,"is_disabled":false,"rental_uris":{"android":"levelo://app?vid=adc728c4-7d88-468c-be89-220c19218372","ios":"levelo://app?vid=adc728c4-7d88-468c-be89-220c19218372"},"vehicle_type_id":"4","last_reported":1762431723,"current_range_meters":20400,"station_id":"ce4bhr12rcd13ifvqhqg","pricing_plan_id":"cebpf4jnsgd1na2vs0mg"},{"bike_id":"e6268c5b-e960-40fb-a98f-006dda2f66c1","system_id":"levelo_inurba_marseille","lat":43.23141,"lon":5.43718,"is_reserved":false,"is_disabled":false,"rental_uris":{"android":"levelo://app?vid=e6268c5b-e960-40fb-a98f-006dda2f66c1","ios":"levelo://app?vid=e6268c5b-e960-40fb-a98f-006dda2f66c1"},"vehicle_type_id":"4","last_reported":1762431723,"current_range_meters":20400,"station_id":"ce4bhmp2rcd13ifvqgog","pricing_plan_id":"cebpf4jnsgd1na2vs0mg"},{"bike_id":"a7628e15-e703-4ea9-b322-ccb8d1addac4","system_id":"levelo_inurba_marseille","lat":43.31486,"lon":5.37308,"is_reserved":false,"is_disabled":false,"rental_uris":{"android":"levelo://app?vid=a7628e15-e703-4ea9-b322-ccb8d1addac4","ios":"levelo://app?vid=a7628e15-e703-4ea9-b322-ccb8d1addac4"},"vehicle_type_id":"4","last_reported":1762431723,"current_range_meters":20400,"station_id":"ce4bgt12rcd13ifvqcd0","pricing_plan_id":"cebpf4jnsgd1na2vs0mg"},{"bike_id":"14a9a516-5d6c-4018-94fe-ffcfc99a0213","system_id":"levelo_inurba_marseille","lat":43.301408,"lon":5.374308,"is_reserved":false,"is_disabled":false,"rental_uris":{"android":"levelo://app?vid=14a9a516-5d6c-4018-94fe-ffcfc99a0213","ios":"levelo://app?vid=14a9a516-5d6c-4018-94fe-ffcfc99a0213"},"vehicle_type_id":"4","last_reported":1762431723,"current_range_meters":20400,"station_id":"ce4bgs92rcd13ifvqcc0","pricing_plan_id":"cebpf4jnsgd1na2vs0mg"},{"bike_id":"69f588c5-9318-4f9c-81c2-a7d564f349fd","system_id":"levelo_inurba_marseille","lat":43.27426,"lon":5.39424,"is_reserved":false,"is_disabled":false,"rental_uris":{"android":"levelo://app?vid=69f588c5-9318-4f9c-81c2-a7d564f349fd","ios":"levelo://app?vid=69f588c5-9318-4f9c-81c2-a7d564f349fd"},"vehicle_type_id":"4","last_reported":1762431723,"current_range_meters":20400,"station_id":"ce4bhdp2rcd13ifvqf20","pricing_plan_id":"cebpf4jnsgd1na2vs0mg"},{"bike_id":"79606fcb-c57e-4cfd-a218-339376c90dd9","system_id":"levelo_inurba_marseille","lat":43.272,"lon":5.39191,"is_reserved":false,"is_disabled":true,"rental_uris":{"android":"levelo://app?vid=79606fcb-c57e-4cfd-a218-339376c90dd9","ios":"levelo://app?vid=79606fcb-c57e-4cfd-a218-339376c90dd9"},"vehicle_type_id":"4","last_reported":1762431723,"current_range_meters":20400,"station_id":"ce4bhhp2rcd13ifvqfm0","pricing_plan_id":"cebpf4jnsgd1na2vs0mg"},{"bike_id":"3a6b939b-8483-4a00-8652-d825cdd856d7","system_id":"levelo_inurba_marseille","lat":43.22547,"lon":5.41634,"is_reserved":false,"is_disabled":false,"rental_uris":{"android":"levelo://app?vid=3a6b939b-8483-4a00-8652-d825cdd856d7","ios":"levelo://app?vid=3a6b939b-8483-4a00-8652-d825cdd856d7"},"vehicle_type_id":"4","last_reported":1762431723,"current_range_meters":20400,"station_id":"st_d2o4gvlbi1j2169b742g","pricing_plan_id":"cebpf4jnsgd1na2vs0mg"},{"bike_id":"401209f9-1098-407a-9275-182f209531f6","system_id":"levelo_inurba_marseille","lat":43.29544,"lon":5.42297,"is_reserved":false,"is_disabled":false,"rental_uris":{"android":"levelo://app?vid=401209f9-1098-407a-9275-182f209531f6","ios":"levelo://app?vid=401209f9-1098-407a-9275-182f209531f6"},"vehicle_type_id":"4","last_reported":1762431723,"current_range_meters":20400,"station_id":"ce4bhph2rcd13ifvqhdg","pricing_plan_id":"cebpf4jnsgd1na2vs0mg"},{"bike_id":"310115a0-7bf2-4a4a-9d53-56bf6918e4d0","system_id":"levelo_inurba_marseille","lat":43.28474,"lon":5.48412,"is_reserved":false,"is_disabled":false,"rental_uris":{"android":"levelo://app?vid=310115a0-7bf2-4a4a-9d53-56bf6918e4d0","ios":"levelo://app?vid=310115a0-7bf2-4a4a-9d53-56bf6918e4d0"},"vehicle_type_id":"4","last_reported":1762431723,"current_range_meters":20800,"station_id":"st_d3svhcjqgbts73a3dn0g","pricing_plan_id":"cebpf4jnsgd1na2vs0mg"},{"bike_id":"394ea25b-184c-4cee-9db9-b8d26004e190","system_id":"levelo_inurba_marseille","lat":43.28422,"lon":5.37505,"is_reserved":false,"is_disabled":false,"rental_uris":{"android":"levelo://app?vid=394ea25b-184c-4cee-9db9-b8d26004e190","ios":"levelo://app?vid=394ea25b-184c-4cee-9db9-b8d26004e190"},"vehicle_type_id":"4","last_reported":1762431723,"current_range_meters":20800,"station_id":"ce4bh412rcd13ifvqds0","pricing_plan_id":"cebpf4jnsgd1na2vs0mg"},{"bike_id":"5209d8a8-f471-47fd-9727-fa8450139952","system_id":"levelo_inurba_marseille","lat":43.29839,"lon":5.36286,"is_reserved":false,"is_disabled":false,"rental_uris":{"android":"levelo://app?vid=5209d8a8-f471-47fd-9727-fa8450139952","ios":"levelo://app?vid=5209d8a8-f471-47fd-9727-fa8450139952"},"vehicle_type_id":"4","last_reported":1762431723,"current_range_meters":20800,"station_id":"ce4bgpp2rcd13ifvqc3g","pricing_plan_id":"cebpf4jnsgd1na2vs0mg"},{"bike_id":"da2ab681-04d9-4ae0-8de2-4ea13d75f6db","system_id":"levelo_inurba_marseille","lat":43.25708,"lon":5.41096,"is_reserved":false,"is_disabled":false,"rental_uris":{"android":"levelo://app?vid=da2ab681-04d9-4ae0-8de2-4ea13d75f6db","ios":"levelo://app?vid=da2ab681-04d9-4ae0-8de2-4ea13d75f6db"},"vehicle_type_id":"4","last_reported":1762431723,"current_range_meters":20800,"station_id":"ce4bhkp2rcd13ifvqgd0","pricing_plan_id":"cebpf4jnsgd1na2vs0mg"},{"bike_id":"309562ed-3b43-444b-8ecd-08e28fd84afa","system_id":"levelo_inurba_marseille","lat":43.24807,"lon":5.37456,"is_reserved":false,"is_disabled":false,"rental_uris":{"android":"levelo://app?vid=309562ed-3b43-444b-8ecd-08e28fd84afa","ios":"levelo://app?vid=309562ed-3b43-444b-8ecd-08e28fd84afa"},"vehicle_type_id":"4","last_reported":1762431723,"current_range_meters":20800,"station_id":"ce4bhgh2rcd13ifvqfb0","pricing_plan_id":"cebpf4jnsgd1na2vs0mg"},{"bike_id":"b3ba6746-605a-4577-8e0a-deb9e7d87360","system_id":"levelo_inurba_marseille","lat":43.24802,"lon":5.37456,"is_reserved":false,"is_disabled":false,"rental_uris":{"android":"levelo://app?vid=b3ba6746-605a-4577-8e0a-deb9e7d87360","ios":"levelo://app?vid=b3ba6746-605a-4577-8e0a-deb9e7d87360"},"vehicle_type_id":"4","last_reported":1762431723,"current_range_meters":20800,"station_id":"ce4bhgh2rcd13ifvqfb0","pricing_plan_id":"cebpf4jnsgd1na2vs0mg"},{"bike_id":"0a693bd9-ea79-409d-9256-4f1db0292c0c","system_id":"levelo_inurba_marseille","lat":43.297071,"lon":5.362925,"is_reserved":false,"is_disabled":false,"rental_uris":{"android":"levelo://app?vid=0a693bd9-ea79-409d-9256-4f1db0292c0c","ios":"levelo://app?vid=0a693bd9-ea79-409d-9256-4f1db0292c0c"},