{"last_updated":1743372538,"ttl":60,"version":"2.2","data":{"bikes":[{"bike_id":"990dc6f2-3111-4eef-8d59-7dd5decfb237","system_id":"levelo_inurba_marseille","lat":43.28422,"lon":5.37479,"is_reserved":false,"is_disabled":false,"rental_uris":{"android":"levelo://app?vid=990dc6f2-3111-4eef-8d59-7dd5decfb237","ios":"levelo://app?vid=990dc6f2-3111-4eef-8d59-7dd5decfb237"},"vehicle_type_id":"4","last_reported":1743372538,"current_range_meters":2800,"station_id":"ce4bh412rcd13ifvqds0","pricing_plan_id":"cebpf4jnsgd1na2vs0mg"},{"bike_id":"5fa76be9-4f44-42b2-9369-ca86f6bbce5c","system_id":"levelo_inurba_marseille","lat":43.2654,"lon":5.37308,"is_reserved":false,"is_disabled":true,"rental_uris":{"android":"levelo://app?vid=5fa76be9-4f44-42b2-9369-ca86f6bbce5c","ios":"levelo://app?vid=5fa76be9-4f44-42b2-9369-ca86f6bbce5c"},"vehicle_type_id":"4","last_reported":1743372538,"current_range_meters":3200,"station_id":"ce4bhg12rcd13ifvqf70","pricing_plan_id":"cebpf4jnsgd1na2vs0mg"},{"bike_id":"ee943d91-470c-439e-9e3d-dffef5c262ce","system_id":"levelo_inurba_marseille","lat":43.27644,"lon":5.42653,"is_reserved":false,"is_disabled":false,"rental_uris":{"android":"levelo://app?vid=ee943d91-470c-439e-9e3d-dffef5c262ce","ios":"levelo://app?vid=ee943d91-470c-439e-9e3d-dffef5c262ce"},"vehicle_type_id":"4","last_reported":1743372538,"current_range_meters":3200,"station_id":"","pricing_plan_id":"cebpf4jnsgd1na2vs0mg"},{"bike_id":"f7d4a104-ac73-4d5d-b0a3-0bb443ea5f0d","system_id":"levelo_inurba_marseille","lat":43.27063,"lon":5.42279,"is_reserved":false,"is_disabled":false,"rental_uris":{"android":"levelo://app?vid=f7d4a104-ac73-4d5d-b0a3-0bb443ea5f0d","ios":"levelo://app?vid=f7d4a104-ac73-4d5d-b0a3-0bb443ea5f0d"},"vehicle_type_id":"4","last_reported":1743372538,"current_range_meters":3200,"station_id":"ce4bhk92rcd13ifvqgb0","pricing_plan_id":"cebpf4jnsgd1na2vs0mg"},{"bike_id":"d0b12979-a027-442f-97b2-e2e696d0b330","system_id":"levelo_inurba_marseille","lat":43.23203,"lon":5.35545,"is_reserved":false,"is_disabled":false,"rental_uris":{"android":"levelo://app?vid=d0b12979-a027-442f-97b2-e2e696d0b330","ios":"levelo://app?vid=d0b12979-a027-442f-97b2-e2e696d0b330"},"vehicle_type_id":"4","last_reported":1743372538,"current_range_meters":3600,"station_id":"ce4bhu92rcd13ifvqi70","pricing_plan_id":"cebpf4jnsgd1na2vs0mg"},{"bike_id":"591592e5-0eeb-443c-934b-725256f5543a","system_id":"levelo_inurba_marseille","lat":43.29229,"lon":5.36066,"is_reserved":false,"is_disabled":false,"rental_uris":{"android":"levelo://app?vid=591592e5-0eeb-443c-934b-725256f5543a","ios":"levelo://app?vid=591592e5-0eeb-443c-934b-725256f5543a"},"vehicle_type_id":"4","last_reported":1743372538,"current_range_meters":3600,"station_id":"ce4bhbh2rcd13ifvqeqg","pricing_plan_id":"cebpf4jnsgd1na2vs0mg"},{"bike_id":"3a8ade47-3edd-4eda-8ddf-66bcb0bff51d","system_id":"levelo_inurba_marseille","lat":43.24669,"lon":5.38152,"is_reserved":false,"is_disabled":false,"rental_uris":{"android":"levelo://app?vid=3a8ade47-3edd-4eda-8ddf-66bcb0bff51d","ios":"levelo://app?vid=3a8ade47-3edd-4eda-8ddf-66bcb0bff51d"},"vehicle_type_id":"4","last_reported":1743372538,"current_range_meters":3600,"station_id":"ce4bhih2rcd13ifvqfr0","pricing_plan_id":"cebpf4jnsgd1na2vs0mg"},{"bike_id":"80507833-57fc-4199-a0f8-32eca269665b","system_id":"levelo_inurba_marseille","lat":43.24188,"lon":5.36397,"is_reserved":false,"is_disabled":false,"rental_uris":{"android":"levelo://app?vid=80507833-57fc-4199-a0f8-32eca269665b","ios":"levelo://app?vid=80507833-57fc-4199-a0f8-32eca269665b"},"vehicle_type_id":"4","last_reported":1743372538,"current_range_meters":3600,"station_id":"cpo36qri1sfpv3e86is0","pricing_plan_id":"cebpf4jnsgd1na2vs0mg"},{"bike_id":"3d8c4248-fb90-4796-a505-87409e78a7d4","system_id":"levelo_inurba_marseille","lat":43.28949,"lon":5.39627,"is_reserved":false,"is_disabled":false,"rental_uris":{"android":"levelo://app?vid=3d8c4248-fb90-4796-a505-87409e78a7d4","ios":"levelo://app?vid=3d8c4248-fb90-4796-a505-87409e78a7d4"},"vehicle_type_id":"4","last_reported":1743372538,"current_range_meters":3600,"station_id":"ce4bh3h2rcd13ifvqdn0","pricing_plan_id":"cebpf4jnsgd1na2vs0mg"},{"bike_id":"b5ace6c6-32e3-486d-9744-efb1ce0dfa9d","system_id":"levelo_inurba_marseille","lat":43.28912,"lon":5.36647,"is_reserved":false,"is_disabled":true,"rental_uris":{"android":"levelo://app?vid=b5ace6c6-32e3-486d-9744-efb1ce0dfa9d","ios":"levelo://app?vid=b5ace6c6-32e3-486d-9744-efb1ce0dfa9d"},"vehicle_type_id":"4","last_reported":1743372538,"current_range_meters":3600,"station_id":"ce4bhap2rcd13ifvqek0","pricing_plan_id":"cebpf4jnsgd1na2vs0mg"},{"bike_id":"468ca0b7-9321-45d4-8abe-547e6d36f3c1","system_id":"levelo_inurba_marseille","lat":43.28393,"lon":5.37533,"is_reserved":false,"is_disabled":false,"rental_uris":{"android":"levelo://app?vid=468ca0b7-9321-45d4-8abe-547e6d36f3c1","ios":"levelo://app?vid=468ca0b7-9321-45d4-8abe-547e6d36f3c1"},"vehicle_type_id":"4","last_reported":1743372538,"current_range_meters":4000,"station_id":"ce4bh412rcd13ifvqds0","pricing_plan_id":"cebpf4jnsgd1na2vs0mg"},{"bike_id":"66c55037-5c17-4ecc-9a6c-42f3df1071fd","system_id":"levelo_inurba_marseille","lat":43.28414,"lon":5.37532,"is_reserved":false,"is_disabled":false,"rental_uris":{"android":"levelo://app?vid=66c55037-5c17-4ecc-9a6c-42f3df1071fd","ios":"levelo://app?vid=66c55037-5c17-4ecc-9a6c-42f3df1071fd"},"vehicle_type_id":"4","last_reported":1743372538,"current_range_meters":3600,"station_id":"ce4bh412rcd13ifvqds0","pricing_plan_id":"cebpf4jnsgd1na2vs0mg"},{"bike_id":"f6806045-39fe-4b71-a6b3-769a295590b3","system_id":"levelo_inurba_marseille","lat":43.28931,"lon":5.3665,"is_reserved":false,"is_disabled":false,"rental_uris":{"android":"levelo://app?vid=f6806045-39fe-4b71-a6b3-769a295590b3","ios":"levelo://app?vid=f6806045-39fe-4b71-a6b3-769a295590b3"},"vehicle_type_id":"4","last_reported":1743372538,"current_range_meters":3600,"station_id":"ce4bhap2rcd13ifvqek0","pricing_plan_id":"cebpf4jnsgd1na2vs0mg"},{"bike_id":"5c0a1fd8-e8d8-46b0-b59b-e1254855ec6a","system_id":"levelo_inurba_marseille","lat":43.30316,"lon":5.40429,"is_reserved":false,"is_disabled":false,"rental_uris":{"android":"levelo://app?vid=5c0a1fd8-e8d8-46b0-b59b-e1254855ec6a","ios":"levelo://app?vid=5c0a1fd8-e8d8-46b0-b59b-e1254855ec6a"},"vehicle_type_id":"4","last_reported":1743372538,"current_range_meters":3600,"station_id":"ce4bh012rcd13ifvqd10","pricing_plan_id":"cebpf4jnsgd1na2vs0mg"},{"bike_id":"194bfe97-7a4c-42d1-823b-fd7e945b7fbe","system_id":"levelo_inurba_marseille","lat":43.25107,"lon":5.40325,"is_reserved":false,"is_disabled":false,"rental_uris":{"android":"levelo://app?vid=194bfe97-7a4c-42d1-823b-fd7e945b7fbe","ios":"levelo://app?vid=194bfe97-7a4c-42d1-823b-fd7e945b7fbe"},"vehicle_type_id":"4","last_reported":1743372538,"current_range_meters":4000,"station_id":"ce4bhlh2rcd13ifvqgig","pricing_plan_id":"cebpf4jnsgd1na2vs0mg"},{"bike_id":"603d50f9-1fa9-441c-a467-8f0460aecc04","system_id":"levelo_inurba_marseille","lat":43.29029,"lon":5.3862,"is_reserved":false,"is_disabled":false,"rental_uris":{"android":"levelo://app?vid=603d50f9-1fa9-441c-a467-8f0460aecc04","ios":"levelo://app?vid=603d50f9-1fa9-441c-a467-8f0460aecc04"},"vehicle_type_id":"4","last_reported":1743372538,"current_range_meters":4000,"station_id":"ce4bh4p2rcd13ifvqe0g","pricing_plan_id":"cebpf4jnsgd1na2vs0mg"},{"bike_id":"90e43240-5fbb-4984-89b9-4fe361656612","system_id":"levelo_inurba_marseille","lat":43.28697,"lon":5.37383,"is_reserved":false,"is_disabled":false,"rental_uris":{"android":"levelo://app?vid=90e43240-5fbb-4984-89b9-4fe361656612","ios":"levelo://app?vid=90e43240-5fbb-4984-89b9-4fe361656612"},"vehicle_type_id":"4","last_reported":1743372538,"current_range_meters":4000,"station_id":"ce4bh3p2rcd13ifvqdq0","pricing_plan_id":"cebpf4jnsgd1na2vs0mg"},{"bike_id":"761ced5a-5c25-496f-a9cb-7bf4a609bd79","system_id":"levelo_inurba_marseille","lat":43.291,"lon":5.38156,"is_reserved":false,"is_disabled":false,"rental_uris":{"android":"levelo://app?vid=761ced5a-5c25-496f-a9cb-7bf4a609bd79","ios":"levelo://app?vid=761ced5a-5c25-496f-a9cb-7bf4a609bd79"},"vehicle_type_id":"4","last_reported":1743372538,"current_range_meters":4000,"station_id":"ce4bh512rcd13ifvqe2g","pricing_plan_id":"cebpf4jnsgd1na2vs0mg"},{"bike_id":"08539e07-cffd-47ce-b393-bc38bb1497ad","system_id":"levelo_inurba_marseille","lat":43.24059,"lon":5.37766,"is_reserved":false,"is_disabled":false,"rental_uris":{"android":"levelo://app?vid=08539e07-cffd-47ce-b393-bc38bb1497ad","ios":"levelo://app?vid=08539e07-cffd-47ce-b393-bc38bb1497ad"},"vehicle_type_id":"4","last_reported":1743372538,"current_range_meters":4000,"station_id":"ce4bhnp2rcd13ifvqgvg","pricing_plan_id":"cebpf4jnsgd1na2vs0mg"},{"bike_id":"6b630bab-586d-4918-9387-11a7f141fc2e","system_id":"levelo_inurba_marseille","lat":43.30595,"lon":5.39342,"is_reserved":false,"is_disabled":false,"rental_uris":{"android":"levelo://app?vid=6b630bab-586d-4918-9387-11a7f141fc2e","ios":"levelo://app?vid=6b630bab-586d-4918-9387-11a7f141fc2e"},"vehicle_type_id":"4","last_reported":1743372538,"current_range_meters":4400,"station_id":"ce4bh0p2rcd13ifvqd80","pricing_plan_id":"cebpf4jnsgd1na2vs0mg"},{"bike_id":"085a361f-7074-488c-ad0a-3b0a850a01fb","system_id":"levelo_inurba_marseille","lat":43.27381,"lon":5.36251,"is_reserved":false,"is_disabled":true,"rental_uris":{"android":"levelo://app?vid=085a361f-7074-488c-ad0a-3b0a850a01fb","ios":"levelo://app?vid=085a361f-7074-488c-ad0a-3b0a850a01fb"},"vehicle_type_id":"4","last_reported":1743372538,"current_range_meters":4400,"station_id":"ce4bhbh2rcd13ifvqeo0","pricing_plan_id":"cebpf4jnsgd1na2vs0mg"},{"bike_id":"67ce2083-b8dd-4c06-869e-79a3d3b4ef01","system_id":"levelo_inurba_marseille","lat":43.24178,"lon":5.39715,"is_reserved":false,"is_disabled":false,"rental_uris":{"android":"levelo://app?vid=67ce2083-b8dd-4c06-869e-79a3d3b4ef01","ios":"levelo://app?vid=67ce2083-b8dd-4c06-869e-79a3d3b4ef01"},"vehicle_type_id":"4","last_reported":1743372538,"current_range_meters":4400,"station_id":"ce4bhn12rcd13ifvqgpg","pricing_plan_id":"cebpf4jnsgd1na2vs0mg"},{"bike_id":"7a16227c-8b85-46e8-a87c-8349c4711248","system_id":"levelo_inurba_marseille","lat":43.28109,"lon":5.44614,"is_reserved":false,"is_disabled":false,"rental_uris":{"android":"levelo://app?vid=7a16227c-8b85-46e8-a87c-8349c4711248","ios":"levelo://app?vid=7a16227c-8b85-46e8-a87c-8349c4711248"},"vehicle_type_id":"4","last_reported":1743372538,"current_range_meters":4800,"station_id":"","pricing_plan_id":"cebpf4jnsgd1na2vs0mg"},{"bike_id":"c53114f1-9725-423f-a9e8-d9d6ca6760b8","system_id":"levelo_inurba_marseille","lat":43.28668,"lon":5.38672,"is_reserved":false,"is_disabled":false,"rental_uris":{"android":"levelo://app?vid=c53114f1-9725-423f-a9e8-d9d6ca6760b8","ios":"levelo://app?vid=c53114f1-9725-423f-a9e8-d9d6ca6760b8"},"vehicle_type_id":"4","last_reported":1743372538,"current_range_meters":4800,"station_id":"ce4bh492rcd13ifvqdug","pricing_plan_id":"cebpf4jnsgd1na2vs0mg"},{"bike_id":"4338273a-af86-4d8d-a225-89d58418de20","system_id":"levelo_inurba_marseille","lat":43.301448,"lon":5.380744,"is_reserved":false,"is_disabled":false,"rental_uris":{"android":"levelo://app?vid=4338273a-af86-4d8d-a225-89d58418de20","ios":"levelo://app?vid=4338273a-af86-4d8d-a225-89d58418de20"},"vehicle_type_id":"4","last_reported":1743372538,"current_range_meters":4800,"station_id":"","pricing_plan_id":"cebpf4jnsgd1na2vs0mg"},{"bike_id":"360d9955-ff3f-47af-ab0b-5ac80505515c","system_id":"levelo_inurba_marseille","lat":43.24657,"lon":5.38156,"is_reserved":false,"is_disabled":false,"rental_uris":{"android":"levelo://app?vid=360d9955-ff3f-47af-ab0b-5ac80505515c","ios":"levelo://app?vid=360d9955-ff3f-47af-ab0b-5ac80505515c"},"vehicle_type_id":"4","last_reported":1743372538,"current_range_meters":4800,"station_id":"ce4bhih2rcd13ifvqfr0","pricing_plan_id":"cebpf4jnsgd1na2vs0mg"},{"bike_id":"94297c78-9551-48bb-8e6c-6b4b9126779c","system_id":"levelo_inurba_marseille","lat":43.29507,"lon":5.394,"is_reserved":false,"is_disabled":false,"rental_uris":{"android":"levelo://app?vid=94297c78-9551-48bb-8e6c-6b4b9126779c","ios":"levelo://app?vid=94297c78-9551-48bb-8e6c-6b4b9126779c"},"vehicle_type_id":"4","last_reported":1743372538,"current_range_meters":4800,"station_id":"ce4bh292rcd13ifvqdf0","pricing_plan_id":"cebpf4jnsgd1na2vs0mg"},{"bike_id":"e4023b76-3b3e-4e0a-83d8-f1f2c86a9a1a","system_id":"levelo_inurba_marseille","lat":43.25076,"lon":5.39549,"is_reserved":false,"is_disabled":false,"rental_uris":{"android":"levelo://app?vid=e4023b76-3b3e-4e0a-83d8-f1f2c86a9a1a","ios":"levelo://app?vid=e4023b76-3b3e-4e0a-83d8-f1f2c86a9a1a"},"vehicle_type_id":"4","last_reported":1743372538,"current_range_meters":5600,"station_id":"ce4bhm12rcd13ifvqgkg","pricing_plan_id":"cebpf4jnsgd1na2vs0mg"},{"bike_id":"4ac85f9e-5b07-4e93-b0ae-477825bffb27","system_id":"levelo_inurba_marseille","lat":43.23194,"lon":5.35554,"is_reserved":false,"is_disabled":false,"rental_uris":{"android":"levelo://app?vid=4ac85f9e-5b07-4e93-b0ae-477825bffb27","ios":"levelo://app?vid=4ac85f9e-5b07-4e93-b0ae-477825bffb27"},"vehicle_type_id":"4","last_reported":1743372538,"current_range_meters":5600,"station_id":"ce4bhu92rcd13ifvqi70","pricing_plan_id":"cebpf4jnsgd1na2vs0mg"},{"bike_id":"5a3307a6-54ca-44bc-a5fd-ab80751e6464","system_id":"levelo_inurba_marseille","lat":43.23197,"lon":5.39986,"is_reserved":false,"is_disabled":true,"rental_uris":{"android":"levelo://app?vid=5a3307a6-54ca-44bc-a5fd-ab80751e6464","ios":"levelo://app?vid=5a3307a6-54ca-44bc-a5fd-ab80751e6464"},"vehicle_type_id":"4","last_reported":1743372538,"current_range_meters":5600,"station_id":"ce4bhn12rcd13ifvqgqg","pricing_plan_id":"cebpf4jnsgd1na2vs0mg"},{"bike_id":"f4514236-06e3-48aa-92bb-49d186118376","system_id":"levelo_inurba_marseille","lat":43.24165,"lon":5.36409,"is_reserved":false,"is_disabled":false,"rental_uris":{"android":"levelo://app?vid=f4514236-06e3-48aa-92bb-49d186118376","ios":"levelo://app?vid=f4514236-06e3-48aa-92bb-49d186118376"},"vehicle_type_id":"4","last_reported":1743372538,"current_range_meters":5600,"station_id":"cpo36qri1sfpv3e86is0","pricing_plan_id":"cebpf4jnsgd1na2vs0mg"},{"bike_id":"0989588e-3eea-4836-bd73-bc5552b19111","system_id":"levelo_inurba_marseille","lat":43.29374,"lon":5.372394,"is_reserved":false,"is_disabled":false,"rental_uris":{"android":"levelo://app?vid=0989588e-3eea-4836-bd73-bc5552b19111","ios":"levelo://app?vid=0989588e-3eea-4836-bd73-bc5552b19111"},"vehicle_type_id":"4","last_reported":1743372538,"current_range_meters":5600,"station_id":"ce4bgt12rcd13ifvqce0","pricing_plan_id":"cebpf4jnsgd1na2vs0mg"},{"bike_id":"fe6d6f07-05ac-424a-b90b-cbc12e60b19c","system_id":"levelo_inurba_marseille","lat":43.28344,"lon":5.38096,"is_reserved":false,"is_disabled":false,"rental_uris":{"android":"levelo://app?vid=fe6d6f07-05ac-424a-b90b-cbc12e60b19c","ios":"levelo://app?vid=fe6d6f07-05ac-424a-b90b-cbc12e60b19c"},"vehicle_type_id":"4","last_reported":1743372538,"current_range_meters":6000,"station_id":"ce4bh412rcd13ifvqdr0","pricing_plan_id":"cebpf4jnsgd1na2vs0mg"},{"bike_id":"99864047-3ac3-45c4-a913-53ee9cea7446","system_id":"levelo_inurba_marseille","lat":43.28693,"lon":5.37398,"is_reserved":false,"is_disabled":true,"rental_uris":{"android":"levelo://app?vid=99864047-3ac3-45c4-a913-53ee9cea7446","ios":"levelo://app?vid=99864047-3ac3-45c4-a913-53ee9cea7446"},"vehicle_type_id":"4","last_reported":1743372538,"current_range_meters":6000,"station_id":"ce4bh3p2rcd13ifvqdq0","pricing_plan_id":"cebpf4jnsgd1na2vs0mg"},{"bike_id":"2c9578af-b0d9-47f5-ad7f-24de6a285c12","system_id":"levelo_inurba_marseille","lat":43.29108,"lon":5.38135,"is_reserved":false,"is_disabled":false,"rental_uris":{"android":"levelo://app?vid=2c9578af-b0d9-47f5-ad7f-24de6a285c12","ios":"levelo://app?vid=2c9578af-b0d9-47f5-ad7f-24de6a285c12"},"vehicle_type_id":"4","last_reported":1743372538,"current_range_meters":6000,"station_id":"ce4bh512rcd13ifvqe2g","pricing_plan_id":"cebpf4jnsgd1na2vs0mg"},{"bike_id":"614d701f-b765-49de-90e3-abc71b862e01","system_id":"levelo_inurba_marseille","lat":43.29854,"lon":5.38568,"is_reserved":false,"is_disabled":true,"rental_uris":{"android":"levelo://app?vid=614d701f-b765-49de-90e3-abc71b862e01","ios":"levelo://app?vid=614d701f-b765-49de-90e3-abc71b862e01"},"vehicle_type_id":"4","last_reported":1743372538,"current_range_meters":6000,"station_id":"","pricing_plan_id":"cebpf4jnsgd1na2vs0mg"},{"bike_id":"85062fdb-5189-4986-883f-98f74d185c95","system_id":"levelo_inurba_marseille","lat":43.27811,"lon":5.39202,"is_reserved":false,"is_disabled":false,"rental_uris":{"android":"levelo://app?vid=85062fdb-5189-4986-883f-98f74d185c95","ios":"levelo://app?vid=85062fdb-5189-4986-883f-98f74d185c95"},"vehicle_type_id":"4","last_reported":1743372538,"current_range_meters":6400,"station_id":"ce4bhjp2rcd13ifvqga0","pricing_plan_id":"cebpf4jnsgd1na2vs0mg"},{"bike_id":"3fa6784c-3d26-47f7-990e-cea03ca851d0","system_id":"levelo_inurba_marseille","lat":43.28668,"lon":5.36353,"is_reserved":false,"is_disabled":false,"rental_uris":{"android":"levelo://app?vid=3fa6784c-3d26-47f7-990e-cea03ca851d0","ios":"levelo://app?vid=3fa6784c-3d26-47f7-990e-cea03ca851d0"},"vehicle_type_id":"4","last_reported":1743372538,"current_range_meters":6400,"station_id":"ce4bhah2rcd13ifvqej0","pricing_plan_id":"cebpf4jnsgd1na2vs0mg"},{"bike_id":"1883c27e-144c-41ce-ab4f-aa27cd372bb9","system_id":"levelo_inurba_marseille","lat":43.2804,"lon":5.36945,"is_reserved":false,"is_disabled":false,"rental_uris":{"android":"levelo://app?vid=1883c27e-144c-41ce-ab4f-aa27cd372bb9","ios":"levelo://app?vid=1883c27e-144c-41ce-ab4f-aa27cd372bb9"},"vehicle_type_id":"4","last_reported":1743372538,"current_range_meters":6400,"station_id":"ce4bha12rcd13ifvqef0","pricing_plan_id":"cebpf4jnsgd1na2vs0mg"},{"bike_id":"861fba4a-9c12-463c-8a39-b4a694ea5d40","system_id":"levelo_inurba_marseille","lat":43.23959,"lon":5.36621,"is_reserved":false,"is_disabled":true,"rental_uris":{"android":"levelo://app?vid=861fba4a-9c12-463c-8a39-b4a694ea5d40","ios":"levelo://app?vid=861fba4a-9c12-463c-8a39-b4a694ea5d40"},"vehicle_type_id":"4","last_reported":1743372538,"current_range_meters":6400,"station_id":"ce4bhi12rcd13ifvqfp0","pricing_plan_id":"cebpf4jnsgd1na2vs0mg"},{"bike_id":"f6a81433-b908-475e-9e5d-bd451287b5f6","system_id":"levelo_inurba_marseille","lat":43.27817,"lon":5.39226,"is_reserved":false,"is_disabled":false,"rental_uris":{"android":"levelo://app?vid=f6a81433-b908-475e-9e5d-bd451287b5f6","ios":"levelo://app?vid=f6a81433-b908-475e-9e5d-bd451287b5f6"},"vehicle_type_id":"4","last_reported":1743372538,"current_range_meters":6800,"station_id":"ce4bhjp2rcd13ifvqga0","pricing_plan_id":"cebpf4jnsgd1na2vs0mg"},{"bike_id":"54de15d4-aa2f-497e-9dd8-50f79960a58d","system_id":"levelo_inurba_marseille","lat":43.29362,"lon":5.37859,"is_reserved":false,"is_disabled":false,"rental_uris":{"android":"levelo://app?vid=54de15d4-aa2f-497e-9dd8-50f79960a58d","ios":"levelo://app?vid=54de15d4-aa2f-497e-9dd8-50f79960a58d"},"vehicle_type_id":"4","last_reported":1743372538,"current_range_meters":6800,"station_id":"ce4bgjh2rcd13ifvqbf0","pricing_plan_id":"cebpf4jnsgd1na2vs0mg"},{"bike_id":"42bc7b23-0e2f-4d72-b583-40bcdabb28c7","system_id":"levelo_inurba_marseille","lat":43.29543,"lon":5.3738,"is_reserved":false,"is_disabled":false,"rental_uris":{"android":"levelo://app?vid=42bc7b23-0e2f-4d72-b583-40bcdabb28c7","ios":"levelo://app?vid=42bc7b23-0e2f-4d72-b583-40bcdabb28c7"},"vehicle_type_id":"4","last_reported":1743372538,"current_range_meters":6800,"station_id":"","pricing_plan_id":"cebpf4jnsgd1na2vs0mg"},{"bike_id":"4243a2b0-ae2b-4413-86a0-dc166b8594bc","system_id":"levelo_inurba_marseille","lat":43.24659,"lon":5.38151,"is_reserved":false,"is_disabled":false,"rental_uris":{"android":"levelo://app?vid=4243a2b0-ae2b-4413-86a0-dc166b8594bc","ios":"levelo://app?vid=4243a2b0-ae2b-4413-86a0-dc166b8594bc"},"vehicle_type_id":"4","last_reported":1743372538,"current_range_meters":6800,"station_id":"ce4bhih2rcd13ifvqfr0","pricing_plan_id":"cebpf4jnsgd1na2vs0mg"},{"bike_id":"96ac20e8-5840-4579-b371-184ec6253952","system_id":"levelo_inurba_marseille","lat":43.27611,"lon":5.40887,"is_reserved":false,"is_disabled":false,"rental_uris":{"android":"levelo://app?vid=96ac20e8-5840-4579-b371-184ec6253952","ios":"levelo://app?vid=96ac20e8-5840-4579-b371-184ec6253952"},"vehicle_type_id":"4","last_reported":1743372538,"current_range_meters":6800,"station_id":"","pricing_plan_id":"cebpf4jnsgd1na2vs0mg"},{"bike_id":"18ffd8b5-b58f-4ff4-99c4-d0284b97d3ff","system_id":"levelo_inurba_marseille","lat":43.28936,"lon":5.36645,"is_reserved":false,"is_disabled":false,"rental_uris":{"android":"levelo://app?vid=18ffd8b5-b58f-4ff4-99c4-d0284b97d3ff","ios":"levelo://app?vid=18ffd8b5-b58f-4ff4-99c4-d0284b97d3ff"},"vehicle_type_id":"4","last_reported":1743372538,"current_range_meters":6800,"station_id":"ce4bhap2rcd13ifvqek0","pricing_plan_id":"cebpf4jnsgd1na2vs0mg"},{"bike_id":"747d2bc2-6706-42d9-8381-8fcc8fac62bd","system_id":"levelo_inurba_marseille","lat":43.29011,"lon":5.37152,"is_reserved":false,"is_disabled":true,"rental_uris":{"android":"levelo://app?vid=747d2bc2-6706-42d9-8381-8fcc8fac62bd","ios":"levelo://app?vid=747d2bc2-6706-42d9-8381-8fcc8fac62bd"},"vehicle_type_id":"4","last_reported":1743372538,"current_range_meters":6800,"station_id":"","pricing_plan_id":"cebpf4jnsgd1na2vs0mg"},{"bike_id":"37f41d5f-3983-4db2-8781-c345307ed7b9","system_id":"levelo_inurba_marseille","lat":43.27493,"lon":5.42462,"is_reserved":false,"is_disabled":false,"rental_uris":{"android":"levelo://app?vid=37f41d5f-3983-4db2-8781-c345307ed7b9","ios":"levelo://app?vid=37f41d5f-3983-4db2-8781-c345307ed7b9"},"vehicle_type_id":"4","last_reported":1743372538,"current_range_meters":6800,"station_id":"ce4bhn92rcd13ifvqgrg","pricing_plan_id":"cebpf4jnsgd1na2vs0mg"},{"bike_id":"56d29448-d7b6-4e90-a159-3b8ae5c1099a","system_id":"levelo_inurba_marseille","lat":43.28342,"lon":5.3812,"is_reserved":false,"is_disabled":false,"rental_uris":{"android":"levelo://app?vid=56d29448-d7b6-4e90-a159-3b8ae5c1099a","ios":"levelo://app?vid=56d29448-d7b6-4e90-a159-3b8ae5c1099a"},"vehicle_type_id":"4","last_reported":1743372538,"current_range_meters":6800,"station_id":"ce4bh412rcd13ifvqdr0","pricing_plan_id":"cebpf4jnsgd1na2vs0mg"},{"bike_id":"95680750-2ec7-438d-ae6c-2a63efb22917","system_id":"levelo_inurba_marseille","lat":43.27073,"lon":5.42279,"is_reserved":false,"is_disabled":false,"rental_uris":{"android":"levelo://app?vid=95680750-2ec7-438d-ae6c-2a63efb22917","ios":"levelo://app?vid=95680750-2ec7-438d-ae6c-2a63efb22917"},"vehicle_type_id":"4","last_reported":1743372538,"current_range_meters":6800,"station_id":"ce4bhk92rcd13ifvqgb0","pricing_plan_id":"cebpf4jnsgd1na2vs0mg"},{"bike_id":"e0743fb3-3f95-41cc-baee-399e42fa0d56","system_id":"levelo_inurba_marseille","lat":43.25613,"lon":5.41148,"is_reserved":false,"is_disabled":false,"rental_uris":{"android":"levelo://app?vid=e0743fb3-3f95-41cc-baee-399e42fa0d56","ios":"levelo://app?vid=e0743fb3-3f95-41cc-baee-399e42fa0d56"},"vehicle_type_id":"4","last_reported":1743372538,"current_range_meters":7200,"station_id":"ce4bhkp2rcd13ifvqgd0","pricing_plan_id":"cebpf4jnsgd1na2vs0mg"},{"bike_id":"ea0f0861-9d06-4d26-8986-d926f68481ed","system_id":"levelo_inurba_marseille","lat":43.2791,"lon":5.39568,"is_reserved":false,"is_disabled":false,"rental_uris":{"android":"levelo://app?vid=ea0f0861-9d06-4d26-8986-d926f68481ed","ios":"levelo://app?vid=ea0f0861-9d06-4d26-8986-d926f68481ed"},"vehicle_type_id":"4","last_reported":1743372538,"current_range_meters":7200,"station_id":"ce4bhf92rcd13ifvqf40","pricing_plan_id":"cebpf4jnsgd1na2vs0mg"},{"bike_id":"c0bfecbc-96be-4cde-8bdd-07fcf1658ea7","system_id":"levelo_inurba_marseille","lat":43.2464,"lon":5.38149,"is_reserved":false,"is_disabled":false,"rental_uris":{"android":"levelo://app?vid=c0bfecbc-96be-4cde-8bdd-07fcf1658ea7","ios":"levelo://app?vid=c0bfecbc-96be-4cde-8bdd-07fcf1658ea7"},"vehicle_type_id":"4","last_reported":1743372538,"current_range_meters":7200,"station_id":"ce4bhih2rcd13ifvqfr0","pricing_plan_id":"cebpf4jnsgd1na2vs0mg"},{"bike_id":"25bb5fbc-8229-4010-b703-31f5ee6ac141","system_id":"levelo_inurba_marseille","lat":43.3062,"lon":5.36606,"is_reserved":false,"is_disabled":false,"rental_uris":{"android":"levelo://app?vid=25bb5fbc-8229-4010-b703-31f5ee6ac141","ios":"levelo://app?vid=25bb5fbc-8229-4010-b703-31f5ee6ac141"},"vehicle_type_id":"4","last_reported":1743372538,"current_range_meters":7200,"station_id":"","pricing_plan_id":"cebpf4jnsgd1na2vs0mg"},{"bike_id":"8dad926c-0482-4381-8a18-3a3a3659fbd1","system_id":"levelo_inurba_marseille","lat":43.28404,"lon":5.37515,"is_reserved":false,"is_disabled":false,"rental_uris":{"android":"levelo://app?vid=8dad926c-0482-4381-8a18-3a3a3659fbd1","ios":"levelo://app?vid=8dad926c-0482-4381-8a18-3a3a3659fbd1"},"vehicle_type_id":"4","last_reported":1743372538,"current_range_meters":7200,"station_id":"ce4bh412rcd13ifvqds0","pricing_plan_id":"cebpf4jnsgd1na2vs0mg"},{"bike_id":"d0ed36b4-3c5a-4da6-8fb4-955c321dd03a","system_id":"levelo_inurba_marseille","lat":43.27511,"lon":5.41024,"is_reserved":false,"is_disabled":false,"rental_uris":{"android":"levelo://app?vid=d0ed36b4-3c5a-4da6-8fb4-955c321dd03a","ios":"levelo://app?vid=d0ed36b4-3c5a-4da6-8fb4-955c321dd03a"},"vehicle_type_id":"4","last_reported":1743372538,"current_range_meters":7200,"station_id":"","pricing_plan_id":"cebpf4jnsgd1na2vs0mg"},{"bike_id":"44bb9070-7d21-4976-933c-1523f54ba066","system_id":"levelo_inurba_marseille","lat":43.29048,"lon":5.38655,"is_reserved":false,"is_disabled":false,"rental_uris":{"android":"levelo://app?vid=44bb9070-7d21-4976-933c-1523f54ba066","ios":"levelo://app?vid=44bb9070-7d21-4976-933c-1523f54ba066"},"vehicle_type_id":"4","last_reported":1743372538,"current_range_meters":7200,"station_id":"ce4bh4p2rcd13ifvqe0g","pricing_plan_id":"cebpf4jnsgd1na2vs0mg"},{"bike_id":"683e1a5b-3495-482e-90e8-7e1bb05f548c","system_id":"levelo_inurba_marseille","lat":43.28707,"lon":5.37944,"is_reserved":false,"is_disabled":false,"rental_uris":{"android":"levelo://app?vid=683e1a5b-3495-482e-90e8-7e1bb05f548c","ios":"levelo://app?vid=683e1a5b-3495-482e-90e8-7e1bb05f548c"},"vehicle_type_id":"4","last_reported":1743372538,"current_range_meters":7200,"station_id":"ce4bh9p2rcd13ifvqec0","pricing_plan_id":"cebpf4jnsgd1na2vs0mg"},{"bike_id":"cb950b1c-8de5-416f-ab3d-1f60f60b3d8d","system_id":"levelo_inurba_marseille","lat":43.28668,"lon":5.36342,"is_reserved":false,"is_disabled":false,"rental_uris":{"android":"levelo://app?vid=cb950b1c-8de5-416f-ab3d-1f60f60b3d8d","ios":"levelo://app?vid=cb950b1c-8de5-416f-ab3d-1f60f60b3d8d"},"vehicle_type_id":"4","last_reported":1743372538,"current_range_meters":7200,"station_id":"ce4bhah2rcd13ifvqej0","pricing_plan_id":"cebpf4jnsgd1na2vs0mg"},{"bike_id":"d30569fb-0935-4b72-9c30-dd645a8607ea","system_id":"levelo_inurba_marseille","lat":43.28429,"lon":5.34983,"is_reserved":false,"is_disabled":true,"rental_uris":{"android":"levelo://app?vid=d30569fb-0935-4b72-9c30-dd645a8607ea","ios":"levelo://app?vid=d30569fb-0935-4b72-9c30-dd645a8607ea"},"vehicle_type_id":"4","last_reported":1743372538,"current_range_meters":7200,"station_id":"ce4bhbh2rcd13ifvqepg","pricing_plan_id":"cebpf4jnsgd1na2vs0mg"},{"bike_id":"bd941b2d-2cb5-472c-998b-f4462c0a8cac","system_id":"levelo_inurba_marseille","lat":43.27942,"lon":5.41045,"is_reserved":false,"is_disabled":false,"rental_uris":{"android":"levelo://app?vid=bd941b2d-2cb5-472c-998b-f4462c0a8cac","ios":"levelo://app?vid=bd941b2d-2cb5-472c-998b-f4462c0a8cac"},"vehicle_type_id":"4","last_reported":1743372538,"current_range_meters":7200,"station_id":"ce4bhnp2rcd13ifvqh0g","pricing_plan_id":"cebpf4jnsgd1na2vs0mg"},{"bike_id":"488767ae-a52a-41d7-8f9a-e947164469f3","system_id":"levelo_inurba_marseille","lat":43.31624,"lon":5.41652,"is_reserved":false,"is_disabled":true,"rental_uris":{"android":"levelo://app?vid=488767ae-a52a-41d7-8f9a-e947164469f3","ios":"levelo://app?vid=488767ae-a52a-41d7-8f9a-e947164469f3"},"vehicle_type_id":"4","last_reported":1743372538,"current_range_meters":7200,"station_id":"","pricing_plan_id":"cebpf4jnsgd1na2vs0mg"},{"bike_id":"6a19d630-bf6c-4c8a-be64-a4b6492e3489","system_id":"levelo_inurba_marseille","lat":43.31126,"lon":5.37762,"is_reserved":false,"is_disabled":false,"rental_uris":{"android":"levelo://app?vid=6a19d630-bf6c-4c8a-be64-a4b6492e3489","ios":"levelo://app?vid=6a19d630-bf6c-4c8a-be64-a4b6492e3489"},"vehicle_type_id":"4","last_reported":1743372538,"current_range_meters":7200,"station_id":"ce4bgt92rcd13ifvqcg0","pricing_plan_id":"cebpf4jnsgd1na2vs0mg"},{"bike_id":"e0f87887-bbac-4396-92a7-794638fba6b7","system_id":"levelo_inurba_marseille","lat":43.29511,"lon":5.39412,"is_reserved":false,"is_disabled":false,"rental_uris":{"android":"levelo://app?vid=e0f87887-bbac-4396-92a7-794638fba6b7","ios":"levelo://app?vid=e0f87887-bbac-4396-92a7-794638fba6b7"},"vehicle_type_id":"4","last_reported":1743372538,"current_range_meters":7200,"station_id":"ce4bh292rcd13ifvqdf0","pricing_plan_id":"cebpf4jnsgd1na2vs0mg"},{"bike_id":"a1b57a7d-00ed-4876-8fa5-52d70e91b2be","system_id":"levelo_inurba_marseille","lat":43.29301,"lon":5.3744,"is_reserved":false,"is_disabled":false,"rental_uris":{"android":"levelo://app?vid=a1b57a7d-00ed-4876-8fa5-52d70e91b2be","ios":"levelo://app?vid=a1b57a7d-00ed-4876-8fa5-52d70e91b2be"},"vehicle_type_id":"4","last_reported":1743372538,"current_range_meters":7200,"station_id":"ce4bgi12rcd13ifvqb70","pricing_plan_id":"cebpf4jnsgd1na2vs0mg"},{"bike_id":"bdbdce4c-5fff-4c79-8b19-028954e4b665","system_id":"levelo_inurba_marseille","lat":43.28416,"lon":5.37532,"is_reserved":false,"is_disabled":false,"rental_uris":{"android":"levelo://app?vid=bdbdce4c-5fff-4c79-8b19-028954e4b665","ios":"levelo://app?vid=bdbdce4c-5fff-4c79-8b19-028954e4b665"},"vehicle_type_id":"4","last_reported":1743372538,"current_range_meters":7200,"station_id":"ce4bh412rcd13ifvqds0","pricing_plan_id":"cebpf4jnsgd1na2vs0mg"},{"bike_id":"f247edf8-4742-4130-aaed-c423703f6865","system_id":"levelo_inurba_marseille","lat":43.28943,"lon":5.36636,"is_reserved":false,"is_disabled":false,"rental_uris":{"android":"levelo://app?vid=f247edf8-4742-4130-aaed-c423703f6865","ios":"levelo://app?vid=f247edf8-4742-4130-aaed-c423703f6865"},"vehicle_type_id":"4","last_reported":1743372538,"current_range_meters":7200,"station_id":"ce4bhap2rcd13ifvqek0","pricing_plan_id":"cebpf4jnsgd1na2vs0mg"},{"bike_id":"93b55f3d-b1dd-4f3f-b1f6-f78029e736da","system_id":"levelo_inurba_marseille","lat":43.23144,"lon":5.43722,"is_reserved":false,"is_disabled":false,"rental_uris":{"android":"levelo://app?vid=93b55f3d-b1dd-4f3f-b1f6-f78029e736da","ios":"levelo://app?vid=93b55f3d-b1dd-4f3f-b1f6-f78029e736da"},"vehicle_type_id":"4","last_reported":1743372538,"current_range_meters":8000,"station_id":"ce4bhmp2rcd13ifvqgog","pricing_plan_id":"cebpf4jnsgd1na2vs0mg"},{"bike_id":"5e71dd55-0f7d-421a-9d46-87de1612b0c6","system_id":"levelo_inurba_marseille","lat":43.285021,"lon":5.385411,"is_reserved":false,"is_disabled":false,"rental_uris":{"android":"levelo://app?vid=5e71dd55-0f7d-421a-9d46-87de1612b0c6","ios":"levelo://app?vid=5e71dd55-0f7d-421a-9d46-87de1612b0c6"},"vehicle_type_id":"4","last_reported":1743372538,"current_range_meters":8000,"station_id":"ce4bh8p2rcd13ifvqeb0","pricing_plan_id":"cebpf4jnsgd1na2vs0mg"},{"bike_id":"0bd05e5a-21c4-4c5d-8e58-f818e6cbd2b3","system_id":"levelo_inurba_marseille","lat":43.30884,"lon":5.39645,"is_reserved":false,"is_disabled":false,"rental_uris":{"android":"levelo://app?vid=0bd05e5a-21c4-4c5d-8e58-f818e6cbd2b3","ios":"levelo://app?vid=0bd05e5a-21c4-4c5d-8e58-f818e6cbd2b3"},"vehicle_type_id":"4","last_reported":1743372538,"current_range_meters":8000,"station_id":"ce4bh012rcd13ifvqcv0","pricing_plan_id":"cebpf4jnsgd1na2vs0mg"},{"bike_id":"f1f937ef-3e56-40c0-91fd-d5a532c01480","system_id":"levelo_inurba_marseille","lat":43.24684,"lon":5.3817,"is_reserved":false,"is_disabled":true,"rental_uris":{"android":"levelo://app?vid=f1f937ef-3e56-40c0-91fd-d5a532c01480","ios":"levelo://app?vid=f1f937ef-3e56-40c0-91fd-d5a532c01480"},"vehicle_type_id":"4","last_reported":1743372538,"current_range_meters":8000,"station_id":"ce4bhih2rcd13ifvqfr0","pricing_plan_id":"cebpf4jnsgd1na2vs0mg"},{"bike_id":"eb4db687-25ee-443f-a35c-1047fbf585b5","system_id":"levelo_inurba_marseille","lat":43.284,"lon":5.37534,"is_reserved":false,"is_disabled":false,"rental_uris":{"android":"levelo://app?vid=eb4db687-25ee-443f-a35c-1047fbf585b5","ios":"levelo://app?vid=eb4db687-25ee-443f-a35c-1047fbf585b5"},"vehicle_type_id":"4","last_reported":1743372538,"current_range_meters":8000,"station_id":"ce4bh412rcd13ifvqds0","pricing_plan_id":"cebpf4jnsgd1na2vs0mg"},{"bike_id":"73484ef5-38ac-45ee-8637-95752d42965e","system_id":"levelo_inurba_marseille","lat":43.30983,"lon":5.37983,"is_reserved":false,"is_disabled":true,"rental_uris":{"android":"levelo://app?vid=73484ef5-38ac-45ee-8637-95752d42965e","ios":"levelo://app?vid=73484ef5-38ac-45ee-8637-95752d42965e"},"vehicle_type_id":"4","last_reported":1743372538,"current_range_meters":8000,"station_id":"","pricing_plan_id":"cebpf4jnsgd1na2vs0mg"},{"bike_id":"81ca7ad4-111c-41a1-8523-4f9c68c95487","system_id":"levelo_inurba_marseille","lat":43.27924,"lon":5.41055,"is_reserved":false,"is_disabled":false,"rental_uris":{"android":"levelo://app?vid=81ca7ad4-111c-41a1-8523-4f9c68c95487","ios":"levelo://app?vid=81ca7ad4-111c-41a1-8523-4f9c68c95487"},"vehicle_type_id":"4","last_reported":1743372538,"current_range_meters":8000,"station_id":"ce4bhnp2rcd13ifvqh0g","pricing_plan_id":"cebpf4jnsgd1na2vs0mg"},{"bike_id":"feae1bc9-79f9-4ea6-a617-860834b223f0","system_id":"levelo_inurba_marseille","lat":43.31332,"lon":5.39689,"is_reserved":false,"is_disabled":false,"rental_uris":{"android":"levelo://app?vid=feae1bc9-79f9-4ea6-a617-860834b223f0","ios":"levelo://app?vid=feae1bc9-79f9-4ea6-a617-860834b223f0"},"vehicle_type_id":"4","last_reported":1743372538,"current_range_meters":8000,"station_id":"ce4bgvp2rcd13ifvqcu0","pricing_plan_id":"cebpf4jnsgd1na2vs0mg"},{"bike_id":"1a19be2c-4d6f-4c17-93ea-16abc221547c","system_id":"levelo_inurba_marseille","lat":43.28697,"lon":5.3793,"is_reserved":false,"is_disabled":false,"rental_uris":{"android":"levelo://app?vid=1a19be2c-4d6f-4c17-93ea-16abc221547c","ios":"levelo://app?vid=1a19be2c-4d6f-4c17-93ea-16abc221547c"},"vehicle_type_id":"4","last_reported":1743372538,"current_range_meters":8000,"station_id":"ce4bh9p2rcd13ifvqec0","pricing_plan_id":"cebpf4jnsgd1na2vs0mg"},{"bike_id":"7325f9cd-e964-451a-9d25-93e7785861e7","system_id":"levelo_inurba_marseille","lat":43.27545,"lon":5.38437,"is_reserved":false,"is_disabled":false,"rental_uris":{"android":"levelo://app?vid=7325f9cd-e964-451a-9d25-93e7785861e7","ios":"levelo://app?vid=7325f9cd-e964-451a-9d25-93e7785861e7"},"vehicle_type_id":"4","last_reported":1743372538,"current_range_meters":8000,"station_id":"ce4bhh92rcd13ifvqfi0","pricing_plan_id":"cebpf4jnsgd1na2vs0mg"},{"bike_id":"bc1ef0c2-17d8-427e-a10c-9b9658a85853","system_id":"levelo_inurba_marseille","lat":43.24161,"lon":5.39714,"is_reserved":false,"is_disabled":true,"rental_uris":{"android":"levelo://app?vid=bc1ef0c2-17d8-427e-a10c-9b9658a85853","ios":"levelo://app?vid=bc1ef0c2-17d8-427e-a10c-9b9658a85853"},"vehicle_type_id":"4","last_reported":1743372538,"current_range_meters":8000,"station_id":"ce4bhn12rcd13ifvqgpg","pricing_plan_id":"cebpf4jnsgd1na2vs0mg"},{"bike_id":"bf3ebb22-2253-4d9b-931c-88f35b807720","system_id":"levelo_inurba_marseille","lat":43.28706,"lon":5.39998,"is_reserved":false,"is_disabled":false,"rental_uris":{"android":"levelo://app?vid=bf3ebb22-2253-4d9b-931c-88f35b807720","ios":"levelo://app?vid=bf3ebb22-2253-4d9b-931c-88f35b807720"},"vehicle_type_id":"4","last_reported":1743372538,"current_range_meters":8000,"station_id":"ce4bho92rcd13ifvqh3g","pricing_plan_id":"cebpf4jnsgd1na2vs0mg"},{"bike_id":"1b17f50c-9f8e-4b44-a931-69e661a1b05b","system_id":"levelo_inurba_marseille","lat":43.24662,"lon":5.38156,"is_reserved":false,"is_disabled":false,"rental_uris":{"android":"levelo://app?vid=1b17f50c-9f8e-4b44-a931-69e661a1b05b","ios":"levelo://app?vid=1b17f50c-9f8e-4b44-a931-69e661a1b05b"},"vehicle_type_id":"4","last_reported":1743372538,"current_range_meters":8000,"station_id":"ce4bhih2rcd13ifvqfr0","pricing_plan_id":"cebpf4jnsgd1na2vs0mg"},{"bike_id":"9f3a15ee-95f3-43a3-bd47-3e56b9e4eb34","system_id":"levelo_inurba_marseille","lat":43.26228,"lon":5.4045,"is_reserved":false,"is_disabled":false,"rental_uris":{"android":"levelo://app?vid=9f3a15ee-95f3-43a3-bd47-3e56b9e4eb34","ios":"levelo://app?vid=9f3a15ee-95f3-43a3-bd47-3e56b9e4eb34"},"vehicle_type_id":"4","last_reported":1743372538,"current_range_meters":8000,"station_id":"ce4bhmh2rcd13ifvqgmg","pricing_plan_id":"cebpf4jnsgd1na2vs0mg"},{"bike_id":"6c649787-1fb1-48d1-a8fc-6081cbc7958a","system_id":"levelo_inurba_marseille","lat":43.311053,"lon":5.37784,"is_reserved":false,"is_disabled":false,"rental_uris":{"android":"levelo://app?vid=6c649787-1fb1-48d1-a8fc-6081cbc7958a","ios":"levelo://app?vid=6c649787-1fb1-48d1-a8fc-6081cbc7958a"},"vehicle_type_id":"4","last_reported":1743372538,"current_range_meters":8400,"station_id":"ce4bgt92rcd13ifvqcg0","pricing_plan_id":"cebpf4jnsgd1na2vs0mg"},{"bike_id":"f43cccf4-7cd2-4fa6-9fbb-fb74d7164516","system_id":"levelo_inurba_marseille","lat":43.24091,"lon":5.3779,"is_reserved":false,"is_disabled":false,"rental_uris":{"android":"levelo://app?vid=f43cccf4-7cd2-4fa6-9fbb-fb74d7164516","ios":"levelo://app?vid=f43cccf4-7cd2-4fa6-9fbb-fb74d7164516"},"vehicle_type_id":"4","last_reported":1743372538,"current_range_meters":8400,"station_id":"ce4bhnp2rcd13ifvqgvg","pricing_plan_id":"cebpf4jnsgd1na2vs0mg"},{"bike_id":"76d4ed16-8625-4a14-a5f1-d28ac2574c13","system_id":"levelo_inurba_marseille","lat":43.24543,"lon":5.39525,"is_reserved":false,"is_disabled":false,"rental_uris":{"android":"levelo://app?vid=76d4ed16-8625-4a14-a5f1-d28ac2574c13","ios":"levelo://app?vid=76d4ed16-8625-4a14-a5f1-d28ac2574c13"},"vehicle_type_id":"4","last_reported":1743372538,"current_range_meters":8400,"station_id":"ce4bhlp2rcd13ifvqgjg","pricing_plan_id":"cebpf4jnsgd1na2vs0mg"},{"bike_id":"3b6d2e40-f4c8-4b87-a7f6-2b1686bde9a4","system_id":"levelo_inurba_marseille","lat":43.28346,"lon":5.38118,"is_reserved":false,"is_disabled":false,"rental_uris":{"android":"levelo://app?vid=3b6d2e40-f4c8-4b87-a7f6-2b1686bde9a4","ios":"levelo://app?vid=3b6d2e40-f4c8-4b87-a7f6-2b1686bde9a4"},"vehicle_type_id":"4","last_reported":1743372538,"current_range_meters":8400,"station_id":"ce4bh412rcd13ifvqdr0","pricing_plan_id":"cebpf4jnsgd1na2vs0mg"},{"bike_id":"6abfcf76-b46b-48ec-9741-222295465860","system_id":"levelo_inurba_marseille","lat":43.28598,"lon":5.37091,"is_reserved":false,"is_disabled":false,"rental_uris":{"android":"levelo://app?vid=6abfcf76-b46b-48ec-9741-222295465860","ios":"levelo://app?vid=6abfcf76-b46b-48ec-9741-222295465860"},"vehicle_type_id":"4","last_reported":1743372538,"current_range_meters":8400,"station_id":"ce4bh312rcd13ifvqdj0","pricing_plan_id":"cebpf4jnsgd1na2vs0mg"},{"bike_id":"ec214d59-e307-435e-82f5-8a58499dbb5f","system_id":"levelo_inurba_marseille","lat":43.27559,"lon":5.38437,"is_reserved":false,"is_disabled":false,"rental_uris":{"android":"levelo://app?vid=ec214d59-e307-435e-82f5-8a58499dbb5f","ios":"levelo://app?vid=ec214d59-e307-435e-82f5-8a58499dbb5f"},"vehicle_type_id":"4","last_reported":1743372538,"current_range_meters":8400,"station_id":"ce4bhh92rcd13ifvqfi0","pricing_plan_id":"cebpf4jnsgd1na2vs0mg"},{"bike_id":"bc42f48d-0edb-4b81-a823-274e5dc8d60a","system_id":"levelo_inurba_marseille","lat":43.30309,"lon":5.36906,"is_reserved":false,"is_disabled":false,"rental_uris":{"android":"levelo://app?vid=bc42f48d-0edb-4b81-a823-274e5dc8d60a","ios":"levelo://app?vid=bc42f48d-0edb-4b81-a823-274e5dc8d60a"},"vehicle_type_id":"4","last_reported":1743372538,"current_range_meters":8400,"station_id":"ce4bgqh2rcd13ifvqc5g","pricing_plan_id":"cebpf4jnsgd1na2vs0mg"},{"bike_id":"d9099e9a-b19d-4175-a73e-dd7958ed92e0","system_id":"levelo_inurba_marseille","lat":43.23062,"lon":5.3548,"is_reserved":false,"is_disabled":true,"rental_uris":{"android":"levelo://app?vid=d9099e9a-b19d-4175-a73e-dd7958ed92e0","ios":"levelo://app?vid=d9099e9a-b19d-4175-a73e-dd7958ed92e0"},"vehicle_type_id":"4","last_reported":1743372538,"current_range_meters":8400,"station_id":"cpo3342slgdg3j2ifvpg","pricing_plan_id":"cebpf4jnsgd1na2vs0mg"},{"bike_id":"1492b712-dbf8-42ad-b283-96bac92ceb20","system_id":"levelo_inurba_marseille","lat":43.31321,"lon":5.39718,"is_reserved":false,"is_disabled":false,"rental_uris":{"android":"levelo://app?vid=1492b712-dbf8-42ad-b283-96bac92ceb20","ios":"levelo://app?vid=1492b712-dbf8-42ad-b283-96bac92ceb20"},"vehicle_type_id":"4","last_reported":1743372538,"current_range_meters":8400,"station_id":"ce4bgvp2rcd13ifvqcu0","pricing_plan_id":"cebpf4jnsgd1na2vs0mg"},{"bike_id":"fb5a3640-c2bd-4d5a-a532-631ac7449c3d","system_id":"levelo_inurba_marseille","lat":43.27996,"lon":5.40937,"is_reserved":false,"is_disabled":false,"rental_uris":{"android":"levelo://app?vid=fb5a3640-c2bd-4d5a-a532-631ac7449c3d","ios":"levelo://app?vid=fb5a3640-c2bd-4d5a-a532-631ac7449c3d"},"vehicle_type_id":"4","last_reported":1743372538,"current_range_meters":8400,"station_id":"","pricing_plan_id":"cebpf4jnsgd1na2vs0mg"},{"bike_id":"b1a1d008-a51b-4530-81c0-a11010b0e67b","system_id":"levelo_inurba_marseille","lat":43.28158,"lon":5.42733,"is_reserved":false,"is_disabled":false,"rental_uris":{"android":"levelo://app?vid=b1a1d008-a51b-4530-81c0-a11010b0e67b","ios":"levelo://app?vid=b1a1d008-a51b-4530-81c0-a11010b0e67b"},"vehicle_type_id":"4","last_reported":1743372538,"current_range_meters":8400,"station_id":"ce4bhnh2rcd13ifvqgug","pricing_plan_id":"cebpf4jnsgd1na2vs0mg"},{"bike_id":"2d16f48d-83a2-470b-9e5a-cd82df0f597b","system_id":"levelo_inurba_marseille","lat":43.25122,"lon":5.40328,"is_reserved":false,"is_disabled":false,"rental_uris":{"android":"levelo://app?vid=2d16f48d-83a2-470b-9e5a-cd82df0f597b","ios":"levelo://app?vid=2d16f48d-83a2-470b-9e5a-cd82df0f597b"},"vehicle_type_id":"4","last_reported":1743372538,"current_range_meters":8400,"station_id":"ce4bhlh2rcd13ifvqgig","pricing_plan_id":"cebpf4jnsgd1na2vs0mg"},{"bike_id":"5ff82159-db68-4435-82f5-9f6c0a349f38","system_id":"levelo_inurba_marseille","lat":43.28437,"lon":5.39195,"is_reserved":false,"is_disabled":false,"rental_uris":{"android":"levelo://app?vid=5ff82159-db68-4435-82f5-9f6c0a349f38","ios":"levelo://app?vid=5ff82159-db68-4435-82f5-9f6c0a349f38"},"vehicle_type_id":"4","last_reported":1743372538,"current_range_meters":8400,"station_id":"ce4bhoh2rcd13ifvqh5g","pricing_plan_id":"cebpf4jnsgd1na2vs0mg"},{"bike_id":"9ed69624-3b57-4436-ba9e-f6097ca1a4d2","system_id":"levelo_inurba_marseille","lat":43.27943,"lon":5.41043,"is_reserved":false,"is_disabled":false,"rental_uris":{"android":"levelo://app?vid=9ed69624-3b57-4436-ba9e-f6097ca1a4d2","ios":"levelo://app?vid=9ed69624-3b57-4436-ba9e-f6097ca1a4d2"},"vehicle_type_id":"4","last_reported":1743372538,"current_range_meters":8400,"station_id":"ce4bhnp2rcd13ifvqh0g","pricing_plan_id":"cebpf4jnsgd1na2vs0mg"},{"bike_id":"6995bcd1-b1cc-4780-80c3-df67787fe1d4","system_id":"levelo_inurba_marseille","lat":43.28469,"lon":5.358817,"is_reserved":false,"is_disabled":false,"rental_uris":{"android":"levelo://app?vid=6995bcd1-b1cc-4780-80c3-df67787fe1d4","ios":"levelo://app?vid=6995bcd1-b1cc-4780-80c3-df67787fe1d4"},"vehicle_type_id":"4","last_reported":1743372538,"current_range_meters":8400,"station_id":"ce4bhah2rcd13ifvqei0","pricing_plan_id":"cebpf4jnsgd1na2vs0mg"},{"bike_id":"1d521185-72a0-434d-966c-14202d1200b5","system_id":"levelo_inurba_marseille","lat":43.3124,"lon":5.36897,"is_reserved":false,"is_disabled":false,"rental_uris":{"android":"levelo://app?vid=1d521185-72a0-434d-966c-14202d1200b5","ios":"levelo://app?vid=1d521185-72a0-434d-966c-14202d1200b5"},"vehicle_type_id":"4","last_reported":1743372538,"current_range_meters":8400,"station_id":"ce4bgl92rcd13ifvqbq0","pricing_plan_id":"cebpf4jnsgd1na2vs0mg"},{"bike_id":"82d8e203-da64-466b-9b1d-e9f0a9bfebfe","system_id":"levelo_inurba_marseille","lat":43.32545,"lon":5.41441,"is_reserved":false,"is_disabled":true,"rental_uris":{"android":"levelo://app?vid=82d8e203-da64-466b-9b1d-e9f0a9bfebfe","ios":"levelo://app?vid=82d8e203-da64-466b-9b1d-e9f0a9bfebfe"},"vehicle_type_id":"4","last_reported":1743372538,"current_range_meters":8800,"station_id":"ce4bhq12rcd13ifvqhhg","pricing_plan_id":"cebpf4jnsgd1na2vs0mg"},{"bike_id":"9e41fa41-0b95-4c96-8a49-e8b8589958b5","system_id":"levelo_inurba_marseille","lat":43.27497,"lon":5.42456,"is_reserved":false,"is_disabled":false,"rental_uris":{"android":"levelo://app?vid=9e41fa41-0b95-4c96-8a49-e8b8589958b5","ios":"levelo://app?vid=9e41fa41-0b95-4c96-8a49-e8b8589958b5"},"vehicle_type_id":"4","last_reported":1743372538,"current_range_meters":8800,"station_id":"ce4bhn92rcd13ifvqgrg","pricing_plan_id":"cebpf4jnsgd1na2vs0mg"},{"bike_id":"a61e929a-8f51-4802-a48f-59a3600cc8f3","system_id":"levelo_inurba_marseille","lat":43.24681,"lon":5.3815,"is_reserved":false,"is_disabled":false,"rental_uris":{"android":"levelo://app?vid=a61e929a-8f51-4802-a48f-59a3600cc8f3","ios":"levelo://app?vid=a61e929a-8f51-4802-a48f-59a3600cc8f3"},"vehicle_type_id":"4","last_reported":1743372538,"current_range_meters":8800,"station_id":"ce4bhih2rcd13ifvqfr0","pricing_plan_id":"cebpf4jnsgd1na2vs0mg"},{"bike_id":"b8418a84-494a-4bca-ba32-2eb7d4d1ee25","system_id":"levelo_inurba_marseille","lat":43.28148,"lon":5.42654,"is_reserved":false,"is_disabled":false,"rental_uris":{"android":"levelo://app?vid=b8418a84-494a-4bca-ba32-2eb7d4d1ee25","ios":"levelo://app?vid=b8418a84-494a-4bca-ba32-2eb7d4d1ee25"},"vehicle_type_id":"4","last_reported":1743372538,"current_range_meters":8800,"station_id":"ce4bhnh2rcd13ifvqgug","pricing_plan_id":"cebpf4jnsgd1na2vs0mg"},{"bike_id":"b6efc305-df1b-4d74-adbd-3d6638f82769","system_id":"levelo_inurba_marseille","lat":43.23175,"lon":5.39991,"is_reserved":false,"is_disabled":false,"rental_uris":{"android":"levelo://app?vid=b6efc305-df1b-4d74-adbd-3d6638f82769","ios":"levelo://app?vid=b6efc305-df1b-4d74-adbd-3d6638f82769"},"vehicle_type_id":"4","last_reported":1743372538,"current_range_meters":8800,"station_id":"ce4bhn12rcd13ifvqgqg","pricing_plan_id":"cebpf4jnsgd1na2vs0mg"},{"bike_id":"86f139b9-ffd3-4a79-86e8-d22d017328ee","system_id":"levelo_inurba_marseille","lat":43.34726,"lon":5.38159,"is_reserved":false,"is_disabled":false,"rental_uris":{"android":"levelo://app?vid=86f139b9-ffd3-4a79-86e8-d22d017328ee","ios":"levelo://app?vid=86f139b9-ffd3-4a79-86e8-d22d017328ee"},"vehicle_type_id":"4","last_reported":1743372538,"current_range_meters":8800,"station_id":"","pricing_plan_id":"cebpf4jnsgd1na2vs0mg"},{"bike_id":"d0eb5eab-ee9f-44c6-967d-4c60aa7c46b4","system_id":"levelo_inurba_marseille","lat":43.23172,"lon":5.39986,"is_reserved":false,"is_disabled":false,"rental_uris":{"android":"levelo://app?vid=d0eb5eab-ee9f-44c6-967d-4c60aa7c46b4","ios":"levelo://app?vid=d0eb5eab-ee9f-44c6-967d-4c60aa7c46b4"},"vehicle_type_id":"4","last_reported":1743372538,"current_range_meters":8400,"station_id":"ce4bhn12rcd13ifvqgqg","pricing_plan_id":"cebpf4jnsgd1na2vs0mg"},{"bike_id":"0d48df8e-25d3-4bea-9b13-4e7c28d30250","system_id":"levelo_inurba_marseille","lat":43.27582,"lon":5.38415,"is_reserved":false,"is_disabled":false,"rental_uris":{"android":"levelo://app?vid=0d48df8e-25d3-4bea-9b13-4e7c28d30250","ios":"levelo://app?vid=0d48df8e-25d3-4bea-9b13-4e7c28d30250"},"vehicle_type_id":"4","last_reported":1743372538,"current_range_meters":8800,"station_id":"ce4bhh92rcd13ifvqfi0","pricing_plan_id":"cebpf4jnsgd1na2vs0mg"},{"bike_id":"5c49fc8b-b573-44cd-9da2-767f8f7a765b","system_id":"levelo_inurba_marseille","lat":43.31759,"lon":5.39021,"is_reserved":false,"is_disabled":false,"rental_uris":{"android":"levelo://app?vid=5c49fc8b-b573-44cd-9da2-767f8f7a765b","ios":"levelo://app?vid=5c49fc8b-b573-44cd-9da2-767f8f7a765b"},"vehicle_type_id":"4","last_reported":1743372538,"current_range_meters":9200,"station_id":"ce4bhqp2rcd13ifvqhng","pricing_plan_id":"cebpf4jnsgd1na2vs0mg"},{"bike_id":"533dde56-3c6f-4b30-a6d4-69433b869256","system_id":"levelo_inurba_marseille","lat":43.28706,"lon":5.39979,"is_reserved":false,"is_disabled":false,"rental_uris":{"android":"levelo://app?vid=533dde56-3c6f-4b30-a6d4-69433b869256","ios":"levelo://app?vid=533dde56-3c6f-4b30-a6d4-69433b869256"},"vehicle_type_id":"4","last_reported":1743372538,"current_range_meters":9200,"station_id":"ce4bho92rcd13ifvqh3g","pricing_plan_id":"cebpf4jnsgd1na2vs0mg"},{"bike_id":"bfcad82b-6acc-493c-b418-93ec0bae17e4","system_id":"levelo_inurba_marseille","lat":43.32075,"lon":5.36805,"is_reserved":false,"is_disabled":false,"rental_uris":{"android":"levelo://app?vid=bfcad82b-6acc-493c-b418-93ec0bae17e4","ios":"levelo://app?vid=bfcad82b-6acc-493c-b418-93ec0bae17e4"},"vehicle_type_id":"4","last_reported":1743372538,"current_range_meters":9200,"station_id":"ce4bhrh2rcd13ifvqhug","pricing_plan_id":"cebpf4jnsgd1na2vs0mg"},{"bike_id":"5fc8b285-2871-4c39-b555-a8b102f78865","system_id":"levelo_inurba_marseille","lat":43.22925,"lon":5.3541,"is_reserved":false,"is_disabled":false,"rental_uris":{"android":"levelo://app?vid=5fc8b285-2871-4c39-b555-a8b102f78865","ios":"levelo://app?vid=5fc8b285-2871-4c39-b555-a8b102f78865"},"vehicle_type_id":"4","last_reported":1743372538,"current_range_meters":9200,"station_id":"cpo3532slgdg3j2ikp40","pricing_plan_id":"cebpf4jnsgd1na2vs0mg"},{"bike_id":"d8cd430a-ec97-45db-a9d1-9d7b9e88dd86","system_id":"levelo_inurba_marseille","lat":43.32317,"lon":5.38885,"is_reserved":false,"is_disabled":false,"rental_uris":{"android":"levelo://app?vid=d8cd430a-ec97-45db-a9d1-9d7b9e88dd86","ios":"levelo://app?vid=d8cd430a-ec97-45db-a9d1-9d7b9e88dd86"},"vehicle_type_id":"4","last_reported":1743372538,"current_range_meters":9200,"station_id":"","pricing_plan_id":"cebpf4jnsgd1na2vs0mg"},{"bike_id":"cb8c9ca5-9083-4e86-9e9f-2bc245af5095","system_id":"levelo_inurba_marseille","lat":43.28644,"lon":5.37664,"is_reserved":false,"is_disabled":true,"rental_uris":{"android":"levelo://app?vid=cb8c9ca5-9083-4e86-9e9f-2bc245af5095","ios":"levelo://app?vid=cb8c9ca5-9083-4e86-9e9f-2bc245af5095"},"vehicle_type_id":"4","last_reported":1743372538,"current_range_meters":9200,"station_id":"ce4bh412rcd13ifvqds0","pricing_plan_id":"cebpf4jnsgd1na2vs0mg"},{"bike_id":"ad60912c-6000-4325-92cb-03d07db25537","system_id":"levelo_inurba_marseille","lat":43.286927,"lon":5.399963,"is_reserved":false,"is_disabled":false,"rental_uris":{"android":"levelo://app?vid=ad60912c-6000-4325-92cb-03d07db25537","ios":"levelo://app?vid=ad60912c-6000-4325-92cb-03d07db25537"},"vehicle_type_id":"4","last_reported":1743372538,"current_range_meters":9200,"station_id":"ce4bho92rcd13ifvqh3g","pricing_plan_id":"cebpf4jnsgd1na2vs0mg"},{"bike_id":"1a7fca37-621b-4460-bb47-4eb103935246","system_id":"levelo_inurba_marseille","lat":43.25084,"lon":5.39523,"is_reserved":false,"is_disabled":false,"rental_uris":{"android":"levelo://app?vid=1a7fca37-621b-4460-bb47-4eb103935246","ios":"levelo://app?vid=1a7fca37-621b-4460-bb47-4eb103935246"},"vehicle_type_id":"4","last_reported":1743372538,"current_range_meters":9600,"station_id":"ce4bhm12rcd13ifvqgkg","pricing_plan_id":"cebpf4jnsgd1na2vs0mg"},{"bike_id":"7025ca5c-9a1a-40f3-b82a-9bbb564e91d8","system_id":"levelo_inurba_marseille","lat":43.27175,"lon":5.409937,"is_reserved":false,"is_disabled":false,"rental_uris":{"android":"levelo://app?vid=7025ca5c-9a1a-40f3-b82a-9bbb564e91d8","ios":"levelo://app?vid=7025ca5c-9a1a-40f3-b82a-9bbb564e91d8"},"vehicle_type_id":"4","last_reported":1743372538,"current_range_meters":9600,"station_id":"ce4bhl12rcd13ifvqgf0","pricing_plan_id":"cebpf4jnsgd1na2vs0mg"},{"bike_id":"7e46e322-27d9-4f9d-b1ce-11741eb7c78f","system_id":"levelo_inurba_marseille","lat":43.31751,"lon":5.39029,"is_reserved":false,"is_disabled":false,"rental_uris":{"android":"levelo://app?vid=7e46e322-27d9-4f9d-b1ce-11741eb7c78f","ios":"levelo://app?vid=7e46e322-27d9-4f9d-b1ce-11741eb7c78f"},"vehicle_type_id":"4","last_reported":1743372538,"current_range_meters":9600,"station_id":"ce4bhqp2rcd13ifvqhng","pricing_plan_id":"cebpf4jnsgd1na2vs0mg"},{"bike_id":"1db49edd-6de7-48f9-b18a-23a07e8ebd2c","system_id":"levelo_inurba_marseille","lat":43.23164,"lon":5.35568,"is_reserved":false,"is_disabled":false,"rental_uris":{"android":"levelo://app?vid=1db49edd-6de7-48f9-b18a-23a07e8ebd2c","ios":"levelo://app?vid=1db49edd-6de7-48f9-b18a-23a07e8ebd2c"},"vehicle_type_id":"4","last_reported":1743372538,"current_range_meters":9600,"station_id":"ce4bhu92rcd13ifvqi70","pricing_plan_id":"cebpf4jnsgd1na2vs0mg"},{"bike_id":"452ee7ed-aed5-4f3a-80c1-b63ab3953967","system_id":"levelo_inurba_marseille","lat":43.27942,"lon":5.41101,"is_reserved":false,"is_disabled":false,"rental_uris":{"android":"levelo://app?vid=452ee7ed-aed5-4f3a-80c1-b63ab3953967","ios":"levelo://app?vid=452ee7ed-aed5-4f3a-80c1-b63ab3953967"},"vehicle_type_id":"4","last_reported":1743372538,"current_range_meters":9600,"station_id":"ce4bhnp2rcd13ifvqh0g","pricing_plan_id":"cebpf4jnsgd1na2vs0mg"},{"bike_id":"6d476741-3045-4964-a8ca-5a43b8573cfd","system_id":"levelo_inurba_marseille","lat":43.27843,"lon":5.39217,"is_reserved":false,"is_disabled":false,"rental_uris":{"android":"levelo://app?vid=6d476741-3045-4964-a8ca-5a43b8573cfd","ios":"levelo://app?vid=6d476741-3045-4964-a8ca-5a43b8573cfd"},"vehicle_type_id":"4","last_reported":1743372538,"current_range_meters":9600,"station_id":"ce4bhjp2rcd13ifvqga0","pricing_plan_id":"cebpf4jnsgd1na2vs0mg"},{"bike_id":"8f5fdcfb-4565-4d08-8d54-d199e32ad589","system_id":"levelo_inurba_marseille","lat":43.31321,"lon":5.39696,"is_reserved":false,"is_disabled":false,"rental_uris":{"android":"levelo://app?vid=8f5fdcfb-4565-4d08-8d54-d199e32ad589","ios":"levelo://app?vid=8f5fdcfb-4565-4d08-8d54-d199e32ad589"},"vehicle_type_id":"4","last_reported":1743372538,"current_range_meters":9600,"station_id":"ce4bgvp2rcd13ifvqcu0","pricing_plan_id":"cebpf4jnsgd1na2vs0mg"},{"bike_id":"f64d1c4d-59d5-4617-b016-6ef3e2f938db","system_id":"levelo_inurba_marseille","lat":43.25651,"lon":5.40973,"is_reserved":false,"is_disabled":false,"rental_uris":{"android":"levelo://app?vid=f64d1c4d-59d5-4617-b016-6ef3e2f938db","ios":"levelo://app?vid=f64d1c4d-59d5-4617-b016-6ef3e2f938db"},"vehicle_type_id":"4","last_reported":1743372538,"current_range_meters":9600,"station_id":"ce4bh412rcd13ifvqds0","pricing_plan_id":"cebpf4jnsgd1na2vs0mg"},{"bike_id":"13d8a1cd-4488-455e-9abe-ae0ef23dd73c","system_id":"levelo_inurba_marseille","lat":43.24618,"lon":5.38177,"is_reserved":false,"is_disabled":false,"rental_uris":{"android":"levelo://app?vid=13d8a1cd-4488-455e-9abe-ae0ef23dd73c","ios":"levelo://app?vid=13d8a1cd-4488-455e-9abe-ae0ef23dd73c"},"vehicle_type_id":"4","last_reported":1743372538,"current_range_meters":9600,"station_id":"ce4bhih2rcd13ifvqfr0","pricing_plan_id":"cebpf4jnsgd1na2vs0mg"},{"bike_id":"0473c2df-6a5c-4f03-8055-0ddeb5fdd9d1","system_id":"levelo_inurba_marseille","lat":43.306,"lon":5.39345,"is_reserved":false,"is_disabled":false,"rental_uris":{"android":"levelo://app?vid=0473c2df-6a5c-4f03-8055-0ddeb5fdd9d1","ios":"levelo://app?vid=0473c2df-6a5c-4f03-8055-0ddeb5fdd9d1"},"vehicle_type_id":"4","last_reported":1743372538,"current_range_meters":9600,"station_id":"ce4bh0p2rcd13ifvqd80","pricing_plan_id":"cebpf4jnsgd1na2vs0mg"},{"bike_id":"871f3035-10bb-4a28-afa0-18619600e1a6","system_id":"levelo_inurba_marseille","lat":43.29959,"lon":5.36505,"is_reserved":false,"is_disabled":true,"rental_uris":{"android":"levelo://app?vid=871f3035-10bb-4a28-afa0-18619600e1a6","ios":"levelo://app?vid=871f3035-10bb-4a28-afa0-18619600e1a6"},"vehicle_type_id":"4","last_reported":1743372538,"current_range_meters":10000,"station_id":"ce4bgm92rcd13ifvqbr0","pricing_plan_id":"cebpf4jnsgd1na2vs0mg"},{"bike_id":"2403089b-07d2-4817-842f-5393e534470e","system_id":"levelo_inurba_marseille","lat":43.2799,"lon":5.41667,"is_reserved":false,"is_disabled":false,"rental_uris":{"android":"levelo://app?vid=2403089b-07d2-4817-842f-5393e534470e","ios":"levelo://app?vid=2403089b-07d2-4817-842f-5393e534470e"},"vehicle_type_id":"4","last_reported":1743372538,"current_range_meters":10000,"station_id":"ce4bho12rcd13ifvqh1g","pricing_plan_id":"cebpf4jnsgd1na2vs0mg"},{"bike_id":"5a4bd2b9-e138-4602-b86d-0de180b82c69","system_id":"levelo_inurba_marseille","lat":43.27952,"lon":5.41047,"is_reserved":false,"is_disabled":false,"rental_uris":{"android":"levelo://app?vid=5a4bd2b9-e138-4602-b86d-0de180b82c69","ios":"levelo://app?vid=5a4bd2b9-e138-4602-b86d-0de180b82c69"},"vehicle_type_id":"4","last_reported":1743372538,"current_range_meters":10000,"station_id":"ce4bhnp2rcd13ifvqh0g","pricing_plan_id":"cebpf4jnsgd1na2vs0mg"},{"bike_id":"2331d909-c193-4e9a-86a7-32825501576e","system_id":"levelo_inurba_marseille","lat":43.31493,"lon":5.37306,"is_reserved":false,"is_disabled":false,"rental_uris":{"android":"levelo://app?vid=2331d909-c193-4e9a-86a7-32825501576e","ios":"levelo://app?vid=2331d909-c193-4e9a-86a7-32825501576e"},"vehicle_type_id":"4","last_reported":1743372538,"current_range_meters":9600,"station_id":"ce4bgt12rcd13ifvqcd0","pricing_plan_id":"cebpf4jnsgd1na2vs0mg"},{"bike_id":"f150450a-749a-4373-a4fa-76425248e702","system_id":"levelo_inurba_marseille","lat":43.28098,"lon":5.37906,"is_reserved":false,"is_disabled":false,"rental_uris":{"android":"levelo://app?vid=f150450a-749a-4373-a4fa-76425248e702","ios":"levelo://app?vid=f150450a-749a-4373-a4fa-76425248e702"},"vehicle_type_id":"4","last_reported":1743372538,"current_range_meters":10000,"station_id":"ce4bha12rcd13ifvqee0","pricing_plan_id":"cebpf4jnsgd1na2vs0mg"},{"bike_id":"afc0496c-3654-4466-a115-0046c6575f1c","system_id":"levelo_inurba_marseille","lat":43.27947,"lon":5.41053,"is_reserved":false,"is_disabled":false,"rental_uris":{"android":"levelo://app?vid=afc0496c-3654-4466-a115-0046c6575f1c","ios":"levelo://app?vid=afc0496c-3654-4466-a115-0046c6575f1c"},"vehicle_type_id":"4","last_reported":1743372538,"current_range_meters":10000,"station_id":"ce4bhnp2rcd13ifvqh0g","pricing_plan_id":"cebpf4jnsgd1na2vs0mg"},{"bike_id":"ef84aac2-a580-4950-b18d-fa23c2b2b3a0","system_id":"levelo_inurba_marseille","lat":43.31068,"lon":5.38348,"is_reserved":false,"is_disabled":false,"rental_uris":{"android":"levelo://app?vid=ef84aac2-a580-4950-b18d-fa23c2b2b3a0","ios":"levelo://app?vid=ef84aac2-a580-4950-b18d-fa23c2b2b3a0"},"vehicle_type_id":"4","last_reported":1743372538,"current_range_meters":10000,"station_id":"ce4bgv92rcd13ifvqcr0","pricing_plan_id":"cebpf4jnsgd1na2vs0mg"},{"bike_id":"073a06d3-fa40-40dc-8bc4-1de4da3bda03","system_id":"levelo_inurba_marseille","lat":43.28334,"lon":5.3812,"is_reserved":false,"is_disabled":false,"rental_uris":{"android":"levelo://app?vid=073a06d3-fa40-40dc-8bc4-1de4da3bda03","ios":"levelo://app?vid=073a06d3-fa40-40dc-8bc4-1de4da3bda03"},"vehicle_type_id":"4","last_reported":1743372538,"current_range_meters":10000,"station_id":"ce4bh412rcd13ifvqdr0","pricing_plan_id":"cebpf4jnsgd1na2vs0mg"},{"bike_id":"07742a93-8c33-4b3f-91a0-8165edbd7762","system_id":"levelo_inurba_marseille","lat":43.29027,"lon":5.40007,"is_reserved":false,"is_disabled":false,"rental_uris":{"android":"levelo://app?vid=07742a93-8c33-4b3f-91a0-8165edbd7762","ios":"levelo://app?vid=07742a93-8c33-4b3f-91a0-8165edbd7762"},"vehicle_type_id":"4","last_reported":1743372538,"current_range_meters":10800,"station_id":"ce4bh392rcd13ifvqdm0","pricing_plan_id":"cebpf4jnsgd1na2vs0mg"},{"bike_id":"5ce12385-4574-4211-b1aa-28ef17dce743","system_id":"levelo_inurba_marseille","lat":43.2466,"lon":5.38171,"is_reserved":false,"is_disabled":false,"rental_uris":{"android":"levelo://app?vid=5ce12385-4574-4211-b1aa-28ef17dce743","ios":"levelo://app?vid=5ce12385-4574-4211-b1aa-28ef17dce743"},"vehicle_type_id":"4","last_reported":1743372538,"current_range_meters":10800,"station_id":"ce4bhih2rcd13ifvqfr0","pricing_plan_id":"cebpf4jnsgd1na2vs0mg"},{"bike_id":"7ca6f145-aad1-46a9-862f-db9fe95e22ed","system_id":"levelo_inurba_marseille","lat":43.32102,"lon":5.36779,"is_reserved":false,"is_disabled":false,"rental_uris":{"android":"levelo://app?vid=7ca6f145-aad1-46a9-862f-db9fe95e22ed","ios":"levelo://app?vid=7ca6f145-aad1-46a9-862f-db9fe95e22ed"},"vehicle_type_id":"4","last_reported":1743372538,"current_range_meters":10800,"station_id":"ce4bhrh2rcd13ifvqhug","pricing_plan_id":"cebpf4jnsgd1na2vs0mg"},{"bike_id":"193acf2f-e136-4b99-a43c-dedc682ef97c","system_id":"levelo_inurba_marseille","lat":43.28956,"lon":5.36605,"is_reserved":false,"is_disabled":false,"rental_uris":{"android":"levelo://app?vid=193acf2f-e136-4b99-a43c-dedc682ef97c","ios":"levelo://app?vid=193acf2f-e136-4b99-a43c-dedc682ef97c"},"vehicle_type_id":"4","last_reported":1743372538,"current_range_meters":10800,"station_id":"ce4bhap2rcd13ifvqek0","pricing_plan_id":"cebpf4jnsgd1na2vs0mg"},{"bike_id":"6165c5e1-15f4-4779-ba2f-91df8ba3f8c0","system_id":"levelo_inurba_marseille","lat":43.28925,"lon":5.42988,"is_reserved":false,"is_disabled":false,"rental_uris":{"android":"levelo://app?vid=6165c5e1-15f4-4779-ba2f-91df8ba3f8c0","ios":"levelo://app?vid=6165c5e1-15f4-4779-ba2f-91df8ba3f8c0"},"vehicle_type_id":"4","last_reported":1743372538,"current_range_meters":10800,"station_id":"","pricing_plan_id":"cebpf4jnsgd1na2vs0mg"},{"bike_id":"fc91984a-ca60-482c-8b4c-39732d1fd181","system_id":"levelo_inurba_marseille","lat":43.28411,"lon":5.37518,"is_reserved":false,"is_disabled":false,"rental_uris":{"android":"levelo://app?vid=fc91984a-ca60-482c-8b4c-39732d1fd181","ios":"levelo://app?vid=fc91984a-ca60-482c-8b4c-39732d1fd181"},"vehicle_type_id":"4","last_reported":1743372538,"current_range_meters":10800,"station_id":"ce4bh412rcd13ifvqds0","pricing_plan_id":"cebpf4jnsgd1na2vs0mg"},{"bike_id":"c1a01883-6c1d-4e89-ba9e-0dbae1b4948f","system_id":"levelo_inurba_marseille","lat":43.24997,"lon":5.38936,"is_reserved":false,"is_disabled":false,"rental_uris":{"android":"levelo://app?vid=c1a01883-6c1d-4e89-ba9e-0dbae1b4948f","ios":"levelo://app?vid=c1a01883-6c1d-4e89-ba9e-0dbae1b4948f"},"vehicle_type_id":"4","last_reported":1743372538,"current_range_meters":10800,"station_id":"ce4bhgp2rcd13ifvqfd0","pricing_plan_id":"cebpf4jnsgd1na2vs0mg"},{"bike_id":"3a99ce02-631d-4ff6-bde1-68d6f80dff2c","system_id":"levelo_inurba_marseille","lat":43.32005,"lon":5.38161,"is_reserved":false,"is_disabled":false,"rental_uris":{"android":"levelo://app?vid=3a99ce02-631d-4ff6-bde1-68d6f80dff2c","ios":"levelo://app?vid=3a99ce02-631d-4ff6-bde1-68d6f80dff2c"},"vehicle_type_id":"4","last_reported":1743372538,"current_range_meters":10800,"station_id":"ce4bhr12rcd13ifvqhpg","pricing_plan_id":"cebpf4jnsgd1na2vs0mg"},{"bike_id":"3f7a0957-674f-4dc8-9c1c-d9c9b0c2fdf5","system_id":"levelo_inurba_marseille","lat":43.25819,"lon":5.39446,"is_reserved":false,"is_disabled":false,"rental_uris":{"android":"levelo://app?vid=3f7a0957-674f-4dc8-9c1c-d9c9b0c2fdf5","ios":"levelo://app?vid=3f7a0957-674f-4dc8-9c1c-d9c9b0c2fdf5"},"vehicle_type_id":"4","last_reported":1743372538,"current_range_meters":10800,"station_id":"ce4bhip2rcd13ifvqft0","pricing_plan_id":"cebpf4jnsgd1na2vs0mg"},{"bike_id":"0b60b6cc-65bb-4e73-8958-1b351c6fdd96","system_id":"levelo_inurba_marseille","lat":43.32108,"lon":5.36786,"is_reserved":false,"is_disabled":false,"rental_uris":{"android":"levelo://app?vid=0b60b6cc-65bb-4e73-8958-1b351c6fdd96","ios":"levelo://app?vid=0b60b6cc-65bb-4e73-8958-1b351c6fdd96"},"vehicle_type_id":"4","last_reported":1743372538,"current_range_meters":10800,"station_id":"ce4bhrh2rcd13ifvqhug","pricing_plan_id":"cebpf4jnsgd1na2vs0mg"},{"bike_id":"78edf300-7db3-4c93-9631-38797c9b1771","system_id":"levelo_inurba_marseille","lat":43.29057,"lon":5.37167,"is_reserved":false,"is_disabled":true,"rental_uris":{"android":"levelo://app?vid=78edf300-7db3-4c93-9631-38797c9b1771","ios":"levelo://app?vid=78edf300-7db3-4c93-9631-38797c9b1771"},"vehicle_type_id":"4","last_reported":1743372538,"current_range_meters":10800,"station_id":"ce4bh5p2rcd13ifvqe4g","pricing_plan_id":"cebpf4jnsgd1na2vs0mg"},{"bike_id":"204ecd7d-d79a-4494-8305-7c83c69add7d","system_id":"levelo_inurba_marseille","lat":43.25663,"lon":5.42013,"is_reserved":false,"is_disabled":false,"rental_uris":{"android":"levelo://app?vid=204ecd7d-d79a-4494-8305-7c83c69add7d","ios":"levelo://app?vid=204ecd7d-d79a-4494-8305-7c83c69add7d"},"vehicle_type_id":"4","last_reported":1743372538,"current_range_meters":10800,"station_id":"","pricing_plan_id":"cebpf4jnsgd1na2vs0mg"},{"bike_id":"07ec0419-41dd-4756-91b5-f9e4802c50a1","system_id":"levelo_inurba_marseille","lat":43.29502,"lon":5.39443,"is_reserved":false,"is_disabled":false,"rental_uris":{"android":"levelo://app?vid=07ec0419-41dd-4756-91b5-f9e4802c50a1","ios":"levelo://app?vid=07ec0419-41dd-4756-91b5-f9e4802c50a1"},"vehicle_type_id":"4","last_reported":1743372538,"current_range_meters":10800,"station_id":"ce4bh292rcd13ifvqdf0","pricing_plan_id":"cebpf4jnsgd1na2vs0mg"},{"bike_id":"5cf4ca76-6b9c-4699-94e2-2af7022f6b29","system_id":"levelo_inurba_marseille","lat":43.29345,"lon":5.38506,"is_reserved":false,"is_disabled":false,"rental_uris":{"android":"levelo://app?vid=5cf4ca76-6b9c-4699-94e2-2af7022f6b29","ios":"levelo://app?vid=5cf4ca76-6b9c-4699-94e2-2af7022f6b29"},"vehicle_type_id":"4","last_reported":1743372538,"current_range_meters":11200,"station_id":"","pricing_plan_id":"cebpf4jnsgd1na2vs0mg"},{"bike_id":"9714bbb0-c64a-4296-8639-4dd0fd6cf3b3","system_id":"levelo_inurba_marseille","lat":43.32005,"lon":5.38176,"is_reserved":false,"is_disabled":false,"rental_uris":{"android":"levelo://app?vid=9714bbb0-c64a-4296-8639-4dd0fd6cf3b3","ios":"levelo://app?vid=9714bbb0-c64a-4296-8639-4dd0fd6cf3b3"},"vehicle_type_id":"4","last_reported":1743372538,"current_range_meters":11200,"station_id":"ce4bhr12rcd13ifvqhpg","pricing_plan_id":"cebpf4jnsgd1na2vs0mg"},{"bike_id":"fb9a3619-a308-48fa-a8c8-53d33fab6787","system_id":"levelo_inurba_marseille","lat":43.29065,"lon":5.38151,"is_reserved":false,"is_disabled":false,"rental_uris":{"android":"levelo://app?vid=fb9a3619-a308-48fa-a8c8-53d33fab6787","ios":"levelo://app?vid=fb9a3619-a308-48fa-a8c8-53d33fab6787"},"vehicle_type_id":"4","last_reported":1743372538,"current_range_meters":11200,"station_id":"ce4bh512rcd13ifvqe2g","pricing_plan_id":"cebpf4jnsgd1na2vs0mg"},{"bike_id":"3d370df4-c787-4eff-9ed9-eeb4ac5d36a0","system_id":"levelo_inurba_marseille","lat":43.28951,"lon":5.36629,"is_reserved":false,"is_disabled":false,"rental_uris":{"android":"levelo://app?vid=3d370df4-c787-4eff-9ed9-eeb4ac5d36a0","ios":"levelo://app?vid=3d370df4-c787-4eff-9ed9-eeb4ac5d36a0"},"vehicle_type_id":"4","last_reported":1743372538,"current_range_meters":11200,"station_id":"ce4bhap2rcd13ifvqek0","pricing_plan_id":"cebpf4jnsgd1na2vs0mg"},{"bike_id":"d7712657-beaf-4b9d-b29c-94fc788e89a3","system_id":"levelo_inurba_marseille","lat":43.31179,"lon":5.38719,"is_reserved":false,"is_disabled":false,"rental_uris":{"android":"levelo://app?vid=d7712657-beaf-4b9d-b29c-94fc788e89a3","ios":"levelo://app?vid=d7712657-beaf-4b9d-b29c-94fc788e89a3"},"vehicle_type_id":"4","last_reported":1743372538,"current_range_meters":11200,"station_id":"ce4bgv12rcd13ifvqcp0","pricing_plan_id":"cebpf4jnsgd1na2vs0mg"},{"bike_id":"5b518cd2-cb7a-4205-b95b-372c3e8b076a","system_id":"levelo_inurba_marseille","lat":43.30137,"lon":5.39872,"is_reserved":false,"is_disabled":false,"rental_uris":{"android":"levelo://app?vid=5b518cd2-cb7a-4205-b95b-372c3e8b076a","ios":"levelo://app?vid=5b518cd2-cb7a-4205-b95b-372c3e8b076a"},"vehicle_type_id":"4","last_reported":1743372538,"current_range_meters":11200,"station_id":"ce4bh0h2rcd13ifvqd40","pricing_plan_id":"cebpf4jnsgd1na2vs0mg"},{"bike_id":"12cd2614-5759-4501-9c23-d3351a7cc7df","system_id":"levelo_inurba_marseille","lat":43.30536,"lon":5.38438,"is_reserved":false,"is_disabled":true,"rental_uris":{"android":"levelo://app?vid=12cd2614-5759-4501-9c23-d3351a7cc7df","ios":"levelo://app?vid=12cd2614-5759-4501-9c23-d3351a7cc7df"},"vehicle_type_id":"4","last_reported":1743372538,"current_range_meters":11200,"station_id":"ce4bgg92rcd13ifvqb30","pricing_plan_id":"cebpf4jnsgd1na2vs0mg"},{"bike_id":"0aa5d244-d05c-4693-b730-cb7287eaecdf","system_id":"levelo_inurba_marseille","lat":43.28621,"lon":5.35099,"is_reserved":false,"is_disabled":true,"rental_uris":{"android":"levelo://app?vid=0aa5d244-d05c-4693-b730-cb7287eaecdf","ios":"levelo://app?vid=0aa5d244-d05c-4693-b730-cb7287eaecdf"},"vehicle_type_id":"4","last_reported":1743372538,"current_range_meters":11200,"station_id":"ce4bhch2rcd13ifvqeug","pricing_plan_id":"cebpf4jnsgd1na2vs0mg"},{"bike_id":"1ca654ae-dc4d-4362-acdb-676b4062b92d","system_id":"levelo_inurba_marseille","lat":43.30367,"lon":5.36882,"is_reserved":false,"is_disabled":false,"rental_uris":{"android":"levelo://app?vid=1ca654ae-dc4d-4362-acdb-676b4062b92d","ios":"levelo://app?vid=1ca654ae-dc4d-4362-acdb-676b4062b92d"},"vehicle_type_id":"4","last_reported":1743372538,"current_range_meters":11200,"station_id":"ce4bgqh2rcd13ifvqc5g","pricing_plan_id":"cebpf4jnsgd1na2vs0mg"},{"bike_id":"fb0e2782-64d8-47c2-8a78-bad86b5dcc20","system_id":"levelo_inurba_marseille","lat":43.32098,"lon":5.36791,"is_reserved":false,"is_disabled":false,"rental_uris":{"android":"levelo://app?vid=fb0e2782-64d8-47c2-8a78-bad86b5dcc20","ios":"levelo://app?vid=fb0e2782-64d8-47c2-8a78-bad86b5dcc20"},"vehicle_type_id":"4","last_reported":1743372538,"current_range_meters":11200,"station_id":"","pricing_plan_id":"cebpf4jnsgd1na2vs0mg"},{"bike_id":"387a15f6-8590-427a-a3a7-123c4530591f","system_id":"levelo_inurba_marseille","lat":43.264926,"lon":5.395582,"is_reserved":false,"is_disabled":false,"rental_uris":{"android":"levelo://app?vid=387a15f6-8590-427a-a3a7-123c4530591f","ios":"levelo://app?vid=387a15f6-8590-427a-a3a7-123c4530591f"},"vehicle_type_id":"4","last_reported":1743372538,"current_range_meters":10800,"station_id":"ce4bhi12rcd13ifvqfq0","pricing_plan_id":"cebpf4jnsgd1na2vs0mg"},{"bike_id":"b08025aa-45f8-4b5b-b067-224136d7061c","system_id":"levelo_inurba_marseille","lat":43.278348,"lon":5.392066,"is_reserved":false,"is_disabled":false,"rental_uris":{"android":"levelo://app?vid=b08025aa-45f8-4b5b-b067-224136d7061c","ios":"levelo://app?vid=b08025aa-45f8-4b5b-b067-224136d7061c"},"vehicle_type_id":"4","last_reported":1743372538,"current_range_meters":11200,"station_id":"ce4bh012rcd13ifvqd10","pricing_plan_id":"cebpf4jnsgd1na2vs0mg"},{"bike_id":"ba1107aa-9b1f-4710-bb75-05314e757fc6","system_id":"levelo_inurba_marseille","lat":43.31657,"lon":5.37249,"is_reserved":false,"is_disabled":false,"rental_uris":{"android":"levelo://app?vid=ba1107aa-9b1f-4710-bb75-05314e757fc6","ios":"levelo://app?vid=ba1107aa-9b1f-4710-bb75-05314e757fc6"},"vehicle_type_id":"4","last_reported":1743372538,"current_range_meters":11200,"station_id":"","pricing_plan_id":"cebpf4jnsgd1na2vs0mg"},{"bike_id":"b03ddc25-8561-4144-bc05-fa463b274d27","system_id":"levelo_inurba_marseille","lat":43.289393,"lon":5.366361,"is_reserved":false,"is_disabled":false,"rental_uris":{"android":"levelo://app?vid=b03ddc25-8561-4144-bc05-fa463b274d27","ios":"levelo://app?vid=b03ddc25-8561-4144-bc05-fa463b274d27"},"vehicle_type_id":"4","last_reported":1743372538,"current_range_meters":11600,"station_id":"ce4bhap2rcd13ifvqek0","pricing_plan_id":"cebpf4jnsgd1na2vs0mg"},{"bike_id":"b3e97410-c1b2-4369-b878-0aa5bbd817bc","system_id":"levelo_inurba_marseille","lat":43.28464,"lon":5.35889,"is_reserved":false,"is_disabled":true,"rental_uris":{"android":"levelo://app?vid=b3e97410-c1b2-4369-b878-0aa5bbd817bc","ios":"levelo://app?vid=b3e97410-c1b2-4369-b878-0aa5bbd817bc"},"vehicle_type_id":"4","last_reported":1743372538,"current_range_meters":11600,"station_id":"ce4bhah2rcd13ifvqei0","pricing_plan_id":"cebpf4jnsgd1na2vs0mg"},{"bike_id":"fd077727-cac9-4da1-be78-e3859541690a","system_id":"levelo_inurba_marseille","lat":43.305479,"lon":5.384392,"is_reserved":false,"is_disabled":true,"rental_uris":{"android":"levelo://app?vid=fd077727-cac9-4da1-be78-e3859541690a","ios":"levelo://app?vid=fd077727-cac9-4da1-be78-e3859541690a"},"vehicle_type_id":"4","last_reported":1743372538,"current_range_meters":11600,"station_id":"ce4bgg92rcd13ifvqb30","pricing_plan_id":"cebpf4jnsgd1na2vs0mg"},{"bike_id":"8800990b-0588-4701-9f9b-d00ff201f1bf","system_id":"levelo_inurba_marseille","lat":43.31755,"lon":5.38996,"is_reserved":false,"is_disabled":false,"rental_uris":{"android":"levelo://app?vid=8800990b-0588-4701-9f9b-d00ff201f1bf","ios":"levelo://app?vid=8800990b-0588-4701-9f9b-d00ff201f1bf"},"vehicle_type_id":"4","last_reported":1743372538,"current_range_meters":11600,"station_id":"ce4bhqp2rcd13ifvqhng","pricing_plan_id":"cebpf4jnsgd1na2vs0mg"},{"bike_id":"e0f71501-acc1-4a88-b79d-a8dc35fb0e64","system_id":"levelo_inurba_marseille","lat":43.28615,"lon":5.35092,"is_reserved":false,"is_disabled":false,"rental_uris":{"android":"levelo://app?vid=e0f71501-acc1-4a88-b79d-a8dc35fb0e64","ios":"levelo://app?vid=e0f71501-acc1-4a88-b79d-a8dc35fb0e64"},"vehicle_type_id":"4","last_reported":1743372538,"current_range_meters":11600,"station_id":"ce4bhch2rcd13ifvqeug","pricing_plan_id":"cebpf4jnsgd1na2vs0mg"},{"bike_id":"a30cc534-cb73-4565-b725-62493a679569","system_id":"levelo_inurba_marseille","lat":43.28729,"lon":5.40021,"is_reserved":false,"is_disabled":false,"rental_uris":{"android":"levelo://app?vid=a30cc534-cb73-4565-b725-62493a679569","ios":"levelo://app?vid=a30cc534-cb73-4565-b725-62493a679569"},"vehicle_type_id":"4","last_reported":1743372538,"current_range_meters":11600,"station_id":"ce4bho92rcd13ifvqh3g","pricing_plan_id":"cebpf4jnsgd1na2vs0mg"},{"bike_id":"9887f87a-dd85-4d5a-b78f-f803df7d5cb6","system_id":"levelo_inurba_marseille","lat":43.28941,"lon":5.36416,"is_reserved":false,"is_disabled":false,"rental_uris":{"android":"levelo://app?vid=9887f87a-dd85-4d5a-b78f-f803df7d5cb6","ios":"levelo://app?vid=9887f87a-dd85-4d5a-b78f-f803df7d5cb6"},"vehicle_type_id":"4","last_reported":1743372538,"current_range_meters":11200,"station_id":"ce4bhc92rcd13ifvqetg","pricing_plan_id":"cebpf4jnsgd1na2vs0mg"},{"bike_id":"a0eb0cb7-cfd0-4c44-a801-cca8496833e5","system_id":"levelo_inurba_marseille","lat":43.23185,"lon":5.39995,"is_reserved":false,"is_disabled":false,"rental_uris":{"android":"levelo://app?vid=a0eb0cb7-cfd0-4c44-a801-cca8496833e5","ios":"levelo://app?vid=a0eb0cb7-cfd0-4c44-a801-cca8496833e5"},"vehicle_type_id":"4","last_reported":1743372538,"current_range_meters":11600,"station_id":"ce4bhn12rcd13ifvqgqg","pricing_plan_id":"cebpf4jnsgd1na2vs0mg"},{"bike_id":"dd903802-fbfa-44f7-b9a9-3b3d8d7b3138","system_id":"levelo_inurba_marseille","lat":43.30521,"lon":5.36557,"is_reserved":false,"is_disabled":false,"rental_uris":{"android":"levelo://app?vid=dd903802-fbfa-44f7-b9a9-3b3d8d7b3138","ios":"levelo://app?vid=dd903802-fbfa-44f7-b9a9-3b3d8d7b3138"},"vehicle_type_id":"4","last_reported":1743372538,"current_range_meters":11600,"station_id":"ce4bgs12rcd13ifvqcag","pricing_plan_id":"cebpf4jnsgd1na2vs0mg"},{"bike_id":"8d32980f-fa1d-487c-9ee4-e21d4298ab4e","system_id":"levelo_inurba_marseille","lat":43.29821,"lon":5.4075,"is_reserved":false,"is_disabled":false,"rental_uris":{"android":"levelo://app?vid=8d32980f-fa1d-487c-9ee4-e21d4298ab4e","ios":"levelo://app?vid=8d32980f-fa1d-487c-9ee4-e21d4298ab4e"},"vehicle_type_id":"4","last_reported":1743372538,"current_range_meters":11600,"station_id":"","pricing_plan_id":"cebpf4jnsgd1na2vs0mg"},{"bike_id":"121010d1-d0ea-475b-97a6-f9054736109c","system_id":"levelo_inurba_marseille","lat":43.23185,"lon":5.39977,"is_reserved":false,"is_disabled":false,"rental_uris":{"android":"levelo://app?vid=121010d1-d0ea-475b-97a6-f9054736109c","ios":"levelo://app?vid=121010d1-d0ea-475b-97a6-f9054736109c"},"vehicle_type_id":"4","last_reported":1743372538,"current_range_meters":12000,"station_id":"ce4bhn12rcd13ifvqgqg","pricing_plan_id":"cebpf4jnsgd1na2vs0mg"},{"bike_id":"cb488461-922b-4378-a925-3277508f321d","system_id":"levelo_inurba_marseille","lat":43.30785,"lon":5.37642,"is_reserved":false,"is_disabled":false,"rental_uris":{"android":"levelo://app?vid=cb488461-922b-4378-a925-3277508f321d","ios":"levelo://app?vid=cb488461-922b-4378-a925-3277508f321d"},"vehicle_type_id":"4","last_reported":1743372538,"current_range_meters":12000,"station_id":"ce4bgv92rcd13ifvqcq0","pricing_plan_id":"cebpf4jnsgd1na2vs0mg"},{"bike_id":"dd108344-997f-4dd5-a561-1447f9dd83ab","system_id":"levelo_inurba_marseille","lat":43.31075,"lon":5.38347,"is_reserved":false,"is_disabled":false,"rental_uris":{"android":"levelo://app?vid=dd108344-997f-4dd5-a561-1447f9dd83ab","ios":"levelo://app?vid=dd108344-997f-4dd5-a561-1447f9dd83ab"},"vehicle_type_id":"4","last_reported":1743372538,"current_range_meters":12000,"station_id":"ce4bgv92rcd13ifvqcr0","pricing_plan_id":"cebpf4jnsgd1na2vs0mg"},{"bike_id":"89eadc9c-18ed-4155-859a-b5986c479ace","system_id":"levelo_inurba_marseille","lat":43.29524,"lon":5.38535,"is_reserved":false,"is_disabled":false,"rental_uris":{"android":"levelo://app?vid=89eadc9c-18ed-4155-859a-b5986c479ace","ios":"levelo://app?vid=89eadc9c-18ed-4155-859a-b5986c479ace"},"vehicle_type_id":"4","last_reported":1743372538,"current_range_meters":12000,"station_id":"ce4bgih2rcd13ifvqba0","pricing_plan_id":"cebpf4jnsgd1na2vs0mg"},{"bike_id":"970d4a28-2e4b-453e-912d-59e6f284b811","system_id":"levelo_inurba_marseille","lat":43.32321,"lon":5.38959,"is_reserved":false,"is_disabled":true,"rental_uris":{"android":"levelo://app?vid=970d4a28-2e4b-453e-912d-59e6f284b811","ios":"levelo://app?vid=970d4a28-2e4b-453e-912d-59e6f284b811"},"vehicle_type_id":"4","last_reported":1743372538,"current_range_meters":12400,"station_id":"ce4bhqp2rcd13ifvqhog","pricing_plan_id":"cebpf4jnsgd1na2vs0mg"},{"bike_id":"f4aa7984-6e0a-4355-a188-7dfbb140094d","system_id":"levelo_inurba_marseille","lat":43.28152,"lon":5.42643,"is_reserved":false,"is_disabled":false,"rental_uris":{"android":"levelo://app?vid=f4aa7984-6e0a-4355-a188-7dfbb140094d","ios":"levelo://app?vid=f4aa7984-6e0a-4355-a188-7dfbb140094d"},"vehicle_type_id":"4","last_reported":1743372538,"current_range_meters":12400,"station_id":"ce4bhnh2rcd13ifvqgug","pricing_plan_id":"cebpf4jnsgd1na2vs0mg"},{"bike_id":"ed91d402-6c3a-42de-88b7-ad14c7ccba5d","system_id":"levelo_inurba_marseille","lat":43.29595,"lon":5.3809,"is_reserved":false,"is_disabled":false,"rental_uris":{"android":"levelo://app?vid=ed91d402-6c3a-42de-88b7-ad14c7ccba5d","ios":"levelo://app?vid=ed91d402-6c3a-42de-88b7-ad14c7ccba5d"},"vehicle_type_id":"4","last_reported":1743372538,"current_range_meters":12400,"station_id":"ce4bgl12rcd13ifvqbo0","pricing_plan_id":"cebpf4jnsgd1na2vs0mg"},{"bike_id":"77ae0fd8-548a-49ab-a8f7-cca075701042","system_id":"levelo_inurba_marseille","lat":43.28934,"lon":5.36404,"is_reserved":false,"is_disabled":false,"rental_uris":{"android":"levelo://app?vid=77ae0fd8-548a-49ab-a8f7-cca075701042","ios":"levelo://app?vid=77ae0fd8-548a-49ab-a8f7-cca075701042"},"vehicle_type_id":"4","last_reported":1743372538,"current_range_meters":12400,"station_id":"ce4bhc92rcd13ifvqetg","pricing_plan_id":"cebpf4jnsgd1na2vs0mg"},{"bike_id":"4db2abe8-ddc9-429c-adec-3c515a3e8b3c","system_id":"levelo_inurba_marseille","lat":43.24024,"lon":5.37729,"is_reserved":false,"is_disabled":false,"rental_uris":{"android":"levelo://app?vid=4db2abe8-ddc9-429c-adec-3c515a3e8b3c","ios":"levelo://app?vid=4db2abe8-ddc9-429c-adec-3c515a3e8b3c"},"vehicle_type_id":"4","last_reported":1743372538,"current_range_meters":12400,"station_id":"","pricing_plan_id":"cebpf4jnsgd1na2vs0mg"},{"bike_id":"7dc9a8d6-97c3-4c2c-afd0-f11c2e368677","system_id":"levelo_inurba_marseille","lat":43.29519,"lon":5.39386,"is_reserved":false,"is_disabled":false,"rental_uris":{"android":"levelo://app?vid=7dc9a8d6-97c3-4c2c-afd0-f11c2e368677","ios":"levelo://app?vid=7dc9a8d6-97c3-4c2c-afd0-f11c2e368677"},"vehicle_type_id":"4","last_reported":1743372538,"current_range_meters":12400,"station_id":"ce4bh292rcd13ifvqdf0","pricing_plan_id":"cebpf4jnsgd1na2vs0mg"},{"bike_id":"cda4eba6-d1c5-4f94-ba6f-be65d0ac5843","system_id":"levelo_inurba_marseille","lat":43.29032,"lon":5.39922,"is_reserved":false,"is_disabled":false,"rental_uris":{"android":"levelo://app?vid=cda4eba6-d1c5-4f94-ba6f-be65d0ac5843","ios":"levelo://app?vid=cda4eba6-d1c5-4f94-ba6f-be65d0ac5843"},"vehicle_type_id":"4","last_reported":1743372538,"current_range_meters":12400,"station_id":"ce4bh392rcd13ifvqdm0","pricing_plan_id":"cebpf4jnsgd1na2vs0mg"},{"bike_id":"befc54f0-bc59-47ba-b783-4386e1fda975","system_id":"levelo_inurba_marseille","lat":43.30306,"lon":5.39217,"is_reserved":false,"is_disabled":false,"rental_uris":{"android":"levelo://app?vid=befc54f0-bc59-47ba-b783-4386e1fda975","ios":"levelo://app?vid=befc54f0-bc59-47ba-b783-4386e1fda975"},"vehicle_type_id":"4","last_reported":1743372538,"current_range_meters":12400,"station_id":"ce4bgkh2rcd13ifvqbk0","pricing_plan_id":"cebpf4jnsgd1na2vs0mg"},{"bike_id":"8fa5fb11-10c8-4bed-b75c-83f4c72259ad","system_id":"levelo_inurba_marseille","lat":43.32373,"lon":5.36764,"is_reserved":false,"is_disabled":false,"rental_uris":{"android":"levelo://app?vid=8fa5fb11-10c8-4bed-b75c-83f4c72259ad","ios":"levelo://app?vid=8fa5fb11-10c8-4bed-b75c-83f4c72259ad"},"vehicle_type_id":"4","last_reported":1743372538,"current_range_meters":12400,"station_id":"ce4bhsh2rcd13ifvqi2g","pricing_plan_id":"cebpf4jnsgd1na2vs0mg"},{"bike_id":"3550a36d-3c45-4392-b638-e4bfcd519444","system_id":"levelo_inurba_marseille","lat":43.2991,"lon":5.38131,"is_reserved":false,"is_disabled":true,"rental_uris":{"android":"levelo://app?vid=3550a36d-3c45-4392-b638-e4bfcd519444","ios":"levelo://app?vid=3550a36d-3c45-4392-b638-e4bfcd519444"},"vehicle_type_id":"4","last_reported":1743372538,"current_range_meters":12400,"station_id":"ce4bgj12rcd13ifvqbc0","pricing_plan_id":"cebpf4jnsgd1na2vs0mg"},{"bike_id":"c92de98d-457d-424f-86b4-290753b2a66b","system_id":"levelo_inurba_marseille","lat":43.28944,"lon":5.39639,"is_reserved":false,"is_disabled":false,"rental_uris":{"android":"levelo://app?vid=c92de98d-457d-424f-86b4-290753b2a66b","ios":"levelo://app?vid=c92de98d-457d-424f-86b4-290753b2a66b"},"vehicle_type_id":"4","last_reported":1743372538,"current_range_meters":12800,"station_id":"ce4bh3h2rcd13ifvqdn0","pricing_plan_id":"cebpf4jnsgd1na2vs0mg"},{"bike_id":"a9caf971-8a8c-4bcd-bfc0-7c7b783406ce","system_id":"levelo_inurba_marseille","lat":43.28418,"lon":5.37524,"is_reserved":false,"is_disabled":false,"rental_uris":{"android":"levelo://app?vid=a9caf971-8a8c-4bcd-bfc0-7c7b783406ce","ios":"levelo://app?vid=a9caf971-8a8c-4bcd-bfc0-7c7b783406ce"},"vehicle_type_id":"4","last_reported":1743372538,"current_range_meters":12800,"station_id":"ce4bh412rcd13ifvqds0","pricing_plan_id":"cebpf4jnsgd1na2vs0mg"},{"bike_id":"67f6ad16-73d8-49e4-8119-f6692e87ac6e","system_id":"levelo_inurba_marseille","lat":43.27063,"lon":5.4228,"is_reserved":false,"is_disabled":false,"rental_uris":{"android":"levelo://app?vid=67f6ad16-73d8-49e4-8119-f6692e87ac6e","ios":"levelo://app?vid=67f6ad16-73d8-49e4-8119-f6692e87ac6e"},"vehicle_type_id":"4","last_reported":1743372538,"current_range_meters":12800,"station_id":"ce4bhk92rcd13ifvqgb0","pricing_plan_id":"cebpf4jnsgd1na2vs0mg"},{"bike_id":"56f4a9cd-6ccf-4fe6-98d1-7b3192e53bd4","system_id":"levelo_inurba_marseille","lat":43.30087,"lon":5.39084,"is_reserved":false,"is_disabled":false,"rental_uris":{"android":"levelo://app?vid=56f4a9cd-6ccf-4fe6-98d1-7b3192e53bd4","ios":"levelo://app?vid=56f4a9cd-6ccf-4fe6-98d1-7b3192e53bd4"},"vehicle_type_id":"4","last_reported":1743372538,"current_range_meters":12800,"station_id":"ce4bh192rcd13ifvqdb0","pricing_plan_id":"cebpf4jnsgd1na2vs0mg"},{"bike_id":"b91184c2-0fca-4a97-bd03-058f3f161a0c","system_id":"levelo_inurba_marseille","lat":43.28143,"lon":5.4264,"is_reserved":false,"is_disabled":false,"rental_uris":{"android":"levelo://app?vid=b91184c2-0fca-4a97-bd03-058f3f161a0c","ios":"levelo://app?vid=b91184c2-0fca-4a97-bd03-058f3f161a0c"},"vehicle_type_id":"4","last_reported":1743372538,"current_range_meters":12800,"station_id":"ce4bhnh2rcd13ifvqgug","pricing_plan_id":"cebpf4jnsgd1na2vs0mg"},{"bike_id":"bf52878d-50c0-460b-8b6d-8720c81fc09b","system_id":"levelo_inurba_marseille","lat":43.29499,"lon":5.39417,"is_reserved":false,"is_disabled":false,"rental_uris":{"android":"levelo://app?vid=bf52878d-50c0-460b-8b6d-8720c81fc09b","ios":"levelo://app?vid=bf52878d-50c0-460b-8b6d-8720c81fc09b"},"vehicle_type_id":"4","last_reported":1743372538,"current_range_meters":13600,"station_id":"ce4bh292rcd13ifvqdf0","pricing_plan_id":"cebpf4jnsgd1na2vs0mg"},{"bike_id":"cb8c4def-aae1-4562-b21c-7f6e8d79b089","system_id":"levelo_inurba_marseille","lat":43.312849,"lon":5.375677,"is_reserved":false,"is_disabled":false,"rental_uris":{"android":"levelo://app?vid=cb8c4def-aae1-4562-b21c-7f6e8d79b089","ios":"levelo://app?vid=cb8c4def-aae1-4562-b21c-7f6e8d79b089"},"vehicle_type_id":"4","last_reported":1743372538,"current_range_meters":12800,"station_id":"ce4bgl92rcd13ifvqbq0","pricing_plan_id":"cebpf4jnsgd1na2vs0mg"},{"bike_id":"19c4d38c-721f-4a6d-8de0-ad162aee3dc3","system_id":"levelo_inurba_marseille","lat":43.29872,"lon":5.38905,"is_reserved":false,"is_disabled":true,"rental_uris":{"android":"levelo://app?vid=19c4d38c-721f-4a6d-8de0-ad162aee3dc3","ios":"levelo://app?vid=19c4d38c-721f-4a6d-8de0-ad162aee3dc3"},"vehicle_type_id":"4","last_reported":1743372538,"current_range_meters":13600,"station_id":"ce4bh392rcd13ifvqdl0","pricing_plan_id":"cebpf4jnsgd1na2vs0mg"},{"bike_id":"d0ebc722-5e7a-43a4-8487-680803a9b6b1","system_id":"levelo_inurba_marseille","lat":43.29883,"lon":5.38893,"is_reserved":false,"is_disabled":false,"rental_uris":{"android":"levelo://app?vid=d0ebc722-5e7a-43a4-8487-680803a9b6b1","ios":"levelo://app?vid=d0ebc722-5e7a-43a4-8487-680803a9b6b1"},"vehicle_type_id":"4","last_reported":1743372538,"current_range_meters":13600,"station_id":"ce4bh392rcd13ifvqdl0","pricing_plan_id":"cebpf4jnsgd1na2vs0mg"},{"bike_id":"8487bf1b-17f2-4f8c-8d61-5aff47a55955","system_id":"levelo_inurba_marseille","lat":43.28149,"lon":5.42654,"is_reserved":false,"is_disabled":false,"rental_uris":{"android":"levelo://app?vid=8487bf1b-17f2-4f8c-8d61-5aff47a55955","ios":"levelo://app?vid=8487bf1b-17f2-4f8c-8d61-5aff47a55955"},"vehicle_type_id":"4","last_reported":1743372538,"current_range_meters":13600,"station_id":"ce4bhnh2rcd13ifvqgug","pricing_plan_id":"cebpf4jnsgd1na2vs0mg"},{"bike_id":"b72d1ec1-9181-4a92-b5f4-0cf9ff9f577e","system_id":"levelo_inurba_marseille","lat":43.28334,"lon":5.3813,"is_reserved":false,"is_disabled":false,"rental_uris":{"android":"levelo://app?vid=b72d1ec1-9181-4a92-b5f4-0cf9ff9f577e","ios":"levelo://app?vid=b72d1ec1-9181-4a92-b5f4-0cf9ff9f577e"},"vehicle_type_id":"4","last_reported":1743372538,"current_range_meters":14000,"station_id":"ce4bh412rcd13ifvqdr0","pricing_plan_id":"cebpf4jnsgd1na2vs0mg"},{"bike_id":"99e7d147-e2b6-4982-8a11-f600737d5497","system_id":"levelo_inurba_marseille","lat":43.31813,"lon":5.36834,"is_reserved":false,"is_disabled":false,"rental_uris":{"android":"levelo://app?vid=99e7d147-e2b6-4982-8a11-f600737d5497","ios":"levelo://app?vid=99e7d147-e2b6-4982-8a11-f600737d5497"},"vehicle_type_id":"4","last_reported":1743372538,"current_range_meters":14000,"station_id":"","pricing_plan_id":"cebpf4jnsgd1na2vs0mg"},{"bike_id":"946ae56e-0d57-462b-a678-0463084b459a","system_id":"levelo_inurba_marseille","lat":43.25106,"lon":5.40326,"is_reserved":false,"is_disabled":false,"rental_uris":{"android":"levelo://app?vid=946ae56e-0d57-462b-a678-0463084b459a","ios":"levelo://app?vid=946ae56e-0d57-462b-a678-0463084b459a"},"vehicle_type_id":"4","last_reported":1743372538,"current_range_meters":14000,"station_id":"ce4bhlh2rcd13ifvqgig","pricing_plan_id":"cebpf4jnsgd1na2vs0mg"},{"bike_id":"8c0baf83-fe6e-4887-8907-067a84dce884","system_id":"levelo_inurba_marseille","lat":43.28424,"lon":5.34995,"is_reserved":false,"is_disabled":true,"rental_uris":{"android":"levelo://app?vid=8c0baf83-fe6e-4887-8907-067a84dce884","ios":"levelo://app?vid=8c0baf83-fe6e-4887-8907-067a84dce884"},"vehicle_type_id":"4","last_reported":1743372538,"current_range_meters":14000,"station_id":"ce4bhbh2rcd13ifvqepg","pricing_plan_id":"cebpf4jnsgd1na2vs0mg"},{"bike_id":"4833ed40-4ec5-41ab-9522-eb4906b09b62","system_id":"levelo_inurba_marseille","lat":43.29575,"lon":5.37514,"is_reserved":false,"is_disabled":true,"rental_uris":{"android":"levelo://app?vid=4833ed40-4ec5-41ab-9522-eb4906b09b62","ios":"levelo://app?vid=4833ed40-4ec5-41ab-9522-eb4906b09b62"},"vehicle_type_id":"4","last_reported":1743372538,"current_range_meters":14000,"station_id":"ce4bgh92rcd13ifvqb50","pricing_plan_id":"cebpf4jnsgd1na2vs0mg"},{"bike_id":"b3dddbdf-a6bc-4eb2-8b8b-05654b1a2ef4","system_id":"levelo_inurba_marseille","lat":43.28935,"lon":5.36611,"is_reserved":false,"is_disabled":false,"rental_uris":{"android":"levelo://app?vid=b3dddbdf-a6bc-4eb2-8b8b-05654b1a2ef4","ios":"levelo://app?vid=b3dddbdf-a6bc-4eb2-8b8b-05654b1a2ef4"},"vehicle_type_id":"4","last_reported":1743372538,"current_range_meters":14000,"station_id":"ce4bhap2rcd13ifvqek0","pricing_plan_id":"cebpf4jnsgd1na2vs0mg"},{"bike_id":"f23a406c-22a2-4c3c-bab0-128877abf12d","system_id":"levelo_inurba_marseille","lat":43.29531,"lon":5.38556,"is_reserved":false,"is_disabled":false,"rental_uris":{"android":"levelo://app?vid=f23a406c-22a2-4c3c-bab0-128877abf12d","ios":"levelo://app?vid=f23a406c-22a2-4c3c-bab0-128877abf12d"},"vehicle_type_id":"4","last_reported":1743372538,"current_range_meters":14400,"station_id":"ce4bgih2rcd13ifvqba0","pricing_plan_id":"cebpf4jnsgd1na2vs0mg"},{"bike_id":"986e705b-322e-4d5b-845a-77349bec28db","system_id":"levelo_inurba_marseille","lat":43.29273,"lon":5.40199,"is_reserved":false,"is_disabled":false,"rental_uris":{"android":"levelo://app?vid=986e705b-322e-4d5b-845a-77349bec28db","ios":"levelo://app?vid=986e705b-322e-4d5b-845a-77349bec28db"},"vehicle_type_id":"4","last_reported":1743372538,"current_range_meters":14000,"station_id":"","pricing_plan_id":"cebpf4jnsgd1na2vs0mg"},{"bike_id":"d7671a11-d2a9-4c19-b8ab-5839a05a2057","system_id":"levelo_inurba_marseille","lat":43.28144,"lon":5.42633,"is_reserved":false,"is_disabled":false,"rental_uris":{"android":"levelo://app?vid=d7671a11-d2a9-4c19-b8ab-5839a05a2057","ios":"levelo://app?vid=d7671a11-d2a9-4c19-b8ab-5839a05a2057"},"vehicle_type_id":"4","last_reported":1743372538,"current_range_meters":14000,"station_id":"ce4bhnh2rcd13ifvqgug","pricing_plan_id":"cebpf4jnsgd1na2vs0mg"},{"bike_id":"dec8142e-cfd4-4b3b-8105-9514a7fd0cf0","system_id":"levelo_inurba_marseille","lat":43.29367,"lon":5.37844,"is_reserved":false,"is_disabled":false,"rental_uris":{"android":"levelo://app?vid=dec8142e-cfd4-4b3b-8105-9514a7fd0cf0","ios":"levelo://app?vid=dec8142e-cfd4-4b3b-8105-9514a7fd0cf0"},"vehicle_type_id":"4","last_reported":1743372538,"current_range_meters":14000,"station_id":"ce4bgjh2rcd13ifvqbf0","pricing_plan_id":"cebpf4jnsgd1na2vs0mg"},{"bike_id":"6d724032-fb9c-4e6e-bd90-452fee067c69","system_id":"levelo_inurba_marseille","lat":43.32331,"lon":5.40617,"is_reserved":false,"is_disabled":false,"rental_uris":{"android":"levelo://app?vid=6d724032-fb9c-4e6e-bd90-452fee067c69","ios":"levelo://app?vid=6d724032-fb9c-4e6e-bd90-452fee067c69"},"vehicle_type_id":"4","last_reported":1743372538,"current_range_meters":14000,"station_id":"ce4bhq92rcd13ifvqhjg","pricing_plan_id":"cebpf4jnsgd1na2vs0mg"},{"bike_id":"3ded6d49-4887-44fc-8514-535c75f9eb3e","system_id":"levelo_inurba_marseille","lat":43.29532,"lon":5.37495,"is_reserved":false,"is_disabled":true,"rental_uris":{"android":"levelo://app?vid=3ded6d49-4887-44fc-8514-535c75f9eb3e","ios":"levelo://app?vid=3ded6d49-4887-44fc-8514-535c75f9eb3e"},"vehicle_type_id":"4","last_reported":1743372538,"current_range_meters":14400,"station_id":"ce4bgkp2rcd13ifvqbmg","pricing_plan_id":"cebpf4jnsgd1na2vs0mg"},{"bike_id":"0f8f638f-6c59-4dfb-ab4f-882d40e453aa","system_id":"levelo_inurba_marseille","lat":43.2931,"lon":5.4276,"is_reserved":false,"is_disabled":false,"rental_uris":{"android":"levelo://app?vid=0f8f638f-6c59-4dfb-ab4f-882d40e453aa","ios":"levelo://app?vid=0f8f638f-6c59-4dfb-ab4f-882d40e453aa"},"vehicle_type_id":"4","last_reported":1743372538,"current_range_meters":14400,"station_id":"","pricing_plan_id":"cebpf4jnsgd1na2vs0mg"},{"bike_id":"67a3cd10-00f8-45c4-972d-51e59607a3e3","system_id":"levelo_inurba_marseille","lat":43.28492,"lon":5.38575,"is_reserved":false,"is_disabled":false,"rental_uris":{"android":"levelo://app?vid=67a3cd10-00f8-45c4-972d-51e59607a3e3","ios":"levelo://app?vid=67a3cd10-00f8-45c4-972d-51e59607a3e3"},"vehicle_type_id":"4","last_reported":1743372538,"current_range_meters":14400,"station_id":"ce4bh8p2rcd13ifvqeb0","pricing_plan_id":"cebpf4jnsgd1na2vs0mg"},{"bike_id":"ca740d5c-d653-4e74-9057-b0dfd8d741fb","system_id":"levelo_inurba_marseille","lat":43.28701,"lon":5.39982,"is_reserved":false,"is_disabled":false,"rental_uris":{"android":"levelo://app?vid=ca740d5c-d653-4e74-9057-b0dfd8d741fb","ios":"levelo://app?vid=ca740d5c-d653-4e74-9057-b0dfd8d741fb"},"vehicle_type_id":"4","last_reported":1743372538,"current_range_meters":14400,"station_id":"ce4bho92rcd13ifvqh3g","pricing_plan_id":"cebpf4jnsgd1na2vs0mg"},{"bike_id":"668c01cb-7bea-48c9-8f15-6bcc0c19c832","system_id":"levelo_inurba_marseille","lat":43.26208,"lon":5.37908,"is_reserved":false,"is_disabled":true,"rental_uris":{"android":"levelo://app?vid=668c01cb-7bea-48c9-8f15-6bcc0c19c832","ios":"levelo://app?vid=668c01cb-7bea-48c9-8f15-6bcc0c19c832"},"vehicle_type_id":"4","last_reported":1743372538,"current_range_meters":14800,"station_id":"ce4bhjp2rcd13ifvqg90","pricing_plan_id":"cebpf4jnsgd1na2vs0mg"},{"bike_id":"9938de39-9b44-42c0-8aa2-b4011fe2a576","system_id":"levelo_inurba_marseille","lat":43.30109,"lon":5.39057,"is_reserved":false,"is_disabled":false,"rental_uris":{"android":"levelo://app?vid=9938de39-9b44-42c0-8aa2-b4011fe2a576","ios":"levelo://app?vid=9938de39-9b44-42c0-8aa2-b4011fe2a576"},"vehicle_type_id":"4","last_reported":1743372538,"current_range_meters":14800,"station_id":"ce4bh192rcd13ifvqdb0","pricing_plan_id":"cebpf4jnsgd1na2vs0mg"},{"bike_id":"2bf31f9f-c5c0-434c-ab3b-b017d7dc966d","system_id":"levelo_inurba_marseille","lat":43.23048,"lon":5.35472,"is_reserved":false,"is_disabled":false,"rental_uris":{"android":"levelo://app?vid=2bf31f9f-c5c0-434c-ab3b-b017d7dc966d","ios":"levelo://app?vid=2bf31f9f-c5c0-434c-ab3b-b017d7dc966d"},"vehicle_type_id":"4","last_reported":1743372538,"current_range_meters":14800,"station_id":"cpo3342slgdg3j2ifvpg","pricing_plan_id":"cebpf4jnsgd1na2vs0mg"},{"bike_id":"f5d6a402-5ce8-4bba-abe7-49a5f1cdc714","system_id":"levelo_inurba_marseille","lat":43.27482,"lon":5.42483,"is_reserved":false,"is_disabled":false,"rental_uris":{"android":"levelo://app?vid=f5d6a402-5ce8-4bba-abe7-49a5f1cdc714","ios":"levelo://app?vid=f5d6a402-5ce8-4bba-abe7-49a5f1cdc714"},"vehicle_type_id":"4","last_reported":1743372538,"current_range_meters":14800,"station_id":"ce4bhn92rcd13ifvqgrg","pricing_plan_id":"cebpf4jnsgd1na2vs0mg"},{"bike_id":"f207853b-de04-4096-9983-e31c1e3e698c","system_id":"levelo_inurba_marseille","lat":43.32113,"lon":5.36765,"is_reserved":false,"is_disabled":false,"rental_uris":{"android":"levelo://app?vid=f207853b-de04-4096-9983-e31c1e3e698c","ios":"levelo://app?vid=f207853b-de04-4096-9983-e31c1e3e698c"},"vehicle_type_id":"4","last_reported":1743372538,"current_range_meters":14800,"station_id":"ce4bhrh2rcd13ifvqhug","pricing_plan_id":"cebpf4jnsgd1na2vs0mg"},{"bike_id":"47c01928-ec7e-4e92-8da3-f78178d39771","system_id":"levelo_inurba_marseille","lat":43.30118,"lon":5.39872,"is_reserved":false,"is_disabled":true,"rental_uris":{"android":"levelo://app?vid=47c01928-ec7e-4e92-8da3-f78178d39771","ios":"levelo://app?vid=47c01928-ec7e-4e92-8da3-f78178d39771"},"vehicle_type_id":"4","last_reported":1743372538,"current_range_meters":15200,"station_id":"ce4bh0h2rcd13ifvqd40","pricing_plan_id":"cebpf4jnsgd1na2vs0mg"},{"bike_id":"a51eba65-0816-47d5-847e-11e62950c240","system_id":"levelo_inurba_marseille","lat":43.29568,"lon":5.38651,"is_reserved":false,"is_disabled":false,"rental_uris":{"android":"levelo://app?vid=a51eba65-0816-47d5-847e-11e62950c240","ios":"levelo://app?vid=a51eba65-0816-47d5-847e-11e62950c240"},"vehicle_type_id":"4","last_reported":1743372538,"current_range_meters":15200,"station_id":"","pricing_plan_id":"cebpf4jnsgd1na2vs0mg"},{"bike_id":"8f4145c4-1bd6-401b-a227-c2c77bf7d7af","system_id":"levelo_inurba_marseille","lat":43.30247,"lon":5.40071,"is_reserved":false,"is_disabled":true,"rental_uris":{"android":"levelo://app?vid=8f4145c4-1bd6-401b-a227-c2c77bf7d7af","ios":"levelo://app?vid=8f4145c4-1bd6-401b-a227-c2c77bf7d7af"},"vehicle_type_id":"4","last_reported":1743372538,"current_range_meters":15200,"station_id":"ce4bgvh2rcd13ifvqcs0","pricing_plan_id":"cebpf4jnsgd1na2vs0mg"},{"bike_id":"f62f78f1-73cd-4667-84a1-110b7b9242ff","system_id":"levelo_inurba_marseille","lat":43.30254,"lon":5.40074,"is_reserved":false,"is_disabled":false,"rental_uris":{"android":"levelo://app?vid=f62f78f1-73cd-4667-84a1-110b7b9242ff","ios":"levelo://app?vid=f62f78f1-73cd-4667-84a1-110b7b9242ff"},"vehicle_type_id":"4","last_reported":1743372538,"current_range_meters":15200,"station_id":"ce4bgvh2rcd13ifvqcs0","pricing_plan_id":"cebpf4jnsgd1na2vs0mg"},{"bike_id":"fb4b7257-a329-4750-8899-5218c646dc6a","system_id":"levelo_inurba_marseille","lat":43.30565,"lon":5.36502,"is_reserved":false,"is_disabled":true,"rental_uris":{"android":"levelo://app?vid=fb4b7257-a329-4750-8899-5218c646dc6a","ios":"levelo://app?vid=fb4b7257-a329-4750-8899-5218c646dc6a"},"vehicle_type_id":"4","last_reported":1743372538,"current_range_meters":15200,"station_id":"ce4bgs12rcd13ifvqcag","pricing_plan_id":"cebpf4jnsgd1na2vs0mg"},{"bike_id":"5dee9d26-f4f1-472a-8eea-c9b9a9dbd827","system_id":"levelo_inurba_marseille","lat":43.23134,"lon":5.3993,"is_reserved":false,"is_disabled":false,"rental_uris":{"android":"levelo://app?vid=5dee9d26-f4f1-472a-8eea-c9b9a9dbd827","ios":"levelo://app?vid=5dee9d26-f4f1-472a-8eea-c9b9a9dbd827"},"vehicle_type_id":"4","last_reported":1743372538,"current_range_meters":15200,"station_id":"ce4bhn12rcd13ifvqgqg","pricing_plan_id":"cebpf4jnsgd1na2vs0mg"},{"bike_id":"dede021e-493e-46c9-81d0-7da8c8ec9c30","system_id":"levelo_inurba_marseille","lat":43.29528,"lon":5.39388,"is_reserved":false,"is_disabled":false,"rental_uris":{"android":"levelo://app?vid=dede021e-493e-46c9-81d0-7da8c8ec9c30","ios":"levelo://app?vid=dede021e-493e-46c9-81d0-7da8c8ec9c30"},"vehicle_type_id":"4","last_reported":1743372538,"current_range_meters":16000,"station_id":"ce4bh292rcd13ifvqdf0","pricing_plan_id":"cebpf4jnsgd1na2vs0mg"},{"bike_id":"f0d1a177-272b-4b40-9047-5d442acb245c","system_id":"levelo_inurba_marseille","lat":43.28404,"lon":5.37517,"is_reserved":false,"is_disabled":false,"rental_uris":{"android":"levelo://app?vid=f0d1a177-272b-4b40-9047-5d442acb245c","ios":"levelo://app?vid=f0d1a177-272b-4b40-9047-5d442acb245c"},"vehicle_type_id":"4","last_reported":1743372538,"current_range_meters":16000,"station_id":"ce4bh412rcd13ifvqds0","pricing_plan_id":"cebpf4jnsgd1na2vs0mg"},{"bike_id":"6ca46f01-4a9c-4585-9e5d-dfa3f99bd816","system_id":"levelo_inurba_marseille","lat":43.2416,"lon":5.36414,"is_reserved":false,"is_disabled":false,"rental_uris":{"android":"levelo://app?vid=6ca46f01-4a9c-4585-9e5d-dfa3f99bd816","ios":"levelo://app?vid=6ca46f01-4a9c-4585-9e5d-dfa3f99bd816"},"vehicle_type_id":"4","last_reported":1743372538,"current_range_meters":16000,"station_id":"cpo36qri1sfpv3e86is0","pricing_plan_id":"cebpf4jnsgd1na2vs0mg"},{"bike_id":"c3689a63-1d58-4137-a12d-d7cbc439865c","system_id":"levelo_inurba_marseille","lat":43.27934,"lon":5.38307,"is_reserved":false,"is_disabled":false,"rental_uris":{"android":"levelo://app?vid=c3689a63-1d58-4137-a12d-d7cbc439865c","ios":"levelo://app?vid=c3689a63-1d58-4137-a12d-d7cbc439865c"},"vehicle_type_id":"4","last_reported":1743372538,"current_range_meters":16000,"station_id":"","pricing_plan_id":"cebpf4jnsgd1na2vs0mg"},