{"last_updated":1752736438,"ttl":60,"version":"2.2","data":{"bikes":[{"bike_id":"53b742a7-31ae-4272-9bba-7740339e2a2f","system_id":"levelo_inurba_marseille","lat":43.33747,"lon":5.37463,"is_reserved":false,"is_disabled":false,"rental_uris":{"android":"levelo://app?vid=53b742a7-31ae-4272-9bba-7740339e2a2f","ios":"levelo://app?vid=53b742a7-31ae-4272-9bba-7740339e2a2f"},"vehicle_type_id":"1","last_reported":1752736438,"current_range_meters":25600,"station_id":"","pricing_plan_id":"cebpf4jnsgd1na2vs0mg"},{"bike_id":"d4789e41-8ea3-4b6a-b86e-99b841af59f1","system_id":"levelo_inurba_marseille","lat":43.32368,"lon":5.38885,"is_reserved":false,"is_disabled":false,"rental_uris":{"android":"levelo://app?vid=d4789e41-8ea3-4b6a-b86e-99b841af59f1","ios":"levelo://app?vid=d4789e41-8ea3-4b6a-b86e-99b841af59f1"},"vehicle_type_id":"4","last_reported":1752736438,"current_range_meters":3600,"station_id":"ce4bhqp2rcd13ifvqhog","pricing_plan_id":"cebpf4jnsgd1na2vs0mg"},{"bike_id":"fc4b58ec-a7d6-4374-87b8-180039f8f6db","system_id":"levelo_inurba_marseille","lat":43.30299,"lon":5.37688,"is_reserved":false,"is_disabled":false,"rental_uris":{"android":"levelo://app?vid=fc4b58ec-a7d6-4374-87b8-180039f8f6db","ios":"levelo://app?vid=fc4b58ec-a7d6-4374-87b8-180039f8f6db"},"vehicle_type_id":"4","last_reported":1752736438,"current_range_meters":2800,"station_id":"ce4bguh2rcd13ifvqcj0","pricing_plan_id":"cebpf4jnsgd1na2vs0mg"},{"bike_id":"67ee824a-6c87-4941-a1a8-723594854ddb","system_id":"levelo_inurba_marseille","lat":43.30546,"lon":5.36703,"is_reserved":false,"is_disabled":false,"rental_uris":{"android":"levelo://app?vid=67ee824a-6c87-4941-a1a8-723594854ddb","ios":"levelo://app?vid=67ee824a-6c87-4941-a1a8-723594854ddb"},"vehicle_type_id":"4","last_reported":1752736438,"current_range_meters":2800,"station_id":"ce4bgrp2rcd13ifvqc9g","pricing_plan_id":"cebpf4jnsgd1na2vs0mg"},{"bike_id":"ceb96187-3868-455d-a80b-2f0b3a9a12ef","system_id":"levelo_inurba_marseille","lat":43.30732,"lon":5.42439,"is_reserved":false,"is_disabled":false,"rental_uris":{"android":"levelo://app?vid=ceb96187-3868-455d-a80b-2f0b3a9a12ef","ios":"levelo://app?vid=ceb96187-3868-455d-a80b-2f0b3a9a12ef"},"vehicle_type_id":"4","last_reported":1752736438,"current_range_meters":2800,"station_id":"st_cvj6ca6bvosntc0bfgr0","pricing_plan_id":"cebpf4jnsgd1na2vs0mg"},{"bike_id":"94077616-43aa-4b1c-aefd-9c566534f4ed","system_id":"levelo_inurba_marseille","lat":43.30216,"lon":5.39446,"is_reserved":false,"is_disabled":false,"rental_uris":{"android":"levelo://app?vid=94077616-43aa-4b1c-aefd-9c566534f4ed","ios":"levelo://app?vid=94077616-43aa-4b1c-aefd-9c566534f4ed"},"vehicle_type_id":"4","last_reported":1752736438,"current_range_meters":3200,"station_id":"ce4bh0p2rcd13ifvqd70","pricing_plan_id":"cebpf4jnsgd1na2vs0mg"},{"bike_id":"e2f2f893-16c7-42e5-8c51-893940a1136e","system_id":"levelo_inurba_marseille","lat":43.3013,"lon":5.36889,"is_reserved":false,"is_disabled":false,"rental_uris":{"android":"levelo://app?vid=e2f2f893-16c7-42e5-8c51-893940a1136e","ios":"levelo://app?vid=e2f2f893-16c7-42e5-8c51-893940a1136e"},"vehicle_type_id":"4","last_reported":1752736438,"current_range_meters":3600,"station_id":"","pricing_plan_id":"cebpf4jnsgd1na2vs0mg"},{"bike_id":"0e7ae96c-29f0-4b07-b374-cc3c62e6ca3f","system_id":"levelo_inurba_marseille","lat":43.313587,"lon":5.384901,"is_reserved":false,"is_disabled":false,"rental_uris":{"android":"levelo://app?vid=0e7ae96c-29f0-4b07-b374-cc3c62e6ca3f","ios":"levelo://app?vid=0e7ae96c-29f0-4b07-b374-cc3c62e6ca3f"},"vehicle_type_id":"4","last_reported":1752736438,"current_range_meters":3600,"station_id":"ce4bgt92rcd13ifvqcf0","pricing_plan_id":"cebpf4jnsgd1na2vs0mg"},{"bike_id":"2d1de1e4-5acb-4dfc-8af4-0fc94d78e513","system_id":"levelo_inurba_marseille","lat":43.25117,"lon":5.4032,"is_reserved":false,"is_disabled":false,"rental_uris":{"android":"levelo://app?vid=2d1de1e4-5acb-4dfc-8af4-0fc94d78e513","ios":"levelo://app?vid=2d1de1e4-5acb-4dfc-8af4-0fc94d78e513"},"vehicle_type_id":"4","last_reported":1752736438,"current_range_meters":3600,"station_id":"ce4bhlh2rcd13ifvqgig","pricing_plan_id":"cebpf4jnsgd1na2vs0mg"},{"bike_id":"5ff06d2e-1fcb-4f7f-b26f-494ef01051e2","system_id":"levelo_inurba_marseille","lat":43.26587,"lon":5.39483,"is_reserved":false,"is_disabled":true,"rental_uris":{"android":"levelo://app?vid=5ff06d2e-1fcb-4f7f-b26f-494ef01051e2","ios":"levelo://app?vid=5ff06d2e-1fcb-4f7f-b26f-494ef01051e2"},"vehicle_type_id":"4","last_reported":1752736438,"current_range_meters":4000,"station_id":"","pricing_plan_id":"cebpf4jnsgd1na2vs0mg"},{"bike_id":"4d93c7ad-f2c3-42aa-ad39-72dafe3fcf14","system_id":"levelo_inurba_marseille","lat":43.30323,"lon":5.40446,"is_reserved":false,"is_disabled":false,"rental_uris":{"android":"levelo://app?vid=4d93c7ad-f2c3-42aa-ad39-72dafe3fcf14","ios":"levelo://app?vid=4d93c7ad-f2c3-42aa-ad39-72dafe3fcf14"},"vehicle_type_id":"4","last_reported":1752736438,"current_range_meters":4400,"station_id":"ce4bh012rcd13ifvqd10","pricing_plan_id":"cebpf4jnsgd1na2vs0mg"},{"bike_id":"e584bac3-2d48-4ef1-bd22-c9bdf1cbdfc4","system_id":"levelo_inurba_marseille","lat":43.24176,"lon":5.39728,"is_reserved":false,"is_disabled":false,"rental_uris":{"android":"levelo://app?vid=e584bac3-2d48-4ef1-bd22-c9bdf1cbdfc4","ios":"levelo://app?vid=e584bac3-2d48-4ef1-bd22-c9bdf1cbdfc4"},"vehicle_type_id":"4","last_reported":1752736438,"current_range_meters":4800,"station_id":"ce4bhn12rcd13ifvqgpg","pricing_plan_id":"cebpf4jnsgd1na2vs0mg"},{"bike_id":"5fab80ed-3276-4af0-8061-50bb5bfbb454","system_id":"levelo_inurba_marseille","lat":43.314918,"lon":5.373113,"is_reserved":false,"is_disabled":false,"rental_uris":{"android":"levelo://app?vid=5fab80ed-3276-4af0-8061-50bb5bfbb454","ios":"levelo://app?vid=5fab80ed-3276-4af0-8061-50bb5bfbb454"},"vehicle_type_id":"4","last_reported":1752736438,"current_range_meters":4800,"station_id":"ce4bgt12rcd13ifvqcd0","pricing_plan_id":"cebpf4jnsgd1na2vs0mg"},{"bike_id":"e5ec4b25-dbcc-42eb-bf86-2cca309a0b15","system_id":"levelo_inurba_marseille","lat":43.264945,"lon":5.395365,"is_reserved":false,"is_disabled":true,"rental_uris":{"android":"levelo://app?vid=e5ec4b25-dbcc-42eb-bf86-2cca309a0b15","ios":"levelo://app?vid=e5ec4b25-dbcc-42eb-bf86-2cca309a0b15"},"vehicle_type_id":"4","last_reported":1752736438,"current_range_meters":4800,"station_id":"","pricing_plan_id":"cebpf4jnsgd1na2vs0mg"},{"bike_id":"a8ce6efe-50ae-4699-a953-570b09452efb","system_id":"levelo_inurba_marseille","lat":43.25001,"lon":5.38942,"is_reserved":false,"is_disabled":false,"rental_uris":{"android":"levelo://app?vid=a8ce6efe-50ae-4699-a953-570b09452efb","ios":"levelo://app?vid=a8ce6efe-50ae-4699-a953-570b09452efb"},"vehicle_type_id":"4","last_reported":1752736438,"current_range_meters":4800,"station_id":"ce4bhgp2rcd13ifvqfd0","pricing_plan_id":"cebpf4jnsgd1na2vs0mg"},{"bike_id":"d98ef30e-38a0-41ef-a00a-304afa979a1e","system_id":"levelo_inurba_marseille","lat":43.29881,"lon":5.43658,"is_reserved":false,"is_disabled":false,"rental_uris":{"android":"levelo://app?vid=d98ef30e-38a0-41ef-a00a-304afa979a1e","ios":"levelo://app?vid=d98ef30e-38a0-41ef-a00a-304afa979a1e"},"vehicle_type_id":"4","last_reported":1752736438,"current_range_meters":5600,"station_id":"ce4bhpp2rcd13ifvqhfg","pricing_plan_id":"cebpf4jnsgd1na2vs0mg"},{"bike_id":"50fb0c55-1fa8-4e90-a553-7838794d6d2b","system_id":"levelo_inurba_marseille","lat":43.29905,"lon":5.43681,"is_reserved":false,"is_disabled":false,"rental_uris":{"android":"levelo://app?vid=50fb0c55-1fa8-4e90-a553-7838794d6d2b","ios":"levelo://app?vid=50fb0c55-1fa8-4e90-a553-7838794d6d2b"},"vehicle_type_id":"4","last_reported":1752736438,"current_range_meters":5600,"station_id":"ce4bhpp2rcd13ifvqhfg","pricing_plan_id":"cebpf4jnsgd1na2vs0mg"},{"bike_id":"61b2eff3-41d8-4186-b1db-497ff9bfb8f4","system_id":"levelo_inurba_marseille","lat":43.29717,"lon":5.3662,"is_reserved":false,"is_disabled":false,"rental_uris":{"android":"levelo://app?vid=61b2eff3-41d8-4186-b1db-497ff9bfb8f4","ios":"levelo://app?vid=61b2eff3-41d8-4186-b1db-497ff9bfb8f4"},"vehicle_type_id":"4","last_reported":1752736438,"current_range_meters":6000,"station_id":"ce4bgn12rcd13ifvqbt0","pricing_plan_id":"cebpf4jnsgd1na2vs0mg"},{"bike_id":"080b0f22-14dd-4044-a18f-ee7f74366cea","system_id":"levelo_inurba_marseille","lat":43.31986,"lon":5.38143,"is_reserved":false,"is_disabled":true,"rental_uris":{"android":"levelo://app?vid=080b0f22-14dd-4044-a18f-ee7f74366cea","ios":"levelo://app?vid=080b0f22-14dd-4044-a18f-ee7f74366cea"},"vehicle_type_id":"4","last_reported":1752736438,"current_range_meters":6000,"station_id":"ce4bhr12rcd13ifvqhpg","pricing_plan_id":"cebpf4jnsgd1na2vs0mg"},{"bike_id":"1145602c-3b12-4604-b8ff-291284dfc532","system_id":"levelo_inurba_marseille","lat":43.22501,"lon":5.34789,"is_reserved":false,"is_disabled":false,"rental_uris":{"android":"levelo://app?vid=1145602c-3b12-4604-b8ff-291284dfc532","ios":"levelo://app?vid=1145602c-3b12-4604-b8ff-291284dfc532"},"vehicle_type_id":"4","last_reported":1752736438,"current_range_meters":6400,"station_id":"st_cvj5dfep6f1abm77gieg","pricing_plan_id":"cebpf4jnsgd1na2vs0mg"},{"bike_id":"f777d9e3-0ed3-4426-aeca-71121eae9498","system_id":"levelo_inurba_marseille","lat":43.273784,"lon":5.362579,"is_reserved":false,"is_disabled":false,"rental_uris":{"android":"levelo://app?vid=f777d9e3-0ed3-4426-aeca-71121eae9498","ios":"levelo://app?vid=f777d9e3-0ed3-4426-aeca-71121eae9498"},"vehicle_type_id":"4","last_reported":1752736438,"current_range_meters":6400,"station_id":"ce4bhbh2rcd13ifvqeo0","pricing_plan_id":"cebpf4jnsgd1na2vs0mg"},{"bike_id":"2c6e34ec-e4ad-4b55-908f-732bdcecdb2f","system_id":"levelo_inurba_marseille","lat":43.211898,"lon":5.350664,"is_reserved":false,"is_disabled":false,"rental_uris":{"android":"levelo://app?vid=2c6e34ec-e4ad-4b55-908f-732bdcecdb2f","ios":"levelo://app?vid=2c6e34ec-e4ad-4b55-908f-732bdcecdb2f"},"vehicle_type_id":"4","last_reported":1752736438,"current_range_meters":6800,"station_id":"st_cvj6sg6p6f1abm77japg","pricing_plan_id":"cebpf4jnsgd1na2vs0mg"},{"bike_id":"9d5d931a-164b-437c-aaff-f77c0c85cafa","system_id":"levelo_inurba_marseille","lat":43.24546,"lon":5.3952,"is_reserved":false,"is_disabled":false,"rental_uris":{"android":"levelo://app?vid=9d5d931a-164b-437c-aaff-f77c0c85cafa","ios":"levelo://app?vid=9d5d931a-164b-437c-aaff-f77c0c85cafa"},"vehicle_type_id":"4","last_reported":1752736438,"current_range_meters":6800,"station_id":"ce4bhlp2rcd13ifvqgjg","pricing_plan_id":"cebpf4jnsgd1na2vs0mg"},{"bike_id":"8938e6ce-e832-4ca2-9ad3-13b3e69a1e29","system_id":"levelo_inurba_marseille","lat":43.31709,"lon":5.37754,"is_reserved":false,"is_disabled":false,"rental_uris":{"android":"levelo://app?vid=8938e6ce-e832-4ca2-9ad3-13b3e69a1e29","ios":"levelo://app?vid=8938e6ce-e832-4ca2-9ad3-13b3e69a1e29"},"vehicle_type_id":"4","last_reported":1752736438,"current_range_meters":6800,"station_id":"ce4bgth2rcd13ifvqch0","pricing_plan_id":"cebpf4jnsgd1na2vs0mg"},{"bike_id":"a5b711eb-b7ea-4418-88cd-82f05b3c722a","system_id":"levelo_inurba_marseille","lat":43.265677,"lon":5.38684,"is_reserved":false,"is_disabled":false,"rental_uris":{"android":"levelo://app?vid=a5b711eb-b7ea-4418-88cd-82f05b3c722a","ios":"levelo://app?vid=a5b711eb-b7ea-4418-88cd-82f05b3c722a"},"vehicle_type_id":"4","last_reported":1752736438,"current_range_meters":6800,"station_id":"","pricing_plan_id":"cebpf4jnsgd1na2vs0mg"},{"bike_id":"5f739e88-e602-4de0-9960-58f027783b80","system_id":"levelo_inurba_marseille","lat":43.31119,"lon":5.37753,"is_reserved":false,"is_disabled":false,"rental_uris":{"android":"levelo://app?vid=5f739e88-e602-4de0-9960-58f027783b80","ios":"levelo://app?vid=5f739e88-e602-4de0-9960-58f027783b80"},"vehicle_type_id":"4","last_reported":1752736438,"current_range_meters":7200,"station_id":"ce4bgt92rcd13ifvqcg0","pricing_plan_id":"cebpf4jnsgd1na2vs0mg"},{"bike_id":"2533a2dd-5895-449d-a845-dc2b5afff885","system_id":"levelo_inurba_marseille","lat":43.31485,"lon":5.37288,"is_reserved":false,"is_disabled":false,"rental_uris":{"android":"levelo://app?vid=2533a2dd-5895-449d-a845-dc2b5afff885","ios":"levelo://app?vid=2533a2dd-5895-449d-a845-dc2b5afff885"},"vehicle_type_id":"4","last_reported":1752736438,"current_range_meters":7200,"station_id":"ce4bgt12rcd13ifvqcd0","pricing_plan_id":"cebpf4jnsgd1na2vs0mg"},{"bike_id":"c3504d01-ae21-4d51-b5bb-c5e7be14a75e","system_id":"levelo_inurba_marseille","lat":43.312227,"lon":5.36852,"is_reserved":false,"is_disabled":false,"rental_uris":{"android":"levelo://app?vid=c3504d01-ae21-4d51-b5bb-c5e7be14a75e","ios":"levelo://app?vid=c3504d01-ae21-4d51-b5bb-c5e7be14a75e"},"vehicle_type_id":"4","last_reported":1752736438,"current_range_meters":8000,"station_id":"ce4bgl92rcd13ifvqbq0","pricing_plan_id":"cebpf4jnsgd1na2vs0mg"},{"bike_id":"4c44f66f-63d8-4917-8265-23379560af8c","system_id":"levelo_inurba_marseille","lat":43.32109,"lon":5.36767,"is_reserved":false,"is_disabled":false,"rental_uris":{"android":"levelo://app?vid=4c44f66f-63d8-4917-8265-23379560af8c","ios":"levelo://app?vid=4c44f66f-63d8-4917-8265-23379560af8c"},"vehicle_type_id":"4","last_reported":1752736438,"current_range_meters":8000,"station_id":"ce4bhrh2rcd13ifvqhug","pricing_plan_id":"cebpf4jnsgd1na2vs0mg"},{"bike_id":"667ea8c5-7f3f-4466-92e1-f07ac8ff0426","system_id":"levelo_inurba_marseille","lat":43.30135,"lon":5.36999,"is_reserved":false,"is_disabled":false,"rental_uris":{"android":"levelo://app?vid=667ea8c5-7f3f-4466-92e1-f07ac8ff0426","ios":"levelo://app?vid=667ea8c5-7f3f-4466-92e1-f07ac8ff0426"},"vehicle_type_id":"4","last_reported":1752736438,"current_range_meters":8400,"station_id":"","pricing_plan_id":"cebpf4jnsgd1na2vs0mg"},{"bike_id":"f8e2ed06-c235-4e65-bcf6-c1fe2bf3aed8","system_id":"levelo_inurba_marseille","lat":43.29089,"lon":5.38129,"is_reserved":false,"is_disabled":false,"rental_uris":{"android":"levelo://app?vid=f8e2ed06-c235-4e65-bcf6-c1fe2bf3aed8","ios":"levelo://app?vid=f8e2ed06-c235-4e65-bcf6-c1fe2bf3aed8"},"vehicle_type_id":"4","last_reported":1752736438,"current_range_meters":8400,"station_id":"ce4bh512rcd13ifvqe2g","pricing_plan_id":"cebpf4jnsgd1na2vs0mg"},{"bike_id":"bb5d9deb-7517-43be-8a1b-f804625d2132","system_id":"levelo_inurba_marseille","lat":43.29296,"lon":5.37435,"is_reserved":false,"is_disabled":false,"rental_uris":{"android":"levelo://app?vid=bb5d9deb-7517-43be-8a1b-f804625d2132","ios":"levelo://app?vid=bb5d9deb-7517-43be-8a1b-f804625d2132"},"vehicle_type_id":"4","last_reported":1752736438,"current_range_meters":8400,"station_id":"ce4bgi12rcd13ifvqb70","pricing_plan_id":"cebpf4jnsgd1na2vs0mg"},{"bike_id":"daa05d6a-e43d-421a-85c7-448b43669ccf","system_id":"levelo_inurba_marseille","lat":43.3055,"lon":5.36726,"is_reserved":false,"is_disabled":false,"rental_uris":{"android":"levelo://app?vid=daa05d6a-e43d-421a-85c7-448b43669ccf","ios":"levelo://app?vid=daa05d6a-e43d-421a-85c7-448b43669ccf"},"vehicle_type_id":"4","last_reported":1752736438,"current_range_meters":8400,"station_id":"ce4bgrp2rcd13ifvqc9g","pricing_plan_id":"cebpf4jnsgd1na2vs0mg"},{"bike_id":"d088024d-801c-46b7-a4f4-bb7919407cd0","system_id":"levelo_inurba_marseille","lat":43.32446,"lon":5.36548,"is_reserved":false,"is_disabled":false,"rental_uris":{"android":"levelo://app?vid=d088024d-801c-46b7-a4f4-bb7919407cd0","ios":"levelo://app?vid=d088024d-801c-46b7-a4f4-bb7919407cd0"},"vehicle_type_id":"4","last_reported":1752736438,"current_range_meters":8400,"station_id":"ce4bhs12rcd13ifvqhvg","pricing_plan_id":"cebpf4jnsgd1na2vs0mg"},{"bike_id":"c4e3adcf-b133-4a48-ad8a-5f7284a8ca7c","system_id":"levelo_inurba_marseille","lat":43.23166,"lon":5.43696,"is_reserved":false,"is_disabled":false,"rental_uris":{"android":"levelo://app?vid=c4e3adcf-b133-4a48-ad8a-5f7284a8ca7c","ios":"levelo://app?vid=c4e3adcf-b133-4a48-ad8a-5f7284a8ca7c"},"vehicle_type_id":"4","last_reported":1752736438,"current_range_meters":8400,"station_id":"ce4bhmp2rcd13ifvqgog","pricing_plan_id":"cebpf4jnsgd1na2vs0mg"},{"bike_id":"e6c1bd98-fb38-4fb1-9bbd-b99023c945f2","system_id":"levelo_inurba_marseille","lat":43.32289,"lon":5.38264,"is_reserved":false,"is_disabled":false,"rental_uris":{"android":"levelo://app?vid=e6c1bd98-fb38-4fb1-9bbd-b99023c945f2","ios":"levelo://app?vid=e6c1bd98-fb38-4fb1-9bbd-b99023c945f2"},"vehicle_type_id":"4","last_reported":1752736438,"current_range_meters":8400,"station_id":"ce4bhr12rcd13ifvqhqg","pricing_plan_id":"cebpf4jnsgd1na2vs0mg"},{"bike_id":"d675f5ee-f352-4c05-87f1-d6cd4eac2a5d","system_id":"levelo_inurba_marseille","lat":43.24542,"lon":5.39521,"is_reserved":false,"is_disabled":false,"rental_uris":{"android":"levelo://app?vid=d675f5ee-f352-4c05-87f1-d6cd4eac2a5d","ios":"levelo://app?vid=d675f5ee-f352-4c05-87f1-d6cd4eac2a5d"},"vehicle_type_id":"4","last_reported":1752736438,"current_range_meters":8400,"station_id":"ce4bhlp2rcd13ifvqgjg","pricing_plan_id":"cebpf4jnsgd1na2vs0mg"},{"bike_id":"4b8aac5a-b339-4881-8ed6-269715318799","system_id":"levelo_inurba_marseille","lat":43.2668,"lon":5.3827,"is_reserved":false,"is_disabled":false,"rental_uris":{"android":"levelo://app?vid=4b8aac5a-b339-4881-8ed6-269715318799","ios":"levelo://app?vid=4b8aac5a-b339-4881-8ed6-269715318799"},"vehicle_type_id":"4","last_reported":1752736438,"current_range_meters":8800,"station_id":"ce4bhg92rcd13ifvqf90","pricing_plan_id":"cebpf4jnsgd1na2vs0mg"},{"bike_id":"f5f9b4cc-f212-42b7-8bcb-29a0991fe431","system_id":"levelo_inurba_marseille","lat":43.304643,"lon":5.379148,"is_reserved":false,"is_disabled":false,"rental_uris":{"android":"levelo://app?vid=f5f9b4cc-f212-42b7-8bcb-29a0991fe431","ios":"levelo://app?vid=f5f9b4cc-f212-42b7-8bcb-29a0991fe431"},"vehicle_type_id":"4","last_reported":1752736438,"current_range_meters":8800,"station_id":"ce4bgup2rcd13ifvqcn0","pricing_plan_id":"cebpf4jnsgd1na2vs0mg"},{"bike_id":"e68c5f5f-0f33-4c38-b5dc-1c8c68f06270","system_id":"levelo_inurba_marseille","lat":43.298777,"lon":5.389136,"is_reserved":false,"is_disabled":false,"rental_uris":{"android":"levelo://app?vid=e68c5f5f-0f33-4c38-b5dc-1c8c68f06270","ios":"levelo://app?vid=e68c5f5f-0f33-4c38-b5dc-1c8c68f06270"},"vehicle_type_id":"4","last_reported":1752736438,"current_range_meters":8800,"station_id":"ce4bh392rcd13ifvqdl0","pricing_plan_id":"cebpf4jnsgd1na2vs0mg"},{"bike_id":"9e365865-b118-4295-83f9-77049644431e","system_id":"levelo_inurba_marseille","lat":43.31337,"lon":5.36714,"is_reserved":false,"is_disabled":false,"rental_uris":{"android":"levelo://app?vid=9e365865-b118-4295-83f9-77049644431e","ios":"levelo://app?vid=9e365865-b118-4295-83f9-77049644431e"},"vehicle_type_id":"4","last_reported":1752736438,"current_range_meters":9200,"station_id":"ce4bgr92rcd13ifvqc6g","pricing_plan_id":"cebpf4jnsgd1na2vs0mg"},{"bike_id":"697b62b6-8043-4f88-8466-e07cc3b9d930","system_id":"levelo_inurba_marseille","lat":43.30274,"lon":5.37702,"is_reserved":false,"is_disabled":false,"rental_uris":{"android":"levelo://app?vid=697b62b6-8043-4f88-8466-e07cc3b9d930","ios":"levelo://app?vid=697b62b6-8043-4f88-8466-e07cc3b9d930"},"vehicle_type_id":"4","last_reported":1752736438,"current_range_meters":9200,"station_id":"ce4bguh2rcd13ifvqcj0","pricing_plan_id":"cebpf4jnsgd1na2vs0mg"},{"bike_id":"54b283c6-c314-444c-b492-3e78ed7f2d30","system_id":"levelo_inurba_marseille","lat":43.32943,"lon":5.39047,"is_reserved":false,"is_disabled":false,"rental_uris":{"android":"levelo://app?vid=54b283c6-c314-444c-b492-3e78ed7f2d30","ios":"levelo://app?vid=54b283c6-c314-444c-b492-3e78ed7f2d30"},"vehicle_type_id":"4","last_reported":1752736438,"current_range_meters":9200,"station_id":"","pricing_plan_id":"cebpf4jnsgd1na2vs0mg"},{"bike_id":"3497b8c1-eec3-4bcf-a2a8-074629d1c01b","system_id":"levelo_inurba_marseille","lat":43.305316,"lon":5.367038,"is_reserved":false,"is_disabled":false,"rental_uris":{"android":"levelo://app?vid=3497b8c1-eec3-4bcf-a2a8-074629d1c01b","ios":"levelo://app?vid=3497b8c1-eec3-4bcf-a2a8-074629d1c01b"},"vehicle_type_id":"4","last_reported":1752736438,"current_range_meters":9200,"station_id":"","pricing_plan_id":"cebpf4jnsgd1na2vs0mg"},{"bike_id":"d28b3124-fe78-43be-aa83-739ff15cd1ce","system_id":"levelo_inurba_marseille","lat":43.313485,"lon":5.367028,"is_reserved":false,"is_disabled":false,"rental_uris":{"android":"levelo://app?vid=d28b3124-fe78-43be-aa83-739ff15cd1ce","ios":"levelo://app?vid=d28b3124-fe78-43be-aa83-739ff15cd1ce"},"vehicle_type_id":"4","last_reported":1752736438,"current_range_meters":9200,"station_id":"","pricing_plan_id":"cebpf4jnsgd1na2vs0mg"},{"bike_id":"2c3df181-3b12-4650-9577-53167b19dcb5","system_id":"levelo_inurba_marseille","lat":43.30598,"lon":5.37221,"is_reserved":false,"is_disabled":false,"rental_uris":{"android":"levelo://app?vid=2c3df181-3b12-4650-9577-53167b19dcb5","ios":"levelo://app?vid=2c3df181-3b12-4650-9577-53167b19dcb5"},"vehicle_type_id":"4","last_reported":1752736438,"current_range_meters":9200,"station_id":"ce4bgqh2rcd13ifvqc4g","pricing_plan_id":"cebpf4jnsgd1na2vs0mg"},{"bike_id":"aa69ed1b-1520-4830-b2d3-d649ce969d5c","system_id":"levelo_inurba_marseille","lat":43.28572,"lon":5.3948,"is_reserved":false,"is_disabled":false,"rental_uris":{"android":"levelo://app?vid=aa69ed1b-1520-4830-b2d3-d649ce969d5c","ios":"levelo://app?vid=aa69ed1b-1520-4830-b2d3-d649ce969d5c"},"vehicle_type_id":"4","last_reported":1752736438,"current_range_meters":9200,"station_id":"ce4bh292rcd13ifvqdg0","pricing_plan_id":"cebpf4jnsgd1na2vs0mg"},{"bike_id":"ec666801-8273-485b-841f-83f1c5683a28","system_id":"levelo_inurba_marseille","lat":43.33777,"lon":5.37444,"is_reserved":false,"is_disabled":false,"rental_uris":{"android":"levelo://app?vid=ec666801-8273-485b-841f-83f1c5683a28","ios":"levelo://app?vid=ec666801-8273-485b-841f-83f1c5683a28"},"vehicle_type_id":"4","last_reported":1752736438,"current_range_meters":9600,"station_id":"","pricing_plan_id":"cebpf4jnsgd1na2vs0mg"},{"bike_id":"38634dc5-64fb-4923-b7f4-05d8d0b21efb","system_id":"levelo_inurba_marseille","lat":43.21188,"lon":5.350703,"is_reserved":false,"is_disabled":false,"rental_uris":{"android":"levelo://app?vid=38634dc5-64fb-4923-b7f4-05d8d0b21efb","ios":"levelo://app?vid=38634dc5-64fb-4923-b7f4-05d8d0b21efb"},"vehicle_type_id":"4","last_reported":1752736438,"current_range_meters":9600,"station_id":"st_cvj6sg6p6f1abm77japg","pricing_plan_id":"cebpf4jnsgd1na2vs0mg"},{"bike_id":"27dd38c7-fe49-4d49-be31-36a4ba7521ce","system_id":"levelo_inurba_marseille","lat":43.24663,"lon":5.38166,"is_reserved":false,"is_disabled":true,"rental_uris":{"android":"levelo://app?vid=27dd38c7-fe49-4d49-be31-36a4ba7521ce","ios":"levelo://app?vid=27dd38c7-fe49-4d49-be31-36a4ba7521ce"},"vehicle_type_id":"4","last_reported":1752736438,"current_range_meters":9600,"station_id":"ce4bhih2rcd13ifvqfr0","pricing_plan_id":"cebpf4jnsgd1na2vs0mg"},{"bike_id":"2cc4c7ab-a454-4fc0-acb0-2ff772b5ddd7","system_id":"levelo_inurba_marseille","lat":43.269429,"lon":5.402656,"is_reserved":false,"is_disabled":false,"rental_uris":{"android":"levelo://app?vid=2cc4c7ab-a454-4fc0-acb0-2ff772b5ddd7","ios":"levelo://app?vid=2cc4c7ab-a454-4fc0-acb0-2ff772b5ddd7"},"vehicle_type_id":"4","last_reported":1752736438,"current_range_meters":9600,"station_id":"cjm6bp8fraef2m0cb0m0","pricing_plan_id":"cebpf4jnsgd1na2vs0mg"},{"bike_id":"55f68299-a3d6-410b-98d6-3ddb0606a072","system_id":"levelo_inurba_marseille","lat":43.33605,"lon":5.41032,"is_reserved":false,"is_disabled":false,"rental_uris":{"android":"levelo://app?vid=55f68299-a3d6-410b-98d6-3ddb0606a072","ios":"levelo://app?vid=55f68299-a3d6-410b-98d6-3ddb0606a072"},"vehicle_type_id":"4","last_reported":1752736438,"current_range_meters":10000,"station_id":"ce4bhqh2rcd13ifvqhmg","pricing_plan_id":"cebpf4jnsgd1na2vs0mg"},{"bike_id":"7ee9e0af-a712-4dc6-9ed4-e1a0af365380","system_id":"levelo_inurba_marseille","lat":43.31382,"lon":5.36665,"is_reserved":false,"is_disabled":false,"rental_uris":{"android":"levelo://app?vid=7ee9e0af-a712-4dc6-9ed4-e1a0af365380","ios":"levelo://app?vid=7ee9e0af-a712-4dc6-9ed4-e1a0af365380"},"vehicle_type_id":"4","last_reported":1752736438,"current_range_meters":10000,"station_id":"","pricing_plan_id":"cebpf4jnsgd1na2vs0mg"},{"bike_id":"fc9430ca-0420-44ff-b3ad-d6210f7d0a28","system_id":"levelo_inurba_marseille","lat":43.30904,"lon":5.36852,"is_reserved":false,"is_disabled":false,"rental_uris":{"android":"levelo://app?vid=fc9430ca-0420-44ff-b3ad-d6210f7d0a28","ios":"levelo://app?vid=fc9430ca-0420-44ff-b3ad-d6210f7d0a28"},"vehicle_type_id":"4","last_reported":1752736438,"current_range_meters":10000,"station_id":"ce4bgn92rcd13ifvqbvg","pricing_plan_id":"cebpf4jnsgd1na2vs0mg"},{"bike_id":"f2c77edb-72e7-4faa-876b-e76362dd1db6","system_id":"levelo_inurba_marseille","lat":43.305336,"lon":5.36533,"is_reserved":false,"is_disabled":false,"rental_uris":{"android":"levelo://app?vid=f2c77edb-72e7-4faa-876b-e76362dd1db6","ios":"levelo://app?vid=f2c77edb-72e7-4faa-876b-e76362dd1db6"},"vehicle_type_id":"4","last_reported":1752736438,"current_range_meters":10000,"station_id":"ce4bgs12rcd13ifvqcag","pricing_plan_id":"cebpf4jnsgd1na2vs0mg"},{"bike_id":"61a9e916-b95f-4f2c-8dca-c5b11be80287","system_id":"levelo_inurba_marseille","lat":43.291993,"lon":5.360205,"is_reserved":false,"is_disabled":false,"rental_uris":{"android":"levelo://app?vid=61a9e916-b95f-4f2c-8dca-c5b11be80287","ios":"levelo://app?vid=61a9e916-b95f-4f2c-8dca-c5b11be80287"},"vehicle_type_id":"4","last_reported":1752736438,"current_range_meters":10000,"station_id":"","pricing_plan_id":"cebpf4jnsgd1na2vs0mg"},{"bike_id":"78679572-3bfd-4157-9dc2-e6eab36eb3e1","system_id":"levelo_inurba_marseille","lat":43.26681,"lon":5.3828,"is_reserved":false,"is_disabled":false,"rental_uris":{"android":"levelo://app?vid=78679572-3bfd-4157-9dc2-e6eab36eb3e1","ios":"levelo://app?vid=78679572-3bfd-4157-9dc2-e6eab36eb3e1"},"vehicle_type_id":"4","last_reported":1752736438,"current_range_meters":10000,"station_id":"ce4bhg92rcd13ifvqf90","pricing_plan_id":"cebpf4jnsgd1na2vs0mg"},{"bike_id":"abe21af3-8afd-4440-b00c-533ce2a8f41a","system_id":"levelo_inurba_marseille","lat":43.337317,"lon":5.391835,"is_reserved":false,"is_disabled":false,"rental_uris":{"android":"levelo://app?vid=abe21af3-8afd-4440-b00c-533ce2a8f41a","ios":"levelo://app?vid=abe21af3-8afd-4440-b00c-533ce2a8f41a"},"vehicle_type_id":"4","last_reported":1752736438,"current_range_meters":10000,"station_id":"ce4bhr92rcd13ifvqhsg","pricing_plan_id":"cebpf4jnsgd1na2vs0mg"},{"bike_id":"b84b9ec2-f685-4568-a1cf-15a9dfd9b3d4","system_id":"levelo_inurba_marseille","lat":43.30797,"lon":5.38151,"is_reserved":false,"is_disabled":false,"rental_uris":{"android":"levelo://app?vid=b84b9ec2-f685-4568-a1cf-15a9dfd9b3d4","ios":"levelo://app?vid=b84b9ec2-f685-4568-a1cf-15a9dfd9b3d4"},"vehicle_type_id":"4","last_reported":1752736438,"current_range_meters":10000,"station_id":"ce4bgt12rcd13ifvqce0","pricing_plan_id":"cebpf4jnsgd1na2vs0mg"},{"bike_id":"964a87d9-b043-4d78-a43b-0fe002e9ebed","system_id":"levelo_inurba_marseille","lat":43.286183,"lon":5.351057,"is_reserved":false,"is_disabled":true,"rental_uris":{"android":"levelo://app?vid=964a87d9-b043-4d78-a43b-0fe002e9ebed","ios":"levelo://app?vid=964a87d9-b043-4d78-a43b-0fe002e9ebed"},"vehicle_type_id":"4","last_reported":1752736438,"current_range_meters":10000,"station_id":"ce4bhch2rcd13ifvqeug","pricing_plan_id":"cebpf4jnsgd1na2vs0mg"},{"bike_id":"42fe4969-651a-4993-8067-5deeed4c701b","system_id":"levelo_inurba_marseille","lat":43.31352,"lon":5.3672,"is_reserved":false,"is_disabled":false,"rental_uris":{"android":"levelo://app?vid=42fe4969-651a-4993-8067-5deeed4c701b","ios":"levelo://app?vid=42fe4969-651a-4993-8067-5deeed4c701b"},"vehicle_type_id":"4","last_reported":1752736438,"current_range_meters":10800,"station_id":"ce4bgr92rcd13ifvqc6g","pricing_plan_id":"cebpf4jnsgd1na2vs0mg"},{"bike_id":"ea7164db-a955-4dec-8040-2e9c85cba810","system_id":"levelo_inurba_marseille","lat":43.30904,"lon":5.36838,"is_reserved":false,"is_disabled":false,"rental_uris":{"android":"levelo://app?vid=ea7164db-a955-4dec-8040-2e9c85cba810","ios":"levelo://app?vid=ea7164db-a955-4dec-8040-2e9c85cba810"},"vehicle_type_id":"4","last_reported":1752736438,"current_range_meters":10800,"station_id":"ce4bgn92rcd13ifvqbvg","pricing_plan_id":"cebpf4jnsgd1na2vs0mg"},{"bike_id":"b6e666ca-40a6-4894-a9e0-7106dd62ed9e","system_id":"levelo_inurba_marseille","lat":43.29211,"lon":5.39997,"is_reserved":false,"is_disabled":false,"rental_uris":{"android":"levelo://app?vid=b6e666ca-40a6-4894-a9e0-7106dd62ed9e","ios":"levelo://app?vid=b6e666ca-40a6-4894-a9e0-7106dd62ed9e"},"vehicle_type_id":"4","last_reported":1752736438,"current_range_meters":10800,"station_id":"","pricing_plan_id":"cebpf4jnsgd1na2vs0mg"},{"bike_id":"cfb6e539-5040-403a-880a-fc5c5a3f249b","system_id":"levelo_inurba_marseille","lat":43.24176,"lon":5.39726,"is_reserved":false,"is_disabled":false,"rental_uris":{"android":"levelo://app?vid=cfb6e539-5040-403a-880a-fc5c5a3f249b","ios":"levelo://app?vid=cfb6e539-5040-403a-880a-fc5c5a3f249b"},"vehicle_type_id":"4","last_reported":1752736438,"current_range_meters":10800,"station_id":"ce4bhn12rcd13ifvqgpg","pricing_plan_id":"cebpf4jnsgd1na2vs0mg"},{"bike_id":"2bacaccd-1bb2-41bf-ab2e-30b8a5fb7d5d","system_id":"levelo_inurba_marseille","lat":43.27368,"lon":5.36247,"is_reserved":false,"is_disabled":false,"rental_uris":{"android":"levelo://app?vid=2bacaccd-1bb2-41bf-ab2e-30b8a5fb7d5d","ios":"levelo://app?vid=2bacaccd-1bb2-41bf-ab2e-30b8a5fb7d5d"},"vehicle_type_id":"4","last_reported":1752736438,"current_range_meters":10800,"station_id":"ce4bhbh2rcd13ifvqeo0","pricing_plan_id":"cebpf4jnsgd1na2vs0mg"},{"bike_id":"9eaf072e-fd31-4296-8388-8574f90d4c98","system_id":"levelo_inurba_marseille","lat":43.28605,"lon":5.37062,"is_reserved":false,"is_disabled":false,"rental_uris":{"android":"levelo://app?vid=9eaf072e-fd31-4296-8388-8574f90d4c98","ios":"levelo://app?vid=9eaf072e-fd31-4296-8388-8574f90d4c98"},"vehicle_type_id":"4","last_reported":1752736438,"current_range_meters":10800,"station_id":"ce4bht12rcd13ifvqi60","pricing_plan_id":"cebpf4jnsgd1na2vs0mg"},{"bike_id":"229a51b8-d35a-46ef-90d9-099d3d4f556b","system_id":"levelo_inurba_marseille","lat":43.29414,"lon":5.38609,"is_reserved":false,"is_disabled":true,"rental_uris":{"android":"levelo://app?vid=229a51b8-d35a-46ef-90d9-099d3d4f556b","ios":"levelo://app?vid=229a51b8-d35a-46ef-90d9-099d3d4f556b"},"vehicle_type_id":"4","last_reported":1752736438,"current_range_meters":11200,"station_id":"ce4bh2h2rcd13ifvqdh0","pricing_plan_id":"cebpf4jnsgd1na2vs0mg"},{"bike_id":"47e84c87-4631-48fa-8064-ac43c2313bba","system_id":"levelo_inurba_marseille","lat":43.29304,"lon":5.37171,"is_reserved":false,"is_disabled":true,"rental_uris":{"android":"levelo://app?vid=47e84c87-4631-48fa-8064-ac43c2313bba","ios":"levelo://app?vid=47e84c87-4631-48fa-8064-ac43c2313bba"},"vehicle_type_id":"4","last_reported":1752736438,"current_range_meters":11200,"station_id":"ce4bgh92rcd13ifvqb40","pricing_plan_id":"cebpf4jnsgd1na2vs0mg"},{"bike_id":"668b719f-eb0a-47ac-b1f6-9771bfc25c9f","system_id":"levelo_inurba_marseille","lat":43.24244,"lon":5.37598,"is_reserved":false,"is_disabled":false,"rental_uris":{"android":"levelo://app?vid=668b719f-eb0a-47ac-b1f6-9771bfc25c9f","ios":"levelo://app?vid=668b719f-eb0a-47ac-b1f6-9771bfc25c9f"},"vehicle_type_id":"4","last_reported":1752736438,"current_range_meters":11200,"station_id":"","pricing_plan_id":"cebpf4jnsgd1na2vs0mg"},{"bike_id":"63b68163-23ff-4509-a7ff-da745c70a782","system_id":"levelo_inurba_marseille","lat":43.295232,"lon":5.394075,"is_reserved":false,"is_disabled":false,"rental_uris":{"android":"levelo://app?vid=63b68163-23ff-4509-a7ff-da745c70a782","ios":"levelo://app?vid=63b68163-23ff-4509-a7ff-da745c70a782"},"vehicle_type_id":"4","last_reported":1752736438,"current_range_meters":11200,"station_id":"","pricing_plan_id":"cebpf4jnsgd1na2vs0mg"},{"bike_id":"bb91fdfd-e2e6-4861-a682-9985a5c5d97b","system_id":"levelo_inurba_marseille","lat":43.23182,"lon":5.39972,"is_reserved":false,"is_disabled":false,"rental_uris":{"android":"levelo://app?vid=bb91fdfd-e2e6-4861-a682-9985a5c5d97b","ios":"levelo://app?vid=bb91fdfd-e2e6-4861-a682-9985a5c5d97b"},"vehicle_type_id":"4","last_reported":1752736438,"current_range_meters":11200,"station_id":"ce4bhn12rcd13ifvqgqg","pricing_plan_id":"cebpf4jnsgd1na2vs0mg"},{"bike_id":"7dee92bf-5b07-4927-aa41-9e9493644eeb","system_id":"levelo_inurba_marseille","lat":43.211891,"lon":5.35074,"is_reserved":false,"is_disabled":false,"rental_uris":{"android":"levelo://app?vid=7dee92bf-5b07-4927-aa41-9e9493644eeb","ios":"levelo://app?vid=7dee92bf-5b07-4927-aa41-9e9493644eeb"},"vehicle_type_id":"4","last_reported":1752736438,"current_range_meters":11200,"station_id":"st_cvj6sg6p6f1abm77japg","pricing_plan_id":"cebpf4jnsgd1na2vs0mg"},{"bike_id":"46cf7696-31d3-4873-bcf1-8bfb7b7856d0","system_id":"levelo_inurba_marseille","lat":43.2958,"lon":5.37751,"is_reserved":false,"is_disabled":false,"rental_uris":{"android":"levelo://app?vid=46cf7696-31d3-4873-bcf1-8bfb7b7856d0","ios":"levelo://app?vid=46cf7696-31d3-4873-bcf1-8bfb7b7856d0"},"vehicle_type_id":"4","last_reported":1752736438,"current_range_meters":11600,"station_id":"","pricing_plan_id":"cebpf4jnsgd1na2vs0mg"},{"bike_id":"2979d731-9333-4af5-a963-386268404255","system_id":"levelo_inurba_marseille","lat":43.22938,"lon":5.35379,"is_reserved":false,"is_disabled":false,"rental_uris":{"android":"levelo://app?vid=2979d731-9333-4af5-a963-386268404255","ios":"levelo://app?vid=2979d731-9333-4af5-a963-386268404255"},"vehicle_type_id":"4","last_reported":1752736438,"current_range_meters":11600,"station_id":"cpo3532slgdg3j2ikp40","pricing_plan_id":"cebpf4jnsgd1na2vs0mg"},{"bike_id":"ebeae601-d9ab-4c91-973a-5a16a2d795ac","system_id":"levelo_inurba_marseille","lat":43.29612,"lon":5.3771,"is_reserved":false,"is_disabled":false,"rental_uris":{"android":"levelo://app?vid=ebeae601-d9ab-4c91-973a-5a16a2d795ac","ios":"levelo://app?vid=ebeae601-d9ab-4c91-973a-5a16a2d795ac"},"vehicle_type_id":"4","last_reported":1752736438,"current_range_meters":11600,"station_id":"ce4bgi92rcd13ifvqb90","pricing_plan_id":"cebpf4jnsgd1na2vs0mg"},{"bike_id":"bebfea8c-816d-4d78-8f5c-5d3075023194","system_id":"levelo_inurba_marseille","lat":43.31345,"lon":5.36727,"is_reserved":false,"is_disabled":false,"rental_uris":{"android":"levelo://app?vid=bebfea8c-816d-4d78-8f5c-5d3075023194","ios":"levelo://app?vid=bebfea8c-816d-4d78-8f5c-5d3075023194"},"vehicle_type_id":"4","last_reported":1752736438,"current_range_meters":11600,"station_id":"ce4bgr92rcd13ifvqc6g","pricing_plan_id":"cebpf4jnsgd1na2vs0mg"},{"bike_id":"315a482e-6b18-4647-a2c3-ec2ceb2b1906","system_id":"levelo_inurba_marseille","lat":43.2962,"lon":5.37722,"is_reserved":false,"is_disabled":false,"rental_uris":{"android":"levelo://app?vid=315a482e-6b18-4647-a2c3-ec2ceb2b1906","ios":"levelo://app?vid=315a482e-6b18-4647-a2c3-ec2ceb2b1906"},"vehicle_type_id":"4","last_reported":1752736438,"current_range_meters":12000,"station_id":"ce4bgi92rcd13ifvqb90","pricing_plan_id":"cebpf4jnsgd1na2vs0mg"},{"bike_id":"fec9ee64-026c-46c6-a4c8-c66ae693a529","system_id":"levelo_inurba_marseille","lat":43.29294,"lon":5.37175,"is_reserved":false,"is_disabled":true,"rental_uris":{"android":"levelo://app?vid=fec9ee64-026c-46c6-a4c8-c66ae693a529","ios":"levelo://app?vid=fec9ee64-026c-46c6-a4c8-c66ae693a529"},"vehicle_type_id":"4","last_reported":1752736438,"current_range_meters":12000,"station_id":"ce4bgh92rcd13ifvqb40","pricing_plan_id":"cebpf4jnsgd1na2vs0mg"},{"bike_id":"c7d7395a-27c9-40c3-a2f8-bd0ae0161a58","system_id":"levelo_inurba_marseille","lat":43.302826,"lon":5.376964,"is_reserved":false,"is_disabled":false,"rental_uris":{"android":"levelo://app?vid=c7d7395a-27c9-40c3-a2f8-bd0ae0161a58","ios":"levelo://app?vid=c7d7395a-27c9-40c3-a2f8-bd0ae0161a58"},"vehicle_type_id":"4","last_reported":1752736438,"current_range_meters":12000,"station_id":"ce4bguh2rcd13ifvqcj0","pricing_plan_id":"cebpf4jnsgd1na2vs0mg"},{"bike_id":"d446b86f-ac8b-455c-854e-dd258cf5a1a6","system_id":"levelo_inurba_marseille","lat":43.24168,"lon":5.39741,"is_reserved":false,"is_disabled":false,"rental_uris":{"android":"levelo://app?vid=d446b86f-ac8b-455c-854e-dd258cf5a1a6","ios":"levelo://app?vid=d446b86f-ac8b-455c-854e-dd258cf5a1a6"},"vehicle_type_id":"4","last_reported":1752736438,"current_range_meters":12000,"station_id":"ce4bhn12rcd13ifvqgpg","pricing_plan_id":"cebpf4jnsgd1na2vs0mg"},{"bike_id":"0ab85e17-3302-44cf-99ab-0bbf39336ea9","system_id":"levelo_inurba_marseille","lat":43.25586,"lon":5.38231,"is_reserved":false,"is_disabled":false,"rental_uris":{"android":"levelo://app?vid=0ab85e17-3302-44cf-99ab-0bbf39336ea9","ios":"levelo://app?vid=0ab85e17-3302-44cf-99ab-0bbf39336ea9"},"vehicle_type_id":"4","last_reported":1752736438,"current_range_meters":12000,"station_id":"ce4bhih2rcd13ifvqfs0","pricing_plan_id":"cebpf4jnsgd1na2vs0mg"},{"bike_id":"7fc6ebd8-c0b1-4e77-8345-e5ffce2a02ab","system_id":"levelo_inurba_marseille","lat":43.24154,"lon":5.36402,"is_reserved":false,"is_disabled":false,"rental_uris":{"android":"levelo://app?vid=7fc6ebd8-c0b1-4e77-8345-e5ffce2a02ab","ios":"levelo://app?vid=7fc6ebd8-c0b1-4e77-8345-e5ffce2a02ab"},"vehicle_type_id":"4","last_reported":1752736438,"current_range_meters":12000,"station_id":"cpo36qri1sfpv3e86is0","pricing_plan_id":"cebpf4jnsgd1na2vs0mg"},{"bike_id":"e3b6cf45-6ba9-40c1-8df4-a1127eda131a","system_id":"levelo_inurba_marseille","lat":43.309,"lon":5.36837,"is_reserved":false,"is_disabled":false,"rental_uris":{"android":"levelo://app?vid=e3b6cf45-6ba9-40c1-8df4-a1127eda131a","ios":"levelo://app?vid=e3b6cf45-6ba9-40c1-8df4-a1127eda131a"},"vehicle_type_id":"4","last_reported":1752736438,"current_range_meters":12400,"station_id":"ce4bgn92rcd13ifvqbvg","pricing_plan_id":"cebpf4jnsgd1na2vs0mg"},{"bike_id":"734032c8-fecd-4dec-8378-00c6c9efc560","system_id":"levelo_inurba_marseille","lat":43.2963,"lon":5.37102,"is_reserved":false,"is_disabled":true,"rental_uris":{"android":"levelo://app?vid=734032c8-fecd-4dec-8378-00c6c9efc560","ios":"levelo://app?vid=734032c8-fecd-4dec-8378-00c6c9efc560"},"vehicle_type_id":"4","last_reported":1752736438,"current_range_meters":12400,"station_id":"ce4bgnh2rcd13ifvqc0g","pricing_plan_id":"cebpf4jnsgd1na2vs0mg"},{"bike_id":"a8a86d88-ee3a-44dc-b0ab-9338a5d9b1fa","system_id":"levelo_inurba_marseille","lat":43.26209,"lon":5.37439,"is_reserved":false,"is_disabled":false,"rental_uris":{"android":"levelo://app?vid=a8a86d88-ee3a-44dc-b0ab-9338a5d9b1fa","ios":"levelo://app?vid=a8a86d88-ee3a-44dc-b0ab-9338a5d9b1fa"},"vehicle_type_id":"4","last_reported":1752736438,"current_range_meters":12400,"station_id":"ce4bhgp2rcd13ifvqfc0","pricing_plan_id":"cebpf4jnsgd1na2vs0mg"},{"bike_id":"8011ddee-9f9f-4b63-b379-cb247747f968","system_id":"levelo_inurba_marseille","lat":43.29253,"lon":5.37632,"is_reserved":false,"is_disabled":false,"rental_uris":{"android":"levelo://app?vid=8011ddee-9f9f-4b63-b379-cb247747f968","ios":"levelo://app?vid=8011ddee-9f9f-4b63-b379-cb247747f968"},"vehicle_type_id":"4","last_reported":1752736438,"current_range_meters":12400,"station_id":"ce4bgi12rcd13ifvqb80","pricing_plan_id":"cebpf4jnsgd1na2vs0mg"},{"bike_id":"6a69d0cc-faf8-4dc3-8ded-5ef811a5de8d","system_id":"levelo_inurba_marseille","lat":43.307361,"lon":5.424441,"is_reserved":false,"is_disabled":false,"rental_uris":{"android":"levelo://app?vid=6a69d0cc-faf8-4dc3-8ded-5ef811a5de8d","ios":"levelo://app?vid=6a69d0cc-faf8-4dc3-8ded-5ef811a5de8d"},"vehicle_type_id":"4","last_reported":1752736438,"current_range_meters":12400,"station_id":"st_cvj6ca6bvosntc0bfgr0","pricing_plan_id":"cebpf4jnsgd1na2vs0mg"},{"bike_id":"39c6203f-25ee-487c-9399-b36ef495fc6b","system_id":"levelo_inurba_marseille","lat":43.2408,"lon":5.37752,"is_reserved":false,"is_disabled":false,"rental_uris":{"android":"levelo://app?vid=39c6203f-25ee-487c-9399-b36ef495fc6b","ios":"levelo://app?vid=39c6203f-25ee-487c-9399-b36ef495fc6b"},"vehicle_type_id":"4","last_reported":1752736438,"current_range_meters":12400,"station_id":"ce4bhnp2rcd13ifvqgvg","pricing_plan_id":"cebpf4jnsgd1na2vs0mg"},{"bike_id":"0398468c-6c0f-49fd-b525-08c45b6a4cd9","system_id":"levelo_inurba_marseille","lat":43.22507,"lon":5.34766,"is_reserved":false,"is_disabled":false,"rental_uris":{"android":"levelo://app?vid=0398468c-6c0f-49fd-b525-08c45b6a4cd9","ios":"levelo://app?vid=0398468c-6c0f-49fd-b525-08c45b6a4cd9"},"vehicle_type_id":"4","last_reported":1752736438,"current_range_meters":12800,"station_id":"st_cvj5dfep6f1abm77gieg","pricing_plan_id":"cebpf4jnsgd1na2vs0mg"},{"bike_id":"5cbcfa8e-1411-475e-81c8-fdd36f338cb7","system_id":"levelo_inurba_marseille","lat":43.29644,"lon":5.40544,"is_reserved":false,"is_disabled":false,"rental_uris":{"android":"levelo://app?vid=5cbcfa8e-1411-475e-81c8-fdd36f338cb7","ios":"levelo://app?vid=5cbcfa8e-1411-475e-81c8-fdd36f338cb7"},"vehicle_type_id":"4","last_reported":1752736438,"current_range_meters":12800,"station_id":"","pricing_plan_id":"cebpf4jnsgd1na2vs0mg"},{"bike_id":"84c133eb-a2c7-4beb-83c4-2a7041dbf7bd","system_id":"levelo_inurba_marseille","lat":43.30797,"lon":5.3816,"is_reserved":false,"is_disabled":true,"rental_uris":{"android":"levelo://app?vid=84c133eb-a2c7-4beb-83c4-2a7041dbf7bd","ios":"levelo://app?vid=84c133eb-a2c7-4beb-83c4-2a7041dbf7bd"},"vehicle_type_id":"4","last_reported":1752736438,"current_range_meters":12800,"station_id":"","pricing_plan_id":"cebpf4jnsgd1na2vs0mg"},{"bike_id":"d800bc80-5415-4d8e-b76d-f93f9e69c49b","system_id":"levelo_inurba_marseille","lat":43.29272,"lon":5.36841,"is_reserved":false,"is_disabled":false,"rental_uris":{"android":"levelo://app?vid=d800bc80-5415-4d8e-b76d-f93f9e69c49b","ios":"levelo://app?vid=d800bc80-5415-4d8e-b76d-f93f9e69c49b"},"vehicle_type_id":"4","last_reported":1752736438,"current_range_meters":12800,"station_id":"ce4bhbp2rcd13ifvqesg","pricing_plan_id":"cebpf4jnsgd1na2vs0mg"},{"bike_id":"8ba485a3-c3d8-4934-a531-89905545198b","system_id":"levelo_inurba_marseille","lat":43.26213,"lon":5.3744,"is_reserved":false,"is_disabled":false,"rental_uris":{"android":"levelo://app?vid=8ba485a3-c3d8-4934-a531-89905545198b","ios":"levelo://app?vid=8ba485a3-c3d8-4934-a531-89905545198b"},"vehicle_type_id":"4","last_reported":1752736438,"current_range_meters":12800,"station_id":"ce4bhgp2rcd13ifvqfc0","pricing_plan_id":"cebpf4jnsgd1na2vs0mg"},{"bike_id":"aa687065-efc7-4782-9cf4-7b78f7c085af","system_id":"levelo_inurba_marseille","lat":43.3171,"lon":5.43704,"is_reserved":false,"is_disabled":false,"rental_uris":{"android":"levelo://app?vid=aa687065-efc7-4782-9cf4-7b78f7c085af","ios":"levelo://app?vid=aa687065-efc7-4782-9cf4-7b78f7c085af"},"vehicle_type_id":"4","last_reported":1752736438,"current_range_meters":12800,"station_id":"ce4bhp92rcd13ifvqhcg","pricing_plan_id":"cebpf4jnsgd1na2vs0mg"},{"bike_id":"555bc53e-5286-4fb6-9154-af42b3fd9792","system_id":"levelo_inurba_marseille","lat":43.30074,"lon":5.37281,"is_reserved":false,"is_disabled":false,"rental_uris":{"android":"levelo://app?vid=555bc53e-5286-4fb6-9154-af42b3fd9792","ios":"levelo://app?vid=555bc53e-5286-4fb6-9154-af42b3fd9792"},"vehicle_type_id":"4","last_reported":1752736438,"current_range_meters":12800,"station_id":"","pricing_plan_id":"cebpf4jnsgd1na2vs0mg"},{"bike_id":"bd3b285b-53f7-4f4d-94f9-3faf82d12ab5","system_id":"levelo_inurba_marseille","lat":43.23185,"lon":5.39985,"is_reserved":false,"is_disabled":false,"rental_uris":{"android":"levelo://app?vid=bd3b285b-53f7-4f4d-94f9-3faf82d12ab5","ios":"levelo://app?vid=bd3b285b-53f7-4f4d-94f9-3faf82d12ab5"},"vehicle_type_id":"4","last_reported":1752736438,"current_range_meters":12800,"station_id":"ce4bhn12rcd13ifvqgqg","pricing_plan_id":"cebpf4jnsgd1na2vs0mg"},{"bike_id":"30e0eb25-e8c5-452a-94eb-b7ada28a0f0e","system_id":"levelo_inurba_marseille","lat":43.31504,"lon":5.37296,"is_reserved":false,"is_disabled":false,"rental_uris":{"android":"levelo://app?vid=30e0eb25-e8c5-452a-94eb-b7ada28a0f0e","ios":"levelo://app?vid=30e0eb25-e8c5-452a-94eb-b7ada28a0f0e"},"vehicle_type_id":"4","last_reported":1752736438,"current_range_meters":13600,"station_id":"ce4bgt12rcd13ifvqcd0","pricing_plan_id":"cebpf4jnsgd1na2vs0mg"},{"bike_id":"b46faa4a-a5af-4029-a7ca-a5ebb960bd90","system_id":"levelo_inurba_marseille","lat":43.29042,"lon":5.3757,"is_reserved":false,"is_disabled":false,"rental_uris":{"android":"levelo://app?vid=b46faa4a-a5af-4029-a7ca-a5ebb960bd90","ios":"levelo://app?vid=b46faa4a-a5af-4029-a7ca-a5ebb960bd90"},"vehicle_type_id":"4","last_reported":1752736438,"current_range_meters":13600,"station_id":"ce4bh692rcd13ifvqe90","pricing_plan_id":"cebpf4jnsgd1na2vs0mg"},{"bike_id":"243ff24d-c224-4f6c-8766-a9a443123038","system_id":"levelo_inurba_marseille","lat":43.23959,"lon":5.36621,"is_reserved":false,"is_disabled":false,"rental_uris":{"android":"levelo://app?vid=243ff24d-c224-4f6c-8766-a9a443123038","ios":"levelo://app?vid=243ff24d-c224-4f6c-8766-a9a443123038"},"vehicle_type_id":"4","last_reported":1752736438,"current_range_meters":13600,"station_id":"ce4bhi12rcd13ifvqfp0","pricing_plan_id":"cebpf4jnsgd1na2vs0mg"},{"bike_id":"b0913f93-a684-4140-9689-82edfbc4235d","system_id":"levelo_inurba_marseille","lat":43.21186,"lon":5.35074,"is_reserved":false,"is_disabled":false,"rental_uris":{"android":"levelo://app?vid=b0913f93-a684-4140-9689-82edfbc4235d","ios":"levelo://app?vid=b0913f93-a684-4140-9689-82edfbc4235d"},"vehicle_type_id":"4","last_reported":1752736438,"current_range_meters":14000,"station_id":"st_cvj6sg6p6f1abm77japg","pricing_plan_id":"cebpf4jnsgd1na2vs0mg"},{"bike_id":"98daf460-c45d-4be9-b03d-fde500644729","system_id":"levelo_inurba_marseille","lat":43.296223,"lon":5.377025,"is_reserved":false,"is_disabled":false,"rental_uris":{"android":"levelo://app?vid=98daf460-c45d-4be9-b03d-fde500644729","ios":"levelo://app?vid=98daf460-c45d-4be9-b03d-fde500644729"},"vehicle_type_id":"4","last_reported":1752736438,"current_range_meters":14000,"station_id":"","pricing_plan_id":"cebpf4jnsgd1na2vs0mg"},{"bike_id":"34e62ee5-3131-428c-842a-9ad03de94ba5","system_id":"levelo_inurba_marseille","lat":43.225037,"lon":5.347808,"is_reserved":false,"is_disabled":false,"rental_uris":{"android":"levelo://app?vid=34e62ee5-3131-428c-842a-9ad03de94ba5","ios":"levelo://app?vid=34e62ee5-3131-428c-842a-9ad03de94ba5"},"vehicle_type_id":"4","last_reported":1752736438,"current_range_meters":14000,"station_id":"st_cvj5dfep6f1abm77gieg","pricing_plan_id":"cebpf4jnsgd1na2vs0mg"},{"bike_id":"912f16db-63c7-4470-9f88-c3c229ae5b21","system_id":"levelo_inurba_marseille","lat":43.2757,"lon":5.3843,"is_reserved":false,"is_disabled":false,"rental_uris":{"android":"levelo://app?vid=912f16db-63c7-4470-9f88-c3c229ae5b21","ios":"levelo://app?vid=912f16db-63c7-4470-9f88-c3c229ae5b21"},"vehicle_type_id":"4","last_reported":1752736438,"current_range_meters":14000,"station_id":"ce4bhh92rcd13ifvqfi0","pricing_plan_id":"cebpf4jnsgd1na2vs0mg"},{"bike_id":"8417ad62-2136-4647-b89c-f46e0aabae59","system_id":"levelo_inurba_marseille","lat":43.229311,"lon":5.353774,"is_reserved":false,"is_disabled":false,"rental_uris":{"android":"levelo://app?vid=8417ad62-2136-4647-b89c-f46e0aabae59","ios":"levelo://app?vid=8417ad62-2136-4647-b89c-f46e0aabae59"},"vehicle_type_id":"4","last_reported":1752736438,"current_range_meters":14000,"station_id":"cpo3532slgdg3j2ikp40","pricing_plan_id":"cebpf4jnsgd1na2vs0mg"},{"bike_id":"3444bdc6-514a-4ba6-9650-f9073305e33d","system_id":"levelo_inurba_marseille","lat":43.29682,"lon":5.3698,"is_reserved":false,"is_disabled":false,"rental_uris":{"android":"levelo://app?vid=3444bdc6-514a-4ba6-9650-f9073305e33d","ios":"levelo://app?vid=3444bdc6-514a-4ba6-9650-f9073305e33d"},"vehicle_type_id":"4","last_reported":1752736438,"current_range_meters":14400,"station_id":"","pricing_plan_id":"cebpf4jnsgd1na2vs0mg"},{"bike_id":"07f5ae19-0925-43ef-aab4-48ec58bc62b9","system_id":"levelo_inurba_marseille","lat":43.31443,"lon":5.37444,"is_reserved":false,"is_disabled":true,"rental_uris":{"android":"levelo://app?vid=07f5ae19-0925-43ef-aab4-48ec58bc62b9","ios":"levelo://app?vid=07f5ae19-0925-43ef-aab4-48ec58bc62b9"},"vehicle_type_id":"4","last_reported":1752736438,"current_range_meters":14400,"station_id":"","pricing_plan_id":"cebpf4jnsgd1na2vs0mg"},{"bike_id":"f6e67167-3686-4cae-82da-4610049996dc","system_id":"levelo_inurba_marseille","lat":43.269236,"lon":5.38524,"is_reserved":false,"is_disabled":false,"rental_uris":{"android":"levelo://app?vid=f6e67167-3686-4cae-82da-4610049996dc","ios":"levelo://app?vid=f6e67167-3686-4cae-82da-4610049996dc"},"vehicle_type_id":"4","last_reported":1752736438,"current_range_meters":14800,"station_id":"","pricing_plan_id":"cebpf4jnsgd1na2vs0mg"},{"bike_id":"e27850cc-a795-4c43-bfd4-586148cd3686","system_id":"levelo_inurba_marseille","lat":43.26677,"lon":5.38268,"is_reserved":false,"is_disabled":false,"rental_uris":{"android":"levelo://app?vid=e27850cc-a795-4c43-bfd4-586148cd3686","ios":"levelo://app?vid=e27850cc-a795-4c43-bfd4-586148cd3686"},"vehicle_type_id":"4","last_reported":1752736438,"current_range_meters":14800,"station_id":"ce4bhg92rcd13ifvqf90","pricing_plan_id":"cebpf4jnsgd1na2vs0mg"},{"bike_id":"ed95837f-07e7-4a7f-a555-8c7f94bcecc6","system_id":"levelo_inurba_marseille","lat":43.2843,"lon":5.39204,"is_reserved":false,"is_disabled":false,"rental_uris":{"android":"levelo://app?vid=ed95837f-07e7-4a7f-a555-8c7f94bcecc6","ios":"levelo://app?vid=ed95837f-07e7-4a7f-a555-8c7f94bcecc6"},"vehicle_type_id":"4","last_reported":1752736438,"current_range_meters":14800,"station_id":"ce4bhoh2rcd13ifvqh5g","pricing_plan_id":"cebpf4jnsgd1na2vs0mg"},{"bike_id":"70018fef-a161-47c7-9fd6-a33af77eac2f","system_id":"levelo_inurba_marseille","lat":43.29537,"lon":5.42279,"is_reserved":false,"is_disabled":false,"rental_uris":{"android":"levelo://app?vid=70018fef-a161-47c7-9fd6-a33af77eac2f","ios":"levelo://app?vid=70018fef-a161-47c7-9fd6-a33af77eac2f"},"vehicle_type_id":"4","last_reported":1752736438,"current_range_meters":14800,"station_id":"ce4bhph2rcd13ifvqhdg","pricing_plan_id":"cebpf4jnsgd1na2vs0mg"},{"bike_id":"a141820f-bc03-45dc-a651-d083d3729cdf","system_id":"levelo_inurba_marseille","lat":43.30344,"lon":5.37612,"is_reserved":false,"is_disabled":false,"rental_uris":{"android":"levelo://app?vid=a141820f-bc03-45dc-a651-d083d3729cdf","ios":"levelo://app?vid=a141820f-bc03-45dc-a651-d083d3729cdf"},"vehicle_type_id":"4","last_reported":1752736438,"current_range_meters":15200,"station_id":"ce4bguh2rcd13ifvqcj0","pricing_plan_id":"cebpf4jnsgd1na2vs0mg"},{"bike_id":"8acdf02c-787e-4a1e-956a-5c94a3dff06a","system_id":"levelo_inurba_marseille","lat":43.2851,"lon":5.40588,"is_reserved":false,"is_disabled":false,"rental_uris":{"android":"levelo://app?vid=8acdf02c-787e-4a1e-956a-5c94a3dff06a","ios":"levelo://app?vid=8acdf02c-787e-4a1e-956a-5c94a3dff06a"},"vehicle_type_id":"4","last_reported":1752736438,"current_range_meters":15200,"station_id":"","pricing_plan_id":"cebpf4jnsgd1na2vs0mg"},{"bike_id":"045a641b-5c1f-49de-960c-1fbe47651d2b","system_id":"levelo_inurba_marseille","lat":43.29292,"lon":5.40104,"is_reserved":false,"is_disabled":true,"rental_uris":{"android":"levelo://app?vid=045a641b-5c1f-49de-960c-1fbe47651d2b","ios":"levelo://app?vid=045a641b-5c1f-49de-960c-1fbe47651d2b"},"vehicle_type_id":"4","last_reported":1752736438,"current_range_meters":15200,"station_id":"ce4bh312rcd13ifvqdk0","pricing_plan_id":"cebpf4jnsgd1na2vs0mg"},{"bike_id":"e4e2e2fa-c0c5-4b70-99d9-4aa0a8a26c45","system_id":"levelo_inurba_marseille","lat":43.292304,"lon":5.360492,"is_reserved":false,"is_disabled":false,"rental_uris":{"android":"levelo://app?vid=e4e2e2fa-c0c5-4b70-99d9-4aa0a8a26c45","ios":"levelo://app?vid=e4e2e2fa-c0c5-4b70-99d9-4aa0a8a26c45"},"vehicle_type_id":"4","last_reported":1752736438,"current_range_meters":15200,"station_id":"","pricing_plan_id":"cebpf4jnsgd1na2vs0mg"},{"bike_id":"3ebe0256-308e-4485-bdcf-441560cb13f1","system_id":"levelo_inurba_marseille","lat":43.29595,"lon":5.381,"is_reserved":false,"is_disabled":false,"rental_uris":{"android":"levelo://app?vid=3ebe0256-308e-4485-bdcf-441560cb13f1","ios":"levelo://app?vid=3ebe0256-308e-4485-bdcf-441560cb13f1"},"vehicle_type_id":"4","last_reported":1752736438,"current_range_meters":16000,"station_id":"ce4bgl12rcd13ifvqbo0","pricing_plan_id":"cebpf4jnsgd1na2vs0mg"},{"bike_id":"e56c3474-59a2-4632-b8f1-b28f5e58eda8","system_id":"levelo_inurba_marseille","lat":43.269555,"lon":5.386303,"is_reserved":false,"is_disabled":true,"rental_uris":{"android":"levelo://app?vid=e56c3474-59a2-4632-b8f1-b28f5e58eda8","ios":"levelo://app?vid=e56c3474-59a2-4632-b8f1-b28f5e58eda8"},"vehicle_type_id":"4","last_reported":1752736438,"current_range_meters":16000,"station_id":"ce4bhh92rcd13ifvqfh0","pricing_plan_id":"cebpf4jnsgd1na2vs0mg"},{"bike_id":"5f069dd7-381d-4614-855f-77184ecd7293","system_id":"levelo_inurba_marseille","lat":43.30149,"lon":5.3808,"is_reserved":false,"is_disabled":false,"rental_uris":{"android":"levelo://app?vid=5f069dd7-381d-4614-855f-77184ecd7293","ios":"levelo://app?vid=5f069dd7-381d-4614-855f-77184ecd7293"},"vehicle_type_id":"4","last_reported":1752736438,"current_range_meters":16000,"station_id":"ce4bgjp2rcd13ifvqbh0","pricing_plan_id":"cebpf4jnsgd1na2vs0mg"},{"bike_id":"8716a6dc-edc9-4ce8-b2db-da4e68c247be","system_id":"levelo_inurba_marseille","lat":43.295365,"lon":5.385468,"is_reserved":false,"is_disabled":true,"rental_uris":{"android":"levelo://app?vid=8716a6dc-edc9-4ce8-b2db-da4e68c247be","ios":"levelo://app?vid=8716a6dc-edc9-4ce8-b2db-da4e68c247be"},"vehicle_type_id":"4","last_reported":1752736438,"current_range_meters":16400,"station_id":"ce4bgih2rcd13ifvqba0","pricing_plan_id":"cebpf4jnsgd1na2vs0mg"},{"bike_id":"bc1eaf2a-08d4-417f-84d2-f38c669aeb0a","system_id":"levelo_inurba_marseille","lat":43.30937,"lon":5.39043,"is_reserved":false,"is_disabled":false,"rental_uris":{"android":"levelo://app?vid=bc1eaf2a-08d4-417f-84d2-f38c669aeb0a","ios":"levelo://app?vid=bc1eaf2a-08d4-417f-84d2-f38c669aeb0a"},"vehicle_type_id":"4","last_reported":1752736438,"current_range_meters":16400,"station_id":"ce4bgup2rcd13ifvqco0","pricing_plan_id":"cebpf4jnsgd1na2vs0mg"},{"bike_id":"7297a8c1-4a82-4f94-a715-1bbe796a9d81","system_id":"levelo_inurba_marseille","lat":43.29032,"lon":5.39986,"is_reserved":false,"is_disabled":false,"rental_uris":{"android":"levelo://app?vid=7297a8c1-4a82-4f94-a715-1bbe796a9d81","ios":"levelo://app?vid=7297a8c1-4a82-4f94-a715-1bbe796a9d81"},"vehicle_type_id":"4","last_reported":1752736438,"current_range_meters":16400,"station_id":"ce4bh392rcd13ifvqdm0","pricing_plan_id":"cebpf4jnsgd1na2vs0mg"},{"bike_id":"1a1de22c-864f-4087-990e-227151d55abc","system_id":"levelo_inurba_marseille","lat":43.2121,"lon":5.35081,"is_reserved":false,"is_disabled":false,"rental_uris":{"android":"levelo://app?vid=1a1de22c-864f-4087-990e-227151d55abc","ios":"levelo://app?vid=1a1de22c-864f-4087-990e-227151d55abc"},"vehicle_type_id":"4","last_reported":1752736438,"current_range_meters":16400,"station_id":"st_cvj6sg6p6f1abm77japg","pricing_plan_id":"cebpf4jnsgd1na2vs0mg"},{"bike_id":"d8f2d7d9-7efc-4067-98d2-cb3f9779dcec","system_id":"levelo_inurba_marseille","lat":43.301928,"lon":5.379651,"is_reserved":false,"is_disabled":false,"rental_uris":{"android":"levelo://app?vid=d8f2d7d9-7efc-4067-98d2-cb3f9779dcec","ios":"levelo://app?vid=d8f2d7d9-7efc-4067-98d2-cb3f9779dcec"},"vehicle_type_id":"4","last_reported":1752736438,"current_range_meters":16400,"station_id":"ce4bgjp2rcd13ifvqbh0","pricing_plan_id":"cebpf4jnsgd1na2vs0mg"},{"bike_id":"6d70d6d4-7776-4d1e-a307-46e9e54de733","system_id":"levelo_inurba_marseille","lat":43.295685,"lon":5.399613,"is_reserved":false,"is_disabled":true,"rental_uris":{"android":"levelo://app?vid=6d70d6d4-7776-4d1e-a307-46e9e54de733","ios":"levelo://app?vid=6d70d6d4-7776-4d1e-a307-46e9e54de733"},"vehicle_type_id":"4","last_reported":1752736438,"current_range_meters":16400,"station_id":"ce4bh312rcd13ifvqdj0","pricing_plan_id":"cebpf4jnsgd1na2vs0mg"},{"bike_id":"eb0e3055-c45b-416d-bc64-42f6047c6750","system_id":"levelo_inurba_marseille","lat":43.25917,"lon":5.40892,"is_reserved":false,"is_disabled":false,"rental_uris":{"android":"levelo://app?vid=eb0e3055-c45b-416d-bc64-42f6047c6750","ios":"levelo://app?vid=eb0e3055-c45b-416d-bc64-42f6047c6750"},"vehicle_type_id":"4","last_reported":1752736438,"current_range_meters":16400,"station_id":"ce4bhm92rcd13ifvqglg","pricing_plan_id":"cebpf4jnsgd1na2vs0mg"},{"bike_id":"855ff8f9-641c-41af-8e00-5d71e1a04e0f","system_id":"levelo_inurba_marseille","lat":43.22505,"lon":5.34768,"is_reserved":false,"is_disabled":false,"rental_uris":{"android":"levelo://app?vid=855ff8f9-641c-41af-8e00-5d71e1a04e0f","ios":"levelo://app?vid=855ff8f9-641c-41af-8e00-5d71e1a04e0f"},"vehicle_type_id":"4","last_reported":1752736438,"current_range_meters":16400,"station_id":"st_cvj5dfep6f1abm77gieg","pricing_plan_id":"cebpf4jnsgd1na2vs0mg"},{"bike_id":"012332f9-a776-43c4-9db3-01b19351c5f0","system_id":"levelo_inurba_marseille","lat":43.2781,"lon":5.40709,"is_reserved":false,"is_disabled":false,"rental_uris":{"android":"levelo://app?vid=012332f9-a776-43c4-9db3-01b19351c5f0","ios":"levelo://app?vid=012332f9-a776-43c4-9db3-01b19351c5f0"},"vehicle_type_id":"4","last_reported":1752736438,"current_range_meters":16400,"station_id":"ce4bhnh2rcd13ifvqgtg","pricing_plan_id":"cebpf4jnsgd1na2vs0mg"},{"bike_id":"2ac93549-5c94-4228-8eea-782a21384d10","system_id":"levelo_inurba_marseille","lat":43.29634,"lon":5.37793,"is_reserved":false,"is_disabled":false,"rental_uris":{"android":"levelo://app?vid=2ac93549-5c94-4228-8eea-782a21384d10","ios":"levelo://app?vid=2ac93549-5c94-4228-8eea-782a21384d10"},"vehicle_type_id":"4","last_reported":1752736438,"current_range_meters":16400,"station_id":"","pricing_plan_id":"cebpf4jnsgd1na2vs0mg"},{"bike_id":"582d5e63-4946-44ff-8da5-cdf3e52be7b6","system_id":"levelo_inurba_marseille","lat":43.2705,"lon":5.40197,"is_reserved":false,"is_disabled":false,"rental_uris":{"android":"levelo://app?vid=582d5e63-4946-44ff-8da5-cdf3e52be7b6","ios":"levelo://app?vid=582d5e63-4946-44ff-8da5-cdf3e52be7b6"},"vehicle_type_id":"4","last_reported":1752736438,"current_range_meters":16400,"station_id":"ce4bhk92rcd13ifvqgc0","pricing_plan_id":"cebpf4jnsgd1na2vs0mg"},{"bike_id":"a092d05c-8017-44f5-ba8a-35792463d6a3","system_id":"levelo_inurba_marseille","lat":43.22503,"lon":5.34775,"is_reserved":false,"is_disabled":false,"rental_uris":{"android":"levelo://app?vid=a092d05c-8017-44f5-ba8a-35792463d6a3","ios":"levelo://app?vid=a092d05c-8017-44f5-ba8a-35792463d6a3"},"vehicle_type_id":"4","last_reported":1752736438,"current_range_meters":16800,"station_id":"st_cvj5dfep6f1abm77gieg","pricing_plan_id":"cebpf4jnsgd1na2vs0mg"},{"bike_id":"da891840-0cec-4ccc-961c-48903736c6fa","system_id":"levelo_inurba_marseille","lat":43.31139,"lon":5.37692,"is_reserved":false,"is_disabled":false,"rental_uris":{"android":"levelo://app?vid=da891840-0cec-4ccc-961c-48903736c6fa","ios":"levelo://app?vid=da891840-0cec-4ccc-961c-48903736c6fa"},"vehicle_type_id":"4","last_reported":1752736438,"current_range_meters":16800,"station_id":"","pricing_plan_id":"cebpf4jnsgd1na2vs0mg"},{"bike_id":"e7f70464-3625-4510-be19-79d144c01267","system_id":"levelo_inurba_marseille","lat":43.2904,"lon":5.39967,"is_reserved":false,"is_disabled":false,"rental_uris":{"android":"levelo://app?vid=e7f70464-3625-4510-be19-79d144c01267","ios":"levelo://app?vid=e7f70464-3625-4510-be19-79d144c01267"},"vehicle_type_id":"4","last_reported":1752736438,"current_range_meters":16800,"station_id":"ce4bh392rcd13ifvqdm0","pricing_plan_id":"cebpf4jnsgd1na2vs0mg"},{"bike_id":"1af876d9-6e0a-45cc-bed9-deae0b87ca9c","system_id":"levelo_inurba_marseille","lat":43.21189,"lon":5.35077,"is_reserved":false,"is_disabled":false,"rental_uris":{"android":"levelo://app?vid=1af876d9-6e0a-45cc-bed9-deae0b87ca9c","ios":"levelo://app?vid=1af876d9-6e0a-45cc-bed9-deae0b87ca9c"},"vehicle_type_id":"4","last_reported":1752736438,"current_range_meters":16800,"station_id":"st_cvj6sg6p6f1abm77japg","pricing_plan_id":"cebpf4jnsgd1na2vs0mg"},{"bike_id":"e555b545-304c-4dce-8496-1643c0f2600e","system_id":"levelo_inurba_marseille","lat":43.337444,"lon":5.374475,"is_reserved":false,"is_disabled":false,"rental_uris":{"android":"levelo://app?vid=e555b545-304c-4dce-8496-1643c0f2600e","ios":"levelo://app?vid=e555b545-304c-4dce-8496-1643c0f2600e"},"vehicle_type_id":"4","last_reported":1752736438,"current_range_meters":16800,"station_id":"","pricing_plan_id":"cebpf4jnsgd1na2vs0mg"},{"bike_id":"531dca68-8617-41b0-a6cd-abffc94e1d45","system_id":"levelo_inurba_marseille","lat":43.31204,"lon":5.37327,"is_reserved":false,"is_disabled":false,"rental_uris":{"android":"levelo://app?vid=531dca68-8617-41b0-a6cd-abffc94e1d45","ios":"levelo://app?vid=531dca68-8617-41b0-a6cd-abffc94e1d45"},"vehicle_type_id":"4","last_reported":1752736438,"current_range_meters":16800,"station_id":"","pricing_plan_id":"cebpf4jnsgd1na2vs0mg"},{"bike_id":"6aed4a7f-9c3b-425a-bab4-2e7f9a3875d4","system_id":"levelo_inurba_marseille","lat":43.254892,"lon":5.376408,"is_reserved":false,"is_disabled":true,"rental_uris":{"android":"levelo://app?vid=6aed4a7f-9c3b-425a-bab4-2e7f9a3875d4","ios":"levelo://app?vid=6aed4a7f-9c3b-425a-bab4-2e7f9a3875d4"},"vehicle_type_id":"4","last_reported":1752736438,"current_range_meters":17200,"station_id":"","pricing_plan_id":"cebpf4jnsgd1na2vs0mg"},{"bike_id":"aebeee84-419c-4ac0-8ad4-257b0df9d04f","system_id":"levelo_inurba_marseille","lat":43.33602,"lon":5.41033,"is_reserved":false,"is_disabled":false,"rental_uris":{"android":"levelo://app?vid=aebeee84-419c-4ac0-8ad4-257b0df9d04f","ios":"levelo://app?vid=aebeee84-419c-4ac0-8ad4-257b0df9d04f"},"vehicle_type_id":"4","last_reported":1752736438,"current_range_meters":17200,"station_id":"ce4bhqh2rcd13ifvqhmg","pricing_plan_id":"cebpf4jnsgd1na2vs0mg"},{"bike_id":"bc8f9804-9d08-4e64-b974-df2af302cd2d","system_id":"levelo_inurba_marseille","lat":43.2418,"lon":5.39727,"is_reserved":false,"is_disabled":false,"rental_uris":{"android":"levelo://app?vid=bc8f9804-9d08-4e64-b974-df2af302cd2d","ios":"levelo://app?vid=bc8f9804-9d08-4e64-b974-df2af302cd2d"},"vehicle_type_id":"4","last_reported":1752736438,"current_range_meters":17200,"station_id":"ce4bhn12rcd13ifvqgpg","pricing_plan_id":"cebpf4jnsgd1na2vs0mg"},{"bike_id":"17d7c4eb-9263-4c4c-a50b-cf87650d3360","system_id":"levelo_inurba_marseille","lat":43.2507,"lon":5.39517,"is_reserved":false,"is_disabled":false,"rental_uris":{"android":"levelo://app?vid=17d7c4eb-9263-4c4c-a50b-cf87650d3360","ios":"levelo://app?vid=17d7c4eb-9263-4c4c-a50b-cf87650d3360"},"vehicle_type_id":"4","last_reported":1752736438,"current_range_meters":17200,"station_id":"ce4bhm12rcd13ifvqgkg","pricing_plan_id":"cebpf4jnsgd1na2vs0mg"},{"bike_id":"370b5495-4112-49cd-80ba-c31203562c50","system_id":"levelo_inurba_marseille","lat":43.30278,"lon":5.37914,"is_reserved":false,"is_disabled":true,"rental_uris":{"android":"levelo://app?vid=370b5495-4112-49cd-80ba-c31203562c50","ios":"levelo://app?vid=370b5495-4112-49cd-80ba-c31203562c50"},"vehicle_type_id":"4","last_reported":1752736438,"current_range_meters":17200,"station_id":"","pricing_plan_id":"cebpf4jnsgd1na2vs0mg"},{"bike_id":"409515f8-3415-426d-b0c7-61f840c7c187","system_id":"levelo_inurba_marseille","lat":43.22479,"lon":5.34805,"is_reserved":false,"is_disabled":false,"rental_uris":{"android":"levelo://app?vid=409515f8-3415-426d-b0c7-61f840c7c187","ios":"levelo://app?vid=409515f8-3415-426d-b0c7-61f840c7c187"},"vehicle_type_id":"4","last_reported":1752736438,"current_range_meters":17200,"station_id":"st_cvj5dfep6f1abm77gieg","pricing_plan_id":"cebpf4jnsgd1na2vs0mg"},{"bike_id":"8d7d823b-5557-4f82-a2b2-d14afb555034","system_id":"levelo_inurba_marseille","lat":43.301427,"lon":5.380819,"is_reserved":false,"is_disabled":false,"rental_uris":{"android":"levelo://app?vid=8d7d823b-5557-4f82-a2b2-d14afb555034","ios":"levelo://app?vid=8d7d823b-5557-4f82-a2b2-d14afb555034"},"vehicle_type_id":"4","last_reported":1752736438,"current_range_meters":17200,"station_id":"ce4bgjp2rcd13ifvqbh0","pricing_plan_id":"cebpf4jnsgd1na2vs0mg"},{"bike_id":"81f88721-00d0-431c-83bf-446e11578408","system_id":"levelo_inurba_marseille","lat":43.22498,"lon":5.34777,"is_reserved":false,"is_disabled":false,"rental_uris":{"android":"levelo://app?vid=81f88721-00d0-431c-83bf-446e11578408","ios":"levelo://app?vid=81f88721-00d0-431c-83bf-446e11578408"},"vehicle_type_id":"4","last_reported":1752736438,"current_range_meters":17200,"station_id":"st_cvj5dfep6f1abm77gieg","pricing_plan_id":"cebpf4jnsgd1na2vs0mg"},{"bike_id":"51bcbc79-d1a1-435d-92c3-1686bfd6ac8d","system_id":"levelo_inurba_marseille","lat":43.25007,"lon":5.38914,"is_reserved":false,"is_disabled":true,"rental_uris":{"android":"levelo://app?vid=51bcbc79-d1a1-435d-92c3-1686bfd6ac8d","ios":"levelo://app?vid=51bcbc79-d1a1-435d-92c3-1686bfd6ac8d"},"vehicle_type_id":"4","last_reported":1752736438,"current_range_meters":17600,"station_id":"ce4bhgp2rcd13ifvqfd0","pricing_plan_id":"cebpf4jnsgd1na2vs0mg"},{"bike_id":"5265bcc1-37ab-4a39-a3b7-2c9990067948","system_id":"levelo_inurba_marseille","lat":43.31079,"lon":5.42429,"is_reserved":false,"is_disabled":false,"rental_uris":{"android":"levelo://app?vid=5265bcc1-37ab-4a39-a3b7-2c9990067948","ios":"levelo://app?vid=5265bcc1-37ab-4a39-a3b7-2c9990067948"},"vehicle_type_id":"4","last_reported":1752736438,"current_range_meters":17600,"station_id":"ce4bhp92rcd13ifvqhag","pricing_plan_id":"cebpf4jnsgd1na2vs0mg"},{"bike_id":"3d81bf7d-01ed-4b33-9451-cbb539dac082","system_id":"levelo_inurba_marseille","lat":43.31486,"lon":5.37296,"is_reserved":false,"is_disabled":false,"rental_uris":{"android":"levelo://app?vid=3d81bf7d-01ed-4b33-9451-cbb539dac082","ios":"levelo://app?vid=3d81bf7d-01ed-4b33-9451-cbb539dac082"},"vehicle_type_id":"4","last_reported":1752736438,"current_range_meters":17600,"station_id":"ce4bgt12rcd13ifvqcd0","pricing_plan_id":"cebpf4jnsgd1na2vs0mg"},{"bike_id":"f91a0792-9d08-417c-ba4a-62910cc794d6","system_id":"levelo_inurba_marseille","lat":43.24068,"lon":5.3776,"is_reserved":false,"is_disabled":false,"rental_uris":{"android":"levelo://app?vid=f91a0792-9d08-417c-ba4a-62910cc794d6","ios":"levelo://app?vid=f91a0792-9d08-417c-ba4a-62910cc794d6"},"vehicle_type_id":"4","last_reported":1752736438,"current_range_meters":17600,"station_id":"ce4bhnp2rcd13ifvqgvg","pricing_plan_id":"cebpf4jnsgd1na2vs0mg"},{"bike_id":"656db50b-a5d5-422c-93da-4f47dda82cd9","system_id":"levelo_inurba_marseille","lat":43.337444,"lon":5.374475,"is_reserved":false,"is_disabled":false,"rental_uris":{"android":"levelo://app?vid=656db50b-a5d5-422c-93da-4f47dda82cd9","ios":"levelo://app?vid=656db50b-a5d5-422c-93da-4f47dda82cd9"},"vehicle_type_id":"4","last_reported":1752736438,"current_range_meters":17600,"station_id":"","pricing_plan_id":"cebpf4jnsgd1na2vs0mg"},{"bike_id":"fa4a37f3-4464-4e13-8e28-4d5fa841977b","system_id":"levelo_inurba_marseille","lat":43.25936,"lon":5.40907,"is_reserved":false,"is_disabled":false,"rental_uris":{"android":"levelo://app?vid=fa4a37f3-4464-4e13-8e28-4d5fa841977b","ios":"levelo://app?vid=fa4a37f3-4464-4e13-8e28-4d5fa841977b"},"vehicle_type_id":"4","last_reported":1752736438,"current_range_meters":17600,"station_id":"ce4bhm92rcd13ifvqglg","pricing_plan_id":"cebpf4jnsgd1na2vs0mg"},{"bike_id":"83190593-dbee-4571-b7e6-3b3baa1f4536","system_id":"levelo_inurba_marseille","lat":43.3054,"lon":5.38418,"is_reserved":false,"is_disabled":false,"rental_uris":{"android":"levelo://app?vid=83190593-dbee-4571-b7e6-3b3baa1f4536","ios":"levelo://app?vid=83190593-dbee-4571-b7e6-3b3baa1f4536"},"vehicle_type_id":"4","last_reported":1752736438,"current_range_meters":17600,"station_id":"ce4bgg92rcd13ifvqb30","pricing_plan_id":"cebpf4jnsgd1na2vs0mg"},{"bike_id":"e54582ed-ba92-4640-a97f-9e97144ce87f","system_id":"levelo_inurba_marseille","lat":43.32267,"lon":5.40653,"is_reserved":false,"is_disabled":false,"rental_uris":{"android":"levelo://app?vid=e54582ed-ba92-4640-a97f-9e97144ce87f","ios":"levelo://app?vid=e54582ed-ba92-4640-a97f-9e97144ce87f"},"vehicle_type_id":"4","last_reported":1752736438,"current_range_meters":17600,"station_id":"","pricing_plan_id":"cebpf4jnsgd1na2vs0mg"},{"bike_id":"a401f3e5-907d-4401-8110-e815bcdd9023","system_id":"levelo_inurba_marseille","lat":43.30199,"lon":5.39451,"is_reserved":false,"is_disabled":true,"rental_uris":{"android":"levelo://app?vid=a401f3e5-907d-4401-8110-e815bcdd9023","ios":"levelo://app?vid=a401f3e5-907d-4401-8110-e815bcdd9023"},"vehicle_type_id":"4","last_reported":1752736438,"current_range_meters":18000,"station_id":"ce4bh0p2rcd13ifvqd70","pricing_plan_id":"cebpf4jnsgd1na2vs0mg"},{"bike_id":"bda2cb93-49bb-4f55-bfed-116eaeed03ef","system_id":"levelo_inurba_marseille","lat":43.30585,"lon":5.3721,"is_reserved":false,"is_disabled":false,"rental_uris":{"android":"levelo://app?vid=bda2cb93-49bb-4f55-bfed-116eaeed03ef","ios":"levelo://app?vid=bda2cb93-49bb-4f55-bfed-116eaeed03ef"},"vehicle_type_id":"4","last_reported":1752736438,"current_range_meters":18000,"station_id":"ce4bgqh2rcd13ifvqc4g","pricing_plan_id":"cebpf4jnsgd1na2vs0mg"},{"bike_id":"ee77f27c-f1c1-46ed-bbc3-8ed0a48c0994","system_id":"levelo_inurba_marseille","lat":43.30409,"lon":5.36741,"is_reserved":false,"is_disabled":false,"rental_uris":{"android":"levelo://app?vid=ee77f27c-f1c1-46ed-bbc3-8ed0a48c0994","ios":"levelo://app?vid=ee77f27c-f1c1-46ed-bbc3-8ed0a48c0994"},"vehicle_type_id":"4","last_reported":1752736438,"current_range_meters":18000,"station_id":"","pricing_plan_id":"cebpf4jnsgd1na2vs0mg"},{"bike_id":"17314f92-abdb-4038-9c27-eaa44de67c3c","system_id":"levelo_inurba_marseille","lat":43.27425,"lon":5.39423,"is_reserved":false,"is_disabled":false,"rental_uris":{"android":"levelo://app?vid=17314f92-abdb-4038-9c27-eaa44de67c3c","ios":"levelo://app?vid=17314f92-abdb-4038-9c27-eaa44de67c3c"},"vehicle_type_id":"4","last_reported":1752736438,"current_range_meters":18000,"station_id":"ce4bhdp2rcd13ifvqf20","pricing_plan_id":"cebpf4jnsgd1na2vs0mg"},{"bike_id":"067990cf-d969-4971-ab9c-1c8279be2c3d","system_id":"levelo_inurba_marseille","lat":43.289276,"lon":5.366913,"is_reserved":false,"is_disabled":false,"rental_uris":{"android":"levelo://app?vid=067990cf-d969-4971-ab9c-1c8279be2c3d","ios":"levelo://app?vid=067990cf-d969-4971-ab9c-1c8279be2c3d"},"vehicle_type_id":"4","last_reported":1752736438,"current_range_meters":18000,"station_id":"ce4bhap2rcd13ifvqek0","pricing_plan_id":"cebpf4jnsgd1na2vs0mg"},{"bike_id":"e85b5227-1176-450f-8484-95b05826591e","system_id":"levelo_inurba_marseille","lat":43.25877,"lon":5.39901,"is_reserved":false,"is_disabled":false,"rental_uris":{"android":"levelo://app?vid=e85b5227-1176-450f-8484-95b05826591e","ios":"levelo://app?vid=e85b5227-1176-450f-8484-95b05826591e"},"vehicle_type_id":"4","last_reported":1752736438,"current_range_meters":18000,"station_id":"ce4bhl92rcd13ifvqghg","pricing_plan_id":"cebpf4jnsgd1na2vs0mg"},{"bike_id":"775d5312-28e2-4c63-9594-31183f914611","system_id":"levelo_inurba_marseille","lat":43.29729,"lon":5.37684,"is_reserved":false,"is_disabled":false,"rental_uris":{"android":"levelo://app?vid=775d5312-28e2-4c63-9594-31183f914611","ios":"levelo://app?vid=775d5312-28e2-4c63-9594-31183f914611"},"vehicle_type_id":"4","last_reported":1752736438,"current_range_meters":18000,"station_id":"ce4bgkh2rcd13ifvqbl0","pricing_plan_id":"cebpf4jnsgd1na2vs0mg"},{"bike_id":"6be86623-c65c-4a0d-b3a4-c58891bfa931","system_id":"levelo_inurba_marseille","lat":43.22425,"lon":5.34785,"is_reserved":false,"is_disabled":false,"rental_uris":{"android":"levelo://app?vid=6be86623-c65c-4a0d-b3a4-c58891bfa931","ios":"levelo://app?vid=6be86623-c65c-4a0d-b3a4-c58891bfa931"},"vehicle_type_id":"4","last_reported":1752736438,"current_range_meters":18800,"station_id":"","pricing_plan_id":"cebpf4jnsgd1na2vs0mg"},{"bike_id":"f4e30441-3f51-4872-873c-21987bc6415c","system_id":"levelo_inurba_marseille","lat":43.27208,"lon":5.39184,"is_reserved":false,"is_disabled":false,"rental_uris":{"android":"levelo://app?vid=f4e30441-3f51-4872-873c-21987bc6415c","ios":"levelo://app?vid=f4e30441-3f51-4872-873c-21987bc6415c"},"vehicle_type_id":"4","last_reported":1752736438,"current_range_meters":18800,"station_id":"ce4bhhp2rcd13ifvqfm0","pricing_plan_id":"cebpf4jnsgd1na2vs0mg"},{"bike_id":"e4d23322-5772-485a-910a-7f6d0cc996b2","system_id":"levelo_inurba_marseille","lat":43.31293,"lon":5.36724,"is_reserved":false,"is_disabled":false,"rental_uris":{"android":"levelo://app?vid=e4d23322-5772-485a-910a-7f6d0cc996b2","ios":"levelo://app?vid=e4d23322-5772-485a-910a-7f6d0cc996b2"},"vehicle_type_id":"4","last_reported":1752736438,"current_range_meters":18800,"station_id":"","pricing_plan_id":"cebpf4jnsgd1na2vs0mg"},{"bike_id":"e9320aa9-f9af-4bf0-923f-53ca4a9ee7dc","system_id":"levelo_inurba_marseille","lat":43.30794,"lon":5.3815,"is_reserved":false,"is_disabled":false,"rental_uris":{"android":"levelo://app?vid=e9320aa9-f9af-4bf0-923f-53ca4a9ee7dc","ios":"levelo://app?vid=e9320aa9-f9af-4bf0-923f-53ca4a9ee7dc"},"vehicle_type_id":"4","last_reported":1752736438,"current_range_meters":18800,"station_id":"ce4bgt12rcd13ifvqce0","pricing_plan_id":"cebpf4jnsgd1na2vs0mg"},{"bike_id":"ed822664-f978-4865-b4d3-8b7323601ddf","system_id":"levelo_inurba_marseille","lat":43.2979,"lon":5.39328,"is_reserved":false,"is_disabled":true,"rental_uris":{"android":"levelo://app?vid=ed822664-f978-4865-b4d3-8b7323601ddf","ios":"levelo://app?vid=ed822664-f978-4865-b4d3-8b7323601ddf"},"vehicle_type_id":"4","last_reported":1752736438,"current_range_meters":18800,"station_id":"chh1huq6cuj3fo74tm60","pricing_plan_id":"cebpf4jnsgd1na2vs0mg"},{"bike_id":"1dee3045-62aa-4e3c-8e0e-cd35af9324b2","system_id":"levelo_inurba_marseille","lat":43.230743,"lon":5.354895,"is_reserved":false,"is_disabled":false,"rental_uris":{"android":"levelo://app?vid=1dee3045-62aa-4e3c-8e0e-cd35af9324b2","ios":"levelo://app?vid=1dee3045-62aa-4e3c-8e0e-cd35af9324b2"},"vehicle_type_id":"4","last_reported":1752736438,"current_range_meters":18800,"station_id":"cpo3342slgdg3j2ifvpg","pricing_plan_id":"cebpf4jnsgd1na2vs0mg"},{"bike_id":"1383f39c-bf0c-4ab7-992a-1293b21589e4","system_id":"levelo_inurba_marseille","lat":43.306623,"lon":5.382946,"is_reserved":false,"is_disabled":false,"rental_uris":{"android":"levelo://app?vid=1383f39c-bf0c-4ab7-992a-1293b21589e4","ios":"levelo://app?vid=1383f39c-bf0c-4ab7-992a-1293b21589e4"},"vehicle_type_id":"4","last_reported":1752736438,"current_range_meters":18800,"station_id":"ce4bgt12rcd13ifvqce0","pricing_plan_id":"cebpf4jnsgd1na2vs0mg"},{"bike_id":"dfb8fc70-c502-47af-b4b3-975def297ab2","system_id":"levelo_inurba_marseille","lat":43.241805,"lon":5.397265,"is_reserved":false,"is_disabled":false,"rental_uris":{"android":"levelo://app?vid=dfb8fc70-c502-47af-b4b3-975def297ab2","ios":"levelo://app?vid=dfb8fc70-c502-47af-b4b3-975def297ab2"},"vehicle_type_id":"4","last_reported":1752736438,"current_range_meters":18800,"station_id":"ce4bhn12rcd13ifvqgpg","pricing_plan_id":"cebpf4jnsgd1na2vs0mg"},{"bike_id":"c2dba01e-7253-4f47-be7e-556b63c0e205","system_id":"levelo_inurba_marseille","lat":43.30281,"lon":5.37693,"is_reserved":false,"is_disabled":false,"rental_uris":{"android":"levelo://app?vid=c2dba01e-7253-4f47-be7e-556b63c0e205","ios":"levelo://app?vid=c2dba01e-7253-4f47-be7e-556b63c0e205"},"vehicle_type_id":"4","last_reported":1752736438,"current_range_meters":18800,"station_id":"ce4bguh2rcd13ifvqcj0","pricing_plan_id":"cebpf4jnsgd1na2vs0mg"},{"bike_id":"050f5214-f2f0-4b36-98a9-d90482120fbd","system_id":"levelo_inurba_marseille","lat":43.341467,"lon":5.409043,"is_reserved":false,"is_disabled":false,"rental_uris":{"android":"levelo://app?vid=050f5214-f2f0-4b36-98a9-d90482120fbd","ios":"levelo://app?vid=050f5214-f2f0-4b36-98a9-d90482120fbd"},"vehicle_type_id":"4","last_reported":1752736438,"current_range_meters":18800,"station_id":"ce4bhqh2rcd13ifvqhlg","pricing_plan_id":"cebpf4jnsgd1na2vs0mg"},{"bike_id":"48d43c9c-e8d1-485c-baa8-72fda6000db2","system_id":"levelo_inurba_marseille","lat":43.23191,"lon":5.35553,"is_reserved":false,"is_disabled":false,"rental_uris":{"android":"levelo://app?vid=48d43c9c-e8d1-485c-baa8-72fda6000db2","ios":"levelo://app?vid=48d43c9c-e8d1-485c-baa8-72fda6000db2"},"vehicle_type_id":"4","last_reported":1752736438,"current_range_meters":18800,"station_id":"ce4bhu92rcd13ifvqi70","pricing_plan_id":"cebpf4jnsgd1na2vs0mg"},{"bike_id":"03186208-e82b-4769-aa13-1857d36bae76","system_id":"levelo_inurba_marseille","lat":43.29963,"lon":5.38499,"is_reserved":false,"is_disabled":false,"rental_uris":{"android":"levelo://app?vid=03186208-e82b-4769-aa13-1857d36bae76","ios":"levelo://app?vid=03186208-e82b-4769-aa13-1857d36bae76"},"vehicle_type_id":"4","last_reported":1752736438,"current_range_meters":19200,"station_id":"ce4bgj92rcd13ifvqbd0","pricing_plan_id":"cebpf4jnsgd1na2vs0mg"},{"bike_id":"084eace8-045f-4012-9455-c501cad7ce10","system_id":"levelo_inurba_marseille","lat":43.22505,"lon":5.34771,"is_reserved":false,"is_disabled":false,"rental_uris":{"android":"levelo://app?vid=084eace8-045f-4012-9455-c501cad7ce10","ios":"levelo://app?vid=084eace8-045f-4012-9455-c501cad7ce10"},"vehicle_type_id":"4","last_reported":1752736438,"current_range_meters":19200,"station_id":"st_cvj5dfep6f1abm77gieg","pricing_plan_id":"cebpf4jnsgd1na2vs0mg"},{"bike_id":"6c963949-2690-489e-89e7-caffb9ad1b75","system_id":"levelo_inurba_marseille","lat":43.25929,"lon":5.40906,"is_reserved":false,"is_disabled":false,"rental_uris":{"android":"levelo://app?vid=6c963949-2690-489e-89e7-caffb9ad1b75","ios":"levelo://app?vid=6c963949-2690-489e-89e7-caffb9ad1b75"},"vehicle_type_id":"4","last_reported":1752736438,"current_range_meters":19200,"station_id":"ce4bhm92rcd13ifvqglg","pricing_plan_id":"cebpf4jnsgd1na2vs0mg"},{"bike_id":"6460d0dd-786d-40be-8a5c-74b4b7837248","system_id":"levelo_inurba_marseille","lat":43.28696,"lon":5.39992,"is_reserved":false,"is_disabled":false,"rental_uris":{"android":"levelo://app?vid=6460d0dd-786d-40be-8a5c-74b4b7837248","ios":"levelo://app?vid=6460d0dd-786d-40be-8a5c-74b4b7837248"},"vehicle_type_id":"4","last_reported":1752736438,"current_range_meters":19200,"station_id":"ce4bho92rcd13ifvqh3g","pricing_plan_id":"cebpf4jnsgd1na2vs0mg"},{"bike_id":"76d90162-c206-4ecf-b662-0fe27976ef5c","system_id":"levelo_inurba_marseille","lat":43.29063,"lon":5.37162,"is_reserved":false,"is_disabled":false,"rental_uris":{"android":"levelo://app?vid=76d90162-c206-4ecf-b662-0fe27976ef5c","ios":"levelo://app?vid=76d90162-c206-4ecf-b662-0fe27976ef5c"},"vehicle_type_id":"4","last_reported":1752736438,"current_range_meters":19200,"station_id":"ce4bh5p2rcd13ifvqe4g","pricing_plan_id":"cebpf4jnsgd1na2vs0mg"},{"bike_id":"5b4e5f0f-cac3-450a-9463-e6a77e2c277e","system_id":"levelo_inurba_marseille","lat":43.246423,"lon":5.388921,"is_reserved":false,"is_disabled":true,"rental_uris":{"android":"levelo://app?vid=5b4e5f0f-cac3-450a-9463-e6a77e2c277e","ios":"levelo://app?vid=5b4e5f0f-cac3-450a-9463-e6a77e2c277e"},"vehicle_type_id":"4","last_reported":1752736438,"current_range_meters":19200,"station_id":"ce4bhg12rcd13ifvqf60","pricing_plan_id":"cebpf4jnsgd1na2vs0mg"},{"bike_id":"e1f48a64-4b9c-4a9b-a4bc-496d2aa84219","system_id":"levelo_inurba_marseille","lat":43.28853,"lon":5.35855,"is_reserved":false,"is_disabled":false,"rental_uris":{"android":"levelo://app?vid=e1f48a64-4b9c-4a9b-a4bc-496d2aa84219","ios":"levelo://app?vid=e1f48a64-4b9c-4a9b-a4bc-496d2aa84219"},"vehicle_type_id":"4","last_reported":1752736438,"current_range_meters":19200,"station_id":"ce4bhb12rcd13ifvqem0","pricing_plan_id":"cebpf4jnsgd1na2vs0mg"},{"bike_id":"4562d713-147a-42d5-8a6e-471dc26c716b","system_id":"levelo_inurba_marseille","lat":43.30313,"lon":5.36896,"is_reserved":false,"is_disabled":false,"rental_uris":{"android":"levelo://app?vid=4562d713-147a-42d5-8a6e-471dc26c716b","ios":"levelo://app?vid=4562d713-147a-42d5-8a6e-471dc26c716b"},"vehicle_type_id":"4","last_reported":1752736438,"current_range_meters":19200,"station_id":"ce4bgqh2rcd13ifvqc5g","pricing_plan_id":"cebpf4jnsgd1na2vs0mg"},{"bike_id":"c6db0f6a-96fe-4e1d-8ded-c2ef38c9bab4","system_id":"levelo_inurba_marseille","lat":43.304183,"lon":5.412838,"is_reserved":false,"is_disabled":true,"rental_uris":{"android":"levelo://app?vid=c6db0f6a-96fe-4e1d-8ded-c2ef38c9bab4","ios":"levelo://app?vid=c6db0f6a-96fe-4e1d-8ded-c2ef38c9bab4"},"vehicle_type_id":"4","last_reported":1752736438,"current_range_meters":19600,"station_id":"ce4bhop2rcd13ifvqh8g","pricing_plan_id":"cebpf4jnsgd1na2vs0mg"},{"bike_id":"e475bf6c-f1c9-44d5-8d66-e138616fc1e5","system_id":"levelo_inurba_marseille","lat":43.30145,"lon":5.3808,"is_reserved":false,"is_disabled":false,"rental_uris":{"android":"levelo://app?vid=e475bf6c-f1c9-44d5-8d66-e138616fc1e5","ios":"levelo://app?vid=e475bf6c-f1c9-44d5-8d66-e138616fc1e5"},"vehicle_type_id":"4","last_reported":1752736438,"current_range_meters":19600,"station_id":"ce4bgjp2rcd13ifvqbh0","pricing_plan_id":"cebpf4jnsgd1na2vs0mg"},{"bike_id":"f99ff1e4-4111-475a-aa3e-cb902d081040","system_id":"levelo_inurba_marseille","lat":43.23198,"lon":5.35549,"is_reserved":false,"is_disabled":false,"rental_uris":{"android":"levelo://app?vid=f99ff1e4-4111-475a-aa3e-cb902d081040","ios":"levelo://app?vid=f99ff1e4-4111-475a-aa3e-cb902d081040"},"vehicle_type_id":"4","last_reported":1752736438,"current_range_meters":19600,"station_id":"ce4bhu92rcd13ifvqi70","pricing_plan_id":"cebpf4jnsgd1na2vs0mg"},{"bike_id":"bd3be985-991d-42ee-9d15-815db6e058b3","system_id":"levelo_inurba_marseille","lat":43.30835,"lon":5.37923,"is_reserved":false,"is_disabled":false,"rental_uris":{"android":"levelo://app?vid=bd3be985-991d-42ee-9d15-815db6e058b3","ios":"levelo://app?vid=bd3be985-991d-42ee-9d15-815db6e058b3"},"vehicle_type_id":"4","last_reported":1752736438,"current_range_meters":19600,"station_id":"","pricing_plan_id":"cebpf4jnsgd1na2vs0mg"},{"bike_id":"7b5fee1f-81ad-4e7a-a257-5e5c8b978ad6","system_id":"levelo_inurba_marseille","lat":43.28981,"lon":5.3784,"is_reserved":false,"is_disabled":false,"rental_uris":{"android":"levelo://app?vid=7b5fee1f-81ad-4e7a-a257-5e5c8b978ad6","ios":"levelo://app?vid=7b5fee1f-81ad-4e7a-a257-5e5c8b978ad6"},"vehicle_type_id":"4","last_reported":1752736438,"current_range_meters":19600,"station_id":"ce4bh9p2rcd13ifvqed0","pricing_plan_id":"cebpf4jnsgd1na2vs0mg"},{"bike_id":"ea75efb2-ac36-4344-b925-58a5bd2f6327","system_id":"levelo_inurba_marseille","lat":43.271854,"lon":5.362776,"is_reserved":false,"is_disabled":false,"rental_uris":{"android":"levelo://app?vid=ea75efb2-ac36-4344-b925-58a5bd2f6327","ios":"levelo://app?vid=ea75efb2-ac36-4344-b925-58a5bd2f6327"},"vehicle_type_id":"4","last_reported":1752736438,"current_range_meters":19600,"station_id":"","pricing_plan_id":"cebpf4jnsgd1na2vs0mg"},{"bike_id":"9cbf250f-5aee-4543-af66-2ea7e229f002","system_id":"levelo_inurba_marseille","lat":43.30805,"lon":5.38161,"is_reserved":false,"is_disabled":false,"rental_uris":{"android":"levelo://app?vid=9cbf250f-5aee-4543-af66-2ea7e229f002","ios":"levelo://app?vid=9cbf250f-5aee-4543-af66-2ea7e229f002"},"vehicle_type_id":"4","last_reported":1752736438,"current_range_meters":19600,"station_id":"ce4bgt12rcd13ifvqce0","pricing_plan_id":"cebpf4jnsgd1na2vs0mg"},{"bike_id":"1fa6e47a-247c-43f3-a2d5-2457ee6c5d39","system_id":"levelo_inurba_marseille","lat":43.21189,"lon":5.35074,"is_reserved":false,"is_disabled":false,"rental_uris":{"android":"levelo://app?vid=1fa6e47a-247c-43f3-a2d5-2457ee6c5d39","ios":"levelo://app?vid=1fa6e47a-247c-43f3-a2d5-2457ee6c5d39"},"vehicle_type_id":"4","last_reported":1752736438,"current_range_meters":19600,"station_id":"st_cvj6sg6p6f1abm77japg","pricing_plan_id":"cebpf4jnsgd1na2vs0mg"},{"bike_id":"9e46aa88-7b19-47c3-b789-71b8902b53cb","system_id":"levelo_inurba_marseille","lat":43.2816,"lon":5.42627,"is_reserved":false,"is_disabled":false,"rental_uris":{"android":"levelo://app?vid=9e46aa88-7b19-47c3-b789-71b8902b53cb","ios":"levelo://app?vid=9e46aa88-7b19-47c3-b789-71b8902b53cb"},"vehicle_type_id":"4","last_reported":1752736438,"current_range_meters":19600,"station_id":"ce4bhnh2rcd13ifvqgug","pricing_plan_id":"cebpf4jnsgd1na2vs0mg"},{"bike_id":"0912b2cc-efad-4219-85cb-086baa31f561","system_id":"levelo_inurba_marseille","lat":43.28052,"lon":5.36924,"is_reserved":false,"is_disabled":false,"rental_uris":{"android":"levelo://app?vid=0912b2cc-efad-4219-85cb-086baa31f561","ios":"levelo://app?vid=0912b2cc-efad-4219-85cb-086baa31f561"},"vehicle_type_id":"4","last_reported":1752736438,"current_range_meters":20000,"station_id":"ce4bha12rcd13ifvqef0","pricing_plan_id":"cebpf4jnsgd1na2vs0mg"},{"bike_id":"72790707-035c-4bca-b9bf-a8b4e9ad2919","system_id":"levelo_inurba_marseille","lat":43.23152,"lon":5.4372,"is_reserved":false,"is_disabled":false,"rental_uris":{"android":"levelo://app?vid=72790707-035c-4bca-b9bf-a8b4e9ad2919","ios":"levelo://app?vid=72790707-035c-4bca-b9bf-a8b4e9ad2919"},"vehicle_type_id":"4","last_reported":1752736438,"current_range_meters":20000,"station_id":"ce4bhmp2rcd13ifvqgog","pricing_plan_id":"cebpf4jnsgd1na2vs0mg"},{"bike_id":"ac0ed4be-466c-4caa-b855-3c6bbe5a11b5","system_id":"levelo_inurba_marseille","lat":43.26783,"lon":5.37162,"is_reserved":false,"is_disabled":false,"rental_uris":{"android":"levelo://app?vid=ac0ed4be-466c-4caa-b855-3c6bbe5a11b5","ios":"levelo://app?vid=ac0ed4be-466c-4caa-b855-3c6bbe5a11b5"},"vehicle_type_id":"4","last_reported":1752736438,"current_range_meters":20000,"station_id":"","pricing_plan_id":"cebpf4jnsgd1na2vs0mg"},{"bike_id":"cb115557-5004-4111-8112-7ca981ed3d5e","system_id":"levelo_inurba_marseille","lat":43.29518,"lon":5.39402,"is_reserved":false,"is_disabled":false,"rental_uris":{"android":"levelo://app?vid=cb115557-5004-4111-8112-7ca981ed3d5e","ios":"levelo://app?vid=cb115557-5004-4111-8112-7ca981ed3d5e"},"vehicle_type_id":"4","last_reported":1752736438,"current_range_meters":20000,"station_id":"","pricing_plan_id":"cebpf4jnsgd1na2vs0mg"},{"bike_id":"f35f58b2-b98c-40fe-bd3d-4dd7f19d4bc7","system_id":"levelo_inurba_marseille","lat":43.305555,"lon":5.365415,"is_reserved":false,"is_disabled":true,"rental_uris":{"android":"levelo://app?vid=f35f58b2-b98c-40fe-bd3d-4dd7f19d4bc7","ios":"levelo://app?vid=f35f58b2-b98c-40fe-bd3d-4dd7f19d4bc7"},"vehicle_type_id":"4","last_reported":1752736438,"current_range_meters":20000,"station_id":"ce4bgs12rcd13ifvqcag","pricing_plan_id":"cebpf4jnsgd1na2vs0mg"},{"bike_id":"9090e647-a713-44ba-b392-5ac73cd154dd","system_id":"levelo_inurba_marseille","lat":43.23066,"lon":5.35488,"is_reserved":false,"is_disabled":false,"rental_uris":{"android":"levelo://app?vid=9090e647-a713-44ba-b392-5ac73cd154dd","ios":"levelo://app?vid=9090e647-a713-44ba-b392-5ac73cd154dd"},"vehicle_type_id":"4","last_reported":1752736438,"current_range_meters":20000,"station_id":"cpo3342slgdg3j2ifvpg","pricing_plan_id":"cebpf4jnsgd1na2vs0mg"},{"bike_id":"c9d5a1d9-020f-4409-8f66-bb9c9a357f78","system_id":"levelo_inurba_marseille","lat":43.2993,"lon":5.36597,"is_reserved":false,"is_disabled":false,"rental_uris":{"android":"levelo://app?vid=c9d5a1d9-020f-4409-8f66-bb9c9a357f78","ios":"levelo://app?vid=c9d5a1d9-020f-4409-8f66-bb9c9a357f78"},"vehicle_type_id":"4","last_reported":1752736438,"current_range_meters":20000,"station_id":"","pricing_plan_id":"cebpf4jnsgd1na2vs0mg"},{"bike_id":"a853705a-4227-4b1f-9ddd-7082154f698d","system_id":"levelo_inurba_marseille","lat":43.310778,"lon":5.369778,"is_reserved":false,"is_disabled":false,"rental_uris":{"android":"levelo://app?vid=a853705a-4227-4b1f-9ddd-7082154f698d","ios":"levelo://app?vid=a853705a-4227-4b1f-9ddd-7082154f698d"},"vehicle_type_id":"4","last_reported":1752736438,"current_range_meters":20000,"station_id":"ce4bgl92rcd13ifvqbq0","pricing_plan_id":"cebpf4jnsgd1na2vs0mg"},{"bike_id":"e63db760-60f2-4063-aa2b-9e0100a40135","system_id":"levelo_inurba_marseille","lat":43.307527,"lon":5.424415,"is_reserved":false,"is_disabled":false,"rental_uris":{"android":"levelo://app?vid=e63db760-60f2-4063-aa2b-9e0100a40135","ios":"levelo://app?vid=e63db760-60f2-4063-aa2b-9e0100a40135"},"vehicle_type_id":"4","last_reported":1752736438,"current_range_meters":20000,"station_id":"st_cvj6ca6bvosntc0bfgr0","pricing_plan_id":"cebpf4jnsgd1na2vs0mg"},{"bike_id":"ce40837d-3edf-4cc2-a747-2f8d4ee2c7fb","system_id":"levelo_inurba_marseille","lat":43.22499,"lon":5.34769,"is_reserved":false,"is_disabled":false,"rental_uris":{"android":"levelo://app?vid=ce40837d-3edf-4cc2-a747-2f8d4ee2c7fb","ios":"levelo://app?vid=ce40837d-3edf-4cc2-a747-2f8d4ee2c7fb"},"vehicle_type_id":"4","last_reported":1752736438,"current_range_meters":20000,"station_id":"st_cvj5dfep6f1abm77gieg","pricing_plan_id":"cebpf4jnsgd1na2vs0mg"},{"bike_id":"4c0580d4-f2e2-4c67-8250-a65c39c0f7d6","system_id":"levelo_inurba_marseille","lat":43.22493,"lon":5.3478,"is_reserved":false,"is_disabled":false,"rental_uris":{"android":"levelo://app?vid=4c0580d4-f2e2-4c67-8250-a65c39c0f7d6","ios":"levelo://app?vid=4c0580d4-f2e2-4c67-8250-a65c39c0f7d6"},"vehicle_type_id":"4","last_reported":1752736438,"current_range_meters":20000,"station_id":"st_cvj5dfep6f1abm77gieg","pricing_plan_id":"cebpf4jnsgd1na2vs0mg"},{"bike_id":"ce7bd25b-5213-4881-a28b-f582e6a1d712","system_id":"levelo_inurba_marseille","lat":43.31348,"lon":5.36718,"is_reserved":false,"is_disabled":true,"rental_uris":{"android":"levelo://app?vid=ce7bd25b-5213-4881-a28b-f582e6a1d712","ios":"levelo://app?vid=ce7bd25b-5213-4881-a28b-f582e6a1d712"},"vehicle_type_id":"4","last_reported":1752736438,"current_range_meters":20000,"station_id":"ce4bgr92rcd13ifvqc6g","pricing_plan_id":"cebpf4jnsgd1na2vs0mg"},{"bike_id":"57673fd9-e9a8-4292-9f48-49558084ac5a","system_id":"levelo_inurba_marseille","lat":43.30547,"lon":5.36553,"is_reserved":false,"is_disabled":false,"rental_uris":{"android":"levelo://app?vid=57673fd9-e9a8-4292-9f48-49558084ac5a","ios":"levelo://app?vid=57673fd9-e9a8-4292-9f48-49558084ac5a"},"vehicle_type_id":"4","last_reported":1752736438,"current_range_meters":20000,"station_id":"ce4bgs12rcd13ifvqcag","pricing_plan_id":"cebpf4jnsgd1na2vs0mg"},{"bike_id":"c9e7680c-f14a-4725-9255-cae73d5a78a2","system_id":"levelo_inurba_marseille","lat":43.30181,"lon":5.36627,"is_reserved":false,"is_disabled":false,"rental_uris":{"android":"levelo://app?vid=c9e7680c-f14a-4725-9255-cae73d5a78a2","ios":"levelo://app?vid=c9e7680c-f14a-4725-9255-cae73d5a78a2"},"vehicle_type_id":"4","last_reported":1752736438,"current_range_meters":20400,"station_id":"ce4bgrh2rcd13ifvqc8g","pricing_plan_id":"cebpf4jnsgd1na2vs0mg"},{"bike_id":"9871f93a-4f9e-475b-bd81-ed55735f422f","system_id":"levelo_inurba_marseille","lat":43.2738,"lon":5.36262,"is_reserved":false,"is_disabled":true,"rental_uris":{"android":"levelo://app?vid=9871f93a-4f9e-475b-bd81-ed55735f422f","ios":"levelo://app?vid=9871f93a-4f9e-475b-bd81-ed55735f422f"},"vehicle_type_id":"4","last_reported":1752736438,"current_range_meters":20400,"station_id":"ce4bhbh2rcd13ifvqeo0","pricing_plan_id":"cebpf4jnsgd1na2vs0mg"},{"bike_id":"af445d04-545e-4008-bf6d-71b2068dfacf","system_id":"levelo_inurba_marseille","lat":43.29893,"lon":5.43665,"is_reserved":false,"is_disabled":false,"rental_uris":{"android":"levelo://app?vid=af445d04-545e-4008-bf6d-71b2068dfacf","ios":"levelo://app?vid=af445d04-545e-4008-bf6d-71b2068dfacf"},"vehicle_type_id":"4","last_reported":1752736438,"current_range_meters":20800,"station_id":"ce4bhpp2rcd13ifvqhfg","pricing_plan_id":"cebpf4jnsgd1na2vs0mg"},{"bike_id":"86d398e7-3ab0-449d-bca0-747a9f49b8f5","system_id":"levelo_inurba_marseille","lat":43.27461,"lon":5.42421,"is_reserved":false,"is_disabled":false,"rental_uris":{"android":"levelo://app?vid=86d398e7-3ab0-449d-bca0-747a9f49b8f5","ios":"levelo://app?vid=86d398e7-3ab0-449d-bca0-747a9f49b8f5"},"vehicle_type_id":"4","last_reported":1752736438,"current_range_meters":20400,"station_id":"","pricing_plan_id":"cebpf4jnsgd1na2vs0mg"},{"bike_id":"674cdaff-d950-4b24-8f4d-7828484dc7c7","system_id":"levelo_inurba_marseille","lat":43.25569,"lon":5.38306,"is_reserved":false,"is_disabled":true,"rental_uris":{"android":"levelo://app?vid=674cdaff-d950-4b24-8f4d-7828484dc7c7","ios":"levelo://app?vid=674cdaff-d950-4b24-8f4d-7828484dc7c7"},"vehicle_type_id":"4","last_reported":1752736438,"current_range_meters":20400,"station_id":"","pricing_plan_id":"cebpf4jnsgd1na2vs0mg"},{"bike_id":"7326ae2b-3d02-4087-86eb-cb406fea58c2","system_id":"levelo_inurba_marseille","lat":43.24998,"lon":5.38943,"is_reserved":false,"is_disabled":false,"rental_uris":{"android":"levelo://app?vid=7326ae2b-3d02-4087-86eb-cb406fea58c2","ios":"levelo://app?vid=7326ae2b-3d02-4087-86eb-cb406fea58c2"},"vehicle_type_id":"4","last_reported":1752736438,"current_range_meters":20400,"station_id":"ce4bhgp2rcd13ifvqfd0","pricing_plan_id":"cebpf4jnsgd1na2vs0mg"},{"bike_id":"ab20bfe3-225d-44d2-be6f-29bbe737c98f","system_id":"levelo_inurba_marseille","lat":43.26063,"lon":5.39399,"is_reserved":false,"is_disabled":true,"rental_uris":{"android":"levelo://app?vid=ab20bfe3-225d-44d2-be6f-29bbe737c98f","ios":"levelo://app?vid=ab20bfe3-225d-44d2-be6f-29bbe737c98f"},"vehicle_type_id":"4","last_reported":1752736438,"current_range_meters":20400,"station_id":"ce4bhh92rcd13ifvqfj0","pricing_plan_id":"cebpf4jnsgd1na2vs0mg"},{"bike_id":"c83e5866-3057-41c7-b1dc-bfd42f8bcd2a","system_id":"levelo_inurba_marseille","lat":43.23157,"lon":5.43719,"is_reserved":false,"is_disabled":false,"rental_uris":{"android":"levelo://app?vid=c83e5866-3057-41c7-b1dc-bfd42f8bcd2a","ios":"levelo://app?vid=c83e5866-3057-41c7-b1dc-bfd42f8bcd2a"},"vehicle_type_id":"4","last_reported":1752736438,"current_range_meters":20800,"station_id":"ce4bhmp2rcd13ifvqgog","pricing_plan_id":"cebpf4jnsgd1na2vs0mg"},{"bike_id":"a5e5622b-a107-4b5b-950f-823b0b391213","system_id":"levelo_inurba_marseille","lat":43.26897,"lon":5.3929,"is_reserved":false,"is_disabled":false,"rental_uris":{"android":"levelo://app?vid=a5e5622b-a107-4b5b-950f-823b0b391213","ios":"levelo://app?vid=a5e5622b-a107-4b5b-950f-823b0b391213"},"vehicle_type_id":"4","last_reported":1752736438,"current_range_meters":20800,"station_id":"ce4bhjp2rcd13ifvqg90","pricing_plan_id":"cebpf4jnsgd1na2vs0mg"},{"bike_id":"6fa4bfa2-deb9-40bb-84e6-cb4b289f4f4d","system_id":"levelo_inurba_marseille","lat":43.281,"lon":5.37827,"is_reserved":false,"is_disabled":false,"rental_uris":{"android":"levelo://app?vid=6fa4bfa2-deb9-40bb-84e6-cb4b289f4f4d","ios":"levelo://app?vid=6fa4bfa2-deb9-40bb-84e6-cb4b289f4f4d"},"vehicle_type_id":"4","last_reported":1752736438,"current_range_meters":20800,"station_id":"ce4bha12rcd13ifvqee0","pricing_plan_id":"cebpf4jnsgd1na2vs0mg"},{"bike_id":"a0705d91-703f-49f1-80a4-f2ed6ea1bb20","system_id":"levelo_inurba_marseille","lat":43.30906,"lon":5.36845,"is_reserved":false,"is_disabled":false,"rental_uris":{"android":"levelo://app?vid=a0705d91-703f-49f1-80a4-f2ed6ea1bb20","ios":"levelo://app?vid=a0705d91-703f-49f1-80a4-f2ed6ea1bb20"},"vehicle_type_id":"4","last_reported":1752736438,"current_range_meters":20800,"station_id":"ce4bgn92rcd13ifvqbvg","pricing_plan_id":"cebpf4jnsgd1na2vs0mg"},{"bike_id":"1ea2a040-e84c-4a9f-8a96-cefaa8359ecd","system_id":"levelo_inurba_marseille","lat":43.284561,"lon":5.358874,"is_reserved":false,"is_disabled":true,"rental_uris":{"android":"levelo://app?vid=1ea2a040-e84c-4a9f-8a96-cefaa8359ecd","ios":"levelo://app?vid=1ea2a040-e84c-4a9f-8a96-cefaa8359ecd"},"vehicle_type_id":"4","last_reported":1752736438,"current_range_meters":20800,"station_id":"ce4bhah2rcd13ifvqei0","pricing_plan_id":"cebpf4jnsgd1na2vs0mg"},{"bike_id":"db42604b-c15c-49d3-b62c-7cc2ce8e29c6","system_id":"levelo_inurba_marseille","lat":43.21192,"lon":5.35069,"is_reserved":false,"is_disabled":false,"rental_uris":{"android":"levelo://app?vid=db42604b-c15c-49d3-b62c-7cc2ce8e29c6","ios":"levelo://app?vid=db42604b-c15c-49d3-b62c-7cc2ce8e29c6"},"vehicle_type_id":"4","last_reported":1752736438,"current_range_meters":20800,"station_id":"st_cvj6sg6p6f1abm77japg","pricing_plan_id":"cebpf4jnsgd1na2vs0mg"},{"bike_id":"c6d66578-6cc1-4ecb-8d87-5b03ed1a2ad0","system_id":"levelo_inurba_marseille","lat":43.26224,"lon":5.40452,"is_reserved":false,"is_disabled":false,"rental_uris":{"android":"levelo://app?vid=c6d66578-6cc1-4ecb-8d87-5b03ed1a2ad0","ios":"levelo://app?vid=c6d66578-6cc1-4ecb-8d87-5b03ed1a2ad0"},"vehicle_type_id":"4","last_reported":1752736438,"current_range_meters":20800,"station_id":"ce4bhmh2rcd13ifvqgmg","pricing_plan_id":"cebpf4jnsgd1na2vs0mg"},{"bike_id":"340a2cd3-3c17-4726-9af0-42e0dbeec36b","system_id":"levelo_inurba_marseille","lat":43.26501,"lon":5.39535,"is_reserved":false,"is_disabled":false,"rental_uris":{"android":"levelo://app?vid=340a2cd3-3c17-4726-9af0-42e0dbeec36b","ios":"levelo://app?vid=340a2cd3-3c17-4726-9af0-42e0dbeec36b"},"vehicle_type_id":"4","last_reported":1752736438,"current_range_meters":20800,"station_id":"ce4bhi12rcd13ifvqfq0","pricing_plan_id":"cebpf4jnsgd1na2vs0mg"},{"bike_id":"b2a489f6-8977-4de2-8a75-127a31d63aae","system_id":"levelo_inurba_marseille","lat":43.29033,"lon":5.39981,"is_reserved":false,"is_disabled":false,"rental_uris":{"android":"levelo://app?vid=b2a489f6-8977-4de2-8a75-127a31d63aae","ios":"levelo://app?vid=b2a489f6-8977-4de2-8a75-127a31d63aae"},"vehicle_type_id":"4","last_reported":1752736438,"current_range_meters":20800,"station_id":"ce4bh392rcd13ifvqdm0","pricing_plan_id":"cebpf4jnsgd1na2vs0mg"},{"bike_id":"f6b4ddb5-562f-4340-8f5e-aca86cea9f34","system_id":"levelo_inurba_marseille","lat":43.30908,"lon":5.36851,"is_reserved":false,"is_disabled":false,"rental_uris":{"android":"levelo://app?vid=f6b4ddb5-562f-4340-8f5e-aca86cea9f34","ios":"levelo://app?vid=f6b4ddb5-562f-4340-8f5e-aca86cea9f34"},"vehicle_type_id":"4","last_reported":1752736438,"current_range_meters":20800,"station_id":"ce4bgn92rcd13ifvqbvg","pricing_plan_id":"cebpf4jnsgd1na2vs0mg"},{"bike_id":"a67156ae-789e-45f5-ab3f-ed7d95b24540","system_id":"levelo_inurba_marseille","lat":43.211933,"lon":5.350729,"is_reserved":false,"is_disabled":false,"rental_uris":{"android":"levelo://app?vid=a67156ae-789e-45f5-ab3f-ed7d95b24540","ios":"levelo://app?vid=a67156ae-789e-45f5-ab3f-ed7d95b24540"},"vehicle_type_id":"4","last_reported":1752736438,"current_range_meters":20800,"station_id":"st_cvj6sg6p6f1abm77japg","pricing_plan_id":"cebpf4jnsgd1na2vs0mg"},{"bike_id":"7993e410-f0ad-4330-9c74-60bfa7d66947","system_id":"levelo_inurba_marseille","lat":43.29263,"lon":5.37629,"is_reserved":false,"is_disabled":false,"rental_uris":{"android":"levelo://app?vid=7993e410-f0ad-4330-9c74-60bfa7d66947","ios":"levelo://app?vid=7993e410-f0ad-4330-9c74-60bfa7d66947"},"vehicle_type_id":"4","last_reported":1752736438,"current_range_meters":20800,"station_id":"ce4bgi12rcd13ifvqb80","pricing_plan_id":"cebpf4jnsgd1na2vs0mg"},{"bike_id":"646f850c-2e83-4901-bbf8-3d795c0e3113","system_id":"levelo_inurba_marseille","lat":43.29028,"lon":5.39984,"is_reserved":false,"is_disabled":false,"rental_uris":{"android":"levelo://app?vid=646f850c-2e83-4901-bbf8-3d795c0e3113","ios":"levelo://app?vid=646f850c-2e83-4901-bbf8-3d795c0e3113"},"vehicle_type_id":"4","last_reported":1752736438,"current_range_meters":21600,"station_id":"ce4bh392rcd13ifvqdm0","pricing_plan_id":"cebpf4jnsgd1na2vs0mg"},{"bike_id":"c80cd61b-cf8f-4caa-950b-c6d0827d21f6","system_id":"levelo_inurba_marseille","lat":43.27934,"lon":5.41046,"is_reserved":false,"is_disabled":true,"rental_uris":{"android":"levelo://app?vid=c80cd61b-cf8f-4caa-950b-c6d0827d21f6","ios":"levelo://app?vid=c80cd61b-cf8f-4caa-950b-c6d0827d21f6"},"vehicle_type_id":"4","last_reported":1752736438,"current_range_meters":21600,"station_id":"ce4bhnp2rcd13ifvqh0g","pricing_plan_id":"cebpf4jnsgd1na2vs0mg"},{"bike_id":"58cb234b-86ec-4b63-99db-717c732d6291","system_id":"levelo_inurba_marseille","lat":43.3122,"lon":5.36855,"is_reserved":false,"is_disabled":false,"rental_uris":{"android":"levelo://app?vid=58cb234b-86ec-4b63-99db-717c732d6291","ios":"levelo://app?vid=58cb234b-86ec-4b63-99db-717c732d6291"},"vehicle_type_id":"4","last_reported":1752736438,"current_range_meters":21600,"station_id":"ce4bgl92rcd13ifvqbq0","pricing_plan_id":"cebpf4jnsgd1na2vs0mg"},