{"last_updated":1770412834,"ttl":60,"version":"2.2","data":{"bikes":[{"bike_id":"eac014d6-859c-46f4-9485-759e6bcc96f3","system_id":"levelo_inurba_marseille","lat":43.32105,"lon":5.367703,"is_reserved":false,"is_disabled":false,"rental_uris":{"android":"levelo://app?vid=eac014d6-859c-46f4-9485-759e6bcc96f3","ios":"levelo://app?vid=eac014d6-859c-46f4-9485-759e6bcc96f3"},"vehicle_type_id":"4","last_reported":1770412835,"current_range_meters":2800,"station_id":"ce4bhrh2rcd13ifvqhug","pricing_plan_id":"cebpf4jnsgd1na2vs0mg"},{"bike_id":"5309610c-bf76-4542-a232-389bbf17cbff","system_id":"levelo_inurba_marseille","lat":43.3354,"lon":5.37482,"is_reserved":false,"is_disabled":false,"rental_uris":{"android":"levelo://app?vid=5309610c-bf76-4542-a232-389bbf17cbff","ios":"levelo://app?vid=5309610c-bf76-4542-a232-389bbf17cbff"},"vehicle_type_id":"4","last_reported":1770412835,"current_range_meters":2800,"station_id":"st_d46tts09ee8s73dlu43g","pricing_plan_id":"cebpf4jnsgd1na2vs0mg"},{"bike_id":"49bc0ac4-ec4c-46b4-bcba-c5b87d948aa1","system_id":"levelo_inurba_marseille","lat":43.23975,"lon":5.36646,"is_reserved":false,"is_disabled":false,"rental_uris":{"android":"levelo://app?vid=49bc0ac4-ec4c-46b4-bcba-c5b87d948aa1","ios":"levelo://app?vid=49bc0ac4-ec4c-46b4-bcba-c5b87d948aa1"},"vehicle_type_id":"4","last_reported":1770412835,"current_range_meters":2800,"station_id":"ce4bhi12rcd13ifvqfp0","pricing_plan_id":"cebpf4jnsgd1na2vs0mg"},{"bike_id":"e6136998-b2a7-4d26-bf56-9312edc5f30c","system_id":"levelo_inurba_marseille","lat":43.3132,"lon":5.39691,"is_reserved":false,"is_disabled":false,"rental_uris":{"android":"levelo://app?vid=e6136998-b2a7-4d26-bf56-9312edc5f30c","ios":"levelo://app?vid=e6136998-b2a7-4d26-bf56-9312edc5f30c"},"vehicle_type_id":"4","last_reported":1770412835,"current_range_meters":2800,"station_id":"ce4bgvp2rcd13ifvqcu0","pricing_plan_id":"cebpf4jnsgd1na2vs0mg"},{"bike_id":"f97cfa03-c4f4-43fd-ac7e-e8695c9c7516","system_id":"levelo_inurba_marseille","lat":43.25568,"lon":5.38255,"is_reserved":false,"is_disabled":false,"rental_uris":{"android":"levelo://app?vid=f97cfa03-c4f4-43fd-ac7e-e8695c9c7516","ios":"levelo://app?vid=f97cfa03-c4f4-43fd-ac7e-e8695c9c7516"},"vehicle_type_id":"4","last_reported":1770412835,"current_range_meters":2800,"station_id":"ce4bhih2rcd13ifvqfs0","pricing_plan_id":"cebpf4jnsgd1na2vs0mg"},{"bike_id":"4ee730ce-34fe-4aba-9304-7d3726087afa","system_id":"levelo_inurba_marseille","lat":43.26224,"lon":5.40445,"is_reserved":false,"is_disabled":false,"rental_uris":{"android":"levelo://app?vid=4ee730ce-34fe-4aba-9304-7d3726087afa","ios":"levelo://app?vid=4ee730ce-34fe-4aba-9304-7d3726087afa"},"vehicle_type_id":"4","last_reported":1770412835,"current_range_meters":2800,"station_id":"ce4bhmh2rcd13ifvqgmg","pricing_plan_id":"cebpf4jnsgd1na2vs0mg"},{"bike_id":"608f3b21-b8ce-4eb6-be9d-dcd529e156eb","system_id":"levelo_inurba_marseille","lat":43.262326,"lon":5.402678,"is_reserved":false,"is_disabled":false,"rental_uris":{"android":"levelo://app?vid=608f3b21-b8ce-4eb6-be9d-dcd529e156eb","ios":"levelo://app?vid=608f3b21-b8ce-4eb6-be9d-dcd529e156eb"},"vehicle_type_id":"4","last_reported":1770412835,"current_range_meters":2800,"station_id":"ce4bho92rcd13ifvqh4g","pricing_plan_id":"cebpf4jnsgd1na2vs0mg"},{"bike_id":"a6459c95-0982-497e-9f7f-f576388b23a0","system_id":"levelo_inurba_marseille","lat":43.30648,"lon":5.40057,"is_reserved":false,"is_disabled":false,"rental_uris":{"android":"levelo://app?vid=a6459c95-0982-497e-9f7f-f576388b23a0","ios":"levelo://app?vid=a6459c95-0982-497e-9f7f-f576388b23a0"},"vehicle_type_id":"4","last_reported":1770412835,"current_range_meters":2800,"station_id":"ce4bh112rcd13ifvqda0","pricing_plan_id":"cebpf4jnsgd1na2vs0mg"},{"bike_id":"bf716aa5-5db6-4f44-aa24-9167a51e58ca","system_id":"levelo_inurba_marseille","lat":43.3172,"lon":5.42398,"is_reserved":false,"is_disabled":false,"rental_uris":{"android":"levelo://app?vid=bf716aa5-5db6-4f44-aa24-9167a51e58ca","ios":"levelo://app?vid=bf716aa5-5db6-4f44-aa24-9167a51e58ca"},"vehicle_type_id":"4","last_reported":1770412835,"current_range_meters":3200,"station_id":"ce4bhp92rcd13ifvqhbg","pricing_plan_id":"cebpf4jnsgd1na2vs0mg"},{"bike_id":"33b2027f-e695-4d46-8701-c84ef1f437b5","system_id":"levelo_inurba_marseille","lat":43.279867,"lon":5.400123,"is_reserved":false,"is_disabled":false,"rental_uris":{"android":"levelo://app?vid=33b2027f-e695-4d46-8701-c84ef1f437b5","ios":"levelo://app?vid=33b2027f-e695-4d46-8701-c84ef1f437b5"},"vehicle_type_id":"4","last_reported":1770412835,"current_range_meters":3200,"station_id":"ce4bho92rcd13ifvqh4g","pricing_plan_id":"cebpf4jnsgd1na2vs0mg"},{"bike_id":"aca6ea62-6cf8-4e32-a797-d9da48e9af3e","system_id":"levelo_inurba_marseille","lat":43.28005,"lon":5.4008,"is_reserved":false,"is_disabled":false,"rental_uris":{"android":"levelo://app?vid=aca6ea62-6cf8-4e32-a797-d9da48e9af3e","ios":"levelo://app?vid=aca6ea62-6cf8-4e32-a797-d9da48e9af3e"},"vehicle_type_id":"4","last_reported":1770412835,"current_range_meters":3200,"station_id":"","pricing_plan_id":"cebpf4jnsgd1na2vs0mg"},{"bike_id":"94414b17-941a-4edc-9406-25c505562420","system_id":"levelo_inurba_marseille","lat":43.255488,"lon":5.37642,"is_reserved":false,"is_disabled":false,"rental_uris":{"android":"levelo://app?vid=94414b17-941a-4edc-9406-25c505562420","ios":"levelo://app?vid=94414b17-941a-4edc-9406-25c505562420"},"vehicle_type_id":"4","last_reported":1770412835,"current_range_meters":3200,"station_id":"ce4bhh12rcd13ifvqff0","pricing_plan_id":"cebpf4jnsgd1na2vs0mg"},{"bike_id":"58c659e7-05d3-46a2-9255-27ef09abaeb3","system_id":"levelo_inurba_marseille","lat":43.26546,"lon":5.37292,"is_reserved":false,"is_disabled":false,"rental_uris":{"android":"levelo://app?vid=58c659e7-05d3-46a2-9255-27ef09abaeb3","ios":"levelo://app?vid=58c659e7-05d3-46a2-9255-27ef09abaeb3"},"vehicle_type_id":"4","last_reported":1770412835,"current_range_meters":3200,"station_id":"ce4bhg12rcd13ifvqf70","pricing_plan_id":"cebpf4jnsgd1na2vs0mg"},{"bike_id":"fee0750a-8d27-43e0-94f7-17675fd554cc","system_id":"levelo_inurba_marseille","lat":43.23184,"lon":5.35522,"is_reserved":false,"is_disabled":false,"rental_uris":{"android":"levelo://app?vid=fee0750a-8d27-43e0-94f7-17675fd554cc","ios":"levelo://app?vid=fee0750a-8d27-43e0-94f7-17675fd554cc"},"vehicle_type_id":"4","last_reported":1770412835,"current_range_meters":3200,"station_id":"ce4bhu92rcd13ifvqi70","pricing_plan_id":"cebpf4jnsgd1na2vs0mg"},{"bike_id":"5da19c60-8d18-4f89-9f34-861cb03ee1b3","system_id":"levelo_inurba_marseille","lat":43.24674,"lon":5.38164,"is_reserved":false,"is_disabled":false,"rental_uris":{"android":"levelo://app?vid=5da19c60-8d18-4f89-9f34-861cb03ee1b3","ios":"levelo://app?vid=5da19c60-8d18-4f89-9f34-861cb03ee1b3"},"vehicle_type_id":"4","last_reported":1770412835,"current_range_meters":3200,"station_id":"ce4bhih2rcd13ifvqfr0","pricing_plan_id":"cebpf4jnsgd1na2vs0mg"},{"bike_id":"ff39093b-5c8c-4ecb-8c52-5b428a1d7f4c","system_id":"levelo_inurba_marseille","lat":43.29258,"lon":5.40906,"is_reserved":false,"is_disabled":false,"rental_uris":{"android":"levelo://app?vid=ff39093b-5c8c-4ecb-8c52-5b428a1d7f4c","ios":"levelo://app?vid=ff39093b-5c8c-4ecb-8c52-5b428a1d7f4c"},"vehicle_type_id":"4","last_reported":1770412835,"current_range_meters":3600,"station_id":"ce4bh192rcd13ifvqdc0","pricing_plan_id":"cebpf4jnsgd1na2vs0mg"},{"bike_id":"8afaa6ba-53a8-46e0-a7e6-0b4d63b9c62b","system_id":"levelo_inurba_marseille","lat":43.31079,"lon":5.38362,"is_reserved":false,"is_disabled":false,"rental_uris":{"android":"levelo://app?vid=8afaa6ba-53a8-46e0-a7e6-0b4d63b9c62b","ios":"levelo://app?vid=8afaa6ba-53a8-46e0-a7e6-0b4d63b9c62b"},"vehicle_type_id":"4","last_reported":1770412835,"current_range_meters":3600,"station_id":"ce4bgv92rcd13ifvqcr0","pricing_plan_id":"cebpf4jnsgd1na2vs0mg"},{"bike_id":"24e18bc3-60f4-4f22-8411-08ca6d2228f2","system_id":"levelo_inurba_marseille","lat":43.30576,"lon":5.36566,"is_reserved":false,"is_disabled":true,"rental_uris":{"android":"levelo://app?vid=24e18bc3-60f4-4f22-8411-08ca6d2228f2","ios":"levelo://app?vid=24e18bc3-60f4-4f22-8411-08ca6d2228f2"},"vehicle_type_id":"4","last_reported":1770412835,"current_range_meters":3600,"station_id":"ce4bgs12rcd13ifvqcag","pricing_plan_id":"cebpf4jnsgd1na2vs0mg"},{"bike_id":"c0bcc2b4-0c21-4712-82e8-d7d1de58590b","system_id":"levelo_inurba_marseille","lat":43.26373,"lon":5.41073,"is_reserved":false,"is_disabled":true,"rental_uris":{"android":"levelo://app?vid=c0bcc2b4-0c21-4712-82e8-d7d1de58590b","ios":"levelo://app?vid=c0bcc2b4-0c21-4712-82e8-d7d1de58590b"},"vehicle_type_id":"4","last_reported":1770412835,"current_range_meters":3600,"station_id":"","pricing_plan_id":"cebpf4jnsgd1na2vs0mg"},{"bike_id":"7a9437dc-9620-4e4d-ac55-f97780f81760","system_id":"levelo_inurba_marseille","lat":43.24811,"lon":5.37472,"is_reserved":false,"is_disabled":false,"rental_uris":{"android":"levelo://app?vid=7a9437dc-9620-4e4d-ac55-f97780f81760","ios":"levelo://app?vid=7a9437dc-9620-4e4d-ac55-f97780f81760"},"vehicle_type_id":"4","last_reported":1770412835,"current_range_meters":3600,"station_id":"ce4bhgh2rcd13ifvqfb0","pricing_plan_id":"cebpf4jnsgd1na2vs0mg"},{"bike_id":"fa7ff620-7500-4d5f-ae14-721a55fbae70","system_id":"levelo_inurba_marseille","lat":43.24661,"lon":5.3816,"is_reserved":false,"is_disabled":false,"rental_uris":{"android":"levelo://app?vid=fa7ff620-7500-4d5f-ae14-721a55fbae70","ios":"levelo://app?vid=fa7ff620-7500-4d5f-ae14-721a55fbae70"},"vehicle_type_id":"4","last_reported":1770412835,"current_range_meters":3600,"station_id":"ce4bhih2rcd13ifvqfr0","pricing_plan_id":"cebpf4jnsgd1na2vs0mg"},{"bike_id":"0ff7d1fc-c942-4e04-bb24-6b30b880d197","system_id":"levelo_inurba_marseille","lat":43.31509,"lon":5.36515,"is_reserved":false,"is_disabled":false,"rental_uris":{"android":"levelo://app?vid=0ff7d1fc-c942-4e04-bb24-6b30b880d197","ios":"levelo://app?vid=0ff7d1fc-c942-4e04-bb24-6b30b880d197"},"vehicle_type_id":"4","last_reported":1770412835,"current_range_meters":3600,"station_id":"","pricing_plan_id":"cebpf4jnsgd1na2vs0mg"},{"bike_id":"cfc53fba-2e2f-4be7-ae83-01b9f7978989","system_id":"levelo_inurba_marseille","lat":43.288498,"lon":5.393103,"is_reserved":false,"is_disabled":false,"rental_uris":{"android":"levelo://app?vid=cfc53fba-2e2f-4be7-ae83-01b9f7978989","ios":"levelo://app?vid=cfc53fba-2e2f-4be7-ae83-01b9f7978989"},"vehicle_type_id":"4","last_reported":1770412835,"current_range_meters":3600,"station_id":"ce4bh2p2rcd13ifvqdi0","pricing_plan_id":"cebpf4jnsgd1na2vs0mg"},{"bike_id":"b53f497c-0cdf-42a8-ab5a-d6dc45b07b09","system_id":"levelo_inurba_marseille","lat":43.24166,"lon":5.36399,"is_reserved":false,"is_disabled":false,"rental_uris":{"android":"levelo://app?vid=b53f497c-0cdf-42a8-ab5a-d6dc45b07b09","ios":"levelo://app?vid=b53f497c-0cdf-42a8-ab5a-d6dc45b07b09"},"vehicle_type_id":"4","last_reported":1770412835,"current_range_meters":4000,"station_id":"cpo36qri1sfpv3e86is0","pricing_plan_id":"cebpf4jnsgd1na2vs0mg"},{"bike_id":"3a5ad6bb-5967-4a43-8a3d-23934f4743ed","system_id":"levelo_inurba_marseille","lat":43.28033,"lon":5.40078,"is_reserved":false,"is_disabled":false,"rental_uris":{"android":"levelo://app?vid=3a5ad6bb-5967-4a43-8a3d-23934f4743ed","ios":"levelo://app?vid=3a5ad6bb-5967-4a43-8a3d-23934f4743ed"},"vehicle_type_id":"4","last_reported":1770412835,"current_range_meters":4000,"station_id":"","pricing_plan_id":"cebpf4jnsgd1na2vs0mg"},{"bike_id":"6c706595-1835-4ddf-8d94-5e35d4a0f5cb","system_id":"levelo_inurba_marseille","lat":43.31164,"lon":5.36842,"is_reserved":false,"is_disabled":false,"rental_uris":{"android":"levelo://app?vid=6c706595-1835-4ddf-8d94-5e35d4a0f5cb","ios":"levelo://app?vid=6c706595-1835-4ddf-8d94-5e35d4a0f5cb"},"vehicle_type_id":"4","last_reported":1770412835,"current_range_meters":4000,"station_id":"","pricing_plan_id":"cebpf4jnsgd1na2vs0mg"},{"bike_id":"e1ae38e0-9f14-4406-91cc-1b4515ca2de5","system_id":"levelo_inurba_marseille","lat":43.30912,"lon":5.39648,"is_reserved":false,"is_disabled":false,"rental_uris":{"android":"levelo://app?vid=e1ae38e0-9f14-4406-91cc-1b4515ca2de5","ios":"levelo://app?vid=e1ae38e0-9f14-4406-91cc-1b4515ca2de5"},"vehicle_type_id":"4","last_reported":1770412835,"current_range_meters":4000,"station_id":"ce4bh012rcd13ifvqcv0","pricing_plan_id":"cebpf4jnsgd1na2vs0mg"},{"bike_id":"7ce3271c-9e28-4d5e-b3b1-77311e5df5d7","system_id":"levelo_inurba_marseille","lat":43.31488,"lon":5.38089,"is_reserved":false,"is_disabled":false,"rental_uris":{"android":"levelo://app?vid=7ce3271c-9e28-4d5e-b3b1-77311e5df5d7","ios":"levelo://app?vid=7ce3271c-9e28-4d5e-b3b1-77311e5df5d7"},"vehicle_type_id":"4","last_reported":1770412835,"current_range_meters":4000,"station_id":"","pricing_plan_id":"cebpf4jnsgd1na2vs0mg"},{"bike_id":"8648d317-2471-4c72-8dd2-7c0302b6bfbe","system_id":"levelo_inurba_marseille","lat":43.269501,"lon":5.38634,"is_reserved":false,"is_disabled":false,"rental_uris":{"android":"levelo://app?vid=8648d317-2471-4c72-8dd2-7c0302b6bfbe","ios":"levelo://app?vid=8648d317-2471-4c72-8dd2-7c0302b6bfbe"},"vehicle_type_id":"4","last_reported":1770412835,"current_range_meters":4000,"station_id":"","pricing_plan_id":"cebpf4jnsgd1na2vs0mg"},{"bike_id":"2702666f-48eb-4739-bd04-66d864e30edf","system_id":"levelo_inurba_marseille","lat":43.290342,"lon":5.375468,"is_reserved":false,"is_disabled":false,"rental_uris":{"android":"levelo://app?vid=2702666f-48eb-4739-bd04-66d864e30edf","ios":"levelo://app?vid=2702666f-48eb-4739-bd04-66d864e30edf"},"vehicle_type_id":"4","last_reported":1770412835,"current_range_meters":4000,"station_id":"ce4bh692rcd13ifvqe90","pricing_plan_id":"cebpf4jnsgd1na2vs0mg"},{"bike_id":"ed0b7b07-9c38-4fb9-bc30-93ba90939795","system_id":"levelo_inurba_marseille","lat":43.33158,"lon":5.37713,"is_reserved":false,"is_disabled":false,"rental_uris":{"android":"levelo://app?vid=ed0b7b07-9c38-4fb9-bc30-93ba90939795","ios":"levelo://app?vid=ed0b7b07-9c38-4fb9-bc30-93ba90939795"},"vehicle_type_id":"4","last_reported":1770412835,"current_range_meters":4000,"station_id":"st_d46cu089ee8s73dldbu0","pricing_plan_id":"cebpf4jnsgd1na2vs0mg"},{"bike_id":"5005df1e-a5e0-4247-80e1-f8aff4acedfa","system_id":"levelo_inurba_marseille","lat":43.25719,"lon":5.41122,"is_reserved":false,"is_disabled":false,"rental_uris":{"android":"levelo://app?vid=5005df1e-a5e0-4247-80e1-f8aff4acedfa","ios":"levelo://app?vid=5005df1e-a5e0-4247-80e1-f8aff4acedfa"},"vehicle_type_id":"4","last_reported":1770412835,"current_range_meters":4000,"station_id":"ce4bhkp2rcd13ifvqgd0","pricing_plan_id":"cebpf4jnsgd1na2vs0mg"},{"bike_id":"e23ca2c4-052c-4fbb-b451-6d946b140f42","system_id":"levelo_inurba_marseille","lat":43.283691,"lon":5.376893,"is_reserved":false,"is_disabled":false,"rental_uris":{"android":"levelo://app?vid=e23ca2c4-052c-4fbb-b451-6d946b140f42","ios":"levelo://app?vid=e23ca2c4-052c-4fbb-b451-6d946b140f42"},"vehicle_type_id":"4","last_reported":1770412835,"current_range_meters":4000,"station_id":"ce4bhnp2rcd13ifvqh0g","pricing_plan_id":"cebpf4jnsgd1na2vs0mg"},{"bike_id":"0c761b47-f97e-46a4-baf9-3e10a77fa599","system_id":"levelo_inurba_marseille","lat":43.22539,"lon":5.34835,"is_reserved":false,"is_disabled":false,"rental_uris":{"android":"levelo://app?vid=0c761b47-f97e-46a4-baf9-3e10a77fa599","ios":"levelo://app?vid=0c761b47-f97e-46a4-baf9-3e10a77fa599"},"vehicle_type_id":"4","last_reported":1770412835,"current_range_meters":4000,"station_id":"st_cvj5dfep6f1abm77gieg","pricing_plan_id":"cebpf4jnsgd1na2vs0mg"},{"bike_id":"812430a0-952a-4ba5-b41b-bd37f61e0edd","system_id":"levelo_inurba_marseille","lat":43.31178,"lon":5.38705,"is_reserved":false,"is_disabled":false,"rental_uris":{"android":"levelo://app?vid=812430a0-952a-4ba5-b41b-bd37f61e0edd","ios":"levelo://app?vid=812430a0-952a-4ba5-b41b-bd37f61e0edd"},"vehicle_type_id":"4","last_reported":1770412835,"current_range_meters":4000,"station_id":"ce4bgv12rcd13ifvqcp0","pricing_plan_id":"cebpf4jnsgd1na2vs0mg"},{"bike_id":"34c67446-cdbe-429a-9b46-6d8358f6a90f","system_id":"levelo_inurba_marseille","lat":43.3059,"lon":5.37205,"is_reserved":false,"is_disabled":false,"rental_uris":{"android":"levelo://app?vid=34c67446-cdbe-429a-9b46-6d8358f6a90f","ios":"levelo://app?vid=34c67446-cdbe-429a-9b46-6d8358f6a90f"},"vehicle_type_id":"4","last_reported":1770412835,"current_range_meters":4400,"station_id":"ce4bgqh2rcd13ifvqc4g","pricing_plan_id":"cebpf4jnsgd1na2vs0mg"},{"bike_id":"f1bff026-bd99-4af5-9efa-17efa0f261ab","system_id":"levelo_inurba_marseille","lat":43.30533,"lon":5.365395,"is_reserved":false,"is_disabled":false,"rental_uris":{"android":"levelo://app?vid=f1bff026-bd99-4af5-9efa-17efa0f261ab","ios":"levelo://app?vid=f1bff026-bd99-4af5-9efa-17efa0f261ab"},"vehicle_type_id":"4","last_reported":1770412835,"current_range_meters":4400,"station_id":"","pricing_plan_id":"cebpf4jnsgd1na2vs0mg"},{"bike_id":"ac551100-dc22-4913-9a52-4829a5f95f35","system_id":"levelo_inurba_marseille","lat":43.28571,"lon":5.39915,"is_reserved":false,"is_disabled":true,"rental_uris":{"android":"levelo://app?vid=ac551100-dc22-4913-9a52-4829a5f95f35","ios":"levelo://app?vid=ac551100-dc22-4913-9a52-4829a5f95f35"},"vehicle_type_id":"4","last_reported":1770412835,"current_range_meters":4400,"station_id":"st_d4a7ka997mjs738ck50g","pricing_plan_id":"cebpf4jnsgd1na2vs0mg"},{"bike_id":"1b031d05-a348-403c-a9a3-d44c5c36c158","system_id":"levelo_inurba_marseille","lat":43.29804,"lon":5.38055,"is_reserved":false,"is_disabled":false,"rental_uris":{"android":"levelo://app?vid=1b031d05-a348-403c-a9a3-d44c5c36c158","ios":"levelo://app?vid=1b031d05-a348-403c-a9a3-d44c5c36c158"},"vehicle_type_id":"4","last_reported":1770412835,"current_range_meters":4400,"station_id":"ce4bgip2rcd13ifvqbb0","pricing_plan_id":"cebpf4jnsgd1na2vs0mg"},{"bike_id":"2a0c1dc7-44c8-4dc5-a28a-dcecefa69bff","system_id":"levelo_inurba_marseille","lat":43.26231,"lon":5.40448,"is_reserved":false,"is_disabled":false,"rental_uris":{"android":"levelo://app?vid=2a0c1dc7-44c8-4dc5-a28a-dcecefa69bff","ios":"levelo://app?vid=2a0c1dc7-44c8-4dc5-a28a-dcecefa69bff"},"vehicle_type_id":"4","last_reported":1770412835,"current_range_meters":4400,"station_id":"ce4bhmh2rcd13ifvqgmg","pricing_plan_id":"cebpf4jnsgd1na2vs0mg"},{"bike_id":"b0cec839-9044-416d-92eb-61b8dee05fdc","system_id":"levelo_inurba_marseille","lat":43.28038,"lon":5.36956,"is_reserved":false,"is_disabled":false,"rental_uris":{"android":"levelo://app?vid=b0cec839-9044-416d-92eb-61b8dee05fdc","ios":"levelo://app?vid=b0cec839-9044-416d-92eb-61b8dee05fdc"},"vehicle_type_id":"4","last_reported":1770412835,"current_range_meters":4400,"station_id":"ce4bha12rcd13ifvqef0","pricing_plan_id":"cebpf4jnsgd1na2vs0mg"},{"bike_id":"7bb73185-8e0c-430f-a331-c4f733695b9f","system_id":"levelo_inurba_marseille","lat":43.27832,"lon":5.39213,"is_reserved":false,"is_disabled":false,"rental_uris":{"android":"levelo://app?vid=7bb73185-8e0c-430f-a331-c4f733695b9f","ios":"levelo://app?vid=7bb73185-8e0c-430f-a331-c4f733695b9f"},"vehicle_type_id":"4","last_reported":1770412835,"current_range_meters":4400,"station_id":"ce4bhjp2rcd13ifvqga0","pricing_plan_id":"cebpf4jnsgd1na2vs0mg"},{"bike_id":"eb1aee22-66f7-40e1-8d42-129f37193ad0","system_id":"levelo_inurba_marseille","lat":43.29281,"lon":5.40038,"is_reserved":false,"is_disabled":false,"rental_uris":{"android":"levelo://app?vid=eb1aee22-66f7-40e1-8d42-129f37193ad0","ios":"levelo://app?vid=eb1aee22-66f7-40e1-8d42-129f37193ad0"},"vehicle_type_id":"4","last_reported":1770412835,"current_range_meters":4400,"station_id":"","pricing_plan_id":"cebpf4jnsgd1na2vs0mg"},{"bike_id":"1b0d8690-78e7-495c-8089-879d492ac72e","system_id":"levelo_inurba_marseille","lat":43.2987,"lon":5.39732,"is_reserved":false,"is_disabled":false,"rental_uris":{"android":"levelo://app?vid=1b0d8690-78e7-495c-8089-879d492ac72e","ios":"levelo://app?vid=1b0d8690-78e7-495c-8089-879d492ac72e"},"vehicle_type_id":"4","last_reported":1770412835,"current_range_meters":4400,"station_id":"ce4bh0h2rcd13ifvqd50","pricing_plan_id":"cebpf4jnsgd1na2vs0mg"},{"bike_id":"0cc9c6d7-0f61-445c-965c-e73db718ba2a","system_id":"levelo_inurba_marseille","lat":43.292666,"lon":5.384336,"is_reserved":false,"is_disabled":false,"rental_uris":{"android":"levelo://app?vid=0cc9c6d7-0f61-445c-965c-e73db718ba2a","ios":"levelo://app?vid=0cc9c6d7-0f61-445c-965c-e73db718ba2a"},"vehicle_type_id":"4","last_reported":1770412835,"current_range_meters":4400,"station_id":"ce4bha12rcd13ifvqee0","pricing_plan_id":"cebpf4jnsgd1na2vs0mg"},{"bike_id":"f962822c-06bc-4486-a477-eaae1a981a6b","system_id":"levelo_inurba_marseille","lat":43.27606,"lon":5.38494,"is_reserved":false,"is_disabled":false,"rental_uris":{"android":"levelo://app?vid=f962822c-06bc-4486-a477-eaae1a981a6b","ios":"levelo://app?vid=f962822c-06bc-4486-a477-eaae1a981a6b"},"vehicle_type_id":"4","last_reported":1770412835,"current_range_meters":4400,"station_id":"","pricing_plan_id":"cebpf4jnsgd1na2vs0mg"},{"bike_id":"9b908f9d-4660-44bb-b17a-c35c07c0e6d2","system_id":"levelo_inurba_marseille","lat":43.28049,"lon":5.40023,"is_reserved":false,"is_disabled":false,"rental_uris":{"android":"levelo://app?vid=9b908f9d-4660-44bb-b17a-c35c07c0e6d2","ios":"levelo://app?vid=9b908f9d-4660-44bb-b17a-c35c07c0e6d2"},"vehicle_type_id":"4","last_reported":1770412835,"current_range_meters":4800,"station_id":"","pricing_plan_id":"cebpf4jnsgd1na2vs0mg"},{"bike_id":"a36c0b19-31c3-46e9-896f-dfb9c1780541","system_id":"levelo_inurba_marseille","lat":43.2902,"lon":5.38137,"is_reserved":false,"is_disabled":false,"rental_uris":{"android":"levelo://app?vid=a36c0b19-31c3-46e9-896f-dfb9c1780541","ios":"levelo://app?vid=a36c0b19-31c3-46e9-896f-dfb9c1780541"},"vehicle_type_id":"4","last_reported":1770412835,"current_range_meters":4800,"station_id":"ce4bh4p2rcd13ifvqe1g","pricing_plan_id":"cebpf4jnsgd1na2vs0mg"},{"bike_id":"6e841bf6-5397-4553-8cf2-e04c1ae59db0","system_id":"levelo_inurba_marseille","lat":43.28996,"lon":5.356116,"is_reserved":false,"is_disabled":true,"rental_uris":{"android":"levelo://app?vid=6e841bf6-5397-4553-8cf2-e04c1ae59db0","ios":"levelo://app?vid=6e841bf6-5397-4553-8cf2-e04c1ae59db0"},"vehicle_type_id":"4","last_reported":1770412835,"current_range_meters":4800,"station_id":"ce4bhb92rcd13ifvqen0","pricing_plan_id":"cebpf4jnsgd1na2vs0mg"},{"bike_id":"2f69afc2-51d1-4223-b73c-f3e5d3ce5ca4","system_id":"levelo_inurba_marseille","lat":43.29599,"lon":5.38627,"is_reserved":false,"is_disabled":false,"rental_uris":{"android":"levelo://app?vid=2f69afc2-51d1-4223-b73c-f3e5d3ce5ca4","ios":"levelo://app?vid=2f69afc2-51d1-4223-b73c-f3e5d3ce5ca4"},"vehicle_type_id":"4","last_reported":1770412835,"current_range_meters":4800,"station_id":"","pricing_plan_id":"cebpf4jnsgd1na2vs0mg"},{"bike_id":"2516f7de-37c2-45a7-b675-1fa9ad2cb034","system_id":"levelo_inurba_marseille","lat":43.29595,"lon":5.37749,"is_reserved":false,"is_disabled":false,"rental_uris":{"android":"levelo://app?vid=2516f7de-37c2-45a7-b675-1fa9ad2cb034","ios":"levelo://app?vid=2516f7de-37c2-45a7-b675-1fa9ad2cb034"},"vehicle_type_id":"4","last_reported":1770412835,"current_range_meters":4800,"station_id":"ce4bgi92rcd13ifvqb90","pricing_plan_id":"cebpf4jnsgd1na2vs0mg"},{"bike_id":"63b5e7ff-784a-44cb-b53d-dd43a84f5930","system_id":"levelo_inurba_marseille","lat":43.24165,"lon":5.36395,"is_reserved":false,"is_disabled":false,"rental_uris":{"android":"levelo://app?vid=63b5e7ff-784a-44cb-b53d-dd43a84f5930","ios":"levelo://app?vid=63b5e7ff-784a-44cb-b53d-dd43a84f5930"},"vehicle_type_id":"4","last_reported":1770412835,"current_range_meters":4800,"station_id":"cpo36qri1sfpv3e86is0","pricing_plan_id":"cebpf4jnsgd1na2vs0mg"},{"bike_id":"736bddce-2a84-45e5-b4c6-08b82f4f0da3","system_id":"levelo_inurba_marseille","lat":43.2746,"lon":5.36258,"is_reserved":false,"is_disabled":false,"rental_uris":{"android":"levelo://app?vid=736bddce-2a84-45e5-b4c6-08b82f4f0da3","ios":"levelo://app?vid=736bddce-2a84-45e5-b4c6-08b82f4f0da3"},"vehicle_type_id":"4","last_reported":1770412835,"current_range_meters":4800,"station_id":"","pricing_plan_id":"cebpf4jnsgd1na2vs0mg"},{"bike_id":"0c0204e9-2e2c-4854-9498-c261c0135345","system_id":"levelo_inurba_marseille","lat":43.237842,"lon":5.366296,"is_reserved":false,"is_disabled":false,"rental_uris":{"android":"levelo://app?vid=0c0204e9-2e2c-4854-9498-c261c0135345","ios":"levelo://app?vid=0c0204e9-2e2c-4854-9498-c261c0135345"},"vehicle_type_id":"4","last_reported":1770412835,"current_range_meters":4800,"station_id":"st_d3nk18o9ro0c73en2l3g","pricing_plan_id":"cebpf4jnsgd1na2vs0mg"},{"bike_id":"90cd76a0-f0c8-4656-96c3-d2c3284c85e6","system_id":"levelo_inurba_marseille","lat":43.28275,"lon":5.35069,"is_reserved":false,"is_disabled":false,"rental_uris":{"android":"levelo://app?vid=90cd76a0-f0c8-4656-96c3-d2c3284c85e6","ios":"levelo://app?vid=90cd76a0-f0c8-4656-96c3-d2c3284c85e6"},"vehicle_type_id":"4","last_reported":1770412835,"current_range_meters":4800,"station_id":"ce4bhbp2rcd13ifvqerg","pricing_plan_id":"cebpf4jnsgd1na2vs0mg"},{"bike_id":"0388f24a-b566-45b1-a38a-12fb5d338f89","system_id":"levelo_inurba_marseille","lat":43.31652,"lon":5.37647,"is_reserved":false,"is_disabled":false,"rental_uris":{"android":"levelo://app?vid=0388f24a-b566-45b1-a38a-12fb5d338f89","ios":"levelo://app?vid=0388f24a-b566-45b1-a38a-12fb5d338f89"},"vehicle_type_id":"4","last_reported":1770412835,"current_range_meters":4800,"station_id":"","pricing_plan_id":"cebpf4jnsgd1na2vs0mg"},{"bike_id":"8a2fb3f4-45c6-41a8-be01-425c40a513b5","system_id":"levelo_inurba_marseille","lat":43.29566,"lon":5.42236,"is_reserved":false,"is_disabled":false,"rental_uris":{"android":"levelo://app?vid=8a2fb3f4-45c6-41a8-be01-425c40a513b5","ios":"levelo://app?vid=8a2fb3f4-45c6-41a8-be01-425c40a513b5"},"vehicle_type_id":"4","last_reported":1770412835,"current_range_meters":4800,"station_id":"ce4bhph2rcd13ifvqhdg","pricing_plan_id":"cebpf4jnsgd1na2vs0mg"},{"bike_id":"7ab4535d-5cb4-4f73-9e49-e92eb0bbef84","system_id":"levelo_inurba_marseille","lat":43.26194,"lon":5.3793,"is_reserved":false,"is_disabled":false,"rental_uris":{"android":"levelo://app?vid=7ab4535d-5cb4-4f73-9e49-e92eb0bbef84","ios":"levelo://app?vid=7ab4535d-5cb4-4f73-9e49-e92eb0bbef84"},"vehicle_type_id":"4","last_reported":1770412835,"current_range_meters":4800,"station_id":"ce4bhjp2rcd13ifvqg90","pricing_plan_id":"cebpf4jnsgd1na2vs0mg"},{"bike_id":"a4af35bc-e5ca-4dd3-97ba-66bed845e7aa","system_id":"levelo_inurba_marseille","lat":43.27942,"lon":5.41058,"is_reserved":false,"is_disabled":false,"rental_uris":{"android":"levelo://app?vid=a4af35bc-e5ca-4dd3-97ba-66bed845e7aa","ios":"levelo://app?vid=a4af35bc-e5ca-4dd3-97ba-66bed845e7aa"},"vehicle_type_id":"4","last_reported":1770412835,"current_range_meters":4800,"station_id":"ce4bhnp2rcd13ifvqh0g","pricing_plan_id":"cebpf4jnsgd1na2vs0mg"},{"bike_id":"375e9bcb-b945-4768-82d3-b05471dcf5fd","system_id":"levelo_inurba_marseille","lat":43.28932,"lon":5.46038,"is_reserved":false,"is_disabled":false,"rental_uris":{"android":"levelo://app?vid=375e9bcb-b945-4768-82d3-b05471dcf5fd","ios":"levelo://app?vid=375e9bcb-b945-4768-82d3-b05471dcf5fd"},"vehicle_type_id":"4","last_reported":1770412835,"current_range_meters":5600,"station_id":"","pricing_plan_id":"cebpf4jnsgd1na2vs0mg"},{"bike_id":"86ef6d29-a1ae-4ad3-85ee-72ede19038e6","system_id":"levelo_inurba_marseille","lat":43.32124,"lon":5.36764,"is_reserved":false,"is_disabled":false,"rental_uris":{"android":"levelo://app?vid=86ef6d29-a1ae-4ad3-85ee-72ede19038e6","ios":"levelo://app?vid=86ef6d29-a1ae-4ad3-85ee-72ede19038e6"},"vehicle_type_id":"4","last_reported":1770412835,"current_range_meters":5600,"station_id":"ce4bhrh2rcd13ifvqhug","pricing_plan_id":"cebpf4jnsgd1na2vs0mg"},{"bike_id":"ef79007e-ef6d-4e7f-a3ae-3ed5ead69e87","system_id":"levelo_inurba_marseille","lat":43.23196,"lon":5.35547,"is_reserved":false,"is_disabled":false,"rental_uris":{"android":"levelo://app?vid=ef79007e-ef6d-4e7f-a3ae-3ed5ead69e87","ios":"levelo://app?vid=ef79007e-ef6d-4e7f-a3ae-3ed5ead69e87"},"vehicle_type_id":"4","last_reported":1770412835,"current_range_meters":5600,"station_id":"ce4bhu92rcd13ifvqi70","pricing_plan_id":"cebpf4jnsgd1na2vs0mg"},{"bike_id":"03ad2331-9143-4c56-8562-0bbdd2eecb49","system_id":"levelo_inurba_marseille","lat":43.295176,"lon":5.390399,"is_reserved":false,"is_disabled":false,"rental_uris":{"android":"levelo://app?vid=03ad2331-9143-4c56-8562-0bbdd2eecb49","ios":"levelo://app?vid=03ad2331-9143-4c56-8562-0bbdd2eecb49"},"vehicle_type_id":"4","last_reported":1770412835,"current_range_meters":5600,"station_id":"ce4bh3p2rcd13ifvqdp0","pricing_plan_id":"cebpf4jnsgd1na2vs0mg"},{"bike_id":"944ec6d6-4ee4-45bb-bf66-f3eedeae4800","system_id":"levelo_inurba_marseille","lat":43.30951,"lon":5.39041,"is_reserved":false,"is_disabled":false,"rental_uris":{"android":"levelo://app?vid=944ec6d6-4ee4-45bb-bf66-f3eedeae4800","ios":"levelo://app?vid=944ec6d6-4ee4-45bb-bf66-f3eedeae4800"},"vehicle_type_id":"4","last_reported":1770412835,"current_range_meters":5600,"station_id":"ce4bgup2rcd13ifvqco0","pricing_plan_id":"cebpf4jnsgd1na2vs0mg"},{"bike_id":"733f0ff5-75ca-4c77-bbb2-e43b4255c9f8","system_id":"levelo_inurba_marseille","lat":43.29281,"lon":5.38456,"is_reserved":false,"is_disabled":false,"rental_uris":{"android":"levelo://app?vid=733f0ff5-75ca-4c77-bbb2-e43b4255c9f8","ios":"levelo://app?vid=733f0ff5-75ca-4c77-bbb2-e43b4255c9f8"},"vehicle_type_id":"4","last_reported":1770412835,"current_range_meters":5600,"station_id":"ce4bh692rcd13ifvqea0","pricing_plan_id":"cebpf4jnsgd1na2vs0mg"},{"bike_id":"43842308-576b-40b5-8bc8-a2001316ecde","system_id":"levelo_inurba_marseille","lat":43.32369,"lon":5.38882,"is_reserved":false,"is_disabled":false,"rental_uris":{"android":"levelo://app?vid=43842308-576b-40b5-8bc8-a2001316ecde","ios":"levelo://app?vid=43842308-576b-40b5-8bc8-a2001316ecde"},"vehicle_type_id":"4","last_reported":1770412835,"current_range_meters":5600,"station_id":"ce4bhqp2rcd13ifvqhog","pricing_plan_id":"cebpf4jnsgd1na2vs0mg"},{"bike_id":"7f2cf31b-bee8-4ec3-bf91-98a412e4dab9","system_id":"levelo_inurba_marseille","lat":43.21749,"lon":5.34598,"is_reserved":false,"is_disabled":true,"rental_uris":{"android":"levelo://app?vid=7f2cf31b-bee8-4ec3-bf91-98a412e4dab9","ios":"levelo://app?vid=7f2cf31b-bee8-4ec3-bf91-98a412e4dab9"},"vehicle_type_id":"4","last_reported":1770412835,"current_range_meters":5600,"station_id":"st_cvj6r9ubvosntc0bgbag","pricing_plan_id":"cebpf4jnsgd1na2vs0mg"},{"bike_id":"90e59ac1-cd46-446b-b3a8-2b22481380d2","system_id":"levelo_inurba_marseille","lat":43.30887,"lon":5.37193,"is_reserved":false,"is_disabled":false,"rental_uris":{"android":"levelo://app?vid=90e59ac1-cd46-446b-b3a8-2b22481380d2","ios":"levelo://app?vid=90e59ac1-cd46-446b-b3a8-2b22481380d2"},"vehicle_type_id":"4","last_reported":1770412835,"current_range_meters":5600,"station_id":"ce4bguh2rcd13ifvqckg","pricing_plan_id":"cebpf4jnsgd1na2vs0mg"},{"bike_id":"09c36349-b12b-484c-ae19-34794876a083","system_id":"levelo_inurba_marseille","lat":43.31062,"lon":5.3835,"is_reserved":false,"is_disabled":false,"rental_uris":{"android":"levelo://app?vid=09c36349-b12b-484c-ae19-34794876a083","ios":"levelo://app?vid=09c36349-b12b-484c-ae19-34794876a083"},"vehicle_type_id":"4","last_reported":1770412835,"current_range_meters":5600,"station_id":"ce4bgv92rcd13ifvqcr0","pricing_plan_id":"cebpf4jnsgd1na2vs0mg"},{"bike_id":"2d9b7179-82a1-455c-ab4a-7bba1fb285af","system_id":"levelo_inurba_marseille","lat":43.29829,"lon":5.38084,"is_reserved":false,"is_disabled":false,"rental_uris":{"android":"levelo://app?vid=2d9b7179-82a1-455c-ab4a-7bba1fb285af","ios":"levelo://app?vid=2d9b7179-82a1-455c-ab4a-7bba1fb285af"},"vehicle_type_id":"4","last_reported":1770412835,"current_range_meters":5600,"station_id":"ce4bgip2rcd13ifvqbb0","pricing_plan_id":"cebpf4jnsgd1na2vs0mg"},{"bike_id":"08be3812-5c31-4acf-8996-1e4f7b36a6d6","system_id":"levelo_inurba_marseille","lat":43.24458,"lon":5.42545,"is_reserved":false,"is_disabled":false,"rental_uris":{"android":"levelo://app?vid=08be3812-5c31-4acf-8996-1e4f7b36a6d6","ios":"levelo://app?vid=08be3812-5c31-4acf-8996-1e4f7b36a6d6"},"vehicle_type_id":"4","last_reported":1770412835,"current_range_meters":5600,"station_id":"st_d4a3vfp97mjs738cd8kg","pricing_plan_id":"cebpf4jnsgd1na2vs0mg"},{"bike_id":"578e58a8-1e56-47a1-a322-e983c6778cb9","system_id":"levelo_inurba_marseille","lat":43.23789,"lon":5.36645,"is_reserved":false,"is_disabled":false,"rental_uris":{"android":"levelo://app?vid=578e58a8-1e56-47a1-a322-e983c6778cb9","ios":"levelo://app?vid=578e58a8-1e56-47a1-a322-e983c6778cb9"},"vehicle_type_id":"4","last_reported":1770412835,"current_range_meters":6000,"station_id":"st_d3nk18o9ro0c73en2l3g","pricing_plan_id":"cebpf4jnsgd1na2vs0mg"},{"bike_id":"b8d5c126-a49f-42bb-a06b-73e5424e7351","system_id":"levelo_inurba_marseille","lat":43.33153,"lon":5.37696,"is_reserved":false,"is_disabled":false,"rental_uris":{"android":"levelo://app?vid=b8d5c126-a49f-42bb-a06b-73e5424e7351","ios":"levelo://app?vid=b8d5c126-a49f-42bb-a06b-73e5424e7351"},"vehicle_type_id":"4","last_reported":1770412835,"current_range_meters":6000,"station_id":"st_d46cu089ee8s73dldbu0","pricing_plan_id":"cebpf4jnsgd1na2vs0mg"},{"bike_id":"8b3683af-7da9-4ef2-b4f6-c3e28584ec58","system_id":"levelo_inurba_marseille","lat":43.24954,"lon":5.40489,"is_reserved":false,"is_disabled":false,"rental_uris":{"android":"levelo://app?vid=8b3683af-7da9-4ef2-b4f6-c3e28584ec58","ios":"levelo://app?vid=8b3683af-7da9-4ef2-b4f6-c3e28584ec58"},"vehicle_type_id":"4","last_reported":1770412835,"current_range_meters":6000,"station_id":"st_d2ngiaodas8pm72gd1h0","pricing_plan_id":"cebpf4jnsgd1na2vs0mg"},{"bike_id":"d1637f9c-b515-44be-9270-b91684a11fd5","system_id":"levelo_inurba_marseille","lat":43.23406,"lon":5.41206,"is_reserved":false,"is_disabled":false,"rental_uris":{"android":"levelo://app?vid=d1637f9c-b515-44be-9270-b91684a11fd5","ios":"levelo://app?vid=d1637f9c-b515-44be-9270-b91684a11fd5"},"vehicle_type_id":"4","last_reported":1770412835,"current_range_meters":6000,"station_id":"","pricing_plan_id":"cebpf4jnsgd1na2vs0mg"},{"bike_id":"bce96462-befb-44b2-ae24-720764ad6438","system_id":"levelo_inurba_marseille","lat":43.27866,"lon":5.38795,"is_reserved":false,"is_disabled":false,"rental_uris":{"android":"levelo://app?vid=bce96462-befb-44b2-ae24-720764ad6438","ios":"levelo://app?vid=bce96462-befb-44b2-ae24-720764ad6438"},"vehicle_type_id":"4","last_reported":1770412835,"current_range_meters":6000,"station_id":"","pricing_plan_id":"cebpf4jnsgd1na2vs0mg"},{"bike_id":"ea394ce4-561e-40c3-b5d8-13958e8a40d6","system_id":"levelo_inurba_marseille","lat":43.23186,"lon":5.35546,"is_reserved":false,"is_disabled":false,"rental_uris":{"android":"levelo://app?vid=ea394ce4-561e-40c3-b5d8-13958e8a40d6","ios":"levelo://app?vid=ea394ce4-561e-40c3-b5d8-13958e8a40d6"},"vehicle_type_id":"4","last_reported":1770412835,"current_range_meters":6000,"station_id":"ce4bhu92rcd13ifvqi70","pricing_plan_id":"cebpf4jnsgd1na2vs0mg"},{"bike_id":"d627a960-91ca-451b-b509-093f6af736dc","system_id":"levelo_inurba_marseille","lat":43.29614,"lon":5.38106,"is_reserved":false,"is_disabled":false,"rental_uris":{"android":"levelo://app?vid=d627a960-91ca-451b-b509-093f6af736dc","ios":"levelo://app?vid=d627a960-91ca-451b-b509-093f6af736dc"},"vehicle_type_id":"4","last_reported":1770412835,"current_range_meters":6000,"station_id":"ce4bgl12rcd13ifvqbo0","pricing_plan_id":"cebpf4jnsgd1na2vs0mg"},{"bike_id":"8a8b8e72-9951-490e-8aaa-3c1625d2978c","system_id":"levelo_inurba_marseille","lat":43.28392,"lon":5.34986,"is_reserved":false,"is_disabled":false,"rental_uris":{"android":"levelo://app?vid=8a8b8e72-9951-490e-8aaa-3c1625d2978c","ios":"levelo://app?vid=8a8b8e72-9951-490e-8aaa-3c1625d2978c"},"vehicle_type_id":"4","last_reported":1770412835,"current_range_meters":6000,"station_id":"ce4bhbh2rcd13ifvqepg","pricing_plan_id":"cebpf4jnsgd1na2vs0mg"},{"bike_id":"661e5608-6549-4720-a5e8-0e1eeb33e31d","system_id":"levelo_inurba_marseille","lat":43.27935,"lon":5.41033,"is_reserved":false,"is_disabled":false,"rental_uris":{"android":"levelo://app?vid=661e5608-6549-4720-a5e8-0e1eeb33e31d","ios":"levelo://app?vid=661e5608-6549-4720-a5e8-0e1eeb33e31d"},"vehicle_type_id":"4","last_reported":1770412835,"current_range_meters":6000,"station_id":"ce4bhnp2rcd13ifvqh0g","pricing_plan_id":"cebpf4jnsgd1na2vs0mg"},{"bike_id":"c22aeab0-6fd6-45fa-976b-23e2284b59fd","system_id":"levelo_inurba_marseille","lat":43.29258,"lon":5.38441,"is_reserved":false,"is_disabled":false,"rental_uris":{"android":"levelo://app?vid=c22aeab0-6fd6-45fa-976b-23e2284b59fd","ios":"levelo://app?vid=c22aeab0-6fd6-45fa-976b-23e2284b59fd"},"vehicle_type_id":"4","last_reported":1770412835,"current_range_meters":6000,"station_id":"ce4bh692rcd13ifvqea0","pricing_plan_id":"cebpf4jnsgd1na2vs0mg"},{"bike_id":"36af6b9c-3b6f-432b-8541-51b5e2f4a92f","system_id":"levelo_inurba_marseille","lat":43.25006,"lon":5.38916,"is_reserved":false,"is_disabled":false,"rental_uris":{"android":"levelo://app?vid=36af6b9c-3b6f-432b-8541-51b5e2f4a92f","ios":"levelo://app?vid=36af6b9c-3b6f-432b-8541-51b5e2f4a92f"},"vehicle_type_id":"4","last_reported":1770412835,"current_range_meters":6000,"station_id":"ce4bhgp2rcd13ifvqfd0","pricing_plan_id":"cebpf4jnsgd1na2vs0mg"},{"bike_id":"cfb0f8ad-442e-4eff-bc90-f432785c4f4d","system_id":"levelo_inurba_marseille","lat":43.30456,"lon":5.37901,"is_reserved":false,"is_disabled":false,"rental_uris":{"android":"levelo://app?vid=cfb0f8ad-442e-4eff-bc90-f432785c4f4d","ios":"levelo://app?vid=cfb0f8ad-442e-4eff-bc90-f432785c4f4d"},"vehicle_type_id":"4","last_reported":1770412835,"current_range_meters":6000,"station_id":"ce4bgup2rcd13ifvqcn0","pricing_plan_id":"cebpf4jnsgd1na2vs0mg"},{"bike_id":"15250344-db40-4db8-b0c9-19733389e808","system_id":"levelo_inurba_marseille","lat":43.27376,"lon":5.36258,"is_reserved":false,"is_disabled":false,"rental_uris":{"android":"levelo://app?vid=15250344-db40-4db8-b0c9-19733389e808","ios":"levelo://app?vid=15250344-db40-4db8-b0c9-19733389e808"},"vehicle_type_id":"4","last_reported":1770412835,"current_range_meters":6000,"station_id":"ce4bhbh2rcd13ifvqeo0","pricing_plan_id":"cebpf4jnsgd1na2vs0mg"},{"bike_id":"3b986d99-7b42-471f-993a-11fde28f3c51","system_id":"levelo_inurba_marseille","lat":43.2259,"lon":5.41636,"is_reserved":false,"is_disabled":false,"rental_uris":{"android":"levelo://app?vid=3b986d99-7b42-471f-993a-11fde28f3c51","ios":"levelo://app?vid=3b986d99-7b42-471f-993a-11fde28f3c51"},"vehicle_type_id":"4","last_reported":1770412835,"current_range_meters":6000,"station_id":"st_d2o4gvlbi1j2169b742g","pricing_plan_id":"cebpf4jnsgd1na2vs0mg"},{"bike_id":"735c03e4-d6e6-49f6-81ba-72ebbef9fba5","system_id":"levelo_inurba_marseille","lat":43.25111,"lon":5.39546,"is_reserved":false,"is_disabled":false,"rental_uris":{"android":"levelo://app?vid=735c03e4-d6e6-49f6-81ba-72ebbef9fba5","ios":"levelo://app?vid=735c03e4-d6e6-49f6-81ba-72ebbef9fba5"},"vehicle_type_id":"4","last_reported":1770412835,"current_range_meters":6000,"station_id":"ce4bhm12rcd13ifvqgkg","pricing_plan_id":"cebpf4jnsgd1na2vs0mg"},{"bike_id":"2b358923-c030-4481-a0eb-830aa62ff249","system_id":"levelo_inurba_marseille","lat":43.27417,"lon":5.36286,"is_reserved":false,"is_disabled":false,"rental_uris":{"android":"levelo://app?vid=2b358923-c030-4481-a0eb-830aa62ff249","ios":"levelo://app?vid=2b358923-c030-4481-a0eb-830aa62ff249"},"vehicle_type_id":"4","last_reported":1770412835,"current_range_meters":6000,"station_id":"","pricing_plan_id":"cebpf4jnsgd1na2vs0mg"},{"bike_id":"74dace34-f997-4fcd-b973-fa7a05c53db5","system_id":"levelo_inurba_marseille","lat":43.30309,"lon":5.39194,"is_reserved":false,"is_disabled":false,"rental_uris":{"android":"levelo://app?vid=74dace34-f997-4fcd-b973-fa7a05c53db5","ios":"levelo://app?vid=74dace34-f997-4fcd-b973-fa7a05c53db5"},"vehicle_type_id":"4","last_reported":1770412835,"current_range_meters":6000,"station_id":"ce4bgkh2rcd13ifvqbk0","pricing_plan_id":"cebpf4jnsgd1na2vs0mg"},{"bike_id":"5ae8da2d-db70-4fc6-9f58-284cdc73c50c","system_id":"levelo_inurba_marseille","lat":43.31178,"lon":5.38703,"is_reserved":false,"is_disabled":false,"rental_uris":{"android":"levelo://app?vid=5ae8da2d-db70-4fc6-9f58-284cdc73c50c","ios":"levelo://app?vid=5ae8da2d-db70-4fc6-9f58-284cdc73c50c"},"vehicle_type_id":"4","last_reported":1770412835,"current_range_meters":6000,"station_id":"ce4bgv12rcd13ifvqcp0","pricing_plan_id":"cebpf4jnsgd1na2vs0mg"},{"bike_id":"6ea399dc-5917-4833-9a9c-0c6527aa49fe","system_id":"levelo_inurba_marseille","lat":43.28288,"lon":5.35095,"is_reserved":false,"is_disabled":false,"rental_uris":{"android":"levelo://app?vid=6ea399dc-5917-4833-9a9c-0c6527aa49fe","ios":"levelo://app?vid=6ea399dc-5917-4833-9a9c-0c6527aa49fe"},"vehicle_type_id":"4","last_reported":1770412835,"current_range_meters":6000,"station_id":"ce4bhbp2rcd13ifvqerg","pricing_plan_id":"cebpf4jnsgd1na2vs0mg"},{"bike_id":"31187af9-c44b-44b9-86e6-81ceb0eb435c","system_id":"levelo_inurba_marseille","lat":43.27071,"lon":5.42282,"is_reserved":false,"is_disabled":false,"rental_uris":{"android":"levelo://app?vid=31187af9-c44b-44b9-86e6-81ceb0eb435c","ios":"levelo://app?vid=31187af9-c44b-44b9-86e6-81ceb0eb435c"},"vehicle_type_id":"4","last_reported":1770412835,"current_range_meters":6000,"station_id":"ce4bhk92rcd13ifvqgb0","pricing_plan_id":"cebpf4jnsgd1na2vs0mg"},{"bike_id":"ea97a2a4-cc5a-4d7f-bf38-8e94f201d189","system_id":"levelo_inurba_marseille","lat":43.28471,"lon":5.4839,"is_reserved":false,"is_disabled":false,"rental_uris":{"android":"levelo://app?vid=ea97a2a4-cc5a-4d7f-bf38-8e94f201d189","ios":"levelo://app?vid=ea97a2a4-cc5a-4d7f-bf38-8e94f201d189"},"vehicle_type_id":"4","last_reported":1770412835,"current_range_meters":6000,"station_id":"","pricing_plan_id":"cebpf4jnsgd1na2vs0mg"},{"bike_id":"5dea93d7-2b00-4423-81b5-9e768d42cacb","system_id":"levelo_inurba_marseille","lat":43.29027,"lon":5.38631,"is_reserved":false,"is_disabled":true,"rental_uris":{"android":"levelo://app?vid=5dea93d7-2b00-4423-81b5-9e768d42cacb","ios":"levelo://app?vid=5dea93d7-2b00-4423-81b5-9e768d42cacb"},"vehicle_type_id":"4","last_reported":1770412835,"current_range_meters":6400,"station_id":"ce4bh4p2rcd13ifvqe0g","pricing_plan_id":"cebpf4jnsgd1na2vs0mg"},{"bike_id":"7ad5b625-433d-40d1-85a2-020d0fac3afe","system_id":"levelo_inurba_marseille","lat":43.2989,"lon":5.37573,"is_reserved":false,"is_disabled":false,"rental_uris":{"android":"levelo://app?vid=7ad5b625-433d-40d1-85a2-020d0fac3afe","ios":"levelo://app?vid=7ad5b625-433d-40d1-85a2-020d0fac3afe"},"vehicle_type_id":"4","last_reported":1770412835,"current_range_meters":6400,"station_id":"","pricing_plan_id":"cebpf4jnsgd1na2vs0mg"},{"bike_id":"978d4176-ee2f-4cac-b739-e147a27c26bd","system_id":"levelo_inurba_marseille","lat":43.29194,"lon":5.37153,"is_reserved":false,"is_disabled":false,"rental_uris":{"android":"levelo://app?vid=978d4176-ee2f-4cac-b739-e147a27c26bd","ios":"levelo://app?vid=978d4176-ee2f-4cac-b739-e147a27c26bd"},"vehicle_type_id":"4","last_reported":1770412835,"current_range_meters":6400,"station_id":"ce4bha92rcd13ifvqeh0","pricing_plan_id":"cebpf4jnsgd1na2vs0mg"},{"bike_id":"58d16e10-99ba-424c-8d7d-f247b1c47cde","system_id":"levelo_inurba_marseille","lat":43.289703,"lon":5.383656,"is_reserved":false,"is_disabled":false,"rental_uris":{"android":"levelo://app?vid=58d16e10-99ba-424c-8d7d-f247b1c47cde","ios":"levelo://app?vid=58d16e10-99ba-424c-8d7d-f247b1c47cde"},"vehicle_type_id":"4","last_reported":1770412835,"current_range_meters":6400,"station_id":"","pricing_plan_id":"cebpf4jnsgd1na2vs0mg"},{"bike_id":"66d4f07c-f956-4ddd-856d-10dc3144e894","system_id":"levelo_inurba_marseille","lat":43.30548,"lon":5.3672,"is_reserved":false,"is_disabled":false,"rental_uris":{"android":"levelo://app?vid=66d4f07c-f956-4ddd-856d-10dc3144e894","ios":"levelo://app?vid=66d4f07c-f956-4ddd-856d-10dc3144e894"},"vehicle_type_id":"4","last_reported":1770412835,"current_range_meters":6400,"station_id":"ce4bgrp2rcd13ifvqc9g","pricing_plan_id":"cebpf4jnsgd1na2vs0mg"},{"bike_id":"a40d376e-c736-4001-bfd5-03a82bfa1617","system_id":"levelo_inurba_marseille","lat":43.29596,"lon":5.38602,"is_reserved":false,"is_disabled":false,"rental_uris":{"android":"levelo://app?vid=a40d376e-c736-4001-bfd5-03a82bfa1617","ios":"levelo://app?vid=a40d376e-c736-4001-bfd5-03a82bfa1617"},"vehicle_type_id":"4","last_reported":1770412835,"current_range_meters":6400,"station_id":"","pricing_plan_id":"cebpf4jnsgd1na2vs0mg"},{"bike_id":"ef9a7355-ad35-46aa-a6cb-010fac317fd1","system_id":"levelo_inurba_marseille","lat":43.29313,"lon":5.37405,"is_reserved":false,"is_disabled":false,"rental_uris":{"android":"levelo://app?vid=ef9a7355-ad35-46aa-a6cb-010fac317fd1","ios":"levelo://app?vid=ef9a7355-ad35-46aa-a6cb-010fac317fd1"},"vehicle_type_id":"4","last_reported":1770412835,"current_range_meters":6400,"station_id":"ce4bgi12rcd13ifvqb70","pricing_plan_id":"cebpf4jnsgd1na2vs0mg"},{"bike_id":"dcd75408-c48b-4237-a119-d8fde1503eb2","system_id":"levelo_inurba_marseille","lat":43.29652,"lon":5.38097,"is_reserved":false,"is_disabled":false,"rental_uris":{"android":"levelo://app?vid=dcd75408-c48b-4237-a119-d8fde1503eb2","ios":"levelo://app?vid=dcd75408-c48b-4237-a119-d8fde1503eb2"},"vehicle_type_id":"4","last_reported":1770412835,"current_range_meters":6400,"station_id":"","pricing_plan_id":"cebpf4jnsgd1na2vs0mg"},{"bike_id":"ebe4c918-bcd1-4dee-9908-e004270eea08","system_id":"levelo_inurba_marseille","lat":43.2926,"lon":5.38442,"is_reserved":false,"is_disabled":false,"rental_uris":{"android":"levelo://app?vid=ebe4c918-bcd1-4dee-9908-e004270eea08","ios":"levelo://app?vid=ebe4c918-bcd1-4dee-9908-e004270eea08"},"vehicle_type_id":"4","last_reported":1770412835,"current_range_meters":6400,"station_id":"ce4bh692rcd13ifvqea0","pricing_plan_id":"cebpf4jnsgd1na2vs0mg"},{"bike_id":"88de999f-78fd-498c-86b8-c0b83e9a1087","system_id":"levelo_inurba_marseille","lat":43.25923,"lon":5.40851,"is_reserved":false,"is_disabled":false,"rental_uris":{"android":"levelo://app?vid=88de999f-78fd-498c-86b8-c0b83e9a1087","ios":"levelo://app?vid=88de999f-78fd-498c-86b8-c0b83e9a1087"},"vehicle_type_id":"4","last_reported":1770412835,"current_range_meters":6400,"station_id":"ce4bhm92rcd13ifvqglg","pricing_plan_id":"cebpf4jnsgd1na2vs0mg"},{"bike_id":"17e35f94-3fec-45dd-96a9-f18976bedc1b","system_id":"levelo_inurba_marseille","lat":43.27952,"lon":5.41046,"is_reserved":false,"is_disabled":false,"rental_uris":{"android":"levelo://app?vid=17e35f94-3fec-45dd-96a9-f18976bedc1b","ios":"levelo://app?vid=17e35f94-3fec-45dd-96a9-f18976bedc1b"},"vehicle_type_id":"4","last_reported":1770412835,"current_range_meters":6400,"station_id":"ce4bhnp2rcd13ifvqh0g","pricing_plan_id":"cebpf4jnsgd1na2vs0mg"},{"bike_id":"3e9c0ff4-4bc1-4238-a44c-527a602bb7d9","system_id":"levelo_inurba_marseille","lat":43.31274,"lon":5.40167,"is_reserved":false,"is_disabled":false,"rental_uris":{"android":"levelo://app?vid=3e9c0ff4-4bc1-4238-a44c-527a602bb7d9","ios":"levelo://app?vid=3e9c0ff4-4bc1-4238-a44c-527a602bb7d9"},"vehicle_type_id":"4","last_reported":1770412835,"current_range_meters":6400,"station_id":"ce4bh092rcd13ifvqd30","pricing_plan_id":"cebpf4jnsgd1na2vs0mg"},{"bike_id":"e92c52a2-6b35-4ea9-9829-1eb9501c85fc","system_id":"levelo_inurba_marseille","lat":43.31161,"lon":5.3938,"is_reserved":false,"is_disabled":false,"rental_uris":{"android":"levelo://app?vid=e92c52a2-6b35-4ea9-9829-1eb9501c85fc","ios":"levelo://app?vid=e92c52a2-6b35-4ea9-9829-1eb9501c85fc"},"vehicle_type_id":"4","last_reported":1770412835,"current_range_meters":6400,"station_id":"","pricing_plan_id":"cebpf4jnsgd1na2vs0mg"},{"bike_id":"968a1130-5ab4-497c-b27f-cb61b0d6cd96","system_id":"levelo_inurba_marseille","lat":43.30233,"lon":5.37714,"is_reserved":false,"is_disabled":false,"rental_uris":{"android":"levelo://app?vid=968a1130-5ab4-497c-b27f-cb61b0d6cd96","ios":"levelo://app?vid=968a1130-5ab4-497c-b27f-cb61b0d6cd96"},"vehicle_type_id":"4","last_reported":1770412835,"current_range_meters":6400,"station_id":"","pricing_plan_id":"cebpf4jnsgd1na2vs0mg"},{"bike_id":"7fe289d7-a40a-48e6-b71a-ee8c544f0123","system_id":"levelo_inurba_marseille","lat":43.26214,"lon":5.37905,"is_reserved":false,"is_disabled":false,"rental_uris":{"android":"levelo://app?vid=7fe289d7-a40a-48e6-b71a-ee8c544f0123","ios":"levelo://app?vid=7fe289d7-a40a-48e6-b71a-ee8c544f0123"},"vehicle_type_id":"4","last_reported":1770412835,"current_range_meters":6400,"station_id":"ce4bhjp2rcd13ifvqg90","pricing_plan_id":"cebpf4jnsgd1na2vs0mg"},{"bike_id":"97521852-9842-40a3-9473-b3511e283cce","system_id":"levelo_inurba_marseille","lat":43.27204,"lon":5.39159,"is_reserved":false,"is_disabled":false,"rental_uris":{"android":"levelo://app?vid=97521852-9842-40a3-9473-b3511e283cce","ios":"levelo://app?vid=97521852-9842-40a3-9473-b3511e283cce"},"vehicle_type_id":"4","last_reported":1770412835,"current_range_meters":6800,"station_id":"ce4bhhp2rcd13ifvqfm0","pricing_plan_id":"cebpf4jnsgd1na2vs0mg"},{"bike_id":"1a0bce21-6c8f-4aea-aa73-fc78a15d533d","system_id":"levelo_inurba_marseille","lat":43.295217,"lon":5.385353,"is_reserved":false,"is_disabled":false,"rental_uris":{"android":"levelo://app?vid=1a0bce21-6c8f-4aea-aa73-fc78a15d533d","ios":"levelo://app?vid=1a0bce21-6c8f-4aea-aa73-fc78a15d533d"},"vehicle_type_id":"4","last_reported":1770412835,"current_range_meters":6800,"station_id":"ce4bgih2rcd13ifvqba0","pricing_plan_id":"cebpf4jnsgd1na2vs0mg"},{"bike_id":"1dd6f4de-6a4a-4fa1-b038-a756a6cbac96","system_id":"levelo_inurba_marseille","lat":43.2318,"lon":5.35536,"is_reserved":false,"is_disabled":false,"rental_uris":{"android":"levelo://app?vid=1dd6f4de-6a4a-4fa1-b038-a756a6cbac96","ios":"levelo://app?vid=1dd6f4de-6a4a-4fa1-b038-a756a6cbac96"},"vehicle_type_id":"4","last_reported":1770412835,"current_range_meters":6800,"station_id":"ce4bhu92rcd13ifvqi70","pricing_plan_id":"cebpf4jnsgd1na2vs0mg"},{"bike_id":"379685d2-9e90-4f9b-bb24-a80a4545550e","system_id":"levelo_inurba_marseille","lat":43.29794,"lon":5.44146,"is_reserved":false,"is_disabled":false,"rental_uris":{"android":"levelo://app?vid=379685d2-9e90-4f9b-bb24-a80a4545550e","ios":"levelo://app?vid=379685d2-9e90-4f9b-bb24-a80a4545550e"},"vehicle_type_id":"4","last_reported":1770412835,"current_range_meters":6800,"station_id":"","pricing_plan_id":"cebpf4jnsgd1na2vs0mg"},{"bike_id":"05f87d83-24ff-447d-a611-6a5a7ced0ca3","system_id":"levelo_inurba_marseille","lat":43.28614,"lon":5.35103,"is_reserved":false,"is_disabled":false,"rental_uris":{"android":"levelo://app?vid=05f87d83-24ff-447d-a611-6a5a7ced0ca3","ios":"levelo://app?vid=05f87d83-24ff-447d-a611-6a5a7ced0ca3"},"vehicle_type_id":"4","last_reported":1770412835,"current_range_meters":6800,"station_id":"ce4bhch2rcd13ifvqeug","pricing_plan_id":"cebpf4jnsgd1na2vs0mg"},{"bike_id":"e40c6df9-93ca-4ce0-8ead-cbd393e4ffd7","system_id":"levelo_inurba_marseille","lat":43.29635,"lon":5.3774,"is_reserved":false,"is_disabled":false,"rental_uris":{"android":"levelo://app?vid=e40c6df9-93ca-4ce0-8ead-cbd393e4ffd7","ios":"levelo://app?vid=e40c6df9-93ca-4ce0-8ead-cbd393e4ffd7"},"vehicle_type_id":"4","last_reported":1770412835,"current_range_meters":6800,"station_id":"ce4bgi92rcd13ifvqb90","pricing_plan_id":"cebpf4jnsgd1na2vs0mg"},{"bike_id":"4022598c-6605-421d-929f-d80b4ad79dcf","system_id":"levelo_inurba_marseille","lat":43.24682,"lon":5.38165,"is_reserved":false,"is_disabled":false,"rental_uris":{"android":"levelo://app?vid=4022598c-6605-421d-929f-d80b4ad79dcf","ios":"levelo://app?vid=4022598c-6605-421d-929f-d80b4ad79dcf"},"vehicle_type_id":"4","last_reported":1770412835,"current_range_meters":6800,"station_id":"ce4bhih2rcd13ifvqfr0","pricing_plan_id":"cebpf4jnsgd1na2vs0mg"},{"bike_id":"142a21c2-9a29-466a-92f6-5ab3ecc5b60d","system_id":"levelo_inurba_marseille","lat":43.23794,"lon":5.36642,"is_reserved":false,"is_disabled":false,"rental_uris":{"android":"levelo://app?vid=142a21c2-9a29-466a-92f6-5ab3ecc5b60d","ios":"levelo://app?vid=142a21c2-9a29-466a-92f6-5ab3ecc5b60d"},"vehicle_type_id":"4","last_reported":1770412835,"current_range_meters":6800,"station_id":"st_d3nk18o9ro0c73en2l3g","pricing_plan_id":"cebpf4jnsgd1na2vs0mg"},{"bike_id":"c57155d9-12b5-4d63-b1ef-c288098818cd","system_id":"levelo_inurba_marseille","lat":43.29513,"lon":5.39019,"is_reserved":false,"is_disabled":false,"rental_uris":{"android":"levelo://app?vid=c57155d9-12b5-4d63-b1ef-c288098818cd","ios":"levelo://app?vid=c57155d9-12b5-4d63-b1ef-c288098818cd"},"vehicle_type_id":"4","last_reported":1770412835,"current_range_meters":6800,"station_id":"ce4bh3p2rcd13ifvqdp0","pricing_plan_id":"cebpf4jnsgd1na2vs0mg"},{"bike_id":"34ce4070-8bf1-4f6c-90db-46999ff058d6","system_id":"levelo_inurba_marseille","lat":43.29258,"lon":5.38434,"is_reserved":false,"is_disabled":false,"rental_uris":{"android":"levelo://app?vid=34ce4070-8bf1-4f6c-90db-46999ff058d6","ios":"levelo://app?vid=34ce4070-8bf1-4f6c-90db-46999ff058d6"},"vehicle_type_id":"4","last_reported":1770412835,"current_range_meters":6800,"station_id":"ce4bh692rcd13ifvqea0","pricing_plan_id":"cebpf4jnsgd1na2vs0mg"},{"bike_id":"f086e6a6-7f96-42e4-96de-367ff3edfb33","system_id":"levelo_inurba_marseille","lat":43.25564,"lon":5.38245,"is_reserved":false,"is_disabled":false,"rental_uris":{"android":"levelo://app?vid=f086e6a6-7f96-42e4-96de-367ff3edfb33","ios":"levelo://app?vid=f086e6a6-7f96-42e4-96de-367ff3edfb33"},"vehicle_type_id":"4","last_reported":1770412835,"current_range_meters":6800,"station_id":"ce4bhih2rcd13ifvqfs0","pricing_plan_id":"cebpf4jnsgd1na2vs0mg"},{"bike_id":"f0d45e46-9d23-4329-92a4-e4ddc618e990","system_id":"levelo_inurba_marseille","lat":43.22919,"lon":5.35386,"is_reserved":false,"is_disabled":false,"rental_uris":{"android":"levelo://app?vid=f0d45e46-9d23-4329-92a4-e4ddc618e990","ios":"levelo://app?vid=f0d45e46-9d23-4329-92a4-e4ddc618e990"},"vehicle_type_id":"4","last_reported":1770412835,"current_range_meters":6800,"station_id":"cpo3532slgdg3j2ikp40","pricing_plan_id":"cebpf4jnsgd1na2vs0mg"},{"bike_id":"c6782d87-e485-4a2c-b62b-9a52105fb0ef","system_id":"levelo_inurba_marseille","lat":43.2502,"lon":5.38928,"is_reserved":false,"is_disabled":false,"rental_uris":{"android":"levelo://app?vid=c6782d87-e485-4a2c-b62b-9a52105fb0ef","ios":"levelo://app?vid=c6782d87-e485-4a2c-b62b-9a52105fb0ef"},"vehicle_type_id":"4","last_reported":1770412835,"current_range_meters":6800,"station_id":"ce4bhgp2rcd13ifvqfd0","pricing_plan_id":"cebpf4jnsgd1na2vs0mg"},{"bike_id":"bd830301-856a-4947-bbd9-0c9aae46f8c5","system_id":"levelo_inurba_marseille","lat":43.28859,"lon":5.42529,"is_reserved":false,"is_disabled":false,"rental_uris":{"android":"levelo://app?vid=bd830301-856a-4947-bbd9-0c9aae46f8c5","ios":"levelo://app?vid=bd830301-856a-4947-bbd9-0c9aae46f8c5"},"vehicle_type_id":"4","last_reported":1770412835,"current_range_meters":6800,"station_id":"st_d3b462108ojc7389ooeg","pricing_plan_id":"cebpf4jnsgd1na2vs0mg"},{"bike_id":"5f73df9e-39aa-4410-9779-59728c52cec1","system_id":"levelo_inurba_marseille","lat":43.29533,"lon":5.38547,"is_reserved":false,"is_disabled":false,"rental_uris":{"android":"levelo://app?vid=5f73df9e-39aa-4410-9779-59728c52cec1","ios":"levelo://app?vid=5f73df9e-39aa-4410-9779-59728c52cec1"},"vehicle_type_id":"4","last_reported":1770412835,"current_range_meters":6800,"station_id":"ce4bgih2rcd13ifvqba0","pricing_plan_id":"cebpf4jnsgd1na2vs0mg"},{"bike_id":"4f7d41e3-f9d8-470b-99d3-80dafc768b1e","system_id":"levelo_inurba_marseille","lat":43.29037,"lon":5.35632,"is_reserved":false,"is_disabled":false,"rental_uris":{"android":"levelo://app?vid=4f7d41e3-f9d8-470b-99d3-80dafc768b1e","ios":"levelo://app?vid=4f7d41e3-f9d8-470b-99d3-80dafc768b1e"},"vehicle_type_id":"4","last_reported":1770412835,"current_range_meters":6800,"station_id":"ce4bhb92rcd13ifvqen0","pricing_plan_id":"cebpf4jnsgd1na2vs0mg"},{"bike_id":"28038112-793b-4a40-88c6-af51aa30dc6d","system_id":"levelo_inurba_marseille","lat":43.23213,"lon":5.3555,"is_reserved":false,"is_disabled":false,"rental_uris":{"android":"levelo://app?vid=28038112-793b-4a40-88c6-af51aa30dc6d","ios":"levelo://app?vid=28038112-793b-4a40-88c6-af51aa30dc6d"},"vehicle_type_id":"4","last_reported":1770412835,"current_range_meters":6800,"station_id":"ce4bhu92rcd13ifvqi70","pricing_plan_id":"cebpf4jnsgd1na2vs0mg"},{"bike_id":"6809d87e-7242-4772-8526-bd1f9e441f49","system_id":"levelo_inurba_marseille","lat":43.33779,"lon":5.39227,"is_reserved":false,"is_disabled":false,"rental_uris":{"android":"levelo://app?vid=6809d87e-7242-4772-8526-bd1f9e441f49","ios":"levelo://app?vid=6809d87e-7242-4772-8526-bd1f9e441f49"},"vehicle_type_id":"4","last_reported":1770412835,"current_range_meters":6800,"station_id":"","pricing_plan_id":"cebpf4jnsgd1na2vs0mg"},{"bike_id":"37e9c795-f53b-47bd-8c9b-e2c251d59572","system_id":"levelo_inurba_marseille","lat":43.26218,"lon":5.3747,"is_reserved":false,"is_disabled":false,"rental_uris":{"android":"levelo://app?vid=37e9c795-f53b-47bd-8c9b-e2c251d59572","ios":"levelo://app?vid=37e9c795-f53b-47bd-8c9b-e2c251d59572"},"vehicle_type_id":"4","last_reported":1770412835,"current_range_meters":6800,"station_id":"ce4bhgp2rcd13ifvqfc0","pricing_plan_id":"cebpf4jnsgd1na2vs0mg"},{"bike_id":"4573242e-b265-4331-b57e-964b4ba015f2","system_id":"levelo_inurba_marseille","lat":43.26227,"lon":5.37476,"is_reserved":false,"is_disabled":false,"rental_uris":{"android":"levelo://app?vid=4573242e-b265-4331-b57e-964b4ba015f2","ios":"levelo://app?vid=4573242e-b265-4331-b57e-964b4ba015f2"},"vehicle_type_id":"4","last_reported":1770412835,"current_range_meters":6800,"station_id":"","pricing_plan_id":"cebpf4jnsgd1na2vs0mg"},{"bike_id":"60ca853d-c339-47db-9e29-6229ff2c1b26","system_id":"levelo_inurba_marseille","lat":43.256758,"lon":5.410484,"is_reserved":false,"is_disabled":false,"rental_uris":{"android":"levelo://app?vid=60ca853d-c339-47db-9e29-6229ff2c1b26","ios":"levelo://app?vid=60ca853d-c339-47db-9e29-6229ff2c1b26"},"vehicle_type_id":"4","last_reported":1770412835,"current_range_meters":6800,"station_id":"ce4bhkp2rcd13ifvqgd0","pricing_plan_id":"cebpf4jnsgd1na2vs0mg"},{"bike_id":"24ed0f82-01d0-4d75-81e6-b7cc42aa5836","system_id":"levelo_inurba_marseille","lat":43.29002,"lon":5.35618,"is_reserved":false,"is_disabled":false,"rental_uris":{"android":"levelo://app?vid=24ed0f82-01d0-4d75-81e6-b7cc42aa5836","ios":"levelo://app?vid=24ed0f82-01d0-4d75-81e6-b7cc42aa5836"},"vehicle_type_id":"4","last_reported":1770412835,"current_range_meters":6800,"station_id":"ce4bhb92rcd13ifvqen0","pricing_plan_id":"cebpf4jnsgd1na2vs0mg"},{"bike_id":"7913ecf5-95cc-46db-ad1a-05494005e5b1","system_id":"levelo_inurba_marseille","lat":43.25692,"lon":5.41654,"is_reserved":false,"is_disabled":false,"rental_uris":{"android":"levelo://app?vid=7913ecf5-95cc-46db-ad1a-05494005e5b1","ios":"levelo://app?vid=7913ecf5-95cc-46db-ad1a-05494005e5b1"},"vehicle_type_id":"4","last_reported":1770412835,"current_range_meters":6800,"station_id":"","pricing_plan_id":"cebpf4jnsgd1na2vs0mg"},{"bike_id":"fb70c546-2c71-4eab-8987-e71f757386fe","system_id":"levelo_inurba_marseille","lat":43.29474,"lon":5.38549,"is_reserved":false,"is_disabled":false,"rental_uris":{"android":"levelo://app?vid=fb70c546-2c71-4eab-8987-e71f757386fe","ios":"levelo://app?vid=fb70c546-2c71-4eab-8987-e71f757386fe"},"vehicle_type_id":"4","last_reported":1770412835,"current_range_meters":6800,"station_id":"","pricing_plan_id":"cebpf4jnsgd1na2vs0mg"},{"bike_id":"d2ce0404-c8bd-4371-911b-5f932d9881b8","system_id":"levelo_inurba_marseille","lat":43.29507,"lon":5.39043,"is_reserved":false,"is_disabled":false,"rental_uris":{"android":"levelo://app?vid=d2ce0404-c8bd-4371-911b-5f932d9881b8","ios":"levelo://app?vid=d2ce0404-c8bd-4371-911b-5f932d9881b8"},"vehicle_type_id":"4","last_reported":1770412835,"current_range_meters":6800,"station_id":"ce4bh3p2rcd13ifvqdp0","pricing_plan_id":"cebpf4jnsgd1na2vs0mg"},{"bike_id":"967cce7e-5662-42d8-a2b0-963824220044","system_id":"levelo_inurba_marseille","lat":43.276146,"lon":5.361064,"is_reserved":false,"is_disabled":false,"rental_uris":{"android":"levelo://app?vid=967cce7e-5662-42d8-a2b0-963824220044","ios":"levelo://app?vid=967cce7e-5662-42d8-a2b0-963824220044"},"vehicle_type_id":"4","last_reported":1770412835,"current_range_meters":6800,"station_id":"ce4bgj92rcd13ifvqbe0","pricing_plan_id":"cebpf4jnsgd1na2vs0mg"},{"bike_id":"58b75f9a-9109-4ad4-bff3-1796073efe92","system_id":"levelo_inurba_marseille","lat":43.24426,"lon":5.37065,"is_reserved":false,"is_disabled":false,"rental_uris":{"android":"levelo://app?vid=58b75f9a-9109-4ad4-bff3-1796073efe92","ios":"levelo://app?vid=58b75f9a-9109-4ad4-bff3-1796073efe92"},"vehicle_type_id":"4","last_reported":1770412835,"current_range_meters":7200,"station_id":"ce4bhhh2rcd13ifvqfk0","pricing_plan_id":"cebpf4jnsgd1na2vs0mg"},{"bike_id":"9c73f167-0209-4b65-bfe4-6dcb19c28c58","system_id":"levelo_inurba_marseille","lat":43.29032,"lon":5.38635,"is_reserved":false,"is_disabled":false,"rental_uris":{"android":"levelo://app?vid=9c73f167-0209-4b65-bfe4-6dcb19c28c58","ios":"levelo://app?vid=9c73f167-0209-4b65-bfe4-6dcb19c28c58"},"vehicle_type_id":"4","last_reported":1770412835,"current_range_meters":7200,"station_id":"ce4bh4p2rcd13ifvqe0g","pricing_plan_id":"cebpf4jnsgd1na2vs0mg"},{"bike_id":"f80af0fc-206a-4ad4-9ce1-df5c67b5af5a","system_id":"levelo_inurba_marseille","lat":43.291712,"lon":5.371559,"is_reserved":false,"is_disabled":false,"rental_uris":{"android":"levelo://app?vid=f80af0fc-206a-4ad4-9ce1-df5c67b5af5a","ios":"levelo://app?vid=f80af0fc-206a-4ad4-9ce1-df5c67b5af5a"},"vehicle_type_id":"4","last_reported":1770412835,"current_range_meters":7200,"station_id":"ce4bha92rcd13ifvqeh0","pricing_plan_id":"cebpf4jnsgd1na2vs0mg"},{"bike_id":"d13cc862-d1fc-41d4-be4b-efb44f920c08","system_id":"levelo_inurba_marseille","lat":43.30988,"lon":5.39072,"is_reserved":false,"is_disabled":true,"rental_uris":{"android":"levelo://app?vid=d13cc862-d1fc-41d4-be4b-efb44f920c08","ios":"levelo://app?vid=d13cc862-d1fc-41d4-be4b-efb44f920c08"},"vehicle_type_id":"4","last_reported":1770412835,"current_range_meters":7200,"station_id":"ce4bgup2rcd13ifvqco0","pricing_plan_id":"cebpf4jnsgd1na2vs0mg"},{"bike_id":"5825814f-7023-4d5f-a20a-f996200a6f78","system_id":"levelo_inurba_marseille","lat":43.27942,"lon":5.41058,"is_reserved":false,"is_disabled":false,"rental_uris":{"android":"levelo://app?vid=5825814f-7023-4d5f-a20a-f996200a6f78","ios":"levelo://app?vid=5825814f-7023-4d5f-a20a-f996200a6f78"},"vehicle_type_id":"4","last_reported":1770412835,"current_range_meters":7200,"station_id":"ce4bhnp2rcd13ifvqh0g","pricing_plan_id":"cebpf4jnsgd1na2vs0mg"},{"bike_id":"5e9d7b89-ee8f-42bc-87df-a5a05a1d1db8","system_id":"levelo_inurba_marseille","lat":43.2428,"lon":5.39698,"is_reserved":false,"is_disabled":false,"rental_uris":{"android":"levelo://app?vid=5e9d7b89-ee8f-42bc-87df-a5a05a1d1db8","ios":"levelo://app?vid=5e9d7b89-ee8f-42bc-87df-a5a05a1d1db8"},"vehicle_type_id":"4","last_reported":1770412835,"current_range_meters":7200,"station_id":"","pricing_plan_id":"cebpf4jnsgd1na2vs0mg"},{"bike_id":"d9966860-8e8f-47c3-b6f0-291a5804774f","system_id":"levelo_inurba_marseille","lat":43.28268,"lon":5.35069,"is_reserved":false,"is_disabled":false,"rental_uris":{"android":"levelo://app?vid=d9966860-8e8f-47c3-b6f0-291a5804774f","ios":"levelo://app?vid=d9966860-8e8f-47c3-b6f0-291a5804774f"},"vehicle_type_id":"4","last_reported":1770412835,"current_range_meters":7200,"station_id":"ce4bhbp2rcd13ifvqerg","pricing_plan_id":"cebpf4jnsgd1na2vs0mg"},{"bike_id":"5a35dbc2-e52e-4f75-b31d-527577f2107a","system_id":"levelo_inurba_marseille","lat":43.28269,"lon":5.35076,"is_reserved":false,"is_disabled":false,"rental_uris":{"android":"levelo://app?vid=5a35dbc2-e52e-4f75-b31d-527577f2107a","ios":"levelo://app?vid=5a35dbc2-e52e-4f75-b31d-527577f2107a"},"vehicle_type_id":"4","last_reported":1770412835,"current_range_meters":7200,"station_id":"ce4bhbp2rcd13ifvqerg","pricing_plan_id":"cebpf4jnsgd1na2vs0mg"},{"bike_id":"34b0e592-5a12-495a-a81b-b7a9e8350c09","system_id":"levelo_inurba_marseille","lat":43.284209,"lon":5.349884,"is_reserved":false,"is_disabled":false,"rental_uris":{"android":"levelo://app?vid=34b0e592-5a12-495a-a81b-b7a9e8350c09","ios":"levelo://app?vid=34b0e592-5a12-495a-a81b-b7a9e8350c09"},"vehicle_type_id":"4","last_reported":1770412835,"current_range_meters":7200,"station_id":"ce4bhbh2rcd13ifvqepg","pricing_plan_id":"cebpf4jnsgd1na2vs0mg"},{"bike_id":"acbb60c2-51a9-4e85-bf28-51e234add295","system_id":"levelo_inurba_marseille","lat":43.28754,"lon":5.38766,"is_reserved":false,"is_disabled":false,"rental_uris":{"android":"levelo://app?vid=acbb60c2-51a9-4e85-bf28-51e234add295","ios":"levelo://app?vid=acbb60c2-51a9-4e85-bf28-51e234add295"},"vehicle_type_id":"4","last_reported":1770412835,"current_range_meters":7200,"station_id":"","pricing_plan_id":"cebpf4jnsgd1na2vs0mg"},{"bike_id":"6c826141-83c8-450c-bb51-8b69baba0bf3","system_id":"levelo_inurba_marseille","lat":43.26708,"lon":5.40786,"is_reserved":false,"is_disabled":false,"rental_uris":{"android":"levelo://app?vid=6c826141-83c8-450c-bb51-8b69baba0bf3","ios":"levelo://app?vid=6c826141-83c8-450c-bb51-8b69baba0bf3"},"vehicle_type_id":"4","last_reported":1770412835,"current_range_meters":7200,"station_id":"","pricing_plan_id":"cebpf4jnsgd1na2vs0mg"},{"bike_id":"da7fe0b3-6a10-464e-b624-20a247cbc1a7","system_id":"levelo_inurba_marseille","lat":43.28712,"lon":5.38666,"is_reserved":false,"is_disabled":false,"rental_uris":{"android":"levelo://app?vid=da7fe0b3-6a10-464e-b624-20a247cbc1a7","ios":"levelo://app?vid=da7fe0b3-6a10-464e-b624-20a247cbc1a7"},"vehicle_type_id":"4","last_reported":1770412835,"current_range_meters":7200,"station_id":"","pricing_plan_id":"cebpf4jnsgd1na2vs0mg"},{"bike_id":"5514686a-b854-4db2-9779-3506b95972b1","system_id":"levelo_inurba_marseille","lat":43.2318,"lon":5.43734,"is_reserved":false,"is_disabled":false,"rental_uris":{"android":"levelo://app?vid=5514686a-b854-4db2-9779-3506b95972b1","ios":"levelo://app?vid=5514686a-b854-4db2-9779-3506b95972b1"},"vehicle_type_id":"4","last_reported":1770412835,"current_range_meters":7200,"station_id":"ce4bhmp2rcd13ifvqgog","pricing_plan_id":"cebpf4jnsgd1na2vs0mg"},{"bike_id":"9c6a8984-8ee8-4ae5-a2ee-ca73b9867831","system_id":"levelo_inurba_marseille","lat":43.29931,"lon":5.36541,"is_reserved":false,"is_disabled":false,"rental_uris":{"android":"levelo://app?vid=9c6a8984-8ee8-4ae5-a2ee-ca73b9867831","ios":"levelo://app?vid=9c6a8984-8ee8-4ae5-a2ee-ca73b9867831"},"vehicle_type_id":"4","last_reported":1770412835,"current_range_meters":7200,"station_id":"ce4bgm92rcd13ifvqbr0","pricing_plan_id":"cebpf4jnsgd1na2vs0mg"},{"bike_id":"675ec433-caf3-4517-83f9-75769cd57605","system_id":"levelo_inurba_marseille","lat":43.32097,"lon":5.36774,"is_reserved":false,"is_disabled":false,"rental_uris":{"android":"levelo://app?vid=675ec433-caf3-4517-83f9-75769cd57605","ios":"levelo://app?vid=675ec433-caf3-4517-83f9-75769cd57605"},"vehicle_type_id":"4","last_reported":1770412835,"current_range_meters":7200,"station_id":"ce4bhrh2rcd13ifvqhug","pricing_plan_id":"cebpf4jnsgd1na2vs0mg"},{"bike_id":"98b89a63-b3c9-4748-8f93-0ccb5ab9560d","system_id":"levelo_inurba_marseille","lat":43.26541,"lon":5.37278,"is_reserved":false,"is_disabled":false,"rental_uris":{"android":"levelo://app?vid=98b89a63-b3c9-4748-8f93-0ccb5ab9560d","ios":"levelo://app?vid=98b89a63-b3c9-4748-8f93-0ccb5ab9560d"},"vehicle_type_id":"4","last_reported":1770412835,"current_range_meters":7200,"station_id":"ce4bhg12rcd13ifvqf70","pricing_plan_id":"cebpf4jnsgd1na2vs0mg"},{"bike_id":"0b0f5da6-7e0f-4c34-83d7-d18ce6723012","system_id":"levelo_inurba_marseille","lat":43.30957,"lon":5.3907,"is_reserved":false,"is_disabled":false,"rental_uris":{"android":"levelo://app?vid=0b0f5da6-7e0f-4c34-83d7-d18ce6723012","ios":"levelo://app?vid=0b0f5da6-7e0f-4c34-83d7-d18ce6723012"},"vehicle_type_id":"4","last_reported":1770412835,"current_range_meters":7200,"station_id":"ce4bgup2rcd13ifvqco0","pricing_plan_id":"cebpf4jnsgd1na2vs0mg"},{"bike_id":"43c535fc-7780-46dd-8901-20d00e0466e0","system_id":"levelo_inurba_marseille","lat":43.29533,"lon":5.38538,"is_reserved":false,"is_disabled":false,"rental_uris":{"android":"levelo://app?vid=43c535fc-7780-46dd-8901-20d00e0466e0","ios":"levelo://app?vid=43c535fc-7780-46dd-8901-20d00e0466e0"},"vehicle_type_id":"4","last_reported":1770412835,"current_range_meters":7200,"station_id":"ce4bgih2rcd13ifvqba0","pricing_plan_id":"cebpf4jnsgd1na2vs0mg"},{"bike_id":"3b0243a7-d2ce-4bc6-9d86-9216cc3b3554","system_id":"levelo_inurba_marseille","lat":43.2481,"lon":5.37456,"is_reserved":false,"is_disabled":false,"rental_uris":{"android":"levelo://app?vid=3b0243a7-d2ce-4bc6-9d86-9216cc3b3554","ios":"levelo://app?vid=3b0243a7-d2ce-4bc6-9d86-9216cc3b3554"},"vehicle_type_id":"4","last_reported":1770412835,"current_range_meters":7200,"station_id":"ce4bhgh2rcd13ifvqfb0","pricing_plan_id":"cebpf4jnsgd1na2vs0mg"},{"bike_id":"b53a7d14-2e51-421a-988d-b8ea59b98909","system_id":"levelo_inurba_marseille","lat":43.27385,"lon":5.36255,"is_reserved":false,"is_disabled":false,"rental_uris":{"android":"levelo://app?vid=b53a7d14-2e51-421a-988d-b8ea59b98909","ios":"levelo://app?vid=b53a7d14-2e51-421a-988d-b8ea59b98909"},"vehicle_type_id":"4","last_reported":1770412835,"current_range_meters":7200,"station_id":"ce4bhbh2rcd13ifvqeo0","pricing_plan_id":"cebpf4jnsgd1na2vs0mg"},{"bike_id":"5c52ff99-cf96-4d3c-b47e-85043f37e86c","system_id":"levelo_inurba_marseille","lat":43.26213,"lon":5.3745,"is_reserved":false,"is_disabled":false,"rental_uris":{"android":"levelo://app?vid=5c52ff99-cf96-4d3c-b47e-85043f37e86c","ios":"levelo://app?vid=5c52ff99-cf96-4d3c-b47e-85043f37e86c"},"vehicle_type_id":"4","last_reported":1770412835,"current_range_meters":7200,"station_id":"ce4bhgp2rcd13ifvqfc0","pricing_plan_id":"cebpf4jnsgd1na2vs0mg"},{"bike_id":"b7fc64ee-0a1a-4639-af60-46d03219d45f","system_id":"levelo_inurba_marseille","lat":43.232,"lon":5.35554,"is_reserved":false,"is_disabled":false,"rental_uris":{"android":"levelo://app?vid=b7fc64ee-0a1a-4639-af60-46d03219d45f","ios":"levelo://app?vid=b7fc64ee-0a1a-4639-af60-46d03219d45f"},"vehicle_type_id":"4","last_reported":1770412835,"current_range_meters":7200,"station_id":"ce4bhu92rcd13ifvqi70","pricing_plan_id":"cebpf4jnsgd1na2vs0mg"},{"bike_id":"babbfc05-62c2-4a3e-8e9f-ad7bdd785274","system_id":"levelo_inurba_marseille","lat":43.27995,"lon":5.40009,"is_reserved":false,"is_disabled":false,"rental_uris":{"android":"levelo://app?vid=babbfc05-62c2-4a3e-8e9f-ad7bdd785274","ios":"levelo://app?vid=babbfc05-62c2-4a3e-8e9f-ad7bdd785274"},"vehicle_type_id":"4","last_reported":1770412835,"current_range_meters":7200,"station_id":"ce4bho92rcd13ifvqh4g","pricing_plan_id":"cebpf4jnsgd1na2vs0mg"},{"bike_id":"63c602c3-d230-440b-a9f3-7f914105abcb","system_id":"levelo_inurba_marseille","lat":43.29526,"lon":5.38534,"is_reserved":false,"is_disabled":false,"rental_uris":{"android":"levelo://app?vid=63c602c3-d230-440b-a9f3-7f914105abcb","ios":"levelo://app?vid=63c602c3-d230-440b-a9f3-7f914105abcb"},"vehicle_type_id":"4","last_reported":1770412835,"current_range_meters":7200,"station_id":"ce4bgih2rcd13ifvqba0","pricing_plan_id":"cebpf4jnsgd1na2vs0mg"},{"bike_id":"c65ee838-9f7d-4c27-9ebf-55f173988146","system_id":"levelo_inurba_marseille","lat":43.24798,"lon":5.37461,"is_reserved":false,"is_disabled":false,"rental_uris":{"android":"levelo://app?vid=c65ee838-9f7d-4c27-9ebf-55f173988146","ios":"levelo://app?vid=c65ee838-9f7d-4c27-9ebf-55f173988146"},"vehicle_type_id":"4","last_reported":1770412835,"current_range_meters":7200,"station_id":"ce4bhgh2rcd13ifvqfb0","pricing_plan_id":"cebpf4jnsgd1na2vs0mg"},{"bike_id":"be543e78-58ce-404a-a6cc-33aa07295cd3","system_id":"levelo_inurba_marseille","lat":43.24383,"lon":5.3705,"is_reserved":false,"is_disabled":false,"rental_uris":{"android":"levelo://app?vid=be543e78-58ce-404a-a6cc-33aa07295cd3","ios":"levelo://app?vid=be543e78-58ce-404a-a6cc-33aa07295cd3"},"vehicle_type_id":"4","last_reported":1770412835,"current_range_meters":7200,"station_id":"ce4bhhh2rcd13ifvqfk0","pricing_plan_id":"cebpf4jnsgd1na2vs0mg"},{"bike_id":"29464267-9962-4e36-b637-db87f6ed8cf3","system_id":"levelo_inurba_marseille","lat":43.278082,"lon":5.407044,"is_reserved":false,"is_disabled":false,"rental_uris":{"android":"levelo://app?vid=29464267-9962-4e36-b637-db87f6ed8cf3","ios":"levelo://app?vid=29464267-9962-4e36-b637-db87f6ed8cf3"},"vehicle_type_id":"4","last_reported":1770412835,"current_range_meters":7200,"station_id":"ce4bhnh2rcd13ifvqgtg","pricing_plan_id":"cebpf4jnsgd1na2vs0mg"},{"bike_id":"66ac484a-7a0c-4d64-bcea-4a863811aeba","system_id":"levelo_inurba_marseille","lat":43.2991,"lon":5.43714,"is_reserved":false,"is_disabled":true,"rental_uris":{"android":"levelo://app?vid=66ac484a-7a0c-4d64-bcea-4a863811aeba","ios":"levelo://app?vid=66ac484a-7a0c-4d64-bcea-4a863811aeba"},"vehicle_type_id":"4","last_reported":1770412835,"current_range_meters":7200,"station_id":"","pricing_plan_id":"cebpf4jnsgd1na2vs0mg"},{"bike_id":"ecde9447-d2d8-4eed-be47-e39468252cc3","system_id":"levelo_inurba_marseille","lat":43.29799,"lon":5.38117,"is_reserved":false,"is_disabled":false,"rental_uris":{"android":"levelo://app?vid=ecde9447-d2d8-4eed-be47-e39468252cc3","ios":"levelo://app?vid=ecde9447-d2d8-4eed-be47-e39468252cc3"},"vehicle_type_id":"4","last_reported":1770412835,"current_range_meters":7200,"station_id":"ce4bgip2rcd13ifvqbb0","pricing_plan_id":"cebpf4jnsgd1na2vs0mg"},{"bike_id":"72e04a06-41f1-42cc-b523-538e0ceb7ea8","system_id":"levelo_inurba_marseille","lat":43.298658,"lon":5.397271,"is_reserved":false,"is_disabled":false,"rental_uris":{"android":"levelo://app?vid=72e04a06-41f1-42cc-b523-538e0ceb7ea8","ios":"levelo://app?vid=72e04a06-41f1-42cc-b523-538e0ceb7ea8"},"vehicle_type_id":"4","last_reported":1770412835,"current_range_meters":7200,"station_id":"ce4bh692rcd13ifvqea0","pricing_plan_id":"cebpf4jnsgd1na2vs0mg"},{"bike_id":"efbe792f-1198-41b4-852b-4a2323f0ee78","system_id":"levelo_inurba_marseille","lat":43.24981,"lon":5.389,"is_reserved":false,"is_disabled":false,"rental_uris":{"android":"levelo://app?vid=efbe792f-1198-41b4-852b-4a2323f0ee78","ios":"levelo://app?vid=efbe792f-1198-41b4-852b-4a2323f0ee78"},"vehicle_type_id":"4","last_reported":1770412835,"current_range_meters":7200,"station_id":"ce4bhgp2rcd13ifvqfd0","pricing_plan_id":"cebpf4jnsgd1na2vs0mg"},{"bike_id":"db42cf65-60d7-4ba0-896a-925a91953562","system_id":"levelo_inurba_marseille","lat":43.27935,"lon":5.41057,"is_reserved":false,"is_disabled":false,"rental_uris":{"android":"levelo://app?vid=db42cf65-60d7-4ba0-896a-925a91953562","ios":"levelo://app?vid=db42cf65-60d7-4ba0-896a-925a91953562"},"vehicle_type_id":"4","last_reported":1770412835,"current_range_meters":8000,"station_id":"ce4bhnp2rcd13ifvqh0g","pricing_plan_id":"cebpf4jnsgd1na2vs0mg"},{"bike_id":"f8463b88-432f-46ac-83c3-89907d57648e","system_id":"levelo_inurba_marseille","lat":43.30432,"lon":5.38884,"is_reserved":false,"is_disabled":false,"rental_uris":{"android":"levelo://app?vid=f8463b88-432f-46ac-83c3-89907d57648e","ios":"levelo://app?vid=f8463b88-432f-46ac-83c3-89907d57648e"},"vehicle_type_id":"4","last_reported":1770412835,"current_range_meters":8000,"station_id":"ce4bgk12rcd13ifvqbi0","pricing_plan_id":"cebpf4jnsgd1na2vs0mg"},{"bike_id":"071937d3-6d39-428f-88a6-e135b0e61119","system_id":"levelo_inurba_marseille","lat":43.31049,"lon":5.371763,"is_reserved":false,"is_disabled":false,"rental_uris":{"android":"levelo://app?vid=071937d3-6d39-428f-88a6-e135b0e61119","ios":"levelo://app?vid=071937d3-6d39-428f-88a6-e135b0e61119"},"vehicle_type_id":"4","last_reported":1770412835,"current_range_meters":8000,"station_id":"st_d4kl2rp97mjs73e7tdfg","pricing_plan_id":"cebpf4jnsgd1na2vs0mg"},{"bike_id":"3e8f969f-f505-4cac-b453-01240a0ec1b8","system_id":"levelo_inurba_marseille","lat":43.33032,"lon":5.3905,"is_reserved":false,"is_disabled":false,"rental_uris":{"android":"levelo://app?vid=3e8f969f-f505-4cac-b453-01240a0ec1b8","ios":"levelo://app?vid=3e8f969f-f505-4cac-b453-01240a0ec1b8"},"vehicle_type_id":"4","last_reported":1770412835,"current_range_meters":8000,"station_id":"ce4bhr92rcd13ifvqhrg","pricing_plan_id":"cebpf4jnsgd1na2vs0mg"},{"bike_id":"c6e25874-c646-4223-9fb1-4a2c71cb2059","system_id":"levelo_inurba_marseille","lat":43.31255,"lon":5.36903,"is_reserved":false,"is_disabled":false,"rental_uris":{"android":"levelo://app?vid=c6e25874-c646-4223-9fb1-4a2c71cb2059","ios":"levelo://app?vid=c6e25874-c646-4223-9fb1-4a2c71cb2059"},"vehicle_type_id":"4","last_reported":1770412835,"current_range_meters":8000,"station_id":"","pricing_plan_id":"cebpf4jnsgd1na2vs0mg"},{"bike_id":"ad619ee0-99a3-44ca-9244-1a662aeff669","system_id":"levelo_inurba_marseille","lat":43.29029,"lon":5.38621,"is_reserved":false,"is_disabled":false,"rental_uris":{"android":"levelo://app?vid=ad619ee0-99a3-44ca-9244-1a662aeff669","ios":"levelo://app?vid=ad619ee0-99a3-44ca-9244-1a662aeff669"},"vehicle_type_id":"4","last_reported":1770412835,"current_range_meters":8000,"station_id":"ce4bh4p2rcd13ifvqe0g","pricing_plan_id":"cebpf4jnsgd1na2vs0mg"},{"bike_id":"576af193-e62d-499f-bac6-83067da3cb89","system_id":"levelo_inurba_marseille","lat":43.27993,"lon":5.40024,"is_reserved":false,"is_disabled":true,"rental_uris":{"android":"levelo://app?vid=576af193-e62d-499f-bac6-83067da3cb89","ios":"levelo://app?vid=576af193-e62d-499f-bac6-83067da3cb89"},"vehicle_type_id":"4","last_reported":1770412835,"current_range_meters":8000,"station_id":"ce4bho92rcd13ifvqh4g","pricing_plan_id":"cebpf4jnsgd1na2vs0mg"},{"bike_id":"fa137e46-83a4-4920-bf9b-a601681ac7e8","system_id":"levelo_inurba_marseille","lat":43.30423,"lon":5.38887,"is_reserved":false,"is_disabled":false,"rental_uris":{"android":"levelo://app?vid=fa137e46-83a4-4920-bf9b-a601681ac7e8","ios":"levelo://app?vid=fa137e46-83a4-4920-bf9b-a601681ac7e8"},"vehicle_type_id":"4","last_reported":1770412835,"current_range_meters":8000,"station_id":"ce4bgk12rcd13ifvqbi0","pricing_plan_id":"cebpf4jnsgd1na2vs0mg"},{"bike_id":"9ac16f6a-c93c-4c54-be11-0bb2a51c5a80","system_id":"levelo_inurba_marseille","lat":43.28721,"lon":5.36089,"is_reserved":false,"is_disabled":false,"rental_uris":{"android":"levelo://app?vid=9ac16f6a-c93c-4c54-be11-0bb2a51c5a80","ios":"levelo://app?vid=9ac16f6a-c93c-4c54-be11-0bb2a51c5a80"},"vehicle_type_id":"4","last_reported":1770412835,"current_range_meters":8000,"station_id":"cki0cbj6b192h4jlfktg","pricing_plan_id":"cebpf4jnsgd1na2vs0mg"},{"bike_id":"adfdce83-5160-451d-875c-3c98397c50af","system_id":"levelo_inurba_marseille","lat":43.2848,"lon":5.39048,"is_reserved":false,"is_disabled":false,"rental_uris":{"android":"levelo://app?vid=adfdce83-5160-451d-875c-3c98397c50af","ios":"levelo://app?vid=adfdce83-5160-451d-875c-3c98397c50af"},"vehicle_type_id":"4","last_reported":1770412835,"current_range_meters":8000,"station_id":"","pricing_plan_id":"cebpf4jnsgd1na2vs0mg"},{"bike_id":"9d9ada7e-8bfb-4948-82e1-5314689a8b39","system_id":"levelo_inurba_marseille","lat":43.33551,"lon":5.37479,"is_reserved":false,"is_disabled":false,"rental_uris":{"android":"levelo://app?vid=9d9ada7e-8bfb-4948-82e1-5314689a8b39","ios":"levelo://app?vid=9d9ada7e-8bfb-4948-82e1-5314689a8b39"},"vehicle_type_id":"4","last_reported":1770412835,"current_range_meters":8000,"station_id":"st_d46tts09ee8s73dlu43g","pricing_plan_id":"cebpf4jnsgd1na2vs0mg"},{"bike_id":"6acd51bf-a365-4a2f-b10d-829db300fcd6","system_id":"levelo_inurba_marseille","lat":43.26718,"lon":5.39358,"is_reserved":false,"is_disabled":false,"rental_uris":{"android":"levelo://app?vid=6acd51bf-a365-4a2f-b10d-829db300fcd6","ios":"levelo://app?vid=6acd51bf-a365-4a2f-b10d-829db300fcd6"},"vehicle_type_id":"4","last_reported":1770412835,"current_range_meters":8000,"station_id":"","pricing_plan_id":"cebpf4jnsgd1na2vs0mg"},{"bike_id":"7762d7e1-6e63-47b8-b38f-dee5fb5d6c60","system_id":"levelo_inurba_marseille","lat":43.24656,"lon":5.38903,"is_reserved":false,"is_disabled":false,"rental_uris":{"android":"levelo://app?vid=7762d7e1-6e63-47b8-b38f-dee5fb5d6c60","ios":"levelo://app?vid=7762d7e1-6e63-47b8-b38f-dee5fb5d6c60"},"vehicle_type_id":"4","last_reported":1770412835,"current_range_meters":8000,"station_id":"ce4bhg12rcd13ifvqf60","pricing_plan_id":"cebpf4jnsgd1na2vs0mg"},{"bike_id":"a5faf7a6-7f2f-419a-b628-e8f939b70083","system_id":"levelo_inurba_marseille","lat":43.28525,"lon":5.4409,"is_reserved":false,"is_disabled":false,"rental_uris":{"android":"levelo://app?vid=a5faf7a6-7f2f-419a-b628-e8f939b70083","ios":"levelo://app?vid=a5faf7a6-7f2f-419a-b628-e8f939b70083"},"vehicle_type_id":"4","last_reported":1770412835,"current_range_meters":8000,"station_id":"st_d3j3df2ikq2c7380ej80","pricing_plan_id":"cebpf4jnsgd1na2vs0mg"},{"bike_id":"731447a5-bd31-4208-aa2f-c0645944403a","system_id":"levelo_inurba_marseille","lat":43.24655,"lon":5.43157,"is_reserved":false,"is_disabled":false,"rental_uris":{"android":"levelo://app?vid=731447a5-bd31-4208-aa2f-c0645944403a","ios":"levelo://app?vid=731447a5-bd31-4208-aa2f-c0645944403a"},"vehicle_type_id":"4","last_reported":1770412835,"current_range_meters":8000,"station_id":"st_d2m6c4gdas8pm72e190g","pricing_plan_id":"cebpf4jnsgd1na2vs0mg"},{"bike_id":"f9f20417-aa53-44b8-9a40-4c1958fef358","system_id":"levelo_inurba_marseille","lat":43.299764,"lon":5.384875,"is_reserved":false,"is_disabled":false,"rental_uris":{"android":"levelo://app?vid=f9f20417-aa53-44b8-9a40-4c1958fef358","ios":"levelo://app?vid=f9f20417-aa53-44b8-9a40-4c1958fef358"},"vehicle_type_id":"4","last_reported":1770412835,"current_range_meters":8000,"station_id":"ce4bgj92rcd13ifvqbd0","pricing_plan_id":"cebpf4jnsgd1na2vs0mg"},{"bike_id":"eef7d0ae-7f39-41bf-867c-8a8e8d2a2015","system_id":"levelo_inurba_marseille","lat":43.304205,"lon":5.397453,"is_reserved":false,"is_disabled":true,"rental_uris":{"android":"levelo://app?vid=eef7d0ae-7f39-41bf-867c-8a8e8d2a2015","ios":"levelo://app?vid=eef7d0ae-7f39-41bf-867c-8a8e8d2a2015"},"vehicle_type_id":"4","last_reported":1770412835,"current_range_meters":8000,"station_id":"ce4bh092rcd13ifvqd20","pricing_plan_id":"cebpf4jnsgd1na2vs0mg"},{"bike_id":"651a1f03-9041-47f3-9a0b-971a8399b544","system_id":"levelo_inurba_marseille","lat":43.31224,"lon":5.38763,"is_reserved":false,"is_disabled":true,"rental_uris":{"android":"levelo://app?vid=651a1f03-9041-47f3-9a0b-971a8399b544","ios":"levelo://app?vid=651a1f03-9041-47f3-9a0b-971a8399b544"},"vehicle_type_id":"4","last_reported":1770412835,"current_range_meters":8000,"station_id":"ce4bgv12rcd13ifvqcp0","pricing_plan_id":"cebpf4jnsgd1na2vs0mg"},{"bike_id":"c2fdc908-769b-4db5-a840-be1a620abb27","system_id":"levelo_inurba_marseille","lat":43.29596,"lon":5.38108,"is_reserved":false,"is_disabled":false,"rental_uris":{"android":"levelo://app?vid=c2fdc908-769b-4db5-a840-be1a620abb27","ios":"levelo://app?vid=c2fdc908-769b-4db5-a840-be1a620abb27"},"vehicle_type_id":"4","last_reported":1770412835,"current_range_meters":8000,"station_id":"ce4bgl12rcd13ifvqbo0","pricing_plan_id":"cebpf4jnsgd1na2vs0mg"},{"bike_id":"901dd229-8b77-439a-b67d-22b4890d43d9","system_id":"levelo_inurba_marseille","lat":43.31719,"lon":5.40463,"is_reserved":false,"is_disabled":false,"rental_uris":{"android":"levelo://app?vid=901dd229-8b77-439a-b67d-22b4890d43d9","ios":"levelo://app?vid=901dd229-8b77-439a-b67d-22b4890d43d9"},"vehicle_type_id":"4","last_reported":1770412835,"current_range_meters":8000,"station_id":"ce4bh012rcd13ifvqd00","pricing_plan_id":"cebpf4jnsgd1na2vs0mg"},{"bike_id":"f5da9401-db7e-426f-9a0f-2330a30b8658","system_id":"levelo_inurba_marseille","lat":43.24422,"lon":5.37085,"is_reserved":false,"is_disabled":true,"rental_uris":{"android":"levelo://app?vid=f5da9401-db7e-426f-9a0f-2330a30b8658","ios":"levelo://app?vid=f5da9401-db7e-426f-9a0f-2330a30b8658"},"vehicle_type_id":"4","last_reported":1770412835,"current_range_meters":8000,"station_id":"ce4bhhh2rcd13ifvqfk0","pricing_plan_id":"cebpf4jnsgd1na2vs0mg"},{"bike_id":"0c612691-dc2e-4b8c-a828-2dec429e0473","system_id":"levelo_inurba_marseille","lat":43.2292,"lon":5.35392,"is_reserved":false,"is_disabled":false,"rental_uris":{"android":"levelo://app?vid=0c612691-dc2e-4b8c-a828-2dec429e0473","ios":"levelo://app?vid=0c612691-dc2e-4b8c-a828-2dec429e0473"},"vehicle_type_id":"4","last_reported":1770412835,"current_range_meters":8000,"station_id":"cpo3532slgdg3j2ikp40","pricing_plan_id":"cebpf4jnsgd1na2vs0mg"},{"bike_id":"695a138c-9117-4798-9030-e462ffee3fe5","system_id":"levelo_inurba_marseille","lat":43.24811,"lon":5.37486,"is_reserved":false,"is_disabled":false,"rental_uris":{"android":"levelo://app?vid=695a138c-9117-4798-9030-e462ffee3fe5","ios":"levelo://app?vid=695a138c-9117-4798-9030-e462ffee3fe5"},"vehicle_type_id":"4","last_reported":1770412835,"current_range_meters":8000,"station_id":"ce4bhgh2rcd13ifvqfb0","pricing_plan_id":"cebpf4jnsgd1na2vs0mg"},{"bike_id":"2645d702-9780-4155-954e-9ff091dcb668","system_id":"levelo_inurba_marseille","lat":43.24406,"lon":5.37044,"is_reserved":false,"is_disabled":false,"rental_uris":{"android":"levelo://app?vid=2645d702-9780-4155-954e-9ff091dcb668","ios":"levelo://app?vid=2645d702-9780-4155-954e-9ff091dcb668"},"vehicle_type_id":"4","last_reported":1770412835,"current_range_meters":8000,"station_id":"ce4bhhh2rcd13ifvqfk0","pricing_plan_id":"cebpf4jnsgd1na2vs0mg"},{"bike_id":"2c93a42a-4cfa-4bcc-ae5d-919aa911761b","system_id":"levelo_inurba_marseille","lat":43.29248,"lon":5.38441,"is_reserved":false,"is_disabled":false,"rental_uris":{"android":"levelo://app?vid=2c93a42a-4cfa-4bcc-ae5d-919aa911761b","ios":"levelo://app?vid=2c93a42a-4cfa-4bcc-ae5d-919aa911761b"},"vehicle_type_id":"4","last_reported":1770412835,"current_range_meters":8000,"station_id":"ce4bh692rcd13ifvqea0","pricing_plan_id":"cebpf4jnsgd1na2vs0mg"},{"bike_id":"98664213-67a2-4ff3-9921-fb6be5cd9cf6","system_id":"levelo_inurba_marseille","lat":43.29265,"lon":5.36848,"is_reserved":false,"is_disabled":false,"rental_uris":{"android":"levelo://app?vid=98664213-67a2-4ff3-9921-fb6be5cd9cf6","ios":"levelo://app?vid=98664213-67a2-4ff3-9921-fb6be5cd9cf6"},"vehicle_type_id":"4","last_reported":1770412835,"current_range_meters":8000,"station_id":"ce4bhbp2rcd13ifvqesg","pricing_plan_id":"cebpf4jnsgd1na2vs0mg"},{"bike_id":"29554745-e0e5-4276-b587-71d331cae345","system_id":"levelo_inurba_marseille","lat":43.29547,"lon":5.39051,"is_reserved":false,"is_disabled":true,"rental_uris":{"android":"levelo://app?vid=29554745-e0e5-4276-b587-71d331cae345","ios":"levelo://app?vid=29554745-e0e5-4276-b587-71d331cae345"},"vehicle_type_id":"4","last_reported":1770412835,"current_range_meters":8000,"station_id":"ce4bh3p2rcd13ifvqdp0","pricing_plan_id":"cebpf4jnsgd1na2vs0mg"},{"bike_id":"346787f4-b208-43b3-a13c-6d535139ef57","system_id":"levelo_inurba_marseille","lat":43.29907,"lon":5.43659,"is_reserved":false,"is_disabled":false,"rental_uris":{"android":"levelo://app?vid=346787f4-b208-43b3-a13c-6d535139ef57","ios":"levelo://app?vid=346787f4-b208-43b3-a13c-6d535139ef57"},"vehicle_type_id":"4","last_reported":1770412835,"current_range_meters":8400,"station_id":"ce4bhpp2rcd13ifvqhfg","pricing_plan_id":"cebpf4jnsgd1na2vs0mg"},{"bike_id":"a974f125-46b6-492b-a0bb-f810fede54b4","system_id":"levelo_inurba_marseille","lat":43.2892,"lon":5.364,"is_reserved":false,"is_disabled":false,"rental_uris":{"android":"levelo://app?vid=a974f125-46b6-492b-a0bb-f810fede54b4","ios":"levelo://app?vid=a974f125-46b6-492b-a0bb-f810fede54b4"},"vehicle_type_id":"4","last_reported":1770412835,"current_range_meters":8400,"station_id":"ce4bhc92rcd13ifvqetg","pricing_plan_id":"cebpf4jnsgd1na2vs0mg"},{"bike_id":"c83db4e2-15a7-4fa6-a03a-6d3ac9b5fffa","system_id":"levelo_inurba_marseille","lat":43.292865,"lon":5.368445,"is_reserved":false,"is_disabled":false,"rental_uris":{"android":"levelo://app?vid=c83db4e2-15a7-4fa6-a03a-6d3ac9b5fffa","ios":"levelo://app?vid=c83db4e2-15a7-4fa6-a03a-6d3ac9b5fffa"},"vehicle_type_id":"4","last_reported":1770412835,"current_range_meters":8400,"station_id":"ce4bhbp2rcd13ifvqesg","pricing_plan_id":"cebpf4jnsgd1na2vs0mg"},{"bike_id":"1d0ef12e-4bb8-4d8d-9509-0260b1aa5347","system_id":"levelo_inurba_marseille","lat":43.24392,"lon":5.37071,"is_reserved":false,"is_disabled":false,"rental_uris":{"android":"levelo://app?vid=1d0ef12e-4bb8-4d8d-9509-0260b1aa5347","ios":"levelo://app?vid=1d0ef12e-4bb8-4d8d-9509-0260b1aa5347"},"vehicle_type_id":"4","last_reported":1770412835,"current_range_meters":8400,"station_id":"ce4bhhh2rcd13ifvqfk0","pricing_plan_id":"cebpf4jnsgd1na2vs0mg"},{"bike_id":"1996eb86-7076-4765-a554-4eb6129634a7","system_id":"levelo_inurba_marseille","lat":43.27989,"lon":5.39999,"is_reserved":false,"is_disabled":false,"rental_uris":{"android":"levelo://app?vid=1996eb86-7076-4765-a554-4eb6129634a7","ios":"levelo://app?vid=1996eb86-7076-4765-a554-4eb6129634a7"},"vehicle_type_id":"4","last_reported":1770412835,"current_range_meters":8400,"station_id":"ce4bho92rcd13ifvqh4g","pricing_plan_id":"cebpf4jnsgd1na2vs0mg"},{"bike_id":"435bebd3-85eb-48e8-a27c-47cf8c020b08","system_id":"levelo_inurba_marseille","lat":43.289345,"lon":5.38371,"is_reserved":false,"is_disabled":false,"rental_uris":{"android":"levelo://app?vid=435bebd3-85eb-48e8-a27c-47cf8c020b08","ios":"levelo://app?vid=435bebd3-85eb-48e8-a27c-47cf8c020b08"},"vehicle_type_id":"4","last_reported":1770412835,"current_range_meters":8400,"station_id":"ce4bh612rcd13ifvqe6g","pricing_plan_id":"cebpf4jnsgd1na2vs0mg"},{"bike_id":"c25f2d0f-5ed0-44cb-8cc5-5638989ef65e","system_id":"levelo_inurba_marseille","lat":43.27958,"lon":5.40021,"is_reserved":false,"is_disabled":false,"rental_uris":{"android":"levelo://app?vid=c25f2d0f-5ed0-44cb-8cc5-5638989ef65e","ios":"levelo://app?vid=c25f2d0f-5ed0-44cb-8cc5-5638989ef65e"},"vehicle_type_id":"4","last_reported":1770412835,"current_range_meters":8400,"station_id":"ce4bho92rcd13ifvqh4g","pricing_plan_id":"cebpf4jnsgd1na2vs0mg"},{"bike_id":"b0c3d441-fa9a-4312-858a-e0f5eaf46fd5","system_id":"levelo_inurba_marseille","lat":43.32104,"lon":5.3676,"is_reserved":false,"is_disabled":false,"rental_uris":{"android":"levelo://app?vid=b0c3d441-fa9a-4312-858a-e0f5eaf46fd5","ios":"levelo://app?vid=b0c3d441-fa9a-4312-858a-e0f5eaf46fd5"},"vehicle_type_id":"4","last_reported":1770412835,"current_range_meters":8400,"station_id":"ce4bhrh2rcd13ifvqhug","pricing_plan_id":"cebpf4jnsgd1na2vs0mg"},{"bike_id":"cda2ace2-3282-4f4f-a051-3f7a3fad5177","system_id":"levelo_inurba_marseille","lat":43.239763,"lon":5.366505,"is_reserved":false,"is_disabled":false,"rental_uris":{"android":"levelo://app?vid=cda2ace2-3282-4f4f-a051-3f7a3fad5177","ios":"levelo://app?vid=cda2ace2-3282-4f4f-a051-3f7a3fad5177"},"vehicle_type_id":"4","last_reported":1770412835,"current_range_meters":8400,"station_id":"ce4bhi12rcd13ifvqfp0","pricing_plan_id":"cebpf4jnsgd1na2vs0mg"},{"bike_id":"4c2b4b6a-a466-45ed-8a84-7e0dbc6887b9","system_id":"levelo_inurba_marseille","lat":43.31073,"lon":5.37251,"is_reserved":false,"is_disabled":false,"rental_uris":{"android":"levelo://app?vid=4c2b4b6a-a466-45ed-8a84-7e0dbc6887b9","ios":"levelo://app?vid=4c2b4b6a-a466-45ed-8a84-7e0dbc6887b9"},"vehicle_type_id":"4","last_reported":1770412835,"current_range_meters":8400,"station_id":"","pricing_plan_id":"cebpf4jnsgd1na2vs0mg"},{"bike_id":"7c868fda-eb16-4e78-9be7-36a166883f40","system_id":"levelo_inurba_marseille","lat":43.299703,"lon":5.384702,"is_reserved":false,"is_disabled":false,"rental_uris":{"android":"levelo://app?vid=7c868fda-eb16-4e78-9be7-36a166883f40","ios":"levelo://app?vid=7c868fda-eb16-4e78-9be7-36a166883f40"},"vehicle_type_id":"4","last_reported":1770412835,"current_range_meters":8400,"station_id":"","pricing_plan_id":"cebpf4jnsgd1na2vs0mg"},{"bike_id":"ca56e68f-7e24-4681-a422-a463b8716c7e","system_id":"levelo_inurba_marseille","lat":43.28608,"lon":5.37055,"is_reserved":false,"is_disabled":false,"rental_uris":{"android":"levelo://app?vid=ca56e68f-7e24-4681-a422-a463b8716c7e","ios":"levelo://app?vid=ca56e68f-7e24-4681-a422-a463b8716c7e"},"vehicle_type_id":"4","last_reported":1770412835,"current_range_meters":8400,"station_id":"ce4bht12rcd13ifvqi60","pricing_plan_id":"cebpf4jnsgd1na2vs0mg"},{"bike_id":"596e8b7d-7cb7-4bce-bed5-c069c5df7df0","system_id":"levelo_inurba_marseille","lat":43.24147,"lon":5.36407,"is_reserved":false,"is_disabled":false,"rental_uris":{"android":"levelo://app?vid=596e8b7d-7cb7-4bce-bed5-c069c5df7df0","ios":"levelo://app?vid=596e8b7d-7cb7-4bce-bed5-c069c5df7df0"},"vehicle_type_id":"4","last_reported":1770412835,"current_range_meters":8400,"station_id":"cpo36qri1sfpv3e86is0","pricing_plan_id":"cebpf4jnsgd1na2vs0mg"},{"bike_id":"36261485-db2f-4973-9fa4-32076e29b117","system_id":"levelo_inurba_marseille","lat":43.29245,"lon":5.38421,"is_reserved":false,"is_disabled":false,"rental_uris":{"android":"levelo://app?vid=36261485-db2f-4973-9fa4-32076e29b117","ios":"levelo://app?vid=36261485-db2f-4973-9fa4-32076e29b117"},"vehicle_type_id":"4","last_reported":1770412835,"current_range_meters":8400,"station_id":"ce4bh692rcd13ifvqea0","pricing_plan_id":"cebpf4jnsgd1na2vs0mg"},{"bike_id":"22a18f5a-e84b-4706-acdf-fdede8aeea20","system_id":"levelo_inurba_marseille","lat":43.25912,"lon":5.39894,"is_reserved":false,"is_disabled":false,"rental_uris":{"android":"levelo://app?vid=22a18f5a-e84b-4706-acdf-fdede8aeea20","ios":"levelo://app?vid=22a18f5a-e84b-4706-acdf-fdede8aeea20"},"vehicle_type_id":"4","last_reported":1770412835,"current_range_meters":8400,"station_id":"","pricing_plan_id":"cebpf4jnsgd1na2vs0mg"},{"bike_id":"4e768b9d-ac09-4aa9-91e9-f26739b610c9","system_id":"levelo_inurba_marseille","lat":43.23797,"lon":5.36642,"is_reserved":false,"is_disabled":false,"rental_uris":{"android":"levelo://app?vid=4e768b9d-ac09-4aa9-91e9-f26739b610c9","ios":"levelo://app?vid=4e768b9d-ac09-4aa9-91e9-f26739b610c9"},"vehicle_type_id":"4","last_reported":1770412835,"current_range_meters":8400,"station_id":"st_d3nk18o9ro0c73en2l3g","pricing_plan_id":"cebpf4jnsgd1na2vs0mg"},{"bike_id":"9c61ef1f-eed0-4f64-bdb0-26c649466494","system_id":"levelo_inurba_marseille","lat":43.30297,"lon":5.39218,"is_reserved":false,"is_disabled":false,"rental_uris":{"android":"levelo://app?vid=9c61ef1f-eed0-4f64-bdb0-26c649466494","ios":"levelo://app?vid=9c61ef1f-eed0-4f64-bdb0-26c649466494"},"vehicle_type_id":"4","last_reported":1770412835,"current_range_meters":8400,"station_id":"ce4bgkh2rcd13ifvqbk0","pricing_plan_id":"cebpf4jnsgd1na2vs0mg"},{"bike_id":"bb454300-9af5-4f97-bf20-719b8c1f1b1e","system_id":"levelo_inurba_marseille","lat":43.29023,"lon":5.38646,"is_reserved":false,"is_disabled":false,"rental_uris":{"android":"levelo://app?vid=bb454300-9af5-4f97-bf20-719b8c1f1b1e","ios":"levelo://app?vid=bb454300-9af5-4f97-bf20-719b8c1f1b1e"},"vehicle_type_id":"4","last_reported":1770412835,"current_range_meters":8400,"station_id":"ce4bh4p2rcd13ifvqe0g","pricing_plan_id":"cebpf4jnsgd1na2vs0mg"},{"bike_id":"762d17af-af27-45ae-8011-3c290ff80fd9","system_id":"levelo_inurba_marseille","lat":43.24185,"lon":5.36401,"is_reserved":false,"is_disabled":false,"rental_uris":{"android":"levelo://app?vid=762d17af-af27-45ae-8011-3c290ff80fd9","ios":"levelo://app?vid=762d17af-af27-45ae-8011-3c290ff80fd9"},"vehicle_type_id":"4","last_reported":1770412835,"current_range_meters":8400,"station_id":"cpo36qri1sfpv3e86is0","pricing_plan_id":"cebpf4jnsgd1na2vs0mg"},{"bike_id":"07569cbf-2a7a-4124-bac7-d7124dc408c4","system_id":"levelo_inurba_marseille","lat":43.28032,"lon":5.36935,"is_reserved":false,"is_disabled":false,"rental_uris":{"android":"levelo://app?vid=07569cbf-2a7a-4124-bac7-d7124dc408c4","ios":"levelo://app?vid=07569cbf-2a7a-4124-bac7-d7124dc408c4"},"vehicle_type_id":"4","last_reported":1770412835,"current_range_meters":8800,"station_id":"ce4bha12rcd13ifvqef0","pricing_plan_id":"cebpf4jnsgd1na2vs0mg"},{"bike_id":"2e03d4d7-88ca-4991-bee2-f08d03270792","system_id":"levelo_inurba_marseille","lat":43.24623,"lon":5.4316,"is_reserved":false,"is_disabled":false,"rental_uris":{"android":"levelo://app?vid=2e03d4d7-88ca-4991-bee2-f08d03270792","ios":"levelo://app?vid=2e03d4d7-88ca-4991-bee2-f08d03270792"},"vehicle_type_id":"4","last_reported":1770412835,"current_range_meters":8800,"station_id":"st_d2m6c4gdas8pm72e190g","pricing_plan_id":"cebpf4jnsgd1na2vs0mg"},{"bike_id":"b8b2022f-ad53-43bd-a0da-20d6c0c24249","system_id":"levelo_inurba_marseille","lat":43.26207,"lon":5.37439,"is_reserved":false,"is_disabled":false,"rental_uris":{"android":"levelo://app?vid=b8b2022f-ad53-43bd-a0da-20d6c0c24249","ios":"levelo://app?vid=b8b2022f-ad53-43bd-a0da-20d6c0c24249"},"vehicle_type_id":"4","last_reported":1770412835,"current_range_meters":8800,"station_id":"ce4bhgp2rcd13ifvqfc0","pricing_plan_id":"cebpf4jnsgd1na2vs0mg"},{"bike_id":"47043057-0306-45df-a6a6-65b83d02c38c","system_id":"levelo_inurba_marseille","lat":43.295315,"lon":5.385555,"is_reserved":false,"is_disabled":false,"rental_uris":{"android":"levelo://app?vid=47043057-0306-45df-a6a6-65b83d02c38c","ios":"levelo://app?vid=47043057-0306-45df-a6a6-65b83d02c38c"},"vehicle_type_id":"4","last_reported":1770412835,"current_range_meters":8800,"station_id":"ce4bgih2rcd13ifvqba0","pricing_plan_id":"cebpf4jnsgd1na2vs0mg"},{"bike_id":"1d300b7f-3017-48d2-939a-4f62cc472f6f","system_id":"levelo_inurba_marseille","lat":43.30465,"lon":5.3791,"is_reserved":false,"is_disabled":false,"rental_uris":{"android":"levelo://app?vid=1d300b7f-3017-48d2-939a-4f62cc472f6f","ios":"levelo://app?vid=1d300b7f-3017-48d2-939a-4f62cc472f6f"},"vehicle_type_id":"4","last_reported":1770412835,"current_range_meters":8800,"station_id":"ce4bgup2rcd13ifvqcn0","pricing_plan_id":"cebpf4jnsgd1na2vs0mg"},{"bike_id":"b19876aa-88fe-4c52-b3cb-d5483e8e513e","system_id":"levelo_inurba_marseille","lat":43.31189,"lon":5.38735,"is_reserved":false,"is_disabled":false,"rental_uris":{"android":"levelo://app?vid=b19876aa-88fe-4c52-b3cb-d5483e8e513e","ios":"levelo://app?vid=b19876aa-88fe-4c52-b3cb-d5483e8e513e"},"vehicle_type_id":"4","last_reported":1770412835,"current_range_meters":8800,"station_id":"ce4bgv12rcd13ifvqcp0","pricing_plan_id":"cebpf4jnsgd1na2vs0mg"},{"bike_id":"0787aab0-cce8-4a0e-abb2-fb72550373e2","system_id":"levelo_inurba_marseille","lat":43.295271,"lon":5.385444,"is_reserved":false,"is_disabled":false,"rental_uris":{"android":"levelo://app?vid=0787aab0-cce8-4a0e-abb2-fb72550373e2","ios":"levelo://app?vid=0787aab0-cce8-4a0e-abb2-fb72550373e2"},"vehicle_type_id":"4","last_reported":1770412835,"current_range_meters":8800,"station_id":"ce4bgih2rcd13ifvqba0","pricing_plan_id":"cebpf4jnsgd1na2vs0mg"},{"bike_id":"4553b9ae-95be-4d03-9d86-2a4c79a4ffcc","system_id":"levelo_inurba_marseille","lat":43.28911,"lon":5.39844,"is_reserved":false,"is_disabled":false,"rental_uris":{"android":"levelo://app?vid=4553b9ae-95be-4d03-9d86-2a4c79a4ffcc","ios":"levelo://app?vid=4553b9ae-95be-4d03-9d86-2a4c79a4ffcc"},"vehicle_type_id":"4","last_reported":1770412835,"current_range_meters":8800,"station_id":"","pricing_plan_id":"cebpf4jnsgd1na2vs0mg"},{"bike_id":"0b979eac-d7d6-4711-8886-0f81eca09d81","system_id":"levelo_inurba_marseille","lat":43.30464,"lon":5.37899,"is_reserved":false,"is_disabled":false,"rental_uris":{"android":"levelo://app?vid=0b979eac-d7d6-4711-8886-0f81eca09d81","ios":"levelo://app?vid=0b979eac-d7d6-4711-8886-0f81eca09d81"},"vehicle_type_id":"4","last_reported":1770412835,"current_range_meters":8800,"station_id":"ce4bgup2rcd13ifvqcn0","pricing_plan_id":"cebpf4jnsgd1na2vs0mg"},{"bike_id":"a55aaf46-2a79-404f-9837-91b8ca79e6ec","system_id":"levelo_inurba_marseille","lat":43.292259,"lon":5.384352,"is_reserved":false,"is_disabled":false,"rental_uris":{"android":"levelo://app?vid=a55aaf46-2a79-404f-9837-91b8ca79e6ec","ios":"levelo://app?vid=a55aaf46-2a79-404f-9837-91b8ca79e6ec"},"vehicle_type_id":"4","last_reported":1770412835,"current_range_meters":8800,"station_id":"ce4bh692rcd13ifvqea0","pricing_plan_id":"cebpf4jnsgd1na2vs0mg"},{"bike_id":"cd9244c5-7eac-409c-867f-ff3450cc1445","system_id":"levelo_inurba_marseille","lat":43.26939,"lon":5.40256,"is_reserved":false,"is_disabled":false,"rental_uris":{"android":"levelo://app?vid=cd9244c5-7eac-409c-867f-ff3450cc1445","ios":"levelo://app?vid=cd9244c5-7eac-409c-867f-ff3450cc1445"},