{"last_updated":1691168717,"ttl":30,"version":"2.2","data":{"bikes":[{"bike_id":"aecb40f2-2e36-4067-9134-dff330861a81","system_id":"levelo_inurba_marseille","lat":43.314811,"lon":5.373103,"is_reserved":false,"is_disabled":false,"rental_uris":{"android":"levelo://app?vid=aecb40f2-2e36-4067-9134-dff330861a81","ios":"levelo://app?vid=aecb40f2-2e36-4067-9134-dff330861a81"},"vehicle_type_id":"4","last_reported":1691168718,"current_range_meters":0,"station_id":"ce4bgt12rcd13ifvqcd0","pricing_plan_id":"free"},{"bike_id":"6dc7af05-970e-418c-b927-3f7742d60fa1","system_id":"levelo_inurba_marseille","lat":43.314811,"lon":5.373103,"is_reserved":false,"is_disabled":false,"rental_uris":{"android":"levelo://app?vid=6dc7af05-970e-418c-b927-3f7742d60fa1","ios":"levelo://app?vid=6dc7af05-970e-418c-b927-3f7742d60fa1"},"vehicle_type_id":"4","last_reported":1691168718,"current_range_meters":12000,"station_id":"ce4bgt12rcd13ifvqcd0","pricing_plan_id":"free"},{"bike_id":"e0355a03-6996-4157-94a1-91760a8b54e1","system_id":"levelo_inurba_marseille","lat":43.314811,"lon":5.373103,"is_reserved":false,"is_disabled":false,"rental_uris":{"android":"levelo://app?vid=e0355a03-6996-4157-94a1-91760a8b54e1","ios":"levelo://app?vid=e0355a03-6996-4157-94a1-91760a8b54e1"},"vehicle_type_id":"4","last_reported":1691168718,"current_range_meters":24000,"station_id":"ce4bgt12rcd13ifvqcd0","pricing_plan_id":"free"},{"bike_id":"aa9ce8f2-a61a-41ed-9839-d51cfc8dc494","system_id":"levelo_inurba_marseille","lat":43.314811,"lon":5.373104,"is_reserved":false,"is_disabled":false,"rental_uris":{"android":"levelo://app?vid=aa9ce8f2-a61a-41ed-9839-d51cfc8dc494","ios":"levelo://app?vid=aa9ce8f2-a61a-41ed-9839-d51cfc8dc494"},"vehicle_type_id":"4","last_reported":1691168718,"current_range_meters":17600,"station_id":"ce4bgt12rcd13ifvqcd0","pricing_plan_id":"free"},{"bike_id":"2194baf5-c27a-4b1f-82f8-fd9aea21663a","system_id":"levelo_inurba_marseille","lat":43.309039,"lon":5.371797,"is_reserved":false,"is_disabled":false,"rental_uris":{"android":"levelo://app?vid=2194baf5-c27a-4b1f-82f8-fd9aea21663a","ios":"levelo://app?vid=2194baf5-c27a-4b1f-82f8-fd9aea21663a"},"vehicle_type_id":"4","last_reported":1691168718,"current_range_meters":28000,"station_id":"ce4bguh2rcd13ifvqckg","pricing_plan_id":"free"},{"bike_id":"7cfb81a3-fd7f-41d1-987d-c1037b7c6b4a","system_id":"levelo_inurba_marseille","lat":43.31431,"lon":5.37477,"is_reserved":false,"is_disabled":false,"rental_uris":{"android":"levelo://app?vid=7cfb81a3-fd7f-41d1-987d-c1037b7c6b4a","ios":"levelo://app?vid=7cfb81a3-fd7f-41d1-987d-c1037b7c6b4a"},"vehicle_type_id":"4","last_reported":1691168718,"current_range_meters":17600,"station_id":"","pricing_plan_id":"free"},{"bike_id":"8731a7c6-2311-4fa5-8c29-a9e6392f64ff","system_id":"levelo_inurba_marseille","lat":43.305714,"lon":5.365633,"is_reserved":false,"is_disabled":false,"rental_uris":{"android":"levelo://app?vid=8731a7c6-2311-4fa5-8c29-a9e6392f64ff","ios":"levelo://app?vid=8731a7c6-2311-4fa5-8c29-a9e6392f64ff"},"vehicle_type_id":"4","last_reported":1691168718,"current_range_meters":26800,"station_id":"ce4bgs12rcd13ifvqcag","pricing_plan_id":"free"},{"bike_id":"f20ea888-8740-440b-bfeb-8eb2a7c1f652","system_id":"levelo_inurba_marseille","lat":43.305989,"lon":5.37225,"is_reserved":false,"is_disabled":false,"rental_uris":{"android":"levelo://app?vid=f20ea888-8740-440b-bfeb-8eb2a7c1f652","ios":"levelo://app?vid=f20ea888-8740-440b-bfeb-8eb2a7c1f652"},"vehicle_type_id":"4","last_reported":1691168718,"current_range_meters":31200,"station_id":"ce4bgqh2rcd13ifvqc4g","pricing_plan_id":"free"},{"bike_id":"6e7d2a81-eb04-467b-8744-5fac68edc62a","system_id":"levelo_inurba_marseille","lat":43.307945,"lon":5.376487,"is_reserved":false,"is_disabled":false,"rental_uris":{"android":"levelo://app?vid=6e7d2a81-eb04-467b-8744-5fac68edc62a","ios":"levelo://app?vid=6e7d2a81-eb04-467b-8744-5fac68edc62a"},"vehicle_type_id":"4","last_reported":1691168718,"current_range_meters":4400,"station_id":"ce4bgv92rcd13ifvqcq0","pricing_plan_id":"free"},{"bike_id":"dc6fae15-a2df-4c8a-b691-29335460d312","system_id":"levelo_inurba_marseille","lat":43.30966,"lon":5.37991,"is_reserved":false,"is_disabled":false,"rental_uris":{"android":"levelo://app?vid=dc6fae15-a2df-4c8a-b691-29335460d312","ios":"levelo://app?vid=dc6fae15-a2df-4c8a-b691-29335460d312"},"vehicle_type_id":"4","last_reported":1691168718,"current_range_meters":16800,"station_id":"","pricing_plan_id":"free"},{"bike_id":"80d20e39-f50e-4a7e-b27f-c94adcc63542","system_id":"levelo_inurba_marseille","lat":43.32221,"lon":5.37631,"is_reserved":false,"is_disabled":false,"rental_uris":{"android":"levelo://app?vid=80d20e39-f50e-4a7e-b27f-c94adcc63542","ios":"levelo://app?vid=80d20e39-f50e-4a7e-b27f-c94adcc63542"},"vehicle_type_id":"4","last_reported":1691168718,"current_range_meters":0,"station_id":"","pricing_plan_id":"free"},{"bike_id":"14385533-43b8-41b3-a5d8-d620bba80d34","system_id":"levelo_inurba_marseille","lat":43.304606,"lon":5.379026,"is_reserved":false,"is_disabled":false,"rental_uris":{"android":"levelo://app?vid=14385533-43b8-41b3-a5d8-d620bba80d34","ios":"levelo://app?vid=14385533-43b8-41b3-a5d8-d620bba80d34"},"vehicle_type_id":"4","last_reported":1691168718,"current_range_meters":18400,"station_id":"ce4bgup2rcd13ifvqcn0","pricing_plan_id":"free"},{"bike_id":"30a6c544-6755-4a50-8856-c1e2f3262cb2","system_id":"levelo_inurba_marseille","lat":43.304606,"lon":5.379026,"is_reserved":false,"is_disabled":false,"rental_uris":{"android":"levelo://app?vid=30a6c544-6755-4a50-8856-c1e2f3262cb2","ios":"levelo://app?vid=30a6c544-6755-4a50-8856-c1e2f3262cb2"},"vehicle_type_id":"4","last_reported":1691168718,"current_range_meters":20800,"station_id":"ce4bgup2rcd13ifvqcn0","pricing_plan_id":"free"},{"bike_id":"d6971ac0-1c05-4e60-9a97-7540010f1641","system_id":"levelo_inurba_marseille","lat":43.304606,"lon":5.379026,"is_reserved":false,"is_disabled":false,"rental_uris":{"android":"levelo://app?vid=d6971ac0-1c05-4e60-9a97-7540010f1641","ios":"levelo://app?vid=d6971ac0-1c05-4e60-9a97-7540010f1641"},"vehicle_type_id":"4","last_reported":1691168718,"current_range_meters":13600,"station_id":"ce4bgup2rcd13ifvqcn0","pricing_plan_id":"free"},{"bike_id":"5752a7b8-144e-4a7b-8241-742ef5bd057c","system_id":"levelo_inurba_marseille","lat":43.302784,"lon":5.377158,"is_reserved":false,"is_disabled":false,"rental_uris":{"android":"levelo://app?vid=5752a7b8-144e-4a7b-8241-742ef5bd057c","ios":"levelo://app?vid=5752a7b8-144e-4a7b-8241-742ef5bd057c"},"vehicle_type_id":"4","last_reported":1691168718,"current_range_meters":24000,"station_id":"ce4bguh2rcd13ifvqcj0","pricing_plan_id":"free"},{"bike_id":"9a7ba0be-d603-4fe5-9b98-2df0d98d5428","system_id":"levelo_inurba_marseille","lat":43.302784,"lon":5.377158,"is_reserved":false,"is_disabled":false,"rental_uris":{"android":"levelo://app?vid=9a7ba0be-d603-4fe5-9b98-2df0d98d5428","ios":"levelo://app?vid=9a7ba0be-d603-4fe5-9b98-2df0d98d5428"},"vehicle_type_id":"4","last_reported":1691168718,"current_range_meters":18400,"station_id":"ce4bguh2rcd13ifvqcj0","pricing_plan_id":"free"},{"bike_id":"edb501be-1bd4-4987-8e90-5a9f8eacbaf2","system_id":"levelo_inurba_marseille","lat":43.302784,"lon":5.377158,"is_reserved":false,"is_disabled":false,"rental_uris":{"android":"levelo://app?vid=edb501be-1bd4-4987-8e90-5a9f8eacbaf2","ios":"levelo://app?vid=edb501be-1bd4-4987-8e90-5a9f8eacbaf2"},"vehicle_type_id":"4","last_reported":1691168718,"current_range_meters":31200,"station_id":"ce4bguh2rcd13ifvqcj0","pricing_plan_id":"free"},{"bike_id":"d5f7f396-3296-41b5-bc26-a6ef0187ad90","system_id":"levelo_inurba_marseille","lat":43.31997,"lon":5.38154,"is_reserved":false,"is_disabled":false,"rental_uris":{"android":"levelo://app?vid=d5f7f396-3296-41b5-bc26-a6ef0187ad90","ios":"levelo://app?vid=d5f7f396-3296-41b5-bc26-a6ef0187ad90"},"vehicle_type_id":"4","last_reported":1691168718,"current_range_meters":0,"station_id":"ce4bhr12rcd13ifvqhpg","pricing_plan_id":"free"},{"bike_id":"9510509c-7adc-4e00-900d-396904c60631","system_id":"levelo_inurba_marseille","lat":43.31991,"lon":5.38162,"is_reserved":false,"is_disabled":false,"rental_uris":{"android":"levelo://app?vid=9510509c-7adc-4e00-900d-396904c60631","ios":"levelo://app?vid=9510509c-7adc-4e00-900d-396904c60631"},"vehicle_type_id":"4","last_reported":1691168718,"current_range_meters":28400,"station_id":"ce4bhr12rcd13ifvqhpg","pricing_plan_id":"free"},{"bike_id":"62c5e9e2-02d2-4cb4-8a03-b7591f23e3af","system_id":"levelo_inurba_marseille","lat":43.313571,"lon":5.384829,"is_reserved":false,"is_disabled":false,"rental_uris":{"android":"levelo://app?vid=62c5e9e2-02d2-4cb4-8a03-b7591f23e3af","ios":"levelo://app?vid=62c5e9e2-02d2-4cb4-8a03-b7591f23e3af"},"vehicle_type_id":"4","last_reported":1691168718,"current_range_meters":21600,"station_id":"ce4bgt92rcd13ifvqcf0","pricing_plan_id":"free"},{"bike_id":"c2d2293a-7975-4463-8082-f5aab5d2870d","system_id":"levelo_inurba_marseille","lat":43.31371,"lon":5.3849,"is_reserved":false,"is_disabled":false,"rental_uris":{"android":"levelo://app?vid=c2d2293a-7975-4463-8082-f5aab5d2870d","ios":"levelo://app?vid=c2d2293a-7975-4463-8082-f5aab5d2870d"},"vehicle_type_id":"4","last_reported":1691168718,"current_range_meters":16800,"station_id":"ce4bgt92rcd13ifvqcf0","pricing_plan_id":"free"},{"bike_id":"3cb7fd70-121e-4eb5-9a01-ecc8718aa1bb","system_id":"levelo_inurba_marseille","lat":43.29941,"lon":5.36549,"is_reserved":false,"is_disabled":false,"rental_uris":{"android":"levelo://app?vid=3cb7fd70-121e-4eb5-9a01-ecc8718aa1bb","ios":"levelo://app?vid=3cb7fd70-121e-4eb5-9a01-ecc8718aa1bb"},"vehicle_type_id":"4","last_reported":1691168718,"current_range_meters":26800,"station_id":"ce4bgm92rcd13ifvqbr0","pricing_plan_id":"free"},{"bike_id":"892f7507-4c4f-4145-a308-fbba71ffb9c5","system_id":"levelo_inurba_marseille","lat":43.2998,"lon":5.37169,"is_reserved":false,"is_disabled":false,"rental_uris":{"android":"levelo://app?vid=892f7507-4c4f-4145-a308-fbba71ffb9c5","ios":"levelo://app?vid=892f7507-4c4f-4145-a308-fbba71ffb9c5"},"vehicle_type_id":"4","last_reported":1691168718,"current_range_meters":30400,"station_id":"ce4bgr92rcd13ifvqc7g","pricing_plan_id":"free"},{"bike_id":"52a7503e-6dec-48ce-8e63-f164fad3335d","system_id":"levelo_inurba_marseille","lat":43.2997,"lon":5.37166,"is_reserved":false,"is_disabled":false,"rental_uris":{"android":"levelo://app?vid=52a7503e-6dec-48ce-8e63-f164fad3335d","ios":"levelo://app?vid=52a7503e-6dec-48ce-8e63-f164fad3335d"},"vehicle_type_id":"4","last_reported":1691168718,"current_range_meters":28800,"station_id":"ce4bgr92rcd13ifvqc7g","pricing_plan_id":"free"},{"bike_id":"425efc6d-934e-4de1-a2ec-22d4d4171872","system_id":"levelo_inurba_marseille","lat":43.305364,"lon":5.384119,"is_reserved":false,"is_disabled":false,"rental_uris":{"android":"levelo://app?vid=425efc6d-934e-4de1-a2ec-22d4d4171872","ios":"levelo://app?vid=425efc6d-934e-4de1-a2ec-22d4d4171872"},"vehicle_type_id":"4","last_reported":1691168718,"current_range_meters":19200,"station_id":"ce4bgg92rcd13ifvqb30","pricing_plan_id":"free"},{"bike_id":"30537d43-af02-4a10-b928-7b9b8cf633d2","system_id":"levelo_inurba_marseille","lat":43.305364,"lon":5.384119,"is_reserved":false,"is_disabled":false,"rental_uris":{"android":"levelo://app?vid=30537d43-af02-4a10-b928-7b9b8cf633d2","ios":"levelo://app?vid=30537d43-af02-4a10-b928-7b9b8cf633d2"},"vehicle_type_id":"4","last_reported":1691168718,"current_range_meters":28800,"station_id":"ce4bgg92rcd13ifvqb30","pricing_plan_id":"free"},{"bike_id":"567cc3de-f2d0-459a-b88b-a9938f4c20ad","system_id":"levelo_inurba_marseille","lat":43.30535,"lon":5.38427,"is_reserved":false,"is_disabled":false,"rental_uris":{"android":"levelo://app?vid=567cc3de-f2d0-459a-b88b-a9938f4c20ad","ios":"levelo://app?vid=567cc3de-f2d0-459a-b88b-a9938f4c20ad"},"vehicle_type_id":"4","last_reported":1691168718,"current_range_meters":17200,"station_id":"ce4bgg92rcd13ifvqb30","pricing_plan_id":"free"},{"bike_id":"667fb7c4-762a-4ab6-9690-e0884db676b0","system_id":"levelo_inurba_marseille","lat":43.299243,"lon":5.374807,"is_reserved":false,"is_disabled":false,"rental_uris":{"android":"levelo://app?vid=667fb7c4-762a-4ab6-9690-e0884db676b0","ios":"levelo://app?vid=667fb7c4-762a-4ab6-9690-e0884db676b0"},"vehicle_type_id":"4","last_reported":1691168718,"current_range_meters":10800,"station_id":"ce4bgjh2rcd13ifvqbg0","pricing_plan_id":"free"},{"bike_id":"16ec2ab9-4c0f-463f-a55e-a87f8ef9abc7","system_id":"levelo_inurba_marseille","lat":43.299243,"lon":5.37481,"is_reserved":false,"is_disabled":false,"rental_uris":{"android":"levelo://app?vid=16ec2ab9-4c0f-463f-a55e-a87f8ef9abc7","ios":"levelo://app?vid=16ec2ab9-4c0f-463f-a55e-a87f8ef9abc7"},"vehicle_type_id":"4","last_reported":1691168718,"current_range_meters":0,"station_id":"ce4bgjh2rcd13ifvqbg0","pricing_plan_id":"free"},{"bike_id":"53034758-d18a-4e0b-a200-fa4baf2b45bc","system_id":"levelo_inurba_marseille","lat":43.311722,"lon":5.387247,"is_reserved":false,"is_disabled":false,"rental_uris":{"android":"levelo://app?vid=53034758-d18a-4e0b-a200-fa4baf2b45bc","ios":"levelo://app?vid=53034758-d18a-4e0b-a200-fa4baf2b45bc"},"vehicle_type_id":"4","last_reported":1691168718,"current_range_meters":800,"station_id":"ce4bgv12rcd13ifvqcp0","pricing_plan_id":"free"},{"bike_id":"db993b36-ea81-4814-923d-0ea56b9d014c","system_id":"levelo_inurba_marseille","lat":43.311722,"lon":5.387247,"is_reserved":false,"is_disabled":false,"rental_uris":{"android":"levelo://app?vid=db993b36-ea81-4814-923d-0ea56b9d014c","ios":"levelo://app?vid=db993b36-ea81-4814-923d-0ea56b9d014c"},"vehicle_type_id":"4","last_reported":1691168718,"current_range_meters":15600,"station_id":"ce4bgv12rcd13ifvqcp0","pricing_plan_id":"free"},{"bike_id":"1de3331d-4b86-41a4-8d0c-fefd964b756d","system_id":"levelo_inurba_marseille","lat":43.311722,"lon":5.387247,"is_reserved":false,"is_disabled":false,"rental_uris":{"android":"levelo://app?vid=1de3331d-4b86-41a4-8d0c-fefd964b756d","ios":"levelo://app?vid=1de3331d-4b86-41a4-8d0c-fefd964b756d"},"vehicle_type_id":"4","last_reported":1691168718,"current_range_meters":23600,"station_id":"ce4bgv12rcd13ifvqcp0","pricing_plan_id":"free"},{"bike_id":"28f7456a-7ab8-43cc-923a-3c36861aad2e","system_id":"levelo_inurba_marseille","lat":43.311722,"lon":5.387247,"is_reserved":false,"is_disabled":false,"rental_uris":{"android":"levelo://app?vid=28f7456a-7ab8-43cc-923a-3c36861aad2e","ios":"levelo://app?vid=28f7456a-7ab8-43cc-923a-3c36861aad2e"},"vehicle_type_id":"4","last_reported":1691168718,"current_range_meters":9600,"station_id":"ce4bgv12rcd13ifvqcp0","pricing_plan_id":"free"},{"bike_id":"e10fae54-9b81-49f4-ba53-a6a6d1ac2154","system_id":"levelo_inurba_marseille","lat":43.311722,"lon":5.387247,"is_reserved":false,"is_disabled":false,"rental_uris":{"android":"levelo://app?vid=e10fae54-9b81-49f4-ba53-a6a6d1ac2154","ios":"levelo://app?vid=e10fae54-9b81-49f4-ba53-a6a6d1ac2154"},"vehicle_type_id":"4","last_reported":1691168718,"current_range_meters":6400,"station_id":"ce4bgv12rcd13ifvqcp0","pricing_plan_id":"free"},{"bike_id":"b8cb5be2-24e6-48aa-bc88-08d3d7b2eb3a","system_id":"levelo_inurba_marseille","lat":43.311722,"lon":5.387247,"is_reserved":false,"is_disabled":false,"rental_uris":{"android":"levelo://app?vid=b8cb5be2-24e6-48aa-bc88-08d3d7b2eb3a","ios":"levelo://app?vid=b8cb5be2-24e6-48aa-bc88-08d3d7b2eb3a"},"vehicle_type_id":"4","last_reported":1691168718,"current_range_meters":21600,"station_id":"ce4bgv12rcd13ifvqcp0","pricing_plan_id":"free"},{"bike_id":"e92dda2d-d75d-411d-99b3-29f0994a33b8","system_id":"levelo_inurba_marseille","lat":43.32829,"lon":5.36679,"is_reserved":false,"is_disabled":false,"rental_uris":{"android":"levelo://app?vid=e92dda2d-d75d-411d-99b3-29f0994a33b8","ios":"levelo://app?vid=e92dda2d-d75d-411d-99b3-29f0994a33b8"},"vehicle_type_id":"4","last_reported":1691168718,"current_range_meters":11600,"station_id":"ce4bhs92rcd13ifvqi0g","pricing_plan_id":"free"},{"bike_id":"0929eb81-d053-4634-849a-5653df7d1019","system_id":"levelo_inurba_marseille","lat":43.328371,"lon":5.366909,"is_reserved":false,"is_disabled":false,"rental_uris":{"android":"levelo://app?vid=0929eb81-d053-4634-849a-5653df7d1019","ios":"levelo://app?vid=0929eb81-d053-4634-849a-5653df7d1019"},"vehicle_type_id":"4","last_reported":1691168718,"current_range_meters":22000,"station_id":"ce4bhs92rcd13ifvqi0g","pricing_plan_id":"free"},{"bike_id":"dd789220-e7b5-42c1-b9dc-dc4243148021","system_id":"levelo_inurba_marseille","lat":43.297163,"lon":5.365866,"is_reserved":false,"is_disabled":false,"rental_uris":{"android":"levelo://app?vid=dd789220-e7b5-42c1-b9dc-dc4243148021","ios":"levelo://app?vid=dd789220-e7b5-42c1-b9dc-dc4243148021"},"vehicle_type_id":"4","last_reported":1691168718,"current_range_meters":31200,"station_id":"ce4bgn12rcd13ifvqbt0","pricing_plan_id":"free"},{"bike_id":"c3b5dae7-d53d-4c92-ba3a-3eeb1061990e","system_id":"levelo_inurba_marseille","lat":43.299048,"lon":5.3813,"is_reserved":false,"is_disabled":false,"rental_uris":{"android":"levelo://app?vid=c3b5dae7-d53d-4c92-ba3a-3eeb1061990e","ios":"levelo://app?vid=c3b5dae7-d53d-4c92-ba3a-3eeb1061990e"},"vehicle_type_id":"4","last_reported":1691168718,"current_range_meters":7200,"station_id":"ce4bgj12rcd13ifvqbc0","pricing_plan_id":"free"},{"bike_id":"e9c2df05-b501-4869-8e98-5af0faecaf8b","system_id":"levelo_inurba_marseille","lat":43.309589,"lon":5.390258,"is_reserved":false,"is_disabled":false,"rental_uris":{"android":"levelo://app?vid=e9c2df05-b501-4869-8e98-5af0faecaf8b","ios":"levelo://app?vid=e9c2df05-b501-4869-8e98-5af0faecaf8b"},"vehicle_type_id":"4","last_reported":1691168718,"current_range_meters":31200,"station_id":"ce4bgup2rcd13ifvqco0","pricing_plan_id":"free"},{"bike_id":"1b58ab06-e110-4265-98fb-3d1c4d88df16","system_id":"levelo_inurba_marseille","lat":43.309589,"lon":5.390258,"is_reserved":false,"is_disabled":false,"rental_uris":{"android":"levelo://app?vid=1b58ab06-e110-4265-98fb-3d1c4d88df16","ios":"levelo://app?vid=1b58ab06-e110-4265-98fb-3d1c4d88df16"},"vehicle_type_id":"4","last_reported":1691168718,"current_range_meters":30800,"station_id":"ce4bgup2rcd13ifvqco0","pricing_plan_id":"free"},{"bike_id":"63096b88-9083-4eb9-9216-4b36fd764a8f","system_id":"levelo_inurba_marseille","lat":43.309482,"lon":5.390282,"is_reserved":false,"is_disabled":false,"rental_uris":{"android":"levelo://app?vid=63096b88-9083-4eb9-9216-4b36fd764a8f","ios":"levelo://app?vid=63096b88-9083-4eb9-9216-4b36fd764a8f"},"vehicle_type_id":"4","last_reported":1691168718,"current_range_meters":30800,"station_id":"ce4bgup2rcd13ifvqco0","pricing_plan_id":"free"},{"bike_id":"d928f4a2-2cce-4e2f-b17e-c1131eb637cc","system_id":"levelo_inurba_marseille","lat":43.309472,"lon":5.390286,"is_reserved":false,"is_disabled":false,"rental_uris":{"android":"levelo://app?vid=d928f4a2-2cce-4e2f-b17e-c1131eb637cc","ios":"levelo://app?vid=d928f4a2-2cce-4e2f-b17e-c1131eb637cc"},"vehicle_type_id":"4","last_reported":1691168718,"current_range_meters":28000,"station_id":"ce4bgup2rcd13ifvqco0","pricing_plan_id":"free"},{"bike_id":"5ee73636-ab6c-4db3-9e1d-b7ba13a076aa","system_id":"levelo_inurba_marseille","lat":43.309469,"lon":5.390293,"is_reserved":false,"is_disabled":false,"rental_uris":{"android":"levelo://app?vid=5ee73636-ab6c-4db3-9e1d-b7ba13a076aa","ios":"levelo://app?vid=5ee73636-ab6c-4db3-9e1d-b7ba13a076aa"},"vehicle_type_id":"4","last_reported":1691168718,"current_range_meters":29200,"station_id":"ce4bgup2rcd13ifvqco0","pricing_plan_id":"free"},{"bike_id":"0bb8ae6a-e865-4487-a27b-6d82ba974c6f","system_id":"levelo_inurba_marseille","lat":43.309459,"lon":5.390297,"is_reserved":false,"is_disabled":false,"rental_uris":{"android":"levelo://app?vid=0bb8ae6a-e865-4487-a27b-6d82ba974c6f","ios":"levelo://app?vid=0bb8ae6a-e865-4487-a27b-6d82ba974c6f"},"vehicle_type_id":"4","last_reported":1691168718,"current_range_meters":30000,"station_id":"ce4bgup2rcd13ifvqco0","pricing_plan_id":"free"},{"bike_id":"d45af358-87a2-4a1d-906b-0af217355bf3","system_id":"levelo_inurba_marseille","lat":43.309475,"lon":5.390304,"is_reserved":false,"is_disabled":false,"rental_uris":{"android":"levelo://app?vid=d45af358-87a2-4a1d-906b-0af217355bf3","ios":"levelo://app?vid=d45af358-87a2-4a1d-906b-0af217355bf3"},"vehicle_type_id":"4","last_reported":1691168718,"current_range_meters":23600,"station_id":"ce4bgup2rcd13ifvqco0","pricing_plan_id":"free"},{"bike_id":"533ca605-5e7e-4063-a8da-e4283c225c6c","system_id":"levelo_inurba_marseille","lat":43.3095,"lon":5.39032,"is_reserved":false,"is_disabled":false,"rental_uris":{"android":"levelo://app?vid=533ca605-5e7e-4063-a8da-e4283c225c6c","ios":"levelo://app?vid=533ca605-5e7e-4063-a8da-e4283c225c6c"},"vehicle_type_id":"4","last_reported":1691168718,"current_range_meters":30800,"station_id":"ce4bgup2rcd13ifvqco0","pricing_plan_id":"free"},{"bike_id":"f635c390-3c98-4a32-807b-35e9b4c1dcd4","system_id":"levelo_inurba_marseille","lat":43.30965,"lon":5.39038,"is_reserved":false,"is_disabled":false,"rental_uris":{"android":"levelo://app?vid=f635c390-3c98-4a32-807b-35e9b4c1dcd4","ios":"levelo://app?vid=f635c390-3c98-4a32-807b-35e9b4c1dcd4"},"vehicle_type_id":"4","last_reported":1691168718,"current_range_meters":22000,"station_id":"ce4bgup2rcd13ifvqco0","pricing_plan_id":"free"},{"bike_id":"dbf3e895-3443-4510-87b3-89535d12a2f0","system_id":"levelo_inurba_marseille","lat":43.309589,"lon":5.390258,"is_reserved":false,"is_disabled":false,"rental_uris":{"android":"levelo://app?vid=dbf3e895-3443-4510-87b3-89535d12a2f0","ios":"levelo://app?vid=dbf3e895-3443-4510-87b3-89535d12a2f0"},"vehicle_type_id":"4","last_reported":1691168718,"current_range_meters":30400,"station_id":"ce4bgup2rcd13ifvqco0","pricing_plan_id":"free"},{"bike_id":"21275255-fd23-4e33-b74d-6a19bf629769","system_id":"levelo_inurba_marseille","lat":43.299028,"lon":5.381509,"is_reserved":false,"is_disabled":false,"rental_uris":{"android":"levelo://app?vid=21275255-fd23-4e33-b74d-6a19bf629769","ios":"levelo://app?vid=21275255-fd23-4e33-b74d-6a19bf629769"},"vehicle_type_id":"4","last_reported":1691168718,"current_range_meters":24000,"station_id":"ce4bgj12rcd13ifvqbc0","pricing_plan_id":"free"},{"bike_id":"f0b1921d-8fc5-42f6-8214-26455e772ce5","system_id":"levelo_inurba_marseille","lat":43.309589,"lon":5.390258,"is_reserved":false,"is_disabled":false,"rental_uris":{"android":"levelo://app?vid=f0b1921d-8fc5-42f6-8214-26455e772ce5","ios":"levelo://app?vid=f0b1921d-8fc5-42f6-8214-26455e772ce5"},"vehicle_type_id":"4","last_reported":1691168718,"current_range_meters":26400,"station_id":"ce4bgup2rcd13ifvqco0","pricing_plan_id":"free"},{"bike_id":"41c3b0b5-33c1-4931-a0d1-bb7365eeec35","system_id":"levelo_inurba_marseille","lat":43.309589,"lon":5.390258,"is_reserved":false,"is_disabled":false,"rental_uris":{"android":"levelo://app?vid=41c3b0b5-33c1-4931-a0d1-bb7365eeec35","ios":"levelo://app?vid=41c3b0b5-33c1-4931-a0d1-bb7365eeec35"},"vehicle_type_id":"4","last_reported":1691168718,"current_range_meters":16000,"station_id":"ce4bgup2rcd13ifvqco0","pricing_plan_id":"free"},{"bike_id":"83b5274d-489d-4818-a169-83933c765b23","system_id":"levelo_inurba_marseille","lat":43.30921,"lon":5.39041,"is_reserved":false,"is_disabled":false,"rental_uris":{"android":"levelo://app?vid=83b5274d-489d-4818-a169-83933c765b23","ios":"levelo://app?vid=83b5274d-489d-4818-a169-83933c765b23"},"vehicle_type_id":"4","last_reported":1691168718,"current_range_meters":30800,"station_id":"ce4bgup2rcd13ifvqco0","pricing_plan_id":"free"},{"bike_id":"c070a522-6c17-4333-a9ee-bbef4dc643ed","system_id":"levelo_inurba_marseille","lat":43.317557,"lon":5.390173,"is_reserved":false,"is_disabled":false,"rental_uris":{"android":"levelo://app?vid=c070a522-6c17-4333-a9ee-bbef4dc643ed","ios":"levelo://app?vid=c070a522-6c17-4333-a9ee-bbef4dc643ed"},"vehicle_type_id":"4","last_reported":1691168718,"current_range_meters":31200,"station_id":"ce4bhqp2rcd13ifvqhng","pricing_plan_id":"free"},{"bike_id":"90569ba5-8bb9-4d2d-b876-dc35e42f9a0c","system_id":"levelo_inurba_marseille","lat":43.317557,"lon":5.390173,"is_reserved":false,"is_disabled":false,"rental_uris":{"android":"levelo://app?vid=90569ba5-8bb9-4d2d-b876-dc35e42f9a0c","ios":"levelo://app?vid=90569ba5-8bb9-4d2d-b876-dc35e42f9a0c"},"vehicle_type_id":"4","last_reported":1691168718,"current_range_meters":30000,"station_id":"ce4bhqp2rcd13ifvqhng","pricing_plan_id":"free"},{"bike_id":"fb5d1b63-b2f2-4d34-b700-b062bf6b4e69","system_id":"levelo_inurba_marseille","lat":43.317557,"lon":5.390173,"is_reserved":false,"is_disabled":false,"rental_uris":{"android":"levelo://app?vid=fb5d1b63-b2f2-4d34-b700-b062bf6b4e69","ios":"levelo://app?vid=fb5d1b63-b2f2-4d34-b700-b062bf6b4e69"},"vehicle_type_id":"4","last_reported":1691168718,"current_range_meters":31200,"station_id":"ce4bhqp2rcd13ifvqhng","pricing_plan_id":"free"},{"bike_id":"7c42d25f-0594-4878-9427-296e3ebfad1f","system_id":"levelo_inurba_marseille","lat":43.317557,"lon":5.390173,"is_reserved":false,"is_disabled":false,"rental_uris":{"android":"levelo://app?vid=7c42d25f-0594-4878-9427-296e3ebfad1f","ios":"levelo://app?vid=7c42d25f-0594-4878-9427-296e3ebfad1f"},"vehicle_type_id":"4","last_reported":1691168718,"current_range_meters":29200,"station_id":"ce4bhqp2rcd13ifvqhng","pricing_plan_id":"free"},{"bike_id":"89a920cd-9786-4abc-9b27-8ce836c174b0","system_id":"levelo_inurba_marseille","lat":43.304274,"lon":5.388873,"is_reserved":false,"is_disabled":false,"rental_uris":{"android":"levelo://app?vid=89a920cd-9786-4abc-9b27-8ce836c174b0","ios":"levelo://app?vid=89a920cd-9786-4abc-9b27-8ce836c174b0"},"vehicle_type_id":"4","last_reported":1691168718,"current_range_meters":12000,"station_id":"ce4bgk12rcd13ifvqbi0","pricing_plan_id":"free"},{"bike_id":"d9c0250e-9a0c-4c91-b049-e93b315d46ad","system_id":"levelo_inurba_marseille","lat":43.304274,"lon":5.388873,"is_reserved":false,"is_disabled":false,"rental_uris":{"android":"levelo://app?vid=d9c0250e-9a0c-4c91-b049-e93b315d46ad","ios":"levelo://app?vid=d9c0250e-9a0c-4c91-b049-e93b315d46ad"},"vehicle_type_id":"4","last_reported":1691168718,"current_range_meters":23600,"station_id":"ce4bgk12rcd13ifvqbi0","pricing_plan_id":"free"},{"bike_id":"86abea8b-73cd-4c37-8d81-25b3768179e9","system_id":"levelo_inurba_marseille","lat":43.30423,"lon":5.38894,"is_reserved":false,"is_disabled":false,"rental_uris":{"android":"levelo://app?vid=86abea8b-73cd-4c37-8d81-25b3768179e9","ios":"levelo://app?vid=86abea8b-73cd-4c37-8d81-25b3768179e9"},"vehicle_type_id":"4","last_reported":1691168718,"current_range_meters":20000,"station_id":"ce4bgk12rcd13ifvqbi0","pricing_plan_id":"free"},{"bike_id":"d286a8d6-a5c5-495e-99c5-4e07a3e42700","system_id":"levelo_inurba_marseille","lat":43.299707,"lon":5.384859,"is_reserved":false,"is_disabled":false,"rental_uris":{"android":"levelo://app?vid=d286a8d6-a5c5-495e-99c5-4e07a3e42700","ios":"levelo://app?vid=d286a8d6-a5c5-495e-99c5-4e07a3e42700"},"vehicle_type_id":"4","last_reported":1691168718,"current_range_meters":8400,"station_id":"ce4bgj92rcd13ifvqbd0","pricing_plan_id":"free"},{"bike_id":"ed8d5741-4a65-4e72-9fbb-0501cd35a9d3","system_id":"levelo_inurba_marseille","lat":43.299707,"lon":5.384859,"is_reserved":false,"is_disabled":false,"rental_uris":{"android":"levelo://app?vid=ed8d5741-4a65-4e72-9fbb-0501cd35a9d3","ios":"levelo://app?vid=ed8d5741-4a65-4e72-9fbb-0501cd35a9d3"},"vehicle_type_id":"4","last_reported":1691168718,"current_range_meters":9200,"station_id":"ce4bgj92rcd13ifvqbd0","pricing_plan_id":"free"},{"bike_id":"5f1c231d-5549-420b-a974-1b1406435a60","system_id":"levelo_inurba_marseille","lat":43.32368,"lon":5.38878,"is_reserved":false,"is_disabled":false,"rental_uris":{"android":"levelo://app?vid=5f1c231d-5549-420b-a974-1b1406435a60","ios":"levelo://app?vid=5f1c231d-5549-420b-a974-1b1406435a60"},"vehicle_type_id":"4","last_reported":1691168718,"current_range_meters":25200,"station_id":"ce4bhqp2rcd13ifvqhog","pricing_plan_id":"free"},{"bike_id":"3205d0e9-dc07-44ba-8cfe-0b5a882e32d0","system_id":"levelo_inurba_marseille","lat":43.32366,"lon":5.3888,"is_reserved":false,"is_disabled":false,"rental_uris":{"android":"levelo://app?vid=3205d0e9-dc07-44ba-8cfe-0b5a882e32d0","ios":"levelo://app?vid=3205d0e9-dc07-44ba-8cfe-0b5a882e32d0"},"vehicle_type_id":"4","last_reported":1691168718,"current_range_meters":25200,"station_id":"ce4bhqp2rcd13ifvqhog","pricing_plan_id":"free"},{"bike_id":"ee373f4b-d04e-43ef-92b8-3105e264ba5d","system_id":"levelo_inurba_marseille","lat":43.32369,"lon":5.38879,"is_reserved":false,"is_disabled":false,"rental_uris":{"android":"levelo://app?vid=ee373f4b-d04e-43ef-92b8-3105e264ba5d","ios":"levelo://app?vid=ee373f4b-d04e-43ef-92b8-3105e264ba5d"},"vehicle_type_id":"4","last_reported":1691168718,"current_range_meters":26400,"station_id":"ce4bhqp2rcd13ifvqhog","pricing_plan_id":"free"},{"bike_id":"153806a9-c106-4acb-8efe-f81ba29b58d3","system_id":"levelo_inurba_marseille","lat":43.32366,"lon":5.38882,"is_reserved":false,"is_disabled":false,"rental_uris":{"android":"levelo://app?vid=153806a9-c106-4acb-8efe-f81ba29b58d3","ios":"levelo://app?vid=153806a9-c106-4acb-8efe-f81ba29b58d3"},"vehicle_type_id":"4","last_reported":1691168718,"current_range_meters":28000,"station_id":"ce4bhqp2rcd13ifvqhog","pricing_plan_id":"free"},{"bike_id":"3d2edb57-516f-41bc-985e-42a721904578","system_id":"levelo_inurba_marseille","lat":43.32366,"lon":5.38883,"is_reserved":false,"is_disabled":false,"rental_uris":{"android":"levelo://app?vid=3d2edb57-516f-41bc-985e-42a721904578","ios":"levelo://app?vid=3d2edb57-516f-41bc-985e-42a721904578"},"vehicle_type_id":"4","last_reported":1691168718,"current_range_meters":24800,"station_id":"ce4bhqp2rcd13ifvqhog","pricing_plan_id":"free"},{"bike_id":"96f00858-7ccf-44e7-9455-b35b0cbd49b5","system_id":"levelo_inurba_marseille","lat":43.323676,"lon":5.388816,"is_reserved":false,"is_disabled":false,"rental_uris":{"android":"levelo://app?vid=96f00858-7ccf-44e7-9455-b35b0cbd49b5","ios":"levelo://app?vid=96f00858-7ccf-44e7-9455-b35b0cbd49b5"},"vehicle_type_id":"4","last_reported":1691168718,"current_range_meters":10800,"station_id":"","pricing_plan_id":"free"},{"bike_id":"34ef5601-8765-4b80-bdc1-e9818152ffab","system_id":"levelo_inurba_marseille","lat":43.32367,"lon":5.38883,"is_reserved":false,"is_disabled":false,"rental_uris":{"android":"levelo://app?vid=34ef5601-8765-4b80-bdc1-e9818152ffab","ios":"levelo://app?vid=34ef5601-8765-4b80-bdc1-e9818152ffab"},"vehicle_type_id":"4","last_reported":1691168718,"current_range_meters":28800,"station_id":"ce4bhqp2rcd13ifvqhog","pricing_plan_id":"free"},{"bike_id":"6be534a9-96c6-4989-b3bb-e9dea76376c4","system_id":"levelo_inurba_marseille","lat":43.3237,"lon":5.38887,"is_reserved":false,"is_disabled":false,"rental_uris":{"android":"levelo://app?vid=6be534a9-96c6-4989-b3bb-e9dea76376c4","ios":"levelo://app?vid=6be534a9-96c6-4989-b3bb-e9dea76376c4"},"vehicle_type_id":"4","last_reported":1691168718,"current_range_meters":10800,"station_id":"ce4bhqp2rcd13ifvqhog","pricing_plan_id":"free"},{"bike_id":"9e1a0397-eeff-432b-bd3c-f0d79faeaf03","system_id":"levelo_inurba_marseille","lat":43.29312,"lon":5.37181,"is_reserved":false,"is_disabled":false,"rental_uris":{"android":"levelo://app?vid=9e1a0397-eeff-432b-bd3c-f0d79faeaf03","ios":"levelo://app?vid=9e1a0397-eeff-432b-bd3c-f0d79faeaf03"},"vehicle_type_id":"4","last_reported":1691168718,"current_range_meters":16400,"station_id":"ce4bgh92rcd13ifvqb40","pricing_plan_id":"free"},{"bike_id":"ce290b5d-e0e8-413f-b9ff-1a97815d6b17","system_id":"levelo_inurba_marseille","lat":43.292749,"lon":5.368402,"is_reserved":false,"is_disabled":false,"rental_uris":{"android":"levelo://app?vid=ce290b5d-e0e8-413f-b9ff-1a97815d6b17","ios":"levelo://app?vid=ce290b5d-e0e8-413f-b9ff-1a97815d6b17"},"vehicle_type_id":"4","last_reported":1691168718,"current_range_meters":19200,"station_id":"ce4bhbp2rcd13ifvqesg","pricing_plan_id":"free"},{"bike_id":"f0a68cbe-3455-4174-8041-115e01470c0d","system_id":"levelo_inurba_marseille","lat":43.293009,"lon":5.374584,"is_reserved":false,"is_disabled":false,"rental_uris":{"android":"levelo://app?vid=f0a68cbe-3455-4174-8041-115e01470c0d","ios":"levelo://app?vid=f0a68cbe-3455-4174-8041-115e01470c0d"},"vehicle_type_id":"4","last_reported":1691168718,"current_range_meters":26000,"station_id":"ce4bgi12rcd13ifvqb70","pricing_plan_id":"free"},{"bike_id":"e03d0221-3b16-447d-a3c4-867461eaf016","system_id":"levelo_inurba_marseille","lat":43.30591,"lon":5.39358,"is_reserved":false,"is_disabled":false,"rental_uris":{"android":"levelo://app?vid=e03d0221-3b16-447d-a3c4-867461eaf016","ios":"levelo://app?vid=e03d0221-3b16-447d-a3c4-867461eaf016"},"vehicle_type_id":"4","last_reported":1691168718,"current_range_meters":1200,"station_id":"ce4bh0p2rcd13ifvqd80","pricing_plan_id":"free"},{"bike_id":"08aad89f-812c-43c2-b2c1-a31b23f782ce","system_id":"levelo_inurba_marseille","lat":43.291675,"lon":5.371583,"is_reserved":false,"is_disabled":false,"rental_uris":{"android":"levelo://app?vid=08aad89f-812c-43c2-b2c1-a31b23f782ce","ios":"levelo://app?vid=08aad89f-812c-43c2-b2c1-a31b23f782ce"},"vehicle_type_id":"4","last_reported":1691168718,"current_range_meters":10000,"station_id":"ce4bha92rcd13ifvqeh0","pricing_plan_id":"free"},{"bike_id":"2ebe4e8d-953a-418d-932f-a39a7a6e3715","system_id":"levelo_inurba_marseille","lat":43.298764,"lon":5.388973,"is_reserved":false,"is_disabled":false,"rental_uris":{"android":"levelo://app?vid=2ebe4e8d-953a-418d-932f-a39a7a6e3715","ios":"levelo://app?vid=2ebe4e8d-953a-418d-932f-a39a7a6e3715"},"vehicle_type_id":"4","last_reported":1691168718,"current_range_meters":6000,"station_id":"ce4bh392rcd13ifvqdl0","pricing_plan_id":"free"},{"bike_id":"0853fcc1-a4af-43aa-941e-1a9fd722d7f3","system_id":"levelo_inurba_marseille","lat":43.298764,"lon":5.388973,"is_reserved":false,"is_disabled":false,"rental_uris":{"android":"levelo://app?vid=0853fcc1-a4af-43aa-941e-1a9fd722d7f3","ios":"levelo://app?vid=0853fcc1-a4af-43aa-941e-1a9fd722d7f3"},"vehicle_type_id":"4","last_reported":1691168718,"current_range_meters":8400,"station_id":"ce4bh392rcd13ifvqdl0","pricing_plan_id":"free"},{"bike_id":"e4cbb42f-ca01-49a1-9b5c-9404ead65545","system_id":"levelo_inurba_marseille","lat":43.291671,"lon":5.371575,"is_reserved":false,"is_disabled":false,"rental_uris":{"android":"levelo://app?vid=e4cbb42f-ca01-49a1-9b5c-9404ead65545","ios":"levelo://app?vid=e4cbb42f-ca01-49a1-9b5c-9404ead65545"},"vehicle_type_id":"4","last_reported":1691168718,"current_range_meters":0,"station_id":"ce4bha92rcd13ifvqeh0","pricing_plan_id":"free"},{"bike_id":"5c02ca76-de26-4cc2-be69-074d59218923","system_id":"levelo_inurba_marseille","lat":43.30212,"lon":5.3947,"is_reserved":false,"is_disabled":false,"rental_uris":{"android":"levelo://app?vid=5c02ca76-de26-4cc2-be69-074d59218923","ios":"levelo://app?vid=5c02ca76-de26-4cc2-be69-074d59218923"},"vehicle_type_id":"4","last_reported":1691168718,"current_range_meters":4800,"station_id":"ce4bh0p2rcd13ifvqd70","pricing_plan_id":"free"},{"bike_id":"3ec83589-cd78-4694-84b5-eff25e102d2f","system_id":"levelo_inurba_marseille","lat":43.294153,"lon":5.386305,"is_reserved":false,"is_disabled":false,"rental_uris":{"android":"levelo://app?vid=3ec83589-cd78-4694-84b5-eff25e102d2f","ios":"levelo://app?vid=3ec83589-cd78-4694-84b5-eff25e102d2f"},"vehicle_type_id":"4","last_reported":1691168718,"current_range_meters":2000,"station_id":"ce4bh2h2rcd13ifvqdh0","pricing_plan_id":"free"},{"bike_id":"8e8c768a-380b-4c69-a00e-03df5a162386","system_id":"levelo_inurba_marseille","lat":43.231562,"lon":5.436933,"is_reserved":false,"is_disabled":false,"rental_uris":{"android":"levelo://app?vid=8e8c768a-380b-4c69-a00e-03df5a162386","ios":"levelo://app?vid=8e8c768a-380b-4c69-a00e-03df5a162386"},"vehicle_type_id":"4","last_reported":1691168718,"current_range_meters":2800,"station_id":"ce4bhmp2rcd13ifvqgog","pricing_plan_id":"free"},{"bike_id":"308a4bf8-5a48-4530-a4be-5e125d3c804b","system_id":"levelo_inurba_marseille","lat":43.294162,"lon":5.386292,"is_reserved":false,"is_disabled":false,"rental_uris":{"android":"levelo://app?vid=308a4bf8-5a48-4530-a4be-5e125d3c804b","ios":"levelo://app?vid=308a4bf8-5a48-4530-a4be-5e125d3c804b"},"vehicle_type_id":"4","last_reported":1691168718,"current_range_meters":23600,"station_id":"ce4bh2h2rcd13ifvqdh0","pricing_plan_id":"free"},{"bike_id":"7e4b25d7-f02c-4bcf-93c5-2db0d9ec9090","system_id":"levelo_inurba_marseille","lat":43.290327,"lon":5.375711,"is_reserved":false,"is_disabled":false,"rental_uris":{"android":"levelo://app?vid=7e4b25d7-f02c-4bcf-93c5-2db0d9ec9090","ios":"levelo://app?vid=7e4b25d7-f02c-4bcf-93c5-2db0d9ec9090"},"vehicle_type_id":"4","last_reported":1691168718,"current_range_meters":0,"station_id":"ce4bh692rcd13ifvqe90","pricing_plan_id":"free"},{"bike_id":"58d9daa4-9c4c-4dbc-a91c-3eee752552f5","system_id":"levelo_inurba_marseille","lat":43.30486,"lon":5.3978,"is_reserved":false,"is_disabled":false,"rental_uris":{"android":"levelo://app?vid=58d9daa4-9c4c-4dbc-a91c-3eee752552f5","ios":"levelo://app?vid=58d9daa4-9c4c-4dbc-a91c-3eee752552f5"},"vehicle_type_id":"4","last_reported":1691168718,"current_range_meters":22000,"station_id":"","pricing_plan_id":"free"},{"bike_id":"39dbcc80-583e-4450-af4d-a245333ab8d4","system_id":"levelo_inurba_marseille","lat":43.292644,"lon":5.384257,"is_reserved":false,"is_disabled":false,"rental_uris":{"android":"levelo://app?vid=39dbcc80-583e-4450-af4d-a245333ab8d4","ios":"levelo://app?vid=39dbcc80-583e-4450-af4d-a245333ab8d4"},"vehicle_type_id":"4","last_reported":1691168718,"current_range_meters":1200,"station_id":"ce4bh692rcd13ifvqea0","pricing_plan_id":"free"},{"bike_id":"f67edc25-bcc7-41fb-8431-1add679b0933","system_id":"levelo_inurba_marseille","lat":43.33044,"lon":5.38915,"is_reserved":false,"is_disabled":false,"rental_uris":{"android":"levelo://app?vid=f67edc25-bcc7-41fb-8431-1add679b0933","ios":"levelo://app?vid=f67edc25-bcc7-41fb-8431-1add679b0933"},"vehicle_type_id":"4","last_reported":1691168718,"current_range_meters":20000,"station_id":"ce4bhr92rcd13ifvqhrg","pricing_plan_id":"free"},{"bike_id":"98f910d2-52f4-4465-977e-10142d8cca43","system_id":"levelo_inurba_marseille","lat":43.33042,"lon":5.38919,"is_reserved":false,"is_disabled":false,"rental_uris":{"android":"levelo://app?vid=98f910d2-52f4-4465-977e-10142d8cca43","ios":"levelo://app?vid=98f910d2-52f4-4465-977e-10142d8cca43"},"vehicle_type_id":"4","last_reported":1691168718,"current_range_meters":20400,"station_id":"ce4bhr92rcd13ifvqhrg","pricing_plan_id":"free"},{"bike_id":"34fc0bae-b089-42d1-99d0-10d5b39f2b41","system_id":"levelo_inurba_marseille","lat":43.33042,"lon":5.38919,"is_reserved":false,"is_disabled":false,"rental_uris":{"android":"levelo://app?vid=34fc0bae-b089-42d1-99d0-10d5b39f2b41","ios":"levelo://app?vid=34fc0bae-b089-42d1-99d0-10d5b39f2b41"},"vehicle_type_id":"4","last_reported":1691168718,"current_range_meters":25600,"station_id":"ce4bhr92rcd13ifvqhrg","pricing_plan_id":"free"},{"bike_id":"e6c6e4e8-edee-449e-8936-76c8ef3752c4","system_id":"levelo_inurba_marseille","lat":43.33042,"lon":5.38919,"is_reserved":false,"is_disabled":false,"rental_uris":{"android":"levelo://app?vid=e6c6e4e8-edee-449e-8936-76c8ef3752c4","ios":"levelo://app?vid=e6c6e4e8-edee-449e-8936-76c8ef3752c4"},"vehicle_type_id":"4","last_reported":1691168718,"current_range_meters":22800,"station_id":"ce4bhr92rcd13ifvqhrg","pricing_plan_id":"free"},{"bike_id":"2f2d42a2-8de0-405f-9429-d3eae654394c","system_id":"levelo_inurba_marseille","lat":43.33044,"lon":5.38916,"is_reserved":false,"is_disabled":false,"rental_uris":{"android":"levelo://app?vid=2f2d42a2-8de0-405f-9429-d3eae654394c","ios":"levelo://app?vid=2f2d42a2-8de0-405f-9429-d3eae654394c"},"vehicle_type_id":"4","last_reported":1691168718,"current_range_meters":20800,"station_id":"ce4bhr92rcd13ifvqhrg","pricing_plan_id":"free"},{"bike_id":"976f718a-bfdb-4480-a757-e5b9a5d1a5d6","system_id":"levelo_inurba_marseille","lat":43.33046,"lon":5.38913,"is_reserved":false,"is_disabled":false,"rental_uris":{"android":"levelo://app?vid=976f718a-bfdb-4480-a757-e5b9a5d1a5d6","ios":"levelo://app?vid=976f718a-bfdb-4480-a757-e5b9a5d1a5d6"},"vehicle_type_id":"4","last_reported":1691168718,"current_range_meters":29200,"station_id":"ce4bhr92rcd13ifvqhrg","pricing_plan_id":"free"},{"bike_id":"cedbc9c4-3cd8-4974-be60-104359550a71","system_id":"levelo_inurba_marseille","lat":43.33048,"lon":5.38911,"is_reserved":false,"is_disabled":false,"rental_uris":{"android":"levelo://app?vid=cedbc9c4-3cd8-4974-be60-104359550a71","ios":"levelo://app?vid=cedbc9c4-3cd8-4974-be60-104359550a71"},"vehicle_type_id":"4","last_reported":1691168718,"current_range_meters":12000,"station_id":"ce4bhr92rcd13ifvqhrg","pricing_plan_id":"free"},{"bike_id":"20cf3f6d-acf4-4653-bf24-baa04253f77a","system_id":"levelo_inurba_marseille","lat":43.33046,"lon":5.38915,"is_reserved":false,"is_disabled":false,"rental_uris":{"android":"levelo://app?vid=20cf3f6d-acf4-4653-bf24-baa04253f77a","ios":"levelo://app?vid=20cf3f6d-acf4-4653-bf24-baa04253f77a"},"vehicle_type_id":"4","last_reported":1691168718,"current_range_meters":18800,"station_id":"ce4bhr92rcd13ifvqhrg","pricing_plan_id":"free"},{"bike_id":"db7952dd-c6d8-42c2-918b-068ba9bccee2","system_id":"levelo_inurba_marseille","lat":43.33047,"lon":5.38914,"is_reserved":false,"is_disabled":false,"rental_uris":{"android":"levelo://app?vid=db7952dd-c6d8-42c2-918b-068ba9bccee2","ios":"levelo://app?vid=db7952dd-c6d8-42c2-918b-068ba9bccee2"},"vehicle_type_id":"4","last_reported":1691168718,"current_range_meters":8400,"station_id":"ce4bhr92rcd13ifvqhrg","pricing_plan_id":"free"},{"bike_id":"00b2dcdc-2882-40a1-9132-89c3ec15cf18","system_id":"levelo_inurba_marseille","lat":43.33045,"lon":5.38918,"is_reserved":false,"is_disabled":false,"rental_uris":{"android":"levelo://app?vid=00b2dcdc-2882-40a1-9132-89c3ec15cf18","ios":"levelo://app?vid=00b2dcdc-2882-40a1-9132-89c3ec15cf18"},"vehicle_type_id":"4","last_reported":1691168718,"current_range_meters":18400,"station_id":"ce4bhr92rcd13ifvqhrg","pricing_plan_id":"free"},{"bike_id":"9ce62819-7d94-47c9-aff2-f56e39f0ba59","system_id":"levelo_inurba_marseille","lat":43.33044,"lon":5.38925,"is_reserved":false,"is_disabled":false,"rental_uris":{"android":"levelo://app?vid=9ce62819-7d94-47c9-aff2-f56e39f0ba59","ios":"levelo://app?vid=9ce62819-7d94-47c9-aff2-f56e39f0ba59"},"vehicle_type_id":"4","last_reported":1691168718,"current_range_meters":30400,"station_id":"ce4bhr92rcd13ifvqhrg","pricing_plan_id":"free"},{"bike_id":"16bb14ed-7d88-467c-ab3f-857c5a303700","system_id":"levelo_inurba_marseille","lat":43.33051,"lon":5.38915,"is_reserved":false,"is_disabled":false,"rental_uris":{"android":"levelo://app?vid=16bb14ed-7d88-467c-ab3f-857c5a303700","ios":"levelo://app?vid=16bb14ed-7d88-467c-ab3f-857c5a303700"},"vehicle_type_id":"4","last_reported":1691168718,"current_range_meters":30800,"station_id":"ce4bhr92rcd13ifvqhrg","pricing_plan_id":"free"},{"bike_id":"38c1adea-6867-4940-9699-a628b1958570","system_id":"levelo_inurba_marseille","lat":43.33042,"lon":5.38932,"is_reserved":false,"is_disabled":false,"rental_uris":{"android":"levelo://app?vid=38c1adea-6867-4940-9699-a628b1958570","ios":"levelo://app?vid=38c1adea-6867-4940-9699-a628b1958570"},"vehicle_type_id":"4","last_reported":1691168718,"current_range_meters":31200,"station_id":"ce4bhr92rcd13ifvqhrg","pricing_plan_id":"free"},{"bike_id":"87a91d50-b0ca-4c64-94ae-7cf78dbb050f","system_id":"levelo_inurba_marseille","lat":43.3305,"lon":5.38922,"is_reserved":false,"is_disabled":false,"rental_uris":{"android":"levelo://app?vid=87a91d50-b0ca-4c64-94ae-7cf78dbb050f","ios":"levelo://app?vid=87a91d50-b0ca-4c64-94ae-7cf78dbb050f"},"vehicle_type_id":"4","last_reported":1691168718,"current_range_meters":17200,"station_id":"ce4bhr92rcd13ifvqhrg","pricing_plan_id":"free"},{"bike_id":"05bf2cc0-c80b-4d3b-9303-5cea93148e89","system_id":"levelo_inurba_marseille","lat":43.290995,"lon":5.381361,"is_reserved":false,"is_disabled":false,"rental_uris":{"android":"levelo://app?vid=05bf2cc0-c80b-4d3b-9303-5cea93148e89","ios":"levelo://app?vid=05bf2cc0-c80b-4d3b-9303-5cea93148e89"},"vehicle_type_id":"4","last_reported":1691168718,"current_range_meters":31200,"station_id":"ce4bh512rcd13ifvqe2g","pricing_plan_id":"free"},{"bike_id":"78d8cd21-37a5-482a-8c1f-68eb796c758e","system_id":"levelo_inurba_marseille","lat":43.297815,"lon":5.393548,"is_reserved":false,"is_disabled":false,"rental_uris":{"android":"levelo://app?vid=78d8cd21-37a5-482a-8c1f-68eb796c758e","ios":"levelo://app?vid=78d8cd21-37a5-482a-8c1f-68eb796c758e"},"vehicle_type_id":"4","last_reported":1691168718,"current_range_meters":1600,"station_id":"chh1huq6cuj3fo74tm60","pricing_plan_id":"free"},{"bike_id":"b4779dea-0204-4c19-bd2c-863ac7c3c68c","system_id":"levelo_inurba_marseille","lat":43.28856,"lon":5.358371,"is_reserved":false,"is_disabled":false,"rental_uris":{"android":"levelo://app?vid=b4779dea-0204-4c19-bd2c-863ac7c3c68c","ios":"levelo://app?vid=b4779dea-0204-4c19-bd2c-863ac7c3c68c"},"vehicle_type_id":"4","last_reported":1691168718,"current_range_meters":10800,"station_id":"ce4bhb12rcd13ifvqem0","pricing_plan_id":"free"},{"bike_id":"2cea64d9-cffe-42c7-adfc-ff0a82a640f9","system_id":"levelo_inurba_marseille","lat":43.33742,"lon":5.37459,"is_reserved":false,"is_disabled":false,"rental_uris":{"android":"levelo://app?vid=2cea64d9-cffe-42c7-adfc-ff0a82a640f9","ios":"levelo://app?vid=2cea64d9-cffe-42c7-adfc-ff0a82a640f9"},"vehicle_type_id":"4","last_reported":1691168718,"current_range_meters":26000,"station_id":"","pricing_plan_id":"free"},{"bike_id":"abd87e7f-a535-49ec-8906-ec112dbe5552","system_id":"levelo_inurba_marseille","lat":43.30924,"lon":5.40142,"is_reserved":false,"is_disabled":false,"rental_uris":{"android":"levelo://app?vid=abd87e7f-a535-49ec-8906-ec112dbe5552","ios":"levelo://app?vid=abd87e7f-a535-49ec-8906-ec112dbe5552"},"vehicle_type_id":"4","last_reported":1691168718,"current_range_meters":13600,"station_id":"ce4bgvp2rcd13ifvqct0","pricing_plan_id":"free"},{"bike_id":"66786a5c-6d8e-4907-b37b-ff2b82772d9b","system_id":"levelo_inurba_marseille","lat":43.30925,"lon":5.40145,"is_reserved":false,"is_disabled":false,"rental_uris":{"android":"levelo://app?vid=66786a5c-6d8e-4907-b37b-ff2b82772d9b","ios":"levelo://app?vid=66786a5c-6d8e-4907-b37b-ff2b82772d9b"},"vehicle_type_id":"4","last_reported":1691168718,"current_range_meters":0,"station_id":"ce4bgvp2rcd13ifvqct0","pricing_plan_id":"free"},{"bike_id":"f97dd668-6b0e-4bcc-9719-c7a2b3280bf5","system_id":"levelo_inurba_marseille","lat":43.30919,"lon":5.40148,"is_reserved":false,"is_disabled":false,"rental_uris":{"android":"levelo://app?vid=f97dd668-6b0e-4bcc-9719-c7a2b3280bf5","ios":"levelo://app?vid=f97dd668-6b0e-4bcc-9719-c7a2b3280bf5"},"vehicle_type_id":"4","last_reported":1691168718,"current_range_meters":16400,"station_id":"ce4bgvp2rcd13ifvqct0","pricing_plan_id":"free"},{"bike_id":"a856a9bf-2914-4d99-b110-0ae70d1373ec","system_id":"levelo_inurba_marseille","lat":43.33763,"lon":5.37486,"is_reserved":false,"is_disabled":false,"rental_uris":{"android":"levelo://app?vid=a856a9bf-2914-4d99-b110-0ae70d1373ec","ios":"levelo://app?vid=a856a9bf-2914-4d99-b110-0ae70d1373ec"},"vehicle_type_id":"4","last_reported":1691168718,"current_range_meters":22800,"station_id":"","pricing_plan_id":"free"},{"bike_id":"a4061575-01a2-47a3-937f-82a2f5bf0eb3","system_id":"levelo_inurba_marseille","lat":43.301117,"lon":5.398795,"is_reserved":false,"is_disabled":false,"rental_uris":{"android":"levelo://app?vid=a4061575-01a2-47a3-937f-82a2f5bf0eb3","ios":"levelo://app?vid=a4061575-01a2-47a3-937f-82a2f5bf0eb3"},"vehicle_type_id":"4","last_reported":1691168718,"current_range_meters":400,"station_id":"ce4bh0h2rcd13ifvqd40","pricing_plan_id":"free"},{"bike_id":"c913c5f6-5eb0-45c5-8702-a477e19158bd","system_id":"levelo_inurba_marseille","lat":43.301117,"lon":5.398795,"is_reserved":false,"is_disabled":false,"rental_uris":{"android":"levelo://app?vid=c913c5f6-5eb0-45c5-8702-a477e19158bd","ios":"levelo://app?vid=c913c5f6-5eb0-45c5-8702-a477e19158bd"},"vehicle_type_id":"4","last_reported":1691168718,"current_range_meters":28000,"station_id":"ce4bh0h2rcd13ifvqd40","pricing_plan_id":"free"},{"bike_id":"c72f21d1-6dff-4b97-ae87-d8c1b9d7dce9","system_id":"levelo_inurba_marseille","lat":43.298681,"lon":5.397225,"is_reserved":false,"is_disabled":false,"rental_uris":{"android":"levelo://app?vid=c72f21d1-6dff-4b97-ae87-d8c1b9d7dce9","ios":"levelo://app?vid=c72f21d1-6dff-4b97-ae87-d8c1b9d7dce9"},"vehicle_type_id":"4","last_reported":1691168718,"current_range_meters":6800,"station_id":"ce4bh0h2rcd13ifvqd50","pricing_plan_id":"free"},{"bike_id":"185f9116-27f8-409a-a68b-f48c3887fcba","system_id":"levelo_inurba_marseille","lat":43.286591,"lon":5.363346,"is_reserved":false,"is_disabled":false,"rental_uris":{"android":"levelo://app?vid=185f9116-27f8-409a-a68b-f48c3887fcba","ios":"levelo://app?vid=185f9116-27f8-409a-a68b-f48c3887fcba"},"vehicle_type_id":"4","last_reported":1691168718,"current_range_meters":21600,"station_id":"ce4bhah2rcd13ifvqej0","pricing_plan_id":"free"},{"bike_id":"05724fdb-21a4-46c0-a528-b7494d9fcc4a","system_id":"levelo_inurba_marseille","lat":43.298681,"lon":5.397225,"is_reserved":false,"is_disabled":false,"rental_uris":{"android":"levelo://app?vid=05724fdb-21a4-46c0-a528-b7494d9fcc4a","ios":"levelo://app?vid=05724fdb-21a4-46c0-a528-b7494d9fcc4a"},"vehicle_type_id":"4","last_reported":1691168718,"current_range_meters":0,"station_id":"ce4bh0h2rcd13ifvqd50","pricing_plan_id":"free"},{"bike_id":"cbea482d-79a9-4b86-89f4-2b98602a0000","system_id":"levelo_inurba_marseille","lat":43.298681,"lon":5.397225,"is_reserved":false,"is_disabled":false,"rental_uris":{"android":"levelo://app?vid=cbea482d-79a9-4b86-89f4-2b98602a0000","ios":"levelo://app?vid=cbea482d-79a9-4b86-89f4-2b98602a0000"},"vehicle_type_id":"4","last_reported":1691168718,"current_range_meters":800,"station_id":"ce4bh0h2rcd13ifvqd50","pricing_plan_id":"free"},{"bike_id":"75199276-b705-4ad7-b6a9-49aeaa84628a","system_id":"levelo_inurba_marseille","lat":43.286591,"lon":5.363346,"is_reserved":false,"is_disabled":false,"rental_uris":{"android":"levelo://app?vid=75199276-b705-4ad7-b6a9-49aeaa84628a","ios":"levelo://app?vid=75199276-b705-4ad7-b6a9-49aeaa84628a"},"vehicle_type_id":"4","last_reported":1691168718,"current_range_meters":31200,"station_id":"ce4bhah2rcd13ifvqej0","pricing_plan_id":"free"},{"bike_id":"95c60856-3ec0-43e2-aa93-0a53c04158cc","system_id":"levelo_inurba_marseille","lat":43.295194,"lon":5.39397,"is_reserved":false,"is_disabled":false,"rental_uris":{"android":"levelo://app?vid=95c60856-3ec0-43e2-aa93-0a53c04158cc","ios":"levelo://app?vid=95c60856-3ec0-43e2-aa93-0a53c04158cc"},"vehicle_type_id":"4","last_reported":1691168718,"current_range_meters":5200,"station_id":"ce4bh292rcd13ifvqdf0","pricing_plan_id":"free"},{"bike_id":"faa1b7e4-3016-4d29-bf66-98c92540780f","system_id":"levelo_inurba_marseille","lat":43.290345,"lon":5.38646,"is_reserved":false,"is_disabled":false,"rental_uris":{"android":"levelo://app?vid=faa1b7e4-3016-4d29-bf66-98c92540780f","ios":"levelo://app?vid=faa1b7e4-3016-4d29-bf66-98c92540780f"},"vehicle_type_id":"4","last_reported":1691168718,"current_range_meters":800,"station_id":"ce4bh4p2rcd13ifvqe0g","pricing_plan_id":"free"},{"bike_id":"7b9e2d57-7c2f-4652-8ec0-ee4d147afe24","system_id":"levelo_inurba_marseille","lat":43.302548,"lon":5.400568,"is_reserved":false,"is_disabled":false,"rental_uris":{"android":"levelo://app?vid=7b9e2d57-7c2f-4652-8ec0-ee4d147afe24","ios":"levelo://app?vid=7b9e2d57-7c2f-4652-8ec0-ee4d147afe24"},"vehicle_type_id":"4","last_reported":1691168718,"current_range_meters":14000,"station_id":"","pricing_plan_id":"free"},{"bike_id":"2a8a8f72-bd42-4be9-a28f-064fdf767de3","system_id":"levelo_inurba_marseille","lat":43.28822,"lon":5.35255,"is_reserved":false,"is_disabled":false,"rental_uris":{"android":"levelo://app?vid=2a8a8f72-bd42-4be9-a28f-064fdf767de3","ios":"levelo://app?vid=2a8a8f72-bd42-4be9-a28f-064fdf767de3"},"vehicle_type_id":"4","last_reported":1691168718,"current_range_meters":25600,"station_id":"","pricing_plan_id":"free"},{"bike_id":"45bc0869-1057-4054-a538-f8de73594d57","system_id":"levelo_inurba_marseille","lat":43.302759,"lon":5.400793,"is_reserved":false,"is_disabled":false,"rental_uris":{"android":"levelo://app?vid=45bc0869-1057-4054-a538-f8de73594d57","ios":"levelo://app?vid=45bc0869-1057-4054-a538-f8de73594d57"},"vehicle_type_id":"4","last_reported":1691168718,"current_range_meters":20400,"station_id":"ce4bgvh2rcd13ifvqcs0","pricing_plan_id":"free"},{"bike_id":"b74dd677-162b-411e-9a87-62513bccb790","system_id":"levelo_inurba_marseille","lat":43.286039,"lon":5.370679,"is_reserved":false,"is_disabled":false,"rental_uris":{"android":"levelo://app?vid=b74dd677-162b-411e-9a87-62513bccb790","ios":"levelo://app?vid=b74dd677-162b-411e-9a87-62513bccb790"},"vehicle_type_id":"4","last_reported":1691168718,"current_range_meters":6000,"station_id":"ce4bht12rcd13ifvqi60","pricing_plan_id":"free"},{"bike_id":"0eec8b1c-8c3d-43c2-ade4-dab3902c07e9","system_id":"levelo_inurba_marseille","lat":43.286039,"lon":5.370679,"is_reserved":false,"is_disabled":false,"rental_uris":{"android":"levelo://app?vid=0eec8b1c-8c3d-43c2-ade4-dab3902c07e9","ios":"levelo://app?vid=0eec8b1c-8c3d-43c2-ade4-dab3902c07e9"},"vehicle_type_id":"4","last_reported":1691168718,"current_range_meters":25600,"station_id":"ce4bht12rcd13ifvqi60","pricing_plan_id":"free"},{"bike_id":"2505ec1e-c8d9-40d9-9a56-b5650062f6ff","system_id":"levelo_inurba_marseille","lat":43.286039,"lon":5.370679,"is_reserved":false,"is_disabled":false,"rental_uris":{"android":"levelo://app?vid=2505ec1e-c8d9-40d9-9a56-b5650062f6ff","ios":"levelo://app?vid=2505ec1e-c8d9-40d9-9a56-b5650062f6ff"},"vehicle_type_id":"4","last_reported":1691168718,"current_range_meters":12400,"station_id":"ce4bht12rcd13ifvqi60","pricing_plan_id":"free"},{"bike_id":"6b7c5fe9-b3fb-4058-9b1c-ee4059ab0f77","system_id":"levelo_inurba_marseille","lat":43.286039,"lon":5.370679,"is_reserved":false,"is_disabled":false,"rental_uris":{"android":"levelo://app?vid=6b7c5fe9-b3fb-4058-9b1c-ee4059ab0f77","ios":"levelo://app?vid=6b7c5fe9-b3fb-4058-9b1c-ee4059ab0f77"},"vehicle_type_id":"4","last_reported":1691168718,"current_range_meters":25600,"station_id":"ce4bht12rcd13ifvqi60","pricing_plan_id":"free"},{"bike_id":"1ff56fe0-1501-4c41-9474-66cb2f3126bd","system_id":"levelo_inurba_marseille","lat":43.28606,"lon":5.3707,"is_reserved":false,"is_disabled":false,"rental_uris":{"android":"levelo://app?vid=1ff56fe0-1501-4c41-9474-66cb2f3126bd","ios":"levelo://app?vid=1ff56fe0-1501-4c41-9474-66cb2f3126bd"},"vehicle_type_id":"4","last_reported":1691168718,"current_range_meters":31200,"station_id":"","pricing_plan_id":"free"},{"bike_id":"39efbc77-1be2-4be2-9494-be8603640a2e","system_id":"levelo_inurba_marseille","lat":43.287184,"lon":5.37937,"is_reserved":false,"is_disabled":false,"rental_uris":{"android":"levelo://app?vid=39efbc77-1be2-4be2-9494-be8603640a2e","ios":"levelo://app?vid=39efbc77-1be2-4be2-9494-be8603640a2e"},"vehicle_type_id":"4","last_reported":1691168718,"current_range_meters":19600,"station_id":"ce4bh9p2rcd13ifvqec0","pricing_plan_id":"free"},{"bike_id":"c8428019-34ed-4fa0-ab6b-d0660ab7d830","system_id":"levelo_inurba_marseille","lat":43.316517,"lon":5.404375,"is_reserved":false,"is_disabled":false,"rental_uris":{"android":"levelo://app?vid=c8428019-34ed-4fa0-ab6b-d0660ab7d830","ios":"levelo://app?vid=c8428019-34ed-4fa0-ab6b-d0660ab7d830"},"vehicle_type_id":"4","last_reported":1691168718,"current_range_meters":30000,"station_id":"ce4bh012rcd13ifvqd00","pricing_plan_id":"free"},{"bike_id":"35914d27-ef14-4582-a098-3d97a4bb8e7a","system_id":"levelo_inurba_marseille","lat":43.316517,"lon":5.404375,"is_reserved":false,"is_disabled":false,"rental_uris":{"android":"levelo://app?vid=35914d27-ef14-4582-a098-3d97a4bb8e7a","ios":"levelo://app?vid=35914d27-ef14-4582-a098-3d97a4bb8e7a"},"vehicle_type_id":"4","last_reported":1691168718,"current_range_meters":23200,"station_id":"ce4bh012rcd13ifvqd00","pricing_plan_id":"free"},{"bike_id":"9560f714-bfdc-4e68-9392-a2111084f740","system_id":"levelo_inurba_marseille","lat":43.284807,"lon":5.3588,"is_reserved":false,"is_disabled":false,"rental_uris":{"android":"levelo://app?vid=9560f714-bfdc-4e68-9392-a2111084f740","ios":"levelo://app?vid=9560f714-bfdc-4e68-9392-a2111084f740"},"vehicle_type_id":"4","last_reported":1691168718,"current_range_meters":0,"station_id":"ce4bhah2rcd13ifvqei0","pricing_plan_id":"free"},{"bike_id":"7b78d55e-e99c-4fa7-968a-c672d6912f00","system_id":"levelo_inurba_marseille","lat":43.284538,"lon":5.358657,"is_reserved":false,"is_disabled":false,"rental_uris":{"android":"levelo://app?vid=7b78d55e-e99c-4fa7-968a-c672d6912f00","ios":"levelo://app?vid=7b78d55e-e99c-4fa7-968a-c672d6912f00"},"vehicle_type_id":"4","last_reported":1691168718,"current_range_meters":31200,"station_id":"ce4bhah2rcd13ifvqei0","pricing_plan_id":"free"},{"bike_id":"881386ae-3906-4cfa-83cc-540e46c749e8","system_id":"levelo_inurba_marseille","lat":43.294314,"lon":5.397498,"is_reserved":false,"is_disabled":false,"rental_uris":{"android":"levelo://app?vid=881386ae-3906-4cfa-83cc-540e46c749e8","ios":"levelo://app?vid=881386ae-3906-4cfa-83cc-540e46c749e8"},"vehicle_type_id":"4","last_reported":1691168718,"current_range_meters":12400,"station_id":"ce4bh3h2rcd13ifvqdo0","pricing_plan_id":"free"},{"bike_id":"2fc997a4-be97-4bb8-92de-2ff322d5472b","system_id":"levelo_inurba_marseille","lat":43.28623,"lon":5.35101,"is_reserved":false,"is_disabled":false,"rental_uris":{"android":"levelo://app?vid=2fc997a4-be97-4bb8-92de-2ff322d5472b","ios":"levelo://app?vid=2fc997a4-be97-4bb8-92de-2ff322d5472b"},"vehicle_type_id":"4","last_reported":1691168718,"current_range_meters":20000,"station_id":"ce4bhch2rcd13ifvqeug","pricing_plan_id":"free"},{"bike_id":"783ac4a2-8853-4297-885c-25b6bd8fad42","system_id":"levelo_inurba_marseille","lat":43.28621,"lon":5.35102,"is_reserved":false,"is_disabled":false,"rental_uris":{"android":"levelo://app?vid=783ac4a2-8853-4297-885c-25b6bd8fad42","ios":"levelo://app?vid=783ac4a2-8853-4297-885c-25b6bd8fad42"},"vehicle_type_id":"4","last_reported":1691168718,"current_range_meters":30000,"station_id":"ce4bhch2rcd13ifvqeug","pricing_plan_id":"free"},{"bike_id":"6d219968-f9a0-4636-8698-97e7f4beeadd","system_id":"levelo_inurba_marseille","lat":43.2862,"lon":5.35104,"is_reserved":false,"is_disabled":false,"rental_uris":{"android":"levelo://app?vid=6d219968-f9a0-4636-8698-97e7f4beeadd","ios":"levelo://app?vid=6d219968-f9a0-4636-8698-97e7f4beeadd"},"vehicle_type_id":"4","last_reported":1691168718,"current_range_meters":10400,"station_id":"ce4bhch2rcd13ifvqeug","pricing_plan_id":"free"},{"bike_id":"319080f0-8af2-49ed-9660-710dd9f6b522","system_id":"levelo_inurba_marseille","lat":43.2862,"lon":5.35103,"is_reserved":false,"is_disabled":false,"rental_uris":{"android":"levelo://app?vid=319080f0-8af2-49ed-9660-710dd9f6b522","ios":"levelo://app?vid=319080f0-8af2-49ed-9660-710dd9f6b522"},"vehicle_type_id":"4","last_reported":1691168718,"current_range_meters":18400,"station_id":"ce4bhch2rcd13ifvqeug","pricing_plan_id":"free"},{"bike_id":"47e421d9-aa57-465a-88ae-e702bc346dc8","system_id":"levelo_inurba_marseille","lat":43.285856,"lon":5.350771,"is_reserved":false,"is_disabled":false,"rental_uris":{"android":"levelo://app?vid=47e421d9-aa57-465a-88ae-e702bc346dc8","ios":"levelo://app?vid=47e421d9-aa57-465a-88ae-e702bc346dc8"},"vehicle_type_id":"4","last_reported":1691168718,"current_range_meters":29600,"station_id":"ce4bhch2rcd13ifvqeug","pricing_plan_id":"free"},{"bike_id":"c607841c-793c-4e99-ae28-75fdb75c32f4","system_id":"levelo_inurba_marseille","lat":43.28619,"lon":5.35102,"is_reserved":false,"is_disabled":false,"rental_uris":{"android":"levelo://app?vid=c607841c-793c-4e99-ae28-75fdb75c32f4","ios":"levelo://app?vid=c607841c-793c-4e99-ae28-75fdb75c32f4"},"vehicle_type_id":"4","last_reported":1691168718,"current_range_meters":27600,"station_id":"ce4bhch2rcd13ifvqeug","pricing_plan_id":"free"},{"bike_id":"e88ce4db-1617-4559-83ce-e3543f0c7440","system_id":"levelo_inurba_marseille","lat":43.28616,"lon":5.35106,"is_reserved":false,"is_disabled":false,"rental_uris":{"android":"levelo://app?vid=e88ce4db-1617-4559-83ce-e3543f0c7440","ios":"levelo://app?vid=e88ce4db-1617-4559-83ce-e3543f0c7440"},"vehicle_type_id":"4","last_reported":1691168718,"current_range_meters":30800,"station_id":"ce4bhch2rcd13ifvqeug","pricing_plan_id":"free"},{"bike_id":"92cdc47d-a2ef-4625-997a-e72a7110d532","system_id":"levelo_inurba_marseille","lat":43.28615,"lon":5.35107,"is_reserved":false,"is_disabled":false,"rental_uris":{"android":"levelo://app?vid=92cdc47d-a2ef-4625-997a-e72a7110d532","ios":"levelo://app?vid=92cdc47d-a2ef-4625-997a-e72a7110d532"},"vehicle_type_id":"4","last_reported":1691168718,"current_range_meters":29600,"station_id":"ce4bhch2rcd13ifvqeug","pricing_plan_id":"free"},{"bike_id":"447ef77e-8009-4eb4-bd5f-23f0d13085b9","system_id":"levelo_inurba_marseille","lat":43.286091,"lon":5.3512,"is_reserved":false,"is_disabled":false,"rental_uris":{"android":"levelo://app?vid=447ef77e-8009-4eb4-bd5f-23f0d13085b9","ios":"levelo://app?vid=447ef77e-8009-4eb4-bd5f-23f0d13085b9"},"vehicle_type_id":"4","last_reported":1691168718,"current_range_meters":4800,"station_id":"ce4bhch2rcd13ifvqeug","pricing_plan_id":"free"},{"bike_id":"0831c029-c4fa-4121-80ff-7bdab63375af","system_id":"levelo_inurba_marseille","lat":43.28611,"lon":5.35104,"is_reserved":false,"is_disabled":false,"rental_uris":{"android":"levelo://app?vid=0831c029-c4fa-4121-80ff-7bdab63375af","ios":"levelo://app?vid=0831c029-c4fa-4121-80ff-7bdab63375af"},"vehicle_type_id":"4","last_reported":1691168718,"current_range_meters":29600,"station_id":"ce4bhch2rcd13ifvqeug","pricing_plan_id":"free"},{"bike_id":"0e513e33-ee31-49cc-8759-659ab9120fdc","system_id":"levelo_inurba_marseille","lat":43.28613,"lon":5.35097,"is_reserved":false,"is_disabled":false,"rental_uris":{"android":"levelo://app?vid=0e513e33-ee31-49cc-8759-659ab9120fdc","ios":"levelo://app?vid=0e513e33-ee31-49cc-8759-659ab9120fdc"},"vehicle_type_id":"4","last_reported":1691168718,"current_range_meters":16800,"station_id":"ce4bhch2rcd13ifvqeug","pricing_plan_id":"free"},{"bike_id":"e08ed269-96f4-4540-ab3b-b32fbaabafd7","system_id":"levelo_inurba_marseille","lat":43.283998,"lon":5.375062,"is_reserved":false,"is_disabled":false,"rental_uris":{"android":"levelo://app?vid=e08ed269-96f4-4540-ab3b-b32fbaabafd7","ios":"levelo://app?vid=e08ed269-96f4-4540-ab3b-b32fbaabafd7"},"vehicle_type_id":"4","last_reported":1691168718,"current_range_meters":4800,"station_id":"ce4bh412rcd13ifvqds0","pricing_plan_id":"free"},{"bike_id":"fd8d2354-0817-4a67-af7d-23e5ee9f2c95","system_id":"levelo_inurba_marseille","lat":43.31888,"lon":5.40731,"is_reserved":false,"is_disabled":false,"rental_uris":{"android":"levelo://app?vid=fd8d2354-0817-4a67-af7d-23e5ee9f2c95","ios":"levelo://app?vid=fd8d2354-0817-4a67-af7d-23e5ee9f2c95"},"vehicle_type_id":"4","last_reported":1691168718,"current_range_meters":30800,"station_id":"ce4bhq12rcd13ifvqhig","pricing_plan_id":"free"},{"bike_id":"8daabb4c-3541-4593-9b36-1eadeac41cae","system_id":"levelo_inurba_marseille","lat":43.319179,"lon":5.407725,"is_reserved":false,"is_disabled":false,"rental_uris":{"android":"levelo://app?vid=8daabb4c-3541-4593-9b36-1eadeac41cae","ios":"levelo://app?vid=8daabb4c-3541-4593-9b36-1eadeac41cae"},"vehicle_type_id":"4","last_reported":1691168718,"current_range_meters":16000,"station_id":"ce4bhq12rcd13ifvqhig","pricing_plan_id":"free"},{"bike_id":"eeb02a4a-fc34-4229-a72e-14ead8b86bb9","system_id":"levelo_inurba_marseille","lat":43.319179,"lon":5.407725,"is_reserved":false,"is_disabled":false,"rental_uris":{"android":"levelo://app?vid=eeb02a4a-fc34-4229-a72e-14ead8b86bb9","ios":"levelo://app?vid=eeb02a4a-fc34-4229-a72e-14ead8b86bb9"},"vehicle_type_id":"4","last_reported":1691168718,"current_range_meters":24000,"station_id":"ce4bhq12rcd13ifvqhig","pricing_plan_id":"free"},{"bike_id":"632d4045-2ba1-4d8b-8070-04923aafd128","system_id":"levelo_inurba_marseille","lat":43.319179,"lon":5.407725,"is_reserved":false,"is_disabled":false,"rental_uris":{"android":"levelo://app?vid=632d4045-2ba1-4d8b-8070-04923aafd128","ios":"levelo://app?vid=632d4045-2ba1-4d8b-8070-04923aafd128"},"vehicle_type_id":"4","last_reported":1691168718,"current_range_meters":4800,"station_id":"ce4bhq12rcd13ifvqhig","pricing_plan_id":"free"},{"bike_id":"430c2063-ded1-4339-9309-d962bc415bc7","system_id":"levelo_inurba_marseille","lat":43.319179,"lon":5.407725,"is_reserved":false,"is_disabled":false,"rental_uris":{"android":"levelo://app?vid=430c2063-ded1-4339-9309-d962bc415bc7","ios":"levelo://app?vid=430c2063-ded1-4339-9309-d962bc415bc7"},"vehicle_type_id":"4","last_reported":1691168718,"current_range_meters":31200,"station_id":"ce4bhq12rcd13ifvqhig","pricing_plan_id":"free"},{"bike_id":"3e563380-a985-451c-801d-2783d7714294","system_id":"levelo_inurba_marseille","lat":43.337168,"lon":5.391825,"is_reserved":false,"is_disabled":false,"rental_uris":{"android":"levelo://app?vid=3e563380-a985-451c-801d-2783d7714294","ios":"levelo://app?vid=3e563380-a985-451c-801d-2783d7714294"},"vehicle_type_id":"4","last_reported":1691168718,"current_range_meters":14000,"station_id":"ce4bhr92rcd13ifvqhsg","pricing_plan_id":"free"},{"bike_id":"c59f30af-b7c9-4762-b544-56156d6a8a97","system_id":"levelo_inurba_marseille","lat":43.33727,"lon":5.39181,"is_reserved":false,"is_disabled":false,"rental_uris":{"android":"levelo://app?vid=c59f30af-b7c9-4762-b544-56156d6a8a97","ios":"levelo://app?vid=c59f30af-b7c9-4762-b544-56156d6a8a97"},"vehicle_type_id":"4","last_reported":1691168718,"current_range_meters":21200,"station_id":"ce4bhr92rcd13ifvqhsg","pricing_plan_id":"free"},{"bike_id":"a9671d69-2a62-4abb-9d98-78ee12b6b2d8","system_id":"levelo_inurba_marseille","lat":43.33727,"lon":5.39182,"is_reserved":false,"is_disabled":false,"rental_uris":{"android":"levelo://app?vid=a9671d69-2a62-4abb-9d98-78ee12b6b2d8","ios":"levelo://app?vid=a9671d69-2a62-4abb-9d98-78ee12b6b2d8"},"vehicle_type_id":"4","last_reported":1691168718,"current_range_meters":11600,"station_id":"ce4bhr92rcd13ifvqhsg","pricing_plan_id":"free"},{"bike_id":"8e4ab4c7-b2dc-4e74-b07d-1ff49a416721","system_id":"levelo_inurba_marseille","lat":43.33728,"lon":5.39182,"is_reserved":false,"is_disabled":false,"rental_uris":{"android":"levelo://app?vid=8e4ab4c7-b2dc-4e74-b07d-1ff49a416721","ios":"levelo://app?vid=8e4ab4c7-b2dc-4e74-b07d-1ff49a416721"},"vehicle_type_id":"4","last_reported":1691168718,"current_range_meters":18400,"station_id":"ce4bhr92rcd13ifvqhsg","pricing_plan_id":"free"},{"bike_id":"9ed5c8cd-5716-467d-9a0b-e5002dcb5a2c","system_id":"levelo_inurba_marseille","lat":43.33729,"lon":5.39182,"is_reserved":false,"is_disabled":false,"rental_uris":{"android":"levelo://app?vid=9ed5c8cd-5716-467d-9a0b-e5002dcb5a2c","ios":"levelo://app?vid=9ed5c8cd-5716-467d-9a0b-e5002dcb5a2c"},"vehicle_type_id":"4","last_reported":1691168718,"current_range_meters":29600,"station_id":"ce4bhr92rcd13ifvqhsg","pricing_plan_id":"free"},{"bike_id":"b522bbf9-91f5-4abf-bed9-853a43b7f3b1","system_id":"levelo_inurba_marseille","lat":43.33728,"lon":5.39184,"is_reserved":false,"is_disabled":false,"rental_uris":{"android":"levelo://app?vid=b522bbf9-91f5-4abf-bed9-853a43b7f3b1","ios":"levelo://app?vid=b522bbf9-91f5-4abf-bed9-853a43b7f3b1"},"vehicle_type_id":"4","last_reported":1691168718,"current_range_meters":17600,"station_id":"ce4bhr92rcd13ifvqhsg","pricing_plan_id":"free"},{"bike_id":"f18b4051-8145-4f33-aee1-6f539e29d721","system_id":"levelo_inurba_marseille","lat":43.33732,"lon":5.39179,"is_reserved":false,"is_disabled":false,"rental_uris":{"android":"levelo://app?vid=f18b4051-8145-4f33-aee1-6f539e29d721","ios":"levelo://app?vid=f18b4051-8145-4f33-aee1-6f539e29d721"},"vehicle_type_id":"4","last_reported":1691168718,"current_range_meters":18800,"station_id":"ce4bhr92rcd13ifvqhsg","pricing_plan_id":"free"},{"bike_id":"a3cf389b-f19c-4e75-9e92-40c9195ed245","system_id":"levelo_inurba_marseille","lat":43.33731,"lon":5.39181,"is_reserved":false,"is_disabled":false,"rental_uris":{"android":"levelo://app?vid=a3cf389b-f19c-4e75-9e92-40c9195ed245","ios":"levelo://app?vid=a3cf389b-f19c-4e75-9e92-40c9195ed245"},"vehicle_type_id":"4","last_reported":1691168718,"current_range_meters":0,"station_id":"ce4bhr92rcd13ifvqhsg","pricing_plan_id":"free"},{"bike_id":"df82d2f9-f688-4670-ac84-3e543122cedb","system_id":"levelo_inurba_marseille","lat":43.33729,"lon":5.39185,"is_reserved":false,"is_disabled":false,"rental_uris":{"android":"levelo://app?vid=df82d2f9-f688-4670-ac84-3e543122cedb","ios":"levelo://app?vid=df82d2f9-f688-4670-ac84-3e543122cedb"},"vehicle_type_id":"4","last_reported":1691168718,"current_range_meters":13200,"station_id":"ce4bhr92rcd13ifvqhsg","pricing_plan_id":"free"},{"bike_id":"1f5722b0-5667-43f6-9dad-3a3b818c5a69","system_id":"levelo_inurba_marseille","lat":43.33733,"lon":5.39179,"is_reserved":false,"is_disabled":false,"rental_uris":{"android":"levelo://app?vid=1f5722b0-5667-43f6-9dad-3a3b818c5a69","ios":"levelo://app?vid=1f5722b0-5667-43f6-9dad-3a3b818c5a69"},"vehicle_type_id":"4","last_reported":1691168718,"current_range_meters":30400,"station_id":"ce4bhr92rcd13ifvqhsg","pricing_plan_id":"free"},{"bike_id":"3e2b1177-2c86-434f-b952-b4cf179b745c","system_id":"levelo_inurba_marseille","lat":43.32339,"lon":5.40625,"is_reserved":false,"is_disabled":false,"rental_uris":{"android":"levelo://app?vid=3e2b1177-2c86-434f-b952-b4cf179b745c","ios":"levelo://app?vid=3e2b1177-2c86-434f-b952-b4cf179b745c"},"vehicle_type_id":"4","last_reported":1691168718,"current_range_meters":21600,"station_id":"ce4bhq92rcd13ifvqhjg","pricing_plan_id":"free"},{"bike_id":"9be39f6c-974f-4a4e-90c3-357a4d8fdcc8","system_id":"levelo_inurba_marseille","lat":43.323464,"lon":5.406297,"is_reserved":false,"is_disabled":false,"rental_uris":{"android":"levelo://app?vid=9be39f6c-974f-4a4e-90c3-357a4d8fdcc8","ios":"levelo://app?vid=9be39f6c-974f-4a4e-90c3-357a4d8fdcc8"},"vehicle_type_id":"4","last_reported":1691168718,"current_range_meters":30800,"station_id":"ce4bhq92rcd13ifvqhjg","pricing_plan_id":"free"},{"bike_id":"37dfae56-2a13-495c-9752-c992e0ad9ccf","system_id":"levelo_inurba_marseille","lat":43.32342,"lon":5.40625,"is_reserved":false,"is_disabled":false,"rental_uris":{"android":"levelo://app?vid=37dfae56-2a13-495c-9752-c992e0ad9ccf","ios":"levelo://app?vid=37dfae56-2a13-495c-9752-c992e0ad9ccf"},"vehicle_type_id":"4","last_reported":1691168718,"current_range_meters":28800,"station_id":"ce4bhq92rcd13ifvqhjg","pricing_plan_id":"free"},{"bike_id":"23dafe58-bc58-41ce-843c-2b5e651c84c2","system_id":"levelo_inurba_marseille","lat":43.32346,"lon":5.40623,"is_reserved":false,"is_disabled":false,"rental_uris":{"android":"levelo://app?vid=23dafe58-bc58-41ce-843c-2b5e651c84c2","ios":"levelo://app?vid=23dafe58-bc58-41ce-843c-2b5e651c84c2"},"vehicle_type_id":"4","last_reported":1691168718,"current_range_meters":30400,"station_id":"ce4bhq92rcd13ifvqhjg","pricing_plan_id":"free"},{"bike_id":"9d8dc018-8295-487e-aae9-79ce0f469cdf","system_id":"levelo_inurba_marseille","lat":43.33732,"lon":5.39184,"is_reserved":false,"is_disabled":false,"rental_uris":{"android":"levelo://app?vid=9d8dc018-8295-487e-aae9-79ce0f469cdf","ios":"levelo://app?vid=9d8dc018-8295-487e-aae9-79ce0f469cdf"},"vehicle_type_id":"4","last_reported":1691168718,"current_range_meters":24800,"station_id":"ce4bhr92rcd13ifvqhsg","pricing_plan_id":"free"},{"bike_id":"65e7209e-43de-4472-85bf-edccad84c81f","system_id":"levelo_inurba_marseille","lat":43.33733,"lon":5.39183,"is_reserved":false,"is_disabled":false,"rental_uris":{"android":"levelo://app?vid=65e7209e-43de-4472-85bf-edccad84c81f","ios":"levelo://app?vid=65e7209e-43de-4472-85bf-edccad84c81f"},"vehicle_type_id":"4","last_reported":1691168718,"current_range_meters":26800,"station_id":"ce4bhr92rcd13ifvqhsg","pricing_plan_id":"free"},{"bike_id":"5fd6a347-0a02-4efa-ab4a-06802493ed56","system_id":"levelo_inurba_marseille","lat":43.33731,"lon":5.39189,"is_reserved":false,"is_disabled":false,"rental_uris":{"android":"levelo://app?vid=5fd6a347-0a02-4efa-ab4a-06802493ed56","ios":"levelo://app?vid=5fd6a347-0a02-4efa-ab4a-06802493ed56"},"vehicle_type_id":"4","last_reported":1691168718,"current_range_meters":15200,"station_id":"ce4bhr92rcd13ifvqhsg","pricing_plan_id":"free"},{"bike_id":"939edbe6-adcc-4f97-ad69-99748df4073d","system_id":"levelo_inurba_marseille","lat":43.33735,"lon":5.39184,"is_reserved":false,"is_disabled":false,"rental_uris":{"android":"levelo://app?vid=939edbe6-adcc-4f97-ad69-99748df4073d","ios":"levelo://app?vid=939edbe6-adcc-4f97-ad69-99748df4073d"},"vehicle_type_id":"4","last_reported":1691168718,"current_range_meters":24800,"station_id":"ce4bhr92rcd13ifvqhsg","pricing_plan_id":"free"},{"bike_id":"ed9797b8-d925-4a28-9a9e-5f5639c20314","system_id":"levelo_inurba_marseille","lat":43.33734,"lon":5.39187,"is_reserved":false,"is_disabled":false,"rental_uris":{"android":"levelo://app?vid=ed9797b8-d925-4a28-9a9e-5f5639c20314","ios":"levelo://app?vid=ed9797b8-d925-4a28-9a9e-5f5639c20314"},"vehicle_type_id":"4","last_reported":1691168718,"current_range_meters":13600,"station_id":"ce4bhr92rcd13ifvqhsg","pricing_plan_id":"free"},{"bike_id":"1693246b-d2dc-4fc4-900f-655d2139a227","system_id":"levelo_inurba_marseille","lat":43.284793,"lon":5.384113,"is_reserved":false,"is_disabled":false,"rental_uris":{"android":"levelo://app?vid=1693246b-d2dc-4fc4-900f-655d2139a227","ios":"levelo://app?vid=1693246b-d2dc-4fc4-900f-655d2139a227"},"vehicle_type_id":"4","last_reported":1691168718,"current_range_meters":20400,"station_id":"ce4bh512rcd13ifvqe3g","pricing_plan_id":"free"},{"bike_id":"94e37efb-5fcd-4b46-a99e-8bfc4b280c89","system_id":"levelo_inurba_marseille","lat":43.284793,"lon":5.384119,"is_reserved":false,"is_disabled":false,"rental_uris":{"android":"levelo://app?vid=94e37efb-5fcd-4b46-a99e-8bfc4b280c89","ios":"levelo://app?vid=94e37efb-5fcd-4b46-a99e-8bfc4b280c89"},"vehicle_type_id":"4","last_reported":1691168718,"current_range_meters":7600,"station_id":"ce4bh512rcd13ifvqe3g","pricing_plan_id":"free"},{"bike_id":"dbada9f9-e33c-4a7d-ab43-1cac4e571e70","system_id":"levelo_inurba_marseille","lat":43.284793,"lon":5.384119,"is_reserved":false,"is_disabled":false,"rental_uris":{"android":"levelo://app?vid=dbada9f9-e33c-4a7d-ab43-1cac4e571e70","ios":"levelo://app?vid=dbada9f9-e33c-4a7d-ab43-1cac4e571e70"},"vehicle_type_id":"4","last_reported":1691168718,"current_range_meters":28800,"station_id":"ce4bh512rcd13ifvqe3g","pricing_plan_id":"free"},{"bike_id":"4b3b225e-0f26-4101-81d9-6b5fa4f08732","system_id":"levelo_inurba_marseille","lat":43.288501,"lon":5.393087,"is_reserved":false,"is_disabled":false,"rental_uris":{"android":"levelo://app?vid=4b3b225e-0f26-4101-81d9-6b5fa4f08732","ios":"levelo://app?vid=4b3b225e-0f26-4101-81d9-6b5fa4f08732"},"vehicle_type_id":"4","last_reported":1691168718,"current_range_meters":14000,"station_id":"ce4bh2p2rcd13ifvqdi0","pricing_plan_id":"free"},{"bike_id":"b0ff7ac2-de99-4212-b346-e5e7dfb1c665","system_id":"levelo_inurba_marseille","lat":43.288501,"lon":5.393087,"is_reserved":false,"is_disabled":false,"rental_uris":{"android":"levelo://app?vid=b0ff7ac2-de99-4212-b346-e5e7dfb1c665","ios":"levelo://app?vid=b0ff7ac2-de99-4212-b346-e5e7dfb1c665"},"vehicle_type_id":"4","last_reported":1691168718,"current_range_meters":14800,"station_id":"ce4bh2p2rcd13ifvqdi0","pricing_plan_id":"free"},{"bike_id":"9938a22f-106c-4f57-b942-e6b65ab2be54","system_id":"levelo_inurba_marseille","lat":43.28433,"lon":5.3499,"is_reserved":false,"is_disabled":false,"rental_uris":{"android":"levelo://app?vid=9938a22f-106c-4f57-b942-e6b65ab2be54","ios":"levelo://app?vid=9938a22f-106c-4f57-b942-e6b65ab2be54"},"vehicle_type_id":"4","last_reported":1691168718,"current_range_meters":30000,"station_id":"ce4bhbh2rcd13ifvqepg","pricing_plan_id":"free"},{"bike_id":"1cd36677-ba42-48dc-8618-a23a2d946f87","system_id":"levelo_inurba_marseille","lat":43.28432,"lon":5.34993,"is_reserved":false,"is_disabled":false,"rental_uris":{"android":"levelo://app?vid=1cd36677-ba42-48dc-8618-a23a2d946f87","ios":"levelo://app?vid=1cd36677-ba42-48dc-8618-a23a2d946f87"},"vehicle_type_id":"4","last_reported":1691168718,"current_range_meters":24800,"station_id":"ce4bhbh2rcd13ifvqepg","pricing_plan_id":"free"},{"bike_id":"ec0c3426-d860-4d67-8df4-ef4b0084a009","system_id":"levelo_inurba_marseille","lat":43.284219,"lon":5.3497,"is_reserved":false,"is_disabled":false,"rental_uris":{"android":"levelo://app?vid=ec0c3426-d860-4d67-8df4-ef4b0084a009","ios":"levelo://app?vid=ec0c3426-d860-4d67-8df4-ef4b0084a009"},"vehicle_type_id":"4","last_reported":1691168718,"current_range_meters":31200,"station_id":"ce4bhbh2rcd13ifvqepg","pricing_plan_id":"free"},{"bike_id":"67a317f5-9abf-41e0-b0c0-cecc9f59c420","system_id":"levelo_inurba_marseille","lat":43.284219,"lon":5.3497,"is_reserved":false,"is_disabled":false,"rental_uris":{"android":"levelo://app?vid=67a317f5-9abf-41e0-b0c0-cecc9f59c420","ios":"levelo://app?vid=67a317f5-9abf-41e0-b0c0-cecc9f59c420"},"vehicle_type_id":"4","last_reported":1691168718,"current_range_meters":28800,"station_id":"ce4bhbh2rcd13ifvqepg","pricing_plan_id":"free"},{"bike_id":"eb4e3a60-54ee-4577-bc4a-d516ce6ca302","system_id":"levelo_inurba_marseille","lat":43.2843,"lon":5.34994,"is_reserved":false,"is_disabled":false,"rental_uris":{"android":"levelo://app?vid=eb4e3a60-54ee-4577-bc4a-d516ce6ca302","ios":"levelo://app?vid=eb4e3a60-54ee-4577-bc4a-d516ce6ca302"},"vehicle_type_id":"4","last_reported":1691168718,"current_range_meters":10000,"station_id":"ce4bhbh2rcd13ifvqepg","pricing_plan_id":"free"},{"bike_id":"237dc8b0-60e8-4978-bff0-f418fae22bf2","system_id":"levelo_inurba_marseille","lat":43.28429,"lon":5.34991,"is_reserved":false,"is_disabled":false,"rental_uris":{"android":"levelo://app?vid=237dc8b0-60e8-4978-bff0-f418fae22bf2","ios":"levelo://app?vid=237dc8b0-60e8-4978-bff0-f418fae22bf2"},"vehicle_type_id":"4","last_reported":1691168718,"current_range_meters":9200,"station_id":"ce4bhbh2rcd13ifvqepg","pricing_plan_id":"free"},{"bike_id":"509f37c7-acb3-4b17-99cf-e4dbe380daa0","system_id":"levelo_inurba_marseille","lat":43.284217,"lon":5.349697,"is_reserved":false,"is_disabled":false,"rental_uris":{"android":"levelo://app?vid=509f37c7-acb3-4b17-99cf-e4dbe380daa0","ios":"levelo://app?vid=509f37c7-acb3-4b17-99cf-e4dbe380daa0"},"vehicle_type_id":"4","last_reported":1691168718,"current_range_meters":31200,"station_id":"ce4bhbh2rcd13ifvqepg","pricing_plan_id":"free"},{"bike_id":"3c636f52-d93a-406f-9228-8e6215e578cb","system_id":"levelo_inurba_marseille","lat":43.28426,"lon":5.34996,"is_reserved":false,"is_disabled":false,"rental_uris":{"android":"levelo://app?vid=3c636f52-d93a-406f-9228-8e6215e578cb","ios":"levelo://app?vid=3c636f52-d93a-406f-9228-8e6215e578cb"},"vehicle_type_id":"4","last_reported":1691168718,"current_range_meters":24400,"station_id":"ce4bhbh2rcd13ifvqepg","pricing_plan_id":"free"},{"bike_id":"c8ad0af3-0516-4c01-88ff-a8cd3cc7b692","system_id":"levelo_inurba_marseille","lat":43.284219,"lon":5.3497,"is_reserved":false,"is_disabled":false,"rental_uris":{"android":"levelo://app?vid=c8ad0af3-0516-4c01-88ff-a8cd3cc7b692","ios":"levelo://app?vid=c8ad0af3-0516-4c01-88ff-a8cd3cc7b692"},"vehicle_type_id":"4","last_reported":1691168718,"current_range_meters":16800,"station_id":"ce4bhbh2rcd13ifvqepg","pricing_plan_id":"free"},{"bike_id":"a0201101-4167-411b-8383-320c861bb236","system_id":"levelo_inurba_marseille","lat":43.28427,"lon":5.34991,"is_reserved":false,"is_disabled":false,"rental_uris":{"android":"levelo://app?vid=a0201101-4167-411b-8383-320c861bb236","ios":"levelo://app?vid=a0201101-4167-411b-8383-320c861bb236"},"vehicle_type_id":"4","last_reported":1691168718,"current_range_meters":20000,"station_id":"ce4bhbh2rcd13ifvqepg","pricing_plan_id":"free"},{"bike_id":"1439854b-9146-46e8-b80d-9755787de961","system_id":"levelo_inurba_marseille","lat":43.28426,"lon":5.34994,"is_reserved":false,"is_disabled":false,"rental_uris":{"android":"levelo://app?vid=1439854b-9146-46e8-b80d-9755787de961","ios":"levelo://app?vid=1439854b-9146-46e8-b80d-9755787de961"},"vehicle_type_id":"4","last_reported":1691168718,"current_range_meters":22400,"station_id":"ce4bhbh2rcd13ifvqepg","pricing_plan_id":"free"},{"bike_id":"91c3ba0f-7e65-452b-b95b-7b55ee8c0e45","system_id":"levelo_inurba_marseille","lat":43.28426,"lon":5.34993,"is_reserved":false,"is_disabled":false,"rental_uris":{"android":"levelo://app?vid=91c3ba0f-7e65-452b-b95b-7b55ee8c0e45","ios":"levelo://app?vid=91c3ba0f-7e65-452b-b95b-7b55ee8c0e45"},"vehicle_type_id":"4","last_reported":1691168718,"current_range_meters":8800,"station_id":"ce4bhbh2rcd13ifvqepg","pricing_plan_id":"free"},{"bike_id":"01a0bcb6-eb2e-4c15-b7fc-739ca9687f6a","system_id":"levelo_inurba_marseille","lat":43.28427,"lon":5.34989,"is_reserved":false,"is_disabled":false,"rental_uris":{"android":"levelo://app?vid=01a0bcb6-eb2e-4c15-b7fc-739ca9687f6a","ios":"levelo://app?vid=01a0bcb6-eb2e-4c15-b7fc-739ca9687f6a"},"vehicle_type_id":"4","last_reported":1691168718,"current_range_meters":20000,"station_id":"ce4bhbh2rcd13ifvqepg","pricing_plan_id":"free"},{"bike_id":"dd2b7e53-cee5-42a6-aae9-c2fc15d5e562","system_id":"levelo_inurba_marseille","lat":43.284219,"lon":5.3497,"is_reserved":false,"is_disabled":false,"rental_uris":{"android":"levelo://app?vid=dd2b7e53-cee5-42a6-aae9-c2fc15d5e562","ios":"levelo://app?vid=dd2b7e53-cee5-42a6-aae9-c2fc15d5e562"},"vehicle_type_id":"4","last_reported":1691168718,"current_range_meters":26000,"station_id":"ce4bhbh2rcd13ifvqepg","pricing_plan_id":"free"},{"bike_id":"1618bc7e-089a-4f2b-b7ef-6a791ca377e1","system_id":"levelo_inurba_marseille","lat":43.28423,"lon":5.34997,"is_reserved":false,"is_disabled":false,"rental_uris":{"android":"levelo://app?vid=1618bc7e-089a-4f2b-b7ef-6a791ca377e1","ios":"levelo://app?vid=1618bc7e-089a-4f2b-b7ef-6a791ca377e1"},"vehicle_type_id":"4","last_reported":1691168718,"current_range_meters":10800,"station_id":"ce4bhbh2rcd13ifvqepg","pricing_plan_id":"free"},{"bike_id":"ad2e5448-3aef-4131-af85-6a76cf505b0f","system_id":"levelo_inurba_marseille","lat":43.284219,"lon":5.3497,"is_reserved":false,"is_disabled":false,"rental_uris":{"android":"levelo://app?vid=ad2e5448-3aef-4131-af85-6a76cf505b0f","ios":"levelo://app?vid=ad2e5448-3aef-4131-af85-6a76cf505b0f"},"vehicle_type_id":"4","last_reported":1691168718,"current_range_meters":23200,"station_id":"ce4bhbh2rcd13ifvqepg","pricing_plan_id":"free"},{"bike_id":"1002eda9-1961-410c-88cb-04af7fbc34c0","system_id":"levelo_inurba_marseille","lat":43.28422,"lon":5.34999,"is_reserved":false,"is_disabled":false,"rental_uris":{"android":"levelo://app?vid=1002eda9-1961-410c-88cb-04af7fbc34c0","ios":"levelo://app?vid=1002eda9-1961-410c-88cb-04af7fbc34c0"},"vehicle_type_id":"4","last_reported":1691168718,"current_range_meters":22000,"station_id":"ce4bhbh2rcd13ifvqepg","pricing_plan_id":"free"},{"bike_id":"33c7f28c-8bf0-4a12-a367-dbd734724f6e","system_id":"levelo_inurba_marseille","lat":43.28423,"lon":5.34994,"is_reserved":false,"is_disabled":false,"rental_uris":{"android":"levelo://app?vid=33c7f28c-8bf0-4a12-a367-dbd734724f6e","ios":"levelo://app?vid=33c7f28c-8bf0-4a12-a367-dbd734724f6e"},"vehicle_type_id":"4","last_reported":1691168718,"current_range_meters":25600,"station_id":"ce4bhbh2rcd13ifvqepg","pricing_plan_id":"free"},{"bike_id":"d467766d-3512-465b-a791-caab20aea86b","system_id":"levelo_inurba_marseille","lat":43.28423,"lon":5.34993,"is_reserved":false,"is_disabled":false,"rental_uris":{"android":"levelo://app?vid=d467766d-3512-465b-a791-caab20aea86b","ios":"levelo://app?vid=d467766d-3512-465b-a791-caab20aea86b"},"vehicle_type_id":"4","last_reported":1691168718,"current_range_meters":11600,"station_id":"ce4bhbh2rcd13ifvqepg","pricing_plan_id":"free"},{"bike_id":"cc1e5e92-f88d-4aad-ab5d-2ac31992f744","system_id":"levelo_inurba_marseille","lat":43.284219,"lon":5.3497,"is_reserved":false,"is_disabled":false,"rental_uris":{"android":"levelo://app?vid=cc1e5e92-f88d-4aad-ab5d-2ac31992f744","ios":"levelo://app?vid=cc1e5e92-f88d-4aad-ab5d-2ac31992f744"},"vehicle_type_id":"4","last_reported":1691168718,"current_range_meters":12800,"station_id":"ce4bhbh2rcd13ifvqepg","pricing_plan_id":"free"},{"bike_id":"28af81f0-a669-4433-8621-77b19469a9b1","system_id":"levelo_inurba_marseille","lat":43.28427,"lon":5.34972,"is_reserved":false,"is_disabled":false,"rental_uris":{"android":"levelo://app?vid=28af81f0-a669-4433-8621-77b19469a9b1","ios":"levelo://app?vid=28af81f0-a669-4433-8621-77b19469a9b1"},"vehicle_type_id":"4","last_reported":1691168718,"current_range_meters":10000,"station_id":"ce4bhbh2rcd13ifvqepg","pricing_plan_id":"free"},{"bike_id":"ccb9b454-bd0b-4b57-8e44-0baa695c0f77","system_id":"levelo_inurba_marseille","lat":43.28422,"lon":5.34987,"is_reserved":false,"is_disabled":false,"rental_uris":{"android":"levelo://app?vid=ccb9b454-bd0b-4b57-8e44-0baa695c0f77","ios":"levelo://app?vid=ccb9b454-bd0b-4b57-8e44-0baa695c0f77"},"vehicle_type_id":"4","last_reported":1691168718,"current_range_meters":25200,"station_id":"ce4bhbh2rcd13ifvqepg","pricing_plan_id":"free"},{"bike_id":"f4b48e46-2ef3-4af8-8158-942b0e1cfd9b","system_id":"levelo_inurba_marseille","lat":43.28418,"lon":5.34998,"is_reserved":false,"is_disabled":false,"rental_uris":{"android":"levelo://app?vid=f4b48e46-2ef3-4af8-8158-942b0e1cfd9b","ios":"levelo://app?vid=f4b48e46-2ef3-4af8-8158-942b0e1cfd9b"},"vehicle_type_id":"4","last_reported":1691168718,"current_range_meters":28000,"station_id":"ce4bhbh2rcd13ifvqepg","pricing_plan_id":"free"},{"bike_id":"c137ff5c-5fc0-4f95-87cc-1fad6a0c5768","system_id":"levelo_inurba_marseille","lat":43.2842,"lon":5.34991,"is_reserved":false,"is_disabled":false,"rental_uris":{"android":"levelo://app?vid=c137ff5c-5fc0-4f95-87cc-1fad6a0c5768","ios":"levelo://app?vid=c137ff5c-5fc0-4f95-87cc-1fad6a0c5768"},"vehicle_type_id":"4","last_reported":1691168718,"current_range_meters":28400,"station_id":"ce4bhbh2rcd13ifvqepg","pricing_plan_id":"free"},{"bike_id":"ef871ca1-d89c-4384-bc00-48ed2583bfe6","system_id":"levelo_inurba_marseille","lat":43.28421,"lon":5.34987,"is_reserved":false,"is_disabled":false,"rental_uris":{"android":"levelo://app?vid=ef871ca1-d89c-4384-bc00-48ed2583bfe6","ios":"levelo://app?vid=ef871ca1-d89c-4384-bc00-48ed2583bfe6"},"vehicle_type_id":"4","last_reported":1691168718,"current_range_meters":31200,"station_id":"ce4bhbh2rcd13ifvqepg","pricing_plan_id":"free"},{"bike_id":"b96ed91b-fb24-4bbd-9431-a5f43fe86ec4","system_id":"levelo_inurba_marseille","lat":43.2842,"lon":5.3499,"is_reserved":false,"is_disabled":false,"rental_uris":{"android":"levelo://app?vid=b96ed91b-fb24-4bbd-9431-a5f43fe86ec4","ios":"levelo://app?vid=b96ed91b-fb24-4bbd-9431-a5f43fe86ec4"},"vehicle_type_id":"4","last_reported":1691168718,"current_range_meters":12000,"station_id":"ce4bhbh2rcd13ifvqepg","pricing_plan_id":"free"},{"bike_id":"2e58549e-f8d6-422a-9782-163112969dd2","system_id":"levelo_inurba_marseille","lat":43.28417,"lon":5.34997,"is_reserved":false,"is_disabled":false,"rental_uris":{"android":"levelo://app?vid=2e58549e-f8d6-422a-9782-163112969dd2","ios":"levelo://app?vid=2e58549e-f8d6-422a-9782-163112969dd2"},"vehicle_type_id":"4","last_reported":1691168718,"current_range_meters":10800,"station_id":"ce4bhbh2rcd13ifvqepg","pricing_plan_id":"free"},{"bike_id":"cf105604-e441-4abb-b1a8-17b3200bed95","system_id":"levelo_inurba_marseille","lat":43.2842,"lon":5.34986,"is_reserved":false,"is_disabled":false,"rental_uris":{"android":"levelo://app?vid=cf105604-e441-4abb-b1a8-17b3200bed95","ios":"levelo://app?vid=cf105604-e441-4abb-b1a8-17b3200bed95"},"vehicle_type_id":"4","last_reported":1691168718,"current_range_meters":31200,"station_id":"ce4bhbh2rcd13ifvqepg","pricing_plan_id":"free"},{"bike_id":"7f5efc6b-50ae-4988-aee3-be6a272061ff","system_id":"levelo_inurba_marseille","lat":43.28417,"lon":5.34992,"is_reserved":false,"is_disabled":false,"rental_uris":{"android":"levelo://app?vid=7f5efc6b-50ae-4988-aee3-be6a272061ff","ios":"levelo://app?vid=7f5efc6b-50ae-4988-aee3-be6a272061ff"},"vehicle_type_id":"4","last_reported":1691168718,"current_range_meters":11600,"station_id":"ce4bhbh2rcd13ifvqepg","pricing_plan_id":"free"},{"bike_id":"cbfeb36d-9040-477c-9b1c-9150d51f60cb","system_id":"levelo_inurba_marseille","lat":43.284217,"lon":5.349697,"is_reserved":false,"is_disabled":false,"rental_uris":{"android":"levelo://app?vid=cbfeb36d-9040-477c-9b1c-9150d51f60cb","ios":"levelo://app?vid=cbfeb36d-9040-477c-9b1c-9150d51f60cb"},"vehicle_type_id":"4","last_reported":1691168718,"current_range_meters":31200,"station_id":"ce4bhbh2rcd13ifvqepg","pricing_plan_id":"free"},{"bike_id":"c67046e8-1b3e-4813-b439-9226ce8d6413","system_id":"levelo_inurba_marseille","lat":43.28939,"lon":5.39626,"is_reserved":false,"is_disabled":false,"rental_uris":{"android":"levelo://app?vid=c67046e8-1b3e-4813-b439-9226ce8d6413","ios":"levelo://app?vid=c67046e8-1b3e-4813-b439-9226ce8d6413"},"vehicle_type_id":"4","last_reported":1691168718,"current_range_meters":2000,"station_id":"ce4bh3h2rcd13ifvqdn0","pricing_plan_id":"free"},{"bike_id":"f7f5768e-b80f-4da0-8864-86696a8877fb","system_id":"levelo_inurba_marseille","lat":43.32456,"lon":5.40727,"is_reserved":false,"is_disabled":false,"rental_uris":{"android":"levelo://app?vid=f7f5768e-b80f-4da0-8864-86696a8877fb","ios":"levelo://app?vid=f7f5768e-b80f-4da0-8864-86696a8877fb"},"vehicle_type_id":"4","last_reported":1691168718,"current_range_meters":0,"station_id":"","pricing_plan_id":"free"},{"bike_id":"bc603611-0292-4416-8374-eb4cb0e56c5a","system_id":"levelo_inurba_marseille","lat":43.289363,"lon":5.396322,"is_reserved":false,"is_disabled":false,"rental_uris":{"android":"levelo://app?vid=bc603611-0292-4416-8374-eb4cb0e56c5a","ios":"levelo://app?vid=bc603611-0292-4416-8374-eb4cb0e56c5a"},"vehicle_type_id":"4","last_reported":1691168718,"current_range_meters":7200,"station_id":"ce4bh3h2rcd13ifvqdn0","pricing_plan_id":"free"},{"bike_id":"0239cf37-243f-4352-a5f2-8aaa5b8fc067","system_id":"levelo_inurba_marseille","lat":43.28272,"lon":5.35073,"is_reserved":false,"is_disabled":false,"rental_uris":{"android":"levelo://app?vid=0239cf37-243f-4352-a5f2-8aaa5b8fc067","ios":"levelo://app?vid=0239cf37-243f-4352-a5f2-8aaa5b8fc067"},"vehicle_type_id":"4","last_reported":1691168718,"current_range_meters":21200,"station_id":"ce4bhbp2rcd13ifvqerg","pricing_plan_id":"free"},{"bike_id":"df102fb8-198b-4d0d-8753-b3e960fb270d","system_id":"levelo_inurba_marseille","lat":43.280382,"lon":5.369291,"is_reserved":false,"is_disabled":false,"rental_uris":{"android":"levelo://app?vid=df102fb8-198b-4d0d-8753-b3e960fb270d","ios":"levelo://app?vid=df102fb8-198b-4d0d-8753-b3e960fb270d"},"vehicle_type_id":"4","last_reported":1691168718,"current_range_meters":3600,"station_id":"ce4bha12rcd13ifvqef0","pricing_plan_id":"free"},{"bike_id":"56f0e2c1-4e53-42a8-89f6-21e0446e97fc","system_id":"levelo_inurba_marseille","lat":43.284462,"lon":5.392121,"is_reserved":false,"is_disabled":false,"rental_uris":{"android":"levelo://app?vid=56f0e2c1-4e53-42a8-89f6-21e0446e97fc","ios":"levelo://app?vid=56f0e2c1-4e53-42a8-89f6-21e0446e97fc"},"vehicle_type_id":"4","last_reported":1691168718,"current_range_meters":3600,"station_id":"ce4bhoh2rcd13ifvqh5g","pricing_plan_id":"free"},{"bike_id":"7411ff49-7d7d-4ae4-8c93-9752b8e8b6bb","system_id":"levelo_inurba_marseille","lat":43.284462,"lon":5.392121,"is_reserved":false,"is_disabled":false,"rental_uris":{"android":"levelo://app?vid=7411ff49-7d7d-4ae4-8c93-9752b8e8b6bb","ios":"levelo://app?vid=7411ff49-7d7d-4ae4-8c93-9752b8e8b6bb"},"vehicle_type_id":"4","last_reported":1691168718,"current_range_meters":4000,"station_id":"ce4bhoh2rcd13ifvqh5g","pricing_plan_id":"free"},{"bike_id":"aabd1e9e-e7b1-4813-bd56-188828b05915","system_id":"levelo_inurba_marseille","lat":43.285742,"lon":5.395004,"is_reserved":false,"is_disabled":false,"rental_uris":{"android":"levelo://app?vid=aabd1e9e-e7b1-4813-bd56-188828b05915","ios":"levelo://app?vid=aabd1e9e-e7b1-4813-bd56-188828b05915"},"vehicle_type_id":"4","last_reported":1691168718,"current_range_meters":24800,"station_id":"ce4bh292rcd13ifvqdg0","pricing_plan_id":"free"},{"bike_id":"33011623-ed89-4cba-a1fe-88e3b26b5b68","system_id":"levelo_inurba_marseille","lat":43.285742,"lon":5.395004,"is_reserved":false,"is_disabled":false,"rental_uris":{"android":"levelo://app?vid=33011623-ed89-4cba-a1fe-88e3b26b5b68","ios":"levelo://app?vid=33011623-ed89-4cba-a1fe-88e3b26b5b68"},"vehicle_type_id":"4","last_reported":1691168718,"current_range_meters":16800,"station_id":"ce4bh292rcd13ifvqdg0","pricing_plan_id":"free"},{"bike_id":"5df5b036-bc9b-44d7-bd67-f98847bf639e","system_id":"levelo_inurba_marseille","lat":43.32663,"lon":5.40987,"is_reserved":false,"is_disabled":false,"rental_uris":{"android":"levelo://app?vid=5df5b036-bc9b-44d7-bd67-f98847bf639e","ios":"levelo://app?vid=5df5b036-bc9b-44d7-bd67-f98847bf639e"},"vehicle_type_id":"4","last_reported":1691168718,"current_range_meters":21200,"station_id":"ce4bhpp2rcd13ifvqhgg","pricing_plan_id":"free"},{"bike_id":"df11a631-4a87-44f4-9f05-86b646509299","system_id":"levelo_inurba_marseille","lat":43.32661,"lon":5.40996,"is_reserved":false,"is_disabled":false,"rental_uris":{"android":"levelo://app?vid=df11a631-4a87-44f4-9f05-86b646509299","ios":"levelo://app?vid=df11a631-4a87-44f4-9f05-86b646509299"},"vehicle_type_id":"4","last_reported":1691168718,"current_range_meters":2000,"station_id":"ce4bhpp2rcd13ifvqhgg","pricing_plan_id":"free"},{"bike_id":"3e89ffb7-dd72-47cf-802b-a8035acf6fc9","system_id":"levelo_inurba_marseille","lat":43.32507,"lon":5.41088,"is_reserved":false,"is_disabled":false,"rental_uris":{"android":"levelo://app?vid=3e89ffb7-dd72-47cf-802b-a8035acf6fc9","ios":"levelo://app?vid=3e89ffb7-dd72-47cf-802b-a8035acf6fc9"},"vehicle_type_id":"4","last_reported":1691168718,"current_range_meters":13600,"station_id":"","pricing_plan_id":"free"},{"bike_id":"2777f785-01fa-412a-be76-eb9e6d4d3cec","system_id":"levelo_inurba_marseille","lat":43.304188,"lon":5.412904,"is_reserved":false,"is_disabled":false,"rental_uris":{"android":"levelo://app?vid=2777f785-01fa-412a-be76-eb9e6d4d3cec","ios":"levelo://app?vid=2777f785-01fa-412a-be76-eb9e6d4d3cec"},"vehicle_type_id":"4","last_reported":1691168718,"current_range_meters":15200,"station_id":"ce4bhop2rcd13ifvqh8g","pricing_plan_id":"free"},{"bike_id":"82f732a4-1941-461d-ae43-ff65590649cb","system_id":"levelo_inurba_marseille","lat":43.287154,"lon":5.399979,"is_reserved":false,"is_disabled":false,"rental_uris":{"android":"levelo://app?vid=82f732a4-1941-461d-ae43-ff65590649cb","ios":"levelo://app?vid=82f732a4-1941-461d-ae43-ff65590649cb"},"vehicle_type_id":"4","last_reported":1691168718,"current_range_meters":31200,"station_id":"ce4bho92rcd13ifvqh3g","pricing_plan_id":"free"},{"bike_id":"31bde3b3-43c1-4029-87f5-50f7a676b583","system_id":"levelo_inurba_marseille","lat":43.287154,"lon":5.399979,"is_reserved":false,"is_disabled":false,"rental_uris":{"android":"levelo://app?vid=31bde3b3-43c1-4029-87f5-50f7a676b583","ios":"levelo://app?vid=31bde3b3-43c1-4029-87f5-50f7a676b583"},"vehicle_type_id":"4","last_reported":1691168718,"current_range_meters":26800,"station_id":"ce4bho92rcd13ifvqh3g","pricing_plan_id":"free"},{"bike_id":"cfe0cd26-fa79-4a21-84fe-7ba53e3fc8a7","system_id":"levelo_inurba_marseille","lat":43.287154,"lon":5.399979,"is_reserved":false,"is_disabled":false,"rental_uris":{"android":"levelo://app?vid=cfe0cd26-fa79-4a21-84fe-7ba53e3fc8a7","ios":"levelo://app?vid=cfe0cd26-fa79-4a21-84fe-7ba53e3fc8a7"},"vehicle_type_id":"4","last_reported":1691168718,"current_range_meters":22400,"station_id":"ce4bho92rcd13ifvqh3g","pricing_plan_id":"free"},{"bike_id":"da74851f-183f-4ed8-bc32-44e1d656b516","system_id":"levelo_inurba_marseille","lat":43.32095,"lon":5.41512,"is_reserved":false,"is_disabled":false,"rental_uris":{"android":"levelo://app?vid=da74851f-183f-4ed8-bc32-44e1d656b516","ios":"levelo://app?vid=da74851f-183f-4ed8-bc32-44e1d656b516"},"vehicle_type_id":"4","last_reported":1691168718,"current_range_meters":0,"station_id":"","pricing_plan_id":"free"},{"bike_id":"e9fbe7f4-c376-4a74-9a01-c2dfa71d30c2","system_id":"levelo_inurba_marseille","lat":43.3209,"lon":5.41514,"is_reserved":false,"is_disabled":false,"rental_uris":{"android":"levelo://app?vid=e9fbe7f4-c376-4a74-9a01-c2dfa71d30c2","ios":"levelo://app?vid=e9fbe7f4-c376-4a74-9a01-c2dfa71d30c2"},"vehicle_type_id":"4","last_reported":1691168718,"current_range_meters":0,"station_id":"","pricing_plan_id":"free"},{"bike_id":"5ebb5a61-93a6-458f-bf62-613b684e437a","system_id":"levelo_inurba_marseille","lat":43.32057,"lon":5.41539,"is_reserved":false,"is_disabled":false,"rental_uris":{"android":"levelo://app?vid=5ebb5a61-93a6-458f-bf62-613b684e437a","ios":"levelo://app?vid=5ebb5a61-93a6-458f-bf62-613b684e437a"},"vehicle_type_id":"4","last_reported":1691168718,"current_range_meters":8000,"station_id":"ce4bhq92rcd13ifvqhkg","pricing_plan_id":"free"},{"bike_id":"c7f469b8-b712-458f-b40d-8fd50569bbc7","system_id":"levelo_inurba_marseille","lat":43.320045,"lon":5.415048,"is_reserved":false,"is_disabled":false,"rental_uris":{"android":"levelo://app?vid=c7f469b8-b712-458f-b40d-8fd50569bbc7","ios":"levelo://app?vid=c7f469b8-b712-458f-b40d-8fd50569bbc7"},"vehicle_type_id":"4","last_reported":1691168718,"current_range_meters":24000,"station_id":"ce4bhq92rcd13ifvqhkg","pricing_plan_id":"free"},{"bike_id":"5e5eaf6d-464b-4579-82f9-566ecdd04cf4","system_id":"levelo_inurba_marseille","lat":43.320045,"lon":5.415048,"is_reserved":false,"is_disabled":false,"rental_uris":{"android":"levelo://app?vid=5e5eaf6d-464b-4579-82f9-566ecdd04cf4","ios":"levelo://app?vid=5e5eaf6d-464b-4579-82f9-566ecdd04cf4"},"vehicle_type_id":"4","last_reported":1691168718,"current_range_meters":30400,"station_id":"ce4bhq92rcd13ifvqhkg","pricing_plan_id":"free"},{"bike_id":"c327718a-8fe6-4791-a349-aba0f8f94e82","system_id":"levelo_inurba_marseille","lat":43.279742,"lon":5.38744,"is_reserved":false,"is_disabled":false,"rental_uris":{"android":"levelo://app?vid=c327718a-8fe6-4791-a349-aba0f8f94e82","ios":"levelo://app?vid=c327718a-8fe6-4791-a349-aba0f8f94e82"},"vehicle_type_id":"4","last_reported":1691168718,"current_range_meters":31200,"station_id":"ce4bhg12rcd13ifvqf80","pricing_plan_id":"free"},{"bike_id":"74359488-4627-4039-ae52-00d7747d7410","system_id":"levelo_inurba_marseille","lat":43.27969,"lon":5.38743,"is_reserved":false,"is_disabled":false,"rental_uris":{"android":"levelo://app?vid=74359488-4627-4039-ae52-00d7747d7410","ios":"levelo://app?vid=74359488-4627-4039-ae52-00d7747d7410"},"vehicle_type_id":"4","last_reported":1691168718,"current_range_meters":4000,"station_id":"","pricing_plan_id":"free"},{"bike_id":"aaab772a-a216-4ab3-a87a-16293014e4e6","system_id":"levelo_inurba_marseille","lat":43.320045,"lon":5.415046,"is_reserved":false,"is_disabled":false,"rental_uris":{"android":"levelo://app?vid=aaab772a-a216-4ab3-a87a-16293014e4e6","ios":"levelo://app?vid=aaab772a-a216-4ab3-a87a-16293014e4e6"},"vehicle_type_id":"4","last_reported":1691168718,"current_range_meters":31200,"station_id":"ce4bhq92rcd13ifvqhkg","pricing_plan_id":"free"},{"bike_id":"0d8023a1-ab23-4174-ad64-7ef5fb497297","system_id":"levelo_inurba_marseille","lat":43.292569,"lon":5.409107,"is_reserved":false,"is_disabled":false,"rental_uris":{"android":"levelo://app?vid=0d8023a1-ab23-4174-ad64-7ef5fb497297","ios":"levelo://app?vid=0d8023a1-ab23-4174-ad64-7ef5fb497297"},"vehicle_type_id":"4","last_reported":1691168718,"current_range_meters":12400,"station_id":"ce4bh192rcd13ifvqdc0","pricing_plan_id":"free"},{"bike_id":"89e6e351-8721-484f-8f21-ff6c00e1c1ba","system_id":"levelo_inurba_marseille","lat":43.292569,"lon":5.409107,"is_reserved":false,"is_disabled":false,"rental_uris":{"android":"levelo://app?vid=89e6e351-8721-484f-8f21-ff6c00e1c1ba","ios":"levelo://app?vid=89e6e351-8721-484f-8f21-ff6c00e1c1ba"},"vehicle_type_id":"4","last_reported":1691168718,"current_range_meters":25200,"station_id":"ce4bh192rcd13ifvqdc0","pricing_plan_id":"free"},