{"last_updated":1683302895,"ttl":30,"version":"2.2","data":{"bikes":[{"bike_id":"fafdbe53-935d-405b-89fe-d59651794b99","system_id":"levelo_inurba_marseille","lat":43.309076,"lon":5.368465,"is_reserved":false,"is_disabled":false,"rental_uris":{"android":"levelo://app?vid=fafdbe53-935d-405b-89fe-d59651794b99","ios":"levelo://app?vid=fafdbe53-935d-405b-89fe-d59651794b99"},"vehicle_type_id":"4","last_reported":1683302896,"current_range_meters":1600,"station_id":"ce4bgn92rcd13ifvqbvg","pricing_plan_id":"free"},{"bike_id":"fe01645d-3c0c-4008-ab84-b019a7674dc1","system_id":"levelo_inurba_marseille","lat":43.30894,"lon":5.37188,"is_reserved":false,"is_disabled":false,"rental_uris":{"android":"levelo://app?vid=fe01645d-3c0c-4008-ab84-b019a7674dc1","ios":"levelo://app?vid=fe01645d-3c0c-4008-ab84-b019a7674dc1"},"vehicle_type_id":"4","last_reported":1683302896,"current_range_meters":11600,"station_id":"","pricing_plan_id":"free"},{"bike_id":"1f2210e5-fcb5-43db-a438-063a6b9b5a46","system_id":"levelo_inurba_marseille","lat":43.30887,"lon":5.37189,"is_reserved":false,"is_disabled":false,"rental_uris":{"android":"levelo://app?vid=1f2210e5-fcb5-43db-a438-063a6b9b5a46","ios":"levelo://app?vid=1f2210e5-fcb5-43db-a438-063a6b9b5a46"},"vehicle_type_id":"4","last_reported":1683302896,"current_range_meters":8400,"station_id":"","pricing_plan_id":"free"},{"bike_id":"caea2489-5a5d-4f00-8e78-8c319f8ed68e","system_id":"levelo_inurba_marseille","lat":43.3057,"lon":5.36553,"is_reserved":false,"is_disabled":false,"rental_uris":{"android":"levelo://app?vid=caea2489-5a5d-4f00-8e78-8c319f8ed68e","ios":"levelo://app?vid=caea2489-5a5d-4f00-8e78-8c319f8ed68e"},"vehicle_type_id":"4","last_reported":1683302896,"current_range_meters":11600,"station_id":"","pricing_plan_id":"free"},{"bike_id":"9d0c80e4-1b6e-409e-bd9b-754be55347e3","system_id":"levelo_inurba_marseille","lat":43.30549,"lon":5.3669,"is_reserved":false,"is_disabled":false,"rental_uris":{"android":"levelo://app?vid=9d0c80e4-1b6e-409e-bd9b-754be55347e3","ios":"levelo://app?vid=9d0c80e4-1b6e-409e-bd9b-754be55347e3"},"vehicle_type_id":"4","last_reported":1683302896,"current_range_meters":14000,"station_id":"","pricing_plan_id":"free"},{"bike_id":"b120f0e1-37b9-420c-8af7-27f6edbbf02d","system_id":"levelo_inurba_marseille","lat":43.30543,"lon":5.367,"is_reserved":false,"is_disabled":false,"rental_uris":{"android":"levelo://app?vid=b120f0e1-37b9-420c-8af7-27f6edbbf02d","ios":"levelo://app?vid=b120f0e1-37b9-420c-8af7-27f6edbbf02d"},"vehicle_type_id":"4","last_reported":1683302896,"current_range_meters":31200,"station_id":"","pricing_plan_id":"free"},{"bike_id":"da3feca8-20fa-42e5-98c7-837151288f7f","system_id":"levelo_inurba_marseille","lat":43.30601,"lon":5.37244,"is_reserved":false,"is_disabled":false,"rental_uris":{"android":"levelo://app?vid=da3feca8-20fa-42e5-98c7-837151288f7f","ios":"levelo://app?vid=da3feca8-20fa-42e5-98c7-837151288f7f"},"vehicle_type_id":"4","last_reported":1683302896,"current_range_meters":3600,"station_id":"ce4bgqh2rcd13ifvqc4g","pricing_plan_id":"free"},{"bike_id":"45358c76-333c-444c-89bd-135c8543c541","system_id":"levelo_inurba_marseille","lat":43.311131,"lon":5.377651,"is_reserved":false,"is_disabled":false,"rental_uris":{"android":"levelo://app?vid=45358c76-333c-444c-89bd-135c8543c541","ios":"levelo://app?vid=45358c76-333c-444c-89bd-135c8543c541"},"vehicle_type_id":"4","last_reported":1683302896,"current_range_meters":15600,"station_id":"ce4bgt92rcd13ifvqcg0","pricing_plan_id":"free"},{"bike_id":"56b0dcb7-e639-4b23-bbd9-5ed05daf637d","system_id":"levelo_inurba_marseille","lat":43.303046,"lon":5.368981,"is_reserved":false,"is_disabled":false,"rental_uris":{"android":"levelo://app?vid=56b0dcb7-e639-4b23-bbd9-5ed05daf637d","ios":"levelo://app?vid=56b0dcb7-e639-4b23-bbd9-5ed05daf637d"},"vehicle_type_id":"4","last_reported":1683302896,"current_range_meters":8800,"station_id":"ce4bgqh2rcd13ifvqc5g","pricing_plan_id":"free"},{"bike_id":"69e79110-c6c2-453c-b469-0155d9c20410","system_id":"levelo_inurba_marseille","lat":43.30302,"lon":5.36891,"is_reserved":false,"is_disabled":false,"rental_uris":{"android":"levelo://app?vid=69e79110-c6c2-453c-b469-0155d9c20410","ios":"levelo://app?vid=69e79110-c6c2-453c-b469-0155d9c20410"},"vehicle_type_id":"4","last_reported":1683302896,"current_range_meters":14000,"station_id":"","pricing_plan_id":"free"},{"bike_id":"25f977d0-bd45-4f56-9b2d-a3870b212d02","system_id":"levelo_inurba_marseille","lat":43.31542,"lon":5.38022,"is_reserved":false,"is_disabled":false,"rental_uris":{"android":"levelo://app?vid=25f977d0-bd45-4f56-9b2d-a3870b212d02","ios":"levelo://app?vid=25f977d0-bd45-4f56-9b2d-a3870b212d02"},"vehicle_type_id":"4","last_reported":1683302896,"current_range_meters":29600,"station_id":"ce4bhsp2rcd13ifvqi50","pricing_plan_id":"free"},{"bike_id":"ec7561d0-a5d5-498a-8f82-d03f8a172f9d","system_id":"levelo_inurba_marseille","lat":43.301939,"lon":5.366286,"is_reserved":false,"is_disabled":false,"rental_uris":{"android":"levelo://app?vid=ec7561d0-a5d5-498a-8f82-d03f8a172f9d","ios":"levelo://app?vid=ec7561d0-a5d5-498a-8f82-d03f8a172f9d"},"vehicle_type_id":"4","last_reported":1683302896,"current_range_meters":19200,"station_id":"ce4bgrh2rcd13ifvqc8g","pricing_plan_id":"free"},{"bike_id":"29913f1f-381b-4f69-b437-e340ceb56074","system_id":"levelo_inurba_marseille","lat":43.31611,"lon":5.38137,"is_reserved":false,"is_disabled":false,"rental_uris":{"android":"levelo://app?vid=29913f1f-381b-4f69-b437-e340ceb56074","ios":"levelo://app?vid=29913f1f-381b-4f69-b437-e340ceb56074"},"vehicle_type_id":"4","last_reported":1683302896,"current_range_meters":24400,"station_id":"","pricing_plan_id":"free"},{"bike_id":"1ec1d39f-2692-4fcb-8775-64efd7bd4157","system_id":"levelo_inurba_marseille","lat":43.313571,"lon":5.384829,"is_reserved":false,"is_disabled":false,"rental_uris":{"android":"levelo://app?vid=1ec1d39f-2692-4fcb-8775-64efd7bd4157","ios":"levelo://app?vid=1ec1d39f-2692-4fcb-8775-64efd7bd4157"},"vehicle_type_id":"4","last_reported":1683302896,"current_range_meters":1600,"station_id":"ce4bgt92rcd13ifvqcf0","pricing_plan_id":"free"},{"bike_id":"ce9195be-ed3a-436a-baf2-f2f57122066f","system_id":"levelo_inurba_marseille","lat":43.31363,"lon":5.38496,"is_reserved":false,"is_disabled":false,"rental_uris":{"android":"levelo://app?vid=ce9195be-ed3a-436a-baf2-f2f57122066f","ios":"levelo://app?vid=ce9195be-ed3a-436a-baf2-f2f57122066f"},"vehicle_type_id":"4","last_reported":1683302896,"current_range_meters":0,"station_id":"ce4bgt92rcd13ifvqcf0","pricing_plan_id":"free"},{"bike_id":"f76102e6-2f8b-4b32-99e5-09ccbe171e12","system_id":"levelo_inurba_marseille","lat":43.313571,"lon":5.384829,"is_reserved":false,"is_disabled":false,"rental_uris":{"android":"levelo://app?vid=f76102e6-2f8b-4b32-99e5-09ccbe171e12","ios":"levelo://app?vid=f76102e6-2f8b-4b32-99e5-09ccbe171e12"},"vehicle_type_id":"4","last_reported":1683302896,"current_range_meters":31200,"station_id":"ce4bgt92rcd13ifvqcf0","pricing_plan_id":"free"},{"bike_id":"9d697f79-1537-4009-9301-b9441997e011","system_id":"levelo_inurba_marseille","lat":43.313571,"lon":5.384829,"is_reserved":false,"is_disabled":false,"rental_uris":{"android":"levelo://app?vid=9d697f79-1537-4009-9301-b9441997e011","ios":"levelo://app?vid=9d697f79-1537-4009-9301-b9441997e011"},"vehicle_type_id":"4","last_reported":1683302896,"current_range_meters":31200,"station_id":"ce4bgt92rcd13ifvqcf0","pricing_plan_id":"free"},{"bike_id":"e50a4c0f-6c90-4297-984c-b4ab881d109a","system_id":"levelo_inurba_marseille","lat":43.30018,"lon":5.37448,"is_reserved":false,"is_disabled":false,"rental_uris":{"android":"levelo://app?vid=e50a4c0f-6c90-4297-984c-b4ab881d109a","ios":"levelo://app?vid=e50a4c0f-6c90-4297-984c-b4ab881d109a"},"vehicle_type_id":"4","last_reported":1683302896,"current_range_meters":18000,"station_id":"","pricing_plan_id":"free"},{"bike_id":"bcf12486-4d40-4884-969b-2c19f244a968","system_id":"levelo_inurba_marseille","lat":43.29857,"lon":5.3671,"is_reserved":false,"is_disabled":false,"rental_uris":{"android":"levelo://app?vid=bcf12486-4d40-4884-969b-2c19f244a968","ios":"levelo://app?vid=bcf12486-4d40-4884-969b-2c19f244a968"},"vehicle_type_id":"4","last_reported":1683302896,"current_range_meters":3600,"station_id":"","pricing_plan_id":"free"},{"bike_id":"2c55f11f-b1eb-4fbf-8b12-81c26216fe62","system_id":"levelo_inurba_marseille","lat":43.311722,"lon":5.387247,"is_reserved":false,"is_disabled":false,"rental_uris":{"android":"levelo://app?vid=2c55f11f-b1eb-4fbf-8b12-81c26216fe62","ios":"levelo://app?vid=2c55f11f-b1eb-4fbf-8b12-81c26216fe62"},"vehicle_type_id":"4","last_reported":1683302896,"current_range_meters":23200,"station_id":"ce4bgv12rcd13ifvqcp0","pricing_plan_id":"free"},{"bike_id":"a1308ddb-c48f-4654-bad5-402d7e72beca","system_id":"levelo_inurba_marseille","lat":43.299243,"lon":5.37481,"is_reserved":false,"is_disabled":false,"rental_uris":{"android":"levelo://app?vid=a1308ddb-c48f-4654-bad5-402d7e72beca","ios":"levelo://app?vid=a1308ddb-c48f-4654-bad5-402d7e72beca"},"vehicle_type_id":"4","last_reported":1683302896,"current_range_meters":24800,"station_id":"ce4bgjh2rcd13ifvqbg0","pricing_plan_id":"free"},{"bike_id":"3fea9b94-5c6e-4e6c-bbcc-b98d943ced82","system_id":"levelo_inurba_marseille","lat":43.311722,"lon":5.387247,"is_reserved":false,"is_disabled":false,"rental_uris":{"android":"levelo://app?vid=3fea9b94-5c6e-4e6c-bbcc-b98d943ced82","ios":"levelo://app?vid=3fea9b94-5c6e-4e6c-bbcc-b98d943ced82"},"vehicle_type_id":"4","last_reported":1683302896,"current_range_meters":30000,"station_id":"ce4bgv12rcd13ifvqcp0","pricing_plan_id":"free"},{"bike_id":"ad5441e0-3c47-491b-b974-87ad24a0c3d9","system_id":"levelo_inurba_marseille","lat":43.311722,"lon":5.387247,"is_reserved":false,"is_disabled":false,"rental_uris":{"android":"levelo://app?vid=ad5441e0-3c47-491b-b974-87ad24a0c3d9","ios":"levelo://app?vid=ad5441e0-3c47-491b-b974-87ad24a0c3d9"},"vehicle_type_id":"4","last_reported":1683302896,"current_range_meters":31200,"station_id":"ce4bgv12rcd13ifvqcp0","pricing_plan_id":"free"},{"bike_id":"9f8e3a9b-22d0-4019-9a73-4dcf0ba03bca","system_id":"levelo_inurba_marseille","lat":43.328371,"lon":5.366909,"is_reserved":false,"is_disabled":false,"rental_uris":{"android":"levelo://app?vid=9f8e3a9b-22d0-4019-9a73-4dcf0ba03bca","ios":"levelo://app?vid=9f8e3a9b-22d0-4019-9a73-4dcf0ba03bca"},"vehicle_type_id":"4","last_reported":1683302896,"current_range_meters":25600,"station_id":"ce4bhs92rcd13ifvqi0g","pricing_plan_id":"free"},{"bike_id":"ba5db858-af31-4cfe-99ff-47f4995f3617","system_id":"levelo_inurba_marseille","lat":43.328371,"lon":5.366909,"is_reserved":false,"is_disabled":false,"rental_uris":{"android":"levelo://app?vid=ba5db858-af31-4cfe-99ff-47f4995f3617","ios":"levelo://app?vid=ba5db858-af31-4cfe-99ff-47f4995f3617"},"vehicle_type_id":"4","last_reported":1683302896,"current_range_meters":18400,"station_id":"ce4bhs92rcd13ifvqi0g","pricing_plan_id":"free"},{"bike_id":"a2867a32-0b7a-42aa-b990-7c52df2ec6da","system_id":"levelo_inurba_marseille","lat":43.32832,"lon":5.3669,"is_reserved":false,"is_disabled":false,"rental_uris":{"android":"levelo://app?vid=a2867a32-0b7a-42aa-b990-7c52df2ec6da","ios":"levelo://app?vid=a2867a32-0b7a-42aa-b990-7c52df2ec6da"},"vehicle_type_id":"4","last_reported":1683302896,"current_range_meters":25200,"station_id":"ce4bhs92rcd13ifvqi0g","pricing_plan_id":"free"},{"bike_id":"f01ec473-7fe9-47ec-852c-f195da583b5a","system_id":"levelo_inurba_marseille","lat":43.32836,"lon":5.36686,"is_reserved":false,"is_disabled":false,"rental_uris":{"android":"levelo://app?vid=f01ec473-7fe9-47ec-852c-f195da583b5a","ios":"levelo://app?vid=f01ec473-7fe9-47ec-852c-f195da583b5a"},"vehicle_type_id":"4","last_reported":1683302896,"current_range_meters":22400,"station_id":"ce4bhs92rcd13ifvqi0g","pricing_plan_id":"free"},{"bike_id":"1886fcb6-c856-40e4-9d68-95e9cecf7514","system_id":"levelo_inurba_marseille","lat":43.32837,"lon":5.36686,"is_reserved":false,"is_disabled":false,"rental_uris":{"android":"levelo://app?vid=1886fcb6-c856-40e4-9d68-95e9cecf7514","ios":"levelo://app?vid=1886fcb6-c856-40e4-9d68-95e9cecf7514"},"vehicle_type_id":"4","last_reported":1683302896,"current_range_meters":16400,"station_id":"ce4bhs92rcd13ifvqi0g","pricing_plan_id":"free"},{"bike_id":"552d195b-8276-4461-8817-9bef832a3301","system_id":"levelo_inurba_marseille","lat":43.328371,"lon":5.366909,"is_reserved":false,"is_disabled":false,"rental_uris":{"android":"levelo://app?vid=552d195b-8276-4461-8817-9bef832a3301","ios":"levelo://app?vid=552d195b-8276-4461-8817-9bef832a3301"},"vehicle_type_id":"4","last_reported":1683302896,"current_range_meters":29200,"station_id":"ce4bhs92rcd13ifvqi0g","pricing_plan_id":"free"},{"bike_id":"aafcc005-5e38-4c52-a10d-6d0f89f0012b","system_id":"levelo_inurba_marseille","lat":43.302008,"lon":5.394694,"is_reserved":false,"is_disabled":false,"rental_uris":{"android":"levelo://app?vid=aafcc005-5e38-4c52-a10d-6d0f89f0012b","ios":"levelo://app?vid=aafcc005-5e38-4c52-a10d-6d0f89f0012b"},"vehicle_type_id":"4","last_reported":1683302896,"current_range_meters":9200,"station_id":"ce4bh0p2rcd13ifvqd70","pricing_plan_id":"free"},{"bike_id":"32379e3a-6da5-4806-a39b-624deffd0639","system_id":"levelo_inurba_marseille","lat":43.296131,"lon":5.370791,"is_reserved":false,"is_disabled":false,"rental_uris":{"android":"levelo://app?vid=32379e3a-6da5-4806-a39b-624deffd0639","ios":"levelo://app?vid=32379e3a-6da5-4806-a39b-624deffd0639"},"vehicle_type_id":"4","last_reported":1683302896,"current_range_meters":31200,"station_id":"ce4bgnh2rcd13ifvqc0g","pricing_plan_id":"free"},{"bike_id":"6a0d5922-3330-4b73-b72c-a558e76ea4d4","system_id":"levelo_inurba_marseille","lat":43.296131,"lon":5.370791,"is_reserved":false,"is_disabled":false,"rental_uris":{"android":"levelo://app?vid=6a0d5922-3330-4b73-b72c-a558e76ea4d4","ios":"levelo://app?vid=6a0d5922-3330-4b73-b72c-a558e76ea4d4"},"vehicle_type_id":"4","last_reported":1683302896,"current_range_meters":6800,"station_id":"ce4bgnh2rcd13ifvqc0g","pricing_plan_id":"free"},{"bike_id":"652b428e-bb2c-4713-a054-e61206972b1d","system_id":"levelo_inurba_marseille","lat":43.29573,"lon":5.367355,"is_reserved":false,"is_disabled":false,"rental_uris":{"android":"levelo://app?vid=652b428e-bb2c-4713-a054-e61206972b1d","ios":"levelo://app?vid=652b428e-bb2c-4713-a054-e61206972b1d"},"vehicle_type_id":"4","last_reported":1683302896,"current_range_meters":2400,"station_id":"ce4bgph2rcd13ifvqc2g","pricing_plan_id":"free"},{"bike_id":"cdc3c058-32b9-4110-bb2f-9fdb54313ad9","system_id":"levelo_inurba_marseille","lat":43.295747,"lon":5.367484,"is_reserved":false,"is_disabled":false,"rental_uris":{"android":"levelo://app?vid=cdc3c058-32b9-4110-bb2f-9fdb54313ad9","ios":"levelo://app?vid=cdc3c058-32b9-4110-bb2f-9fdb54313ad9"},"vehicle_type_id":"4","last_reported":1683302896,"current_range_meters":28400,"station_id":"ce4bgph2rcd13ifvqc2g","pricing_plan_id":"free"},{"bike_id":"5c83cf89-e422-4483-a00f-7422d381c16c","system_id":"levelo_inurba_marseille","lat":43.29716,"lon":5.37689,"is_reserved":false,"is_disabled":false,"rental_uris":{"android":"levelo://app?vid=5c83cf89-e422-4483-a00f-7422d381c16c","ios":"levelo://app?vid=5c83cf89-e422-4483-a00f-7422d381c16c"},"vehicle_type_id":"4","last_reported":1683302896,"current_range_meters":8000,"station_id":"","pricing_plan_id":"free"},{"bike_id":"51c05651-7fa8-4622-ae04-9b52756a015a","system_id":"levelo_inurba_marseille","lat":43.296935,"lon":5.376544,"is_reserved":false,"is_disabled":false,"rental_uris":{"android":"levelo://app?vid=51c05651-7fa8-4622-ae04-9b52756a015a","ios":"levelo://app?vid=51c05651-7fa8-4622-ae04-9b52756a015a"},"vehicle_type_id":"4","last_reported":1683302896,"current_range_meters":5600,"station_id":"ce4bgkh2rcd13ifvqbl0","pricing_plan_id":"free"},{"bike_id":"70b670c6-f954-430d-8450-a4bcb96ffeba","system_id":"levelo_inurba_marseille","lat":43.309589,"lon":5.390258,"is_reserved":false,"is_disabled":false,"rental_uris":{"android":"levelo://app?vid=70b670c6-f954-430d-8450-a4bcb96ffeba","ios":"levelo://app?vid=70b670c6-f954-430d-8450-a4bcb96ffeba"},"vehicle_type_id":"4","last_reported":1683302896,"current_range_meters":28000,"station_id":"ce4bgup2rcd13ifvqco0","pricing_plan_id":"free"},{"bike_id":"b2e23b97-2329-4ec7-b981-895592db94d6","system_id":"levelo_inurba_marseille","lat":43.299028,"lon":5.381509,"is_reserved":false,"is_disabled":false,"rental_uris":{"android":"levelo://app?vid=b2e23b97-2329-4ec7-b981-895592db94d6","ios":"levelo://app?vid=b2e23b97-2329-4ec7-b981-895592db94d6"},"vehicle_type_id":"4","last_reported":1683302896,"current_range_meters":13200,"station_id":"ce4bgj12rcd13ifvqbc0","pricing_plan_id":"free"},{"bike_id":"6257fc72-ae8b-4d35-b753-bccbda880e9c","system_id":"levelo_inurba_marseille","lat":43.309589,"lon":5.390258,"is_reserved":false,"is_disabled":false,"rental_uris":{"android":"levelo://app?vid=6257fc72-ae8b-4d35-b753-bccbda880e9c","ios":"levelo://app?vid=6257fc72-ae8b-4d35-b753-bccbda880e9c"},"vehicle_type_id":"4","last_reported":1683302896,"current_range_meters":2800,"station_id":"ce4bgup2rcd13ifvqco0","pricing_plan_id":"free"},{"bike_id":"73d93e48-5d4a-40e5-9570-0a7f27cf4a34","system_id":"levelo_inurba_marseille","lat":43.309589,"lon":5.390258,"is_reserved":false,"is_disabled":false,"rental_uris":{"android":"levelo://app?vid=73d93e48-5d4a-40e5-9570-0a7f27cf4a34","ios":"levelo://app?vid=73d93e48-5d4a-40e5-9570-0a7f27cf4a34"},"vehicle_type_id":"4","last_reported":1683302896,"current_range_meters":26800,"station_id":"ce4bgup2rcd13ifvqco0","pricing_plan_id":"free"},{"bike_id":"b85cc581-39b6-45a2-abdd-518f1ec5b627","system_id":"levelo_inurba_marseille","lat":43.30936,"lon":5.39051,"is_reserved":false,"is_disabled":false,"rental_uris":{"android":"levelo://app?vid=b85cc581-39b6-45a2-abdd-518f1ec5b627","ios":"levelo://app?vid=b85cc581-39b6-45a2-abdd-518f1ec5b627"},"vehicle_type_id":"4","last_reported":1683302896,"current_range_meters":18800,"station_id":"ce4bh392rcd13ifvqdl0","pricing_plan_id":"free"},{"bike_id":"55e81a5c-dc18-4625-89aa-fe6acd3ab9fd","system_id":"levelo_inurba_marseille","lat":43.31756,"lon":5.39008,"is_reserved":false,"is_disabled":false,"rental_uris":{"android":"levelo://app?vid=55e81a5c-dc18-4625-89aa-fe6acd3ab9fd","ios":"levelo://app?vid=55e81a5c-dc18-4625-89aa-fe6acd3ab9fd"},"vehicle_type_id":"4","last_reported":1683302896,"current_range_meters":14800,"station_id":"ce4bhqp2rcd13ifvqhng","pricing_plan_id":"free"},{"bike_id":"d3bded05-295a-4e27-816d-28fd9af6ceed","system_id":"levelo_inurba_marseille","lat":43.317557,"lon":5.390173,"is_reserved":false,"is_disabled":false,"rental_uris":{"android":"levelo://app?vid=d3bded05-295a-4e27-816d-28fd9af6ceed","ios":"levelo://app?vid=d3bded05-295a-4e27-816d-28fd9af6ceed"},"vehicle_type_id":"4","last_reported":1683302896,"current_range_meters":30400,"station_id":"ce4bhqp2rcd13ifvqhng","pricing_plan_id":"free"},{"bike_id":"77f34d79-51d0-4db3-ab3a-5aec4d75e78b","system_id":"levelo_inurba_marseille","lat":43.317557,"lon":5.390173,"is_reserved":false,"is_disabled":false,"rental_uris":{"android":"levelo://app?vid=77f34d79-51d0-4db3-ab3a-5aec4d75e78b","ios":"levelo://app?vid=77f34d79-51d0-4db3-ab3a-5aec4d75e78b"},"vehicle_type_id":"4","last_reported":1683302896,"current_range_meters":22000,"station_id":"ce4bhqp2rcd13ifvqhng","pricing_plan_id":"free"},{"bike_id":"58d9b386-aad7-4e9b-942e-3658583222da","system_id":"levelo_inurba_marseille","lat":43.317557,"lon":5.390173,"is_reserved":false,"is_disabled":false,"rental_uris":{"android":"levelo://app?vid=58d9b386-aad7-4e9b-942e-3658583222da","ios":"levelo://app?vid=58d9b386-aad7-4e9b-942e-3658583222da"},"vehicle_type_id":"4","last_reported":1683302896,"current_range_meters":0,"station_id":"ce4bhqp2rcd13ifvqhng","pricing_plan_id":"free"},{"bike_id":"c3b8210a-d4a1-4a25-8bb3-7ad7f39115f7","system_id":"levelo_inurba_marseille","lat":43.31759,"lon":5.39018,"is_reserved":false,"is_disabled":false,"rental_uris":{"android":"levelo://app?vid=c3b8210a-d4a1-4a25-8bb3-7ad7f39115f7","ios":"levelo://app?vid=c3b8210a-d4a1-4a25-8bb3-7ad7f39115f7"},"vehicle_type_id":"4","last_reported":1683302896,"current_range_meters":24400,"station_id":"ce4bhqp2rcd13ifvqhng","pricing_plan_id":"free"},{"bike_id":"75083129-cb37-4ae1-868b-cd09b5374176","system_id":"levelo_inurba_marseille","lat":43.317557,"lon":5.390173,"is_reserved":false,"is_disabled":false,"rental_uris":{"android":"levelo://app?vid=75083129-cb37-4ae1-868b-cd09b5374176","ios":"levelo://app?vid=75083129-cb37-4ae1-868b-cd09b5374176"},"vehicle_type_id":"4","last_reported":1683302896,"current_range_meters":18800,"station_id":"ce4bhqp2rcd13ifvqhng","pricing_plan_id":"free"},{"bike_id":"60ef946b-9459-4a60-b71e-9a93871770e0","system_id":"levelo_inurba_marseille","lat":43.31766,"lon":5.39017,"is_reserved":false,"is_disabled":false,"rental_uris":{"android":"levelo://app?vid=60ef946b-9459-4a60-b71e-9a93871770e0","ios":"levelo://app?vid=60ef946b-9459-4a60-b71e-9a93871770e0"},"vehicle_type_id":"4","last_reported":1683302896,"current_range_meters":31200,"station_id":"ce4bhqp2rcd13ifvqhng","pricing_plan_id":"free"},{"bike_id":"e00888f6-99e1-4c69-986f-1e3669edea53","system_id":"levelo_inurba_marseille","lat":43.317557,"lon":5.390173,"is_reserved":false,"is_disabled":false,"rental_uris":{"android":"levelo://app?vid=e00888f6-99e1-4c69-986f-1e3669edea53","ios":"levelo://app?vid=e00888f6-99e1-4c69-986f-1e3669edea53"},"vehicle_type_id":"4","last_reported":1683302896,"current_range_meters":20000,"station_id":"ce4bhqp2rcd13ifvqhng","pricing_plan_id":"free"},{"bike_id":"85e3bca2-cb9d-4c39-a4d7-d06af4083156","system_id":"levelo_inurba_marseille","lat":43.298037,"lon":5.381066,"is_reserved":false,"is_disabled":false,"rental_uris":{"android":"levelo://app?vid=85e3bca2-cb9d-4c39-a4d7-d06af4083156","ios":"levelo://app?vid=85e3bca2-cb9d-4c39-a4d7-d06af4083156"},"vehicle_type_id":"4","last_reported":1683302896,"current_range_meters":13600,"station_id":"ce4bgip2rcd13ifvqbb0","pricing_plan_id":"free"},{"bike_id":"a82ba5f5-fefa-476e-a8aa-78eaaa6f69e0","system_id":"levelo_inurba_marseille","lat":43.295279,"lon":5.375048,"is_reserved":false,"is_disabled":false,"rental_uris":{"android":"levelo://app?vid=a82ba5f5-fefa-476e-a8aa-78eaaa6f69e0","ios":"levelo://app?vid=a82ba5f5-fefa-476e-a8aa-78eaaa6f69e0"},"vehicle_type_id":"4","last_reported":1683302896,"current_range_meters":2400,"station_id":"ce4bgkp2rcd13ifvqbmg","pricing_plan_id":"free"},{"bike_id":"afd6d25d-865f-4a9f-9521-846ad5b64c3d","system_id":"levelo_inurba_marseille","lat":43.29601,"lon":5.381084,"is_reserved":false,"is_disabled":false,"rental_uris":{"android":"levelo://app?vid=afd6d25d-865f-4a9f-9521-846ad5b64c3d","ios":"levelo://app?vid=afd6d25d-865f-4a9f-9521-846ad5b64c3d"},"vehicle_type_id":"4","last_reported":1683302896,"current_range_meters":5200,"station_id":"ce4bgl12rcd13ifvqbo0","pricing_plan_id":"free"},{"bike_id":"55f37590-f008-49cc-93cc-0fa532d51a01","system_id":"levelo_inurba_marseille","lat":43.31429,"lon":5.39379,"is_reserved":false,"is_disabled":false,"rental_uris":{"android":"levelo://app?vid=55f37590-f008-49cc-93cc-0fa532d51a01","ios":"levelo://app?vid=55f37590-f008-49cc-93cc-0fa532d51a01"},"vehicle_type_id":"4","last_reported":1683302896,"current_range_meters":24800,"station_id":"","pricing_plan_id":"free"},{"bike_id":"b87c0461-2dc9-41ed-9299-2cba59c429fb","system_id":"levelo_inurba_marseille","lat":43.292749,"lon":5.368402,"is_reserved":false,"is_disabled":false,"rental_uris":{"android":"levelo://app?vid=b87c0461-2dc9-41ed-9299-2cba59c429fb","ios":"levelo://app?vid=b87c0461-2dc9-41ed-9299-2cba59c429fb"},"vehicle_type_id":"4","last_reported":1683302896,"current_range_meters":16000,"station_id":"ce4bhbp2rcd13ifvqesg","pricing_plan_id":"free"},{"bike_id":"e5eff371-9856-4b10-b5b7-c1a0f36382f1","system_id":"levelo_inurba_marseille","lat":43.292749,"lon":5.368402,"is_reserved":false,"is_disabled":false,"rental_uris":{"android":"levelo://app?vid=e5eff371-9856-4b10-b5b7-c1a0f36382f1","ios":"levelo://app?vid=e5eff371-9856-4b10-b5b7-c1a0f36382f1"},"vehicle_type_id":"4","last_reported":1683302896,"current_range_meters":12800,"station_id":"ce4bhbp2rcd13ifvqesg","pricing_plan_id":"free"},{"bike_id":"f3cfab2b-5bc8-40b9-ad86-125e64aef66e","system_id":"levelo_inurba_marseille","lat":43.292749,"lon":5.368402,"is_reserved":false,"is_disabled":false,"rental_uris":{"android":"levelo://app?vid=f3cfab2b-5bc8-40b9-ad86-125e64aef66e","ios":"levelo://app?vid=f3cfab2b-5bc8-40b9-ad86-125e64aef66e"},"vehicle_type_id":"4","last_reported":1683302896,"current_range_meters":2800,"station_id":"ce4bhbp2rcd13ifvqesg","pricing_plan_id":"free"},{"bike_id":"48bac1a4-0613-473b-986e-160e7e86c713","system_id":"levelo_inurba_marseille","lat":43.292749,"lon":5.368402,"is_reserved":false,"is_disabled":false,"rental_uris":{"android":"levelo://app?vid=48bac1a4-0613-473b-986e-160e7e86c713","ios":"levelo://app?vid=48bac1a4-0613-473b-986e-160e7e86c713"},"vehicle_type_id":"4","last_reported":1683302896,"current_range_meters":11200,"station_id":"ce4bhbp2rcd13ifvqesg","pricing_plan_id":"free"},{"bike_id":"15f32cae-4d8b-47cf-bc79-a9bd7feaa1b9","system_id":"levelo_inurba_marseille","lat":43.292749,"lon":5.368402,"is_reserved":false,"is_disabled":false,"rental_uris":{"android":"levelo://app?vid=15f32cae-4d8b-47cf-bc79-a9bd7feaa1b9","ios":"levelo://app?vid=15f32cae-4d8b-47cf-bc79-a9bd7feaa1b9"},"vehicle_type_id":"4","last_reported":1683302896,"current_range_meters":20800,"station_id":"ce4bhbp2rcd13ifvqesg","pricing_plan_id":"free"},{"bike_id":"d6faf34b-b11b-4b70-bde1-72d07cd40214","system_id":"levelo_inurba_marseille","lat":43.29269,"lon":5.36841,"is_reserved":false,"is_disabled":false,"rental_uris":{"android":"levelo://app?vid=d6faf34b-b11b-4b70-bde1-72d07cd40214","ios":"levelo://app?vid=d6faf34b-b11b-4b70-bde1-72d07cd40214"},"vehicle_type_id":"4","last_reported":1683302896,"current_range_meters":19200,"station_id":"ce4bhbp2rcd13ifvqesg","pricing_plan_id":"free"},{"bike_id":"d75a4d8d-a52d-4e60-8692-b135d1ffcafc","system_id":"levelo_inurba_marseille","lat":43.293009,"lon":5.374584,"is_reserved":false,"is_disabled":false,"rental_uris":{"android":"levelo://app?vid=d75a4d8d-a52d-4e60-8692-b135d1ffcafc","ios":"levelo://app?vid=d75a4d8d-a52d-4e60-8692-b135d1ffcafc"},"vehicle_type_id":"4","last_reported":1683302896,"current_range_meters":3600,"station_id":"ce4bgi12rcd13ifvqb70","pricing_plan_id":"free"},{"bike_id":"1648d17f-4de7-448e-abb9-8f511992999c","system_id":"levelo_inurba_marseille","lat":43.2936,"lon":5.37835,"is_reserved":false,"is_disabled":false,"rental_uris":{"android":"levelo://app?vid=1648d17f-4de7-448e-abb9-8f511992999c","ios":"levelo://app?vid=1648d17f-4de7-448e-abb9-8f511992999c"},"vehicle_type_id":"4","last_reported":1683302896,"current_range_meters":22400,"station_id":"ce4bgjh2rcd13ifvqbf0","pricing_plan_id":"free"},{"bike_id":"b4be4368-73e4-41cd-8390-2b01efffefb7","system_id":"levelo_inurba_marseille","lat":43.2936,"lon":5.37835,"is_reserved":false,"is_disabled":false,"rental_uris":{"android":"levelo://app?vid=b4be4368-73e4-41cd-8390-2b01efffefb7","ios":"levelo://app?vid=b4be4368-73e4-41cd-8390-2b01efffefb7"},"vehicle_type_id":"4","last_reported":1683302896,"current_range_meters":28800,"station_id":"ce4bgjh2rcd13ifvqbf0","pricing_plan_id":"free"},{"bike_id":"edbb0e74-440d-4da2-94f2-8f8bc18c5ff4","system_id":"levelo_inurba_marseille","lat":43.29219,"lon":5.3603,"is_reserved":false,"is_disabled":false,"rental_uris":{"android":"levelo://app?vid=edbb0e74-440d-4da2-94f2-8f8bc18c5ff4","ios":"levelo://app?vid=edbb0e74-440d-4da2-94f2-8f8bc18c5ff4"},"vehicle_type_id":"4","last_reported":1683302896,"current_range_meters":13200,"station_id":"","pricing_plan_id":"free"},{"bike_id":"577b028d-e3fb-4669-9785-ffc665bc0e16","system_id":"levelo_inurba_marseille","lat":43.292663,"lon":5.376394,"is_reserved":false,"is_disabled":false,"rental_uris":{"android":"levelo://app?vid=577b028d-e3fb-4669-9785-ffc665bc0e16","ios":"levelo://app?vid=577b028d-e3fb-4669-9785-ffc665bc0e16"},"vehicle_type_id":"4","last_reported":1683302896,"current_range_meters":15600,"station_id":"ce4bgi12rcd13ifvqb80","pricing_plan_id":"free"},{"bike_id":"b45f5001-c0ed-4b77-929f-bea086ba4825","system_id":"levelo_inurba_marseille","lat":43.309038,"lon":5.396546,"is_reserved":false,"is_disabled":false,"rental_uris":{"android":"levelo://app?vid=b45f5001-c0ed-4b77-929f-bea086ba4825","ios":"levelo://app?vid=b45f5001-c0ed-4b77-929f-bea086ba4825"},"vehicle_type_id":"4","last_reported":1683302896,"current_range_meters":10400,"station_id":"ce4bh012rcd13ifvqcv0","pricing_plan_id":"free"},{"bike_id":"5fc01781-64c4-44ad-90c6-6f99dacad9ab","system_id":"levelo_inurba_marseille","lat":43.291671,"lon":5.371575,"is_reserved":false,"is_disabled":false,"rental_uris":{"android":"levelo://app?vid=5fc01781-64c4-44ad-90c6-6f99dacad9ab","ios":"levelo://app?vid=5fc01781-64c4-44ad-90c6-6f99dacad9ab"},"vehicle_type_id":"4","last_reported":1683302896,"current_range_meters":800,"station_id":"ce4bha92rcd13ifvqeh0","pricing_plan_id":"free"},{"bike_id":"02102d15-99ae-4d74-a6a6-4a9ca7d81689","system_id":"levelo_inurba_marseille","lat":43.29245,"lon":5.37619,"is_reserved":false,"is_disabled":false,"rental_uris":{"android":"levelo://app?vid=02102d15-99ae-4d74-a6a6-4a9ca7d81689","ios":"levelo://app?vid=02102d15-99ae-4d74-a6a6-4a9ca7d81689"},"vehicle_type_id":"4","last_reported":1683302896,"current_range_meters":4000,"station_id":"","pricing_plan_id":"free"},{"bike_id":"9299c921-f9c2-47ef-b082-e8fb7a8a98a5","system_id":"levelo_inurba_marseille","lat":43.292663,"lon":5.376389,"is_reserved":false,"is_disabled":false,"rental_uris":{"android":"levelo://app?vid=9299c921-f9c2-47ef-b082-e8fb7a8a98a5","ios":"levelo://app?vid=9299c921-f9c2-47ef-b082-e8fb7a8a98a5"},"vehicle_type_id":"4","last_reported":1683302896,"current_range_meters":24000,"station_id":"ce4bgi12rcd13ifvqb80","pricing_plan_id":"free"},{"bike_id":"fcb77345-509a-473e-a2fc-a08552df43f1","system_id":"levelo_inurba_marseille","lat":43.31337,"lon":5.39691,"is_reserved":false,"is_disabled":false,"rental_uris":{"android":"levelo://app?vid=fcb77345-509a-473e-a2fc-a08552df43f1","ios":"levelo://app?vid=fcb77345-509a-473e-a2fc-a08552df43f1"},"vehicle_type_id":"4","last_reported":1683302896,"current_range_meters":800,"station_id":"ce4bgvp2rcd13ifvqcu0","pricing_plan_id":"free"},{"bike_id":"cb354abf-17e7-46c5-9a60-a20af586b657","system_id":"levelo_inurba_marseille","lat":43.31326,"lon":5.39692,"is_reserved":false,"is_disabled":false,"rental_uris":{"android":"levelo://app?vid=cb354abf-17e7-46c5-9a60-a20af586b657","ios":"levelo://app?vid=cb354abf-17e7-46c5-9a60-a20af586b657"},"vehicle_type_id":"4","last_reported":1683302896,"current_range_meters":22400,"station_id":"ce4bgvp2rcd13ifvqcu0","pricing_plan_id":"free"},{"bike_id":"f4c0f590-9d2d-4f7f-95d4-a91e308af751","system_id":"levelo_inurba_marseille","lat":43.31328,"lon":5.39693,"is_reserved":false,"is_disabled":false,"rental_uris":{"android":"levelo://app?vid=f4c0f590-9d2d-4f7f-95d4-a91e308af751","ios":"levelo://app?vid=f4c0f590-9d2d-4f7f-95d4-a91e308af751"},"vehicle_type_id":"4","last_reported":1683302896,"current_range_meters":5200,"station_id":"ce4bgvp2rcd13ifvqcu0","pricing_plan_id":"free"},{"bike_id":"c11c1781-e601-49a7-9f05-0d45e12f9ef9","system_id":"levelo_inurba_marseille","lat":43.31335,"lon":5.39693,"is_reserved":false,"is_disabled":false,"rental_uris":{"android":"levelo://app?vid=c11c1781-e601-49a7-9f05-0d45e12f9ef9","ios":"levelo://app?vid=c11c1781-e601-49a7-9f05-0d45e12f9ef9"},"vehicle_type_id":"4","last_reported":1683302896,"current_range_meters":7200,"station_id":"ce4bgvp2rcd13ifvqcu0","pricing_plan_id":"free"},{"bike_id":"555a31e1-73d7-4968-9de4-b5cbba9470f8","system_id":"levelo_inurba_marseille","lat":43.31333,"lon":5.39694,"is_reserved":false,"is_disabled":false,"rental_uris":{"android":"levelo://app?vid=555a31e1-73d7-4968-9de4-b5cbba9470f8","ios":"levelo://app?vid=555a31e1-73d7-4968-9de4-b5cbba9470f8"},"vehicle_type_id":"4","last_reported":1683302896,"current_range_meters":10000,"station_id":"ce4bgvp2rcd13ifvqcu0","pricing_plan_id":"free"},{"bike_id":"f03dda48-ce9b-4c08-9b46-3604da9710b3","system_id":"levelo_inurba_marseille","lat":43.31334,"lon":5.39694,"is_reserved":false,"is_disabled":false,"rental_uris":{"android":"levelo://app?vid=f03dda48-ce9b-4c08-9b46-3604da9710b3","ios":"levelo://app?vid=f03dda48-ce9b-4c08-9b46-3604da9710b3"},"vehicle_type_id":"4","last_reported":1683302896,"current_range_meters":4400,"station_id":"ce4bgvp2rcd13ifvqcu0","pricing_plan_id":"free"},{"bike_id":"5733dc5b-8b09-48cd-8457-2fd85b611af7","system_id":"levelo_inurba_marseille","lat":43.29549,"lon":5.38541,"is_reserved":false,"is_disabled":false,"rental_uris":{"android":"levelo://app?vid=5733dc5b-8b09-48cd-8457-2fd85b611af7","ios":"levelo://app?vid=5733dc5b-8b09-48cd-8457-2fd85b611af7"},"vehicle_type_id":"4","last_reported":1683302896,"current_range_meters":0,"station_id":"ce4bgih2rcd13ifvqba0","pricing_plan_id":"free"},{"bike_id":"f1aec9a9-d072-4530-bd74-1bb2cea1c944","system_id":"levelo_inurba_marseille","lat":43.309038,"lon":5.396546,"is_reserved":false,"is_disabled":false,"rental_uris":{"android":"levelo://app?vid=f1aec9a9-d072-4530-bd74-1bb2cea1c944","ios":"levelo://app?vid=f1aec9a9-d072-4530-bd74-1bb2cea1c944"},"vehicle_type_id":"4","last_reported":1683302896,"current_range_meters":18000,"station_id":"ce4bh012rcd13ifvqcv0","pricing_plan_id":"free"},{"bike_id":"07463b46-c47f-489c-9c27-a6fb2c473c78","system_id":"levelo_inurba_marseille","lat":43.31329,"lon":5.39701,"is_reserved":false,"is_disabled":false,"rental_uris":{"android":"levelo://app?vid=07463b46-c47f-489c-9c27-a6fb2c473c78","ios":"levelo://app?vid=07463b46-c47f-489c-9c27-a6fb2c473c78"},"vehicle_type_id":"4","last_reported":1683302896,"current_range_meters":5200,"station_id":"ce4bgvp2rcd13ifvqcu0","pricing_plan_id":"free"},{"bike_id":"3d4201a0-34af-4b69-b36e-ed77d7493c8b","system_id":"levelo_inurba_marseille","lat":43.309038,"lon":5.396546,"is_reserved":false,"is_disabled":false,"rental_uris":{"android":"levelo://app?vid=3d4201a0-34af-4b69-b36e-ed77d7493c8b","ios":"levelo://app?vid=3d4201a0-34af-4b69-b36e-ed77d7493c8b"},"vehicle_type_id":"4","last_reported":1683302896,"current_range_meters":15200,"station_id":"ce4bh012rcd13ifvqcv0","pricing_plan_id":"free"},{"bike_id":"c97af8cb-f9dc-4954-a81c-6afae93d5f88","system_id":"levelo_inurba_marseille","lat":43.29529,"lon":5.385581,"is_reserved":false,"is_disabled":false,"rental_uris":{"android":"levelo://app?vid=c97af8cb-f9dc-4954-a81c-6afae93d5f88","ios":"levelo://app?vid=c97af8cb-f9dc-4954-a81c-6afae93d5f88"},"vehicle_type_id":"4","last_reported":1683302896,"current_range_meters":18800,"station_id":"ce4bgih2rcd13ifvqba0","pricing_plan_id":"free"},{"bike_id":"7a19f5cc-270a-4b99-a1d8-ff9cbdeec59e","system_id":"levelo_inurba_marseille","lat":43.29529,"lon":5.385581,"is_reserved":false,"is_disabled":false,"rental_uris":{"android":"levelo://app?vid=7a19f5cc-270a-4b99-a1d8-ff9cbdeec59e","ios":"levelo://app?vid=7a19f5cc-270a-4b99-a1d8-ff9cbdeec59e"},"vehicle_type_id":"4","last_reported":1683302896,"current_range_meters":13600,"station_id":"ce4bgih2rcd13ifvqba0","pricing_plan_id":"free"},{"bike_id":"69980abc-b56d-4dc8-8950-425ec587f34e","system_id":"levelo_inurba_marseille","lat":43.29529,"lon":5.385581,"is_reserved":false,"is_disabled":false,"rental_uris":{"android":"levelo://app?vid=69980abc-b56d-4dc8-8950-425ec587f34e","ios":"levelo://app?vid=69980abc-b56d-4dc8-8950-425ec587f34e"},"vehicle_type_id":"4","last_reported":1683302896,"current_range_meters":13600,"station_id":"ce4bgih2rcd13ifvqba0","pricing_plan_id":"free"},{"bike_id":"790a7185-d256-45a1-a0b9-662b9e848daf","system_id":"levelo_inurba_marseille","lat":43.29055,"lon":5.3591,"is_reserved":false,"is_disabled":false,"rental_uris":{"android":"levelo://app?vid=790a7185-d256-45a1-a0b9-662b9e848daf","ios":"levelo://app?vid=790a7185-d256-45a1-a0b9-662b9e848daf"},"vehicle_type_id":"4","last_reported":1683302896,"current_range_meters":8800,"station_id":"ce4bha92rcd13ifvqeg0","pricing_plan_id":"free"},{"bike_id":"edd9d28d-d9aa-41b9-b439-1d4e9b5fdc3c","system_id":"levelo_inurba_marseille","lat":43.290631,"lon":5.359244,"is_reserved":false,"is_disabled":false,"rental_uris":{"android":"levelo://app?vid=edd9d28d-d9aa-41b9-b439-1d4e9b5fdc3c","ios":"levelo://app?vid=edd9d28d-d9aa-41b9-b439-1d4e9b5fdc3c"},"vehicle_type_id":"4","last_reported":1683302896,"current_range_meters":26400,"station_id":"ce4bha92rcd13ifvqeg0","pricing_plan_id":"free"},{"bike_id":"2f24743c-fb97-4d76-a522-dff6ab27d721","system_id":"levelo_inurba_marseille","lat":43.290631,"lon":5.359244,"is_reserved":false,"is_disabled":false,"rental_uris":{"android":"levelo://app?vid=2f24743c-fb97-4d76-a522-dff6ab27d721","ios":"levelo://app?vid=2f24743c-fb97-4d76-a522-dff6ab27d721"},"vehicle_type_id":"4","last_reported":1683302896,"current_range_meters":10800,"station_id":"ce4bha92rcd13ifvqeg0","pricing_plan_id":"free"},{"bike_id":"ae8346d9-747b-40aa-a411-8aebede17461","system_id":"levelo_inurba_marseille","lat":43.28996,"lon":5.37309,"is_reserved":false,"is_disabled":false,"rental_uris":{"android":"levelo://app?vid=ae8346d9-747b-40aa-a411-8aebede17461","ios":"levelo://app?vid=ae8346d9-747b-40aa-a411-8aebede17461"},"vehicle_type_id":"4","last_reported":1683302896,"current_range_meters":12800,"station_id":"ce4bh5p2rcd13ifvqe4g","pricing_plan_id":"free"},{"bike_id":"6921e770-f4aa-4d9b-9f3a-19a2c0e8fd58","system_id":"levelo_inurba_marseille","lat":43.289184,"lon":5.366408,"is_reserved":false,"is_disabled":false,"rental_uris":{"android":"levelo://app?vid=6921e770-f4aa-4d9b-9f3a-19a2c0e8fd58","ios":"levelo://app?vid=6921e770-f4aa-4d9b-9f3a-19a2c0e8fd58"},"vehicle_type_id":"4","last_reported":1683302896,"current_range_meters":0,"station_id":"ce4bhap2rcd13ifvqek0","pricing_plan_id":"free"},{"bike_id":"0e23d049-3325-4893-be3b-8726e96e876b","system_id":"levelo_inurba_marseille","lat":43.289184,"lon":5.366408,"is_reserved":false,"is_disabled":false,"rental_uris":{"android":"levelo://app?vid=0e23d049-3325-4893-be3b-8726e96e876b","ios":"levelo://app?vid=0e23d049-3325-4893-be3b-8726e96e876b"},"vehicle_type_id":"4","last_reported":1683302896,"current_range_meters":4800,"station_id":"ce4bhap2rcd13ifvqek0","pricing_plan_id":"free"},{"bike_id":"36edd136-49ac-4afa-9dba-054fe1b52630","system_id":"levelo_inurba_marseille","lat":43.289184,"lon":5.366408,"is_reserved":false,"is_disabled":false,"rental_uris":{"android":"levelo://app?vid=36edd136-49ac-4afa-9dba-054fe1b52630","ios":"levelo://app?vid=36edd136-49ac-4afa-9dba-054fe1b52630"},"vehicle_type_id":"4","last_reported":1683302896,"current_range_meters":7600,"station_id":"ce4bhap2rcd13ifvqek0","pricing_plan_id":"free"},{"bike_id":"45db33e6-dac3-4472-969d-4346bd972081","system_id":"levelo_inurba_marseille","lat":43.292644,"lon":5.384257,"is_reserved":false,"is_disabled":false,"rental_uris":{"android":"levelo://app?vid=45db33e6-dac3-4472-969d-4346bd972081","ios":"levelo://app?vid=45db33e6-dac3-4472-969d-4346bd972081"},"vehicle_type_id":"4","last_reported":1683302896,"current_range_meters":6000,"station_id":"ce4bh692rcd13ifvqea0","pricing_plan_id":"free"},{"bike_id":"700186be-8fba-45b6-b0e9-8d8f0f6815a5","system_id":"levelo_inurba_marseille","lat":43.292644,"lon":5.384257,"is_reserved":false,"is_disabled":false,"rental_uris":{"android":"levelo://app?vid=700186be-8fba-45b6-b0e9-8d8f0f6815a5","ios":"levelo://app?vid=700186be-8fba-45b6-b0e9-8d8f0f6815a5"},"vehicle_type_id":"4","last_reported":1683302896,"current_range_meters":21600,"station_id":"ce4bh692rcd13ifvqea0","pricing_plan_id":"free"},{"bike_id":"fd508107-b273-41e5-a9e4-de9d9ddb2491","system_id":"levelo_inurba_marseille","lat":43.292644,"lon":5.384257,"is_reserved":false,"is_disabled":false,"rental_uris":{"android":"levelo://app?vid=fd508107-b273-41e5-a9e4-de9d9ddb2491","ios":"levelo://app?vid=fd508107-b273-41e5-a9e4-de9d9ddb2491"},"vehicle_type_id":"4","last_reported":1683302896,"current_range_meters":28000,"station_id":"ce4bh692rcd13ifvqea0","pricing_plan_id":"free"},{"bike_id":"194a6a55-faa8-45c9-8701-1583e8de6dc9","system_id":"levelo_inurba_marseille","lat":43.292644,"lon":5.384257,"is_reserved":false,"is_disabled":false,"rental_uris":{"android":"levelo://app?vid=194a6a55-faa8-45c9-8701-1583e8de6dc9","ios":"levelo://app?vid=194a6a55-faa8-45c9-8701-1583e8de6dc9"},"vehicle_type_id":"4","last_reported":1683302896,"current_range_meters":12800,"station_id":"ce4bh692rcd13ifvqea0","pricing_plan_id":"free"},{"bike_id":"524eb83d-f093-4dfb-954f-65ee27d5ec01","system_id":"levelo_inurba_marseille","lat":43.290104,"lon":5.356111,"is_reserved":false,"is_disabled":false,"rental_uris":{"android":"levelo://app?vid=524eb83d-f093-4dfb-954f-65ee27d5ec01","ios":"levelo://app?vid=524eb83d-f093-4dfb-954f-65ee27d5ec01"},"vehicle_type_id":"4","last_reported":1683302896,"current_range_meters":30000,"station_id":"ce4bhb92rcd13ifvqen0","pricing_plan_id":"free"},{"bike_id":"e3e8e1f3-b9ba-4d15-8cc4-51a25079c15c","system_id":"levelo_inurba_marseille","lat":43.290104,"lon":5.356111,"is_reserved":false,"is_disabled":false,"rental_uris":{"android":"levelo://app?vid=e3e8e1f3-b9ba-4d15-8cc4-51a25079c15c","ios":"levelo://app?vid=e3e8e1f3-b9ba-4d15-8cc4-51a25079c15c"},"vehicle_type_id":"4","last_reported":1683302896,"current_range_meters":22800,"station_id":"ce4bhb92rcd13ifvqen0","pricing_plan_id":"free"},{"bike_id":"727e36a4-07bb-4aee-a85a-84767aa4c6ea","system_id":"levelo_inurba_marseille","lat":43.29011,"lon":5.35616,"is_reserved":false,"is_disabled":false,"rental_uris":{"android":"levelo://app?vid=727e36a4-07bb-4aee-a85a-84767aa4c6ea","ios":"levelo://app?vid=727e36a4-07bb-4aee-a85a-84767aa4c6ea"},"vehicle_type_id":"4","last_reported":1683302896,"current_range_meters":4800,"station_id":"ce4bhb92rcd13ifvqen0","pricing_plan_id":"free"},{"bike_id":"c7d204ce-6619-491c-8812-dc4b0a6a663b","system_id":"levelo_inurba_marseille","lat":43.33043,"lon":5.38912,"is_reserved":false,"is_disabled":false,"rental_uris":{"android":"levelo://app?vid=c7d204ce-6619-491c-8812-dc4b0a6a663b","ios":"levelo://app?vid=c7d204ce-6619-491c-8812-dc4b0a6a663b"},"vehicle_type_id":"4","last_reported":1683302896,"current_range_meters":31200,"station_id":"ce4bhr92rcd13ifvqhrg","pricing_plan_id":"free"},{"bike_id":"849be466-de01-4ad1-8f5d-e7f92061f988","system_id":"levelo_inurba_marseille","lat":43.29012,"lon":5.3561,"is_reserved":false,"is_disabled":false,"rental_uris":{"android":"levelo://app?vid=849be466-de01-4ad1-8f5d-e7f92061f988","ios":"levelo://app?vid=849be466-de01-4ad1-8f5d-e7f92061f988"},"vehicle_type_id":"4","last_reported":1683302896,"current_range_meters":1200,"station_id":"ce4bhb92rcd13ifvqen0","pricing_plan_id":"free"},{"bike_id":"7b0d584a-581e-4761-9a4d-3383f915fba5","system_id":"levelo_inurba_marseille","lat":43.29012,"lon":5.35607,"is_reserved":false,"is_disabled":false,"rental_uris":{"android":"levelo://app?vid=7b0d584a-581e-4761-9a4d-3383f915fba5","ios":"levelo://app?vid=7b0d584a-581e-4761-9a4d-3383f915fba5"},"vehicle_type_id":"4","last_reported":1683302896,"current_range_meters":19200,"station_id":"ce4bhb92rcd13ifvqen0","pricing_plan_id":"free"},{"bike_id":"8742e9c4-eded-48c2-b135-5614788316a4","system_id":"levelo_inurba_marseille","lat":43.290103,"lon":5.356114,"is_reserved":false,"is_disabled":false,"rental_uris":{"android":"levelo://app?vid=8742e9c4-eded-48c2-b135-5614788316a4","ios":"levelo://app?vid=8742e9c4-eded-48c2-b135-5614788316a4"},"vehicle_type_id":"4","last_reported":1683302896,"current_range_meters":21200,"station_id":"ce4bhb92rcd13ifvqen0","pricing_plan_id":"free"},{"bike_id":"19c7d7ab-840f-4f0f-a9af-d17aa44cf502","system_id":"levelo_inurba_marseille","lat":43.29011,"lon":5.35609,"is_reserved":false,"is_disabled":false,"rental_uris":{"android":"levelo://app?vid=19c7d7ab-840f-4f0f-a9af-d17aa44cf502","ios":"levelo://app?vid=19c7d7ab-840f-4f0f-a9af-d17aa44cf502"},"vehicle_type_id":"4","last_reported":1683302896,"current_range_meters":0,"station_id":"ce4bhb92rcd13ifvqen0","pricing_plan_id":"free"},{"bike_id":"c0b39783-7886-4047-9a8d-355fea0e4444","system_id":"levelo_inurba_marseille","lat":43.33044,"lon":5.38916,"is_reserved":false,"is_disabled":false,"rental_uris":{"android":"levelo://app?vid=c0b39783-7886-4047-9a8d-355fea0e4444","ios":"levelo://app?vid=c0b39783-7886-4047-9a8d-355fea0e4444"},"vehicle_type_id":"4","last_reported":1683302896,"current_range_meters":25200,"station_id":"ce4bhr92rcd13ifvqhrg","pricing_plan_id":"free"},{"bike_id":"da86836b-d020-456b-ad95-a73c452d8db8","system_id":"levelo_inurba_marseille","lat":43.33045,"lon":5.38916,"is_reserved":false,"is_disabled":false,"rental_uris":{"android":"levelo://app?vid=da86836b-d020-456b-ad95-a73c452d8db8","ios":"levelo://app?vid=da86836b-d020-456b-ad95-a73c452d8db8"},"vehicle_type_id":"4","last_reported":1683302896,"current_range_meters":20800,"station_id":"ce4bhr92rcd13ifvqhrg","pricing_plan_id":"free"},{"bike_id":"7295e875-1121-4f39-a8ba-71f74d335bdb","system_id":"levelo_inurba_marseille","lat":43.33042,"lon":5.38921,"is_reserved":false,"is_disabled":false,"rental_uris":{"android":"levelo://app?vid=7295e875-1121-4f39-a8ba-71f74d335bdb","ios":"levelo://app?vid=7295e875-1121-4f39-a8ba-71f74d335bdb"},"vehicle_type_id":"4","last_reported":1683302896,"current_range_meters":11200,"station_id":"ce4bhr92rcd13ifvqhrg","pricing_plan_id":"free"},{"bike_id":"c81037a0-0829-497d-a2e4-b5f95ba90458","system_id":"levelo_inurba_marseille","lat":43.290103,"lon":5.356114,"is_reserved":false,"is_disabled":false,"rental_uris":{"android":"levelo://app?vid=c81037a0-0829-497d-a2e4-b5f95ba90458","ios":"levelo://app?vid=c81037a0-0829-497d-a2e4-b5f95ba90458"},"vehicle_type_id":"4","last_reported":1683302896,"current_range_meters":30400,"station_id":"ce4bhb92rcd13ifvqen0","pricing_plan_id":"free"},{"bike_id":"b8ca9c81-721a-48f2-a64d-287218a5fe3e","system_id":"levelo_inurba_marseille","lat":43.29008,"lon":5.35609,"is_reserved":false,"is_disabled":false,"rental_uris":{"android":"levelo://app?vid=b8ca9c81-721a-48f2-a64d-287218a5fe3e","ios":"levelo://app?vid=b8ca9c81-721a-48f2-a64d-287218a5fe3e"},"vehicle_type_id":"4","last_reported":1683302896,"current_range_meters":16800,"station_id":"ce4bhb92rcd13ifvqen0","pricing_plan_id":"free"},{"bike_id":"53ef8ada-f74c-41ab-9969-9eb81df318d8","system_id":"levelo_inurba_marseille","lat":43.33043,"lon":5.38921,"is_reserved":false,"is_disabled":false,"rental_uris":{"android":"levelo://app?vid=53ef8ada-f74c-41ab-9969-9eb81df318d8","ios":"levelo://app?vid=53ef8ada-f74c-41ab-9969-9eb81df318d8"},"vehicle_type_id":"4","last_reported":1683302896,"current_range_meters":28800,"station_id":"ce4bhr92rcd13ifvqhrg","pricing_plan_id":"free"},{"bike_id":"7eb62419-26e4-4356-8ddb-fba1844519f1","system_id":"levelo_inurba_marseille","lat":43.290104,"lon":5.356111,"is_reserved":false,"is_disabled":false,"rental_uris":{"android":"levelo://app?vid=7eb62419-26e4-4356-8ddb-fba1844519f1","ios":"levelo://app?vid=7eb62419-26e4-4356-8ddb-fba1844519f1"},"vehicle_type_id":"4","last_reported":1683302896,"current_range_meters":7600,"station_id":"ce4bhb92rcd13ifvqen0","pricing_plan_id":"free"},{"bike_id":"4259712d-4df4-4f2f-be8a-5793cafcbeae","system_id":"levelo_inurba_marseille","lat":43.290103,"lon":5.356114,"is_reserved":false,"is_disabled":false,"rental_uris":{"android":"levelo://app?vid=4259712d-4df4-4f2f-be8a-5793cafcbeae","ios":"levelo://app?vid=4259712d-4df4-4f2f-be8a-5793cafcbeae"},"vehicle_type_id":"4","last_reported":1683302896,"current_range_meters":10800,"station_id":"ce4bhb92rcd13ifvqen0","pricing_plan_id":"free"},{"bike_id":"83374411-8eeb-4f64-a952-a510ba6e2ec8","system_id":"levelo_inurba_marseille","lat":43.290103,"lon":5.356114,"is_reserved":false,"is_disabled":false,"rental_uris":{"android":"levelo://app?vid=83374411-8eeb-4f64-a952-a510ba6e2ec8","ios":"levelo://app?vid=83374411-8eeb-4f64-a952-a510ba6e2ec8"},"vehicle_type_id":"4","last_reported":1683302896,"current_range_meters":29200,"station_id":"ce4bhb92rcd13ifvqen0","pricing_plan_id":"free"},{"bike_id":"811c7516-2c00-4a31-8c79-545cd95a1d7e","system_id":"levelo_inurba_marseille","lat":43.33044,"lon":5.38922,"is_reserved":false,"is_disabled":false,"rental_uris":{"android":"levelo://app?vid=811c7516-2c00-4a31-8c79-545cd95a1d7e","ios":"levelo://app?vid=811c7516-2c00-4a31-8c79-545cd95a1d7e"},"vehicle_type_id":"4","last_reported":1683302896,"current_range_meters":25200,"station_id":"ce4bhr92rcd13ifvqhrg","pricing_plan_id":"free"},{"bike_id":"530961a9-360c-4118-8ff8-8a64e78e2327","system_id":"levelo_inurba_marseille","lat":43.33044,"lon":5.38922,"is_reserved":false,"is_disabled":false,"rental_uris":{"android":"levelo://app?vid=530961a9-360c-4118-8ff8-8a64e78e2327","ios":"levelo://app?vid=530961a9-360c-4118-8ff8-8a64e78e2327"},"vehicle_type_id":"4","last_reported":1683302896,"current_range_meters":22000,"station_id":"ce4bhr92rcd13ifvqhrg","pricing_plan_id":"free"},{"bike_id":"496fc879-c6a2-4335-9eab-2fdd6a6f8bf1","system_id":"levelo_inurba_marseille","lat":43.33046,"lon":5.3892,"is_reserved":false,"is_disabled":false,"rental_uris":{"android":"levelo://app?vid=496fc879-c6a2-4335-9eab-2fdd6a6f8bf1","ios":"levelo://app?vid=496fc879-c6a2-4335-9eab-2fdd6a6f8bf1"},"vehicle_type_id":"4","last_reported":1683302896,"current_range_meters":20800,"station_id":"ce4bhr92rcd13ifvqhrg","pricing_plan_id":"free"},{"bike_id":"ce22ba03-a4f4-4ac5-bf8e-2e89e53a27d0","system_id":"levelo_inurba_marseille","lat":43.29006,"lon":5.35607,"is_reserved":false,"is_disabled":false,"rental_uris":{"android":"levelo://app?vid=ce22ba03-a4f4-4ac5-bf8e-2e89e53a27d0","ios":"levelo://app?vid=ce22ba03-a4f4-4ac5-bf8e-2e89e53a27d0"},"vehicle_type_id":"4","last_reported":1683302896,"current_range_meters":7200,"station_id":"ce4bhb92rcd13ifvqen0","pricing_plan_id":"free"},{"bike_id":"172b6c5a-341e-4b5c-86b6-b91b1bd16ba3","system_id":"levelo_inurba_marseille","lat":43.290103,"lon":5.356114,"is_reserved":false,"is_disabled":false,"rental_uris":{"android":"levelo://app?vid=172b6c5a-341e-4b5c-86b6-b91b1bd16ba3","ios":"levelo://app?vid=172b6c5a-341e-4b5c-86b6-b91b1bd16ba3"},"vehicle_type_id":"4","last_reported":1683302896,"current_range_meters":4400,"station_id":"ce4bhb92rcd13ifvqen0","pricing_plan_id":"free"},{"bike_id":"5bc67f0e-8024-48cc-830c-c7eceff67133","system_id":"levelo_inurba_marseille","lat":43.290103,"lon":5.356114,"is_reserved":false,"is_disabled":false,"rental_uris":{"android":"levelo://app?vid=5bc67f0e-8024-48cc-830c-c7eceff67133","ios":"levelo://app?vid=5bc67f0e-8024-48cc-830c-c7eceff67133"},"vehicle_type_id":"4","last_reported":1683302896,"current_range_meters":28400,"station_id":"ce4bhb92rcd13ifvqen0","pricing_plan_id":"free"},{"bike_id":"d6233f8b-531d-433b-b8e9-589e3920c098","system_id":"levelo_inurba_marseille","lat":43.33049,"lon":5.38919,"is_reserved":false,"is_disabled":false,"rental_uris":{"android":"levelo://app?vid=d6233f8b-531d-433b-b8e9-589e3920c098","ios":"levelo://app?vid=d6233f8b-531d-433b-b8e9-589e3920c098"},"vehicle_type_id":"4","last_reported":1683302896,"current_range_meters":25600,"station_id":"ce4bhr92rcd13ifvqhrg","pricing_plan_id":"free"},{"bike_id":"10a8eeb7-4f93-4e8d-81bd-f27d3d4ef515","system_id":"levelo_inurba_marseille","lat":43.33047,"lon":5.38924,"is_reserved":false,"is_disabled":false,"rental_uris":{"android":"levelo://app?vid=10a8eeb7-4f93-4e8d-81bd-f27d3d4ef515","ios":"levelo://app?vid=10a8eeb7-4f93-4e8d-81bd-f27d3d4ef515"},"vehicle_type_id":"4","last_reported":1683302896,"current_range_meters":30400,"station_id":"ce4bhr92rcd13ifvqhrg","pricing_plan_id":"free"},{"bike_id":"9f329d29-9b85-4f84-a7fa-ca7d5647b2b0","system_id":"levelo_inurba_marseille","lat":43.290103,"lon":5.356114,"is_reserved":false,"is_disabled":false,"rental_uris":{"android":"levelo://app?vid=9f329d29-9b85-4f84-a7fa-ca7d5647b2b0","ios":"levelo://app?vid=9f329d29-9b85-4f84-a7fa-ca7d5647b2b0"},"vehicle_type_id":"4","last_reported":1683302896,"current_range_meters":22000,"station_id":"ce4bhb92rcd13ifvqen0","pricing_plan_id":"free"},{"bike_id":"f28760d7-091d-4899-ac6b-75eb64b3cbb1","system_id":"levelo_inurba_marseille","lat":43.28999,"lon":5.35613,"is_reserved":false,"is_disabled":false,"rental_uris":{"android":"levelo://app?vid=f28760d7-091d-4899-ac6b-75eb64b3cbb1","ios":"levelo://app?vid=f28760d7-091d-4899-ac6b-75eb64b3cbb1"},"vehicle_type_id":"4","last_reported":1683302896,"current_range_meters":19600,"station_id":"ce4bhb92rcd13ifvqen0","pricing_plan_id":"free"},{"bike_id":"96638efc-c441-46e6-9f2d-4db90dc14f1e","system_id":"levelo_inurba_marseille","lat":43.29001,"lon":5.356004,"is_reserved":false,"is_disabled":false,"rental_uris":{"android":"levelo://app?vid=96638efc-c441-46e6-9f2d-4db90dc14f1e","ios":"levelo://app?vid=96638efc-c441-46e6-9f2d-4db90dc14f1e"},"vehicle_type_id":"4","last_reported":1683302896,"current_range_meters":3600,"station_id":"ce4bhb92rcd13ifvqen0","pricing_plan_id":"free"},{"bike_id":"3e740902-7427-4ba3-b54d-172332f25c7b","system_id":"levelo_inurba_marseille","lat":43.289743,"lon":5.378304,"is_reserved":false,"is_disabled":false,"rental_uris":{"android":"levelo://app?vid=3e740902-7427-4ba3-b54d-172332f25c7b","ios":"levelo://app?vid=3e740902-7427-4ba3-b54d-172332f25c7b"},"vehicle_type_id":"4","last_reported":1683302896,"current_range_meters":400,"station_id":"ce4bh9p2rcd13ifvqed0","pricing_plan_id":"free"},{"bike_id":"ddd0be46-6d9b-4ce5-822b-b328b267953d","system_id":"levelo_inurba_marseille","lat":43.289743,"lon":5.378304,"is_reserved":false,"is_disabled":false,"rental_uris":{"android":"levelo://app?vid=ddd0be46-6d9b-4ce5-822b-b328b267953d","ios":"levelo://app?vid=ddd0be46-6d9b-4ce5-822b-b328b267953d"},"vehicle_type_id":"4","last_reported":1683302896,"current_range_meters":0,"station_id":"ce4bh9p2rcd13ifvqed0","pricing_plan_id":"free"},{"bike_id":"1f63cbd0-7bb3-43aa-9fa5-f3c7c9de30b6","system_id":"levelo_inurba_marseille","lat":43.289741,"lon":5.378306,"is_reserved":false,"is_disabled":false,"rental_uris":{"android":"levelo://app?vid=1f63cbd0-7bb3-43aa-9fa5-f3c7c9de30b6","ios":"levelo://app?vid=1f63cbd0-7bb3-43aa-9fa5-f3c7c9de30b6"},"vehicle_type_id":"4","last_reported":1683302896,"current_range_meters":400,"station_id":"ce4bh9p2rcd13ifvqed0","pricing_plan_id":"free"},{"bike_id":"430396db-d3e2-4150-b6c9-29645d04b019","system_id":"levelo_inurba_marseille","lat":43.28856,"lon":5.358371,"is_reserved":false,"is_disabled":false,"rental_uris":{"android":"levelo://app?vid=430396db-d3e2-4150-b6c9-29645d04b019","ios":"levelo://app?vid=430396db-d3e2-4150-b6c9-29645d04b019"},"vehicle_type_id":"4","last_reported":1683302896,"current_range_meters":28800,"station_id":"ce4bhb12rcd13ifvqem0","pricing_plan_id":"free"},{"bike_id":"0a4d6aa3-fe0a-4b26-bf7d-e96b9067f81b","system_id":"levelo_inurba_marseille","lat":43.28856,"lon":5.358371,"is_reserved":false,"is_disabled":false,"rental_uris":{"android":"levelo://app?vid=0a4d6aa3-fe0a-4b26-bf7d-e96b9067f81b","ios":"levelo://app?vid=0a4d6aa3-fe0a-4b26-bf7d-e96b9067f81b"},"vehicle_type_id":"4","last_reported":1683302896,"current_range_meters":15200,"station_id":"ce4bhb12rcd13ifvqem0","pricing_plan_id":"free"},{"bike_id":"c8219102-9896-4e76-8070-4ddbf588975e","system_id":"levelo_inurba_marseille","lat":43.28839,"lon":5.35854,"is_reserved":false,"is_disabled":false,"rental_uris":{"android":"levelo://app?vid=c8219102-9896-4e76-8070-4ddbf588975e","ios":"levelo://app?vid=c8219102-9896-4e76-8070-4ddbf588975e"},"vehicle_type_id":"4","last_reported":1683302896,"current_range_meters":6400,"station_id":"ce4bhb12rcd13ifvqem0","pricing_plan_id":"free"},{"bike_id":"d1338cde-b3d1-46b1-8800-7a50c92c327c","system_id":"levelo_inurba_marseille","lat":43.3375,"lon":5.3743,"is_reserved":false,"is_disabled":false,"rental_uris":{"android":"levelo://app?vid=d1338cde-b3d1-46b1-8800-7a50c92c327c","ios":"levelo://app?vid=d1338cde-b3d1-46b1-8800-7a50c92c327c"},"vehicle_type_id":"4","last_reported":1683302896,"current_range_meters":30800,"station_id":"","pricing_plan_id":"free"},{"bike_id":"34320fce-24bb-4291-be42-2c361aed67f0","system_id":"levelo_inurba_marseille","lat":43.3375,"lon":5.37439,"is_reserved":false,"is_disabled":false,"rental_uris":{"android":"levelo://app?vid=34320fce-24bb-4291-be42-2c361aed67f0","ios":"levelo://app?vid=34320fce-24bb-4291-be42-2c361aed67f0"},"vehicle_type_id":"4","last_reported":1683302896,"current_range_meters":27600,"station_id":"","pricing_plan_id":"free"},{"bike_id":"c64f6000-e8e8-4106-a831-e41768a62088","system_id":"levelo_inurba_marseille","lat":43.30642,"lon":5.401031,"is_reserved":false,"is_disabled":false,"rental_uris":{"android":"levelo://app?vid=c64f6000-e8e8-4106-a831-e41768a62088","ios":"levelo://app?vid=c64f6000-e8e8-4106-a831-e41768a62088"},"vehicle_type_id":"4","last_reported":1683302896,"current_range_meters":15200,"station_id":"ce4bh112rcd13ifvqda0","pricing_plan_id":"free"},{"bike_id":"cc5900b6-b927-49fc-82db-4d13a3d02316","system_id":"levelo_inurba_marseille","lat":43.33752,"lon":5.37486,"is_reserved":false,"is_disabled":false,"rental_uris":{"android":"levelo://app?vid=cc5900b6-b927-49fc-82db-4d13a3d02316","ios":"levelo://app?vid=cc5900b6-b927-49fc-82db-4d13a3d02316"},"vehicle_type_id":"4","last_reported":1683302896,"current_range_meters":29600,"station_id":"","pricing_plan_id":"free"},{"bike_id":"41ecd866-9e88-4351-8a50-ea2fee4f64b0","system_id":"levelo_inurba_marseille","lat":43.30642,"lon":5.401031,"is_reserved":false,"is_disabled":false,"rental_uris":{"android":"levelo://app?vid=41ecd866-9e88-4351-8a50-ea2fee4f64b0","ios":"levelo://app?vid=41ecd866-9e88-4351-8a50-ea2fee4f64b0"},"vehicle_type_id":"4","last_reported":1683302896,"current_range_meters":7200,"station_id":"ce4bh112rcd13ifvqda0","pricing_plan_id":"free"},{"bike_id":"db84b57a-c242-4d31-93f3-e9f12005c4b3","system_id":"levelo_inurba_marseille","lat":43.33762,"lon":5.37494,"is_reserved":false,"is_disabled":false,"rental_uris":{"android":"levelo://app?vid=db84b57a-c242-4d31-93f3-e9f12005c4b3","ios":"levelo://app?vid=db84b57a-c242-4d31-93f3-e9f12005c4b3"},"vehicle_type_id":"4","last_reported":1683302896,"current_range_meters":30400,"station_id":"","pricing_plan_id":"free"},{"bike_id":"32cb34dc-e242-40d8-ab79-29c7f6d4ea78","system_id":"levelo_inurba_marseille","lat":43.301117,"lon":5.398795,"is_reserved":false,"is_disabled":false,"rental_uris":{"android":"levelo://app?vid=32cb34dc-e242-40d8-ab79-29c7f6d4ea78","ios":"levelo://app?vid=32cb34dc-e242-40d8-ab79-29c7f6d4ea78"},"vehicle_type_id":"4","last_reported":1683302896,"current_range_meters":2800,"station_id":"ce4bh0h2rcd13ifvqd40","pricing_plan_id":"free"},{"bike_id":"aa5c202a-8175-490d-b0f7-5dcb8ffacd94","system_id":"levelo_inurba_marseille","lat":43.30642,"lon":5.401031,"is_reserved":false,"is_disabled":false,"rental_uris":{"android":"levelo://app?vid=aa5c202a-8175-490d-b0f7-5dcb8ffacd94","ios":"levelo://app?vid=aa5c202a-8175-490d-b0f7-5dcb8ffacd94"},"vehicle_type_id":"4","last_reported":1683302896,"current_range_meters":3200,"station_id":"ce4bh112rcd13ifvqda0","pricing_plan_id":"free"},{"bike_id":"4092eff4-f797-484b-9d14-cabff633e470","system_id":"levelo_inurba_marseille","lat":43.301117,"lon":5.398795,"is_reserved":false,"is_disabled":false,"rental_uris":{"android":"levelo://app?vid=4092eff4-f797-484b-9d14-cabff633e470","ios":"levelo://app?vid=4092eff4-f797-484b-9d14-cabff633e470"},"vehicle_type_id":"4","last_reported":1683302896,"current_range_meters":13600,"station_id":"ce4bh0h2rcd13ifvqd40","pricing_plan_id":"free"},{"bike_id":"432e8536-15e5-4e69-b19f-9c2824c765ae","system_id":"levelo_inurba_marseille","lat":43.301117,"lon":5.398795,"is_reserved":false,"is_disabled":false,"rental_uris":{"android":"levelo://app?vid=432e8536-15e5-4e69-b19f-9c2824c765ae","ios":"levelo://app?vid=432e8536-15e5-4e69-b19f-9c2824c765ae"},"vehicle_type_id":"4","last_reported":1683302896,"current_range_meters":17600,"station_id":"ce4bh0h2rcd13ifvqd40","pricing_plan_id":"free"},{"bike_id":"3afab6ec-8aeb-4c44-ab25-ecb85e386774","system_id":"levelo_inurba_marseille","lat":43.301117,"lon":5.398795,"is_reserved":false,"is_disabled":false,"rental_uris":{"android":"levelo://app?vid=3afab6ec-8aeb-4c44-ab25-ecb85e386774","ios":"levelo://app?vid=3afab6ec-8aeb-4c44-ab25-ecb85e386774"},"vehicle_type_id":"4","last_reported":1683302896,"current_range_meters":13600,"station_id":"ce4bh0h2rcd13ifvqd40","pricing_plan_id":"free"},{"bike_id":"de3419ea-6390-4a53-91c9-1bf094a77a1e","system_id":"levelo_inurba_marseille","lat":43.301117,"lon":5.398795,"is_reserved":false,"is_disabled":false,"rental_uris":{"android":"levelo://app?vid=de3419ea-6390-4a53-91c9-1bf094a77a1e","ios":"levelo://app?vid=de3419ea-6390-4a53-91c9-1bf094a77a1e"},"vehicle_type_id":"4","last_reported":1683302896,"current_range_meters":16400,"station_id":"ce4bh0h2rcd13ifvqd40","pricing_plan_id":"free"},{"bike_id":"0e52ccab-de38-4dba-9299-b343f6227047","system_id":"levelo_inurba_marseille","lat":43.301117,"lon":5.398795,"is_reserved":false,"is_disabled":false,"rental_uris":{"android":"levelo://app?vid=0e52ccab-de38-4dba-9299-b343f6227047","ios":"levelo://app?vid=0e52ccab-de38-4dba-9299-b343f6227047"},"vehicle_type_id":"4","last_reported":1683302896,"current_range_meters":30400,"station_id":"ce4bh0h2rcd13ifvqd40","pricing_plan_id":"free"},{"bike_id":"4b8077cc-8559-47cd-b62d-6f1f154e2872","system_id":"levelo_inurba_marseille","lat":43.301117,"lon":5.398795,"is_reserved":false,"is_disabled":false,"rental_uris":{"android":"levelo://app?vid=4b8077cc-8559-47cd-b62d-6f1f154e2872","ios":"levelo://app?vid=4b8077cc-8559-47cd-b62d-6f1f154e2872"},"vehicle_type_id":"4","last_reported":1683302896,"current_range_meters":9600,"station_id":"ce4bh0h2rcd13ifvqd40","pricing_plan_id":"free"},{"bike_id":"9b68c8d7-8cf0-48a9-a0af-0fae482bfe14","system_id":"levelo_inurba_marseille","lat":43.301117,"lon":5.398795,"is_reserved":false,"is_disabled":false,"rental_uris":{"android":"levelo://app?vid=9b68c8d7-8cf0-48a9-a0af-0fae482bfe14","ios":"levelo://app?vid=9b68c8d7-8cf0-48a9-a0af-0fae482bfe14"},"vehicle_type_id":"4","last_reported":1683302896,"current_range_meters":18000,"station_id":"ce4bh0h2rcd13ifvqd40","pricing_plan_id":"free"},{"bike_id":"c452a78d-8a25-4dac-a034-b406e8dd2a51","system_id":"levelo_inurba_marseille","lat":43.28754,"lon":5.35802,"is_reserved":false,"is_disabled":false,"rental_uris":{"android":"levelo://app?vid=c452a78d-8a25-4dac-a034-b406e8dd2a51","ios":"levelo://app?vid=c452a78d-8a25-4dac-a034-b406e8dd2a51"},"vehicle_type_id":"4","last_reported":1683302896,"current_range_meters":9200,"station_id":"","pricing_plan_id":"free"},{"bike_id":"ef9813e4-8cc9-4646-a9be-e7e53f23e11d","system_id":"levelo_inurba_marseille","lat":43.298681,"lon":5.397225,"is_reserved":false,"is_disabled":false,"rental_uris":{"android":"levelo://app?vid=ef9813e4-8cc9-4646-a9be-e7e53f23e11d","ios":"levelo://app?vid=ef9813e4-8cc9-4646-a9be-e7e53f23e11d"},"vehicle_type_id":"4","last_reported":1683302896,"current_range_meters":13600,"station_id":"ce4bh0h2rcd13ifvqd50","pricing_plan_id":"free"},{"bike_id":"556799f3-cfad-4009-afce-230fb1e10ba7","system_id":"levelo_inurba_marseille","lat":43.298681,"lon":5.397225,"is_reserved":false,"is_disabled":false,"rental_uris":{"android":"levelo://app?vid=556799f3-cfad-4009-afce-230fb1e10ba7","ios":"levelo://app?vid=556799f3-cfad-4009-afce-230fb1e10ba7"},"vehicle_type_id":"4","last_reported":1683302896,"current_range_meters":20000,"station_id":"ce4bh0h2rcd13ifvqd50","pricing_plan_id":"free"},{"bike_id":"b7aba3ae-0ed1-4642-855e-f8e0dd83893f","system_id":"levelo_inurba_marseille","lat":43.286593,"lon":5.363346,"is_reserved":false,"is_disabled":false,"rental_uris":{"android":"levelo://app?vid=b7aba3ae-0ed1-4642-855e-f8e0dd83893f","ios":"levelo://app?vid=b7aba3ae-0ed1-4642-855e-f8e0dd83893f"},"vehicle_type_id":"4","last_reported":1683302896,"current_range_meters":19600,"station_id":"ce4bhah2rcd13ifvqej0","pricing_plan_id":"free"},{"bike_id":"f57c1343-50c3-4c1e-a8ed-d34f3707f999","system_id":"levelo_inurba_marseille","lat":43.298681,"lon":5.397225,"is_reserved":false,"is_disabled":false,"rental_uris":{"android":"levelo://app?vid=f57c1343-50c3-4c1e-a8ed-d34f3707f999","ios":"levelo://app?vid=f57c1343-50c3-4c1e-a8ed-d34f3707f999"},"vehicle_type_id":"4","last_reported":1683302896,"current_range_meters":28000,"station_id":"ce4bh0h2rcd13ifvqd50","pricing_plan_id":"free"},{"bike_id":"d8642802-cbf3-4a0d-ae8b-4b7c979ac8dc","system_id":"levelo_inurba_marseille","lat":43.298681,"lon":5.397225,"is_reserved":false,"is_disabled":false,"rental_uris":{"android":"levelo://app?vid=d8642802-cbf3-4a0d-ae8b-4b7c979ac8dc","ios":"levelo://app?vid=d8642802-cbf3-4a0d-ae8b-4b7c979ac8dc"},"vehicle_type_id":"4","last_reported":1683302896,"current_range_meters":17600,"station_id":"ce4bh0h2rcd13ifvqd50","pricing_plan_id":"free"},{"bike_id":"f10776cc-3bb3-4e94-a923-142ed8223968","system_id":"levelo_inurba_marseille","lat":43.286593,"lon":5.363346,"is_reserved":false,"is_disabled":false,"rental_uris":{"android":"levelo://app?vid=f10776cc-3bb3-4e94-a923-142ed8223968","ios":"levelo://app?vid=f10776cc-3bb3-4e94-a923-142ed8223968"},"vehicle_type_id":"4","last_reported":1683302896,"current_range_meters":15600,"station_id":"ce4bhah2rcd13ifvqej0","pricing_plan_id":"free"},{"bike_id":"906356cc-092f-447f-87fc-9e39ed68b5ce","system_id":"levelo_inurba_marseille","lat":43.295241,"lon":5.394034,"is_reserved":false,"is_disabled":false,"rental_uris":{"android":"levelo://app?vid=906356cc-092f-447f-87fc-9e39ed68b5ce","ios":"levelo://app?vid=906356cc-092f-447f-87fc-9e39ed68b5ce"},"vehicle_type_id":"4","last_reported":1683302896,"current_range_meters":20800,"station_id":"ce4bh292rcd13ifvqdf0","pricing_plan_id":"free"},{"bike_id":"8050a050-8d51-464b-baa7-199fef9d0fd6","system_id":"levelo_inurba_marseille","lat":43.302759,"lon":5.400793,"is_reserved":false,"is_disabled":false,"rental_uris":{"android":"levelo://app?vid=8050a050-8d51-464b-baa7-199fef9d0fd6","ios":"levelo://app?vid=8050a050-8d51-464b-baa7-199fef9d0fd6"},"vehicle_type_id":"4","last_reported":1683302896,"current_range_meters":13200,"station_id":"ce4bgvh2rcd13ifvqcs0","pricing_plan_id":"free"},{"bike_id":"86921c46-4875-4822-9529-cd76615eb7e0","system_id":"levelo_inurba_marseille","lat":43.302759,"lon":5.400793,"is_reserved":false,"is_disabled":false,"rental_uris":{"android":"levelo://app?vid=86921c46-4875-4822-9529-cd76615eb7e0","ios":"levelo://app?vid=86921c46-4875-4822-9529-cd76615eb7e0"},"vehicle_type_id":"4","last_reported":1683302896,"current_range_meters":6800,"station_id":"ce4bgvh2rcd13ifvqcs0","pricing_plan_id":"free"},{"bike_id":"52aedff4-f5b4-4c88-947a-7540dd49e4bf","system_id":"levelo_inurba_marseille","lat":43.302759,"lon":5.400793,"is_reserved":false,"is_disabled":false,"rental_uris":{"android":"levelo://app?vid=52aedff4-f5b4-4c88-947a-7540dd49e4bf","ios":"levelo://app?vid=52aedff4-f5b4-4c88-947a-7540dd49e4bf"},"vehicle_type_id":"4","last_reported":1683302896,"current_range_meters":28400,"station_id":"ce4bgvh2rcd13ifvqcs0","pricing_plan_id":"free"},{"bike_id":"d921ff16-ca57-4a94-85f6-a409945de9ae","system_id":"levelo_inurba_marseille","lat":43.302759,"lon":5.400793,"is_reserved":false,"is_disabled":false,"rental_uris":{"android":"levelo://app?vid=d921ff16-ca57-4a94-85f6-a409945de9ae","ios":"levelo://app?vid=d921ff16-ca57-4a94-85f6-a409945de9ae"},"vehicle_type_id":"4","last_reported":1683302896,"current_range_meters":23200,"station_id":"ce4bgvh2rcd13ifvqcs0","pricing_plan_id":"free"},{"bike_id":"a0f9c212-caa3-4d24-b759-40b487ace121","system_id":"levelo_inurba_marseille","lat":43.290336,"lon":5.386425,"is_reserved":false,"is_disabled":false,"rental_uris":{"android":"levelo://app?vid=a0f9c212-caa3-4d24-b759-40b487ace121","ios":"levelo://app?vid=a0f9c212-caa3-4d24-b759-40b487ace121"},"vehicle_type_id":"4","last_reported":1683302896,"current_range_meters":0,"station_id":"ce4bh4p2rcd13ifvqe0g","pricing_plan_id":"free"},{"bike_id":"2dc6d869-0097-4807-8854-0010c8726d1e","system_id":"levelo_inurba_marseille","lat":43.302759,"lon":5.400793,"is_reserved":false,"is_disabled":false,"rental_uris":{"android":"levelo://app?vid=2dc6d869-0097-4807-8854-0010c8726d1e","ios":"levelo://app?vid=2dc6d869-0097-4807-8854-0010c8726d1e"},"vehicle_type_id":"4","last_reported":1683302896,"current_range_meters":7600,"station_id":"ce4bgvh2rcd13ifvqcs0","pricing_plan_id":"free"},{"bike_id":"7587a45a-9215-480a-b083-3f9d8b15d348","system_id":"levelo_inurba_marseille","lat":43.302759,"lon":5.400793,"is_reserved":false,"is_disabled":false,"rental_uris":{"android":"levelo://app?vid=7587a45a-9215-480a-b083-3f9d8b15d348","ios":"levelo://app?vid=7587a45a-9215-480a-b083-3f9d8b15d348"},"vehicle_type_id":"4","last_reported":1683302896,"current_range_meters":17600,"station_id":"ce4bgvh2rcd13ifvqcs0","pricing_plan_id":"free"},{"bike_id":"1a618c58-4ce0-4c2c-bbca-6f294d9b69b7","system_id":"levelo_inurba_marseille","lat":43.302759,"lon":5.400793,"is_reserved":false,"is_disabled":false,"rental_uris":{"android":"levelo://app?vid=1a618c58-4ce0-4c2c-bbca-6f294d9b69b7","ios":"levelo://app?vid=1a618c58-4ce0-4c2c-bbca-6f294d9b69b7"},"vehicle_type_id":"4","last_reported":1683302896,"current_range_meters":12400,"station_id":"ce4bgvh2rcd13ifvqcs0","pricing_plan_id":"free"},{"bike_id":"20404b01-27e5-481b-94a9-89ca0bc49fe6","system_id":"levelo_inurba_marseille","lat":43.302759,"lon":5.400793,"is_reserved":false,"is_disabled":false,"rental_uris":{"android":"levelo://app?vid=20404b01-27e5-481b-94a9-89ca0bc49fe6","ios":"levelo://app?vid=20404b01-27e5-481b-94a9-89ca0bc49fe6"},"vehicle_type_id":"4","last_reported":1683302896,"current_range_meters":17200,"station_id":"ce4bgvh2rcd13ifvqcs0","pricing_plan_id":"free"},{"bike_id":"9b52ea56-4a6a-4185-a99b-04c2efd97466","system_id":"levelo_inurba_marseille","lat":43.302759,"lon":5.400793,"is_reserved":false,"is_disabled":false,"rental_uris":{"android":"levelo://app?vid=9b52ea56-4a6a-4185-a99b-04c2efd97466","ios":"levelo://app?vid=9b52ea56-4a6a-4185-a99b-04c2efd97466"},"vehicle_type_id":"4","last_reported":1683302896,"current_range_meters":3600,"station_id":"ce4bgvh2rcd13ifvqcs0","pricing_plan_id":"free"},{"bike_id":"7f3e008f-a28d-4f85-9dd8-ede412fddffd","system_id":"levelo_inurba_marseille","lat":43.302759,"lon":5.400793,"is_reserved":false,"is_disabled":false,"rental_uris":{"android":"levelo://app?vid=7f3e008f-a28d-4f85-9dd8-ede412fddffd","ios":"levelo://app?vid=7f3e008f-a28d-4f85-9dd8-ede412fddffd"},"vehicle_type_id":"4","last_reported":1683302896,"current_range_meters":16400,"station_id":"ce4bgvh2rcd13ifvqcs0","pricing_plan_id":"free"},{"bike_id":"aca589d1-c08a-45a5-8628-dbd93ef1e869","system_id":"levelo_inurba_marseille","lat":43.287184,"lon":5.37937,"is_reserved":false,"is_disabled":false,"rental_uris":{"android":"levelo://app?vid=aca589d1-c08a-45a5-8628-dbd93ef1e869","ios":"levelo://app?vid=aca589d1-c08a-45a5-8628-dbd93ef1e869"},"vehicle_type_id":"4","last_reported":1683302896,"current_range_meters":3600,"station_id":"ce4bh9p2rcd13ifvqec0","pricing_plan_id":"free"},{"bike_id":"97abd900-3420-4c8b-9b5c-2c9b772b05d1","system_id":"levelo_inurba_marseille","lat":43.287184,"lon":5.37937,"is_reserved":false,"is_disabled":false,"rental_uris":{"android":"levelo://app?vid=97abd900-3420-4c8b-9b5c-2c9b772b05d1","ios":"levelo://app?vid=97abd900-3420-4c8b-9b5c-2c9b772b05d1"},"vehicle_type_id":"4","last_reported":1683302896,"current_range_meters":6000,"station_id":"ce4bh9p2rcd13ifvqec0","pricing_plan_id":"free"},{"bike_id":"50124833-96b0-4304-a1f1-8e99965eafd7","system_id":"levelo_inurba_marseille","lat":43.287184,"lon":5.37937,"is_reserved":false,"is_disabled":false,"rental_uris":{"android":"levelo://app?vid=50124833-96b0-4304-a1f1-8e99965eafd7","ios":"levelo://app?vid=50124833-96b0-4304-a1f1-8e99965eafd7"},"vehicle_type_id":"4","last_reported":1683302896,"current_range_meters":16800,"station_id":"ce4bh9p2rcd13ifvqec0","pricing_plan_id":"free"},{"bike_id":"d85054e2-aa52-42eb-b221-fa3ec75b7dab","system_id":"levelo_inurba_marseille","lat":43.316523,"lon":5.404367,"is_reserved":false,"is_disabled":false,"rental_uris":{"android":"levelo://app?vid=d85054e2-aa52-42eb-b221-fa3ec75b7dab","ios":"levelo://app?vid=d85054e2-aa52-42eb-b221-fa3ec75b7dab"},"vehicle_type_id":"4","last_reported":1683302896,"current_range_meters":31200,"station_id":"ce4bh012rcd13ifvqd00","pricing_plan_id":"free"},{"bike_id":"53615e82-8cc4-4450-87b5-889623f1170b","system_id":"levelo_inurba_marseille","lat":43.316523,"lon":5.404367,"is_reserved":false,"is_disabled":false,"rental_uris":{"android":"levelo://app?vid=53615e82-8cc4-4450-87b5-889623f1170b","ios":"levelo://app?vid=53615e82-8cc4-4450-87b5-889623f1170b"},"vehicle_type_id":"4","last_reported":1683302896,"current_range_meters":26400,"station_id":"ce4bh012rcd13ifvqd00","pricing_plan_id":"free"},{"bike_id":"d0df74a6-cc18-4d98-a255-8815cc6aa6e5","system_id":"levelo_inurba_marseille","lat":43.316523,"lon":5.404367,"is_reserved":false,"is_disabled":false,"rental_uris":{"android":"levelo://app?vid=d0df74a6-cc18-4d98-a255-8815cc6aa6e5","ios":"levelo://app?vid=d0df74a6-cc18-4d98-a255-8815cc6aa6e5"},"vehicle_type_id":"4","last_reported":1683302896,"current_range_meters":24400,"station_id":"ce4bh012rcd13ifvqd00","pricing_plan_id":"free"},{"bike_id":"364040eb-277b-437d-b8f2-2c5b4b77a81f","system_id":"levelo_inurba_marseille","lat":43.316523,"lon":5.404367,"is_reserved":false,"is_disabled":false,"rental_uris":{"android":"levelo://app?vid=364040eb-277b-437d-b8f2-2c5b4b77a81f","ios":"levelo://app?vid=364040eb-277b-437d-b8f2-2c5b4b77a81f"},"vehicle_type_id":"4","last_reported":1683302896,"current_range_meters":24000,"station_id":"ce4bh012rcd13ifvqd00","pricing_plan_id":"free"},{"bike_id":"c83e2711-ac83-47b9-9ecf-73dcd1d2459f","system_id":"levelo_inurba_marseille","lat":43.316523,"lon":5.404367,"is_reserved":false,"is_disabled":false,"rental_uris":{"android":"levelo://app?vid=c83e2711-ac83-47b9-9ecf-73dcd1d2459f","ios":"levelo://app?vid=c83e2711-ac83-47b9-9ecf-73dcd1d2459f"},"vehicle_type_id":"4","last_reported":1683302896,"current_range_meters":19200,"station_id":"ce4bh012rcd13ifvqd00","pricing_plan_id":"free"},{"bike_id":"873738a5-e850-4650-b54d-7f54d33c235a","system_id":"levelo_inurba_marseille","lat":43.291994,"lon":5.392907,"is_reserved":false,"is_disabled":false,"rental_uris":{"android":"levelo://app?vid=873738a5-e850-4650-b54d-7f54d33c235a","ios":"levelo://app?vid=873738a5-e850-4650-b54d-7f54d33c235a"},"vehicle_type_id":"4","last_reported":1683302896,"current_range_meters":13200,"station_id":"ce4bh192rcd13ifvqdd0","pricing_plan_id":"free"},{"bike_id":"619e84cb-8b32-4c9d-852b-ba83b4929d9c","system_id":"levelo_inurba_marseille","lat":43.284534,"lon":5.358662,"is_reserved":false,"is_disabled":false,"rental_uris":{"android":"levelo://app?vid=619e84cb-8b32-4c9d-852b-ba83b4929d9c","ios":"levelo://app?vid=619e84cb-8b32-4c9d-852b-ba83b4929d9c"},"vehicle_type_id":"4","last_reported":1683302896,"current_range_meters":12000,"station_id":"ce4bhah2rcd13ifvqei0","pricing_plan_id":"free"},{"bike_id":"31649976-55ca-43e7-a96d-b281c4720cdf","system_id":"levelo_inurba_marseille","lat":43.284534,"lon":5.358662,"is_reserved":false,"is_disabled":false,"rental_uris":{"android":"levelo://app?vid=31649976-55ca-43e7-a96d-b281c4720cdf","ios":"levelo://app?vid=31649976-55ca-43e7-a96d-b281c4720cdf"},"vehicle_type_id":"4","last_reported":1683302896,"current_range_meters":8800,"station_id":"ce4bhah2rcd13ifvqei0","pricing_plan_id":"free"},{"bike_id":"7a57a8e2-e2cb-4c28-95c4-7c637d0dc000","system_id":"levelo_inurba_marseille","lat":43.284534,"lon":5.358662,"is_reserved":false,"is_disabled":false,"rental_uris":{"android":"levelo://app?vid=7a57a8e2-e2cb-4c28-95c4-7c637d0dc000","ios":"levelo://app?vid=7a57a8e2-e2cb-4c28-95c4-7c637d0dc000"},"vehicle_type_id":"4","last_reported":1683302896,"current_range_meters":0,"station_id":"ce4bhah2rcd13ifvqei0","pricing_plan_id":"free"},{"bike_id":"d14637d0-7c11-43df-a5f8-859b98440242","system_id":"levelo_inurba_marseille","lat":43.284534,"lon":5.358662,"is_reserved":false,"is_disabled":false,"rental_uris":{"android":"levelo://app?vid=d14637d0-7c11-43df-a5f8-859b98440242","ios":"levelo://app?vid=d14637d0-7c11-43df-a5f8-859b98440242"},"vehicle_type_id":"4","last_reported":1683302896,"current_range_meters":26800,"station_id":"ce4bhah2rcd13ifvqei0","pricing_plan_id":"free"},{"bike_id":"f77e42ec-d94b-4d29-a2b7-76233695000e","system_id":"levelo_inurba_marseille","lat":43.284534,"lon":5.358662,"is_reserved":false,"is_disabled":false,"rental_uris":{"android":"levelo://app?vid=f77e42ec-d94b-4d29-a2b7-76233695000e","ios":"levelo://app?vid=f77e42ec-d94b-4d29-a2b7-76233695000e"},"vehicle_type_id":"4","last_reported":1683302896,"current_range_meters":5600,"station_id":"ce4bhah2rcd13ifvqei0","pricing_plan_id":"free"},{"bike_id":"0a2b65f7-4f19-47a4-ad82-68cbcb145d98","system_id":"levelo_inurba_marseille","lat":43.284534,"lon":5.358662,"is_reserved":false,"is_disabled":false,"rental_uris":{"android":"levelo://app?vid=0a2b65f7-4f19-47a4-ad82-68cbcb145d98","ios":"levelo://app?vid=0a2b65f7-4f19-47a4-ad82-68cbcb145d98"},"vehicle_type_id":"4","last_reported":1683302896,"current_range_meters":1200,"station_id":"ce4bhah2rcd13ifvqei0","pricing_plan_id":"free"},{"bike_id":"6284708d-07e8-45d8-88dc-15a23b8ab0fb","system_id":"levelo_inurba_marseille","lat":43.284534,"lon":5.358662,"is_reserved":false,"is_disabled":false,"rental_uris":{"android":"levelo://app?vid=6284708d-07e8-45d8-88dc-15a23b8ab0fb","ios":"levelo://app?vid=6284708d-07e8-45d8-88dc-15a23b8ab0fb"},"vehicle_type_id":"4","last_reported":1683302896,"current_range_meters":0,"station_id":"ce4bhah2rcd13ifvqei0","pricing_plan_id":"free"},{"bike_id":"78ab2561-9b5d-4859-92c5-a5a2e5d4b541","system_id":"levelo_inurba_marseille","lat":43.284534,"lon":5.358662,"is_reserved":false,"is_disabled":false,"rental_uris":{"android":"levelo://app?vid=78ab2561-9b5d-4859-92c5-a5a2e5d4b541","ios":"levelo://app?vid=78ab2561-9b5d-4859-92c5-a5a2e5d4b541"},"vehicle_type_id":"4","last_reported":1683302896,"current_range_meters":11200,"station_id":"ce4bhah2rcd13ifvqei0","pricing_plan_id":"free"},{"bike_id":"33a9433a-12a0-44c8-a260-3578e796d5ff","system_id":"levelo_inurba_marseille","lat":43.284534,"lon":5.358662,"is_reserved":false,"is_disabled":false,"rental_uris":{"android":"levelo://app?vid=33a9433a-12a0-44c8-a260-3578e796d5ff","ios":"levelo://app?vid=33a9433a-12a0-44c8-a260-3578e796d5ff"},"vehicle_type_id":"4","last_reported":1683302896,"current_range_meters":20800,"station_id":"ce4bhah2rcd13ifvqei0","pricing_plan_id":"free"},{"bike_id":"d0a73939-de9e-4290-aeee-07df37118317","system_id":"levelo_inurba_marseille","lat":43.284534,"lon":5.358662,"is_reserved":false,"is_disabled":false,"rental_uris":{"android":"levelo://app?vid=d0a73939-de9e-4290-aeee-07df37118317","ios":"levelo://app?vid=d0a73939-de9e-4290-aeee-07df37118317"},"vehicle_type_id":"4","last_reported":1683302896,"current_range_meters":1600,"station_id":"ce4bhah2rcd13ifvqei0","pricing_plan_id":"free"},{"bike_id":"da1ea075-081a-4f07-ac22-cda31bfaa25d","system_id":"levelo_inurba_marseille","lat":43.284534,"lon":5.358662,"is_reserved":false,"is_disabled":false,"rental_uris":{"android":"levelo://app?vid=da1ea075-081a-4f07-ac22-cda31bfaa25d","ios":"levelo://app?vid=da1ea075-081a-4f07-ac22-cda31bfaa25d"},"vehicle_type_id":"4","last_reported":1683302896,"current_range_meters":28000,"station_id":"ce4bhah2rcd13ifvqei0","pricing_plan_id":"free"},{"bike_id":"d53026a8-d698-4b43-b919-37660cca38b8","system_id":"levelo_inurba_marseille","lat":43.28464,"lon":5.35889,"is_reserved":false,"is_disabled":false,"rental_uris":{"android":"levelo://app?vid=d53026a8-d698-4b43-b919-37660cca38b8","ios":"levelo://app?vid=d53026a8-d698-4b43-b919-37660cca38b8"},"vehicle_type_id":"4","last_reported":1683302896,"current_range_meters":16000,"station_id":"ce4bhah2rcd13ifvqei0","pricing_plan_id":"free"},{"bike_id":"8ddc1b17-e5d6-4f70-a3cb-4ce98907e816","system_id":"levelo_inurba_marseille","lat":43.284534,"lon":5.358662,"is_reserved":false,"is_disabled":false,"rental_uris":{"android":"levelo://app?vid=8ddc1b17-e5d6-4f70-a3cb-4ce98907e816","ios":"levelo://app?vid=8ddc1b17-e5d6-4f70-a3cb-4ce98907e816"},"vehicle_type_id":"4","last_reported":1683302896,"current_range_meters":30400,"station_id":"ce4bhah2rcd13ifvqei0","pricing_plan_id":"free"},{"bike_id":"ea1a0d9f-3498-4907-9cb7-fd3b027c6cfb","system_id":"levelo_inurba_marseille","lat":43.284534,"lon":5.358662,"is_reserved":false,"is_disabled":false,"rental_uris":{"android":"levelo://app?vid=ea1a0d9f-3498-4907-9cb7-fd3b027c6cfb","ios":"levelo://app?vid=ea1a0d9f-3498-4907-9cb7-fd3b027c6cfb"},"vehicle_type_id":"4","last_reported":1683302896,"current_range_meters":23600,"station_id":"ce4bhah2rcd13ifvqei0","pricing_plan_id":"free"},{"bike_id":"84c683ef-bd2a-4e9d-9da2-4caf487add38","system_id":"levelo_inurba_marseille","lat":43.284534,"lon":5.358662,"is_reserved":false,"is_disabled":false,"rental_uris":{"android":"levelo://app?vid=84c683ef-bd2a-4e9d-9da2-4caf487add38","ios":"levelo://app?vid=84c683ef-bd2a-4e9d-9da2-4caf487add38"},"vehicle_type_id":"4","last_reported":1683302896,"current_range_meters":24000,"station_id":"ce4bhah2rcd13ifvqei0","pricing_plan_id":"free"},{"bike_id":"e8ed9d0c-5192-46ac-9c14-301238dfce72","system_id":"levelo_inurba_marseille","lat":43.284534,"lon":5.358662,"is_reserved":false,"is_disabled":false,"rental_uris":{"android":"levelo://app?vid=e8ed9d0c-5192-46ac-9c14-301238dfce72","ios":"levelo://app?vid=e8ed9d0c-5192-46ac-9c14-301238dfce72"},"vehicle_type_id":"4","last_reported":1683302896,"current_range_meters":28800,"station_id":"ce4bhah2rcd13ifvqei0","pricing_plan_id":"free"},{"bike_id":"ce7dfed1-82e6-4eb5-ab03-f863158715e6","system_id":"levelo_inurba_marseille","lat":43.284534,"lon":5.358662,"is_reserved":false,"is_disabled":false,"rental_uris":{"android":"levelo://app?vid=ce7dfed1-82e6-4eb5-ab03-f863158715e6","ios":"levelo://app?vid=ce7dfed1-82e6-4eb5-ab03-f863158715e6"},"vehicle_type_id":"4","last_reported":1683302896,"current_range_meters":28000,"station_id":"ce4bhah2rcd13ifvqei0","pricing_plan_id":"free"},{"bike_id":"6309c8a4-e4ee-4b14-8e4f-28f6f71dbaa1","system_id":"levelo_inurba_marseille","lat":43.284534,"lon":5.358662,"is_reserved":false,"is_disabled":false,"rental_uris":{"android":"levelo://app?vid=6309c8a4-e4ee-4b14-8e4f-28f6f71dbaa1","ios":"levelo://app?vid=6309c8a4-e4ee-4b14-8e4f-28f6f71dbaa1"},"vehicle_type_id":"4","last_reported":1683302896,"current_range_meters":20400,"station_id":"ce4bhah2rcd13ifvqei0","pricing_plan_id":"free"},{"bike_id":"8a113b6e-24fc-4f20-b4a8-291cc02c3436","system_id":"levelo_inurba_marseille","lat":43.284534,"lon":5.358662,"is_reserved":false,"is_disabled":false,"rental_uris":{"android":"levelo://app?vid=8a113b6e-24fc-4f20-b4a8-291cc02c3436","ios":"levelo://app?vid=8a113b6e-24fc-4f20-b4a8-291cc02c3436"},"vehicle_type_id":"4","last_reported":1683302896,"current_range_meters":18000,"station_id":"ce4bhah2rcd13ifvqei0","pricing_plan_id":"free"},{"bike_id":"ec5dc349-3725-4fff-b99d-ec0e7fc44100","system_id":"levelo_inurba_marseille","lat":43.284534,"lon":5.358662,"is_reserved":false,"is_disabled":false,"rental_uris":{"android":"levelo://app?vid=ec5dc349-3725-4fff-b99d-ec0e7fc44100","ios":"levelo://app?vid=ec5dc349-3725-4fff-b99d-ec0e7fc44100"},"vehicle_type_id":"4","last_reported":1683302896,"current_range_meters":4400,"station_id":"ce4bhah2rcd13ifvqei0","pricing_plan_id":"free"},{"bike_id":"0c5466fb-000d-4645-a001-4bf16d732489","system_id":"levelo_inurba_marseille","lat":43.284534,"lon":5.358662,"is_reserved":false,"is_disabled":false,"rental_uris":{"android":"levelo://app?vid=0c5466fb-000d-4645-a001-4bf16d732489","ios":"levelo://app?vid=0c5466fb-000d-4645-a001-4bf16d732489"},"vehicle_type_id":"4","last_reported":1683302896,"current_range_meters":15200,"station_id":"ce4bhah2rcd13ifvqei0","pricing_plan_id":"free"},{"bike_id":"48f4fabd-7c69-4910-9d3f-cd0641eb000d","system_id":"levelo_inurba_marseille","lat":43.284534,"lon":5.358662,"is_reserved":false,"is_disabled":false,"rental_uris":{"android":"levelo://app?vid=48f4fabd-7c69-4910-9d3f-cd0641eb000d","ios":"levelo://app?vid=48f4fabd-7c69-4910-9d3f-cd0641eb000d"},"vehicle_type_id":"4","last_reported":1683302896,"current_range_meters":30000,"station_id":"ce4bhah2rcd13ifvqei0","pricing_plan_id":"free"},{"bike_id":"cde9dcb9-3cc4-4e54-96a5-c1e09dd128dc","system_id":"levelo_inurba_marseille","lat":43.284534,"lon":5.358662,"is_reserved":false,"is_disabled":false,"rental_uris":{"android":"levelo://app?vid=cde9dcb9-3cc4-4e54-96a5-c1e09dd128dc","ios":"levelo://app?vid=cde9dcb9-3cc4-4e54-96a5-c1e09dd128dc"},"vehicle_type_id":"4","last_reported":1683302896,"current_range_meters":4400,"station_id":"ce4bhah2rcd13ifvqei0","pricing_plan_id":"free"},{"bike_id":"c1507c04-69e7-48f8-9ab2-8a166f1e2bfc","system_id":"levelo_inurba_marseille","lat":43.284534,"lon":5.358662,"is_reserved":false,"is_disabled":false,"rental_uris":{"android":"levelo://app?vid=c1507c04-69e7-48f8-9ab2-8a166f1e2bfc","ios":"levelo://app?vid=c1507c04-69e7-48f8-9ab2-8a166f1e2bfc"},"vehicle_type_id":"4","last_reported":1683302896,"current_range_meters":9200,"station_id":"ce4bhah2rcd13ifvqei0","pricing_plan_id":"free"},{"bike_id":"fbdb44bf-8f8f-49a6-948d-13db936a27a2","system_id":"levelo_inurba_marseille","lat":43.28623,"lon":5.35101,"is_reserved":false,"is_disabled":false,"rental_uris":{"android":"levelo://app?vid=fbdb44bf-8f8f-49a6-948d-13db936a27a2","ios":"levelo://app?vid=fbdb44bf-8f8f-49a6-948d-13db936a27a2"},"vehicle_type_id":"4","last_reported":1683302896,"current_range_meters":16800,"station_id":"","pricing_plan_id":"free"},{"bike_id":"fcf50e16-690f-4f82-b90e-01692190ed21","system_id":"levelo_inurba_marseille","lat":43.28621,"lon":5.35107,"is_reserved":false,"is_disabled":false,"rental_uris":{"android":"levelo://app?vid=fcf50e16-690f-4f82-b90e-01692190ed21","ios":"levelo://app?vid=fcf50e16-690f-4f82-b90e-01692190ed21"},"vehicle_type_id":"4","last_reported":1683302896,"current_range_meters":0,"station_id":"","pricing_plan_id":"free"},{"bike_id":"befe4dd7-4d7a-4c75-88df-255e45f93e8c","system_id":"levelo_inurba_marseille","lat":43.2862,"lon":5.35109,"is_reserved":false,"is_disabled":false,"rental_uris":{"android":"levelo://app?vid=befe4dd7-4d7a-4c75-88df-255e45f93e8c","ios":"levelo://app?vid=befe4dd7-4d7a-4c75-88df-255e45f93e8c"},"vehicle_type_id":"4","last_reported":1683302896,"current_range_meters":12400,"station_id":"","pricing_plan_id":"free"},{"bike_id":"722431e0-812e-4665-b8ef-a62654cefde3","system_id":"levelo_inurba_marseille","lat":43.28621,"lon":5.35105,"is_reserved":false,"is_disabled":false,"rental_uris":{"android":"levelo://app?vid=722431e0-812e-4665-b8ef-a62654cefde3","ios":"levelo://app?vid=722431e0-812e-4665-b8ef-a62654cefde3"},"vehicle_type_id":"4","last_reported":1683302896,"current_range_meters":15200,"station_id":"","pricing_plan_id":"free"},{"bike_id":"377d34a6-6e5c-487b-8c45-254a98299f9f","system_id":"levelo_inurba_marseille","lat":43.28618,"lon":5.35111,"is_reserved":false,"is_disabled":false,"rental_uris":{"android":"levelo://app?vid=377d34a6-6e5c-487b-8c45-254a98299f9f","ios":"levelo://app?vid=377d34a6-6e5c-487b-8c45-254a98299f9f"},"vehicle_type_id":"4","last_reported":1683302896,"current_range_meters":7600,"station_id":"","pricing_plan_id":"free"},{"bike_id":"a62489ab-f1f9-40ec-8a8a-aa0ad3f753d9","system_id":"levelo_inurba_marseille","lat":43.28617,"lon":5.35113,"is_reserved":false,"is_disabled":false,"rental_uris":{"android":"levelo://app?vid=a62489ab-f1f9-40ec-8a8a-aa0ad3f753d9","ios":"levelo://app?vid=a62489ab-f1f9-40ec-8a8a-aa0ad3f753d9"},"vehicle_type_id":"4","last_reported":1683302896,"current_range_meters":14000,"station_id":"","pricing_plan_id":"free"},{"bike_id":"4243e045-e135-4b9c-ac30-4e215b82782b","system_id":"levelo_inurba_marseille","lat":43.285848,"lon":5.350787,"is_reserved":false,"is_disabled":false,"rental_uris":{"android":"levelo://app?vid=4243e045-e135-4b9c-ac30-4e215b82782b","ios":"levelo://app?vid=4243e045-e135-4b9c-ac30-4e215b82782b"},"vehicle_type_id":"4","last_reported":1683302896,"current_range_meters":30000,"station_id":"ce4bhch2rcd13ifvqeug","pricing_plan_id":"free"},{"bike_id":"494a1b51-1fe7-482f-82d3-59e9309a67c5","system_id":"levelo_inurba_marseille","lat":43.285848,"lon":5.350787,"is_reserved":false,"is_disabled":false,"rental_uris":{"android":"levelo://app?vid=494a1b51-1fe7-482f-82d3-59e9309a67c5","ios":"levelo://app?vid=494a1b51-1fe7-482f-82d3-59e9309a67c5"},"vehicle_type_id":"4","last_reported":1683302896,"current_range_meters":30400,"station_id":"ce4bhch2rcd13ifvqeug","pricing_plan_id":"free"},{"bike_id":"aab08673-e2a6-4503-a522-fa352a68c03d","system_id":"levelo_inurba_marseille","lat":43.28618,"lon":5.35104,"is_reserved":false,"is_disabled":false,"rental_uris":{"android":"levelo://app?vid=aab08673-e2a6-4503-a522-fa352a68c03d","ios":"levelo://app?vid=aab08673-e2a6-4503-a522-fa352a68c03d"},"vehicle_type_id":"4","last_reported":1683302896,"current_range_meters":18000,"station_id":"","pricing_plan_id":"free"},{"bike_id":"3a589041-6891-491e-a96f-8e6ba02a04ad","system_id":"levelo_inurba_marseille","lat":43.28617,"lon":5.35106,"is_reserved":false,"is_disabled":false,"rental_uris":{"android":"levelo://app?vid=3a589041-6891-491e-a96f-8e6ba02a04ad","ios":"levelo://app?vid=3a589041-6891-491e-a96f-8e6ba02a04ad"},"vehicle_type_id":"4","last_reported":1683302896,"current_range_meters":28000,"station_id":"","pricing_plan_id":"free"},{"bike_id":"8c824d58-cee9-4904-9aff-309a5e58e744","system_id":"levelo_inurba_marseille","lat":43.28613,"lon":5.35097,"is_reserved":false,"is_disabled":false,"rental_uris":{"android":"levelo://app?vid=8c824d58-cee9-4904-9aff-309a5e58e744","ios":"levelo://app?vid=8c824d58-cee9-4904-9aff-309a5e58e744"},"vehicle_type_id":"4","last_reported":1683302896,"current_range_meters":4800,"station_id":"","pricing_plan_id":"free"},{"bike_id":"16483683-221b-4c88-9157-6597b68427bc","system_id":"levelo_inurba_marseille","lat":43.30372,"lon":5.40589,"is_reserved":false,"is_disabled":false,"rental_uris":{"android":"levelo://app?vid=16483683-221b-4c88-9157-6597b68427bc","ios":"levelo://app?vid=16483683-221b-4c88-9157-6597b68427bc"},"vehicle_type_id":"4","last_reported":1683302896,"current_range_meters":19200,"station_id":"","pricing_plan_id":"free"},{"bike_id":"c9ab7b3a-504d-49e2-9a7d-a1cef20e3ab9","system_id":"levelo_inurba_marseille","lat":43.286595,"lon":5.386795,"is_reserved":false,"is_disabled":false,"rental_uris":{"android":"levelo://app?vid=c9ab7b3a-504d-49e2-9a7d-a1cef20e3ab9","ios":"levelo://app?vid=c9ab7b3a-504d-49e2-9a7d-a1cef20e3ab9"},"vehicle_type_id":"4","last_reported":1683302896,"current_range_meters":6000,"station_id":"ce4bh492rcd13ifvqdug","pricing_plan_id":"free"},{"bike_id":"71226cb9-6876-4867-a272-0c5a702241e2","system_id":"levelo_inurba_marseille","lat":43.286595,"lon":5.386795,"is_reserved":false,"is_disabled":false,"rental_uris":{"android":"levelo://app?vid=71226cb9-6876-4867-a272-0c5a702241e2","ios":"levelo://app?vid=71226cb9-6876-4867-a272-0c5a702241e2"},"vehicle_type_id":"4","last_reported":1683302896,"current_range_meters":0,"station_id":"ce4bh492rcd13ifvqdug","pricing_plan_id":"free"},{"bike_id":"df7a059c-8689-49c2-9bc6-f9dc609f1e5b","system_id":"levelo_inurba_marseille","lat":43.33724,"lon":5.39182,"is_reserved":false,"is_disabled":false,"rental_uris":{"android":"levelo://app?vid=df7a059c-8689-49c2-9bc6-f9dc609f1e5b","ios":"levelo://app?vid=df7a059c-8689-49c2-9bc6-f9dc609f1e5b"},"vehicle_type_id":"4","last_reported":1683302896,"current_range_meters":23200,"station_id":"ce4bhr92rcd13ifvqhsg","pricing_plan_id":"free"},{"bike_id":"60dafb37-540d-4e2b-af0c-adee965353ec","system_id":"levelo_inurba_marseille","lat":43.337202,"lon":5.391897,"is_reserved":false,"is_disabled":false,"rental_uris":{"android":"levelo://app?vid=60dafb37-540d-4e2b-af0c-adee965353ec","ios":"levelo://app?vid=60dafb37-540d-4e2b-af0c-adee965353ec"},"vehicle_type_id":"4","last_reported":1683302896,"current_range_meters":16400,"station_id":"ce4bhr92rcd13ifvqhsg","pricing_plan_id":"free"},{"bike_id":"e58beef3-b2b9-47bd-96be-ef151a19df14","system_id":"levelo_inurba_marseille","lat":43.337168,"lon":5.391825,"is_reserved":false,"is_disabled":false,"rental_uris":{"android":"levelo://app?vid=e58beef3-b2b9-47bd-96be-ef151a19df14","ios":"levelo://app?vid=e58beef3-b2b9-47bd-96be-ef151a19df14"},"vehicle_type_id":"4","last_reported":1683302896,"current_range_meters":0,"station_id":"ce4bhr92rcd13ifvqhsg","pricing_plan_id":"free"},{"bike_id":"b287d50e-c2da-411a-89e5-f621222e70bf","system_id":"levelo_inurba_marseille","lat":43.323464,"lon":5.406297,"is_reserved":false,"is_disabled":false,"rental_uris":{"android":"levelo://app?vid=b287d50e-c2da-411a-89e5-f621222e70bf","ios":"levelo://app?vid=b287d50e-c2da-411a-89e5-f621222e70bf"},"vehicle_type_id":"4","last_reported":1683302896,"current_range_meters":31200,"station_id":"ce4bhq92rcd13ifvqhjg","pricing_plan_id":"free"},{"bike_id":"8f4a2573-9031-4300-b51b-35505a06e8a4","system_id":"levelo_inurba_marseille","lat":43.323464,"lon":5.406297,"is_reserved":false,"is_disabled":false,"rental_uris":{"android":"levelo://app?vid=8f4a2573-9031-4300-b51b-35505a06e8a4","ios":"levelo://app?vid=8f4a2573-9031-4300-b51b-35505a06e8a4"},"vehicle_type_id":"4","last_reported":1683302896,"current_range_meters":32000,"station_id":"ce4bhq92rcd13ifvqhjg","pricing_plan_id":"free"},{"bike_id":"097a4d3c-aa6e-4f6c-8d29-4f3987625d21","system_id":"levelo_inurba_marseille","lat":43.33728,"lon":5.39182,"is_reserved":false,"is_disabled":false,"rental_uris":{"android":"levelo://app?vid=097a4d3c-aa6e-4f6c-8d29-4f3987625d21","ios":"levelo://app?vid=097a4d3c-aa6e-4f6c-8d29-4f3987625d21"},"vehicle_type_id":"4","last_reported":1683302896,"current_range_meters":28000,"station_id":"ce4bhr92rcd13ifvqhsg","pricing_plan_id":"free"},{"bike_id":"205afa5d-1c1f-461a-985c-3a68f53ab105","system_id":"levelo_inurba_marseille","lat":43.323464,"lon":5.406297,"is_reserved":false,"is_disabled":false,"rental_uris":{"android":"levelo://app?vid=205afa5d-1c1f-461a-985c-3a68f53ab105","ios":"levelo://app?vid=205afa5d-1c1f-461a-985c-3a68f53ab105"},"vehicle_type_id":"4","last_reported":1683302896,"current_range_meters":29600,"station_id":"ce4bhq92rcd13ifvqhjg","pricing_plan_id":"free"},{"bike_id":"7363e2d2-bbe4-44ac-97a7-f398a2af9f7c","system_id":"levelo_inurba_marseille","lat":43.323464,"lon":5.406297,"is_reserved":false,"is_disabled":false,"rental_uris":{"android":"levelo://app?vid=7363e2d2-bbe4-44ac-97a7-f398a2af9f7c","ios":"levelo://app?vid=7363e2d2-bbe4-44ac-97a7-f398a2af9f7c"},"vehicle_type_id":"4","last_reported":1683302896,"current_range_meters":31200,"station_id":"ce4bhq92rcd13ifvqhjg","pricing_plan_id":"free"},{"bike_id":"20d5c153-58cf-492a-9060-ae9c5a44d71c","system_id":"levelo_inurba_marseille","lat":43.323464,"lon":5.406297,"is_reserved":false,"is_disabled":false,"rental_uris":{"android":"levelo://app?vid=20d5c153-58cf-492a-9060-ae9c5a44d71c","ios":"levelo://app?vid=20d5c153-58cf-492a-9060-ae9c5a44d71c"},"vehicle_type_id":"4","last_reported":1683302896,"current_range_meters":20400,"station_id":"ce4bhq92rcd13ifvqhjg","pricing_plan_id":"free"},{"bike_id":"4b494458-adf2-498e-9134-44e709cb3b78","system_id":"levelo_inurba_marseille","lat":43.323464,"lon":5.406297,"is_reserved":false,"is_disabled":false,"rental_uris":{"android":"levelo://app?vid=4b494458-adf2-498e-9134-44e709cb3b78","ios":"levelo://app?vid=4b494458-adf2-498e-9134-44e709cb3b78"},"vehicle_type_id":"4","last_reported":1683302896,"current_range_meters":17200,"station_id":"ce4bhq92rcd13ifvqhjg","pricing_plan_id":"free"},{"bike_id":"1fbc4f70-426e-4f13-88e9-695fce2c94f9","system_id":"levelo_inurba_marseille","lat":43.337168,"lon":5.391825,"is_reserved":false,"is_disabled":false,"rental_uris":{"android":"levelo://app?vid=1fbc4f70-426e-4f13-88e9-695fce2c94f9","ios":"levelo://app?vid=1fbc4f70-426e-4f13-88e9-695fce2c94f9"},"vehicle_type_id":"4","last_reported":1683302896,"current_range_meters":24800,"station_id":"ce4bhr92rcd13ifvqhsg","pricing_plan_id":"free"},{"bike_id":"ee85831e-5f6e-4fa7-aabd-f70378f8530f","system_id":"levelo_inurba_marseille","lat":43.337168,"lon":5.391825,"is_reserved":false,"is_disabled":false,"rental_uris":{"android":"levelo://app?vid=ee85831e-5f6e-4fa7-aabd-f70378f8530f","ios":"levelo://app?vid=ee85831e-5f6e-4fa7-aabd-f70378f8530f"},"vehicle_type_id":"4","last_reported":1683302896,"current_range_meters":29200,"station_id":"ce4bhr92rcd13ifvqhsg","pricing_plan_id":"free"},{"bike_id":"c770ee81-ec53-4a4c-beb2-b1bedfbd1127","system_id":"levelo_inurba_marseille","lat":43.28398,"lon":5.35259,"is_reserved":false,"is_disabled":false,"rental_uris":{"android":"levelo://app?vid=c770ee81-ec53-4a4c-beb2-b1bedfbd1127","ios":"levelo://app?vid=c770ee81-ec53-4a4c-beb2-b1bedfbd1127"},"vehicle_type_id":"4","last_reported":1683302896,"current_range_meters":0,"station_id":"","pricing_plan_id":"free"},{"bike_id":"03865cbc-6dcc-4f21-ba4b-181bcd5b5997","system_id":"levelo_inurba_marseille","lat":43.284793,"lon":5.384119,"is_reserved":false,"is_disabled":false,"rental_uris":{"android":"levelo://app?vid=03865cbc-6dcc-4f21-ba4b-181bcd5b5997","ios":"levelo://app?vid=03865cbc-6dcc-4f21-ba4b-181bcd5b5997"},"vehicle_type_id":"4","last_reported":1683302896,"current_range_meters":14800,"station_id":"ce4bh512rcd13ifvqe3g","pricing_plan_id":"free"},{"bike_id":"f5a44135-b1be-429b-a9a6-b7dc125cf5bd","system_id":"levelo_inurba_marseille","lat":43.28475,"lon":5.38418,"is_reserved":false,"is_disabled":false,"rental_uris":{"android":"levelo://app?vid=f5a44135-b1be-429b-a9a6-b7dc125cf5bd","ios":"levelo://app?vid=f5a44135-b1be-429b-a9a6-b7dc125cf5bd"},"vehicle_type_id":"4","last_reported":1683302896,"current_range_meters":20800,"station_id":"ce4bh512rcd13ifvqe3g","pricing_plan_id":"free"},{"bike_id":"27865f6e-c046-4416-9233-48156b6bae2c","system_id":"levelo_inurba_marseille","lat":43.33742,"lon":5.39198,"is_reserved":false,"is_disabled":false,"rental_uris":{"android":"levelo://app?vid=27865f6e-c046-4416-9233-48156b6bae2c","ios":"levelo://app?vid=27865f6e-c046-4416-9233-48156b6bae2c"},"vehicle_type_id":"4","last_reported":1683302896,"current_range_meters":31200,"station_id":"ce4bhr92rcd13ifvqhsg","pricing_plan_id":"free"},{"bike_id":"89f8d31b-cbec-423c-9b89-d5b57e7dc4dd","system_id":"levelo_inurba_marseille","lat":43.28468,"lon":5.38412,"is_reserved":false,"is_disabled":false,"rental_uris":{"android":"levelo://app?vid=89f8d31b-cbec-423c-9b89-d5b57e7dc4dd","ios":"levelo://app?vid=89f8d31b-cbec-423c-9b89-d5b57e7dc4dd"},"vehicle_type_id":"4","last_reported":1683302896,"current_range_meters":12800,"station_id":"ce4bh512rcd13ifvqe3g","pricing_plan_id":"free"},{"bike_id":"d30999a6-2ac9-4141-9558-0b2a170413b9","system_id":"levelo_inurba_marseille","lat":43.288497,"lon":5.393089,"is_reserved":false,"is_disabled":false,"rental_uris":{"android":"levelo://app?vid=d30999a6-2ac9-4141-9558-0b2a170413b9","ios":"levelo://app?vid=d30999a6-2ac9-4141-9558-0b2a170413b9"},"vehicle_type_id":"4","last_reported":1683302896,"current_range_meters":12000,"station_id":"ce4bh2p2rcd13ifvqdi0","pricing_plan_id":"free"},{"bike_id":"e571e027-b1f2-4163-af5e-2cbd86f9e0f2","system_id":"levelo_inurba_marseille","lat":43.288497,"lon":5.393089,"is_reserved":false,"is_disabled":false,"rental_uris":{"android":"levelo://app?vid=e571e027-b1f2-4163-af5e-2cbd86f9e0f2","ios":"levelo://app?vid=e571e027-b1f2-4163-af5e-2cbd86f9e0f2"},"vehicle_type_id":"4","last_reported":1683302896,"current_range_meters":0,"station_id":"ce4bh2p2rcd13ifvqdi0","pricing_plan_id":"free"},{"bike_id":"1f5c6765-2dc4-4c17-8243-02b1597f2d13","system_id":"levelo_inurba_marseille","lat":43.284219,"lon":5.3497,"is_reserved":false,"is_disabled":false,"rental_uris":{"android":"levelo://app?vid=1f5c6765-2dc4-4c17-8243-02b1597f2d13","ios":"levelo://app?vid=1f5c6765-2dc4-4c17-8243-02b1597f2d13"},"vehicle_type_id":"4","last_reported":1683302896,"current_range_meters":5200,"station_id":"ce4bhbh2rcd13ifvqepg","pricing_plan_id":"free"},