{"last_updated":1753175764,"ttl":60,"version":"2.2","data":{"bikes":[{"bike_id":"53b742a7-31ae-4272-9bba-7740339e2a2f","system_id":"levelo_inurba_marseille","lat":43.33747,"lon":5.37463,"is_reserved":false,"is_disabled":false,"rental_uris":{"android":"levelo://app?vid=53b742a7-31ae-4272-9bba-7740339e2a2f","ios":"levelo://app?vid=53b742a7-31ae-4272-9bba-7740339e2a2f"},"vehicle_type_id":"1","last_reported":1753175764,"current_range_meters":2800,"station_id":"","pricing_plan_id":"cebpf4jnsgd1na2vs0mg"},{"bike_id":"ed415a14-b4b4-4caf-8a06-7fd1c907bac5","system_id":"levelo_inurba_marseille","lat":43.215137,"lon":5.346174,"is_reserved":false,"is_disabled":false,"rental_uris":{"android":"levelo://app?vid=ed415a14-b4b4-4caf-8a06-7fd1c907bac5","ios":"levelo://app?vid=ed415a14-b4b4-4caf-8a06-7fd1c907bac5"},"vehicle_type_id":"4","last_reported":1753175764,"current_range_meters":2800,"station_id":"","pricing_plan_id":"cebpf4jnsgd1na2vs0mg"},{"bike_id":"433415c1-acea-4306-b3ad-c55437db8988","system_id":"levelo_inurba_marseille","lat":43.29488,"lon":5.38207,"is_reserved":false,"is_disabled":false,"rental_uris":{"android":"levelo://app?vid=433415c1-acea-4306-b3ad-c55437db8988","ios":"levelo://app?vid=433415c1-acea-4306-b3ad-c55437db8988"},"vehicle_type_id":"4","last_reported":1753175764,"current_range_meters":3200,"station_id":"","pricing_plan_id":"cebpf4jnsgd1na2vs0mg"},{"bike_id":"4571d8e3-d722-4bf9-a712-47ae3ae90613","system_id":"levelo_inurba_marseille","lat":43.24177,"lon":5.39733,"is_reserved":false,"is_disabled":true,"rental_uris":{"android":"levelo://app?vid=4571d8e3-d722-4bf9-a712-47ae3ae90613","ios":"levelo://app?vid=4571d8e3-d722-4bf9-a712-47ae3ae90613"},"vehicle_type_id":"4","last_reported":1753175764,"current_range_meters":3200,"station_id":"ce4bhn12rcd13ifvqgpg","pricing_plan_id":"cebpf4jnsgd1na2vs0mg"},{"bike_id":"f18952d9-de72-4b00-ac50-ca46d1bc16b9","system_id":"levelo_inurba_marseille","lat":43.21185,"lon":5.35075,"is_reserved":false,"is_disabled":false,"rental_uris":{"android":"levelo://app?vid=f18952d9-de72-4b00-ac50-ca46d1bc16b9","ios":"levelo://app?vid=f18952d9-de72-4b00-ac50-ca46d1bc16b9"},"vehicle_type_id":"4","last_reported":1753175764,"current_range_meters":3200,"station_id":"st_cvj6sg6p6f1abm77japg","pricing_plan_id":"cebpf4jnsgd1na2vs0mg"},{"bike_id":"a6de290b-5c15-427b-bc37-8301607e1735","system_id":"levelo_inurba_marseille","lat":43.337725,"lon":5.374294,"is_reserved":false,"is_disabled":false,"rental_uris":{"android":"levelo://app?vid=a6de290b-5c15-427b-bc37-8301607e1735","ios":"levelo://app?vid=a6de290b-5c15-427b-bc37-8301607e1735"},"vehicle_type_id":"4","last_reported":1753175764,"current_range_meters":3600,"station_id":"","pricing_plan_id":"cebpf4jnsgd1na2vs0mg"},{"bike_id":"630e83cd-6fcf-4ccd-bb9a-cce7e93f11d6","system_id":"levelo_inurba_marseille","lat":43.27377,"lon":5.36227,"is_reserved":false,"is_disabled":true,"rental_uris":{"android":"levelo://app?vid=630e83cd-6fcf-4ccd-bb9a-cce7e93f11d6","ios":"levelo://app?vid=630e83cd-6fcf-4ccd-bb9a-cce7e93f11d6"},"vehicle_type_id":"4","last_reported":1753175764,"current_range_meters":3600,"station_id":"ce4bhbh2rcd13ifvqeo0","pricing_plan_id":"cebpf4jnsgd1na2vs0mg"},{"bike_id":"822c14a5-4d60-4814-bcb8-1178b16a0e42","system_id":"levelo_inurba_marseille","lat":43.29573,"lon":5.37522,"is_reserved":false,"is_disabled":false,"rental_uris":{"android":"levelo://app?vid=822c14a5-4d60-4814-bcb8-1178b16a0e42","ios":"levelo://app?vid=822c14a5-4d60-4814-bcb8-1178b16a0e42"},"vehicle_type_id":"4","last_reported":1753175764,"current_range_meters":3600,"station_id":"ce4bgh92rcd13ifvqb50","pricing_plan_id":"cebpf4jnsgd1na2vs0mg"},{"bike_id":"1acd4a96-372c-4f1e-bcaf-9ab1ad9efb02","system_id":"levelo_inurba_marseille","lat":43.230631,"lon":5.354765,"is_reserved":false,"is_disabled":false,"rental_uris":{"android":"levelo://app?vid=1acd4a96-372c-4f1e-bcaf-9ab1ad9efb02","ios":"levelo://app?vid=1acd4a96-372c-4f1e-bcaf-9ab1ad9efb02"},"vehicle_type_id":"4","last_reported":1753175764,"current_range_meters":4800,"station_id":"cpo3342slgdg3j2ifvpg","pricing_plan_id":"cebpf4jnsgd1na2vs0mg"},{"bike_id":"e2dbb02c-8aa1-4a6b-b88e-f38d0cbbd114","system_id":"levelo_inurba_marseille","lat":43.29014,"lon":5.35615,"is_reserved":false,"is_disabled":false,"rental_uris":{"android":"levelo://app?vid=e2dbb02c-8aa1-4a6b-b88e-f38d0cbbd114","ios":"levelo://app?vid=e2dbb02c-8aa1-4a6b-b88e-f38d0cbbd114"},"vehicle_type_id":"4","last_reported":1753175764,"current_range_meters":5600,"station_id":"ce4bhb92rcd13ifvqen0","pricing_plan_id":"cebpf4jnsgd1na2vs0mg"},{"bike_id":"54c62cfd-190d-4a0a-99a0-7a5cc5804e08","system_id":"levelo_inurba_marseille","lat":43.21227,"lon":5.35085,"is_reserved":false,"is_disabled":false,"rental_uris":{"android":"levelo://app?vid=54c62cfd-190d-4a0a-99a0-7a5cc5804e08","ios":"levelo://app?vid=54c62cfd-190d-4a0a-99a0-7a5cc5804e08"},"vehicle_type_id":"4","last_reported":1753175764,"current_range_meters":6000,"station_id":"","pricing_plan_id":"cebpf4jnsgd1na2vs0mg"},{"bike_id":"e7349e47-8188-4fc1-98e6-c175d05fdb3f","system_id":"levelo_inurba_marseille","lat":43.292241,"lon":5.360513,"is_reserved":false,"is_disabled":true,"rental_uris":{"android":"levelo://app?vid=e7349e47-8188-4fc1-98e6-c175d05fdb3f","ios":"levelo://app?vid=e7349e47-8188-4fc1-98e6-c175d05fdb3f"},"vehicle_type_id":"4","last_reported":1753175764,"current_range_meters":6000,"station_id":"ce4bhbh2rcd13ifvqeqg","pricing_plan_id":"cebpf4jnsgd1na2vs0mg"},{"bike_id":"68a02d27-8989-4e27-8947-b4b66f254ef1","system_id":"levelo_inurba_marseille","lat":43.27371,"lon":5.36237,"is_reserved":false,"is_disabled":false,"rental_uris":{"android":"levelo://app?vid=68a02d27-8989-4e27-8947-b4b66f254ef1","ios":"levelo://app?vid=68a02d27-8989-4e27-8947-b4b66f254ef1"},"vehicle_type_id":"4","last_reported":1753175764,"current_range_meters":6400,"station_id":"ce4bhbh2rcd13ifvqeo0","pricing_plan_id":"cebpf4jnsgd1na2vs0mg"},{"bike_id":"95474b30-1b51-43c6-af53-92046459d8ed","system_id":"levelo_inurba_marseille","lat":43.26793,"lon":5.39409,"is_reserved":false,"is_disabled":false,"rental_uris":{"android":"levelo://app?vid=95474b30-1b51-43c6-af53-92046459d8ed","ios":"levelo://app?vid=95474b30-1b51-43c6-af53-92046459d8ed"},"vehicle_type_id":"4","last_reported":1753175764,"current_range_meters":6400,"station_id":"ce4bhh12rcd13ifvqfg0","pricing_plan_id":"cebpf4jnsgd1na2vs0mg"},{"bike_id":"40a8f93b-bb72-4ebe-adbd-6e13622724e0","system_id":"levelo_inurba_marseille","lat":43.29254,"lon":5.36851,"is_reserved":false,"is_disabled":true,"rental_uris":{"android":"levelo://app?vid=40a8f93b-bb72-4ebe-adbd-6e13622724e0","ios":"levelo://app?vid=40a8f93b-bb72-4ebe-adbd-6e13622724e0"},"vehicle_type_id":"4","last_reported":1753175764,"current_range_meters":6800,"station_id":"ce4bhbp2rcd13ifvqesg","pricing_plan_id":"cebpf4jnsgd1na2vs0mg"},{"bike_id":"7263eef9-e6a5-46f3-89e4-485ef19a44e0","system_id":"levelo_inurba_marseille","lat":43.27076,"lon":5.42281,"is_reserved":false,"is_disabled":false,"rental_uris":{"android":"levelo://app?vid=7263eef9-e6a5-46f3-89e4-485ef19a44e0","ios":"levelo://app?vid=7263eef9-e6a5-46f3-89e4-485ef19a44e0"},"vehicle_type_id":"4","last_reported":1753175764,"current_range_meters":6800,"station_id":"ce4bhk92rcd13ifvqgb0","pricing_plan_id":"cebpf4jnsgd1na2vs0mg"},{"bike_id":"8cac8672-6209-4b19-bca2-e64fa9998d3d","system_id":"levelo_inurba_marseille","lat":43.27803,"lon":5.35505,"is_reserved":false,"is_disabled":false,"rental_uris":{"android":"levelo://app?vid=8cac8672-6209-4b19-bca2-e64fa9998d3d","ios":"levelo://app?vid=8cac8672-6209-4b19-bca2-e64fa9998d3d"},"vehicle_type_id":"4","last_reported":1753175764,"current_range_meters":7200,"station_id":"","pricing_plan_id":"cebpf4jnsgd1na2vs0mg"},{"bike_id":"94ff4f54-c997-4641-a241-dedccd2ae4e8","system_id":"levelo_inurba_marseille","lat":43.26784,"lon":5.39416,"is_reserved":false,"is_disabled":false,"rental_uris":{"android":"levelo://app?vid=94ff4f54-c997-4641-a241-dedccd2ae4e8","ios":"levelo://app?vid=94ff4f54-c997-4641-a241-dedccd2ae4e8"},"vehicle_type_id":"4","last_reported":1753175764,"current_range_meters":7200,"station_id":"ce4bhh12rcd13ifvqfg0","pricing_plan_id":"cebpf4jnsgd1na2vs0mg"},{"bike_id":"e022a396-1cda-41e1-a581-20bbc6133ccf","system_id":"levelo_inurba_marseille","lat":43.21189,"lon":5.3515,"is_reserved":false,"is_disabled":false,"rental_uris":{"android":"levelo://app?vid=e022a396-1cda-41e1-a581-20bbc6133ccf","ios":"levelo://app?vid=e022a396-1cda-41e1-a581-20bbc6133ccf"},"vehicle_type_id":"4","last_reported":1753175764,"current_range_meters":8000,"station_id":"","pricing_plan_id":"cebpf4jnsgd1na2vs0mg"},{"bike_id":"82ce5bf2-a133-42f5-ac0a-199c2b10aaf0","system_id":"levelo_inurba_marseille","lat":43.2904,"lon":5.39976,"is_reserved":false,"is_disabled":false,"rental_uris":{"android":"levelo://app?vid=82ce5bf2-a133-42f5-ac0a-199c2b10aaf0","ios":"levelo://app?vid=82ce5bf2-a133-42f5-ac0a-199c2b10aaf0"},"vehicle_type_id":"4","last_reported":1753175764,"current_range_meters":4400,"station_id":"ce4bh392rcd13ifvqdm0","pricing_plan_id":"cebpf4jnsgd1na2vs0mg"},{"bike_id":"03900d61-efef-44f1-8d53-94a06d49837c","system_id":"levelo_inurba_marseille","lat":43.28155,"lon":5.42644,"is_reserved":false,"is_disabled":false,"rental_uris":{"android":"levelo://app?vid=03900d61-efef-44f1-8d53-94a06d49837c","ios":"levelo://app?vid=03900d61-efef-44f1-8d53-94a06d49837c"},"vehicle_type_id":"4","last_reported":1753175764,"current_range_meters":8000,"station_id":"ce4bhnh2rcd13ifvqgug","pricing_plan_id":"cebpf4jnsgd1na2vs0mg"},{"bike_id":"dc770b94-2234-4c78-a265-127327b9e8d0","system_id":"levelo_inurba_marseille","lat":43.29383,"lon":5.37861,"is_reserved":false,"is_disabled":false,"rental_uris":{"android":"levelo://app?vid=dc770b94-2234-4c78-a265-127327b9e8d0","ios":"levelo://app?vid=dc770b94-2234-4c78-a265-127327b9e8d0"},"vehicle_type_id":"4","last_reported":1753175764,"current_range_meters":8800,"station_id":"ce4bgjh2rcd13ifvqbf0","pricing_plan_id":"cebpf4jnsgd1na2vs0mg"},{"bike_id":"44be4a2f-b012-43e4-ad0e-4da3c7f705fe","system_id":"levelo_inurba_marseille","lat":43.31235,"lon":5.36856,"is_reserved":false,"is_disabled":false,"rental_uris":{"android":"levelo://app?vid=44be4a2f-b012-43e4-ad0e-4da3c7f705fe","ios":"levelo://app?vid=44be4a2f-b012-43e4-ad0e-4da3c7f705fe"},"vehicle_type_id":"4","last_reported":1753175764,"current_range_meters":8800,"station_id":"ce4bgl92rcd13ifvqbq0","pricing_plan_id":"cebpf4jnsgd1na2vs0mg"},{"bike_id":"88fec725-e2b6-4366-be2b-4c89051d5756","system_id":"levelo_inurba_marseille","lat":43.31233,"lon":5.36901,"is_reserved":false,"is_disabled":false,"rental_uris":{"android":"levelo://app?vid=88fec725-e2b6-4366-be2b-4c89051d5756","ios":"levelo://app?vid=88fec725-e2b6-4366-be2b-4c89051d5756"},"vehicle_type_id":"4","last_reported":1753175764,"current_range_meters":8800,"station_id":"ce4bgl92rcd13ifvqbq0","pricing_plan_id":"cebpf4jnsgd1na2vs0mg"},{"bike_id":"e1c8ecda-08c6-445c-a782-d40045c154d3","system_id":"levelo_inurba_marseille","lat":43.28615,"lon":5.3512,"is_reserved":false,"is_disabled":true,"rental_uris":{"android":"levelo://app?vid=e1c8ecda-08c6-445c-a782-d40045c154d3","ios":"levelo://app?vid=e1c8ecda-08c6-445c-a782-d40045c154d3"},"vehicle_type_id":"4","last_reported":1753175764,"current_range_meters":9200,"station_id":"ce4bhch2rcd13ifvqeug","pricing_plan_id":"cebpf4jnsgd1na2vs0mg"},{"bike_id":"de606ade-d3cf-4732-91c7-4c906a8829c4","system_id":"levelo_inurba_marseille","lat":43.26501,"lon":5.39535,"is_reserved":false,"is_disabled":false,"rental_uris":{"android":"levelo://app?vid=de606ade-d3cf-4732-91c7-4c906a8829c4","ios":"levelo://app?vid=de606ade-d3cf-4732-91c7-4c906a8829c4"},"vehicle_type_id":"4","last_reported":1753175764,"current_range_meters":9200,"station_id":"ce4bhi12rcd13ifvqfq0","pricing_plan_id":"cebpf4jnsgd1na2vs0mg"},{"bike_id":"72a49f3e-d8e6-4483-bcf5-e3b6e75f469f","system_id":"levelo_inurba_marseille","lat":43.3121,"lon":5.3686,"is_reserved":false,"is_disabled":true,"rental_uris":{"android":"levelo://app?vid=72a49f3e-d8e6-4483-bcf5-e3b6e75f469f","ios":"levelo://app?vid=72a49f3e-d8e6-4483-bcf5-e3b6e75f469f"},"vehicle_type_id":"4","last_reported":1753175764,"current_range_meters":9200,"station_id":"ce4bgl92rcd13ifvqbq0","pricing_plan_id":"cebpf4jnsgd1na2vs0mg"},{"bike_id":"0aebb111-1993-4345-9a82-317e6e0432bc","system_id":"levelo_inurba_marseille","lat":43.2678,"lon":5.39418,"is_reserved":false,"is_disabled":false,"rental_uris":{"android":"levelo://app?vid=0aebb111-1993-4345-9a82-317e6e0432bc","ios":"levelo://app?vid=0aebb111-1993-4345-9a82-317e6e0432bc"},"vehicle_type_id":"4","last_reported":1753175764,"current_range_meters":9200,"station_id":"ce4bhh12rcd13ifvqfg0","pricing_plan_id":"cebpf4jnsgd1na2vs0mg"},{"bike_id":"7d7f0de1-97e3-4c83-9a53-aa3e43c0ba27","system_id":"levelo_inurba_marseille","lat":43.27971,"lon":5.38728,"is_reserved":false,"is_disabled":false,"rental_uris":{"android":"levelo://app?vid=7d7f0de1-97e3-4c83-9a53-aa3e43c0ba27","ios":"levelo://app?vid=7d7f0de1-97e3-4c83-9a53-aa3e43c0ba27"},"vehicle_type_id":"4","last_reported":1753175764,"current_range_meters":9200,"station_id":"ce4bhg12rcd13ifvqf80","pricing_plan_id":"cebpf4jnsgd1na2vs0mg"},{"bike_id":"a500a999-7108-4981-ad31-aac980df6535","system_id":"levelo_inurba_marseille","lat":43.33608,"lon":5.41038,"is_reserved":false,"is_disabled":false,"rental_uris":{"android":"levelo://app?vid=a500a999-7108-4981-ad31-aac980df6535","ios":"levelo://app?vid=a500a999-7108-4981-ad31-aac980df6535"},"vehicle_type_id":"4","last_reported":1753175764,"current_range_meters":9600,"station_id":"ce4bhqh2rcd13ifvqhmg","pricing_plan_id":"cebpf4jnsgd1na2vs0mg"},{"bike_id":"07481afa-6635-4dc1-8a31-8a97247e4afb","system_id":"levelo_inurba_marseille","lat":43.21202,"lon":5.35079,"is_reserved":false,"is_disabled":false,"rental_uris":{"android":"levelo://app?vid=07481afa-6635-4dc1-8a31-8a97247e4afb","ios":"levelo://app?vid=07481afa-6635-4dc1-8a31-8a97247e4afb"},"vehicle_type_id":"4","last_reported":1753175764,"current_range_meters":9600,"station_id":"st_cvj6sg6p6f1abm77japg","pricing_plan_id":"cebpf4jnsgd1na2vs0mg"},{"bike_id":"7f2a6111-ce43-4650-9862-be6946b9131f","system_id":"levelo_inurba_marseille","lat":43.29881,"lon":5.39735,"is_reserved":false,"is_disabled":false,"rental_uris":{"android":"levelo://app?vid=7f2a6111-ce43-4650-9862-be6946b9131f","ios":"levelo://app?vid=7f2a6111-ce43-4650-9862-be6946b9131f"},"vehicle_type_id":"4","last_reported":1753175764,"current_range_meters":9600,"station_id":"ce4bh0h2rcd13ifvqd50","pricing_plan_id":"cebpf4jnsgd1na2vs0mg"},{"bike_id":"c3622956-1ba0-4f60-b9ef-b69da0bf1e85","system_id":"levelo_inurba_marseille","lat":43.27619,"lon":5.36116,"is_reserved":false,"is_disabled":false,"rental_uris":{"android":"levelo://app?vid=c3622956-1ba0-4f60-b9ef-b69da0bf1e85","ios":"levelo://app?vid=c3622956-1ba0-4f60-b9ef-b69da0bf1e85"},"vehicle_type_id":"4","last_reported":1753175764,"current_range_meters":9600,"station_id":"ce4bgj92rcd13ifvqbe0","pricing_plan_id":"cebpf4jnsgd1na2vs0mg"},{"bike_id":"6afe7bd9-2b5b-4150-86da-92fe05b1bee8","system_id":"levelo_inurba_marseille","lat":43.29252,"lon":5.38468,"is_reserved":false,"is_disabled":false,"rental_uris":{"android":"levelo://app?vid=6afe7bd9-2b5b-4150-86da-92fe05b1bee8","ios":"levelo://app?vid=6afe7bd9-2b5b-4150-86da-92fe05b1bee8"},"vehicle_type_id":"4","last_reported":1753175764,"current_range_meters":9600,"station_id":"ce4bh692rcd13ifvqea0","pricing_plan_id":"cebpf4jnsgd1na2vs0mg"},{"bike_id":"21889dce-5d99-432c-a0ce-f00399b22944","system_id":"levelo_inurba_marseille","lat":43.29716,"lon":5.36622,"is_reserved":false,"is_disabled":false,"rental_uris":{"android":"levelo://app?vid=21889dce-5d99-432c-a0ce-f00399b22944","ios":"levelo://app?vid=21889dce-5d99-432c-a0ce-f00399b22944"},"vehicle_type_id":"4","last_reported":1753175764,"current_range_meters":9600,"station_id":"ce4bgn12rcd13ifvqbt0","pricing_plan_id":"cebpf4jnsgd1na2vs0mg"},{"bike_id":"328e472f-5ae1-4ad9-833e-8bfd84d0df0a","system_id":"levelo_inurba_marseille","lat":43.27988,"lon":5.39924,"is_reserved":false,"is_disabled":false,"rental_uris":{"android":"levelo://app?vid=328e472f-5ae1-4ad9-833e-8bfd84d0df0a","ios":"levelo://app?vid=328e472f-5ae1-4ad9-833e-8bfd84d0df0a"},"vehicle_type_id":"4","last_reported":1753175764,"current_range_meters":10000,"station_id":"","pricing_plan_id":"cebpf4jnsgd1na2vs0mg"},{"bike_id":"bdff1962-275d-4b53-afd1-b8d66b172017","system_id":"levelo_inurba_marseille","lat":43.28109,"lon":5.37842,"is_reserved":false,"is_disabled":false,"rental_uris":{"android":"levelo://app?vid=bdff1962-275d-4b53-afd1-b8d66b172017","ios":"levelo://app?vid=bdff1962-275d-4b53-afd1-b8d66b172017"},"vehicle_type_id":"4","last_reported":1753175764,"current_range_meters":10800,"station_id":"ce4bha12rcd13ifvqee0","pricing_plan_id":"cebpf4jnsgd1na2vs0mg"},{"bike_id":"d485f597-db0c-4d03-a6b7-f0eec45f33b2","system_id":"levelo_inurba_marseille","lat":43.2925,"lon":5.36855,"is_reserved":false,"is_disabled":true,"rental_uris":{"android":"levelo://app?vid=d485f597-db0c-4d03-a6b7-f0eec45f33b2","ios":"levelo://app?vid=d485f597-db0c-4d03-a6b7-f0eec45f33b2"},"vehicle_type_id":"4","last_reported":1753175764,"current_range_meters":10000,"station_id":"ce4bhbp2rcd13ifvqesg","pricing_plan_id":"cebpf4jnsgd1na2vs0mg"},{"bike_id":"eaff56b1-d219-42d3-ad41-870cb8ed5924","system_id":"levelo_inurba_marseille","lat":43.279,"lon":5.38029,"is_reserved":false,"is_disabled":false,"rental_uris":{"android":"levelo://app?vid=eaff56b1-d219-42d3-ad41-870cb8ed5924","ios":"levelo://app?vid=eaff56b1-d219-42d3-ad41-870cb8ed5924"},"vehicle_type_id":"4","last_reported":1753175764,"current_range_meters":10000,"station_id":"ce4bhf92rcd13ifvqf50","pricing_plan_id":"cebpf4jnsgd1na2vs0mg"},{"bike_id":"c1d4aac4-0a82-48c5-be3b-40123de4c1fe","system_id":"levelo_inurba_marseille","lat":43.2306,"lon":5.35485,"is_reserved":false,"is_disabled":false,"rental_uris":{"android":"levelo://app?vid=c1d4aac4-0a82-48c5-be3b-40123de4c1fe","ios":"levelo://app?vid=c1d4aac4-0a82-48c5-be3b-40123de4c1fe"},"vehicle_type_id":"4","last_reported":1753175764,"current_range_meters":10000,"station_id":"cpo3342slgdg3j2ifvpg","pricing_plan_id":"cebpf4jnsgd1na2vs0mg"},{"bike_id":"ac49738a-4d4f-43d3-9c67-46980e61ae95","system_id":"levelo_inurba_marseille","lat":43.31704,"lon":5.37674,"is_reserved":false,"is_disabled":false,"rental_uris":{"android":"levelo://app?vid=ac49738a-4d4f-43d3-9c67-46980e61ae95","ios":"levelo://app?vid=ac49738a-4d4f-43d3-9c67-46980e61ae95"},"vehicle_type_id":"4","last_reported":1753175764,"current_range_meters":10000,"station_id":"","pricing_plan_id":"cebpf4jnsgd1na2vs0mg"},{"bike_id":"e301f9a0-beba-449a-a05b-e2d0a6a3e801","system_id":"levelo_inurba_marseille","lat":43.27047,"lon":5.402478,"is_reserved":false,"is_disabled":false,"rental_uris":{"android":"levelo://app?vid=e301f9a0-beba-449a-a05b-e2d0a6a3e801","ios":"levelo://app?vid=e301f9a0-beba-449a-a05b-e2d0a6a3e801"},"vehicle_type_id":"4","last_reported":1753175764,"current_range_meters":10000,"station_id":"ce4bhk92rcd13ifvqgc0","pricing_plan_id":"cebpf4jnsgd1na2vs0mg"},{"bike_id":"c4ddf749-008b-4a14-af16-f3a13a431402","system_id":"levelo_inurba_marseille","lat":43.21191,"lon":5.35084,"is_reserved":false,"is_disabled":false,"rental_uris":{"android":"levelo://app?vid=c4ddf749-008b-4a14-af16-f3a13a431402","ios":"levelo://app?vid=c4ddf749-008b-4a14-af16-f3a13a431402"},"vehicle_type_id":"4","last_reported":1753175764,"current_range_meters":10800,"station_id":"st_cvj6sg6p6f1abm77japg","pricing_plan_id":"cebpf4jnsgd1na2vs0mg"},{"bike_id":"f4c4985c-0c9a-4443-bda2-a110a13fba9b","system_id":"levelo_inurba_marseille","lat":43.33025,"lon":5.39041,"is_reserved":false,"is_disabled":false,"rental_uris":{"android":"levelo://app?vid=f4c4985c-0c9a-4443-bda2-a110a13fba9b","ios":"levelo://app?vid=f4c4985c-0c9a-4443-bda2-a110a13fba9b"},"vehicle_type_id":"4","last_reported":1753175764,"current_range_meters":10000,"station_id":"ce4bhr92rcd13ifvqhrg","pricing_plan_id":"cebpf4jnsgd1na2vs0mg"},{"bike_id":"3117258b-a0b2-4038-960e-7505313a6719","system_id":"levelo_inurba_marseille","lat":43.32117,"lon":5.36813,"is_reserved":false,"is_disabled":false,"rental_uris":{"android":"levelo://app?vid=3117258b-a0b2-4038-960e-7505313a6719","ios":"levelo://app?vid=3117258b-a0b2-4038-960e-7505313a6719"},"vehicle_type_id":"4","last_reported":1753175764,"current_range_meters":10800,"station_id":"ce4bhrh2rcd13ifvqhug","pricing_plan_id":"cebpf4jnsgd1na2vs0mg"},{"bike_id":"523d528a-80ef-4c0a-986f-e24abf3cd641","system_id":"levelo_inurba_marseille","lat":43.27359,"lon":5.39106,"is_reserved":false,"is_disabled":false,"rental_uris":{"android":"levelo://app?vid=523d528a-80ef-4c0a-986f-e24abf3cd641","ios":"levelo://app?vid=523d528a-80ef-4c0a-986f-e24abf3cd641"},"vehicle_type_id":"4","last_reported":1753175764,"current_range_meters":10800,"station_id":"ce4bhgp2rcd13ifvqfe0","pricing_plan_id":"cebpf4jnsgd1na2vs0mg"},{"bike_id":"21427e62-22bf-47dd-9b4b-c2510b72cf88","system_id":"levelo_inurba_marseille","lat":43.31353,"lon":5.36732,"is_reserved":false,"is_disabled":false,"rental_uris":{"android":"levelo://app?vid=21427e62-22bf-47dd-9b4b-c2510b72cf88","ios":"levelo://app?vid=21427e62-22bf-47dd-9b4b-c2510b72cf88"},"vehicle_type_id":"4","last_reported":1753175764,"current_range_meters":10800,"station_id":"ce4bgr92rcd13ifvqc6g","pricing_plan_id":"cebpf4jnsgd1na2vs0mg"},{"bike_id":"950a2446-ae16-41d5-862b-3ec953529785","system_id":"levelo_inurba_marseille","lat":43.28862,"lon":5.39319,"is_reserved":false,"is_disabled":false,"rental_uris":{"android":"levelo://app?vid=950a2446-ae16-41d5-862b-3ec953529785","ios":"levelo://app?vid=950a2446-ae16-41d5-862b-3ec953529785"},"vehicle_type_id":"4","last_reported":1753175764,"current_range_meters":10800,"station_id":"ce4bh2p2rcd13ifvqdi0","pricing_plan_id":"cebpf4jnsgd1na2vs0mg"},{"bike_id":"3c2ae15b-c63e-4e60-a23c-f2cd658ec68f","system_id":"levelo_inurba_marseille","lat":43.29024,"lon":5.3814,"is_reserved":false,"is_disabled":false,"rental_uris":{"android":"levelo://app?vid=3c2ae15b-c63e-4e60-a23c-f2cd658ec68f","ios":"levelo://app?vid=3c2ae15b-c63e-4e60-a23c-f2cd658ec68f"},"vehicle_type_id":"4","last_reported":1753175764,"current_range_meters":11200,"station_id":"ce4bh4p2rcd13ifvqe1g","pricing_plan_id":"cebpf4jnsgd1na2vs0mg"},{"bike_id":"1c22819b-ef69-41c3-af80-068c7a58af48","system_id":"levelo_inurba_marseille","lat":43.321062,"lon":5.367836,"is_reserved":false,"is_disabled":false,"rental_uris":{"android":"levelo://app?vid=1c22819b-ef69-41c3-af80-068c7a58af48","ios":"levelo://app?vid=1c22819b-ef69-41c3-af80-068c7a58af48"},"vehicle_type_id":"4","last_reported":1753175764,"current_range_meters":11200,"station_id":"ce4bhrh2rcd13ifvqhug","pricing_plan_id":"cebpf4jnsgd1na2vs0mg"},{"bike_id":"6ecd5a2b-6dae-44b3-a162-e5286af43d43","system_id":"levelo_inurba_marseille","lat":43.225013,"lon":5.347906,"is_reserved":false,"is_disabled":false,"rental_uris":{"android":"levelo://app?vid=6ecd5a2b-6dae-44b3-a162-e5286af43d43","ios":"levelo://app?vid=6ecd5a2b-6dae-44b3-a162-e5286af43d43"},"vehicle_type_id":"4","last_reported":1753175764,"current_range_meters":11200,"station_id":"st_cvj5dfep6f1abm77gieg","pricing_plan_id":"cebpf4jnsgd1na2vs0mg"},{"bike_id":"a2559ce4-aa90-4467-91f0-d1b2f7dbc0a4","system_id":"levelo_inurba_marseille","lat":43.303081,"lon":5.4009,"is_reserved":false,"is_disabled":true,"rental_uris":{"android":"levelo://app?vid=a2559ce4-aa90-4467-91f0-d1b2f7dbc0a4","ios":"levelo://app?vid=a2559ce4-aa90-4467-91f0-d1b2f7dbc0a4"},"vehicle_type_id":"4","last_reported":1753175764,"current_range_meters":11600,"station_id":"ce4bh112rcd13ifvqda0","pricing_plan_id":"cebpf4jnsgd1na2vs0mg"},{"bike_id":"91d08a97-f4ec-47ae-aba7-eb40d08db0f5","system_id":"levelo_inurba_marseille","lat":43.21193,"lon":5.350689,"is_reserved":false,"is_disabled":false,"rental_uris":{"android":"levelo://app?vid=91d08a97-f4ec-47ae-aba7-eb40d08db0f5","ios":"levelo://app?vid=91d08a97-f4ec-47ae-aba7-eb40d08db0f5"},"vehicle_type_id":"4","last_reported":1753175764,"current_range_meters":11600,"station_id":"st_cvj6sg6p6f1abm77japg","pricing_plan_id":"cebpf4jnsgd1na2vs0mg"},{"bike_id":"ba09aa99-a00f-4707-85ea-1b83c89ddc48","system_id":"levelo_inurba_marseille","lat":43.30462,"lon":5.37901,"is_reserved":false,"is_disabled":false,"rental_uris":{"android":"levelo://app?vid=ba09aa99-a00f-4707-85ea-1b83c89ddc48","ios":"levelo://app?vid=ba09aa99-a00f-4707-85ea-1b83c89ddc48"},"vehicle_type_id":"4","last_reported":1753175764,"current_range_meters":11600,"station_id":"ce4bgup2rcd13ifvqcn0","pricing_plan_id":"cebpf4jnsgd1na2vs0mg"},{"bike_id":"174f0f0d-7f54-40ea-b701-c5633315f36a","system_id":"levelo_inurba_marseille","lat":43.30193,"lon":5.36637,"is_reserved":false,"is_disabled":false,"rental_uris":{"android":"levelo://app?vid=174f0f0d-7f54-40ea-b701-c5633315f36a","ios":"levelo://app?vid=174f0f0d-7f54-40ea-b701-c5633315f36a"},"vehicle_type_id":"4","last_reported":1753175764,"current_range_meters":12000,"station_id":"ce4bgrh2rcd13ifvqc8g","pricing_plan_id":"cebpf4jnsgd1na2vs0mg"},{"bike_id":"85b008dd-0f9f-4205-aa28-4f549082c3e6","system_id":"levelo_inurba_marseille","lat":43.21194,"lon":5.35133,"is_reserved":false,"is_disabled":false,"rental_uris":{"android":"levelo://app?vid=85b008dd-0f9f-4205-aa28-4f549082c3e6","ios":"levelo://app?vid=85b008dd-0f9f-4205-aa28-4f549082c3e6"},"vehicle_type_id":"4","last_reported":1753175764,"current_range_meters":12000,"station_id":"st_cvj6sg6p6f1abm77japg","pricing_plan_id":"cebpf4jnsgd1na2vs0mg"},{"bike_id":"ba2b3a99-8668-4f5d-bab3-0079c47bd454","system_id":"levelo_inurba_marseille","lat":43.32536,"lon":5.41491,"is_reserved":false,"is_disabled":false,"rental_uris":{"android":"levelo://app?vid=ba2b3a99-8668-4f5d-bab3-0079c47bd454","ios":"levelo://app?vid=ba2b3a99-8668-4f5d-bab3-0079c47bd454"},"vehicle_type_id":"4","last_reported":1753175764,"current_range_meters":12000,"station_id":"ce4bhq12rcd13ifvqhhg","pricing_plan_id":"cebpf4jnsgd1na2vs0mg"},{"bike_id":"428942ae-179c-4d5f-8592-8493a768c578","system_id":"levelo_inurba_marseille","lat":43.239645,"lon":5.366265,"is_reserved":false,"is_disabled":false,"rental_uris":{"android":"levelo://app?vid=428942ae-179c-4d5f-8592-8493a768c578","ios":"levelo://app?vid=428942ae-179c-4d5f-8592-8493a768c578"},"vehicle_type_id":"4","last_reported":1753175764,"current_range_meters":12000,"station_id":"ce4bhi12rcd13ifvqfp0","pricing_plan_id":"cebpf4jnsgd1na2vs0mg"},{"bike_id":"b62c52b2-2598-4d60-b21c-78470ede2285","system_id":"levelo_inurba_marseille","lat":43.30548,"lon":5.365273,"is_reserved":false,"is_disabled":false,"rental_uris":{"android":"levelo://app?vid=b62c52b2-2598-4d60-b21c-78470ede2285","ios":"levelo://app?vid=b62c52b2-2598-4d60-b21c-78470ede2285"},"vehicle_type_id":"4","last_reported":1753175764,"current_range_meters":12400,"station_id":"ce4bgs12rcd13ifvqcag","pricing_plan_id":"cebpf4jnsgd1na2vs0mg"},{"bike_id":"1eef45c2-ccdc-4d31-8643-6312bbf498a1","system_id":"levelo_inurba_marseille","lat":43.33048,"lon":5.37826,"is_reserved":false,"is_disabled":true,"rental_uris":{"android":"levelo://app?vid=1eef45c2-ccdc-4d31-8643-6312bbf498a1","ios":"levelo://app?vid=1eef45c2-ccdc-4d31-8643-6312bbf498a1"},"vehicle_type_id":"4","last_reported":1753175764,"current_range_meters":12400,"station_id":"","pricing_plan_id":"cebpf4jnsgd1na2vs0mg"},{"bike_id":"8423e589-47bf-47a8-b90f-452fc938c46b","system_id":"levelo_inurba_marseille","lat":43.323574,"lon":5.36749,"is_reserved":false,"is_disabled":false,"rental_uris":{"android":"levelo://app?vid=8423e589-47bf-47a8-b90f-452fc938c46b","ios":"levelo://app?vid=8423e589-47bf-47a8-b90f-452fc938c46b"},"vehicle_type_id":"4","last_reported":1753175764,"current_range_meters":12400,"station_id":"ce4bhsh2rcd13ifvqi2g","pricing_plan_id":"cebpf4jnsgd1na2vs0mg"},{"bike_id":"fb0bd549-e8fc-4767-99bd-b67f7f9a54d0","system_id":"levelo_inurba_marseille","lat":43.31244,"lon":5.36885,"is_reserved":false,"is_disabled":false,"rental_uris":{"android":"levelo://app?vid=fb0bd549-e8fc-4767-99bd-b67f7f9a54d0","ios":"levelo://app?vid=fb0bd549-e8fc-4767-99bd-b67f7f9a54d0"},"vehicle_type_id":"4","last_reported":1753175764,"current_range_meters":12400,"station_id":"ce4bgl92rcd13ifvqbq0","pricing_plan_id":"cebpf4jnsgd1na2vs0mg"},{"bike_id":"50d16da1-39af-48c8-9080-8fc1a2184959","system_id":"levelo_inurba_marseille","lat":43.21187,"lon":5.35072,"is_reserved":false,"is_disabled":false,"rental_uris":{"android":"levelo://app?vid=50d16da1-39af-48c8-9080-8fc1a2184959","ios":"levelo://app?vid=50d16da1-39af-48c8-9080-8fc1a2184959"},"vehicle_type_id":"4","last_reported":1753175764,"current_range_meters":12400,"station_id":"st_cvj6sg6p6f1abm77japg","pricing_plan_id":"cebpf4jnsgd1na2vs0mg"},{"bike_id":"57697c05-daad-407d-9d65-90cb78fc186b","system_id":"levelo_inurba_marseille","lat":43.313756,"lon":5.367347,"is_reserved":false,"is_disabled":false,"rental_uris":{"android":"levelo://app?vid=57697c05-daad-407d-9d65-90cb78fc186b","ios":"levelo://app?vid=57697c05-daad-407d-9d65-90cb78fc186b"},"vehicle_type_id":"4","last_reported":1753175764,"current_range_meters":12800,"station_id":"ce4bgr92rcd13ifvqc6g","pricing_plan_id":"cebpf4jnsgd1na2vs0mg"},{"bike_id":"b6191c96-af83-462f-a3cc-e4778a781fff","system_id":"levelo_inurba_marseille","lat":43.21197,"lon":5.35065,"is_reserved":false,"is_disabled":false,"rental_uris":{"android":"levelo://app?vid=b6191c96-af83-462f-a3cc-e4778a781fff","ios":"levelo://app?vid=b6191c96-af83-462f-a3cc-e4778a781fff"},"vehicle_type_id":"4","last_reported":1753175764,"current_range_meters":12800,"station_id":"st_cvj6sg6p6f1abm77japg","pricing_plan_id":"cebpf4jnsgd1na2vs0mg"},{"bike_id":"a5d420c1-6f63-4560-9fe2-e08db2c4fecb","system_id":"levelo_inurba_marseille","lat":43.21229,"lon":5.35083,"is_reserved":false,"is_disabled":false,"rental_uris":{"android":"levelo://app?vid=a5d420c1-6f63-4560-9fe2-e08db2c4fecb","ios":"levelo://app?vid=a5d420c1-6f63-4560-9fe2-e08db2c4fecb"},"vehicle_type_id":"4","last_reported":1753175764,"current_range_meters":12800,"station_id":"","pricing_plan_id":"cebpf4jnsgd1na2vs0mg"},{"bike_id":"648ec125-f26a-4a6d-a3d0-68b8c3f37159","system_id":"levelo_inurba_marseille","lat":43.28409,"lon":5.37507,"is_reserved":false,"is_disabled":false,"rental_uris":{"android":"levelo://app?vid=648ec125-f26a-4a6d-a3d0-68b8c3f37159","ios":"levelo://app?vid=648ec125-f26a-4a6d-a3d0-68b8c3f37159"},"vehicle_type_id":"4","last_reported":1753175764,"current_range_meters":12800,"station_id":"ce4bh412rcd13ifvqds0","pricing_plan_id":"cebpf4jnsgd1na2vs0mg"},{"bike_id":"0a652d8b-7178-49de-8917-cae9b35e5723","system_id":"levelo_inurba_marseille","lat":43.30556,"lon":5.36559,"is_reserved":false,"is_disabled":false,"rental_uris":{"android":"levelo://app?vid=0a652d8b-7178-49de-8917-cae9b35e5723","ios":"levelo://app?vid=0a652d8b-7178-49de-8917-cae9b35e5723"},"vehicle_type_id":"4","last_reported":1753175764,"current_range_meters":13600,"station_id":"ce4bgs12rcd13ifvqcag","pricing_plan_id":"cebpf4jnsgd1na2vs0mg"},{"bike_id":"b64e1836-ca8e-49eb-aabd-ca99962a56ce","system_id":"levelo_inurba_marseille","lat":43.273158,"lon":5.390751,"is_reserved":false,"is_disabled":false,"rental_uris":{"android":"levelo://app?vid=b64e1836-ca8e-49eb-aabd-ca99962a56ce","ios":"levelo://app?vid=b64e1836-ca8e-49eb-aabd-ca99962a56ce"},"vehicle_type_id":"4","last_reported":1753175764,"current_range_meters":13600,"station_id":"ce4bhgp2rcd13ifvqfe0","pricing_plan_id":"cebpf4jnsgd1na2vs0mg"},{"bike_id":"2d6095ea-f882-494d-a187-fa879408181e","system_id":"levelo_inurba_marseille","lat":43.25141,"lon":5.37344,"is_reserved":false,"is_disabled":false,"rental_uris":{"android":"levelo://app?vid=2d6095ea-f882-494d-a187-fa879408181e","ios":"levelo://app?vid=2d6095ea-f882-494d-a187-fa879408181e"},"vehicle_type_id":"4","last_reported":1753175764,"current_range_meters":13600,"station_id":"","pricing_plan_id":"cebpf4jnsgd1na2vs0mg"},{"bike_id":"0cb19f5e-6a19-4fc0-9b18-698188d68bf4","system_id":"levelo_inurba_marseille","lat":43.29726,"lon":5.43265,"is_reserved":false,"is_disabled":false,"rental_uris":{"android":"levelo://app?vid=0cb19f5e-6a19-4fc0-9b18-698188d68bf4","ios":"levelo://app?vid=0cb19f5e-6a19-4fc0-9b18-698188d68bf4"},"vehicle_type_id":"4","last_reported":1753175764,"current_range_meters":14000,"station_id":"","pricing_plan_id":"cebpf4jnsgd1na2vs0mg"},{"bike_id":"5a5db7b6-af2d-4029-8f39-cfa78d44a10d","system_id":"levelo_inurba_marseille","lat":43.276231,"lon":5.361146,"is_reserved":false,"is_disabled":false,"rental_uris":{"android":"levelo://app?vid=5a5db7b6-af2d-4029-8f39-cfa78d44a10d","ios":"levelo://app?vid=5a5db7b6-af2d-4029-8f39-cfa78d44a10d"},"vehicle_type_id":"4","last_reported":1753175764,"current_range_meters":14000,"station_id":"ce4bgj92rcd13ifvqbe0","pricing_plan_id":"cebpf4jnsgd1na2vs0mg"},{"bike_id":"9f1a98d4-039d-4426-af74-6c8d9d65a3b2","system_id":"levelo_inurba_marseille","lat":43.2997,"lon":5.38493,"is_reserved":false,"is_disabled":false,"rental_uris":{"android":"levelo://app?vid=9f1a98d4-039d-4426-af74-6c8d9d65a3b2","ios":"levelo://app?vid=9f1a98d4-039d-4426-af74-6c8d9d65a3b2"},"vehicle_type_id":"4","last_reported":1753175764,"current_range_meters":14000,"station_id":"ce4bgj92rcd13ifvqbd0","pricing_plan_id":"cebpf4jnsgd1na2vs0mg"},{"bike_id":"6940e707-2866-429c-af31-7f2bd9c2bc86","system_id":"levelo_inurba_marseille","lat":43.24168,"lon":5.364,"is_reserved":false,"is_disabled":false,"rental_uris":{"android":"levelo://app?vid=6940e707-2866-429c-af31-7f2bd9c2bc86","ios":"levelo://app?vid=6940e707-2866-429c-af31-7f2bd9c2bc86"},"vehicle_type_id":"4","last_reported":1753175764,"current_range_meters":14000,"station_id":"cpo36qri1sfpv3e86is0","pricing_plan_id":"cebpf4jnsgd1na2vs0mg"},{"bike_id":"7230cb4d-8cd2-4957-9d99-c27265ab6ce1","system_id":"levelo_inurba_marseille","lat":43.29299,"lon":5.37168,"is_reserved":false,"is_disabled":false,"rental_uris":{"android":"levelo://app?vid=7230cb4d-8cd2-4957-9d99-c27265ab6ce1","ios":"levelo://app?vid=7230cb4d-8cd2-4957-9d99-c27265ab6ce1"},"vehicle_type_id":"4","last_reported":1753175764,"current_range_meters":14000,"station_id":"ce4bgh92rcd13ifvqb40","pricing_plan_id":"cebpf4jnsgd1na2vs0mg"},{"bike_id":"6e42bf2b-023d-4ab7-8309-5b029416b917","system_id":"levelo_inurba_marseille","lat":43.29534,"lon":5.38553,"is_reserved":false,"is_disabled":false,"rental_uris":{"android":"levelo://app?vid=6e42bf2b-023d-4ab7-8309-5b029416b917","ios":"levelo://app?vid=6e42bf2b-023d-4ab7-8309-5b029416b917"},"vehicle_type_id":"4","last_reported":1753175764,"current_range_meters":14000,"station_id":"ce4bgih2rcd13ifvqba0","pricing_plan_id":"cebpf4jnsgd1na2vs0mg"},{"bike_id":"06f0e7b5-15a0-4c85-a421-381e139dc51e","system_id":"levelo_inurba_marseille","lat":43.299128,"lon":5.436568,"is_reserved":false,"is_disabled":false,"rental_uris":{"android":"levelo://app?vid=06f0e7b5-15a0-4c85-a421-381e139dc51e","ios":"levelo://app?vid=06f0e7b5-15a0-4c85-a421-381e139dc51e"},"vehicle_type_id":"4","last_reported":1753175764,"current_range_meters":14400,"station_id":"ce4bhpp2rcd13ifvqhfg","pricing_plan_id":"cebpf4jnsgd1na2vs0mg"},{"bike_id":"4d2fb385-600a-460f-817d-c81c8838ad28","system_id":"levelo_inurba_marseille","lat":43.323637,"lon":5.367474,"is_reserved":false,"is_disabled":false,"rental_uris":{"android":"levelo://app?vid=4d2fb385-600a-460f-817d-c81c8838ad28","ios":"levelo://app?vid=4d2fb385-600a-460f-817d-c81c8838ad28"},"vehicle_type_id":"4","last_reported":1753175764,"current_range_meters":14400,"station_id":"ce4bhsh2rcd13ifvqi2g","pricing_plan_id":"cebpf4jnsgd1na2vs0mg"},{"bike_id":"ad8b3b81-6d5c-4c13-aef7-47dee821e64f","system_id":"levelo_inurba_marseille","lat":43.30946,"lon":5.39062,"is_reserved":false,"is_disabled":false,"rental_uris":{"android":"levelo://app?vid=ad8b3b81-6d5c-4c13-aef7-47dee821e64f","ios":"levelo://app?vid=ad8b3b81-6d5c-4c13-aef7-47dee821e64f"},"vehicle_type_id":"4","last_reported":1753175764,"current_range_meters":14400,"station_id":"ce4bgup2rcd13ifvqco0","pricing_plan_id":"cebpf4jnsgd1na2vs0mg"},{"bike_id":"f4647d5e-9ea2-4f15-a604-84b1bbed6272","system_id":"levelo_inurba_marseille","lat":43.29901,"lon":5.43693,"is_reserved":false,"is_disabled":false,"rental_uris":{"android":"levelo://app?vid=f4647d5e-9ea2-4f15-a604-84b1bbed6272","ios":"levelo://app?vid=f4647d5e-9ea2-4f15-a604-84b1bbed6272"},"vehicle_type_id":"4","last_reported":1753175764,"current_range_meters":14400,"station_id":"ce4bhpp2rcd13ifvqhfg","pricing_plan_id":"cebpf4jnsgd1na2vs0mg"},{"bike_id":"418dda29-32a9-4edb-9427-1bc2dc60c1c0","system_id":"levelo_inurba_marseille","lat":43.24618,"lon":5.43728,"is_reserved":false,"is_disabled":true,"rental_uris":{"android":"levelo://app?vid=418dda29-32a9-4edb-9427-1bc2dc60c1c0","ios":"levelo://app?vid=418dda29-32a9-4edb-9427-1bc2dc60c1c0"},"vehicle_type_id":"4","last_reported":1753175764,"current_range_meters":14400,"station_id":"","pricing_plan_id":"cebpf4jnsgd1na2vs0mg"},{"bike_id":"7ff4fc28-cadd-40d7-90f6-f685780a72ea","system_id":"levelo_inurba_marseille","lat":43.24399,"lon":5.37044,"is_reserved":false,"is_disabled":false,"rental_uris":{"android":"levelo://app?vid=7ff4fc28-cadd-40d7-90f6-f685780a72ea","ios":"levelo://app?vid=7ff4fc28-cadd-40d7-90f6-f685780a72ea"},"vehicle_type_id":"4","last_reported":1753175764,"current_range_meters":14800,"station_id":"ce4bhhh2rcd13ifvqfk0","pricing_plan_id":"cebpf4jnsgd1na2vs0mg"},{"bike_id":"ab1970ef-89b5-409e-b573-cb2943b42e78","system_id":"levelo_inurba_marseille","lat":43.28485,"lon":5.38536,"is_reserved":false,"is_disabled":false,"rental_uris":{"android":"levelo://app?vid=ab1970ef-89b5-409e-b573-cb2943b42e78","ios":"levelo://app?vid=ab1970ef-89b5-409e-b573-cb2943b42e78"},"vehicle_type_id":"4","last_reported":1753175764,"current_range_meters":14800,"station_id":"","pricing_plan_id":"cebpf4jnsgd1na2vs0mg"},{"bike_id":"a521607d-1c0a-4b41-a0f1-43c2608320f8","system_id":"levelo_inurba_marseille","lat":43.28212,"lon":5.3948,"is_reserved":false,"is_disabled":false,"rental_uris":{"android":"levelo://app?vid=a521607d-1c0a-4b41-a0f1-43c2608320f8","ios":"levelo://app?vid=a521607d-1c0a-4b41-a0f1-43c2608320f8"},"vehicle_type_id":"4","last_reported":1753175764,"current_range_meters":14800,"station_id":"","pricing_plan_id":"cebpf4jnsgd1na2vs0mg"},{"bike_id":"94cd5dff-e6f8-423f-a340-9d6b8a3e701b","system_id":"levelo_inurba_marseille","lat":43.25937,"lon":5.409,"is_reserved":false,"is_disabled":false,"rental_uris":{"android":"levelo://app?vid=94cd5dff-e6f8-423f-a340-9d6b8a3e701b","ios":"levelo://app?vid=94cd5dff-e6f8-423f-a340-9d6b8a3e701b"},"vehicle_type_id":"4","last_reported":1753175764,"current_range_meters":14800,"station_id":"ce4bhm92rcd13ifvqglg","pricing_plan_id":"cebpf4jnsgd1na2vs0mg"},{"bike_id":"416ae426-400a-43b5-b8b1-e2fceb9acf44","system_id":"levelo_inurba_marseille","lat":43.305264,"lon":5.367035,"is_reserved":false,"is_disabled":false,"rental_uris":{"android":"levelo://app?vid=416ae426-400a-43b5-b8b1-e2fceb9acf44","ios":"levelo://app?vid=416ae426-400a-43b5-b8b1-e2fceb9acf44"},"vehicle_type_id":"4","last_reported":1753175764,"current_range_meters":15200,"station_id":"","pricing_plan_id":"cebpf4jnsgd1na2vs0mg"},{"bike_id":"51019ba2-516f-48c6-8598-3f1af3fb4bc4","system_id":"levelo_inurba_marseille","lat":43.27215,"lon":5.39174,"is_reserved":false,"is_disabled":false,"rental_uris":{"android":"levelo://app?vid=51019ba2-516f-48c6-8598-3f1af3fb4bc4","ios":"levelo://app?vid=51019ba2-516f-48c6-8598-3f1af3fb4bc4"},"vehicle_type_id":"4","last_reported":1753175764,"current_range_meters":15200,"station_id":"ce4bhhp2rcd13ifvqfm0","pricing_plan_id":"cebpf4jnsgd1na2vs0mg"},{"bike_id":"117247f7-a4c7-432a-86ee-400fecf425dc","system_id":"levelo_inurba_marseille","lat":43.30402,"lon":5.42533,"is_reserved":false,"is_disabled":false,"rental_uris":{"android":"levelo://app?vid=117247f7-a4c7-432a-86ee-400fecf425dc","ios":"levelo://app?vid=117247f7-a4c7-432a-86ee-400fecf425dc"},"vehicle_type_id":"4","last_reported":1753175764,"current_range_meters":16000,"station_id":"ce4bhoh2rcd13ifvqh6g","pricing_plan_id":"cebpf4jnsgd1na2vs0mg"},{"bike_id":"f63f1008-77c6-4072-95a4-ddba055831ce","system_id":"levelo_inurba_marseille","lat":43.29298,"lon":5.37433,"is_reserved":false,"is_disabled":false,"rental_uris":{"android":"levelo://app?vid=f63f1008-77c6-4072-95a4-ddba055831ce","ios":"levelo://app?vid=f63f1008-77c6-4072-95a4-ddba055831ce"},"vehicle_type_id":"4","last_reported":1753175764,"current_range_meters":16000,"station_id":"ce4bgi12rcd13ifvqb70","pricing_plan_id":"cebpf4jnsgd1na2vs0mg"},{"bike_id":"5757d1c1-1a47-4bc1-b4ad-f12008d76d15","system_id":"levelo_inurba_marseille","lat":43.31204,"lon":5.36976,"is_reserved":false,"is_disabled":false,"rental_uris":{"android":"levelo://app?vid=5757d1c1-1a47-4bc1-b4ad-f12008d76d15","ios":"levelo://app?vid=5757d1c1-1a47-4bc1-b4ad-f12008d76d15"},"vehicle_type_id":"4","last_reported":1753175764,"current_range_meters":16000,"station_id":"","pricing_plan_id":"cebpf4jnsgd1na2vs0mg"},{"bike_id":"e9b8c87e-db14-4020-aea2-466c8dbe1c1e","system_id":"levelo_inurba_marseille","lat":43.30546,"lon":5.36574,"is_reserved":false,"is_disabled":false,"rental_uris":{"android":"levelo://app?vid=e9b8c87e-db14-4020-aea2-466c8dbe1c1e","ios":"levelo://app?vid=e9b8c87e-db14-4020-aea2-466c8dbe1c1e"},"vehicle_type_id":"4","last_reported":1753175764,"current_range_meters":16000,"station_id":"ce4bgs12rcd13ifvqcag","pricing_plan_id":"cebpf4jnsgd1na2vs0mg"},{"bike_id":"de4e98c3-82ca-4c88-9379-c8eb99022426","system_id":"levelo_inurba_marseille","lat":43.22931,"lon":5.35376,"is_reserved":false,"is_disabled":false,"rental_uris":{"android":"levelo://app?vid=de4e98c3-82ca-4c88-9379-c8eb99022426","ios":"levelo://app?vid=de4e98c3-82ca-4c88-9379-c8eb99022426"},"vehicle_type_id":"4","last_reported":1753175764,"current_range_meters":16000,"station_id":"cpo3532slgdg3j2ikp40","pricing_plan_id":"cebpf4jnsgd1na2vs0mg"},{"bike_id":"bab53820-9bff-4bd4-a0e9-38cb6044d455","system_id":"levelo_inurba_marseille","lat":43.25919,"lon":5.40867,"is_reserved":false,"is_disabled":false,"rental_uris":{"android":"levelo://app?vid=bab53820-9bff-4bd4-a0e9-38cb6044d455","ios":"levelo://app?vid=bab53820-9bff-4bd4-a0e9-38cb6044d455"},"vehicle_type_id":"4","last_reported":1753175764,"current_range_meters":16000,"station_id":"ce4bhm92rcd13ifvqglg","pricing_plan_id":"cebpf4jnsgd1na2vs0mg"},{"bike_id":"b4c1aa2a-e931-4ce6-8816-30ad77bdd520","system_id":"levelo_inurba_marseille","lat":43.241448,"lon":5.363743,"is_reserved":false,"is_disabled":false,"rental_uris":{"android":"levelo://app?vid=b4c1aa2a-e931-4ce6-8816-30ad77bdd520","ios":"levelo://app?vid=b4c1aa2a-e931-4ce6-8816-30ad77bdd520"},"vehicle_type_id":"4","last_reported":1753175764,"current_range_meters":16000,"station_id":"","pricing_plan_id":"cebpf4jnsgd1na2vs0mg"},{"bike_id":"17f11546-2b0a-4d27-aad0-296d7bdf65cd","system_id":"levelo_inurba_marseille","lat":43.29967,"lon":5.38496,"is_reserved":false,"is_disabled":false,"rental_uris":{"android":"levelo://app?vid=17f11546-2b0a-4d27-aad0-296d7bdf65cd","ios":"levelo://app?vid=17f11546-2b0a-4d27-aad0-296d7bdf65cd"},"vehicle_type_id":"4","last_reported":1753175764,"current_range_meters":16000,"station_id":"ce4bgj92rcd13ifvqbd0","pricing_plan_id":"cebpf4jnsgd1na2vs0mg"},{"bike_id":"7227f2a0-48ac-47a6-aa2d-661ad6a7a763","system_id":"levelo_inurba_marseille","lat":43.29058,"lon":5.3717,"is_reserved":false,"is_disabled":false,"rental_uris":{"android":"levelo://app?vid=7227f2a0-48ac-47a6-aa2d-661ad6a7a763","ios":"levelo://app?vid=7227f2a0-48ac-47a6-aa2d-661ad6a7a763"},"vehicle_type_id":"4","last_reported":1753175764,"current_range_meters":16000,"station_id":"ce4bgh92rcd13ifvqb40","pricing_plan_id":"cebpf4jnsgd1na2vs0mg"},{"bike_id":"87bc9e6f-1d5b-4237-a1df-3b5cfd8a9777","system_id":"levelo_inurba_marseille","lat":43.21221,"lon":5.35088,"is_reserved":false,"is_disabled":false,"rental_uris":{"android":"levelo://app?vid=87bc9e6f-1d5b-4237-a1df-3b5cfd8a9777","ios":"levelo://app?vid=87bc9e6f-1d5b-4237-a1df-3b5cfd8a9777"},"vehicle_type_id":"4","last_reported":1753175764,"current_range_meters":16000,"station_id":"st_cvj6sg6p6f1abm77japg","pricing_plan_id":"cebpf4jnsgd1na2vs0mg"},{"bike_id":"abc5489a-f823-4dc4-b736-76f0b8370bbd","system_id":"levelo_inurba_marseille","lat":43.24186,"lon":5.36407,"is_reserved":false,"is_disabled":false,"rental_uris":{"android":"levelo://app?vid=abc5489a-f823-4dc4-b736-76f0b8370bbd","ios":"levelo://app?vid=abc5489a-f823-4dc4-b736-76f0b8370bbd"},"vehicle_type_id":"4","last_reported":1753175764,"current_range_meters":16000,"station_id":"cpo36qri1sfpv3e86is0","pricing_plan_id":"cebpf4jnsgd1na2vs0mg"},{"bike_id":"668bfa40-7ae0-42dd-a6b6-6631a40f0c0f","system_id":"levelo_inurba_marseille","lat":43.33138,"lon":5.38602,"is_reserved":false,"is_disabled":false,"rental_uris":{"android":"levelo://app?vid=668bfa40-7ae0-42dd-a6b6-6631a40f0c0f","ios":"levelo://app?vid=668bfa40-7ae0-42dd-a6b6-6631a40f0c0f"},"vehicle_type_id":"4","last_reported":1753175764,"current_range_meters":16000,"station_id":"","pricing_plan_id":"cebpf4jnsgd1na2vs0mg"},{"bike_id":"b52df7e2-ad75-4d6b-a395-f1eb700f2fd1","system_id":"levelo_inurba_marseille","lat":43.24165,"lon":5.36417,"is_reserved":false,"is_disabled":false,"rental_uris":{"android":"levelo://app?vid=b52df7e2-ad75-4d6b-a395-f1eb700f2fd1","ios":"levelo://app?vid=b52df7e2-ad75-4d6b-a395-f1eb700f2fd1"},"vehicle_type_id":"4","last_reported":1753175764,"current_range_meters":16000,"station_id":"cpo36qri1sfpv3e86is0","pricing_plan_id":"cebpf4jnsgd1na2vs0mg"},{"bike_id":"2c59fb44-8b37-440a-bec1-4e746d1d2da6","system_id":"levelo_inurba_marseille","lat":43.2582,"lon":5.39438,"is_reserved":false,"is_disabled":false,"rental_uris":{"android":"levelo://app?vid=2c59fb44-8b37-440a-bec1-4e746d1d2da6","ios":"levelo://app?vid=2c59fb44-8b37-440a-bec1-4e746d1d2da6"},"vehicle_type_id":"4","last_reported":1753175764,"current_range_meters":16000,"station_id":"ce4bhip2rcd13ifvqft0","pricing_plan_id":"cebpf4jnsgd1na2vs0mg"},{"bike_id":"2c63e874-b1a9-4c67-b628-c51dba7b1b5d","system_id":"levelo_inurba_marseille","lat":43.30533,"lon":5.36702,"is_reserved":false,"is_disabled":false,"rental_uris":{"android":"levelo://app?vid=2c63e874-b1a9-4c67-b628-c51dba7b1b5d","ios":"levelo://app?vid=2c63e874-b1a9-4c67-b628-c51dba7b1b5d"},"vehicle_type_id":"4","last_reported":1753175764,"current_range_meters":16400,"station_id":"ce4bgrp2rcd13ifvqc9g","pricing_plan_id":"cebpf4jnsgd1na2vs0mg"},{"bike_id":"78f6ac42-9776-4916-9668-b5a859a67a83","system_id":"levelo_inurba_marseille","lat":43.28474,"lon":5.38416,"is_reserved":false,"is_disabled":false,"rental_uris":{"android":"levelo://app?vid=78f6ac42-9776-4916-9668-b5a859a67a83","ios":"levelo://app?vid=78f6ac42-9776-4916-9668-b5a859a67a83"},"vehicle_type_id":"4","last_reported":1753175764,"current_range_meters":16000,"station_id":"ce4bh512rcd13ifvqe3g","pricing_plan_id":"cebpf4jnsgd1na2vs0mg"},{"bike_id":"68ad25bf-3ce4-4219-aae6-b4b4ca3df214","system_id":"levelo_inurba_marseille","lat":43.22509,"lon":5.34803,"is_reserved":false,"is_disabled":false,"rental_uris":{"android":"levelo://app?vid=68ad25bf-3ce4-4219-aae6-b4b4ca3df214","ios":"levelo://app?vid=68ad25bf-3ce4-4219-aae6-b4b4ca3df214"},"vehicle_type_id":"4","last_reported":1753175764,"current_range_meters":16400,"station_id":"st_cvj5dfep6f1abm77gieg","pricing_plan_id":"cebpf4jnsgd1na2vs0mg"},{"bike_id":"2e5ed9f2-4fe8-47eb-91fc-0f6f8088016a","system_id":"levelo_inurba_marseille","lat":43.25013,"lon":5.3891,"is_reserved":false,"is_disabled":false,"rental_uris":{"android":"levelo://app?vid=2e5ed9f2-4fe8-47eb-91fc-0f6f8088016a","ios":"levelo://app?vid=2e5ed9f2-4fe8-47eb-91fc-0f6f8088016a"},"vehicle_type_id":"4","last_reported":1753175764,"current_range_meters":16400,"station_id":"ce4bhgp2rcd13ifvqfd0","pricing_plan_id":"cebpf4jnsgd1na2vs0mg"},{"bike_id":"0252eab3-c3f3-4486-b893-58cb3f957c57","system_id":"levelo_inurba_marseille","lat":43.31725,"lon":5.38502,"is_reserved":false,"is_disabled":false,"rental_uris":{"android":"levelo://app?vid=0252eab3-c3f3-4486-b893-58cb3f957c57","ios":"levelo://app?vid=0252eab3-c3f3-4486-b893-58cb3f957c57"},"vehicle_type_id":"4","last_reported":1753175764,"current_range_meters":16400,"station_id":"","pricing_plan_id":"cebpf4jnsgd1na2vs0mg"},{"bike_id":"02bda465-5730-4d42-a0d1-5ffc89217a3f","system_id":"levelo_inurba_marseille","lat":43.30658,"lon":5.38184,"is_reserved":false,"is_disabled":false,"rental_uris":{"android":"levelo://app?vid=02bda465-5730-4d42-a0d1-5ffc89217a3f","ios":"levelo://app?vid=02bda465-5730-4d42-a0d1-5ffc89217a3f"},"vehicle_type_id":"4","last_reported":1753175764,"current_range_meters":16400,"station_id":"","pricing_plan_id":"cebpf4jnsgd1na2vs0mg"},{"bike_id":"c5445fa5-9221-4e5d-b2bc-b87ec0aac921","system_id":"levelo_inurba_marseille","lat":43.22945,"lon":5.35402,"is_reserved":false,"is_disabled":false,"rental_uris":{"android":"levelo://app?vid=c5445fa5-9221-4e5d-b2bc-b87ec0aac921","ios":"levelo://app?vid=c5445fa5-9221-4e5d-b2bc-b87ec0aac921"},"vehicle_type_id":"4","last_reported":1753175764,"current_range_meters":16400,"station_id":"cpo3532slgdg3j2ikp40","pricing_plan_id":"cebpf4jnsgd1na2vs0mg"},{"bike_id":"50975a3d-315e-466e-a8e1-4de66829cb75","system_id":"levelo_inurba_marseille","lat":43.32477,"lon":5.36566,"is_reserved":false,"is_disabled":false,"rental_uris":{"android":"levelo://app?vid=50975a3d-315e-466e-a8e1-4de66829cb75","ios":"levelo://app?vid=50975a3d-315e-466e-a8e1-4de66829cb75"},"vehicle_type_id":"4","last_reported":1753175764,"current_range_meters":16400,"station_id":"ce4bhs12rcd13ifvqhvg","pricing_plan_id":"cebpf4jnsgd1na2vs0mg"},{"bike_id":"6270388c-e1bf-41b4-83eb-3d2f1008ca14","system_id":"levelo_inurba_marseille","lat":43.32765,"lon":5.37742,"is_reserved":false,"is_disabled":false,"rental_uris":{"android":"levelo://app?vid=6270388c-e1bf-41b4-83eb-3d2f1008ca14","ios":"levelo://app?vid=6270388c-e1bf-41b4-83eb-3d2f1008ca14"},"vehicle_type_id":"4","last_reported":1753175764,"current_range_meters":16400,"station_id":"","pricing_plan_id":"cebpf4jnsgd1na2vs0mg"},{"bike_id":"c3071153-d15b-437d-b33d-8b8d9d500df0","system_id":"levelo_inurba_marseille","lat":43.24099,"lon":5.37794,"is_reserved":false,"is_disabled":false,"rental_uris":{"android":"levelo://app?vid=c3071153-d15b-437d-b33d-8b8d9d500df0","ios":"levelo://app?vid=c3071153-d15b-437d-b33d-8b8d9d500df0"},"vehicle_type_id":"4","last_reported":1753175764,"current_range_meters":16800,"station_id":"ce4bhnp2rcd13ifvqgvg","pricing_plan_id":"cebpf4jnsgd1na2vs0mg"},{"bike_id":"90d182c4-3099-4bb5-a589-d43c195c6d8e","system_id":"levelo_inurba_marseille","lat":43.31364,"lon":5.36722,"is_reserved":false,"is_disabled":false,"rental_uris":{"android":"levelo://app?vid=90d182c4-3099-4bb5-a589-d43c195c6d8e","ios":"levelo://app?vid=90d182c4-3099-4bb5-a589-d43c195c6d8e"},"vehicle_type_id":"4","last_reported":1753175764,"current_range_meters":16800,"station_id":"ce4bgr92rcd13ifvqc6g","pricing_plan_id":"cebpf4jnsgd1na2vs0mg"},{"bike_id":"79326a13-cde9-4cb8-becd-ff105cdb3360","system_id":"levelo_inurba_marseille","lat":43.24661,"lon":5.38165,"is_reserved":false,"is_disabled":false,"rental_uris":{"android":"levelo://app?vid=79326a13-cde9-4cb8-becd-ff105cdb3360","ios":"levelo://app?vid=79326a13-cde9-4cb8-becd-ff105cdb3360"},"vehicle_type_id":"4","last_reported":1753175764,"current_range_meters":16800,"station_id":"ce4bhih2rcd13ifvqfr0","pricing_plan_id":"cebpf4jnsgd1na2vs0mg"},{"bike_id":"065ecae4-408e-4701-ae91-75b20387bde6","system_id":"levelo_inurba_marseille","lat":43.25006,"lon":5.38907,"is_reserved":false,"is_disabled":false,"rental_uris":{"android":"levelo://app?vid=065ecae4-408e-4701-ae91-75b20387bde6","ios":"levelo://app?vid=065ecae4-408e-4701-ae91-75b20387bde6"},"vehicle_type_id":"4","last_reported":1753175764,"current_range_meters":16800,"station_id":"ce4bhgp2rcd13ifvqfd0","pricing_plan_id":"cebpf4jnsgd1na2vs0mg"},{"bike_id":"37d30983-c51f-4f5c-bf72-844c1d3dd9f4","system_id":"levelo_inurba_marseille","lat":43.29605,"lon":5.38094,"is_reserved":false,"is_disabled":false,"rental_uris":{"android":"levelo://app?vid=37d30983-c51f-4f5c-bf72-844c1d3dd9f4","ios":"levelo://app?vid=37d30983-c51f-4f5c-bf72-844c1d3dd9f4"},"vehicle_type_id":"4","last_reported":1753175764,"current_range_meters":16800,"station_id":"ce4bgl12rcd13ifvqbo0","pricing_plan_id":"cebpf4jnsgd1na2vs0mg"},{"bike_id":"f5767321-03ff-4c6c-8a78-ad57e022e0a0","system_id":"levelo_inurba_marseille","lat":43.29024,"lon":5.3813,"is_reserved":false,"is_disabled":false,"rental_uris":{"android":"levelo://app?vid=f5767321-03ff-4c6c-8a78-ad57e022e0a0","ios":"levelo://app?vid=f5767321-03ff-4c6c-8a78-ad57e022e0a0"},"vehicle_type_id":"4","last_reported":1753175764,"current_range_meters":16800,"station_id":"ce4bh4p2rcd13ifvqe1g","pricing_plan_id":"cebpf4jnsgd1na2vs0mg"},{"bike_id":"4a3b4d7f-7b8b-4824-8eb9-1a8022f44af7","system_id":"levelo_inurba_marseille","lat":43.29619,"lon":5.37715,"is_reserved":false,"is_disabled":true,"rental_uris":{"android":"levelo://app?vid=4a3b4d7f-7b8b-4824-8eb9-1a8022f44af7","ios":"levelo://app?vid=4a3b4d7f-7b8b-4824-8eb9-1a8022f44af7"},"vehicle_type_id":"4","last_reported":1753175764,"current_range_meters":16800,"station_id":"ce4bgi92rcd13ifvqb90","pricing_plan_id":"cebpf4jnsgd1na2vs0mg"},{"bike_id":"3f1d8027-d970-4eee-b5e1-03cc34706b27","system_id":"levelo_inurba_marseille","lat":43.29553,"lon":5.42289,"is_reserved":false,"is_disabled":false,"rental_uris":{"android":"levelo://app?vid=3f1d8027-d970-4eee-b5e1-03cc34706b27","ios":"levelo://app?vid=3f1d8027-d970-4eee-b5e1-03cc34706b27"},"vehicle_type_id":"4","last_reported":1753175764,"current_range_meters":16400,"station_id":"ce4bhph2rcd13ifvqhdg","pricing_plan_id":"cebpf4jnsgd1na2vs0mg"},{"bike_id":"5153e984-1abc-4d5b-91ef-21249865a3e6","system_id":"levelo_inurba_marseille","lat":43.21207,"lon":5.35047,"is_reserved":false,"is_disabled":false,"rental_uris":{"android":"levelo://app?vid=5153e984-1abc-4d5b-91ef-21249865a3e6","ios":"levelo://app?vid=5153e984-1abc-4d5b-91ef-21249865a3e6"},"vehicle_type_id":"4","last_reported":1753175764,"current_range_meters":16800,"station_id":"st_cvj6sg6p6f1abm77japg","pricing_plan_id":"cebpf4jnsgd1na2vs0mg"},{"bike_id":"32825bd9-215e-40e4-ae1f-15abfa726c5c","system_id":"levelo_inurba_marseille","lat":43.30652,"lon":5.40098,"is_reserved":false,"is_disabled":false,"rental_uris":{"android":"levelo://app?vid=32825bd9-215e-40e4-ae1f-15abfa726c5c","ios":"levelo://app?vid=32825bd9-215e-40e4-ae1f-15abfa726c5c"},"vehicle_type_id":"4","last_reported":1753175764,"current_range_meters":16800,"station_id":"ce4bh112rcd13ifvqda0","pricing_plan_id":"cebpf4jnsgd1na2vs0mg"},{"bike_id":"53eaaa2b-e173-4977-9b74-a63712c062f5","system_id":"levelo_inurba_marseille","lat":43.241864,"lon":5.397183,"is_reserved":false,"is_disabled":false,"rental_uris":{"android":"levelo://app?vid=53eaaa2b-e173-4977-9b74-a63712c062f5","ios":"levelo://app?vid=53eaaa2b-e173-4977-9b74-a63712c062f5"},"vehicle_type_id":"4","last_reported":1753175764,"current_range_meters":16800,"station_id":"ce4bhn12rcd13ifvqgpg","pricing_plan_id":"cebpf4jnsgd1na2vs0mg"},{"bike_id":"c47c4612-aa9a-40e0-9a78-5da247b20688","system_id":"levelo_inurba_marseille","lat":43.29067,"lon":5.35911,"is_reserved":false,"is_disabled":false,"rental_uris":{"android":"levelo://app?vid=c47c4612-aa9a-40e0-9a78-5da247b20688","ios":"levelo://app?vid=c47c4612-aa9a-40e0-9a78-5da247b20688"},"vehicle_type_id":"4","last_reported":1753175764,"current_range_meters":16800,"station_id":"ce4bha92rcd13ifvqeg0","pricing_plan_id":"cebpf4jnsgd1na2vs0mg"},{"bike_id":"3c7f072f-3158-420f-bc51-68912fc0c6a8","system_id":"levelo_inurba_marseille","lat":43.29074,"lon":5.37548,"is_reserved":false,"is_disabled":true,"rental_uris":{"android":"levelo://app?vid=3c7f072f-3158-420f-bc51-68912fc0c6a8","ios":"levelo://app?vid=3c7f072f-3158-420f-bc51-68912fc0c6a8"},"vehicle_type_id":"4","last_reported":1753175764,"current_range_meters":16800,"station_id":"ce4bh692rcd13ifvqe90","pricing_plan_id":"cebpf4jnsgd1na2vs0mg"},{"bike_id":"de5426ba-ae67-47a4-bece-c11c7065cd1e","system_id":"levelo_inurba_marseille","lat":43.21196,"lon":5.3508,"is_reserved":false,"is_disabled":false,"rental_uris":{"android":"levelo://app?vid=de5426ba-ae67-47a4-bece-c11c7065cd1e","ios":"levelo://app?vid=de5426ba-ae67-47a4-bece-c11c7065cd1e"},"vehicle_type_id":"4","last_reported":1753175764,"current_range_meters":16800,"station_id":"st_cvj6sg6p6f1abm77japg","pricing_plan_id":"cebpf4jnsgd1na2vs0mg"},{"bike_id":"c7197ba9-6455-4072-b2a3-777ce26a88c8","system_id":"levelo_inurba_marseille","lat":43.27413,"lon":5.39416,"is_reserved":false,"is_disabled":false,"rental_uris":{"android":"levelo://app?vid=c7197ba9-6455-4072-b2a3-777ce26a88c8","ios":"levelo://app?vid=c7197ba9-6455-4072-b2a3-777ce26a88c8"},"vehicle_type_id":"4","last_reported":1753175764,"current_range_meters":16800,"station_id":"ce4bhgp2rcd13ifvqfe0","pricing_plan_id":"cebpf4jnsgd1na2vs0mg"},{"bike_id":"64a2f514-4942-458d-b3fc-7d7fd0dfd1b1","system_id":"levelo_inurba_marseille","lat":43.21201,"lon":5.35078,"is_reserved":false,"is_disabled":false,"rental_uris":{"android":"levelo://app?vid=64a2f514-4942-458d-b3fc-7d7fd0dfd1b1","ios":"levelo://app?vid=64a2f514-4942-458d-b3fc-7d7fd0dfd1b1"},"vehicle_type_id":"4","last_reported":1753175764,"current_range_meters":16800,"station_id":"st_cvj6sg6p6f1abm77japg","pricing_plan_id":"cebpf4jnsgd1na2vs0mg"},{"bike_id":"fd678af6-c39f-4009-9cd4-36a5e361e94e","system_id":"levelo_inurba_marseille","lat":43.29215,"lon":5.35794,"is_reserved":false,"is_disabled":false,"rental_uris":{"android":"levelo://app?vid=fd678af6-c39f-4009-9cd4-36a5e361e94e","ios":"levelo://app?vid=fd678af6-c39f-4009-9cd4-36a5e361e94e"},"vehicle_type_id":"4","last_reported":1753175764,"current_range_meters":16800,"station_id":"ce4bhb12rcd13ifvqel0","pricing_plan_id":"cebpf4jnsgd1na2vs0mg"},{"bike_id":"38cbbc2f-2178-4d0e-8130-6cf5abd60741","system_id":"levelo_inurba_marseille","lat":43.2603,"lon":5.37579,"is_reserved":false,"is_disabled":false,"rental_uris":{"android":"levelo://app?vid=38cbbc2f-2178-4d0e-8130-6cf5abd60741","ios":"levelo://app?vid=38cbbc2f-2178-4d0e-8130-6cf5abd60741"},"vehicle_type_id":"4","last_reported":1753175764,"current_range_meters":17200,"station_id":"ce4bhgh2rcd13ifvqfa0","pricing_plan_id":"cebpf4jnsgd1na2vs0mg"},{"bike_id":"dda96cde-9f78-4371-a72f-1d24145c396a","system_id":"levelo_inurba_marseille","lat":43.21198,"lon":5.35075,"is_reserved":false,"is_disabled":false,"rental_uris":{"android":"levelo://app?vid=dda96cde-9f78-4371-a72f-1d24145c396a","ios":"levelo://app?vid=dda96cde-9f78-4371-a72f-1d24145c396a"},"vehicle_type_id":"4","last_reported":1753175764,"current_range_meters":17200,"station_id":"st_cvj6sg6p6f1abm77japg","pricing_plan_id":"cebpf4jnsgd1na2vs0mg"},{"bike_id":"ac4e9fda-4086-43d7-9dc4-afe6942bea08","system_id":"levelo_inurba_marseille","lat":43.23065,"lon":5.354882,"is_reserved":false,"is_disabled":false,"rental_uris":{"android":"levelo://app?vid=ac4e9fda-4086-43d7-9dc4-afe6942bea08","ios":"levelo://app?vid=ac4e9fda-4086-43d7-9dc4-afe6942bea08"},"vehicle_type_id":"4","last_reported":1753175764,"current_range_meters":17200,"station_id":"cpo3342slgdg3j2ifvpg","pricing_plan_id":"cebpf4jnsgd1na2vs0mg"},{"bike_id":"c0428384-852e-4bac-b3cf-786be3362ea6","system_id":"levelo_inurba_marseille","lat":43.25504,"lon":5.37655,"is_reserved":false,"is_disabled":false,"rental_uris":{"android":"levelo://app?vid=c0428384-852e-4bac-b3cf-786be3362ea6","ios":"levelo://app?vid=c0428384-852e-4bac-b3cf-786be3362ea6"},"vehicle_type_id":"4","last_reported":1753175764,"current_range_meters":17200,"station_id":"ce4bhh12rcd13ifvqff0","pricing_plan_id":"cebpf4jnsgd1na2vs0mg"},{"bike_id":"e5fef973-7669-4efd-b14f-70b2143391ce","system_id":"levelo_inurba_marseille","lat":43.28679,"lon":5.36353,"is_reserved":false,"is_disabled":false,"rental_uris":{"android":"levelo://app?vid=e5fef973-7669-4efd-b14f-70b2143391ce","ios":"levelo://app?vid=e5fef973-7669-4efd-b14f-70b2143391ce"},"vehicle_type_id":"4","last_reported":1753175764,"current_range_meters":17200,"station_id":"ce4bhah2rcd13ifvqej0","pricing_plan_id":"cebpf4jnsgd1na2vs0mg"},{"bike_id":"35eae54b-ef72-41a7-89bc-29fc625dd3e6","system_id":"levelo_inurba_marseille","lat":43.28489,"lon":5.38416,"is_reserved":false,"is_disabled":false,"rental_uris":{"android":"levelo://app?vid=35eae54b-ef72-41a7-89bc-29fc625dd3e6","ios":"levelo://app?vid=35eae54b-ef72-41a7-89bc-29fc625dd3e6"},"vehicle_type_id":"4","last_reported":1753175764,"current_range_meters":17200,"station_id":"ce4bh512rcd13ifvqe3g","pricing_plan_id":"cebpf4jnsgd1na2vs0mg"},{"bike_id":"4034af88-45bc-41c2-927f-06184589ab26","system_id":"levelo_inurba_marseille","lat":43.25951,"lon":5.40933,"is_reserved":false,"is_disabled":false,"rental_uris":{"android":"levelo://app?vid=4034af88-45bc-41c2-927f-06184589ab26","ios":"levelo://app?vid=4034af88-45bc-41c2-927f-06184589ab26"},"vehicle_type_id":"4","last_reported":1753175764,"current_range_meters":17200,"station_id":"ce4bhm92rcd13ifvqglg","pricing_plan_id":"cebpf4jnsgd1na2vs0mg"},{"bike_id":"494f97be-feb6-4ce2-84dd-bdc5f14db45d","system_id":"levelo_inurba_marseille","lat":43.27496,"lon":5.42458,"is_reserved":false,"is_disabled":false,"rental_uris":{"android":"levelo://app?vid=494f97be-feb6-4ce2-84dd-bdc5f14db45d","ios":"levelo://app?vid=494f97be-feb6-4ce2-84dd-bdc5f14db45d"},"vehicle_type_id":"4","last_reported":1753175764,"current_range_meters":17200,"station_id":"ce4bhn92rcd13ifvqgrg","pricing_plan_id":"cebpf4jnsgd1na2vs0mg"},{"bike_id":"080acd18-9baa-4736-beb6-5e98e18d315c","system_id":"levelo_inurba_marseille","lat":43.2408,"lon":5.37774,"is_reserved":false,"is_disabled":false,"rental_uris":{"android":"levelo://app?vid=080acd18-9baa-4736-beb6-5e98e18d315c","ios":"levelo://app?vid=080acd18-9baa-4736-beb6-5e98e18d315c"},"vehicle_type_id":"4","last_reported":1753175764,"current_range_meters":17200,"station_id":"ce4bhnp2rcd13ifvqgvg","pricing_plan_id":"cebpf4jnsgd1na2vs0mg"},{"bike_id":"9a484d5d-9a75-4a28-b29d-75e371b4bc63","system_id":"levelo_inurba_marseille","lat":43.305297,"lon":5.367015,"is_reserved":false,"is_disabled":false,"rental_uris":{"android":"levelo://app?vid=9a484d5d-9a75-4a28-b29d-75e371b4bc63","ios":"levelo://app?vid=9a484d5d-9a75-4a28-b29d-75e371b4bc63"},"vehicle_type_id":"4","last_reported":1753175764,"current_range_meters":17600,"station_id":"ce4bgrp2rcd13ifvqc9g","pricing_plan_id":"cebpf4jnsgd1na2vs0mg"},{"bike_id":"4b209779-1337-48e1-8017-72986ee6ccac","system_id":"levelo_inurba_marseille","lat":43.241712,"lon":5.364001,"is_reserved":false,"is_disabled":false,"rental_uris":{"android":"levelo://app?vid=4b209779-1337-48e1-8017-72986ee6ccac","ios":"levelo://app?vid=4b209779-1337-48e1-8017-72986ee6ccac"},"vehicle_type_id":"4","last_reported":1753175764,"current_range_meters":17600,"station_id":"cpo36qri1sfpv3e86is0","pricing_plan_id":"cebpf4jnsgd1na2vs0mg"},{"bike_id":"e730d36a-13f0-49bb-86fb-4a20da2e6767","system_id":"levelo_inurba_marseille","lat":43.241617,"lon":5.364066,"is_reserved":false,"is_disabled":false,"rental_uris":{"android":"levelo://app?vid=e730d36a-13f0-49bb-86fb-4a20da2e6767","ios":"levelo://app?vid=e730d36a-13f0-49bb-86fb-4a20da2e6767"},"vehicle_type_id":"4","last_reported":1753175764,"current_range_meters":17600,"station_id":"cpo36qri1sfpv3e86is0","pricing_plan_id":"cebpf4jnsgd1na2vs0mg"},{"bike_id":"7a3e8286-d23a-436c-a229-6ffa0c627ba2","system_id":"levelo_inurba_marseille","lat":43.21187,"lon":5.35069,"is_reserved":false,"is_disabled":false,"rental_uris":{"android":"levelo://app?vid=7a3e8286-d23a-436c-a229-6ffa0c627ba2","ios":"levelo://app?vid=7a3e8286-d23a-436c-a229-6ffa0c627ba2"},"vehicle_type_id":"4","last_reported":1753175764,"current_range_meters":17600,"station_id":"st_cvj6sg6p6f1abm77japg","pricing_plan_id":"cebpf4jnsgd1na2vs0mg"},{"bike_id":"0c18c21b-8232-4709-94a5-191396b3881b","system_id":"levelo_inurba_marseille","lat":43.27496,"lon":5.42449,"is_reserved":false,"is_disabled":false,"rental_uris":{"android":"levelo://app?vid=0c18c21b-8232-4709-94a5-191396b3881b","ios":"levelo://app?vid=0c18c21b-8232-4709-94a5-191396b3881b"},"vehicle_type_id":"4","last_reported":1753175764,"current_range_meters":17600,"station_id":"ce4bhn92rcd13ifvqgrg","pricing_plan_id":"cebpf4jnsgd1na2vs0mg"},{"bike_id":"a7fce724-bb42-4faf-bd28-907e651a062f","system_id":"levelo_inurba_marseille","lat":43.29064,"lon":5.39966,"is_reserved":false,"is_disabled":false,"rental_uris":{"android":"levelo://app?vid=a7fce724-bb42-4faf-bd28-907e651a062f","ios":"levelo://app?vid=a7fce724-bb42-4faf-bd28-907e651a062f"},"vehicle_type_id":"4","last_reported":1753175764,"current_range_meters":18000,"station_id":"ce4bh392rcd13ifvqdm0","pricing_plan_id":"cebpf4jnsgd1na2vs0mg"},{"bike_id":"09ce1f37-5b07-45c4-a76c-7ba0d0176051","system_id":"levelo_inurba_marseille","lat":43.32348,"lon":5.3675,"is_reserved":false,"is_disabled":false,"rental_uris":{"android":"levelo://app?vid=09ce1f37-5b07-45c4-a76c-7ba0d0176051","ios":"levelo://app?vid=09ce1f37-5b07-45c4-a76c-7ba0d0176051"},"vehicle_type_id":"4","last_reported":1753175764,"current_range_meters":18000,"station_id":"ce4bhsh2rcd13ifvqi2g","pricing_plan_id":"cebpf4jnsgd1na2vs0mg"},{"bike_id":"e2a9267b-8dff-4d83-a02b-9ca1ace13323","system_id":"levelo_inurba_marseille","lat":43.30152,"lon":5.39841,"is_reserved":false,"is_disabled":false,"rental_uris":{"android":"levelo://app?vid=e2a9267b-8dff-4d83-a02b-9ca1ace13323","ios":"levelo://app?vid=e2a9267b-8dff-4d83-a02b-9ca1ace13323"},"vehicle_type_id":"4","last_reported":1753175764,"current_range_meters":17600,"station_id":"ce4bh0h2rcd13ifvqd40","pricing_plan_id":"cebpf4jnsgd1na2vs0mg"},{"bike_id":"4bf301d2-cede-458d-94ae-e49de6f21bad","system_id":"levelo_inurba_marseille","lat":43.29272,"lon":5.37636,"is_reserved":false,"is_disabled":false,"rental_uris":{"android":"levelo://app?vid=4bf301d2-cede-458d-94ae-e49de6f21bad","ios":"levelo://app?vid=4bf301d2-cede-458d-94ae-e49de6f21bad"},"vehicle_type_id":"4","last_reported":1753175764,"current_range_meters":18000,"station_id":"ce4bgi12rcd13ifvqb80","pricing_plan_id":"cebpf4jnsgd1na2vs0mg"},{"bike_id":"93405173-a014-4c38-bea6-9ec3873ad6a2","system_id":"levelo_inurba_marseille","lat":43.249964,"lon":5.38935,"is_reserved":false,"is_disabled":false,"rental_uris":{"android":"levelo://app?vid=93405173-a014-4c38-bea6-9ec3873ad6a2","ios":"levelo://app?vid=93405173-a014-4c38-bea6-9ec3873ad6a2"},"vehicle_type_id":"4","last_reported":1753175764,"current_range_meters":18000,"station_id":"ce4bhgp2rcd13ifvqfd0","pricing_plan_id":"cebpf4jnsgd1na2vs0mg"},{"bike_id":"43e2c1ba-be3c-448f-9ad6-21df8a2b4eb4","system_id":"levelo_inurba_marseille","lat":43.31355,"lon":5.36715,"is_reserved":false,"is_disabled":false,"rental_uris":{"android":"levelo://app?vid=43e2c1ba-be3c-448f-9ad6-21df8a2b4eb4","ios":"levelo://app?vid=43e2c1ba-be3c-448f-9ad6-21df8a2b4eb4"},"vehicle_type_id":"4","last_reported":1753175764,"current_range_meters":18000,"station_id":"ce4bgr92rcd13ifvqc6g","pricing_plan_id":"cebpf4jnsgd1na2vs0mg"},{"bike_id":"f6f1506f-41c6-4544-83d4-d744800dda02","system_id":"levelo_inurba_marseille","lat":43.24394,"lon":5.37047,"is_reserved":false,"is_disabled":false,"rental_uris":{"android":"levelo://app?vid=f6f1506f-41c6-4544-83d4-d744800dda02","ios":"levelo://app?vid=f6f1506f-41c6-4544-83d4-d744800dda02"},"vehicle_type_id":"4","last_reported":1753175764,"current_range_meters":17600,"station_id":"ce4bhhh2rcd13ifvqfk0","pricing_plan_id":"cebpf4jnsgd1na2vs0mg"},{"bike_id":"3876af6e-a868-4aa6-afbb-deb3bffdb10a","system_id":"levelo_inurba_marseille","lat":43.229283,"lon":5.353861,"is_reserved":false,"is_disabled":false,"rental_uris":{"android":"levelo://app?vid=3876af6e-a868-4aa6-afbb-deb3bffdb10a","ios":"levelo://app?vid=3876af6e-a868-4aa6-afbb-deb3bffdb10a"},"vehicle_type_id":"4","last_reported":1753175764,"current_range_meters":18800,"station_id":"cpo3532slgdg3j2ikp40","pricing_plan_id":"cebpf4jnsgd1na2vs0mg"},{"bike_id":"ffffbebf-b502-463d-aa88-6205cc33d88d","system_id":"levelo_inurba_marseille","lat":43.280995,"lon":5.378303,"is_reserved":false,"is_disabled":false,"rental_uris":{"android":"levelo://app?vid=ffffbebf-b502-463d-aa88-6205cc33d88d","ios":"levelo://app?vid=ffffbebf-b502-463d-aa88-6205cc33d88d"},"vehicle_type_id":"4","last_reported":1753175764,"current_range_meters":18800,"station_id":"ce4bha12rcd13ifvqee0","pricing_plan_id":"cebpf4jnsgd1na2vs0mg"},{"bike_id":"81fba013-909e-4f1c-8dc3-8911f0a1441d","system_id":"levelo_inurba_marseille","lat":43.284317,"lon":5.34986,"is_reserved":false,"is_disabled":true,"rental_uris":{"android":"levelo://app?vid=81fba013-909e-4f1c-8dc3-8911f0a1441d","ios":"levelo://app?vid=81fba013-909e-4f1c-8dc3-8911f0a1441d"},"vehicle_type_id":"4","last_reported":1753175764,"current_range_meters":18800,"station_id":"ce4bhbh2rcd13ifvqepg","pricing_plan_id":"cebpf4jnsgd1na2vs0mg"},{"bike_id":"d3efef1e-0fec-4541-87fb-6df6ecce6f21","system_id":"levelo_inurba_marseille","lat":43.23195,"lon":5.35591,"is_reserved":false,"is_disabled":false,"rental_uris":{"android":"levelo://app?vid=d3efef1e-0fec-4541-87fb-6df6ecce6f21","ios":"levelo://app?vid=d3efef1e-0fec-4541-87fb-6df6ecce6f21"},"vehicle_type_id":"4","last_reported":1753175764,"current_range_meters":18800,"station_id":"ce4bhu92rcd13ifvqi70","pricing_plan_id":"cebpf4jnsgd1na2vs0mg"},{"bike_id":"b0814be2-3228-42a3-8f14-9e3ad3e47b21","system_id":"levelo_inurba_marseille","lat":43.250187,"lon":5.389129,"is_reserved":false,"is_disabled":false,"rental_uris":{"android":"levelo://app?vid=b0814be2-3228-42a3-8f14-9e3ad3e47b21","ios":"levelo://app?vid=b0814be2-3228-42a3-8f14-9e3ad3e47b21"},"vehicle_type_id":"4","last_reported":1753175764,"current_range_meters":18800,"station_id":"ce4bhgp2rcd13ifvqfd0","pricing_plan_id":"cebpf4jnsgd1na2vs0mg"},{"bike_id":"04bb8e0c-b1ab-47fd-8929-da5088119fe8","system_id":"levelo_inurba_marseille","lat":43.26571,"lon":5.372879,"is_reserved":false,"is_disabled":false,"rental_uris":{"android":"levelo://app?vid=04bb8e0c-b1ab-47fd-8929-da5088119fe8","ios":"levelo://app?vid=04bb8e0c-b1ab-47fd-8929-da5088119fe8"},"vehicle_type_id":"4","last_reported":1753175764,"current_range_meters":18800,"station_id":"","pricing_plan_id":"cebpf4jnsgd1na2vs0mg"},{"bike_id":"b50f0f4f-7320-45d6-803f-9f590ba8396d","system_id":"levelo_inurba_marseille","lat":43.26235,"lon":5.40498,"is_reserved":false,"is_disabled":false,"rental_uris":{"android":"levelo://app?vid=b50f0f4f-7320-45d6-803f-9f590ba8396d","ios":"levelo://app?vid=b50f0f4f-7320-45d6-803f-9f590ba8396d"},"vehicle_type_id":"4","last_reported":1753175764,"current_range_meters":18800,"station_id":"ce4bhmh2rcd13ifvqgmg","pricing_plan_id":"cebpf4jnsgd1na2vs0mg"},{"bike_id":"23cc3b08-ca65-4316-b0ac-f7195bc9668f","system_id":"levelo_inurba_marseille","lat":43.26063,"lon":5.39393,"is_reserved":false,"is_disabled":false,"rental_uris":{"android":"levelo://app?vid=23cc3b08-ca65-4316-b0ac-f7195bc9668f","ios":"levelo://app?vid=23cc3b08-ca65-4316-b0ac-f7195bc9668f"},"vehicle_type_id":"4","last_reported":1753175764,"current_range_meters":18800,"station_id":"ce4bhh92rcd13ifvqfj0","pricing_plan_id":"cebpf4jnsgd1na2vs0mg"},{"bike_id":"6d23e765-24be-402c-b4de-ff24cb318e32","system_id":"levelo_inurba_marseille","lat":43.22926,"lon":5.35367,"is_reserved":false,"is_disabled":true,"rental_uris":{"android":"levelo://app?vid=6d23e765-24be-402c-b4de-ff24cb318e32","ios":"levelo://app?vid=6d23e765-24be-402c-b4de-ff24cb318e32"},"vehicle_type_id":"4","last_reported":1753175764,"current_range_meters":19200,"station_id":"cpo3532slgdg3j2ikp40","pricing_plan_id":"cebpf4jnsgd1na2vs0mg"},{"bike_id":"84393d17-fd90-41ad-bfaa-13472a598857","system_id":"levelo_inurba_marseille","lat":43.2721,"lon":5.39181,"is_reserved":false,"is_disabled":false,"rental_uris":{"android":"levelo://app?vid=84393d17-fd90-41ad-bfaa-13472a598857","ios":"levelo://app?vid=84393d17-fd90-41ad-bfaa-13472a598857"},"vehicle_type_id":"4","last_reported":1753175764,"current_range_meters":18800,"station_id":"ce4bhhp2rcd13ifvqfm0","pricing_plan_id":"cebpf4jnsgd1na2vs0mg"},{"bike_id":"4f08a24c-518d-454e-adf4-0d1f552670ae","system_id":"levelo_inurba_marseille","lat":43.30459,"lon":5.37911,"is_reserved":false,"is_disabled":false,"rental_uris":{"android":"levelo://app?vid=4f08a24c-518d-454e-adf4-0d1f552670ae","ios":"levelo://app?vid=4f08a24c-518d-454e-adf4-0d1f552670ae"},"vehicle_type_id":"4","last_reported":1753175764,"current_range_meters":18800,"station_id":"ce4bgup2rcd13ifvqcn0","pricing_plan_id":"cebpf4jnsgd1na2vs0mg"},{"bike_id":"99e496ea-71ef-4bdb-b20d-08851d51893c","system_id":"levelo_inurba_marseille","lat":43.26552,"lon":5.37296,"is_reserved":false,"is_disabled":false,"rental_uris":{"android":"levelo://app?vid=99e496ea-71ef-4bdb-b20d-08851d51893c","ios":"levelo://app?vid=99e496ea-71ef-4bdb-b20d-08851d51893c"},"vehicle_type_id":"4","last_reported":1753175764,"current_range_meters":19200,"station_id":"ce4bhg12rcd13ifvqf70","pricing_plan_id":"cebpf4jnsgd1na2vs0mg"},{"bike_id":"6798d5c7-6fd1-49d7-9ca5-4a22805d0fb6","system_id":"levelo_inurba_marseille","lat":43.29034,"lon":5.386488,"is_reserved":false,"is_disabled":false,"rental_uris":{"android":"levelo://app?vid=6798d5c7-6fd1-49d7-9ca5-4a22805d0fb6","ios":"levelo://app?vid=6798d5c7-6fd1-49d7-9ca5-4a22805d0fb6"},"vehicle_type_id":"4","last_reported":1753175764,"current_range_meters":19200,"station_id":"ce4bh4p2rcd13ifvqe0g","pricing_plan_id":"cebpf4jnsgd1na2vs0mg"},{"bike_id":"cc3091ce-3dbb-4191-95a0-c30c7d075c9b","system_id":"levelo_inurba_marseille","lat":43.29873,"lon":5.39726,"is_reserved":false,"is_disabled":false,"rental_uris":{"android":"levelo://app?vid=cc3091ce-3dbb-4191-95a0-c30c7d075c9b","ios":"levelo://app?vid=cc3091ce-3dbb-4191-95a0-c30c7d075c9b"},"vehicle_type_id":"4","last_reported":1753175764,"current_range_meters":19200,"station_id":"ce4bh0h2rcd13ifvqd50","pricing_plan_id":"cebpf4jnsgd1na2vs0mg"},{"bike_id":"ab2576ba-3498-47f6-959d-8cf2fbd2103d","system_id":"levelo_inurba_marseille","lat":43.28419,"lon":5.3752,"is_reserved":false,"is_disabled":false,"rental_uris":{"android":"levelo://app?vid=ab2576ba-3498-47f6-959d-8cf2fbd2103d","ios":"levelo://app?vid=ab2576ba-3498-47f6-959d-8cf2fbd2103d"},"vehicle_type_id":"4","last_reported":1753175764,"current_range_meters":19200,"station_id":"ce4bh412rcd13ifvqds0","pricing_plan_id":"cebpf4jnsgd1na2vs0mg"},{"bike_id":"5ea1e0b3-e596-45e6-88e9-c65da10bd3b4","system_id":"levelo_inurba_marseille","lat":43.29986,"lon":5.37439,"is_reserved":false,"is_disabled":false,"rental_uris":{"android":"levelo://app?vid=5ea1e0b3-e596-45e6-88e9-c65da10bd3b4","ios":"levelo://app?vid=5ea1e0b3-e596-45e6-88e9-c65da10bd3b4"},"vehicle_type_id":"4","last_reported":1753175764,"current_range_meters":19600,"station_id":"","pricing_plan_id":"cebpf4jnsgd1na2vs0mg"},{"bike_id":"5cd570b3-5ede-4c04-957b-bd2e249463fd","system_id":"levelo_inurba_marseille","lat":43.21215,"lon":5.35071,"is_reserved":false,"is_disabled":false,"rental_uris":{"android":"levelo://app?vid=5cd570b3-5ede-4c04-957b-bd2e249463fd","ios":"levelo://app?vid=5cd570b3-5ede-4c04-957b-bd2e249463fd"},"vehicle_type_id":"4","last_reported":1753175764,"current_range_meters":19600,"station_id":"st_cvj6sg6p6f1abm77japg","pricing_plan_id":"cebpf4jnsgd1na2vs0mg"},{"bike_id":"29b14e23-f4d2-4fd7-9c3b-1f5dde7b2e61","system_id":"levelo_inurba_marseille","lat":43.286078,"lon":5.370652,"is_reserved":false,"is_disabled":true,"rental_uris":{"android":"levelo://app?vid=29b14e23-f4d2-4fd7-9c3b-1f5dde7b2e61","ios":"levelo://app?vid=29b14e23-f4d2-4fd7-9c3b-1f5dde7b2e61"},"vehicle_type_id":"4","last_reported":1753175764,"current_range_meters":19600,"station_id":"ce4bht12rcd13ifvqi60","pricing_plan_id":"cebpf4jnsgd1na2vs0mg"},{"bike_id":"2975a10e-052a-4ed4-8afb-b52549159b49","system_id":"levelo_inurba_marseille","lat":43.32893,"lon":5.37464,"is_reserved":false,"is_disabled":false,"rental_uris":{"android":"levelo://app?vid=2975a10e-052a-4ed4-8afb-b52549159b49","ios":"levelo://app?vid=2975a10e-052a-4ed4-8afb-b52549159b49"},"vehicle_type_id":"4","last_reported":1753175764,"current_range_meters":19600,"station_id":"","pricing_plan_id":"cebpf4jnsgd1na2vs0mg"},{"bike_id":"7c469fdf-247c-4d74-b922-ac3f1e71a54b","system_id":"levelo_inurba_marseille","lat":43.27621,"lon":5.36098,"is_reserved":false,"is_disabled":false,"rental_uris":{"android":"levelo://app?vid=7c469fdf-247c-4d74-b922-ac3f1e71a54b","ios":"levelo://app?vid=7c469fdf-247c-4d74-b922-ac3f1e71a54b"},"vehicle_type_id":"4","last_reported":1753175764,"current_range_meters":19600,"station_id":"ce4bgj92rcd13ifvqbe0","pricing_plan_id":"cebpf4jnsgd1na2vs0mg"},{"bike_id":"aee33f86-a4b0-4585-8b9f-24e6fd26cb5f","system_id":"levelo_inurba_marseille","lat":43.25003,"lon":5.38931,"is_reserved":false,"is_disabled":false,"rental_uris":{"android":"levelo://app?vid=aee33f86-a4b0-4585-8b9f-24e6fd26cb5f","ios":"levelo://app?vid=aee33f86-a4b0-4585-8b9f-24e6fd26cb5f"},"vehicle_type_id":"4","last_reported":1753175764,"current_range_meters":19600,"station_id":"ce4bhgp2rcd13ifvqfd0","pricing_plan_id":"cebpf4jnsgd1na2vs0mg"},{"bike_id":"ee87f1ea-d80a-4b4b-bd90-7c7d797ba635","system_id":"levelo_inurba_marseille","lat":43.27945,"lon":5.38707,"is_reserved":false,"is_disabled":false,"rental_uris":{"android":"levelo://app?vid=ee87f1ea-d80a-4b4b-bd90-7c7d797ba635","ios":"levelo://app?vid=ee87f1ea-d80a-4b4b-bd90-7c7d797ba635"},"vehicle_type_id":"4","last_reported":1753175764,"current_range_meters":19600,"station_id":"ce4bhg12rcd13ifvqf80","pricing_plan_id":"cebpf4jnsgd1na2vs0mg"},{"bike_id":"4b6a144d-a6bb-436f-933b-8837c79b4781","system_id":"levelo_inurba_marseille","lat":43.26562,"lon":5.37279,"is_reserved":false,"is_disabled":false,"rental_uris":{"android":"levelo://app?vid=4b6a144d-a6bb-436f-933b-8837c79b4781","ios":"levelo://app?vid=4b6a144d-a6bb-436f-933b-8837c79b4781"},"vehicle_type_id":"4","last_reported":1753175764,"current_range_meters":19600,"station_id":"ce4bhg12rcd13ifvqf70","pricing_plan_id":"cebpf4jnsgd1na2vs0mg"},{"bike_id":"37e12f00-021d-4f0d-9b21-a9b8f32f3d60","system_id":"levelo_inurba_marseille","lat":43.23147,"lon":5.43745,"is_reserved":false,"is_disabled":false,"rental_uris":{"android":"levelo://app?vid=37e12f00-021d-4f0d-9b21-a9b8f32f3d60","ios":"levelo://app?vid=37e12f00-021d-4f0d-9b21-a9b8f32f3d60"},"vehicle_type_id":"4","last_reported":1753175764,"current_range_meters":20000,"station_id":"ce4bhmp2rcd13ifvqgog","pricing_plan_id":"cebpf4jnsgd1na2vs0mg"},{"bike_id":"4baedf4b-88b8-4b2a-9c18-0b9777edb979","system_id":"levelo_inurba_marseille","lat":43.2704,"lon":5.40266,"is_reserved":false,"is_disabled":false,"rental_uris":{"android":"levelo://app?vid=4baedf4b-88b8-4b2a-9c18-0b9777edb979","ios":"levelo://app?vid=4baedf4b-88b8-4b2a-9c18-0b9777edb979"},"vehicle_type_id":"4","last_reported":1753175764,"current_range_meters":20000,"station_id":"ce4bhk92rcd13ifvqgc0","pricing_plan_id":"cebpf4jnsgd1na2vs0mg"},{"bike_id":"b5b7500c-ad80-4ca0-a055-2b6a25985938","system_id":"levelo_inurba_marseille","lat":43.307387,"lon":5.370991,"is_reserved":false,"is_disabled":false,"rental_uris":{"android":"levelo://app?vid=b5b7500c-ad80-4ca0-a055-2b6a25985938","ios":"levelo://app?vid=b5b7500c-ad80-4ca0-a055-2b6a25985938"},"vehicle_type_id":"4","last_reported":1753175764,"current_range_meters":20000,"station_id":"","pricing_plan_id":"cebpf4jnsgd1na2vs0mg"},{"bike_id":"a56bd610-0bb3-4b2a-af88-aece8b431f8b","system_id":"levelo_inurba_marseille","lat":43.29726,"lon":5.37691,"is_reserved":false,"is_disabled":false,"rental_uris":{"android":"levelo://app?vid=a56bd610-0bb3-4b2a-af88-aece8b431f8b","ios":"levelo://app?vid=a56bd610-0bb3-4b2a-af88-aece8b431f8b"},"vehicle_type_id":"4","last_reported":1753175764,"current_range_meters":19600,"station_id":"ce4bgkh2rcd13ifvqbl0","pricing_plan_id":"cebpf4jnsgd1na2vs0mg"},{"bike_id":"005b1758-b217-47ee-b6da-37711cec6e16","system_id":"levelo_inurba_marseille","lat":43.24175,"lon":5.36395,"is_reserved":false,"is_disabled":false,"rental_uris":{"android":"levelo://app?vid=005b1758-b217-47ee-b6da-37711cec6e16","ios":"levelo://app?vid=005b1758-b217-47ee-b6da-37711cec6e16"},"vehicle_type_id":"4","last_reported":1753175764,"current_range_meters":20000,"station_id":"cpo36qri1sfpv3e86is0","pricing_plan_id":"cebpf4jnsgd1na2vs0mg"},{"bike_id":"470d065f-b01c-4ac4-a84a-bf4177859bd1","system_id":"levelo_inurba_marseille","lat":43.33737,"lon":5.39185,"is_reserved":false,"is_disabled":false,"rental_uris":{"android":"levelo://app?vid=470d065f-b01c-4ac4-a84a-bf4177859bd1","ios":"levelo://app?vid=470d065f-b01c-4ac4-a84a-bf4177859bd1"},"vehicle_type_id":"4","last_reported":1753175764,"current_range_meters":19600,"station_id":"ce4bhr92rcd13ifvqhsg","pricing_plan_id":"cebpf4jnsgd1na2vs0mg"},{"bike_id":"dc6fc453-9812-4d99-8dd4-5c70596d59ce","system_id":"levelo_inurba_marseille","lat":43.337534,"lon":5.374547,"is_reserved":false,"is_disabled":false,"rental_uris":{"android":"levelo://app?vid=dc6fc453-9812-4d99-8dd4-5c70596d59ce","ios":"levelo://app?vid=dc6fc453-9812-4d99-8dd4-5c70596d59ce"},"vehicle_type_id":"4","last_reported":1753175764,"current_range_meters":20000,"station_id":"","pricing_plan_id":"cebpf4jnsgd1na2vs0mg"},{"bike_id":"3efd62d6-b9b0-4252-b93c-65f03dbf7e6e","system_id":"levelo_inurba_marseille","lat":43.30797,"lon":5.38169,"is_reserved":false,"is_disabled":false,"rental_uris":{"android":"levelo://app?vid=3efd62d6-b9b0-4252-b93c-65f03dbf7e6e","ios":"levelo://app?vid=3efd62d6-b9b0-4252-b93c-65f03dbf7e6e"},"vehicle_type_id":"4","last_reported":1753175764,"current_range_meters":20000,"station_id":"ce4bgt12rcd13ifvqce0","pricing_plan_id":"cebpf4jnsgd1na2vs0mg"},{"bike_id":"2c47db04-15df-4a2a-8459-a941650094eb","system_id":"levelo_inurba_marseille","lat":43.2119,"lon":5.35066,"is_reserved":false,"is_disabled":false,"rental_uris":{"android":"levelo://app?vid=2c47db04-15df-4a2a-8459-a941650094eb","ios":"levelo://app?vid=2c47db04-15df-4a2a-8459-a941650094eb"},"vehicle_type_id":"4","last_reported":1753175764,"current_range_meters":20000,"station_id":"st_cvj6sg6p6f1abm77japg","pricing_plan_id":"cebpf4jnsgd1na2vs0mg"},{"bike_id":"14e42d40-214d-4eca-afd4-64e6b0f4d797","system_id":"levelo_inurba_marseille","lat":43.29266,"lon":5.37615,"is_reserved":false,"is_disabled":false,"rental_uris":{"android":"levelo://app?vid=14e42d40-214d-4eca-afd4-64e6b0f4d797","ios":"levelo://app?vid=14e42d40-214d-4eca-afd4-64e6b0f4d797"},"vehicle_type_id":"4","last_reported":1753175764,"current_range_meters":20000,"station_id":"ce4bgi12rcd13ifvqb80","pricing_plan_id":"cebpf4jnsgd1na2vs0mg"},{"bike_id":"3e35d245-5de9-4144-851a-627cd2108226","system_id":"levelo_inurba_marseille","lat":43.28472,"lon":5.38563,"is_reserved":false,"is_disabled":false,"rental_uris":{"android":"levelo://app?vid=3e35d245-5de9-4144-851a-627cd2108226","ios":"levelo://app?vid=3e35d245-5de9-4144-851a-627cd2108226"},"vehicle_type_id":"4","last_reported":1753175764,"current_range_meters":20000,"station_id":"ce4bh8p2rcd13ifvqeb0","pricing_plan_id":"cebpf4jnsgd1na2vs0mg"},{"bike_id":"4b04ca27-b65f-4da7-a701-b330371197ff","system_id":"levelo_inurba_marseille","lat":43.29874,"lon":5.39726,"is_reserved":false,"is_disabled":false,"rental_uris":{"android":"levelo://app?vid=4b04ca27-b65f-4da7-a701-b330371197ff","ios":"levelo://app?vid=4b04ca27-b65f-4da7-a701-b330371197ff"},"vehicle_type_id":"4","last_reported":1753175764,"current_range_meters":19600,"station_id":"ce4bh0h2rcd13ifvqd50","pricing_plan_id":"cebpf4jnsgd1na2vs0mg"},{"bike_id":"14ff57e9-df81-436a-97c8-6f0e1a67e809","system_id":"levelo_inurba_marseille","lat":43.321115,"lon":5.367738,"is_reserved":false,"is_disabled":false,"rental_uris":{"android":"levelo://app?vid=14ff57e9-df81-436a-97c8-6f0e1a67e809","ios":"levelo://app?vid=14ff57e9-df81-436a-97c8-6f0e1a67e809"},"vehicle_type_id":"4","last_reported":1753175764,"current_range_meters":20000,"station_id":"ce4bhrh2rcd13ifvqhug","pricing_plan_id":"cebpf4jnsgd1na2vs0mg"},{"bike_id":"46953a4e-92ac-4cb6-95ca-80487c836b00","system_id":"levelo_inurba_marseille","lat":43.28922,"lon":5.38394,"is_reserved":false,"is_disabled":true,"rental_uris":{"android":"levelo://app?vid=46953a4e-92ac-4cb6-95ca-80487c836b00","ios":"levelo://app?vid=46953a4e-92ac-4cb6-95ca-80487c836b00"},"vehicle_type_id":"4","last_reported":1753175764,"current_range_meters":20000,"station_id":"ce4bh612rcd13ifvqe6g","pricing_plan_id":"cebpf4jnsgd1na2vs0mg"},{"bike_id":"60b45928-e7a8-45f4-b207-023988da4a55","system_id":"levelo_inurba_marseille","lat":43.23181,"lon":5.39977,"is_reserved":false,"is_disabled":true,"rental_uris":{"android":"levelo://app?vid=60b45928-e7a8-45f4-b207-023988da4a55","ios":"levelo://app?vid=60b45928-e7a8-45f4-b207-023988da4a55"},"vehicle_type_id":"4","last_reported":1753175764,"current_range_meters":20000,"station_id":"ce4bhn12rcd13ifvqgqg","pricing_plan_id":"cebpf4jnsgd1na2vs0mg"},{"bike_id":"61db9a4a-0ff7-46f3-8e1f-0994dbc8326b","system_id":"levelo_inurba_marseille","lat":43.31841,"lon":5.36804,"is_reserved":false,"is_disabled":false,"rental_uris":{"android":"levelo://app?vid=61db9a4a-0ff7-46f3-8e1f-0994dbc8326b","ios":"levelo://app?vid=61db9a4a-0ff7-46f3-8e1f-0994dbc8326b"},"vehicle_type_id":"4","last_reported":1753175764,"current_range_meters":20000,"station_id":"","pricing_plan_id":"cebpf4jnsgd1na2vs0mg"},{"bike_id":"92d15f33-a004-45d3-89e5-e3f6b067239f","system_id":"levelo_inurba_marseille","lat":43.29082,"lon":5.37155,"is_reserved":false,"is_disabled":false,"rental_uris":{"android":"levelo://app?vid=92d15f33-a004-45d3-89e5-e3f6b067239f","ios":"levelo://app?vid=92d15f33-a004-45d3-89e5-e3f6b067239f"},"vehicle_type_id":"4","last_reported":1753175764,"current_range_meters":19600,"station_id":"ce4bh5p2rcd13ifvqe4g","pricing_plan_id":"cebpf4jnsgd1na2vs0mg"},{"bike_id":"0c040343-7863-4839-a0f6-870550b37982","system_id":"levelo_inurba_marseille","lat":43.28616,"lon":5.35107,"is_reserved":false,"is_disabled":false,"rental_uris":{"android":"levelo://app?vid=0c040343-7863-4839-a0f6-870550b37982","ios":"levelo://app?vid=0c040343-7863-4839-a0f6-870550b37982"},"vehicle_type_id":"4","last_reported":1753175764,"current_range_meters":20000,"station_id":"ce4bhch2rcd13ifvqeug","pricing_plan_id":"cebpf4jnsgd1na2vs0mg"},{"bike_id":"2e29f8ac-7376-4213-979e-085b4ee40d9c","system_id":"levelo_inurba_marseille","lat":43.257243,"lon":5.410986,"is_reserved":false,"is_disabled":false,"rental_uris":{"android":"levelo://app?vid=2e29f8ac-7376-4213-979e-085b4ee40d9c","ios":"levelo://app?vid=2e29f8ac-7376-4213-979e-085b4ee40d9c"},"vehicle_type_id":"4","last_reported":1753175764,"current_range_meters":20400,"station_id":"ce4bhkp2rcd13ifvqgd0","pricing_plan_id":"cebpf4jnsgd1na2vs0mg"},{"bike_id":"11c9588a-e122-4ee6-991f-f37585087ee9","system_id":"levelo_inurba_marseille","lat":43.30547,"lon":5.36685,"is_reserved":false,"is_disabled":false,"rental_uris":{"android":"levelo://app?vid=11c9588a-e122-4ee6-991f-f37585087ee9","ios":"levelo://app?vid=11c9588a-e122-4ee6-991f-f37585087ee9"},"vehicle_type_id":"4","last_reported":1753175764,"current_range_meters":20400,"station_id":"ce4bgrp2rcd13ifvqc9g","pricing_plan_id":"cebpf4jnsgd1na2vs0mg"},{"bike_id":"eb39f0d6-2f37-46c1-ab5c-f53ed31350a1","system_id":"levelo_inurba_marseille","lat":43.32124,"lon":5.36801,"is_reserved":false,"is_disabled":false,"rental_uris":{"android":"levelo://app?vid=eb39f0d6-2f37-46c1-ab5c-f53ed31350a1","ios":"levelo://app?vid=eb39f0d6-2f37-46c1-ab5c-f53ed31350a1"},"vehicle_type_id":"4","last_reported":1753175764,"current_range_meters":20400,"station_id":"ce4bhrh2rcd13ifvqhug","pricing_plan_id":"cebpf4jnsgd1na2vs0mg"},{"bike_id":"8dbd27c7-7d38-48bc-978d-604a050c6911","system_id":"levelo_inurba_marseille","lat":43.26552,"lon":5.37288,"is_reserved":false,"is_disabled":false,"rental_uris":{"android":"levelo://app?vid=8dbd27c7-7d38-48bc-978d-604a050c6911","ios":"levelo://app?vid=8dbd27c7-7d38-48bc-978d-604a050c6911"},"vehicle_type_id":"4","last_reported":1753175764,"current_range_meters":20400,"station_id":"ce4bhg12rcd13ifvqf70","pricing_plan_id":"cebpf4jnsgd1na2vs0mg"},{"bike_id":"cf11f61d-83d8-4e56-9503-0282553d7be7","system_id":"levelo_inurba_marseille","lat":43.25945,"lon":5.40918,"is_reserved":false,"is_disabled":false,"rental_uris":{"android":"levelo://app?vid=cf11f61d-83d8-4e56-9503-0282553d7be7","ios":"levelo://app?vid=cf11f61d-83d8-4e56-9503-0282553d7be7"},"vehicle_type_id":"4","last_reported":1753175764,"current_range_meters":20400,"station_id":"ce4bhm92rcd13ifvqglg","pricing_plan_id":"cebpf4jnsgd1na2vs0mg"},{"bike_id":"c4f10c42-444b-440d-a739-b37c12b0c6fa","system_id":"levelo_inurba_marseille","lat":43.276176,"lon":5.361005,"is_reserved":false,"is_disabled":false,"rental_uris":{"android":"levelo://app?vid=c4f10c42-444b-440d-a739-b37c12b0c6fa","ios":"levelo://app?vid=c4f10c42-444b-440d-a739-b37c12b0c6fa"},"vehicle_type_id":"4","last_reported":1753175764,"current_range_meters":20400,"station_id":"","pricing_plan_id":"cebpf4jnsgd1na2vs0mg"},{"bike_id":"4c33e117-309c-4ff6-93a7-46afa9fe6644","system_id":"levelo_inurba_marseille","lat":43.25931,"lon":5.40899,"is_reserved":false,"is_disabled":false,"rental_uris":{"android":"levelo://app?vid=4c33e117-309c-4ff6-93a7-46afa9fe6644","ios":"levelo://app?vid=4c33e117-309c-4ff6-93a7-46afa9fe6644"},"vehicle_type_id":"4","last_reported":1753175764,"current_range_meters":20400,"station_id":"ce4bhm92rcd13ifvqglg","pricing_plan_id":"cebpf4jnsgd1na2vs0mg"},{"bike_id":"ff7c318c-5e6b-43ad-b16d-834f6b8b4d96","system_id":"levelo_inurba_marseille","lat":43.32365,"lon":5.36766,"is_reserved":false,"is_disabled":false,"rental_uris":{"android":"levelo://app?vid=ff7c318c-5e6b-43ad-b16d-834f6b8b4d96","ios":"levelo://app?vid=ff7c318c-5e6b-43ad-b16d-834f6b8b4d96"},"vehicle_type_id":"4","last_reported":1753175764,"current_range_meters":20400,"station_id":"ce4bhsh2rcd13ifvqi2g","pricing_plan_id":"cebpf4jnsgd1na2vs0mg"},{"bike_id":"59d4aa1b-81ca-4401-809e-46bab2a15b08","system_id":"levelo_inurba_marseille","lat":43.26043,"lon":5.394067,"is_reserved":false,"is_disabled":false,"rental_uris":{"android":"levelo://app?vid=59d4aa1b-81ca-4401-809e-46bab2a15b08","ios":"levelo://app?vid=59d4aa1b-81ca-4401-809e-46bab2a15b08"},"vehicle_type_id":"4","last_reported":1753175764,"current_range_meters":20400,"station_id":"ce4bhh92rcd13ifvqfj0","pricing_plan_id":"cebpf4jnsgd1na2vs0mg"},{"bike_id":"90fc8c6b-0397-4603-a53c-8399cd604ed9","system_id":"levelo_inurba_marseille","lat":43.231836,"lon":5.399889,"is_reserved":false,"is_disabled":false,"rental_uris":{"android":"levelo://app?vid=90fc8c6b-0397-4603-a53c-8399cd604ed9","ios":"levelo://app?vid=90fc8c6b-0397-4603-a53c-8399cd604ed9"},"vehicle_type_id":"4","last_reported":1753175764,"current_range_meters":20400,"station_id":"ce4bhn12rcd13ifvqgqg","pricing_plan_id":"cebpf4jnsgd1na2vs0mg"},{"bike_id":"6d19c804-ebcf-404d-9d8f-025ddc08223a","system_id":"levelo_inurba_marseille","lat":43.32541,"lon":5.41426,"is_reserved":false,"is_disabled":false,"rental_uris":{"android":"levelo://app?vid=6d19c804-ebcf-404d-9d8f-025ddc08223a","ios":"levelo://app?vid=6d19c804-ebcf-404d-9d8f-025ddc08223a"},"vehicle_type_id":"4","last_reported":1753175764,"current_range_meters":20400,"station_id":"ce4bhq12rcd13ifvqhhg","pricing_plan_id":"cebpf4jnsgd1na2vs0mg"},{"bike_id":"95071475-f0ee-47d5-acde-31c438d445db","system_id":"levelo_inurba_marseille","lat":43.2679,"lon":5.39425,"is_reserved":false,"is_disabled":false,"rental_uris":{"android":"levelo://app?vid=95071475-f0ee-47d5-acde-31c438d445db","ios":"levelo://app?vid=95071475-f0ee-47d5-acde-31c438d445db"},"vehicle_type_id":"4","last_reported":1753175764,"current_range_meters":20800,"station_id":"ce4bhh12rcd13ifvqfg0","pricing_plan_id":"cebpf4jnsgd1na2vs0mg"},{"bike_id":"bff7ac6f-25e1-41cf-8172-593e1d8e0770","system_id":"levelo_inurba_marseille","lat":43.293,"lon":5.37466,"is_reserved":false,"is_disabled":false,"rental_uris":{"android":"levelo://app?vid=bff7ac6f-25e1-41cf-8172-593e1d8e0770","ios":"levelo://app?vid=bff7ac6f-25e1-41cf-8172-593e1d8e0770"},"vehicle_type_id":"4","last_reported":1753175764,"current_range_meters":20800,"station_id":"ce4bgi12rcd13ifvqb70","pricing_plan_id":"cebpf4jnsgd1na2vs0mg"},{"bike_id":"ec82385f-ea68-46ee-9627-f1c80cc01e6c","system_id":"levelo_inurba_marseille","lat":43.3052,"lon":5.36849,"is_reserved":false,"is_disabled":false,"rental_uris":{"android":"levelo://app?vid=ec82385f-ea68-46ee-9627-f1c80cc01e6c","ios":"levelo://app?vid=ec82385f-ea68-46ee-9627-f1c80cc01e6c"},"vehicle_type_id":"4","last_reported":1753175764,"current_range_meters":20800,"station_id":"","pricing_plan_id":"cebpf4jnsgd1na2vs0mg"},{"bike_id":"6c2dab93-e61e-4a12-9c2e-c4f75abf8827","system_id":"levelo_inurba_marseille","lat":43.30521,"lon":5.36749,"is_reserved":false,"is_disabled":false,"rental_uris":{"android":"levelo://app?vid=6c2dab93-e61e-4a12-9c2e-c4f75abf8827","ios":"levelo://app?vid=6c2dab93-e61e-4a12-9c2e-c4f75abf8827"},"vehicle_type_id":"4","last_reported":1753175764,"current_range_meters":21600,"station_id":"ce4bgrp2rcd13ifvqc9g","pricing_plan_id":"cebpf4jnsgd1na2vs0mg"},{"bike_id":"87ff85ae-3559-47d0-9d53-052116c56a7f","system_id":"levelo_inurba_marseille","lat":43.21769,"lon":5.34642,"is_reserved":false,"is_disabled":false,"rental_uris":{"android":"levelo://app?vid=87ff85ae-3559-47d0-9d53-052116c56a7f","ios":"levelo://app?vid=87ff85ae-3559-47d0-9d53-052116c56a7f"},"vehicle_type_id":"4","last_reported":1753175764,"current_range_meters":20800,"station_id":"st_cvj6r9ubvosntc0bgbag","pricing_plan_id":"cebpf4jnsgd1na2vs0mg"},{"bike_id":"947836c2-7593-4c87-9801-83802a7ceca9","system_id":"levelo_inurba_marseille","lat":43.29841,"lon":5.36263,"is_reserved":false,"is_disabled":false,"rental_uris":{"android":"levelo://app?vid=947836c2-7593-4c87-9801-83802a7ceca9","ios":"levelo://app?vid=947836c2-7593-4c87-9801-83802a7ceca9"},"vehicle_type_id":"4","last_reported":1753175764,"current_range_meters":20800,"station_id":"ce4bgpp2rcd13ifvqc3g","pricing_plan_id":"cebpf4jnsgd1na2vs0mg"},{"bike_id":"5f4e6fdc-be58-4a44-98d8-4d64a7235268","system_id":"levelo_inurba_marseille","lat":43.24362,"lon":5.37059,"is_reserved":false,"is_disabled":false,"rental_uris":{"android":"levelo://app?vid=5f4e6fdc-be58-4a44-98d8-4d64a7235268","ios":"levelo://app?vid=5f4e6fdc-be58-4a44-98d8-4d64a7235268"},"vehicle_type_id":"4","last_reported":1753175764,"current_range_meters":20800,"station_id":"ce4bhhh2rcd13ifvqfk0","pricing_plan_id":"cebpf4jnsgd1na2vs0mg"},{"bike_id":"f6546c0f-1b1f-4b2d-a6fd-92e583837130","system_id":"levelo_inurba_marseille","lat":43.305437,"lon":5.367028,"is_reserved":false,"is_disabled":false,"rental_uris":{"android":"levelo://app?vid=f6546c0f-1b1f-4b2d-a6fd-92e583837130","ios":"levelo://app?vid=f6546c0f-1b1f-4b2d-a6fd-92e583837130"},"vehicle_type_id":"4","last_reported":1753175764,"current_range_meters":20800,"station_id":"ce4bgrp2rcd13ifvqc9g","pricing_plan_id":"cebpf4jnsgd1na2vs0mg"},{"bike_id":"efd63e28-5ae3-4089-82a7-7ab32be6e870","system_id":"levelo_inurba_marseille","lat":43.28478,"lon":5.38557,"is_reserved":false,"is_disabled":false,"rental_uris":{"android":"levelo://app?vid=efd63e28-5ae3-4089-82a7-7ab32be6e870","ios":"levelo://app?vid=efd63e28-5ae3-4089-82a7-7ab32be6e870"},"vehicle_type_id":"4","last_reported":1753175764,"current_range_meters":20800,"station_id":"ce4bh8p2rcd13ifvqeb0","pricing_plan_id":"cebpf4jnsgd1na2vs0mg"},{"bike_id":"fbfa168f-cead-4d92-b0ae-13b7648a3c84","system_id":"levelo_inurba_marseille","lat":43.29269,"lon":5.37634,"is_reserved":false,"is_disabled":false,"rental_uris":{"android":"levelo://app?vid=fbfa168f-cead-4d92-b0ae-13b7648a3c84","ios":"levelo://app?vid=fbfa168f-cead-4d92-b0ae-13b7648a3c84"},"vehicle_type_id":"4","last_reported":1753175764,"current_range_meters":21600,"station_id":"ce4bgi12rcd13ifvqb80","pricing_plan_id":"cebpf4jnsgd1na2vs0mg"},{"bike_id":"c5a0dbf1-71dc-4d88-b89a-d9fc6eb048de","system_id":"levelo_inurba_marseille","lat":43.23143,"lon":5.43708,"is_reserved":false,"is_disabled":false,"rental_uris":{"android":"levelo://app?vid=c5a0dbf1-71dc-4d88-b89a-d9fc6eb048de","ios":"levelo://app?vid=c5a0dbf1-71dc-4d88-b89a-d9fc6eb048de"},"vehicle_type_id":"4","last_reported":1753175764,"current_range_meters":20400,"station_id":"ce4bhmp2rcd13ifvqgog","pricing_plan_id":"cebpf4jnsgd1na2vs0mg"},{"bike_id":"7a4bda36-e79e-471c-b16b-2175c8805ebf","system_id":"levelo_inurba_marseille","lat":43.27058,"lon":5.40263,"is_reserved":false,"is_disabled":false,"rental_uris":{"android":"levelo://app?vid=7a4bda36-e79e-471c-b16b-2175c8805ebf","ios":"levelo://app?vid=7a4bda36-e79e-471c-b16b-2175c8805ebf"},"vehicle_type_id":"4","last_reported":1753175764,"current_range_meters":21600,"station_id":"ce4bhk92rcd13ifvqgc0","pricing_plan_id":"cebpf4jnsgd1na2vs0mg"},{"bike_id":"e3f895f1-9d9e-4b9d-b0bd-844ebaa97f6f","system_id":"levelo_inurba_marseille","lat":43.31498,"lon":5.37276,"is_reserved":false,"is_disabled":false,"rental_uris":{"android":"levelo://app?vid=e3f895f1-9d9e-4b9d-b0bd-844ebaa97f6f","ios":"levelo://app?vid=e3f895f1-9d9e-4b9d-b0bd-844ebaa97f6f"},"vehicle_type_id":"4","last_reported":1753175764,"current_range_meters":21600,"station_id":"ce4bgt12rcd13ifvqcd0","pricing_plan_id":"cebpf4jnsgd1na2vs0mg"},{"bike_id":"a7b2df1f-8f74-4cf4-8111-6912bc55506a","system_id":"levelo_inurba_marseille","lat":43.29974,"lon":5.371631,"is_reserved":false,"is_disabled":true,"rental_uris":{"android":"levelo://app?vid=a7b2df1f-8f74-4cf4-8111-6912bc55506a","ios":"levelo://app?vid=a7b2df1f-8f74-4cf4-8111-6912bc55506a"},"vehicle_type_id":"4","last_reported":1753175764,"current_range_meters":21600,"station_id":"","pricing_plan_id":"cebpf4jnsgd1na2vs0mg"},{"bike_id":"fcf79c8c-3c6e-4f22-9cad-a4e181134489","system_id":"levelo_inurba_marseille","lat":43.30529,"lon":5.36682,"is_reserved":false,"is_disabled":false,"rental_uris":{"android":"levelo://app?vid=fcf79c8c-3c6e-4f22-9cad-a4e181134489","ios":"levelo://app?vid=fcf79c8c-3c6e-4f22-9cad-a4e181134489"},"vehicle_type_id":"4","last_reported":1753175764,"current_range_meters":21600,"station_id":"ce4bgrp2rcd13ifvqc9g","pricing_plan_id":"cebpf4jnsgd1na2vs0mg"},{"bike_id":"b13a119d-4c56-4119-a2a8-eac439232cb6","system_id":"levelo_inurba_marseille","lat":43.30143,"lon":5.38781,"is_reserved":false,"is_disabled":false,"rental_uris":{"android":"levelo://app?vid=b13a119d-4c56-4119-a2a8-eac439232cb6","ios":"levelo://app?vid=b13a119d-4c56-4119-a2a8-eac439232cb6"},"vehicle_type_id":"4","last_reported":1753175764,"current_range_meters":21600,"station_id":"ce4bghh2rcd13ifvqb60","pricing_plan_id":"cebpf4jnsgd1na2vs0mg"},{"bike_id":"a0f434db-7223-4202-9f20-f7d0df8860be","system_id":"levelo_inurba_marseille","lat":43.27055,"lon":5.40272,"is_reserved":false,"is_disabled":false,"rental_uris":{"android":"levelo://app?vid=a0f434db-7223-4202-9f20-f7d0df8860be","ios":"levelo://app?vid=a0f434db-7223-4202-9f20-f7d0df8860be"},"vehicle_type_id":"4","last_reported":1753175764,"current_range_meters":21600,"station_id":"ce4bhk92rcd13ifvqgc0","pricing_plan_id":"cebpf4jnsgd1na2vs0mg"},{"bike_id":"608af552-2c0c-47ee-afc1-325b1d965497","system_id":"levelo_inurba_marseille","lat":43.23194,"lon":5.35547,"is_reserved":false,"is_disabled":false,"rental_uris":{"android":"levelo://app?vid=608af552-2c0c-47ee-afc1-325b1d965497","ios":"levelo://app?vid=608af552-2c0c-47ee-afc1-325b1d965497"},"vehicle_type_id":"4","last_reported":1753175764,"current_range_meters":21600,"station_id":"ce4bhu92rcd13ifvqi70","pricing_plan_id":"cebpf4jnsgd1na2vs0mg"},{"bike_id":"3161be77-2c0d-41b5-9825-5f188d4540da","system_id":"levelo_inurba_marseille","lat":43.22504,"lon":5.34787,"is_reserved":false,"is_disabled":false,"rental_uris":{"android":"levelo://app?vid=3161be77-2c0d-41b5-9825-5f188d4540da","ios":"levelo://app?vid=3161be77-2c0d-41b5-9825-5f188d4540da"},"vehicle_type_id":"4","last_reported":1753175764,"current_range_meters":21600,"station_id":"st_cvj5dfep6f1abm77gieg","pricing_plan_id":"cebpf4jnsgd1na2vs0mg"},{"bike_id":"41dace92-f86c-4b55-b489-828601ec639c","system_id":"levelo_inurba_marseille","lat":43.30193,"lon":5.36613,"is_reserved":false,"is_disabled":false,"rental_uris":{"android":"levelo://app?vid=41dace92-f86c-4b55-b489-828601ec639c","ios":"levelo://app?vid=41dace92-f86c-4b55-b489-828601ec639c"},