{"last_updated":1732129600,"ttl":60,"version":"2.2","data":{"bikes":[{"bike_id":"590334c7-9fd1-4d2b-ae38-56f8c1ba5667","system_id":"levelo_inurba_marseille","lat":43.3091,"lon":5.3784,"is_reserved":false,"is_disabled":false,"rental_uris":{"android":"levelo://app?vid=590334c7-9fd1-4d2b-ae38-56f8c1ba5667","ios":"levelo://app?vid=590334c7-9fd1-4d2b-ae38-56f8c1ba5667"},"vehicle_type_id":"4","last_reported":1732129600,"current_range_meters":15200,"station_id":"ce4bgk12rcd13ifvqbi0","pricing_plan_id":"cebpf4jnsgd1na2vs0mg"},{"bike_id":"eb1fd276-641d-4de0-bfa8-6c1377f03001","system_id":"levelo_inurba_marseille","lat":43.24668,"lon":5.38157,"is_reserved":false,"is_disabled":false,"rental_uris":{"android":"levelo://app?vid=eb1fd276-641d-4de0-bfa8-6c1377f03001","ios":"levelo://app?vid=eb1fd276-641d-4de0-bfa8-6c1377f03001"},"vehicle_type_id":"4","last_reported":1732129600,"current_range_meters":12000,"station_id":"ce4bhih2rcd13ifvqfr0","pricing_plan_id":"cebpf4jnsgd1na2vs0mg"},{"bike_id":"d9a80dfb-6074-4631-a5df-93561910973d","system_id":"levelo_inurba_marseille","lat":43.29029,"lon":5.38645,"is_reserved":false,"is_disabled":false,"rental_uris":{"android":"levelo://app?vid=d9a80dfb-6074-4631-a5df-93561910973d","ios":"levelo://app?vid=d9a80dfb-6074-4631-a5df-93561910973d"},"vehicle_type_id":"4","last_reported":1732129600,"current_range_meters":3600,"station_id":"ce4bh4p2rcd13ifvqe0g","pricing_plan_id":"cebpf4jnsgd1na2vs0mg"},{"bike_id":"1c795457-ec2c-4a4b-a69c-fc6b1ce6728d","system_id":"levelo_inurba_marseille","lat":43.27616,"lon":5.361,"is_reserved":false,"is_disabled":false,"rental_uris":{"android":"levelo://app?vid=1c795457-ec2c-4a4b-a69c-fc6b1ce6728d","ios":"levelo://app?vid=1c795457-ec2c-4a4b-a69c-fc6b1ce6728d"},"vehicle_type_id":"4","last_reported":1732129600,"current_range_meters":29600,"station_id":"ce4bgj92rcd13ifvqbe0","pricing_plan_id":"cebpf4jnsgd1na2vs0mg"},{"bike_id":"a9b6b7af-fb26-4b6c-bb11-164a47e0748c","system_id":"levelo_inurba_marseille","lat":43.29752,"lon":5.37698,"is_reserved":false,"is_disabled":false,"rental_uris":{"android":"levelo://app?vid=a9b6b7af-fb26-4b6c-bb11-164a47e0748c","ios":"levelo://app?vid=a9b6b7af-fb26-4b6c-bb11-164a47e0748c"},"vehicle_type_id":"4","last_reported":1732129600,"current_range_meters":2800,"station_id":"","pricing_plan_id":"cebpf4jnsgd1na2vs0mg"},{"bike_id":"1c90f6ce-f01f-4f0f-9c7f-18a25eadf4df","system_id":"levelo_inurba_marseille","lat":43.29034,"lon":5.37573,"is_reserved":false,"is_disabled":false,"rental_uris":{"android":"levelo://app?vid=1c90f6ce-f01f-4f0f-9c7f-18a25eadf4df","ios":"levelo://app?vid=1c90f6ce-f01f-4f0f-9c7f-18a25eadf4df"},"vehicle_type_id":"4","last_reported":1732129600,"current_range_meters":5600,"station_id":"ce4bh692rcd13ifvqe90","pricing_plan_id":"cebpf4jnsgd1na2vs0mg"},{"bike_id":"be97b7ff-a776-4abb-98b4-c9cc68de032d","system_id":"levelo_inurba_marseille","lat":43.28155,"lon":5.42639,"is_reserved":false,"is_disabled":false,"rental_uris":{"android":"levelo://app?vid=be97b7ff-a776-4abb-98b4-c9cc68de032d","ios":"levelo://app?vid=be97b7ff-a776-4abb-98b4-c9cc68de032d"},"vehicle_type_id":"4","last_reported":1732129600,"current_range_meters":32000,"station_id":"ce4bhnh2rcd13ifvqgug","pricing_plan_id":"cebpf4jnsgd1na2vs0mg"},{"bike_id":"faaa07fe-d059-4c7c-8d3a-4406c48468a3","system_id":"levelo_inurba_marseille","lat":43.25108,"lon":5.40325,"is_reserved":false,"is_disabled":false,"rental_uris":{"android":"levelo://app?vid=faaa07fe-d059-4c7c-8d3a-4406c48468a3","ios":"levelo://app?vid=faaa07fe-d059-4c7c-8d3a-4406c48468a3"},"vehicle_type_id":"4","last_reported":1732129600,"current_range_meters":38800,"station_id":"ce4bhlh2rcd13ifvqgig","pricing_plan_id":"cebpf4jnsgd1na2vs0mg"},{"bike_id":"d957b4ba-279d-46d7-9043-28fc7ae6cc4a","system_id":"levelo_inurba_marseille","lat":43.28931,"lon":5.36636,"is_reserved":false,"is_disabled":false,"rental_uris":{"android":"levelo://app?vid=d957b4ba-279d-46d7-9043-28fc7ae6cc4a","ios":"levelo://app?vid=d957b4ba-279d-46d7-9043-28fc7ae6cc4a"},"vehicle_type_id":"4","last_reported":1732129600,"current_range_meters":8800,"station_id":"ce4bhap2rcd13ifvqek0","pricing_plan_id":"cebpf4jnsgd1na2vs0mg"},{"bike_id":"7ecbb69a-b705-459c-a148-37c838d83d53","system_id":"levelo_inurba_marseille","lat":43.24653,"lon":5.38891,"is_reserved":false,"is_disabled":false,"rental_uris":{"android":"levelo://app?vid=7ecbb69a-b705-459c-a148-37c838d83d53","ios":"levelo://app?vid=7ecbb69a-b705-459c-a148-37c838d83d53"},"vehicle_type_id":"4","last_reported":1732129600,"current_range_meters":22000,"station_id":"ce4bhg12rcd13ifvqf60","pricing_plan_id":"cebpf4jnsgd1na2vs0mg"},{"bike_id":"6b5d45a4-09e9-46d0-bbda-123049c0e03a","system_id":"levelo_inurba_marseille","lat":43.23134,"lon":5.43697,"is_reserved":false,"is_disabled":false,"rental_uris":{"android":"levelo://app?vid=6b5d45a4-09e9-46d0-bbda-123049c0e03a","ios":"levelo://app?vid=6b5d45a4-09e9-46d0-bbda-123049c0e03a"},"vehicle_type_id":"4","last_reported":1732129600,"current_range_meters":38800,"station_id":"ce4bhmp2rcd13ifvqgog","pricing_plan_id":"cebpf4jnsgd1na2vs0mg"},{"bike_id":"4be3997b-0298-4a92-a78f-ce2230a4e3ad","system_id":"levelo_inurba_marseille","lat":43.29906,"lon":5.38132,"is_reserved":false,"is_disabled":true,"rental_uris":{"android":"levelo://app?vid=4be3997b-0298-4a92-a78f-ce2230a4e3ad","ios":"levelo://app?vid=4be3997b-0298-4a92-a78f-ce2230a4e3ad"},"vehicle_type_id":"4","last_reported":1732129600,"current_range_meters":38000,"station_id":"ce4bgj12rcd13ifvqbc0","pricing_plan_id":"cebpf4jnsgd1na2vs0mg"},{"bike_id":"efa3445d-2a68-4f6c-a741-070af9897f81","system_id":"levelo_inurba_marseille","lat":43.25869,"lon":5.39899,"is_reserved":false,"is_disabled":false,"rental_uris":{"android":"levelo://app?vid=efa3445d-2a68-4f6c-a741-070af9897f81","ios":"levelo://app?vid=efa3445d-2a68-4f6c-a741-070af9897f81"},"vehicle_type_id":"4","last_reported":1732129600,"current_range_meters":19600,"station_id":"ce4bhl92rcd13ifvqghg","pricing_plan_id":"cebpf4jnsgd1na2vs0mg"},{"bike_id":"b61b44de-8eef-4acc-80e4-8b6682e9764d","system_id":"levelo_inurba_marseille","lat":43.27907,"lon":5.38014,"is_reserved":false,"is_disabled":true,"rental_uris":{"android":"levelo://app?vid=b61b44de-8eef-4acc-80e4-8b6682e9764d","ios":"levelo://app?vid=b61b44de-8eef-4acc-80e4-8b6682e9764d"},"vehicle_type_id":"4","last_reported":1732129600,"current_range_meters":0,"station_id":"ce4bhf92rcd13ifvqf50","pricing_plan_id":"cebpf4jnsgd1na2vs0mg"},{"bike_id":"730321d2-de66-475f-920a-cd577dc02cf8","system_id":"levelo_inurba_marseille","lat":43.31752,"lon":5.3902,"is_reserved":false,"is_disabled":false,"rental_uris":{"android":"levelo://app?vid=730321d2-de66-475f-920a-cd577dc02cf8","ios":"levelo://app?vid=730321d2-de66-475f-920a-cd577dc02cf8"},"vehicle_type_id":"4","last_reported":1732129600,"current_range_meters":31200,"station_id":"ce4bhqp2rcd13ifvqhng","pricing_plan_id":"cebpf4jnsgd1na2vs0mg"},{"bike_id":"f15b07d0-b8ce-4e43-b1cc-b8f8185759ef","system_id":"levelo_inurba_marseille","lat":43.30778,"lon":5.37654,"is_reserved":false,"is_disabled":false,"rental_uris":{"android":"levelo://app?vid=f15b07d0-b8ce-4e43-b1cc-b8f8185759ef","ios":"levelo://app?vid=f15b07d0-b8ce-4e43-b1cc-b8f8185759ef"},"vehicle_type_id":"4","last_reported":1732129600,"current_range_meters":16000,"station_id":"ce4bgv92rcd13ifvqcq0","pricing_plan_id":"cebpf4jnsgd1na2vs0mg"},{"bike_id":"1bd3ef2d-7ffd-4527-8300-3607eb844530","system_id":"levelo_inurba_marseille","lat":43.27911,"lon":5.39573,"is_reserved":false,"is_disabled":false,"rental_uris":{"android":"levelo://app?vid=1bd3ef2d-7ffd-4527-8300-3607eb844530","ios":"levelo://app?vid=1bd3ef2d-7ffd-4527-8300-3607eb844530"},"vehicle_type_id":"4","last_reported":1732129600,"current_range_meters":36800,"station_id":"ce4bhf92rcd13ifvqf40","pricing_plan_id":"cebpf4jnsgd1na2vs0mg"},{"bike_id":"9cb3572e-b204-4d85-9015-3d43f317e922","system_id":"levelo_inurba_marseille","lat":43.26557,"lon":5.39009,"is_reserved":false,"is_disabled":false,"rental_uris":{"android":"levelo://app?vid=9cb3572e-b204-4d85-9015-3d43f317e922","ios":"levelo://app?vid=9cb3572e-b204-4d85-9015-3d43f317e922"},"vehicle_type_id":"4","last_reported":1732129600,"current_range_meters":20000,"station_id":"ce4bhe12rcd13ifvqf30","pricing_plan_id":"cebpf4jnsgd1na2vs0mg"},{"bike_id":"6e2cec5e-2c62-49e5-9fc0-0a7e1e1e7977","system_id":"levelo_inurba_marseille","lat":43.2988,"lon":5.38896,"is_reserved":false,"is_disabled":false,"rental_uris":{"android":"levelo://app?vid=6e2cec5e-2c62-49e5-9fc0-0a7e1e1e7977","ios":"levelo://app?vid=6e2cec5e-2c62-49e5-9fc0-0a7e1e1e7977"},"vehicle_type_id":"4","last_reported":1732129600,"current_range_meters":28000,"station_id":"ce4bh392rcd13ifvqdl0","pricing_plan_id":"cebpf4jnsgd1na2vs0mg"},{"bike_id":"aaa68104-60d6-454b-9438-4e38b46ffb6c","system_id":"levelo_inurba_marseille","lat":43.30815,"lon":5.37051,"is_reserved":false,"is_disabled":false,"rental_uris":{"android":"levelo://app?vid=aaa68104-60d6-454b-9438-4e38b46ffb6c","ios":"levelo://app?vid=aaa68104-60d6-454b-9438-4e38b46ffb6c"},"vehicle_type_id":"4","last_reported":1732129600,"current_range_meters":22400,"station_id":"","pricing_plan_id":"cebpf4jnsgd1na2vs0mg"},{"bike_id":"ca60ab6f-3d90-4392-8793-5c0ab60a4a7f","system_id":"levelo_inurba_marseille","lat":43.33022,"lon":5.39037,"is_reserved":false,"is_disabled":false,"rental_uris":{"android":"levelo://app?vid=ca60ab6f-3d90-4392-8793-5c0ab60a4a7f","ios":"levelo://app?vid=ca60ab6f-3d90-4392-8793-5c0ab60a4a7f"},"vehicle_type_id":"4","last_reported":1732129600,"current_range_meters":4800,"station_id":"ce4bhr92rcd13ifvqhrg","pricing_plan_id":"cebpf4jnsgd1na2vs0mg"},{"bike_id":"ae330a1c-f873-4a47-a9b5-1d31d7074080","system_id":"levelo_inurba_marseille","lat":43.31706,"lon":5.37747,"is_reserved":false,"is_disabled":false,"rental_uris":{"android":"levelo://app?vid=ae330a1c-f873-4a47-a9b5-1d31d7074080","ios":"levelo://app?vid=ae330a1c-f873-4a47-a9b5-1d31d7074080"},"vehicle_type_id":"4","last_reported":1732129600,"current_range_meters":17600,"station_id":"ce4bgth2rcd13ifvqch0","pricing_plan_id":"cebpf4jnsgd1na2vs0mg"},{"bike_id":"d2321b4c-ae3a-4b43-8bcd-12cb7984481d","system_id":"levelo_inurba_marseille","lat":43.30758,"lon":5.3702,"is_reserved":false,"is_disabled":false,"rental_uris":{"android":"levelo://app?vid=d2321b4c-ae3a-4b43-8bcd-12cb7984481d","ios":"levelo://app?vid=d2321b4c-ae3a-4b43-8bcd-12cb7984481d"},"vehicle_type_id":"4","last_reported":1732129600,"current_range_meters":27200,"station_id":"","pricing_plan_id":"cebpf4jnsgd1na2vs0mg"},{"bike_id":"f5074b8e-3a55-4706-9011-77a6e1da7c78","system_id":"levelo_inurba_marseille","lat":43.29525,"lon":5.38538,"is_reserved":false,"is_disabled":false,"rental_uris":{"android":"levelo://app?vid=f5074b8e-3a55-4706-9011-77a6e1da7c78","ios":"levelo://app?vid=f5074b8e-3a55-4706-9011-77a6e1da7c78"},"vehicle_type_id":"4","last_reported":1732129600,"current_range_meters":0,"station_id":"ce4bgih2rcd13ifvqba0","pricing_plan_id":"cebpf4jnsgd1na2vs0mg"},{"bike_id":"1a2b45b6-17d7-4592-8140-142385f04b6a","system_id":"levelo_inurba_marseille","lat":43.25088,"lon":5.39518,"is_reserved":false,"is_disabled":false,"rental_uris":{"android":"levelo://app?vid=1a2b45b6-17d7-4592-8140-142385f04b6a","ios":"levelo://app?vid=1a2b45b6-17d7-4592-8140-142385f04b6a"},"vehicle_type_id":"4","last_reported":1732129600,"current_range_meters":10000,"station_id":"ce4bhm12rcd13ifvqgkg","pricing_plan_id":"cebpf4jnsgd1na2vs0mg"},{"bike_id":"ec49a19b-c57c-494a-b40e-b3a6d4c0eb7c","system_id":"levelo_inurba_marseille","lat":43.28938,"lon":5.3664,"is_reserved":false,"is_disabled":true,"rental_uris":{"android":"levelo://app?vid=ec49a19b-c57c-494a-b40e-b3a6d4c0eb7c","ios":"levelo://app?vid=ec49a19b-c57c-494a-b40e-b3a6d4c0eb7c"},"vehicle_type_id":"4","last_reported":1732129600,"current_range_meters":1600,"station_id":"ce4bhap2rcd13ifvqek0","pricing_plan_id":"cebpf4jnsgd1na2vs0mg"},{"bike_id":"bffd9f2b-1ad6-450c-8979-d72efd607836","system_id":"levelo_inurba_marseille","lat":43.28269,"lon":5.35063,"is_reserved":false,"is_disabled":false,"rental_uris":{"android":"levelo://app?vid=bffd9f2b-1ad6-450c-8979-d72efd607836","ios":"levelo://app?vid=bffd9f2b-1ad6-450c-8979-d72efd607836"},"vehicle_type_id":"4","last_reported":1732129600,"current_range_meters":16800,"station_id":"ce4bhbp2rcd13ifvqerg","pricing_plan_id":"cebpf4jnsgd1na2vs0mg"},{"bike_id":"5c3000a0-a190-4007-a723-aa2707fd1ce3","system_id":"levelo_inurba_marseille","lat":43.22944,"lon":5.35375,"is_reserved":false,"is_disabled":false,"rental_uris":{"android":"levelo://app?vid=5c3000a0-a190-4007-a723-aa2707fd1ce3","ios":"levelo://app?vid=5c3000a0-a190-4007-a723-aa2707fd1ce3"},"vehicle_type_id":"4","last_reported":1732129600,"current_range_meters":38800,"station_id":"cpo3532slgdg3j2ikp40","pricing_plan_id":"cebpf4jnsgd1na2vs0mg"},{"bike_id":"90040071-f0ef-401b-a67d-7da71dfa2c0b","system_id":"levelo_inurba_marseille","lat":43.29516,"lon":5.39395,"is_reserved":false,"is_disabled":true,"rental_uris":{"android":"levelo://app?vid=90040071-f0ef-401b-a67d-7da71dfa2c0b","ios":"levelo://app?vid=90040071-f0ef-401b-a67d-7da71dfa2c0b"},"vehicle_type_id":"4","last_reported":1732129600,"current_range_meters":0,"station_id":"ce4bh292rcd13ifvqdf0","pricing_plan_id":"cebpf4jnsgd1na2vs0mg"},{"bike_id":"07dfa307-72b1-4fd3-aaec-cc158bba164b","system_id":"levelo_inurba_marseille","lat":43.31926,"lon":5.37435,"is_reserved":false,"is_disabled":false,"rental_uris":{"android":"levelo://app?vid=07dfa307-72b1-4fd3-aaec-cc158bba164b","ios":"levelo://app?vid=07dfa307-72b1-4fd3-aaec-cc158bba164b"},"vehicle_type_id":"4","last_reported":1732129600,"current_range_meters":37600,"station_id":"","pricing_plan_id":"cebpf4jnsgd1na2vs0mg"},{"bike_id":"f7d35866-ad11-43a5-9615-49aa412cabd4","system_id":"levelo_inurba_marseille","lat":43.25495,"lon":5.3765,"is_reserved":false,"is_disabled":false,"rental_uris":{"android":"levelo://app?vid=f7d35866-ad11-43a5-9615-49aa412cabd4","ios":"levelo://app?vid=f7d35866-ad11-43a5-9615-49aa412cabd4"},"vehicle_type_id":"4","last_reported":1732129600,"current_range_meters":37600,"station_id":"ce4bhh12rcd13ifvqff0","pricing_plan_id":"cebpf4jnsgd1na2vs0mg"},{"bike_id":"3f99adc2-ed02-4869-b23e-487905831ced","system_id":"levelo_inurba_marseille","lat":43.28453,"lon":5.3589,"is_reserved":false,"is_disabled":false,"rental_uris":{"android":"levelo://app?vid=3f99adc2-ed02-4869-b23e-487905831ced","ios":"levelo://app?vid=3f99adc2-ed02-4869-b23e-487905831ced"},"vehicle_type_id":"4","last_reported":1732129600,"current_range_meters":18800,"station_id":"ce4bhah2rcd13ifvqei0","pricing_plan_id":"cebpf4jnsgd1na2vs0mg"},{"bike_id":"3b7b9386-15f1-4e2c-9dc9-caf0231670d2","system_id":"levelo_inurba_marseille","lat":43.29601,"lon":5.38113,"is_reserved":false,"is_disabled":false,"rental_uris":{"android":"levelo://app?vid=3b7b9386-15f1-4e2c-9dc9-caf0231670d2","ios":"levelo://app?vid=3b7b9386-15f1-4e2c-9dc9-caf0231670d2"},"vehicle_type_id":"4","last_reported":1732129600,"current_range_meters":34000,"station_id":"ce4bgl12rcd13ifvqbo0","pricing_plan_id":"cebpf4jnsgd1na2vs0mg"},{"bike_id":"114d2684-9992-4143-9e22-f6ccf2d40194","system_id":"levelo_inurba_marseille","lat":43.29797,"lon":5.40399,"is_reserved":false,"is_disabled":false,"rental_uris":{"android":"levelo://app?vid=114d2684-9992-4143-9e22-f6ccf2d40194","ios":"levelo://app?vid=114d2684-9992-4143-9e22-f6ccf2d40194"},"vehicle_type_id":"4","last_reported":1732129600,"current_range_meters":10800,"station_id":"ce4bh112rcd13ifvqd90","pricing_plan_id":"cebpf4jnsgd1na2vs0mg"},{"bike_id":"f1a5529f-d308-4bb7-8ccd-2d79295e5b55","system_id":"levelo_inurba_marseille","lat":43.25577,"lon":5.38232,"is_reserved":false,"is_disabled":false,"rental_uris":{"android":"levelo://app?vid=f1a5529f-d308-4bb7-8ccd-2d79295e5b55","ios":"levelo://app?vid=f1a5529f-d308-4bb7-8ccd-2d79295e5b55"},"vehicle_type_id":"4","last_reported":1732129600,"current_range_meters":4800,"station_id":"ce4bhih2rcd13ifvqfs0","pricing_plan_id":"cebpf4jnsgd1na2vs0mg"},{"bike_id":"b8723265-ce3e-4c52-8bc5-eb73a13f8aef","system_id":"levelo_inurba_marseille","lat":43.29416,"lon":5.38623,"is_reserved":false,"is_disabled":false,"rental_uris":{"android":"levelo://app?vid=b8723265-ce3e-4c52-8bc5-eb73a13f8aef","ios":"levelo://app?vid=b8723265-ce3e-4c52-8bc5-eb73a13f8aef"},"vehicle_type_id":"4","last_reported":1732129600,"current_range_meters":33600,"station_id":"ce4bh2h2rcd13ifvqdh0","pricing_plan_id":"cebpf4jnsgd1na2vs0mg"},{"bike_id":"d068aab7-cf7c-4a63-b369-f29decf00e74","system_id":"levelo_inurba_marseille","lat":43.29624,"lon":5.40598,"is_reserved":false,"is_disabled":true,"rental_uris":{"android":"levelo://app?vid=d068aab7-cf7c-4a63-b369-f29decf00e74","ios":"levelo://app?vid=d068aab7-cf7c-4a63-b369-f29decf00e74"},"vehicle_type_id":"4","last_reported":1732129600,"current_range_meters":1200,"station_id":"ce4bh0h2rcd13ifvqd60","pricing_plan_id":"cebpf4jnsgd1na2vs0mg"},{"bike_id":"16bfd6ee-6c41-478e-9200-26690f2eb7b5","system_id":"levelo_inurba_marseille","lat":43.29528,"lon":5.38538,"is_reserved":false,"is_disabled":false,"rental_uris":{"android":"levelo://app?vid=16bfd6ee-6c41-478e-9200-26690f2eb7b5","ios":"levelo://app?vid=16bfd6ee-6c41-478e-9200-26690f2eb7b5"},"vehicle_type_id":"4","last_reported":1732129600,"current_range_meters":32800,"station_id":"ce4bgih2rcd13ifvqba0","pricing_plan_id":"cebpf4jnsgd1na2vs0mg"},{"bike_id":"1cd0daee-d68a-4e66-9883-fbe67fd8260f","system_id":"levelo_inurba_marseille","lat":43.30598,"lon":5.37235,"is_reserved":false,"is_disabled":true,"rental_uris":{"android":"levelo://app?vid=1cd0daee-d68a-4e66-9883-fbe67fd8260f","ios":"levelo://app?vid=1cd0daee-d68a-4e66-9883-fbe67fd8260f"},"vehicle_type_id":"4","last_reported":1732129600,"current_range_meters":0,"station_id":"ce4bgqh2rcd13ifvqc4g","pricing_plan_id":"cebpf4jnsgd1na2vs0mg"},{"bike_id":"772ce743-8958-4198-b3ba-b6e0d96fa296","system_id":"levelo_inurba_marseille","lat":43.24173,"lon":5.36393,"is_reserved":false,"is_disabled":false,"rental_uris":{"android":"levelo://app?vid=772ce743-8958-4198-b3ba-b6e0d96fa296","ios":"levelo://app?vid=772ce743-8958-4198-b3ba-b6e0d96fa296"},"vehicle_type_id":"4","last_reported":1732129600,"current_range_meters":9200,"station_id":"cpo36qri1sfpv3e86is0","pricing_plan_id":"cebpf4jnsgd1na2vs0mg"},{"bike_id":"38ff6aea-4c81-4918-908f-01fa1ffd9b46","system_id":"levelo_inurba_marseille","lat":43.29711,"lon":5.37735,"is_reserved":false,"is_disabled":false,"rental_uris":{"android":"levelo://app?vid=38ff6aea-4c81-4918-908f-01fa1ffd9b46","ios":"levelo://app?vid=38ff6aea-4c81-4918-908f-01fa1ffd9b46"},"vehicle_type_id":"4","last_reported":1732129600,"current_range_meters":28400,"station_id":"ce4bgkh2rcd13ifvqbl0","pricing_plan_id":"cebpf4jnsgd1na2vs0mg"},{"bike_id":"597cb1c5-c680-49ef-9a1a-84a53b157037","system_id":"levelo_inurba_marseille","lat":43.32363,"lon":5.38886,"is_reserved":false,"is_disabled":false,"rental_uris":{"android":"levelo://app?vid=597cb1c5-c680-49ef-9a1a-84a53b157037","ios":"levelo://app?vid=597cb1c5-c680-49ef-9a1a-84a53b157037"},"vehicle_type_id":"4","last_reported":1732129600,"current_range_meters":21600,"station_id":"ce4bhqp2rcd13ifvqhog","pricing_plan_id":"cebpf4jnsgd1na2vs0mg"},{"bike_id":"2993fe2d-a4a6-4214-89da-aacdff52729e","system_id":"levelo_inurba_marseille","lat":43.31705,"lon":5.40462,"is_reserved":false,"is_disabled":false,"rental_uris":{"android":"levelo://app?vid=2993fe2d-a4a6-4214-89da-aacdff52729e","ios":"levelo://app?vid=2993fe2d-a4a6-4214-89da-aacdff52729e"},"vehicle_type_id":"4","last_reported":1732129600,"current_range_meters":36400,"station_id":"ce4bh012rcd13ifvqd00","pricing_plan_id":"cebpf4jnsgd1na2vs0mg"},{"bike_id":"02330a79-2e93-42f9-a52a-47c8f49bf28e","system_id":"levelo_inurba_marseille","lat":43.28421,"lon":5.37512,"is_reserved":false,"is_disabled":false,"rental_uris":{"android":"levelo://app?vid=02330a79-2e93-42f9-a52a-47c8f49bf28e","ios":"levelo://app?vid=02330a79-2e93-42f9-a52a-47c8f49bf28e"},"vehicle_type_id":"4","last_reported":1732129600,"current_range_meters":32400,"station_id":"ce4bh412rcd13ifvqds0","pricing_plan_id":"cebpf4jnsgd1na2vs0mg"},{"bike_id":"05286363-317d-4e5a-bd27-dc5666b9628b","system_id":"levelo_inurba_marseille","lat":43.24664,"lon":5.38164,"is_reserved":false,"is_disabled":false,"rental_uris":{"android":"levelo://app?vid=05286363-317d-4e5a-bd27-dc5666b9628b","ios":"levelo://app?vid=05286363-317d-4e5a-bd27-dc5666b9628b"},"vehicle_type_id":"4","last_reported":1732129600,"current_range_meters":7200,"station_id":"ce4bhih2rcd13ifvqfr0","pricing_plan_id":"cebpf4jnsgd1na2vs0mg"},{"bike_id":"e7a31be6-73fd-40e5-943d-027798b98a9d","system_id":"levelo_inurba_marseille","lat":43.26803,"lon":5.40266,"is_reserved":false,"is_disabled":false,"rental_uris":{"android":"levelo://app?vid=e7a31be6-73fd-40e5-943d-027798b98a9d","ios":"levelo://app?vid=e7a31be6-73fd-40e5-943d-027798b98a9d"},"vehicle_type_id":"4","last_reported":1732129600,"current_range_meters":34000,"station_id":"ce501612rcd8frsf0b60","pricing_plan_id":"cebpf4jnsgd1na2vs0mg"},{"bike_id":"c8e78444-aed0-42c2-bd60-bd5ebc177c5c","system_id":"levelo_inurba_marseille","lat":43.29936,"lon":5.36543,"is_reserved":false,"is_disabled":true,"rental_uris":{"android":"levelo://app?vid=c8e78444-aed0-42c2-bd60-bd5ebc177c5c","ios":"levelo://app?vid=c8e78444-aed0-42c2-bd60-bd5ebc177c5c"},"vehicle_type_id":"4","last_reported":1732129600,"current_range_meters":27600,"station_id":"ce4bgm92rcd13ifvqbr0","pricing_plan_id":"cebpf4jnsgd1na2vs0mg"},{"bike_id":"5ca67615-f25e-4075-b233-125b13c008c3","system_id":"levelo_inurba_marseille","lat":43.29516,"lon":5.39403,"is_reserved":false,"is_disabled":false,"rental_uris":{"android":"levelo://app?vid=5ca67615-f25e-4075-b233-125b13c008c3","ios":"levelo://app?vid=5ca67615-f25e-4075-b233-125b13c008c3"},"vehicle_type_id":"4","last_reported":1732129600,"current_range_meters":38800,"station_id":"ce4bh292rcd13ifvqdf0","pricing_plan_id":"cebpf4jnsgd1na2vs0mg"},{"bike_id":"4a8334a5-4056-497e-8082-55e7a74e4c36","system_id":"levelo_inurba_marseille","lat":43.30142,"lon":5.39872,"is_reserved":false,"is_disabled":false,"rental_uris":{"android":"levelo://app?vid=4a8334a5-4056-497e-8082-55e7a74e4c36","ios":"levelo://app?vid=4a8334a5-4056-497e-8082-55e7a74e4c36"},"vehicle_type_id":"4","last_reported":1732129600,"current_range_meters":38800,"station_id":"ce4bh0h2rcd13ifvqd40","pricing_plan_id":"cebpf4jnsgd1na2vs0mg"},{"bike_id":"9a401885-21a4-49d1-a4ad-3ae3e7a4ee61","system_id":"levelo_inurba_marseille","lat":43.27959,"lon":5.41047,"is_reserved":false,"is_disabled":false,"rental_uris":{"android":"levelo://app?vid=9a401885-21a4-49d1-a4ad-3ae3e7a4ee61","ios":"levelo://app?vid=9a401885-21a4-49d1-a4ad-3ae3e7a4ee61"},"vehicle_type_id":"4","last_reported":1732129600,"current_range_meters":28000,"station_id":"ce4bhnp2rcd13ifvqh0g","pricing_plan_id":"cebpf4jnsgd1na2vs0mg"},{"bike_id":"feb7885f-e164-4341-9f8f-316bf4f26629","system_id":"levelo_inurba_marseille","lat":43.32364,"lon":5.38882,"is_reserved":false,"is_disabled":true,"rental_uris":{"android":"levelo://app?vid=feb7885f-e164-4341-9f8f-316bf4f26629","ios":"levelo://app?vid=feb7885f-e164-4341-9f8f-316bf4f26629"},"vehicle_type_id":"4","last_reported":1732129600,"current_range_meters":800,"station_id":"ce4bhqp2rcd13ifvqhog","pricing_plan_id":"cebpf4jnsgd1na2vs0mg"},{"bike_id":"a5d6239a-1f3e-42ce-846c-9637444adf1d","system_id":"levelo_inurba_marseille","lat":43.302456,"lon":5.400788,"is_reserved":false,"is_disabled":false,"rental_uris":{"android":"levelo://app?vid=a5d6239a-1f3e-42ce-846c-9637444adf1d","ios":"levelo://app?vid=a5d6239a-1f3e-42ce-846c-9637444adf1d"},"vehicle_type_id":"4","last_reported":1732129600,"current_range_meters":16800,"station_id":"ce4bgvh2rcd13ifvqcs0","pricing_plan_id":"cebpf4jnsgd1na2vs0mg"},{"bike_id":"01848fe2-3fe3-47a2-bd7c-7d1867c631f3","system_id":"levelo_inurba_marseille","lat":43.3012,"lon":5.39855,"is_reserved":false,"is_disabled":false,"rental_uris":{"android":"levelo://app?vid=01848fe2-3fe3-47a2-bd7c-7d1867c631f3","ios":"levelo://app?vid=01848fe2-3fe3-47a2-bd7c-7d1867c631f3"},"vehicle_type_id":"4","last_reported":1732129600,"current_range_meters":35600,"station_id":"ce4bh0h2rcd13ifvqd40","pricing_plan_id":"cebpf4jnsgd1na2vs0mg"},{"bike_id":"9d4cd4b3-c64e-40d1-847f-af50b1207bd3","system_id":"levelo_inurba_marseille","lat":43.25573,"lon":5.38224,"is_reserved":false,"is_disabled":false,"rental_uris":{"android":"levelo://app?vid=9d4cd4b3-c64e-40d1-847f-af50b1207bd3","ios":"levelo://app?vid=9d4cd4b3-c64e-40d1-847f-af50b1207bd3"},"vehicle_type_id":"4","last_reported":1732129600,"current_range_meters":26800,"station_id":"ce4bhih2rcd13ifvqfs0","pricing_plan_id":"cebpf4jnsgd1na2vs0mg"},{"bike_id":"7be057c5-3e22-4d6d-b6d4-8dd7ef1216a5","system_id":"levelo_inurba_marseille","lat":43.31709,"lon":5.43705,"is_reserved":false,"is_disabled":false,"rental_uris":{"android":"levelo://app?vid=7be057c5-3e22-4d6d-b6d4-8dd7ef1216a5","ios":"levelo://app?vid=7be057c5-3e22-4d6d-b6d4-8dd7ef1216a5"},"vehicle_type_id":"4","last_reported":1732129600,"current_range_meters":7200,"station_id":"ce4bhp92rcd13ifvqhcg","pricing_plan_id":"cebpf4jnsgd1na2vs0mg"},{"bike_id":"21de904b-d62b-4839-965e-9fddaa6cedd0","system_id":"levelo_inurba_marseille","lat":43.31234,"lon":5.36868,"is_reserved":false,"is_disabled":false,"rental_uris":{"android":"levelo://app?vid=21de904b-d62b-4839-965e-9fddaa6cedd0","ios":"levelo://app?vid=21de904b-d62b-4839-965e-9fddaa6cedd0"},"vehicle_type_id":"4","last_reported":1732129600,"current_range_meters":12400,"station_id":"ce4bgl92rcd13ifvqbq0","pricing_plan_id":"cebpf4jnsgd1na2vs0mg"},{"bike_id":"efa924b8-3b7e-4a41-913c-fc64a7c8728e","system_id":"levelo_inurba_marseille","lat":43.28452,"lon":5.35889,"is_reserved":false,"is_disabled":false,"rental_uris":{"android":"levelo://app?vid=efa924b8-3b7e-4a41-913c-fc64a7c8728e","ios":"levelo://app?vid=efa924b8-3b7e-4a41-913c-fc64a7c8728e"},"vehicle_type_id":"4","last_reported":1732129600,"current_range_meters":38800,"station_id":"ce4bhah2rcd13ifvqei0","pricing_plan_id":"cebpf4jnsgd1na2vs0mg"},{"bike_id":"33ceb114-7fbc-4144-8adc-7ba27430a505","system_id":"levelo_inurba_marseille","lat":43.24072,"lon":5.37759,"is_reserved":false,"is_disabled":false,"rental_uris":{"android":"levelo://app?vid=33ceb114-7fbc-4144-8adc-7ba27430a505","ios":"levelo://app?vid=33ceb114-7fbc-4144-8adc-7ba27430a505"},"vehicle_type_id":"4","last_reported":1732129600,"current_range_meters":14000,"station_id":"ce4bhnp2rcd13ifvqgvg","pricing_plan_id":"cebpf4jnsgd1na2vs0mg"},{"bike_id":"16223921-60ae-4fd9-a1b7-d4ef1bb6071f","system_id":"levelo_inurba_marseille","lat":43.30886,"lon":5.39643,"is_reserved":false,"is_disabled":false,"rental_uris":{"android":"levelo://app?vid=16223921-60ae-4fd9-a1b7-d4ef1bb6071f","ios":"levelo://app?vid=16223921-60ae-4fd9-a1b7-d4ef1bb6071f"},"vehicle_type_id":"4","last_reported":1732129600,"current_range_meters":7200,"station_id":"ce4bh012rcd13ifvqcv0","pricing_plan_id":"cebpf4jnsgd1na2vs0mg"},{"bike_id":"17a1ee21-a849-4433-badc-5af1a287346d","system_id":"levelo_inurba_marseille","lat":43.24587,"lon":5.37416,"is_reserved":false,"is_disabled":true,"rental_uris":{"android":"levelo://app?vid=17a1ee21-a849-4433-badc-5af1a287346d","ios":"levelo://app?vid=17a1ee21-a849-4433-badc-5af1a287346d"},"vehicle_type_id":"4","last_reported":1732129600,"current_range_meters":0,"station_id":"","pricing_plan_id":"cebpf4jnsgd1na2vs0mg"},{"bike_id":"72988ed8-3b21-48f9-9313-4c219313a03b","system_id":"levelo_inurba_marseille","lat":43.25106,"lon":5.40325,"is_reserved":false,"is_disabled":false,"rental_uris":{"android":"levelo://app?vid=72988ed8-3b21-48f9-9313-4c219313a03b","ios":"levelo://app?vid=72988ed8-3b21-48f9-9313-4c219313a03b"},"vehicle_type_id":"4","last_reported":1732129600,"current_range_meters":19200,"station_id":"ce4bhlh2rcd13ifvqgig","pricing_plan_id":"cebpf4jnsgd1na2vs0mg"},{"bike_id":"f0fa4e60-0a2b-48c7-9942-83170358dd4a","system_id":"levelo_inurba_marseille","lat":43.32294,"lon":5.38268,"is_reserved":false,"is_disabled":false,"rental_uris":{"android":"levelo://app?vid=f0fa4e60-0a2b-48c7-9942-83170358dd4a","ios":"levelo://app?vid=f0fa4e60-0a2b-48c7-9942-83170358dd4a"},"vehicle_type_id":"4","last_reported":1732129600,"current_range_meters":29600,"station_id":"ce4bhr12rcd13ifvqhqg","pricing_plan_id":"cebpf4jnsgd1na2vs0mg"},{"bike_id":"61dfba9e-63a5-43cf-9c99-4fa1413cdd88","system_id":"levelo_inurba_marseille","lat":43.29266,"lon":5.38444,"is_reserved":false,"is_disabled":false,"rental_uris":{"android":"levelo://app?vid=61dfba9e-63a5-43cf-9c99-4fa1413cdd88","ios":"levelo://app?vid=61dfba9e-63a5-43cf-9c99-4fa1413cdd88"},"vehicle_type_id":"4","last_reported":1732129600,"current_range_meters":18800,"station_id":"ce4bh692rcd13ifvqea0","pricing_plan_id":"cebpf4jnsgd1na2vs0mg"},{"bike_id":"5c5222dc-c9e9-4134-9926-f13e5276b66c","system_id":"levelo_inurba_marseille","lat":43.32366,"lon":5.38869,"is_reserved":false,"is_disabled":false,"rental_uris":{"android":"levelo://app?vid=5c5222dc-c9e9-4134-9926-f13e5276b66c","ios":"levelo://app?vid=5c5222dc-c9e9-4134-9926-f13e5276b66c"},"vehicle_type_id":"4","last_reported":1732129600,"current_range_meters":5600,"station_id":"ce4bhqp2rcd13ifvqhog","pricing_plan_id":"cebpf4jnsgd1na2vs0mg"},{"bike_id":"d2681925-9347-4545-add2-74db22e874c3","system_id":"levelo_inurba_marseille","lat":43.29536,"lon":5.38543,"is_reserved":false,"is_disabled":false,"rental_uris":{"android":"levelo://app?vid=d2681925-9347-4545-add2-74db22e874c3","ios":"levelo://app?vid=d2681925-9347-4545-add2-74db22e874c3"},"vehicle_type_id":"4","last_reported":1732129600,"current_range_meters":34000,"station_id":"ce4bgih2rcd13ifvqba0","pricing_plan_id":"cebpf4jnsgd1na2vs0mg"},{"bike_id":"f5cf085e-8694-4c6f-ba9c-aa6e0d3c58c6","system_id":"levelo_inurba_marseille","lat":43.33644,"lon":5.35555,"is_reserved":false,"is_disabled":true,"rental_uris":{"android":"levelo://app?vid=f5cf085e-8694-4c6f-ba9c-aa6e0d3c58c6","ios":"levelo://app?vid=f5cf085e-8694-4c6f-ba9c-aa6e0d3c58c6"},"vehicle_type_id":"4","last_reported":1732129600,"current_range_meters":10000,"station_id":"","pricing_plan_id":"cebpf4jnsgd1na2vs0mg"},{"bike_id":"3d2beca7-eef0-4bae-98e1-8b3de347272c","system_id":"levelo_inurba_marseille","lat":43.23192,"lon":5.35553,"is_reserved":false,"is_disabled":false,"rental_uris":{"android":"levelo://app?vid=3d2beca7-eef0-4bae-98e1-8b3de347272c","ios":"levelo://app?vid=3d2beca7-eef0-4bae-98e1-8b3de347272c"},"vehicle_type_id":"4","last_reported":1732129600,"current_range_meters":36800,"station_id":"ce4bhu92rcd13ifvqi70","pricing_plan_id":"cebpf4jnsgd1na2vs0mg"},{"bike_id":"30c84022-7457-42f0-b266-3426b6c6d648","system_id":"levelo_inurba_marseille","lat":43.30261,"lon":5.40078,"is_reserved":false,"is_disabled":false,"rental_uris":{"android":"levelo://app?vid=30c84022-7457-42f0-b266-3426b6c6d648","ios":"levelo://app?vid=30c84022-7457-42f0-b266-3426b6c6d648"},"vehicle_type_id":"4","last_reported":1732129600,"current_range_meters":12000,"station_id":"ce4bgvh2rcd13ifvqcs0","pricing_plan_id":"cebpf4jnsgd1na2vs0mg"},{"bike_id":"5b0300ec-c0d9-4db7-a657-9617c2b1d6a7","system_id":"levelo_inurba_marseille","lat":43.29167,"lon":5.37158,"is_reserved":false,"is_disabled":false,"rental_uris":{"android":"levelo://app?vid=5b0300ec-c0d9-4db7-a657-9617c2b1d6a7","ios":"levelo://app?vid=5b0300ec-c0d9-4db7-a657-9617c2b1d6a7"},"vehicle_type_id":"4","last_reported":1732129600,"current_range_meters":18800,"station_id":"ce4bha92rcd13ifvqeh0","pricing_plan_id":"cebpf4jnsgd1na2vs0mg"},{"bike_id":"6ff6157f-dc14-4691-84fd-a362e1c11c61","system_id":"levelo_inurba_marseille","lat":43.31076,"lon":5.38353,"is_reserved":false,"is_disabled":false,"rental_uris":{"android":"levelo://app?vid=6ff6157f-dc14-4691-84fd-a362e1c11c61","ios":"levelo://app?vid=6ff6157f-dc14-4691-84fd-a362e1c11c61"},"vehicle_type_id":"4","last_reported":1732129600,"current_range_meters":27200,"station_id":"ce4bgv92rcd13ifvqcr0","pricing_plan_id":"cebpf4jnsgd1na2vs0mg"},{"bike_id":"e57590cc-a844-462b-b95c-023047b497c3","system_id":"levelo_inurba_marseille","lat":43.26024,"lon":5.37551,"is_reserved":false,"is_disabled":true,"rental_uris":{"android":"levelo://app?vid=e57590cc-a844-462b-b95c-023047b497c3","ios":"levelo://app?vid=e57590cc-a844-462b-b95c-023047b497c3"},"vehicle_type_id":"4","last_reported":1732129600,"current_range_meters":0,"station_id":"ce4bhgh2rcd13ifvqfa0","pricing_plan_id":"cebpf4jnsgd1na2vs0mg"},{"bike_id":"02548de1-a79f-4bc6-8c03-f2b86f8bd8f9","system_id":"levelo_inurba_marseille","lat":43.32364,"lon":5.38882,"is_reserved":false,"is_disabled":false,"rental_uris":{"android":"levelo://app?vid=02548de1-a79f-4bc6-8c03-f2b86f8bd8f9","ios":"levelo://app?vid=02548de1-a79f-4bc6-8c03-f2b86f8bd8f9"},"vehicle_type_id":"4","last_reported":1732129600,"current_range_meters":11600,"station_id":"ce4bhqp2rcd13ifvqhog","pricing_plan_id":"cebpf4jnsgd1na2vs0mg"},{"bike_id":"e7e080f9-3e7a-4a14-8086-56b8778cc3f0","system_id":"levelo_inurba_marseille","lat":43.31999,"lon":5.38171,"is_reserved":false,"is_disabled":false,"rental_uris":{"android":"levelo://app?vid=e7e080f9-3e7a-4a14-8086-56b8778cc3f0","ios":"levelo://app?vid=e7e080f9-3e7a-4a14-8086-56b8778cc3f0"},"vehicle_type_id":"4","last_reported":1732129600,"current_range_meters":23200,"station_id":"ce4bhr12rcd13ifvqhpg","pricing_plan_id":"cebpf4jnsgd1na2vs0mg"},{"bike_id":"b4b37c0c-a6bf-4224-b04b-eca9edd0646d","system_id":"levelo_inurba_marseille","lat":43.29193,"lon":5.35808,"is_reserved":false,"is_disabled":false,"rental_uris":{"android":"levelo://app?vid=b4b37c0c-a6bf-4224-b04b-eca9edd0646d","ios":"levelo://app?vid=b4b37c0c-a6bf-4224-b04b-eca9edd0646d"},"vehicle_type_id":"4","last_reported":1732129600,"current_range_meters":38800,"station_id":"ce4bhb12rcd13ifvqel0","pricing_plan_id":"cebpf4jnsgd1na2vs0mg"},{"bike_id":"7ef9a5ef-b3b2-4ff2-82cc-f161ced30464","system_id":"levelo_inurba_marseille","lat":43.29413,"lon":5.38631,"is_reserved":false,"is_disabled":false,"rental_uris":{"android":"levelo://app?vid=7ef9a5ef-b3b2-4ff2-82cc-f161ced30464","ios":"levelo://app?vid=7ef9a5ef-b3b2-4ff2-82cc-f161ced30464"},"vehicle_type_id":"4","last_reported":1732129600,"current_range_meters":38800,"station_id":"ce4bh2h2rcd13ifvqdh0","pricing_plan_id":"cebpf4jnsgd1na2vs0mg"},{"bike_id":"f9d93230-14bf-436d-8d92-069cd84b5621","system_id":"levelo_inurba_marseille","lat":43.25579,"lon":5.38226,"is_reserved":false,"is_disabled":false,"rental_uris":{"android":"levelo://app?vid=f9d93230-14bf-436d-8d92-069cd84b5621","ios":"levelo://app?vid=f9d93230-14bf-436d-8d92-069cd84b5621"},"vehicle_type_id":"4","last_reported":1732129600,"current_range_meters":26800,"station_id":"ce4bhih2rcd13ifvqfs0","pricing_plan_id":"cebpf4jnsgd1na2vs0mg"},{"bike_id":"f5c3a461-583d-485a-bab9-39b09f687c43","system_id":"levelo_inurba_marseille","lat":43.29029,"lon":5.37568,"is_reserved":false,"is_disabled":false,"rental_uris":{"android":"levelo://app?vid=f5c3a461-583d-485a-bab9-39b09f687c43","ios":"levelo://app?vid=f5c3a461-583d-485a-bab9-39b09f687c43"},"vehicle_type_id":"4","last_reported":1732129600,"current_range_meters":11600,"station_id":"ce4bh692rcd13ifvqe90","pricing_plan_id":"cebpf4jnsgd1na2vs0mg"},{"bike_id":"88e661c2-c88d-425a-8fa8-7ec7f7c1f59c","system_id":"levelo_inurba_marseille","lat":43.28723,"lon":5.37934,"is_reserved":false,"is_disabled":false,"rental_uris":{"android":"levelo://app?vid=88e661c2-c88d-425a-8fa8-7ec7f7c1f59c","ios":"levelo://app?vid=88e661c2-c88d-425a-8fa8-7ec7f7c1f59c"},"vehicle_type_id":"4","last_reported":1732129600,"current_range_meters":38800,"station_id":"ce4bh9p2rcd13ifvqec0","pricing_plan_id":"cebpf4jnsgd1na2vs0mg"},{"bike_id":"98b8451d-1f4e-4c26-bc83-9259084ac55a","system_id":"levelo_inurba_marseille","lat":43.29443,"lon":5.39755,"is_reserved":false,"is_disabled":false,"rental_uris":{"android":"levelo://app?vid=98b8451d-1f4e-4c26-bc83-9259084ac55a","ios":"levelo://app?vid=98b8451d-1f4e-4c26-bc83-9259084ac55a"},"vehicle_type_id":"4","last_reported":1732129600,"current_range_meters":20000,"station_id":"ce4bh3h2rcd13ifvqdo0","pricing_plan_id":"cebpf4jnsgd1na2vs0mg"},{"bike_id":"8d5e8e54-f87c-49b3-8720-7e21078f8fcd","system_id":"levelo_inurba_marseille","lat":43.26481,"lon":5.39549,"is_reserved":false,"is_disabled":false,"rental_uris":{"android":"levelo://app?vid=8d5e8e54-f87c-49b3-8720-7e21078f8fcd","ios":"levelo://app?vid=8d5e8e54-f87c-49b3-8720-7e21078f8fcd"},"vehicle_type_id":"4","last_reported":1732129600,"current_range_meters":38800,"station_id":"ce4bhi12rcd13ifvqfq0","pricing_plan_id":"cebpf4jnsgd1na2vs0mg"},{"bike_id":"12f6043e-3a88-4749-89e5-2feadb7d10f7","system_id":"levelo_inurba_marseille","lat":43.26942,"lon":5.40255,"is_reserved":false,"is_disabled":false,"rental_uris":{"android":"levelo://app?vid=12f6043e-3a88-4749-89e5-2feadb7d10f7","ios":"levelo://app?vid=12f6043e-3a88-4749-89e5-2feadb7d10f7"},"vehicle_type_id":"4","last_reported":1732129600,"current_range_meters":24400,"station_id":"cjm6bp8fraef2m0cb0m0","pricing_plan_id":"cebpf4jnsgd1na2vs0mg"},{"bike_id":"fc152104-cb08-4a09-be27-45ffc2f9ec36","system_id":"levelo_inurba_marseille","lat":43.2408,"lon":5.37756,"is_reserved":false,"is_disabled":false,"rental_uris":{"android":"levelo://app?vid=fc152104-cb08-4a09-be27-45ffc2f9ec36","ios":"levelo://app?vid=fc152104-cb08-4a09-be27-45ffc2f9ec36"},"vehicle_type_id":"4","last_reported":1732129600,"current_range_meters":14000,"station_id":"ce4bhnp2rcd13ifvqgvg","pricing_plan_id":"cebpf4jnsgd1na2vs0mg"},{"bike_id":"d76e6ecc-70e3-426d-9ef3-718df90d543c","system_id":"levelo_inurba_marseille","lat":43.24074,"lon":5.37763,"is_reserved":false,"is_disabled":false,"rental_uris":{"android":"levelo://app?vid=d76e6ecc-70e3-426d-9ef3-718df90d543c","ios":"levelo://app?vid=d76e6ecc-70e3-426d-9ef3-718df90d543c"},"vehicle_type_id":"4","last_reported":1732129600,"current_range_meters":20000,"station_id":"ce4bhnp2rcd13ifvqgvg","pricing_plan_id":"cebpf4jnsgd1na2vs0mg"},{"bike_id":"be9985f9-6464-434b-af17-317e2ecf4e0f","system_id":"levelo_inurba_marseille","lat":43.29256,"lon":5.38439,"is_reserved":false,"is_disabled":false,"rental_uris":{"android":"levelo://app?vid=be9985f9-6464-434b-af17-317e2ecf4e0f","ios":"levelo://app?vid=be9985f9-6464-434b-af17-317e2ecf4e0f"},"vehicle_type_id":"4","last_reported":1732129600,"current_range_meters":26000,"station_id":"ce4bh692rcd13ifvqea0","pricing_plan_id":"cebpf4jnsgd1na2vs0mg"},{"bike_id":"f3122999-53a0-4048-9ee6-7b1334af4417","system_id":"levelo_inurba_marseille","lat":43.2909,"lon":5.38144,"is_reserved":false,"is_disabled":false,"rental_uris":{"android":"levelo://app?vid=f3122999-53a0-4048-9ee6-7b1334af4417","ios":"levelo://app?vid=f3122999-53a0-4048-9ee6-7b1334af4417"},"vehicle_type_id":"4","last_reported":1732129600,"current_range_meters":30000,"station_id":"ce4bh512rcd13ifvqe2g","pricing_plan_id":"cebpf4jnsgd1na2vs0mg"},{"bike_id":"cdaafd2d-0da1-4fac-9881-15c66a7cd7c0","system_id":"levelo_inurba_marseille","lat":43.23159,"lon":5.43706,"is_reserved":false,"is_disabled":false,"rental_uris":{"android":"levelo://app?vid=cdaafd2d-0da1-4fac-9881-15c66a7cd7c0","ios":"levelo://app?vid=cdaafd2d-0da1-4fac-9881-15c66a7cd7c0"},"vehicle_type_id":"4","last_reported":1732129600,"current_range_meters":38800,"station_id":"ce4bhmp2rcd13ifvqgog","pricing_plan_id":"cebpf4jnsgd1na2vs0mg"},{"bike_id":"571ebf17-9551-4693-af9a-d47668470fe6","system_id":"levelo_inurba_marseille","lat":43.32369,"lon":5.38872,"is_reserved":false,"is_disabled":false,"rental_uris":{"android":"levelo://app?vid=571ebf17-9551-4693-af9a-d47668470fe6","ios":"levelo://app?vid=571ebf17-9551-4693-af9a-d47668470fe6"},"vehicle_type_id":"4","last_reported":1732129600,"current_range_meters":8000,"station_id":"ce4bhqp2rcd13ifvqhog","pricing_plan_id":"cebpf4jnsgd1na2vs0mg"},{"bike_id":"1d606ca2-d831-4cab-8cc3-213a7446614a","system_id":"levelo_inurba_marseille","lat":43.31484,"lon":5.37302,"is_reserved":false,"is_disabled":false,"rental_uris":{"android":"levelo://app?vid=1d606ca2-d831-4cab-8cc3-213a7446614a","ios":"levelo://app?vid=1d606ca2-d831-4cab-8cc3-213a7446614a"},"vehicle_type_id":"4","last_reported":1732129600,"current_range_meters":27200,"station_id":"ce4bgt12rcd13ifvqcd0","pricing_plan_id":"cebpf4jnsgd1na2vs0mg"},{"bike_id":"8d5ad0a8-268e-4afd-be61-7919f93826c7","system_id":"levelo_inurba_marseille","lat":43.29917,"lon":5.37478,"is_reserved":false,"is_disabled":true,"rental_uris":{"android":"levelo://app?vid=8d5ad0a8-268e-4afd-be61-7919f93826c7","ios":"levelo://app?vid=8d5ad0a8-268e-4afd-be61-7919f93826c7"},"vehicle_type_id":"4","last_reported":1732129600,"current_range_meters":36800,"station_id":"ce4bgjh2rcd13ifvqbg0","pricing_plan_id":"cebpf4jnsgd1na2vs0mg"},{"bike_id":"f198b97b-88d4-49aa-b205-4610520421a6","system_id":"levelo_inurba_marseille","lat":43.33018,"lon":5.39041,"is_reserved":false,"is_disabled":false,"rental_uris":{"android":"levelo://app?vid=f198b97b-88d4-49aa-b205-4610520421a6","ios":"levelo://app?vid=f198b97b-88d4-49aa-b205-4610520421a6"},"vehicle_type_id":"4","last_reported":1732129600,"current_range_meters":39200,"station_id":"ce4bhr92rcd13ifvqhrg","pricing_plan_id":"cebpf4jnsgd1na2vs0mg"},{"bike_id":"d193791a-0512-4817-8b67-b5e89d3445fa","system_id":"levelo_inurba_marseille","lat":43.25084,"lon":5.39518,"is_reserved":false,"is_disabled":false,"rental_uris":{"android":"levelo://app?vid=d193791a-0512-4817-8b67-b5e89d3445fa","ios":"levelo://app?vid=d193791a-0512-4817-8b67-b5e89d3445fa"},"vehicle_type_id":"4","last_reported":1732129600,"current_range_meters":25600,"station_id":"ce4bhm12rcd13ifvqgkg","pricing_plan_id":"cebpf4jnsgd1na2vs0mg"},{"bike_id":"20b8fda3-25c0-47ec-9e06-266171433333","system_id":"levelo_inurba_marseille","lat":43.24384,"lon":5.37057,"is_reserved":false,"is_disabled":false,"rental_uris":{"android":"levelo://app?vid=20b8fda3-25c0-47ec-9e06-266171433333","ios":"levelo://app?vid=20b8fda3-25c0-47ec-9e06-266171433333"},"vehicle_type_id":"4","last_reported":1732129600,"current_range_meters":38400,"station_id":"ce4bhhh2rcd13ifvqfk0","pricing_plan_id":"cebpf4jnsgd1na2vs0mg"},{"bike_id":"07c00c9c-1478-4a46-a8b0-8ebccd9ad9b5","system_id":"levelo_inurba_marseille","lat":43.31359,"lon":5.38491,"is_reserved":false,"is_disabled":false,"rental_uris":{"android":"levelo://app?vid=07c00c9c-1478-4a46-a8b0-8ebccd9ad9b5","ios":"levelo://app?vid=07c00c9c-1478-4a46-a8b0-8ebccd9ad9b5"},"vehicle_type_id":"4","last_reported":1732129600,"current_range_meters":26000,"station_id":"ce4bgt92rcd13ifvqcf0","pricing_plan_id":"cebpf4jnsgd1na2vs0mg"},{"bike_id":"cb46bcca-dad8-41f3-aed0-7cf38287d80f","system_id":"levelo_inurba_marseille","lat":43.25578,"lon":5.38239,"is_reserved":false,"is_disabled":false,"rental_uris":{"android":"levelo://app?vid=cb46bcca-dad8-41f3-aed0-7cf38287d80f","ios":"levelo://app?vid=cb46bcca-dad8-41f3-aed0-7cf38287d80f"},"vehicle_type_id":"4","last_reported":1732129600,"current_range_meters":4000,"station_id":"ce4bhih2rcd13ifvqfs0","pricing_plan_id":"cebpf4jnsgd1na2vs0mg"},{"bike_id":"7e1b14f0-9ded-447c-83c8-3429d5e2b465","system_id":"levelo_inurba_marseille","lat":43.2862,"lon":5.35102,"is_reserved":false,"is_disabled":false,"rental_uris":{"android":"levelo://app?vid=7e1b14f0-9ded-447c-83c8-3429d5e2b465","ios":"levelo://app?vid=7e1b14f0-9ded-447c-83c8-3429d5e2b465"},"vehicle_type_id":"4","last_reported":1732129600,"current_range_meters":38800,"station_id":"ce4bhch2rcd13ifvqeug","pricing_plan_id":"cebpf4jnsgd1na2vs0mg"},{"bike_id":"3b83af0f-3929-414c-9d4e-77acb2949ed9","system_id":"levelo_inurba_marseille","lat":43.27054,"lon":5.40265,"is_reserved":false,"is_disabled":true,"rental_uris":{"android":"levelo://app?vid=3b83af0f-3929-414c-9d4e-77acb2949ed9","ios":"levelo://app?vid=3b83af0f-3929-414c-9d4e-77acb2949ed9"},"vehicle_type_id":"4","last_reported":1732129600,"current_range_meters":0,"station_id":"ce4bhk92rcd13ifvqgc0","pricing_plan_id":"cebpf4jnsgd1na2vs0mg"},{"bike_id":"c2b5fbbf-7825-4a99-a7ab-db68406d5617","system_id":"levelo_inurba_marseille","lat":43.29271,"lon":5.38452,"is_reserved":false,"is_disabled":false,"rental_uris":{"android":"levelo://app?vid=c2b5fbbf-7825-4a99-a7ab-db68406d5617","ios":"levelo://app?vid=c2b5fbbf-7825-4a99-a7ab-db68406d5617"},"vehicle_type_id":"4","last_reported":1732129600,"current_range_meters":38400,"station_id":"ce4bh692rcd13ifvqea0","pricing_plan_id":"cebpf4jnsgd1na2vs0mg"},{"bike_id":"319639f6-c364-407e-9612-56f449d4d076","system_id":"levelo_inurba_marseille","lat":43.28074,"lon":5.39638,"is_reserved":false,"is_disabled":true,"rental_uris":{"android":"levelo://app?vid=319639f6-c364-407e-9612-56f449d4d076","ios":"levelo://app?vid=319639f6-c364-407e-9612-56f449d4d076"},"vehicle_type_id":"4","last_reported":1732129600,"current_range_meters":0,"station_id":"ce4bho12rcd13ifvqh2g","pricing_plan_id":"cebpf4jnsgd1na2vs0mg"},{"bike_id":"9d1b7cbb-98fa-41ad-94a0-1a65bb16f3d3","system_id":"levelo_inurba_marseille","lat":43.3176,"lon":5.39008,"is_reserved":false,"is_disabled":false,"rental_uris":{"android":"levelo://app?vid=9d1b7cbb-98fa-41ad-94a0-1a65bb16f3d3","ios":"levelo://app?vid=9d1b7cbb-98fa-41ad-94a0-1a65bb16f3d3"},"vehicle_type_id":"4","last_reported":1732129600,"current_range_meters":9200,"station_id":"ce4bhqp2rcd13ifvqhng","pricing_plan_id":"cebpf4jnsgd1na2vs0mg"},{"bike_id":"48798d28-e765-4bca-8863-1241fbb61318","system_id":"levelo_inurba_marseille","lat":43.287,"lon":5.37384,"is_reserved":false,"is_disabled":false,"rental_uris":{"android":"levelo://app?vid=48798d28-e765-4bca-8863-1241fbb61318","ios":"levelo://app?vid=48798d28-e765-4bca-8863-1241fbb61318"},"vehicle_type_id":"4","last_reported":1732129600,"current_range_meters":38800,"station_id":"ce4bh3p2rcd13ifvqdq0","pricing_plan_id":"cebpf4jnsgd1na2vs0mg"},{"bike_id":"19c67081-4b53-40d6-b37e-ac553a2e8a77","system_id":"levelo_inurba_marseille","lat":43.25086,"lon":5.39516,"is_reserved":false,"is_disabled":false,"rental_uris":{"android":"levelo://app?vid=19c67081-4b53-40d6-b37e-ac553a2e8a77","ios":"levelo://app?vid=19c67081-4b53-40d6-b37e-ac553a2e8a77"},"vehicle_type_id":"4","last_reported":1732129600,"current_range_meters":11600,"station_id":"ce4bhm12rcd13ifvqgkg","pricing_plan_id":"cebpf4jnsgd1na2vs0mg"},{"bike_id":"1951da77-c259-424b-b12e-3b8bb4eeaeca","system_id":"levelo_inurba_marseille","lat":43.29087,"lon":5.37159,"is_reserved":false,"is_disabled":true,"rental_uris":{"android":"levelo://app?vid=1951da77-c259-424b-b12e-3b8bb4eeaeca","ios":"levelo://app?vid=1951da77-c259-424b-b12e-3b8bb4eeaeca"},"vehicle_type_id":"4","last_reported":1732129600,"current_range_meters":28000,"station_id":"ce4bh5p2rcd13ifvqe4g","pricing_plan_id":"cebpf4jnsgd1na2vs0mg"},{"bike_id":"d2ba6e6f-fbc9-41e0-a097-27014c95f949","system_id":"levelo_inurba_marseille","lat":43.30798,"lon":5.43526,"is_reserved":false,"is_disabled":false,"rental_uris":{"android":"levelo://app?vid=d2ba6e6f-fbc9-41e0-a097-27014c95f949","ios":"levelo://app?vid=d2ba6e6f-fbc9-41e0-a097-27014c95f949"},"vehicle_type_id":"4","last_reported":1732129600,"current_range_meters":35200,"station_id":"ce4bhph2rcd13ifvqheg","pricing_plan_id":"cebpf4jnsgd1na2vs0mg"},{"bike_id":"e5bbc154-2aa9-45f9-abd2-d0a4fb0f0cdc","system_id":"levelo_inurba_marseille","lat":43.27996,"lon":5.41663,"is_reserved":false,"is_disabled":false,"rental_uris":{"android":"levelo://app?vid=e5bbc154-2aa9-45f9-abd2-d0a4fb0f0cdc","ios":"levelo://app?vid=e5bbc154-2aa9-45f9-abd2-d0a4fb0f0cdc"},"vehicle_type_id":"4","last_reported":1732129600,"current_range_meters":19200,"station_id":"ce4bho12rcd13ifvqh1g","pricing_plan_id":"cebpf4jnsgd1na2vs0mg"},{"bike_id":"c5f1db54-11ea-4990-b832-555ec10080b9","system_id":"levelo_inurba_marseille","lat":43.26565,"lon":5.39018,"is_reserved":false,"is_disabled":false,"rental_uris":{"android":"levelo://app?vid=c5f1db54-11ea-4990-b832-555ec10080b9","ios":"levelo://app?vid=c5f1db54-11ea-4990-b832-555ec10080b9"},"vehicle_type_id":"4","last_reported":1732129600,"current_range_meters":38800,"station_id":"ce4bhe12rcd13ifvqf30","pricing_plan_id":"cebpf4jnsgd1na2vs0mg"},{"bike_id":"e848a80c-eb56-48e3-8d7f-ee6646f21ed5","system_id":"levelo_inurba_marseille","lat":43.29442,"lon":5.39747,"is_reserved":false,"is_disabled":false,"rental_uris":{"android":"levelo://app?vid=e848a80c-eb56-48e3-8d7f-ee6646f21ed5","ios":"levelo://app?vid=e848a80c-eb56-48e3-8d7f-ee6646f21ed5"},"vehicle_type_id":"4","last_reported":1732129600,"current_range_meters":29600,"station_id":"ce4bh3h2rcd13ifvqdo0","pricing_plan_id":"cebpf4jnsgd1na2vs0mg"},{"bike_id":"0e764798-bdc3-4763-a631-f4c501e95266","system_id":"levelo_inurba_marseille","lat":43.29288,"lon":5.3746,"is_reserved":false,"is_disabled":false,"rental_uris":{"android":"levelo://app?vid=0e764798-bdc3-4763-a631-f4c501e95266","ios":"levelo://app?vid=0e764798-bdc3-4763-a631-f4c501e95266"},"vehicle_type_id":"4","last_reported":1732129600,"current_range_meters":28400,"station_id":"ce4bgi12rcd13ifvqb70","pricing_plan_id":"cebpf4jnsgd1na2vs0mg"},{"bike_id":"9b4d52a8-a22b-418c-a556-65afaca3a235","system_id":"levelo_inurba_marseille","lat":43.33748,"lon":5.37454,"is_reserved":false,"is_disabled":false,"rental_uris":{"android":"levelo://app?vid=9b4d52a8-a22b-418c-a556-65afaca3a235","ios":"levelo://app?vid=9b4d52a8-a22b-418c-a556-65afaca3a235"},"vehicle_type_id":"4","last_reported":1732129600,"current_range_meters":14800,"station_id":"","pricing_plan_id":"cebpf4jnsgd1na2vs0mg"},{"bike_id":"734ff50f-9424-4ab8-8cc3-954e7ed965b9","system_id":"levelo_inurba_marseille","lat":43.29223,"lon":5.36069,"is_reserved":false,"is_disabled":false,"rental_uris":{"android":"levelo://app?vid=734ff50f-9424-4ab8-8cc3-954e7ed965b9","ios":"levelo://app?vid=734ff50f-9424-4ab8-8cc3-954e7ed965b9"},"vehicle_type_id":"4","last_reported":1732129600,"current_range_meters":20000,"station_id":"ce4bhbh2rcd13ifvqeqg","pricing_plan_id":"cebpf4jnsgd1na2vs0mg"},{"bike_id":"90e1718d-cd99-4c8d-9c36-9960f11e6e9c","system_id":"levelo_inurba_marseille","lat":43.30926,"lon":5.4014,"is_reserved":false,"is_disabled":false,"rental_uris":{"android":"levelo://app?vid=90e1718d-cd99-4c8d-9c36-9960f11e6e9c","ios":"levelo://app?vid=90e1718d-cd99-4c8d-9c36-9960f11e6e9c"},"vehicle_type_id":"4","last_reported":1732129600,"current_range_meters":11600,"station_id":"ce4bgvp2rcd13ifvqct0","pricing_plan_id":"cebpf4jnsgd1na2vs0mg"},{"bike_id":"2af4d00b-5050-4935-b5d1-08b4e90f04bf","system_id":"levelo_inurba_marseille","lat":43.29027,"lon":5.38641,"is_reserved":false,"is_disabled":false,"rental_uris":{"android":"levelo://app?vid=2af4d00b-5050-4935-b5d1-08b4e90f04bf","ios":"levelo://app?vid=2af4d00b-5050-4935-b5d1-08b4e90f04bf"},"vehicle_type_id":"4","last_reported":1732129600,"current_range_meters":38800,"station_id":"ce4bh4p2rcd13ifvqe0g","pricing_plan_id":"cebpf4jnsgd1na2vs0mg"},{"bike_id":"13210393-5d7e-42af-ac37-a29fed95f89f","system_id":"levelo_inurba_marseille","lat":43.30349,"lon":5.41882,"is_reserved":false,"is_disabled":false,"rental_uris":{"android":"levelo://app?vid=13210393-5d7e-42af-ac37-a29fed95f89f","ios":"levelo://app?vid=13210393-5d7e-42af-ac37-a29fed95f89f"},"vehicle_type_id":"4","last_reported":1732129600,"current_range_meters":11200,"station_id":"ce4bhop2rcd13ifvqh7g","pricing_plan_id":"cebpf4jnsgd1na2vs0mg"},{"bike_id":"b60cc273-b0c2-42b6-a0f5-c2faf3f8160b","system_id":"levelo_inurba_marseille","lat":43.22932,"lon":5.35378,"is_reserved":false,"is_disabled":false,"rental_uris":{"android":"levelo://app?vid=b60cc273-b0c2-42b6-a0f5-c2faf3f8160b","ios":"levelo://app?vid=b60cc273-b0c2-42b6-a0f5-c2faf3f8160b"},"vehicle_type_id":"4","last_reported":1732129600,"current_range_meters":22000,"station_id":"cpo3532slgdg3j2ikp40","pricing_plan_id":"cebpf4jnsgd1na2vs0mg"},{"bike_id":"8ae288fe-7f9e-4636-bc68-3daa0c790f34","system_id":"levelo_inurba_marseille","lat":43.24663,"lon":5.38165,"is_reserved":false,"is_disabled":true,"rental_uris":{"android":"levelo://app?vid=8ae288fe-7f9e-4636-bc68-3daa0c790f34","ios":"levelo://app?vid=8ae288fe-7f9e-4636-bc68-3daa0c790f34"},"vehicle_type_id":"4","last_reported":1732129600,"current_range_meters":0,"station_id":"ce4bhih2rcd13ifvqfr0","pricing_plan_id":"cebpf4jnsgd1na2vs0mg"},{"bike_id":"f8d773ad-6117-441c-8a1f-2ad7889ac928","system_id":"levelo_inurba_marseille","lat":43.337444,"lon":5.374475,"is_reserved":false,"is_disabled":false,"rental_uris":{"android":"levelo://app?vid=f8d773ad-6117-441c-8a1f-2ad7889ac928","ios":"levelo://app?vid=f8d773ad-6117-441c-8a1f-2ad7889ac928"},"vehicle_type_id":"4","last_reported":1732129600,"current_range_meters":32000,"station_id":"","pricing_plan_id":"cebpf4jnsgd1na2vs0mg"},{"bike_id":"2196e330-a7aa-4092-bb99-58cef0d5e930","system_id":"levelo_inurba_marseille","lat":43.25092,"lon":5.39522,"is_reserved":false,"is_disabled":false,"rental_uris":{"android":"levelo://app?vid=2196e330-a7aa-4092-bb99-58cef0d5e930","ios":"levelo://app?vid=2196e330-a7aa-4092-bb99-58cef0d5e930"},"vehicle_type_id":"4","last_reported":1732129600,"current_range_meters":38800,"station_id":"ce4bhm12rcd13ifvqgkg","pricing_plan_id":"cebpf4jnsgd1na2vs0mg"},{"bike_id":"a32613c2-ce23-4c6b-99d9-f02f377bc95a","system_id":"levelo_inurba_marseille","lat":43.337444,"lon":5.374475,"is_reserved":false,"is_disabled":false,"rental_uris":{"android":"levelo://app?vid=a32613c2-ce23-4c6b-99d9-f02f377bc95a","ios":"levelo://app?vid=a32613c2-ce23-4c6b-99d9-f02f377bc95a"},"vehicle_type_id":"4","last_reported":1732129600,"current_range_meters":37600,"station_id":"","pricing_plan_id":"cebpf4jnsgd1na2vs0mg"},{"bike_id":"b62331f6-ed4a-4f1e-a5bd-22858541b98f","system_id":"levelo_inurba_marseille","lat":43.29533,"lon":5.38541,"is_reserved":false,"is_disabled":false,"rental_uris":{"android":"levelo://app?vid=b62331f6-ed4a-4f1e-a5bd-22858541b98f","ios":"levelo://app?vid=b62331f6-ed4a-4f1e-a5bd-22858541b98f"},"vehicle_type_id":"4","last_reported":1732129600,"current_range_meters":39200,"station_id":"ce4bgih2rcd13ifvqba0","pricing_plan_id":"cebpf4jnsgd1na2vs0mg"},{"bike_id":"e111497a-d4fd-42f1-8cad-a348b2f62072","system_id":"levelo_inurba_marseille","lat":43.29526,"lon":5.38548,"is_reserved":false,"is_disabled":false,"rental_uris":{"android":"levelo://app?vid=e111497a-d4fd-42f1-8cad-a348b2f62072","ios":"levelo://app?vid=e111497a-d4fd-42f1-8cad-a348b2f62072"},"vehicle_type_id":"4","last_reported":1732129600,"current_range_meters":29600,"station_id":"ce4bgih2rcd13ifvqba0","pricing_plan_id":"cebpf4jnsgd1na2vs0mg"},{"bike_id":"b776332e-40d1-4fd6-9c65-32803e6de98b","system_id":"levelo_inurba_marseille","lat":43.30145,"lon":5.37416,"is_reserved":false,"is_disabled":true,"rental_uris":{"android":"levelo://app?vid=b776332e-40d1-4fd6-9c65-32803e6de98b","ios":"levelo://app?vid=b776332e-40d1-4fd6-9c65-32803e6de98b"},"vehicle_type_id":"4","last_reported":1732129600,"current_range_meters":0,"station_id":"ce4bgs92rcd13ifvqcc0","pricing_plan_id":"cebpf4jnsgd1na2vs0mg"},{"bike_id":"2b6b4c89-532f-42b1-b743-2780eb753277","system_id":"levelo_inurba_marseille","lat":43.29267,"lon":5.38433,"is_reserved":false,"is_disabled":false,"rental_uris":{"android":"levelo://app?vid=2b6b4c89-532f-42b1-b743-2780eb753277","ios":"levelo://app?vid=2b6b4c89-532f-42b1-b743-2780eb753277"},"vehicle_type_id":"4","last_reported":1732129600,"current_range_meters":30000,"station_id":"ce4bh692rcd13ifvqea0","pricing_plan_id":"cebpf4jnsgd1na2vs0mg"},{"bike_id":"71549854-42bf-44a4-b341-6a3743984493","system_id":"levelo_inurba_marseille","lat":43.31115,"lon":5.37767,"is_reserved":false,"is_disabled":false,"rental_uris":{"android":"levelo://app?vid=71549854-42bf-44a4-b341-6a3743984493","ios":"levelo://app?vid=71549854-42bf-44a4-b341-6a3743984493"},"vehicle_type_id":"4","last_reported":1732129600,"current_range_meters":17600,"station_id":"ce4bgt92rcd13ifvqcg0","pricing_plan_id":"cebpf4jnsgd1na2vs0mg"},{"bike_id":"3a798e2a-8aa0-479a-82f8-23e0635f8a00","system_id":"levelo_inurba_marseille","lat":43.28349,"lon":5.3811,"is_reserved":false,"is_disabled":false,"rental_uris":{"android":"levelo://app?vid=3a798e2a-8aa0-479a-82f8-23e0635f8a00","ios":"levelo://app?vid=3a798e2a-8aa0-479a-82f8-23e0635f8a00"},"vehicle_type_id":"4","last_reported":1732129600,"current_range_meters":34000,"station_id":"ce4bh412rcd13ifvqdr0","pricing_plan_id":"cebpf4jnsgd1na2vs0mg"},{"bike_id":"8c0fad5b-09fe-44a2-9d48-caadd5b9d707","system_id":"levelo_inurba_marseille","lat":43.29185,"lon":5.35801,"is_reserved":false,"is_disabled":false,"rental_uris":{"android":"levelo://app?vid=8c0fad5b-09fe-44a2-9d48-caadd5b9d707","ios":"levelo://app?vid=8c0fad5b-09fe-44a2-9d48-caadd5b9d707"},"vehicle_type_id":"4","last_reported":1732129600,"current_range_meters":30000,"station_id":"ce4bhb12rcd13ifvqel0","pricing_plan_id":"cebpf4jnsgd1na2vs0mg"},{"bike_id":"fc6c68b6-636b-4d9b-b53a-91bdb2ed5b09","system_id":"levelo_inurba_marseille","lat":43.25079,"lon":5.39512,"is_reserved":false,"is_disabled":false,"rental_uris":{"android":"levelo://app?vid=fc6c68b6-636b-4d9b-b53a-91bdb2ed5b09","ios":"levelo://app?vid=fc6c68b6-636b-4d9b-b53a-91bdb2ed5b09"},"vehicle_type_id":"4","last_reported":1732129600,"current_range_meters":19600,"station_id":"ce4bhm12rcd13ifvqgkg","pricing_plan_id":"cebpf4jnsgd1na2vs0mg"},{"bike_id":"1b758113-6a51-491b-b678-620870512093","system_id":"levelo_inurba_marseille","lat":43.33023,"lon":5.39037,"is_reserved":false,"is_disabled":false,"rental_uris":{"android":"levelo://app?vid=1b758113-6a51-491b-b678-620870512093","ios":"levelo://app?vid=1b758113-6a51-491b-b678-620870512093"},"vehicle_type_id":"4","last_reported":1732129600,"current_range_meters":13600,"station_id":"ce4bhr92rcd13ifvqhrg","pricing_plan_id":"cebpf4jnsgd1na2vs0mg"},{"bike_id":"7a03fe2c-2501-4593-945f-c4181e6082d2","system_id":"levelo_inurba_marseille","lat":43.29937,"lon":5.36528,"is_reserved":false,"is_disabled":false,"rental_uris":{"android":"levelo://app?vid=7a03fe2c-2501-4593-945f-c4181e6082d2","ios":"levelo://app?vid=7a03fe2c-2501-4593-945f-c4181e6082d2"},"vehicle_type_id":"4","last_reported":1732129600,"current_range_meters":31200,"station_id":"ce4bgm92rcd13ifvqbr0","pricing_plan_id":"cebpf4jnsgd1na2vs0mg"},{"bike_id":"26e729c0-f691-41ae-bfe6-ef7e84b2577d","system_id":"levelo_inurba_marseille","lat":43.30205,"lon":5.39453,"is_reserved":false,"is_disabled":false,"rental_uris":{"android":"levelo://app?vid=26e729c0-f691-41ae-bfe6-ef7e84b2577d","ios":"levelo://app?vid=26e729c0-f691-41ae-bfe6-ef7e84b2577d"},"vehicle_type_id":"4","last_reported":1732129600,"current_range_meters":33200,"station_id":"ce4bh0p2rcd13ifvqd70","pricing_plan_id":"cebpf4jnsgd1na2vs0mg"},{"bike_id":"a016d8fe-eb7d-41b4-9004-329ced9e07b5","system_id":"levelo_inurba_marseille","lat":43.31707,"lon":5.37742,"is_reserved":false,"is_disabled":false,"rental_uris":{"android":"levelo://app?vid=a016d8fe-eb7d-41b4-9004-329ced9e07b5","ios":"levelo://app?vid=a016d8fe-eb7d-41b4-9004-329ced9e07b5"},"vehicle_type_id":"4","last_reported":1732129600,"current_range_meters":6000,"station_id":"ce4bgth2rcd13ifvqch0","pricing_plan_id":"cebpf4jnsgd1na2vs0mg"},{"bike_id":"dfdc5e61-7b27-4b66-95ca-620c77fce2ee","system_id":"levelo_inurba_marseille","lat":43.26057,"lon":5.39402,"is_reserved":false,"is_disabled":false,"rental_uris":{"android":"levelo://app?vid=dfdc5e61-7b27-4b66-95ca-620c77fce2ee","ios":"levelo://app?vid=dfdc5e61-7b27-4b66-95ca-620c77fce2ee"},"vehicle_type_id":"4","last_reported":1732129600,"current_range_meters":38800,"station_id":"ce4bhh92rcd13ifvqfj0","pricing_plan_id":"cebpf4jnsgd1na2vs0mg"},{"bike_id":"5d65b627-3435-4723-9775-b5218e9b2a7a","system_id":"levelo_inurba_marseille","lat":43.27207,"lon":5.39195,"is_reserved":false,"is_disabled":true,"rental_uris":{"android":"levelo://app?vid=5d65b627-3435-4723-9775-b5218e9b2a7a","ios":"levelo://app?vid=5d65b627-3435-4723-9775-b5218e9b2a7a"},"vehicle_type_id":"4","last_reported":1732129600,"current_range_meters":9600,"station_id":"ce4bhhp2rcd13ifvqfm0","pricing_plan_id":"cebpf4jnsgd1na2vs0mg"},{"bike_id":"8818b0a7-c814-4461-bb43-5fd8c33bac08","system_id":"levelo_inurba_marseille","lat":43.3302,"lon":5.39033,"is_reserved":false,"is_disabled":false,"rental_uris":{"android":"levelo://app?vid=8818b0a7-c814-4461-bb43-5fd8c33bac08","ios":"levelo://app?vid=8818b0a7-c814-4461-bb43-5fd8c33bac08"},"vehicle_type_id":"4","last_reported":1732129600,"current_range_meters":29600,"station_id":"ce4bhr92rcd13ifvqhrg","pricing_plan_id":"cebpf4jnsgd1na2vs0mg"},{"bike_id":"1904e4d6-e1e0-456f-9800-8b0e0e7107b4","system_id":"levelo_inurba_marseille","lat":43.23153,"lon":5.4371,"is_reserved":false,"is_disabled":false,"rental_uris":{"android":"levelo://app?vid=1904e4d6-e1e0-456f-9800-8b0e0e7107b4","ios":"levelo://app?vid=1904e4d6-e1e0-456f-9800-8b0e0e7107b4"},"vehicle_type_id":"4","last_reported":1732129600,"current_range_meters":38800,"station_id":"ce4bhmp2rcd13ifvqgog","pricing_plan_id":"cebpf4jnsgd1na2vs0mg"},{"bike_id":"0ec43a9c-7899-4ecb-9d09-afb56956c15b","system_id":"levelo_inurba_marseille","lat":43.30584,"lon":5.39355,"is_reserved":false,"is_disabled":false,"rental_uris":{"android":"levelo://app?vid=0ec43a9c-7899-4ecb-9d09-afb56956c15b","ios":"levelo://app?vid=0ec43a9c-7899-4ecb-9d09-afb56956c15b"},"vehicle_type_id":"4","last_reported":1732129600,"current_range_meters":28400,"station_id":"ce4bh0p2rcd13ifvqd80","pricing_plan_id":"cebpf4jnsgd1na2vs0mg"},{"bike_id":"1eff5ce5-2d56-4465-a12c-60db9ec2175a","system_id":"levelo_inurba_marseille","lat":43.22928,"lon":5.3538,"is_reserved":false,"is_disabled":false,"rental_uris":{"android":"levelo://app?vid=1eff5ce5-2d56-4465-a12c-60db9ec2175a","ios":"levelo://app?vid=1eff5ce5-2d56-4465-a12c-60db9ec2175a"},"vehicle_type_id":"4","last_reported":1732129600,"current_range_meters":14400,"station_id":"cpo3532slgdg3j2ikp40","pricing_plan_id":"cebpf4jnsgd1na2vs0mg"},{"bike_id":"a52e2ea1-e7f5-4a38-9dc8-ee8f57422349","system_id":"levelo_inurba_marseille","lat":43.25818,"lon":5.394471,"is_reserved":false,"is_disabled":true,"rental_uris":{"android":"levelo://app?vid=a52e2ea1-e7f5-4a38-9dc8-ee8f57422349","ios":"levelo://app?vid=a52e2ea1-e7f5-4a38-9dc8-ee8f57422349"},"vehicle_type_id":"4","last_reported":1732129600,"current_range_meters":0,"station_id":"ce4bhip2rcd13ifvqft0","pricing_plan_id":"cebpf4jnsgd1na2vs0mg"},{"bike_id":"ce6d46e5-4223-4bce-a0db-85f63ca84039","system_id":"levelo_inurba_marseille","lat":43.30287,"lon":5.40053,"is_reserved":false,"is_disabled":false,"rental_uris":{"android":"levelo://app?vid=ce6d46e5-4223-4bce-a0db-85f63ca84039","ios":"levelo://app?vid=ce6d46e5-4223-4bce-a0db-85f63ca84039"},"vehicle_type_id":"4","last_reported":1732129600,"current_range_meters":6000,"station_id":"ce4bgvh2rcd13ifvqcs0","pricing_plan_id":"cebpf4jnsgd1na2vs0mg"},{"bike_id":"f1126846-151c-41db-a723-1b5f4b356b87","system_id":"levelo_inurba_marseille","lat":43.32363,"lon":5.38884,"is_reserved":false,"is_disabled":true,"rental_uris":{"android":"levelo://app?vid=f1126846-151c-41db-a723-1b5f4b356b87","ios":"levelo://app?vid=f1126846-151c-41db-a723-1b5f4b356b87"},"vehicle_type_id":"4","last_reported":1732129600,"current_range_meters":12000,"station_id":"ce4bhqp2rcd13ifvqhog","pricing_plan_id":"cebpf4jnsgd1na2vs0mg"},{"bike_id":"3ff3dc15-6297-40ec-80c0-69786164c819","system_id":"levelo_inurba_marseille","lat":43.31533,"lon":5.38026,"is_reserved":false,"is_disabled":false,"rental_uris":{"android":"levelo://app?vid=3ff3dc15-6297-40ec-80c0-69786164c819","ios":"levelo://app?vid=3ff3dc15-6297-40ec-80c0-69786164c819"},"vehicle_type_id":"4","last_reported":1732129600,"current_range_meters":16400,"station_id":"ce4bhsp2rcd13ifvqi50","pricing_plan_id":"cebpf4jnsgd1na2vs0mg"},{"bike_id":"0bcf8c6b-4c64-45d0-ab99-412d7e6cc33c","system_id":"levelo_inurba_marseille","lat":43.30897,"lon":5.39641,"is_reserved":false,"is_disabled":false,"rental_uris":{"android":"levelo://app?vid=0bcf8c6b-4c64-45d0-ab99-412d7e6cc33c","ios":"levelo://app?vid=0bcf8c6b-4c64-45d0-ab99-412d7e6cc33c"},"vehicle_type_id":"4","last_reported":1732129600,"current_range_meters":11600,"station_id":"ce4bh012rcd13ifvqcv0","pricing_plan_id":"cebpf4jnsgd1na2vs0mg"},{"bike_id":"954054ad-77ac-46c3-a1b5-c8fc266a522b","system_id":"levelo_inurba_marseille","lat":43.31725,"lon":5.42397,"is_reserved":false,"is_disabled":false,"rental_uris":{"android":"levelo://app?vid=954054ad-77ac-46c3-a1b5-c8fc266a522b","ios":"levelo://app?vid=954054ad-77ac-46c3-a1b5-c8fc266a522b"},"vehicle_type_id":"4","last_reported":1732129600,"current_range_meters":39200,"station_id":"ce4bhp92rcd13ifvqhbg","pricing_plan_id":"cebpf4jnsgd1na2vs0mg"},{"bike_id":"9c4a655e-2680-4a60-a844-6a2ea62fb4b1","system_id":"levelo_inurba_marseille","lat":43.26066,"lon":5.39389,"is_reserved":false,"is_disabled":false,"rental_uris":{"android":"levelo://app?vid=9c4a655e-2680-4a60-a844-6a2ea62fb4b1","ios":"levelo://app?vid=9c4a655e-2680-4a60-a844-6a2ea62fb4b1"},"vehicle_type_id":"4","last_reported":1732129600,"current_range_meters":24000,"station_id":"ce4bhh92rcd13ifvqfj0","pricing_plan_id":"cebpf4jnsgd1na2vs0mg"},{"bike_id":"b5db6422-b331-470e-b304-a54dae072156","system_id":"levelo_inurba_marseille","lat":43.25498,"lon":5.37651,"is_reserved":false,"is_disabled":false,"rental_uris":{"android":"levelo://app?vid=b5db6422-b331-470e-b304-a54dae072156","ios":"levelo://app?vid=b5db6422-b331-470e-b304-a54dae072156"},"vehicle_type_id":"4","last_reported":1732129600,"current_range_meters":38000,"station_id":"ce4bhh12rcd13ifvqff0","pricing_plan_id":"cebpf4jnsgd1na2vs0mg"},{"bike_id":"5a4c4afd-7e77-4fb4-a40d-a8d30737b2da","system_id":"levelo_inurba_marseille","lat":43.2846,"lon":5.35901,"is_reserved":false,"is_disabled":false,"rental_uris":{"android":"levelo://app?vid=5a4c4afd-7e77-4fb4-a40d-a8d30737b2da","ios":"levelo://app?vid=5a4c4afd-7e77-4fb4-a40d-a8d30737b2da"},"vehicle_type_id":"4","last_reported":1732129600,"current_range_meters":26800,"station_id":"ce4bhah2rcd13ifvqei0","pricing_plan_id":"cebpf4jnsgd1na2vs0mg"},{"bike_id":"5a424999-1add-4697-a782-2b08b19f5e7d","system_id":"levelo_inurba_marseille","lat":43.30909,"lon":5.3685,"is_reserved":false,"is_disabled":false,"rental_uris":{"android":"levelo://app?vid=5a424999-1add-4697-a782-2b08b19f5e7d","ios":"levelo://app?vid=5a424999-1add-4697-a782-2b08b19f5e7d"},"vehicle_type_id":"4","last_reported":1732129600,"current_range_meters":30800,"station_id":"ce4bgn92rcd13ifvqbvg","pricing_plan_id":"cebpf4jnsgd1na2vs0mg"},{"bike_id":"e840fe4f-47a0-4d31-8133-7c332a3d517a","system_id":"levelo_inurba_marseille","lat":43.31078,"lon":5.42432,"is_reserved":false,"is_disabled":true,"rental_uris":{"android":"levelo://app?vid=e840fe4f-47a0-4d31-8133-7c332a3d517a","ios":"levelo://app?vid=e840fe4f-47a0-4d31-8133-7c332a3d517a"},"vehicle_type_id":"4","last_reported":1732129600,"current_range_meters":9600,"station_id":"ce4bhp92rcd13ifvqhag","pricing_plan_id":"cebpf4jnsgd1na2vs0mg"},{"bike_id":"b2285fb2-d27f-4f13-a222-b81f23df0b6c","system_id":"levelo_inurba_marseille","lat":43.28926,"lon":5.38399,"is_reserved":false,"is_disabled":false,"rental_uris":{"android":"levelo://app?vid=b2285fb2-d27f-4f13-a222-b81f23df0b6c","ios":"levelo://app?vid=b2285fb2-d27f-4f13-a222-b81f23df0b6c"},"vehicle_type_id":"4","last_reported":1732129600,"current_range_meters":28800,"station_id":"ce4bh612rcd13ifvqe6g","pricing_plan_id":"cebpf4jnsgd1na2vs0mg"},{"bike_id":"d0b25063-484d-4898-a808-84974f7eed8c","system_id":"levelo_inurba_marseille","lat":43.317,"lon":5.37756,"is_reserved":false,"is_disabled":false,"rental_uris":{"android":"levelo://app?vid=d0b25063-484d-4898-a808-84974f7eed8c","ios":"levelo://app?vid=d0b25063-484d-4898-a808-84974f7eed8c"},"vehicle_type_id":"4","last_reported":1732129600,"current_range_meters":20000,"station_id":"ce4bgth2rcd13ifvqch0","pricing_plan_id":"cebpf4jnsgd1na2vs0mg"},{"bike_id":"f6ca9245-191f-4978-98c5-b08ce79f5b19","system_id":"levelo_inurba_marseille","lat":43.25868,"lon":5.39897,"is_reserved":false,"is_disabled":false,"rental_uris":{"android":"levelo://app?vid=f6ca9245-191f-4978-98c5-b08ce79f5b19","ios":"levelo://app?vid=f6ca9245-191f-4978-98c5-b08ce79f5b19"},"vehicle_type_id":"4","last_reported":1732129600,"current_range_meters":26000,"station_id":"ce4bhl92rcd13ifvqghg","pricing_plan_id":"cebpf4jnsgd1na2vs0mg"},{"bike_id":"082b9d39-45f7-4d49-921a-db168541fb46","system_id":"levelo_inurba_marseille","lat":43.29259,"lon":5.36849,"is_reserved":false,"is_disabled":false,"rental_uris":{"android":"levelo://app?vid=082b9d39-45f7-4d49-921a-db168541fb46","ios":"levelo://app?vid=082b9d39-45f7-4d49-921a-db168541fb46"},"vehicle_type_id":"4","last_reported":1732129600,"current_range_meters":11600,"station_id":"ce4bhbp2rcd13ifvqesg","pricing_plan_id":"cebpf4jnsgd1na2vs0mg"},{"bike_id":"98b32e58-9186-4741-afff-13e77a09e04c","system_id":"levelo_inurba_marseille","lat":43.25083,"lon":5.39518,"is_reserved":false,"is_disabled":false,"rental_uris":{"android":"levelo://app?vid=98b32e58-9186-4741-afff-13e77a09e04c","ios":"levelo://app?vid=98b32e58-9186-4741-afff-13e77a09e04c"},"vehicle_type_id":"4","last_reported":1732129600,"current_range_meters":25600,"station_id":"ce4bhm12rcd13ifvqgkg","pricing_plan_id":"cebpf4jnsgd1na2vs0mg"},{"bike_id":"9b3fbf62-4f4c-46b4-9c62-9854a41b7d49","system_id":"levelo_inurba_marseille","lat":43.3171,"lon":5.37746,"is_reserved":false,"is_disabled":false,"rental_uris":{"android":"levelo://app?vid=9b3fbf62-4f4c-46b4-9c62-9854a41b7d49","ios":"levelo://app?vid=9b3fbf62-4f4c-46b4-9c62-9854a41b7d49"},"vehicle_type_id":"4","last_reported":1732129600,"current_range_meters":16000,"station_id":"ce4bgth2rcd13ifvqch0","pricing_plan_id":"cebpf4jnsgd1na2vs0mg"},{"bike_id":"5a26dce2-1b82-47b3-bd2f-1e1c69c351bd","system_id":"levelo_inurba_marseille","lat":43.2979,"lon":5.40403,"is_reserved":false,"is_disabled":false,"rental_uris":{"android":"levelo://app?vid=5a26dce2-1b82-47b3-bd2f-1e1c69c351bd","ios":"levelo://app?vid=5a26dce2-1b82-47b3-bd2f-1e1c69c351bd"},"vehicle_type_id":"4","last_reported":1732129600,"current_range_meters":16400,"station_id":"ce4bh112rcd13ifvqd90","pricing_plan_id":"cebpf4jnsgd1na2vs0mg"},{"bike_id":"7eaf5910-b4db-4259-961f-d6ce83b4b295","system_id":"levelo_inurba_marseille","lat":43.337444,"lon":5.374475,"is_reserved":false,"is_disabled":false,"rental_uris":{"android":"levelo://app?vid=7eaf5910-b4db-4259-961f-d6ce83b4b295","ios":"levelo://app?vid=7eaf5910-b4db-4259-961f-d6ce83b4b295"},"vehicle_type_id":"4","last_reported":1732129600,"current_range_meters":36800,"station_id":"","pricing_plan_id":"cebpf4jnsgd1na2vs0mg"},{"bike_id":"d24911f6-c739-47d0-b2ed-f1c5bebac88b","system_id":"levelo_inurba_marseille","lat":43.29975,"lon":5.38506,"is_reserved":false,"is_disabled":false,"rental_uris":{"android":"levelo://app?vid=d24911f6-c739-47d0-b2ed-f1c5bebac88b","ios":"levelo://app?vid=d24911f6-c739-47d0-b2ed-f1c5bebac88b"},"vehicle_type_id":"4","last_reported":1732129600,"current_range_meters":30400,"station_id":"ce4bgj92rcd13ifvqbd0","pricing_plan_id":"cebpf4jnsgd1na2vs0mg"},{"bike_id":"7967d1ed-2919-4faa-ba77-693d57d88596","system_id":"levelo_inurba_marseille","lat":43.29416,"lon":5.38614,"is_reserved":false,"is_disabled":false,"rental_uris":{"android":"levelo://app?vid=7967d1ed-2919-4faa-ba77-693d57d88596","ios":"levelo://app?vid=7967d1ed-2919-4faa-ba77-693d57d88596"},"vehicle_type_id":"4","last_reported":1732129600,"current_range_meters":39200,"station_id":"ce4bh2h2rcd13ifvqdh0","pricing_plan_id":"cebpf4jnsgd1na2vs0mg"},{"bike_id":"cef62867-23f4-440a-8364-39b220934f9f","system_id":"levelo_inurba_marseille","lat":43.29181,"lon":5.37154,"is_reserved":false,"is_disabled":false,"rental_uris":{"android":"levelo://app?vid=cef62867-23f4-440a-8364-39b220934f9f","ios":"levelo://app?vid=cef62867-23f4-440a-8364-39b220934f9f"},"vehicle_type_id":"4","last_reported":1732129600,"current_range_meters":38800,"station_id":"ce4bha92rcd13ifvqeh0","pricing_plan_id":"cebpf4jnsgd1na2vs0mg"},{"bike_id":"ffe4e9fb-1745-4a7f-bf2d-14037baef2a7","system_id":"levelo_inurba_marseille","lat":43.29228,"lon":5.40885,"is_reserved":false,"is_disabled":false,"rental_uris":{"android":"levelo://app?vid=ffe4e9fb-1745-4a7f-bf2d-14037baef2a7","ios":"levelo://app?vid=ffe4e9fb-1745-4a7f-bf2d-14037baef2a7"},"vehicle_type_id":"4","last_reported":1732129600,"current_range_meters":37600,"station_id":"ce4bh192rcd13ifvqdc0","pricing_plan_id":"cebpf4jnsgd1na2vs0mg"},{"bike_id":"423bfecf-9527-4e94-8e93-c8e561054331","system_id":"levelo_inurba_marseille","lat":43.2942,"lon":5.38623,"is_reserved":false,"is_disabled":false,"rental_uris":{"android":"levelo://app?vid=423bfecf-9527-4e94-8e93-c8e561054331","ios":"levelo://app?vid=423bfecf-9527-4e94-8e93-c8e561054331"},"vehicle_type_id":"4","last_reported":1732129600,"current_range_meters":12400,"station_id":"ce4bh2h2rcd13ifvqdh0","pricing_plan_id":"cebpf4jnsgd1na2vs0mg"},{"bike_id":"355652fe-5b40-4fa8-84ba-669e96205bc5","system_id":"levelo_inurba_marseille","lat":43.31994,"lon":5.38142,"is_reserved":false,"is_disabled":false,"rental_uris":{"android":"levelo://app?vid=355652fe-5b40-4fa8-84ba-669e96205bc5","ios":"levelo://app?vid=355652fe-5b40-4fa8-84ba-669e96205bc5"},"vehicle_type_id":"4","last_reported":1732129600,"current_range_meters":38800,"station_id":"ce4bhr12rcd13ifvqhpg","pricing_plan_id":"cebpf4jnsgd1na2vs0mg"},{"bike_id":"da92100c-6198-499c-bcb4-ce99352a2a85","system_id":"levelo_inurba_marseille","lat":43.24176,"lon":5.39724,"is_reserved":false,"is_disabled":false,"rental_uris":{"android":"levelo://app?vid=da92100c-6198-499c-bcb4-ce99352a2a85","ios":"levelo://app?vid=da92100c-6198-499c-bcb4-ce99352a2a85"},"vehicle_type_id":"4","last_reported":1732129600,"current_range_meters":38800,"station_id":"ce4bhn12rcd13ifvqgpg","pricing_plan_id":"cebpf4jnsgd1na2vs0mg"},{"bike_id":"5b5f4604-3a82-4584-a08b-4bc79bf3d12b","system_id":"levelo_inurba_marseille","lat":43.309112,"lon":5.37164,"is_reserved":false,"is_disabled":false,"rental_uris":{"android":"levelo://app?vid=5b5f4604-3a82-4584-a08b-4bc79bf3d12b","ios":"levelo://app?vid=5b5f4604-3a82-4584-a08b-4bc79bf3d12b"},"vehicle_type_id":"4","last_reported":1732129600,"current_range_meters":12400,"station_id":"ce4bguh2rcd13ifvqckg","pricing_plan_id":"cebpf4jnsgd1na2vs0mg"},{"bike_id":"9578ee9f-beb9-42e9-a863-107df67e6c7b","system_id":"levelo_inurba_marseille","lat":43.25866,"lon":5.39896,"is_reserved":false,"is_disabled":false,"rental_uris":{"android":"levelo://app?vid=9578ee9f-beb9-42e9-a863-107df67e6c7b","ios":"levelo://app?vid=9578ee9f-beb9-42e9-a863-107df67e6c7b"},"vehicle_type_id":"4","last_reported":1732129600,"current_range_meters":22000,"station_id":"ce4bhl92rcd13ifvqghg","pricing_plan_id":"cebpf4jnsgd1na2vs0mg"},{"bike_id":"b2d0621e-9ee1-4337-a68f-676ed60a9d9d","system_id":"levelo_inurba_marseille","lat":43.28662,"lon":5.36355,"is_reserved":false,"is_disabled":true,"rental_uris":{"android":"levelo://app?vid=b2d0621e-9ee1-4337-a68f-676ed60a9d9d","ios":"levelo://app?vid=b2d0621e-9ee1-4337-a68f-676ed60a9d9d"},"vehicle_type_id":"4","last_reported":1732129600,"current_range_meters":0,"station_id":"ce4bhah2rcd13ifvqej0","pricing_plan_id":"cebpf4jnsgd1na2vs0mg"},{"bike_id":"cae080ee-7c9f-46a0-b9fc-d77e4f0f6295","system_id":"levelo_inurba_marseille","lat":43.34,"lon":5.42297,"is_reserved":false,"is_disabled":false,"rental_uris":{"android":"levelo://app?vid=cae080ee-7c9f-46a0-b9fc-d77e4f0f6295","ios":"levelo://app?vid=cae080ee-7c9f-46a0-b9fc-d77e4f0f6295"},"vehicle_type_id":"4","last_reported":1732129600,"current_range_meters":9600,"station_id":"","pricing_plan_id":"cebpf4jnsgd1na2vs0mg"},{"bike_id":"05da2104-af20-4977-8ba0-3d720dca0f09","system_id":"levelo_inurba_marseille","lat":43.29522,"lon":5.39045,"is_reserved":false,"is_disabled":false,"rental_uris":{"android":"levelo://app?vid=05da2104-af20-4977-8ba0-3d720dca0f09","ios":"levelo://app?vid=05da2104-af20-4977-8ba0-3d720dca0f09"},"vehicle_type_id":"4","last_reported":1732129600,"current_range_meters":36400,"station_id":"ce4bh3p2rcd13ifvqdp0","pricing_plan_id":"cebpf4jnsgd1na2vs0mg"},{"bike_id":"a13d3387-f991-4615-ad72-55b943b5271f","system_id":"levelo_inurba_marseille","lat":43.29003,"lon":5.35621,"is_reserved":false,"is_disabled":false,"rental_uris":{"android":"levelo://app?vid=a13d3387-f991-4615-ad72-55b943b5271f","ios":"levelo://app?vid=a13d3387-f991-4615-ad72-55b943b5271f"},"vehicle_type_id":"4","last_reported":1732129600,"current_range_meters":36800,"station_id":"ce4bhb92rcd13ifvqen0","pricing_plan_id":"cebpf4jnsgd1na2vs0mg"},{"bike_id":"efaa20f7-d2fb-4778-9ca3-b17e9193d440","system_id":"levelo_inurba_marseille","lat":43.33723,"lon":5.39177,"is_reserved":false,"is_disabled":false,"rental_uris":{"android":"levelo://app?vid=efaa20f7-d2fb-4778-9ca3-b17e9193d440","ios":"levelo://app?vid=efaa20f7-d2fb-4778-9ca3-b17e9193d440"},"vehicle_type_id":"4","last_reported":1732129600,"current_range_meters":33200,"station_id":"ce4bhr92rcd13ifvqhsg","pricing_plan_id":"cebpf4jnsgd1na2vs0mg"},{"bike_id":"f6988eae-d820-4b05-8b4a-b4964416fd55","system_id":"levelo_inurba_marseille","lat":43.29069,"lon":5.37163,"is_reserved":false,"is_disabled":false,"rental_uris":{"android":"levelo://app?vid=f6988eae-d820-4b05-8b4a-b4964416fd55","ios":"levelo://app?vid=f6988eae-d820-4b05-8b4a-b4964416fd55"},"vehicle_type_id":"4","last_reported":1732129600,"current_range_meters":36000,"station_id":"ce4bh5p2rcd13ifvqe4g","pricing_plan_id":"cebpf4jnsgd1na2vs0mg"},{"bike_id":"ea1d4a8d-18d8-4559-aa2a-3582f71fc0b4","system_id":"levelo_inurba_marseille","lat":43.24809,"lon":5.37458,"is_reserved":false,"is_disabled":true,"rental_uris":{"android":"levelo://app?vid=ea1d4a8d-18d8-4559-aa2a-3582f71fc0b4","ios":"levelo://app?vid=ea1d4a8d-18d8-4559-aa2a-3582f71fc0b4"},"vehicle_type_id":"4","last_reported":1732129600,"current_range_meters":800,"station_id":"ce4bhgh2rcd13ifvqfb0","pricing_plan_id":"cebpf4jnsgd1na2vs0mg"},{"bike_id":"7edfefb5-aa6a-4a0c-a85f-7e1704ab10a0","system_id":"levelo_inurba_marseille","lat":43.231492,"lon":5.436216,"is_reserved":false,"is_disabled":false,"rental_uris":{"android":"levelo://app?vid=7edfefb5-aa6a-4a0c-a85f-7e1704ab10a0","ios":"levelo://app?vid=7edfefb5-aa6a-4a0c-a85f-7e1704ab10a0"},"vehicle_type_id":"4","last_reported":1732129600,"current_range_meters":38800,"station_id":"ce4bhmp2rcd13ifvqgog","pricing_plan_id":"cebpf4jnsgd1na2vs0mg"},{"bike_id":"7a942108-16ea-4f98-9d80-82c238759071","system_id":"levelo_inurba_marseille","lat":43.29568,"lon":5.39964,"is_reserved":false,"is_disabled":true,"rental_uris":{"android":"levelo://app?vid=7a942108-16ea-4f98-9d80-82c238759071","ios":"levelo://app?vid=7a942108-16ea-4f98-9d80-82c238759071"},"vehicle_type_id":"4","last_reported":1732129600,"current_range_meters":37600,"station_id":"ce4bh312rcd13ifvqdj0","pricing_plan_id":"cebpf4jnsgd1na2vs0mg"},{"bike_id":"028e5427-36e2-49e1-b3db-260058fffb58","system_id":"levelo_inurba_marseille","lat":43.25581,"lon":5.38238,"is_reserved":false,"is_disabled":false,"rental_uris":{"android":"levelo://app?vid=028e5427-36e2-49e1-b3db-260058fffb58","ios":"levelo://app?vid=028e5427-36e2-49e1-b3db-260058fffb58"},"vehicle_type_id":"4","last_reported":1732129600,"current_range_meters":27200,"station_id":"ce4bhih2rcd13ifvqfs0","pricing_plan_id":"cebpf4jnsgd1na2vs0mg"},{"bike_id":"91f0893f-6c9c-447a-87d6-53127af86d60","system_id":"levelo_inurba_marseille","lat":43.2509,"lon":5.39516,"is_reserved":false,"is_disabled":false,"rental_uris":{"android":"levelo://app?vid=91f0893f-6c9c-447a-87d6-53127af86d60","ios":"levelo://app?vid=91f0893f-6c9c-447a-87d6-53127af86d60"},"vehicle_type_id":"4","last_reported":1732129600,"current_range_meters":20400,"station_id":"ce4bhm12rcd13ifvqgkg","pricing_plan_id":"cebpf4jnsgd1na2vs0mg"},{"bike_id":"267dbe45-9295-4b9a-9987-6ec1aba74ebe","system_id":"levelo_inurba_marseille","lat":43.28852,"lon":5.39308,"is_reserved":false,"is_disabled":false,"rental_uris":{"android":"levelo://app?vid=267dbe45-9295-4b9a-9987-6ec1aba74ebe","ios":"levelo://app?vid=267dbe45-9295-4b9a-9987-6ec1aba74ebe"},"vehicle_type_id":"4","last_reported":1732129600,"current_range_meters":6400,"station_id":"ce4bh2p2rcd13ifvqdi0","pricing_plan_id":"cebpf4jnsgd1na2vs0mg"},{"bike_id":"79fd3e9e-6498-4b1f-bfe1-8c2f2ceddf32","system_id":"levelo_inurba_marseille","lat":43.28728,"lon":5.36086,"is_reserved":false,"is_disabled":true,"rental_uris":{"android":"levelo://app?vid=79fd3e9e-6498-4b1f-bfe1-8c2f2ceddf32","ios":"levelo://app?vid=79fd3e9e-6498-4b1f-bfe1-8c2f2ceddf32"},"vehicle_type_id":"4","last_reported":1732129600,"current_range_meters":0,"station_id":"cki0cbj6b192h4jlfktg","pricing_plan_id":"cebpf4jnsgd1na2vs0mg"},{"bike_id":"0d5efe48-32bd-461f-be09-c1d5e2d6ef37","system_id":"levelo_inurba_marseille","lat":43.32366,"lon":5.38877,"is_reserved":false,"is_disabled":false,"rental_uris":{"android":"levelo://app?vid=0d5efe48-32bd-461f-be09-c1d5e2d6ef37","ios":"levelo://app?vid=0d5efe48-32bd-461f-be09-c1d5e2d6ef37"},"vehicle_type_id":"4","last_reported":1732129600,"current_range_meters":4000,"station_id":"ce4bhqp2rcd13ifvqhog","pricing_plan_id":"cebpf4jnsgd1na2vs0mg"},{"bike_id":"fd0d8868-55f6-42c2-9189-6438f84e1fcc","system_id":"levelo_inurba_marseille","lat":43.28151,"lon":5.42644,"is_reserved":false,"is_disabled":false,"rental_uris":{"android":"levelo://app?vid=fd0d8868-55f6-42c2-9189-6438f84e1fcc","ios":"levelo://app?vid=fd0d8868-55f6-42c2-9189-6438f84e1fcc"},"vehicle_type_id":"4","last_reported":1732129600,"current_range_meters":13600,"station_id":"ce4bhnh2rcd13ifvqgug","pricing_plan_id":"cebpf4jnsgd1na2vs0mg"},{"bike_id":"6ed2c346-8d58-4f3e-b524-786fd781f5a4","system_id":"levelo_inurba_marseille","lat":43.26065,"lon":5.39375,"is_reserved":false,"is_disabled":false,"rental_uris":{"android":"levelo://app?vid=6ed2c346-8d58-4f3e-b524-786fd781f5a4","ios":"levelo://app?vid=6ed2c346-8d58-4f3e-b524-786fd781f5a4"},"vehicle_type_id":"4","last_reported":1732129600,"current_range_meters":20000,"station_id":"ce4bhh92rcd13ifvqfj0","pricing_plan_id":"cebpf4jnsgd1na2vs0mg"},{"bike_id":"41b66025-5082-421d-922c-552de41f1f1b","system_id":"levelo_inurba_marseille","lat":43.33795,"lon":5.37474,"is_reserved":false,"is_disabled":false,"rental_uris":{"android":"levelo://app?vid=41b66025-5082-421d-922c-552de41f1f1b","ios":"levelo://app?vid=41b66025-5082-421d-922c-552de41f1f1b"},"vehicle_type_id":"4","last_reported":1732129600,"current_range_meters":35200,"station_id":"","pricing_plan_id":"cebpf4jnsgd1na2vs0mg"},{"bike_id":"009ac959-e326-4fa0-a654-75e82873a609","system_id":"levelo_inurba_marseille","lat":43.31755,"lon":5.39018,"is_reserved":false,"is_disabled":false,"rental_uris":{"android":"levelo://app?vid=009ac959-e326-4fa0-a654-75e82873a609","ios":"levelo://app?vid=009ac959-e326-4fa0-a654-75e82873a609"},"vehicle_type_id":"4","last_reported":1732129600,"current_range_meters":39200,"station_id":"ce4bhqp2rcd13ifvqhng","pricing_plan_id":"cebpf4jnsgd1na2vs0mg"},{"bike_id":"7577f7b0-3986-4964-af34-9253d0a52f4b","system_id":"levelo_inurba_marseille","lat":43.30353,"lon":5.41888,"is_reserved":false,"is_disabled":true,"rental_uris":{"android":"levelo://app?vid=7577f7b0-3986-4964-af34-9253d0a52f4b","ios":"levelo://app?vid=7577f7b0-3986-4964-af34-9253d0a52f4b"},"vehicle_type_id":"4","last_reported":1732129600,"current_range_meters":0,"station_id":"ce4bhop2rcd13ifvqh7g","pricing_plan_id":"cebpf4jnsgd1na2vs0mg"},{"bike_id":"05fcd02f-dc24-4aa1-8e03-69c22eeb84bb","system_id":"levelo_inurba_marseille","lat":43.30949,"lon":5.39036,"is_reserved":false,"is_disabled":true,"rental_uris":{"android":"levelo://app?vid=05fcd02f-dc24-4aa1-8e03-69c22eeb84bb","ios":"levelo://app?vid=05fcd02f-dc24-4aa1-8e03-69c22eeb84bb"},"vehicle_type_id":"4","last_reported":1732129600,"current_range_meters":0,"station_id":"ce4bgup2rcd13ifvqco0","pricing_plan_id":"cebpf4jnsgd1na2vs0mg"},{"bike_id":"b6a5dd45-3299-4794-bb3d-6c5c2b5a78a1","system_id":"levelo_inurba_marseille","lat":43.33023,"lon":5.39041,"is_reserved":false,"is_disabled":false,"rental_uris":{"android":"levelo://app?vid=b6a5dd45-3299-4794-bb3d-6c5c2b5a78a1","ios":"levelo://app?vid=b6a5dd45-3299-4794-bb3d-6c5c2b5a78a1"},"vehicle_type_id":"4","last_reported":1732129600,"current_range_meters":39200,"station_id":"ce4bhr92rcd13ifvqhrg","pricing_plan_id":"cebpf4jnsgd1na2vs0mg"},{"bike_id":"92a95906-f45e-4bcd-b17b-00e0204c1221","system_id":"levelo_inurba_marseille","lat":43.25005,"lon":5.38927,"is_reserved":false,"is_disabled":false,"rental_uris":{"android":"levelo://app?vid=92a95906-f45e-4bcd-b17b-00e0204c1221","ios":"levelo://app?vid=92a95906-f45e-4bcd-b17b-00e0204c1221"},"vehicle_type_id":"4","last_reported":1732129600,"current_range_meters":38400,"station_id":"ce4bhgp2rcd13ifvqfd0","pricing_plan_id":"cebpf4jnsgd1na2vs0mg"},{"bike_id":"4a4cc085-31f4-43ee-9696-71a106728b96","system_id":"levelo_inurba_marseille","lat":43.30421,"lon":5.38847,"is_reserved":false,"is_disabled":false,"rental_uris":{"android":"levelo://app?vid=4a4cc085-31f4-43ee-9696-71a106728b96","ios":"levelo://app?vid=4a4cc085-31f4-43ee-9696-71a106728b96"},"vehicle_type_id":"4","last_reported":1732129600,"current_range_meters":30000,"station_id":"ce4bgvp2rcd13ifvqct0","pricing_plan_id":"cebpf4jnsgd1na2vs0mg"},{"bike_id":"0cf08f2a-762a-455e-8355-389e5172d4a4","system_id":"levelo_inurba_marseille","lat":43.30324,"lon":5.40443,"is_reserved":false,"is_disabled":false,"rental_uris":{"android":"levelo://app?vid=0cf08f2a-762a-455e-8355-389e5172d4a4","ios":"levelo://app?vid=0cf08f2a-762a-455e-8355-389e5172d4a4"},"vehicle_type_id":"4","last_reported":1732129600,"current_range_meters":28000,"station_id":"ce4bh012rcd13ifvqd10","pricing_plan_id":"cebpf4jnsgd1na2vs0mg"},{"bike_id":"84a237d9-ad41-45bd-8525-9d3660ffada0","system_id":"levelo_inurba_marseille","lat":43.25119,"lon":5.40315,"is_reserved":false,"is_disabled":false,"rental_uris":{"android":"levelo://app?vid=84a237d9-ad41-45bd-8525-9d3660ffada0","ios":"levelo://app?vid=84a237d9-ad41-45bd-8525-9d3660ffada0"},"vehicle_type_id":"4","last_reported":1732129600,"current_range_meters":9200,"station_id":"ce4bhlh2rcd13ifvqgig","pricing_plan_id":"cebpf4jnsgd1na2vs0mg"},{"bike_id":"3242b0f3-4f3f-462c-b731-c30f560a3efa","system_id":"levelo_inurba_marseille","lat":43.31759,"lon":5.39024,"is_reserved":false,"is_disabled":false,"rental_uris":{"android":"levelo://app?vid=3242b0f3-4f3f-462c-b731-c30f560a3efa","ios":"levelo://app?vid=3242b0f3-4f3f-462c-b731-c30f560a3efa"},"vehicle_type_id":"4","last_reported":1732129600,"current_range_meters":28800,"station_id":"ce4bhqp2rcd13ifvqhng","pricing_plan_id":"cebpf4jnsgd1na2vs0mg"},{"bike_id":"c3ee95c2-9916-49d0-8b9d-b97823ae0248","system_id":"levelo_inurba_marseille","lat":43.2989,"lon":5.38905,"is_reserved":false,"is_disabled":false,"rental_uris":{"android":"levelo://app?vid=c3ee95c2-9916-49d0-8b9d-b97823ae0248","ios":"levelo://app?vid=c3ee95c2-9916-49d0-8b9d-b97823ae0248"},"vehicle_type_id":"4","last_reported":1732129600,"current_range_meters":35600,"station_id":"ce4bh392rcd13ifvqdl0","pricing_plan_id":"cebpf4jnsgd1na2vs0mg"},{"bike_id":"7da372fc-3699-4a05-96fa-9342ec3ef374","system_id":"levelo_inurba_marseille","lat":43.25717,"lon":5.41115,"is_reserved":false,"is_disabled":false,"rental_uris":{"android":"levelo://app?vid=7da372fc-3699-4a05-96fa-9342ec3ef374","ios":"levelo://app?vid=7da372fc-3699-4a05-96fa-9342ec3ef374"},"vehicle_type_id":"4","last_reported":1732129600,"current_range_meters":14400,"station_id":"ce4bhkp2rcd13ifvqgd0","pricing_plan_id":"cebpf4jnsgd1na2vs0mg"},{"bike_id":"e5951ee3-4a5a-4ebb-b469-096c5188dfa3","system_id":"levelo_inurba_marseille","lat":43.23187,"lon":5.35546,"is_reserved":false,"is_disabled":true,"rental_uris":{"android":"levelo://app?vid=e5951ee3-4a5a-4ebb-b469-096c5188dfa3","ios":"levelo://app?vid=e5951ee3-4a5a-4ebb-b469-096c5188dfa3"},"vehicle_type_id":"4","last_reported":1732129600,"current_range_meters":0,"station_id":"ce4bhu92rcd13ifvqi70","pricing_plan_id":"cebpf4jnsgd1na2vs0mg"},{"bike_id":"5c8b652b-2265-4f4d-8f95-c84b57292204","system_id":"levelo_inurba_marseille","lat":43.28718,"lon":5.37939,"is_reserved":false,"is_disabled":false,"rental_uris":{"android":"levelo://app?vid=5c8b652b-2265-4f4d-8f95-c84b57292204","ios":"levelo://app?vid=5c8b652b-2265-4f4d-8f95-c84b57292204"},"vehicle_type_id":"4","last_reported":1732129600,"current_range_meters":28000,"station_id":"ce4bh9p2rcd13ifvqec0","pricing_plan_id":"cebpf4jnsgd1na2vs0mg"},{"bike_id":"dc5dd83c-07b3-4b2c-97ba-0c6bfce246df","system_id":"levelo_inurba_marseille","lat":43.27969,"lon":5.3875,"is_reserved":false,"is_disabled":false,"rental_uris":{"android":"levelo://app?vid=dc5dd83c-07b3-4b2c-97ba-0c6bfce246df","ios":"levelo://app?vid=dc5dd83c-07b3-4b2c-97ba-0c6bfce246df"},"vehicle_type_id":"4","last_reported":1732129600,"current_range_meters":5600,"station_id":"ce4bhg12rcd13ifvqf80","pricing_plan_id":"cebpf4jnsgd1na2vs0mg"},{"bike_id":"b2f6b9cf-69db-40ab-8230-689c41a2c16c","system_id":"levelo_inurba_marseille","lat":43.24163,"lon":5.3639,"is_reserved":false,"is_disabled":false,"rental_uris":{"android":"levelo://app?vid=b2f6b9cf-69db-40ab-8230-689c41a2c16c","ios":"levelo://app?vid=b2f6b9cf-69db-40ab-8230-689c41a2c16c"},"vehicle_type_id":"4","last_reported":1732129600,"current_range_meters":36800,"station_id":"cpo36qri1sfpv3e86is0","pricing_plan_id":"cebpf4jnsgd1na2vs0mg"},{"bike_id":"5088d695-0e9f-4773-b57e-f02f32e7ed76","system_id":"levelo_inurba_marseille","lat":43.33026,"lon":5.39043,"is_reserved":false,"is_disabled":false,"rental_uris":{"android":"levelo://app?vid=5088d695-0e9f-4773-b57e-f02f32e7ed76","ios":"levelo://app?vid=5088d695-0e9f-4773-b57e-f02f32e7ed76"},"vehicle_type_id":"4","last_reported":1732129600,"current_range_meters":11200,"station_id":"ce4bhr92rcd13ifvqhrg","pricing_plan_id":"cebpf4jnsgd1na2vs0mg"},{"bike_id":"2be6ca87-bcaa-41ab-926b-743f8584e762","system_id":"levelo_inurba_marseille","lat":43.24076,"lon":5.37758,"is_reserved":false,"is_disabled":false,"rental_uris":{"android":"levelo://app?vid=2be6ca87-bcaa-41ab-926b-743f8584e762","ios":"levelo://app?vid=2be6ca87-bcaa-41ab-926b-743f8584e762"},"vehicle_type_id":"4","last_reported":1732129600,"current_range_meters":36000,"station_id":"ce4bhnp2rcd13ifvqgvg","pricing_plan_id":"cebpf4jnsgd1na2vs0mg"},{"bike_id":"2fdc2020-285e-4a6a-a71d-c29abfc6593b","system_id":"levelo_inurba_marseille","lat":43.29591,"lon":5.37494,"is_reserved":false,"is_disabled":true,"rental_uris":{"android":"levelo://app?vid=2fdc2020-285e-4a6a-a71d-c29abfc6593b","ios":"levelo://app?vid=2fdc2020-285e-4a6a-a71d-c29abfc6593b"},"vehicle_type_id":"4","last_reported":1732129600,"current_range_meters":9600,"station_id":"ce4bgh92rcd13ifvqb50","pricing_plan_id":"cebpf4jnsgd1na2vs0mg"},{"bike_id":"cce3c01b-5efd-464e-a383-7ff6f6faa608","system_id":"levelo_inurba_marseille","lat":43.31083,"lon":5.42431,"is_reserved":false,"is_disabled":false,"rental_uris":{"android":"levelo://app?vid=cce3c01b-5efd-464e-a383-7ff6f6faa608","ios":"levelo://app?vid=cce3c01b-5efd-464e-a383-7ff6f6faa608"},"vehicle_type_id":"4","last_reported":1732129600,"current_range_meters":38800,"station_id":"ce4bhp92rcd13ifvqhag","pricing_plan_id":"cebpf4jnsgd1na2vs0mg"},{"bike_id":"93b438d8-c053-418f-8c35-2e067b9e160e","system_id":"levelo_inurba_marseille","lat":43.29165,"lon":5.37154,"is_reserved":false,"is_disabled":false,"rental_uris":{"android":"levelo://app?vid=93b438d8-c053-418f-8c35-2e067b9e160e","ios":"levelo://app?vid=93b438d8-c053-418f-8c35-2e067b9e160e"},"vehicle_type_id":"4","last_reported":1732129600,"current_range_meters":20400,"station_id":"ce4bha92rcd13ifvqeh0","pricing_plan_id":"cebpf4jnsgd1na2vs0mg"},{"bike_id":"036145f2-25f3-431d-8452-bf74254a5141","system_id":"levelo_inurba_marseille","lat":43.31756,"lon":5.39012,"is_reserved":false,"is_disabled":false,"rental_uris":{"android":"levelo://app?vid=036145f2-25f3-431d-8452-bf74254a5141","ios":"levelo://app?vid=036145f2-25f3-431d-8452-bf74254a5141"},"vehicle_type_id":"4","last_reported":1732129600,"current_range_meters":38800,"station_id":"ce4bhqp2rcd13ifvqhng","pricing_plan_id":"cebpf4jnsgd1na2vs0mg"},{"bike_id":"f916d349-56ae-46db-a876-57f14db90f83","system_id":"levelo_inurba_marseille","lat":43.30215,"lon":5.39468,"is_reserved":false,"is_disabled":false,"rental_uris":{"android":"levelo://app?vid=f916d349-56ae-46db-a876-57f14db90f83","ios":"levelo://app?vid=f916d349-56ae-46db-a876-57f14db90f83"},"vehicle_type_id":"4","last_reported":1732129600,"current_range_meters":29600,"station_id":"ce4bh0p2rcd13ifvqd70","pricing_plan_id":"cebpf4jnsgd1na2vs0mg"},{"bike_id":"7a621bf3-7eb8-4f15-be0a-80bb216ff2ed","system_id":"levelo_inurba_marseille","lat":43.2926,"lon":5.38438,"is_reserved":false,"is_disabled":false,"rental_uris":{"android":"levelo://app?vid=7a621bf3-7eb8-4f15-be0a-80bb216ff2ed","ios":"levelo://app?vid=7a621bf3-7eb8-4f15-be0a-80bb216ff2ed"},"vehicle_type_id":"4","last_reported":1732129600,"current_range_meters":25600,"station_id":"ce4bh692rcd13ifvqea0","pricing_plan_id":"cebpf4jnsgd1na2vs0mg"},{"bike_id":"145d6d86-3d9f-472b-afe4-88101ffd0c04","system_id":"levelo_inurba_marseille","lat":43.28699,"lon":5.37392,"is_reserved":false,"is_disabled":false,"rental_uris":{"android":"levelo://app?vid=145d6d86-3d9f-472b-afe4-88101ffd0c04","ios":"levelo://app?vid=145d6d86-3d9f-472b-afe4-88101ffd0c04"},"vehicle_type_id":"4","last_reported":1732129600,"current_range_meters":20400,"station_id":"ce4bh3p2rcd13ifvqdq0","pricing_plan_id":"cebpf4jnsgd1na2vs0mg"},{"bike_id":"208ed064-88b1-477b-be89-88fd526830ba","system_id":"levelo_inurba_marseille","lat":43.28566,"lon":5.39497,"is_reserved":false,"is_disabled":true,"rental_uris":{"android":"levelo://app?vid=208ed064-88b1-477b-be89-88fd526830ba","ios":"levelo://app?vid=208ed064-88b1-477b-be89-88fd526830ba"},"vehicle_type_id":"4","last_reported":1732129600,"current_range_meters":0,"station_id":"ce4bh292rcd13ifvqdg0","pricing_plan_id":"cebpf4jnsgd1na2vs0mg"},{"bike_id":"4674a573-a71e-41c0-a925-5c021c5e6c25","system_id":"levelo_inurba_marseille","lat":43.29429,"lon":5.37461,"is_reserved":false,"is_disabled":true,"rental_uris":{"android":"levelo://app?vid=4674a573-a71e-41c0-a925-5c021c5e6c25","ios":"levelo://app?vid=4674a573-a71e-41c0-a925-5c021c5e6c25"},"vehicle_type_id":"4","last_reported":1732129600,"current_range_meters":0,"station_id":"","pricing_plan_id":"cebpf4jnsgd1na2vs0mg"},{"bike_id":"1f6184e6-16e9-423d-b3e0-a3aa386ef26b","system_id":"levelo_inurba_marseille","lat":43.33023,"lon":5.39036,"is_reserved":false,"is_disabled":false,"rental_uris":{"android":"levelo://app?vid=1f6184e6-16e9-423d-b3e0-a3aa386ef26b","ios":"levelo://app?vid=1f6184e6-16e9-423d-b3e0-a3aa386ef26b"},"vehicle_type_id":"4","last_reported":1732129600,"current_range_meters":35600,"station_id":"ce4bhr92rcd13ifvqhrg","pricing_plan_id":"cebpf4jnsgd1na2vs0mg"},{"bike_id":"3cd84749-4c1a-4b50-aa18-9d8d08a2f930","system_id":"levelo_inurba_marseille","lat":43.27374,"lon":5.36259,"is_reserved":false,"is_disabled":true,"rental_uris":{"android":"levelo://app?vid=3cd84749-4c1a-4b50-aa18-9d8d08a2f930","ios":"levelo://app?vid=3cd84749-4c1a-4b50-aa18-9d8d08a2f930"},"vehicle_type_id":"4","last_reported":1732129600,"current_range_meters":0,"station_id":"ce4bhbh2rcd13ifvqeo0","pricing_plan_id":"cebpf4jnsgd1na2vs0mg"},{"bike_id":"cde5eb04-35f5-4971-aec4-8004f9b2dcd9","system_id":"levelo_inurba_marseille","lat":43.28278,"lon":5.35064,"is_reserved":false,"is_disabled":true,"rental_uris":{"android":"levelo://app?vid=cde5eb04-35f5-4971-aec4-8004f9b2dcd9","ios":"levelo://app?vid=cde5eb04-35f5-4971-aec4-8004f9b2dcd9"},"vehicle_type_id":"4","last_reported":1732129600,"current_range_meters":0,"station_id":"ce4bhbp2rcd13ifvqerg","pricing_plan_id":"cebpf4jnsgd1na2vs0mg"},{"bike_id":"311c62f3-279b-447b-987e-7711c97804ab","system_id":"levelo_inurba_marseille","lat":43.28617,"lon":5.35103,"is_reserved":false,"is_disabled":false,"rental_uris":{"android":"levelo://app?vid=311c62f3-279b-447b-987e-7711c97804ab","ios":"levelo://app?vid=311c62f3-279b-447b-987e-7711c97804ab"},"vehicle_type_id":"4","last_reported":1732129600,"current_range_meters":22800,"station_id":"ce4bhch2rcd13ifvqeug","pricing_plan_id":"cebpf4jnsgd1na2vs0mg"},{"bike_id":"aeff291a-2c08-497f-adc7-4c9256091718","system_id":"levelo_inurba_marseille","lat":43.28663,"lon":5.38651,"is_reserved":false,"is_disabled":false,"rental_uris":{"android":"levelo://app?vid=aeff291a-2c08-497f-adc7-4c9256091718","ios":"levelo://app?vid=aeff291a-2c08-497f-adc7-4c9256091718"},"vehicle_type_id":"4","last_reported":1732129600,"current_range_meters":16000,"station_id":"ce4bh492rcd13ifvqdug","pricing_plan_id":"cebpf4jnsgd1na2vs0mg"},{"bike_id":"34c19051-e930-4e54-879a-a89c328961af","system_id":"levelo_inurba_marseille","lat":43.29036,"lon":5.3757,"is_reserved":false,"is_disabled":false,"rental_uris":{"android":"levelo://app?vid=34c19051-e930-4e54-879a-a89c328961af","ios":"levelo://app?vid=34c19051-e930-4e54-879a-a89c328961af"},"vehicle_type_id":"4","last_reported":1732129600,"current_range_meters":36800,"station_id":"ce4bh692rcd13ifvqe90","pricing_plan_id":"cebpf4jnsgd1na2vs0mg"},{"bike_id":"bbf8487a-d295-4dc7-9627-c9fc18da9faa","system_id":"levelo_inurba_marseille","lat":43.3234,"lon":5.40622,"is_reserved":false,"is_disabled":false,"rental_uris":{"android":"levelo://app?vid=bbf8487a-d295-4dc7-9627-c9fc18da9faa","ios":"levelo://app?vid=bbf8487a-d295-4dc7-9627-c9fc18da9faa"},"vehicle_type_id":"4","last_reported":1732129600,"current_range_meters":25200,"station_id":"ce4bhq92rcd13ifvqhjg","pricing_plan_id":"cebpf4jnsgd1na2vs0mg"},{"bike_id":"89429ed2-f839-4749-bcb9-3e5230fe3bfb","system_id":"levelo_inurba_marseille","lat":43.33721,"lon":5.39179,"is_reserved":false,"is_disabled":false,"rental_uris":{"android":"levelo://app?vid=89429ed2-f839-4749-bcb9-3e5230fe3bfb","ios":"levelo://app?vid=89429ed2-f839-4749-bcb9-3e5230fe3bfb"},"vehicle_type_id":"4","last_reported":1732129600,"current_range_meters":32800,"station_id":"ce4bhr92rcd13ifvqhsg","pricing_plan_id":"cebpf4jnsgd1na2vs0mg"},{"bike_id":"0ecc700e-a116-4ab6-97b8-48ba02ed24e6","system_id":"levelo_inurba_marseille","lat":43.29594,"lon":5.38094,"is_reserved":false,"is_disabled":false,"rental_uris":{"android":"levelo://app?vid=0ecc700e-a116-4ab6-97b8-48ba02ed24e6","ios":"levelo://app?vid=0ecc700e-a116-4ab6-97b8-48ba02ed24e6"},"vehicle_type_id":"4","last_reported":1732129600,"current_range_meters":38000,"station_id":"ce4bgl12rcd13ifvqbo0","pricing_plan_id":"cebpf4jnsgd1na2vs0mg"},{"bike_id":"09069445-3630-4783-a223-c9fd063d7c96","system_id":"levelo_inurba_marseille","lat":43.337444,"lon":5.374475,"is_reserved":false,"is_disabled":false,"rental_uris":{"android":"levelo://app?vid=09069445-3630-4783-a223-c9fd063d7c96","ios":"levelo://app?vid=09069445-3630-4783-a223-c9fd063d7c96"},"vehicle_type_id":"4","last_reported":1732129600,"current_range_meters":36800,"station_id":"","pricing_plan_id":"cebpf4jnsgd1na2vs0mg"},{"bike_id":"219b35e0-27a5-43a6-99fe-52bbe8904813","system_id":"levelo_inurba_marseille","lat":43.28359,"lon":5.44374,"is_reserved":false,"is_disabled":false,"rental_uris":{"android":"levelo://app?vid=219b35e0-27a5-43a6-99fe-52bbe8904813","ios":"levelo://app?vid=219b35e0-27a5-43a6-99fe-52bbe8904813"},"vehicle_type_id":"4","last_reported":1732129600,"current_range_meters":17200,"station_id":"","pricing_plan_id":"cebpf4jnsgd1na2vs0mg"},{"bike_id":"7eef5933-bcd9-43af-a991-96cd38e1654b","system_id":"levelo_inurba_marseille","lat":43.27175,"lon":5.40985,"is_reserved":false,"is_disabled":false,"rental_uris":{"android":"levelo://app?vid=7eef5933-bcd9-43af-a991-96cd38e1654b","ios":"levelo://app?vid=7eef5933-bcd9-43af-a991-96cd38e1654b"},"vehicle_type_id":"4","last_reported":1732129600,"current_range_meters":33600,"station_id":"ce4bhl12rcd13ifvqgf0","pricing_plan_id":"cebpf4jnsgd1na2vs0mg"},{"bike_id":"321abbe9-5c46-4157-8914-f246daa2cefe","system_id":"levelo_inurba_marseille","lat":43.26201,"lon":5.37931,"is_reserved":false,"is_disabled":false,"rental_uris":{"android":"levelo://app?vid=321abbe9-5c46-4157-8914-f246daa2cefe","ios":"levelo://app?vid=321abbe9-5c46-4157-8914-f246daa2cefe"},"vehicle_type_id":"4","last_reported":1732129600,"current_range_meters":4400,"station_id":"ce4bhjp2rcd13ifvqg90","pricing_plan_id":"cebpf4jnsgd1na2vs0mg"},{"bike_id":"31cabecf-7741-4783-a8f6-22f74c7df9b2","system_id":"levelo_inurba_marseille","lat":43.31755,"lon":5.39019,"is_reserved":false,"is_disabled":false,"rental_uris":{"android":"levelo://app?vid=31cabecf-7741-4783-a8f6-22f74c7df9b2","ios":"levelo://app?vid=31cabecf-7741-4783-a8f6-22f74c7df9b2"},