{"last_updated":1684908536,"ttl":30,"version":"2.2","data":{"bikes":[{"bike_id":"1c0fad78-c079-4d89-9eb1-eaaee5fe3534","system_id":"levelo_inurba_marseille","lat":43.313391,"lon":5.36706,"is_reserved":false,"is_disabled":false,"rental_uris":{"android":"levelo://app?vid=1c0fad78-c079-4d89-9eb1-eaaee5fe3534","ios":"levelo://app?vid=1c0fad78-c079-4d89-9eb1-eaaee5fe3534"},"vehicle_type_id":"4","last_reported":1684908536,"current_range_meters":4400,"station_id":"ce4bgr92rcd13ifvqc6g","pricing_plan_id":"free"},{"bike_id":"4510d517-49c5-4621-ac81-8a9753ecddca","system_id":"levelo_inurba_marseille","lat":43.313391,"lon":5.36706,"is_reserved":false,"is_disabled":false,"rental_uris":{"android":"levelo://app?vid=4510d517-49c5-4621-ac81-8a9753ecddca","ios":"levelo://app?vid=4510d517-49c5-4621-ac81-8a9753ecddca"},"vehicle_type_id":"4","last_reported":1684908536,"current_range_meters":10000,"station_id":"ce4bgr92rcd13ifvqc6g","pricing_plan_id":"free"},{"bike_id":"30509770-c8df-49c4-ac0a-6b01b371d87c","system_id":"levelo_inurba_marseille","lat":43.31352,"lon":5.36712,"is_reserved":false,"is_disabled":false,"rental_uris":{"android":"levelo://app?vid=30509770-c8df-49c4-ac0a-6b01b371d87c","ios":"levelo://app?vid=30509770-c8df-49c4-ac0a-6b01b371d87c"},"vehicle_type_id":"4","last_reported":1684908536,"current_range_meters":18400,"station_id":"ce4bgr92rcd13ifvqc6g","pricing_plan_id":"free"},{"bike_id":"41892a07-6a1f-4061-ab05-7c3547d27e02","system_id":"levelo_inurba_marseille","lat":43.312239,"lon":5.368562,"is_reserved":false,"is_disabled":false,"rental_uris":{"android":"levelo://app?vid=41892a07-6a1f-4061-ab05-7c3547d27e02","ios":"levelo://app?vid=41892a07-6a1f-4061-ab05-7c3547d27e02"},"vehicle_type_id":"4","last_reported":1684908536,"current_range_meters":29600,"station_id":"ce4bgl92rcd13ifvqbq0","pricing_plan_id":"free"},{"bike_id":"a51ee737-7352-47c3-98b6-27f4e6638c26","system_id":"levelo_inurba_marseille","lat":43.312239,"lon":5.368562,"is_reserved":false,"is_disabled":false,"rental_uris":{"android":"levelo://app?vid=a51ee737-7352-47c3-98b6-27f4e6638c26","ios":"levelo://app?vid=a51ee737-7352-47c3-98b6-27f4e6638c26"},"vehicle_type_id":"4","last_reported":1684908536,"current_range_meters":29600,"station_id":"ce4bgl92rcd13ifvqbq0","pricing_plan_id":"free"},{"bike_id":"956f7611-7020-4fd4-b74a-4285a134dc05","system_id":"levelo_inurba_marseille","lat":43.309076,"lon":5.368465,"is_reserved":false,"is_disabled":false,"rental_uris":{"android":"levelo://app?vid=956f7611-7020-4fd4-b74a-4285a134dc05","ios":"levelo://app?vid=956f7611-7020-4fd4-b74a-4285a134dc05"},"vehicle_type_id":"4","last_reported":1684908536,"current_range_meters":18000,"station_id":"ce4bgn92rcd13ifvqbvg","pricing_plan_id":"free"},{"bike_id":"0701df2a-4bf1-4598-9f1e-586c5794b47a","system_id":"levelo_inurba_marseille","lat":43.309076,"lon":5.368465,"is_reserved":false,"is_disabled":false,"rental_uris":{"android":"levelo://app?vid=0701df2a-4bf1-4598-9f1e-586c5794b47a","ios":"levelo://app?vid=0701df2a-4bf1-4598-9f1e-586c5794b47a"},"vehicle_type_id":"4","last_reported":1684908536,"current_range_meters":24000,"station_id":"ce4bgn92rcd13ifvqbvg","pricing_plan_id":"free"},{"bike_id":"5a16e723-0ca2-42ad-95b7-62acc2000690","system_id":"levelo_inurba_marseille","lat":43.309076,"lon":5.368465,"is_reserved":false,"is_disabled":false,"rental_uris":{"android":"levelo://app?vid=5a16e723-0ca2-42ad-95b7-62acc2000690","ios":"levelo://app?vid=5a16e723-0ca2-42ad-95b7-62acc2000690"},"vehicle_type_id":"4","last_reported":1684908536,"current_range_meters":23600,"station_id":"ce4bgn92rcd13ifvqbvg","pricing_plan_id":"free"},{"bike_id":"ed1bc70d-7d50-4c79-bbbe-80b396229f3c","system_id":"levelo_inurba_marseille","lat":43.305368,"lon":5.367343,"is_reserved":false,"is_disabled":false,"rental_uris":{"android":"levelo://app?vid=ed1bc70d-7d50-4c79-bbbe-80b396229f3c","ios":"levelo://app?vid=ed1bc70d-7d50-4c79-bbbe-80b396229f3c"},"vehicle_type_id":"4","last_reported":1684908536,"current_range_meters":1200,"station_id":"ce4bgrp2rcd13ifvqc9g","pricing_plan_id":"free"},{"bike_id":"d4a95210-eee9-42ea-b41c-a3d4d2a45ed8","system_id":"levelo_inurba_marseille","lat":43.305368,"lon":5.367343,"is_reserved":false,"is_disabled":false,"rental_uris":{"android":"levelo://app?vid=d4a95210-eee9-42ea-b41c-a3d4d2a45ed8","ios":"levelo://app?vid=d4a95210-eee9-42ea-b41c-a3d4d2a45ed8"},"vehicle_type_id":"4","last_reported":1684908536,"current_range_meters":31200,"station_id":"ce4bgrp2rcd13ifvqc9g","pricing_plan_id":"free"},{"bike_id":"e52fa197-a55c-42ad-80cd-d0868906299c","system_id":"levelo_inurba_marseille","lat":43.30543,"lon":5.36698,"is_reserved":false,"is_disabled":false,"rental_uris":{"android":"levelo://app?vid=e52fa197-a55c-42ad-80cd-d0868906299c","ios":"levelo://app?vid=e52fa197-a55c-42ad-80cd-d0868906299c"},"vehicle_type_id":"4","last_reported":1684908536,"current_range_meters":26800,"station_id":"","pricing_plan_id":"free"},{"bike_id":"59ce19b0-f1d4-4b5f-ba78-977caf17327a","system_id":"levelo_inurba_marseille","lat":43.305368,"lon":5.367343,"is_reserved":false,"is_disabled":false,"rental_uris":{"android":"levelo://app?vid=59ce19b0-f1d4-4b5f-ba78-977caf17327a","ios":"levelo://app?vid=59ce19b0-f1d4-4b5f-ba78-977caf17327a"},"vehicle_type_id":"4","last_reported":1684908536,"current_range_meters":20400,"station_id":"ce4bgrp2rcd13ifvqc9g","pricing_plan_id":"free"},{"bike_id":"7f91f623-6b0c-43c7-a03e-cea9d3cb0240","system_id":"levelo_inurba_marseille","lat":43.305368,"lon":5.367343,"is_reserved":false,"is_disabled":false,"rental_uris":{"android":"levelo://app?vid=7f91f623-6b0c-43c7-a03e-cea9d3cb0240","ios":"levelo://app?vid=7f91f623-6b0c-43c7-a03e-cea9d3cb0240"},"vehicle_type_id":"4","last_reported":1684908536,"current_range_meters":21200,"station_id":"ce4bgrp2rcd13ifvqc9g","pricing_plan_id":"free"},{"bike_id":"07227a11-6157-4e48-9bdb-e2b003c1a364","system_id":"levelo_inurba_marseille","lat":43.305706,"lon":5.365654,"is_reserved":false,"is_disabled":false,"rental_uris":{"android":"levelo://app?vid=07227a11-6157-4e48-9bdb-e2b003c1a364","ios":"levelo://app?vid=07227a11-6157-4e48-9bdb-e2b003c1a364"},"vehicle_type_id":"4","last_reported":1684908536,"current_range_meters":9600,"station_id":"ce4bgs12rcd13ifvqcag","pricing_plan_id":"free"},{"bike_id":"3abaf4c4-aa8d-4f56-adaf-b646a241b0c3","system_id":"levelo_inurba_marseille","lat":43.305368,"lon":5.367343,"is_reserved":false,"is_disabled":false,"rental_uris":{"android":"levelo://app?vid=3abaf4c4-aa8d-4f56-adaf-b646a241b0c3","ios":"levelo://app?vid=3abaf4c4-aa8d-4f56-adaf-b646a241b0c3"},"vehicle_type_id":"4","last_reported":1684908536,"current_range_meters":29200,"station_id":"ce4bgrp2rcd13ifvqc9g","pricing_plan_id":"free"},{"bike_id":"cd258d0c-993d-41ad-941a-469595ee8957","system_id":"levelo_inurba_marseille","lat":43.305368,"lon":5.367343,"is_reserved":false,"is_disabled":false,"rental_uris":{"android":"levelo://app?vid=cd258d0c-993d-41ad-941a-469595ee8957","ios":"levelo://app?vid=cd258d0c-993d-41ad-941a-469595ee8957"},"vehicle_type_id":"4","last_reported":1684908536,"current_range_meters":19200,"station_id":"ce4bgrp2rcd13ifvqc9g","pricing_plan_id":"free"},{"bike_id":"a3d51322-963b-48a9-9c84-adaa405ab597","system_id":"levelo_inurba_marseille","lat":43.305706,"lon":5.365654,"is_reserved":false,"is_disabled":false,"rental_uris":{"android":"levelo://app?vid=a3d51322-963b-48a9-9c84-adaa405ab597","ios":"levelo://app?vid=a3d51322-963b-48a9-9c84-adaa405ab597"},"vehicle_type_id":"4","last_reported":1684908536,"current_range_meters":22000,"station_id":"ce4bgs12rcd13ifvqcag","pricing_plan_id":"free"},{"bike_id":"e4bdaf02-a9ca-49ef-83b2-9ffb10fe9544","system_id":"levelo_inurba_marseille","lat":43.305368,"lon":5.367343,"is_reserved":false,"is_disabled":false,"rental_uris":{"android":"levelo://app?vid=e4bdaf02-a9ca-49ef-83b2-9ffb10fe9544","ios":"levelo://app?vid=e4bdaf02-a9ca-49ef-83b2-9ffb10fe9544"},"vehicle_type_id":"4","last_reported":1684908536,"current_range_meters":18800,"station_id":"ce4bgrp2rcd13ifvqc9g","pricing_plan_id":"free"},{"bike_id":"41cb5030-83b7-4d50-ac03-24a3a770e8bc","system_id":"levelo_inurba_marseille","lat":43.31125,"lon":5.37769,"is_reserved":false,"is_disabled":false,"rental_uris":{"android":"levelo://app?vid=41cb5030-83b7-4d50-ac03-24a3a770e8bc","ios":"levelo://app?vid=41cb5030-83b7-4d50-ac03-24a3a770e8bc"},"vehicle_type_id":"4","last_reported":1684908536,"current_range_meters":20400,"station_id":"ce4bgt92rcd13ifvqcg0","pricing_plan_id":"free"},{"bike_id":"2efd3ba7-c703-4cfa-8a5c-a147c517f2d6","system_id":"levelo_inurba_marseille","lat":43.317075,"lon":5.377367,"is_reserved":false,"is_disabled":false,"rental_uris":{"android":"levelo://app?vid=2efd3ba7-c703-4cfa-8a5c-a147c517f2d6","ios":"levelo://app?vid=2efd3ba7-c703-4cfa-8a5c-a147c517f2d6"},"vehicle_type_id":"4","last_reported":1684908536,"current_range_meters":28000,"station_id":"ce4bgth2rcd13ifvqch0","pricing_plan_id":"free"},{"bike_id":"91733e52-2da5-440a-b8c3-275cf67a5b98","system_id":"levelo_inurba_marseille","lat":43.317075,"lon":5.377367,"is_reserved":false,"is_disabled":false,"rental_uris":{"android":"levelo://app?vid=91733e52-2da5-440a-b8c3-275cf67a5b98","ios":"levelo://app?vid=91733e52-2da5-440a-b8c3-275cf67a5b98"},"vehicle_type_id":"4","last_reported":1684908536,"current_range_meters":31200,"station_id":"ce4bgth2rcd13ifvqch0","pricing_plan_id":"free"},{"bike_id":"725fdaf0-d18a-4817-82e7-216b57da6c3f","system_id":"levelo_inurba_marseille","lat":43.317075,"lon":5.377367,"is_reserved":false,"is_disabled":false,"rental_uris":{"android":"levelo://app?vid=725fdaf0-d18a-4817-82e7-216b57da6c3f","ios":"levelo://app?vid=725fdaf0-d18a-4817-82e7-216b57da6c3f"},"vehicle_type_id":"4","last_reported":1684908536,"current_range_meters":31200,"station_id":"ce4bgth2rcd13ifvqch0","pricing_plan_id":"free"},{"bike_id":"b2fb8e11-ab40-4027-9707-e2bda2441bcc","system_id":"levelo_inurba_marseille","lat":43.303046,"lon":5.368981,"is_reserved":false,"is_disabled":false,"rental_uris":{"android":"levelo://app?vid=b2fb8e11-ab40-4027-9707-e2bda2441bcc","ios":"levelo://app?vid=b2fb8e11-ab40-4027-9707-e2bda2441bcc"},"vehicle_type_id":"4","last_reported":1684908536,"current_range_meters":24400,"station_id":"ce4bgqh2rcd13ifvqc5g","pricing_plan_id":"free"},{"bike_id":"f53edd6c-97f5-4ebb-b4b1-b3db4b5cf5e4","system_id":"levelo_inurba_marseille","lat":43.303046,"lon":5.368981,"is_reserved":false,"is_disabled":false,"rental_uris":{"android":"levelo://app?vid=f53edd6c-97f5-4ebb-b4b1-b3db4b5cf5e4","ios":"levelo://app?vid=f53edd6c-97f5-4ebb-b4b1-b3db4b5cf5e4"},"vehicle_type_id":"4","last_reported":1684908536,"current_range_meters":31200,"station_id":"ce4bgqh2rcd13ifvqc5g","pricing_plan_id":"free"},{"bike_id":"71564ce8-da8f-4a6a-9a31-dcb4b866566d","system_id":"levelo_inurba_marseille","lat":43.303046,"lon":5.368981,"is_reserved":false,"is_disabled":false,"rental_uris":{"android":"levelo://app?vid=71564ce8-da8f-4a6a-9a31-dcb4b866566d","ios":"levelo://app?vid=71564ce8-da8f-4a6a-9a31-dcb4b866566d"},"vehicle_type_id":"4","last_reported":1684908536,"current_range_meters":25600,"station_id":"ce4bgqh2rcd13ifvqc5g","pricing_plan_id":"free"},{"bike_id":"c9461532-81ed-4526-b6ba-b7bd13132531","system_id":"levelo_inurba_marseille","lat":43.315289,"lon":5.380349,"is_reserved":false,"is_disabled":false,"rental_uris":{"android":"levelo://app?vid=c9461532-81ed-4526-b6ba-b7bd13132531","ios":"levelo://app?vid=c9461532-81ed-4526-b6ba-b7bd13132531"},"vehicle_type_id":"4","last_reported":1684908536,"current_range_meters":30000,"station_id":"ce4bhsp2rcd13ifvqi50","pricing_plan_id":"free"},{"bike_id":"5d6b7210-ac96-414e-9692-1a40f5b7d754","system_id":"levelo_inurba_marseille","lat":43.315289,"lon":5.380349,"is_reserved":false,"is_disabled":false,"rental_uris":{"android":"levelo://app?vid=5d6b7210-ac96-414e-9692-1a40f5b7d754","ios":"levelo://app?vid=5d6b7210-ac96-414e-9692-1a40f5b7d754"},"vehicle_type_id":"4","last_reported":1684908536,"current_range_meters":26000,"station_id":"ce4bhsp2rcd13ifvqi50","pricing_plan_id":"free"},{"bike_id":"790119bb-79b7-4ba9-805d-a80ff92b80f0","system_id":"levelo_inurba_marseille","lat":43.315289,"lon":5.380349,"is_reserved":false,"is_disabled":false,"rental_uris":{"android":"levelo://app?vid=790119bb-79b7-4ba9-805d-a80ff92b80f0","ios":"levelo://app?vid=790119bb-79b7-4ba9-805d-a80ff92b80f0"},"vehicle_type_id":"4","last_reported":1684908536,"current_range_meters":29600,"station_id":"ce4bhsp2rcd13ifvqi50","pricing_plan_id":"free"},{"bike_id":"e4ddf4c1-6177-4538-8b58-75117487e999","system_id":"levelo_inurba_marseille","lat":43.315293,"lon":5.380349,"is_reserved":false,"is_disabled":false,"rental_uris":{"android":"levelo://app?vid=e4ddf4c1-6177-4538-8b58-75117487e999","ios":"levelo://app?vid=e4ddf4c1-6177-4538-8b58-75117487e999"},"vehicle_type_id":"4","last_reported":1684908536,"current_range_meters":28800,"station_id":"ce4bhsp2rcd13ifvqi50","pricing_plan_id":"free"},{"bike_id":"9bae9840-ed93-44fb-a5d4-fae1df29a1de","system_id":"levelo_inurba_marseille","lat":43.31038,"lon":5.38182,"is_reserved":false,"is_disabled":false,"rental_uris":{"android":"levelo://app?vid=9bae9840-ed93-44fb-a5d4-fae1df29a1de","ios":"levelo://app?vid=9bae9840-ed93-44fb-a5d4-fae1df29a1de"},"vehicle_type_id":"4","last_reported":1684908536,"current_range_meters":17200,"station_id":"","pricing_plan_id":"free"},{"bike_id":"791191ae-2bb5-4a9b-ba06-bae1ae92c7e0","system_id":"levelo_inurba_marseille","lat":43.304606,"lon":5.379026,"is_reserved":false,"is_disabled":false,"rental_uris":{"android":"levelo://app?vid=791191ae-2bb5-4a9b-ba06-bae1ae92c7e0","ios":"levelo://app?vid=791191ae-2bb5-4a9b-ba06-bae1ae92c7e0"},"vehicle_type_id":"4","last_reported":1684908536,"current_range_meters":25200,"station_id":"ce4bgup2rcd13ifvqcn0","pricing_plan_id":"free"},{"bike_id":"14c5410f-aeb0-4911-a7b9-91d66f831320","system_id":"levelo_inurba_marseille","lat":43.304606,"lon":5.379026,"is_reserved":false,"is_disabled":false,"rental_uris":{"android":"levelo://app?vid=14c5410f-aeb0-4911-a7b9-91d66f831320","ios":"levelo://app?vid=14c5410f-aeb0-4911-a7b9-91d66f831320"},"vehicle_type_id":"4","last_reported":1684908536,"current_range_meters":14800,"station_id":"ce4bgup2rcd13ifvqcn0","pricing_plan_id":"free"},{"bike_id":"08f60513-1818-4e03-ab14-52a41b1dbc44","system_id":"levelo_inurba_marseille","lat":43.304606,"lon":5.379026,"is_reserved":false,"is_disabled":false,"rental_uris":{"android":"levelo://app?vid=08f60513-1818-4e03-ab14-52a41b1dbc44","ios":"levelo://app?vid=08f60513-1818-4e03-ab14-52a41b1dbc44"},"vehicle_type_id":"4","last_reported":1684908536,"current_range_meters":21600,"station_id":"ce4bgup2rcd13ifvqcn0","pricing_plan_id":"free"},{"bike_id":"93feb877-e7b2-42aa-a54d-4e8fafc7e059","system_id":"levelo_inurba_marseille","lat":43.304606,"lon":5.379026,"is_reserved":false,"is_disabled":false,"rental_uris":{"android":"levelo://app?vid=93feb877-e7b2-42aa-a54d-4e8fafc7e059","ios":"levelo://app?vid=93feb877-e7b2-42aa-a54d-4e8fafc7e059"},"vehicle_type_id":"4","last_reported":1684908536,"current_range_meters":30800,"station_id":"ce4bgup2rcd13ifvqcn0","pricing_plan_id":"free"},{"bike_id":"7e10944f-23d4-4cf1-8f8f-800d9e9aa6c1","system_id":"levelo_inurba_marseille","lat":43.304606,"lon":5.379026,"is_reserved":false,"is_disabled":false,"rental_uris":{"android":"levelo://app?vid=7e10944f-23d4-4cf1-8f8f-800d9e9aa6c1","ios":"levelo://app?vid=7e10944f-23d4-4cf1-8f8f-800d9e9aa6c1"},"vehicle_type_id":"4","last_reported":1684908536,"current_range_meters":6800,"station_id":"ce4bgup2rcd13ifvqcn0","pricing_plan_id":"free"},{"bike_id":"31323976-9028-496b-8a5b-e6c50db1b33d","system_id":"levelo_inurba_marseille","lat":43.304629,"lon":5.379,"is_reserved":false,"is_disabled":false,"rental_uris":{"android":"levelo://app?vid=31323976-9028-496b-8a5b-e6c50db1b33d","ios":"levelo://app?vid=31323976-9028-496b-8a5b-e6c50db1b33d"},"vehicle_type_id":"4","last_reported":1684908536,"current_range_meters":8800,"station_id":"","pricing_plan_id":"free"},{"bike_id":"6c30620c-eb63-42f7-8b55-e907d50ccb94","system_id":"levelo_inurba_marseille","lat":43.304606,"lon":5.379026,"is_reserved":false,"is_disabled":false,"rental_uris":{"android":"levelo://app?vid=6c30620c-eb63-42f7-8b55-e907d50ccb94","ios":"levelo://app?vid=6c30620c-eb63-42f7-8b55-e907d50ccb94"},"vehicle_type_id":"4","last_reported":1684908536,"current_range_meters":11600,"station_id":"ce4bgup2rcd13ifvqcn0","pricing_plan_id":"free"},{"bike_id":"83ec1c4f-2833-429f-8cf2-3d36b1b9538c","system_id":"levelo_inurba_marseille","lat":43.304606,"lon":5.379026,"is_reserved":false,"is_disabled":false,"rental_uris":{"android":"levelo://app?vid=83ec1c4f-2833-429f-8cf2-3d36b1b9538c","ios":"levelo://app?vid=83ec1c4f-2833-429f-8cf2-3d36b1b9538c"},"vehicle_type_id":"4","last_reported":1684908536,"current_range_meters":24000,"station_id":"ce4bgup2rcd13ifvqcn0","pricing_plan_id":"free"},{"bike_id":"3a9da52e-8a0c-4f08-988b-cdd5414775a9","system_id":"levelo_inurba_marseille","lat":43.304606,"lon":5.379026,"is_reserved":false,"is_disabled":false,"rental_uris":{"android":"levelo://app?vid=3a9da52e-8a0c-4f08-988b-cdd5414775a9","ios":"levelo://app?vid=3a9da52e-8a0c-4f08-988b-cdd5414775a9"},"vehicle_type_id":"4","last_reported":1684908536,"current_range_meters":26400,"station_id":"ce4bgup2rcd13ifvqcn0","pricing_plan_id":"free"},{"bike_id":"be93a6d9-60bf-4a90-a39e-83dc64eb7560","system_id":"levelo_inurba_marseille","lat":43.304606,"lon":5.379026,"is_reserved":false,"is_disabled":false,"rental_uris":{"android":"levelo://app?vid=be93a6d9-60bf-4a90-a39e-83dc64eb7560","ios":"levelo://app?vid=be93a6d9-60bf-4a90-a39e-83dc64eb7560"},"vehicle_type_id":"4","last_reported":1684908536,"current_range_meters":31200,"station_id":"ce4bgup2rcd13ifvqcn0","pricing_plan_id":"free"},{"bike_id":"0130c381-a5f0-49d5-81cc-25de8411986f","system_id":"levelo_inurba_marseille","lat":43.30459,"lon":5.379,"is_reserved":false,"is_disabled":false,"rental_uris":{"android":"levelo://app?vid=0130c381-a5f0-49d5-81cc-25de8411986f","ios":"levelo://app?vid=0130c381-a5f0-49d5-81cc-25de8411986f"},"vehicle_type_id":"4","last_reported":1684908536,"current_range_meters":23600,"station_id":"ce4bgup2rcd13ifvqcn0","pricing_plan_id":"free"},{"bike_id":"8aae6a6f-28f0-4cc1-ac13-b01ec2a9c38c","system_id":"levelo_inurba_marseille","lat":43.304606,"lon":5.379026,"is_reserved":false,"is_disabled":false,"rental_uris":{"android":"levelo://app?vid=8aae6a6f-28f0-4cc1-ac13-b01ec2a9c38c","ios":"levelo://app?vid=8aae6a6f-28f0-4cc1-ac13-b01ec2a9c38c"},"vehicle_type_id":"4","last_reported":1684908536,"current_range_meters":28800,"station_id":"ce4bgup2rcd13ifvqcn0","pricing_plan_id":"free"},{"bike_id":"627e1f87-f166-4725-a7c8-7b3f39426a0d","system_id":"levelo_inurba_marseille","lat":43.304606,"lon":5.379026,"is_reserved":false,"is_disabled":false,"rental_uris":{"android":"levelo://app?vid=627e1f87-f166-4725-a7c8-7b3f39426a0d","ios":"levelo://app?vid=627e1f87-f166-4725-a7c8-7b3f39426a0d"},"vehicle_type_id":"4","last_reported":1684908536,"current_range_meters":29200,"station_id":"ce4bgup2rcd13ifvqcn0","pricing_plan_id":"free"},{"bike_id":"f550e117-6c3b-4fe4-afb0-909208be16e7","system_id":"levelo_inurba_marseille","lat":43.304606,"lon":5.379026,"is_reserved":false,"is_disabled":false,"rental_uris":{"android":"levelo://app?vid=f550e117-6c3b-4fe4-afb0-909208be16e7","ios":"levelo://app?vid=f550e117-6c3b-4fe4-afb0-909208be16e7"},"vehicle_type_id":"4","last_reported":1684908536,"current_range_meters":24800,"station_id":"ce4bgup2rcd13ifvqcn0","pricing_plan_id":"free"},{"bike_id":"398269cf-7aa6-454b-a34c-046fb1516561","system_id":"levelo_inurba_marseille","lat":43.304606,"lon":5.379026,"is_reserved":false,"is_disabled":false,"rental_uris":{"android":"levelo://app?vid=398269cf-7aa6-454b-a34c-046fb1516561","ios":"levelo://app?vid=398269cf-7aa6-454b-a34c-046fb1516561"},"vehicle_type_id":"4","last_reported":1684908536,"current_range_meters":27600,"station_id":"ce4bgup2rcd13ifvqcn0","pricing_plan_id":"free"},{"bike_id":"1d5ae5cb-c76f-4590-a056-8e524622aba8","system_id":"levelo_inurba_marseille","lat":43.304606,"lon":5.379026,"is_reserved":false,"is_disabled":false,"rental_uris":{"android":"levelo://app?vid=1d5ae5cb-c76f-4590-a056-8e524622aba8","ios":"levelo://app?vid=1d5ae5cb-c76f-4590-a056-8e524622aba8"},"vehicle_type_id":"4","last_reported":1684908536,"current_range_meters":0,"station_id":"ce4bgup2rcd13ifvqcn0","pricing_plan_id":"free"},{"bike_id":"09aadb82-9f9e-4fc9-a080-691255b6aeed","system_id":"levelo_inurba_marseille","lat":43.304606,"lon":5.379026,"is_reserved":false,"is_disabled":false,"rental_uris":{"android":"levelo://app?vid=09aadb82-9f9e-4fc9-a080-691255b6aeed","ios":"levelo://app?vid=09aadb82-9f9e-4fc9-a080-691255b6aeed"},"vehicle_type_id":"4","last_reported":1684908536,"current_range_meters":6800,"station_id":"ce4bgup2rcd13ifvqcn0","pricing_plan_id":"free"},{"bike_id":"02c5daca-58f3-4718-8815-8743bf93cfd1","system_id":"levelo_inurba_marseille","lat":43.304606,"lon":5.379026,"is_reserved":false,"is_disabled":false,"rental_uris":{"android":"levelo://app?vid=02c5daca-58f3-4718-8815-8743bf93cfd1","ios":"levelo://app?vid=02c5daca-58f3-4718-8815-8743bf93cfd1"},"vehicle_type_id":"4","last_reported":1684908536,"current_range_meters":21200,"station_id":"ce4bgup2rcd13ifvqcn0","pricing_plan_id":"free"},{"bike_id":"a01e5548-0a71-4522-9827-f9393db2a1a4","system_id":"levelo_inurba_marseille","lat":43.304606,"lon":5.379026,"is_reserved":false,"is_disabled":false,"rental_uris":{"android":"levelo://app?vid=a01e5548-0a71-4522-9827-f9393db2a1a4","ios":"levelo://app?vid=a01e5548-0a71-4522-9827-f9393db2a1a4"},"vehicle_type_id":"4","last_reported":1684908536,"current_range_meters":13600,"station_id":"ce4bgup2rcd13ifvqcn0","pricing_plan_id":"free"},{"bike_id":"ae6268c1-6aa0-4bfb-b161-fd79e4c32d25","system_id":"levelo_inurba_marseille","lat":43.304606,"lon":5.379026,"is_reserved":false,"is_disabled":false,"rental_uris":{"android":"levelo://app?vid=ae6268c1-6aa0-4bfb-b161-fd79e4c32d25","ios":"levelo://app?vid=ae6268c1-6aa0-4bfb-b161-fd79e4c32d25"},"vehicle_type_id":"4","last_reported":1684908536,"current_range_meters":12000,"station_id":"ce4bgup2rcd13ifvqcn0","pricing_plan_id":"free"},{"bike_id":"7d97deb4-5cdf-4d54-8f1a-fe8ccb0d9015","system_id":"levelo_inurba_marseille","lat":43.304606,"lon":5.379026,"is_reserved":false,"is_disabled":false,"rental_uris":{"android":"levelo://app?vid=7d97deb4-5cdf-4d54-8f1a-fe8ccb0d9015","ios":"levelo://app?vid=7d97deb4-5cdf-4d54-8f1a-fe8ccb0d9015"},"vehicle_type_id":"4","last_reported":1684908536,"current_range_meters":17200,"station_id":"ce4bgup2rcd13ifvqcn0","pricing_plan_id":"free"},{"bike_id":"47c0a1ab-5c4c-4499-8fcf-26e08e633b72","system_id":"levelo_inurba_marseille","lat":43.304606,"lon":5.379026,"is_reserved":false,"is_disabled":false,"rental_uris":{"android":"levelo://app?vid=47c0a1ab-5c4c-4499-8fcf-26e08e633b72","ios":"levelo://app?vid=47c0a1ab-5c4c-4499-8fcf-26e08e633b72"},"vehicle_type_id":"4","last_reported":1684908536,"current_range_meters":12800,"station_id":"ce4bgup2rcd13ifvqcn0","pricing_plan_id":"free"},{"bike_id":"fe86a46d-67b3-4aa0-afa4-77047d9713e8","system_id":"levelo_inurba_marseille","lat":43.30143,"lon":5.37409,"is_reserved":false,"is_disabled":false,"rental_uris":{"android":"levelo://app?vid=fe86a46d-67b3-4aa0-afa4-77047d9713e8","ios":"levelo://app?vid=fe86a46d-67b3-4aa0-afa4-77047d9713e8"},"vehicle_type_id":"4","last_reported":1684908536,"current_range_meters":18400,"station_id":"","pricing_plan_id":"free"},{"bike_id":"d8ca3118-7122-430b-b7f3-db3b4924908d","system_id":"levelo_inurba_marseille","lat":43.30143,"lon":5.37412,"is_reserved":false,"is_disabled":false,"rental_uris":{"android":"levelo://app?vid=d8ca3118-7122-430b-b7f3-db3b4924908d","ios":"levelo://app?vid=d8ca3118-7122-430b-b7f3-db3b4924908d"},"vehicle_type_id":"4","last_reported":1684908536,"current_range_meters":17600,"station_id":"","pricing_plan_id":"free"},{"bike_id":"da893150-345a-42c2-bf69-62809f6e449e","system_id":"levelo_inurba_marseille","lat":43.30141,"lon":5.37413,"is_reserved":false,"is_disabled":false,"rental_uris":{"android":"levelo://app?vid=da893150-345a-42c2-bf69-62809f6e449e","ios":"levelo://app?vid=da893150-345a-42c2-bf69-62809f6e449e"},"vehicle_type_id":"4","last_reported":1684908536,"current_range_meters":21600,"station_id":"","pricing_plan_id":"free"},{"bike_id":"c7430ab1-2eff-4e6b-bc08-b8f60eddf206","system_id":"levelo_inurba_marseille","lat":43.30139,"lon":5.37424,"is_reserved":false,"is_disabled":false,"rental_uris":{"android":"levelo://app?vid=c7430ab1-2eff-4e6b-bc08-b8f60eddf206","ios":"levelo://app?vid=c7430ab1-2eff-4e6b-bc08-b8f60eddf206"},"vehicle_type_id":"4","last_reported":1684908536,"current_range_meters":28800,"station_id":"","pricing_plan_id":"free"},{"bike_id":"e13f48db-f4f6-48c2-8df8-a752fcd43e65","system_id":"levelo_inurba_marseille","lat":43.319935,"lon":5.381699,"is_reserved":false,"is_disabled":false,"rental_uris":{"android":"levelo://app?vid=e13f48db-f4f6-48c2-8df8-a752fcd43e65","ios":"levelo://app?vid=e13f48db-f4f6-48c2-8df8-a752fcd43e65"},"vehicle_type_id":"4","last_reported":1684908536,"current_range_meters":9600,"station_id":"ce4bhr12rcd13ifvqhpg","pricing_plan_id":"free"},{"bike_id":"4bdc3ba6-87ef-41d2-8f67-88669efaedb9","system_id":"levelo_inurba_marseille","lat":43.319935,"lon":5.381699,"is_reserved":false,"is_disabled":false,"rental_uris":{"android":"levelo://app?vid=4bdc3ba6-87ef-41d2-8f67-88669efaedb9","ios":"levelo://app?vid=4bdc3ba6-87ef-41d2-8f67-88669efaedb9"},"vehicle_type_id":"4","last_reported":1684908536,"current_range_meters":17200,"station_id":"ce4bhr12rcd13ifvqhpg","pricing_plan_id":"free"},{"bike_id":"89aee25a-d04e-43dd-bf69-a808b7abe903","system_id":"levelo_inurba_marseille","lat":43.31375,"lon":5.38517,"is_reserved":false,"is_disabled":false,"rental_uris":{"android":"levelo://app?vid=89aee25a-d04e-43dd-bf69-a808b7abe903","ios":"levelo://app?vid=89aee25a-d04e-43dd-bf69-a808b7abe903"},"vehicle_type_id":"4","last_reported":1684908536,"current_range_meters":9200,"station_id":"","pricing_plan_id":"free"},{"bike_id":"fa1957a6-85b4-42f6-a9a9-a3e7fb30936b","system_id":"levelo_inurba_marseille","lat":43.30531,"lon":5.38254,"is_reserved":false,"is_disabled":false,"rental_uris":{"android":"levelo://app?vid=fa1957a6-85b4-42f6-a9a9-a3e7fb30936b","ios":"levelo://app?vid=fa1957a6-85b4-42f6-a9a9-a3e7fb30936b"},"vehicle_type_id":"4","last_reported":1684908536,"current_range_meters":4000,"station_id":"","pricing_plan_id":"free"},{"bike_id":"b5aaf8f7-2ca8-493c-b967-dfbf4007569e","system_id":"levelo_inurba_marseille","lat":43.32207,"lon":5.38095,"is_reserved":false,"is_disabled":false,"rental_uris":{"android":"levelo://app?vid=b5aaf8f7-2ca8-493c-b967-dfbf4007569e","ios":"levelo://app?vid=b5aaf8f7-2ca8-493c-b967-dfbf4007569e"},"vehicle_type_id":"4","last_reported":1684908536,"current_range_meters":30800,"station_id":"","pricing_plan_id":"free"},{"bike_id":"ad3ecf46-5dcd-4ee8-93d7-ca67e7ce5f45","system_id":"levelo_inurba_marseille","lat":43.305364,"lon":5.384119,"is_reserved":false,"is_disabled":false,"rental_uris":{"android":"levelo://app?vid=ad3ecf46-5dcd-4ee8-93d7-ca67e7ce5f45","ios":"levelo://app?vid=ad3ecf46-5dcd-4ee8-93d7-ca67e7ce5f45"},"vehicle_type_id":"4","last_reported":1684908536,"current_range_meters":21600,"station_id":"ce4bgg92rcd13ifvqb30","pricing_plan_id":"free"},{"bike_id":"843154bb-e39a-4d0e-a1e4-bac5698541e9","system_id":"levelo_inurba_marseille","lat":43.298433,"lon":5.362774,"is_reserved":false,"is_disabled":false,"rental_uris":{"android":"levelo://app?vid=843154bb-e39a-4d0e-a1e4-bac5698541e9","ios":"levelo://app?vid=843154bb-e39a-4d0e-a1e4-bac5698541e9"},"vehicle_type_id":"4","last_reported":1684908536,"current_range_meters":27200,"station_id":"ce4bgpp2rcd13ifvqc3g","pricing_plan_id":"free"},{"bike_id":"dcec28ec-fe0f-4308-af46-e4f8861838d3","system_id":"levelo_inurba_marseille","lat":43.298433,"lon":5.362774,"is_reserved":false,"is_disabled":false,"rental_uris":{"android":"levelo://app?vid=dcec28ec-fe0f-4308-af46-e4f8861838d3","ios":"levelo://app?vid=dcec28ec-fe0f-4308-af46-e4f8861838d3"},"vehicle_type_id":"4","last_reported":1684908536,"current_range_meters":23200,"station_id":"ce4bgpp2rcd13ifvqc3g","pricing_plan_id":"free"},{"bike_id":"e44c224f-9b49-4b6d-af95-9562d94be2db","system_id":"levelo_inurba_marseille","lat":43.298433,"lon":5.362774,"is_reserved":false,"is_disabled":false,"rental_uris":{"android":"levelo://app?vid=e44c224f-9b49-4b6d-af95-9562d94be2db","ios":"levelo://app?vid=e44c224f-9b49-4b6d-af95-9562d94be2db"},"vehicle_type_id":"4","last_reported":1684908536,"current_range_meters":27600,"station_id":"ce4bgpp2rcd13ifvqc3g","pricing_plan_id":"free"},{"bike_id":"6d189dad-016e-4209-9d4a-d0a9dc95b558","system_id":"levelo_inurba_marseille","lat":43.305364,"lon":5.384119,"is_reserved":false,"is_disabled":false,"rental_uris":{"android":"levelo://app?vid=6d189dad-016e-4209-9d4a-d0a9dc95b558","ios":"levelo://app?vid=6d189dad-016e-4209-9d4a-d0a9dc95b558"},"vehicle_type_id":"4","last_reported":1684908536,"current_range_meters":6400,"station_id":"ce4bgg92rcd13ifvqb30","pricing_plan_id":"free"},{"bike_id":"43fc0082-9e98-4346-b413-a4cadc757bc5","system_id":"levelo_inurba_marseille","lat":43.29911,"lon":5.3746,"is_reserved":false,"is_disabled":false,"rental_uris":{"android":"levelo://app?vid=43fc0082-9e98-4346-b413-a4cadc757bc5","ios":"levelo://app?vid=43fc0082-9e98-4346-b413-a4cadc757bc5"},"vehicle_type_id":"4","last_reported":1684908536,"current_range_meters":11600,"station_id":"ce4bgjh2rcd13ifvqbg0","pricing_plan_id":"free"},{"bike_id":"9c20e747-77ed-4497-adc4-7d31d688b312","system_id":"levelo_inurba_marseille","lat":43.299243,"lon":5.374807,"is_reserved":false,"is_disabled":false,"rental_uris":{"android":"levelo://app?vid=9c20e747-77ed-4497-adc4-7d31d688b312","ios":"levelo://app?vid=9c20e747-77ed-4497-adc4-7d31d688b312"},"vehicle_type_id":"4","last_reported":1684908536,"current_range_meters":28800,"station_id":"ce4bgjh2rcd13ifvqbg0","pricing_plan_id":"free"},{"bike_id":"76d6eea9-72dc-47ab-a062-978ecebe90dd","system_id":"levelo_inurba_marseille","lat":43.299243,"lon":5.374807,"is_reserved":false,"is_disabled":false,"rental_uris":{"android":"levelo://app?vid=76d6eea9-72dc-47ab-a062-978ecebe90dd","ios":"levelo://app?vid=76d6eea9-72dc-47ab-a062-978ecebe90dd"},"vehicle_type_id":"4","last_reported":1684908536,"current_range_meters":26400,"station_id":"ce4bgjh2rcd13ifvqbg0","pricing_plan_id":"free"},{"bike_id":"f67aab31-159c-4a90-9816-7dceb6359479","system_id":"levelo_inurba_marseille","lat":43.299243,"lon":5.37481,"is_reserved":false,"is_disabled":false,"rental_uris":{"android":"levelo://app?vid=f67aab31-159c-4a90-9816-7dceb6359479","ios":"levelo://app?vid=f67aab31-159c-4a90-9816-7dceb6359479"},"vehicle_type_id":"4","last_reported":1684908536,"current_range_meters":30400,"station_id":"ce4bgjh2rcd13ifvqbg0","pricing_plan_id":"free"},{"bike_id":"ecd3752f-e644-4de1-9bf9-ca655f3ce742","system_id":"levelo_inurba_marseille","lat":43.297794,"lon":5.370888,"is_reserved":false,"is_disabled":false,"rental_uris":{"android":"levelo://app?vid=ecd3752f-e644-4de1-9bf9-ca655f3ce742","ios":"levelo://app?vid=ecd3752f-e644-4de1-9bf9-ca655f3ce742"},"vehicle_type_id":"4","last_reported":1684908536,"current_range_meters":25200,"station_id":"ce4bgop2rcd13ifvqc1g","pricing_plan_id":"free"},{"bike_id":"71912573-ed42-4e6c-8171-898f3e2a9fae","system_id":"levelo_inurba_marseille","lat":43.29784,"lon":5.37099,"is_reserved":false,"is_disabled":false,"rental_uris":{"android":"levelo://app?vid=71912573-ed42-4e6c-8171-898f3e2a9fae","ios":"levelo://app?vid=71912573-ed42-4e6c-8171-898f3e2a9fae"},"vehicle_type_id":"4","last_reported":1684908536,"current_range_meters":29600,"station_id":"ce4bgop2rcd13ifvqc1g","pricing_plan_id":"free"},{"bike_id":"927606e9-217b-4c05-86c9-a5111d57eccf","system_id":"levelo_inurba_marseille","lat":43.297794,"lon":5.370888,"is_reserved":false,"is_disabled":false,"rental_uris":{"android":"levelo://app?vid=927606e9-217b-4c05-86c9-a5111d57eccf","ios":"levelo://app?vid=927606e9-217b-4c05-86c9-a5111d57eccf"},"vehicle_type_id":"4","last_reported":1684908536,"current_range_meters":28800,"station_id":"ce4bgop2rcd13ifvqc1g","pricing_plan_id":"free"},{"bike_id":"9634efb1-2b80-4307-86a0-a99949fdbef5","system_id":"levelo_inurba_marseille","lat":43.297794,"lon":5.370888,"is_reserved":false,"is_disabled":false,"rental_uris":{"android":"levelo://app?vid=9634efb1-2b80-4307-86a0-a99949fdbef5","ios":"levelo://app?vid=9634efb1-2b80-4307-86a0-a99949fdbef5"},"vehicle_type_id":"4","last_reported":1684908536,"current_range_meters":31200,"station_id":"ce4bgop2rcd13ifvqc1g","pricing_plan_id":"free"},{"bike_id":"b4f2240a-5ded-411b-9d31-83026cde91dc","system_id":"levelo_inurba_marseille","lat":43.29782,"lon":5.37107,"is_reserved":false,"is_disabled":false,"rental_uris":{"android":"levelo://app?vid=b4f2240a-5ded-411b-9d31-83026cde91dc","ios":"levelo://app?vid=b4f2240a-5ded-411b-9d31-83026cde91dc"},"vehicle_type_id":"4","last_reported":1684908536,"current_range_meters":22400,"station_id":"ce4bgop2rcd13ifvqc1g","pricing_plan_id":"free"},{"bike_id":"69520595-e4cf-42fd-9154-de78bcfe7fa2","system_id":"levelo_inurba_marseille","lat":43.297794,"lon":5.370888,"is_reserved":false,"is_disabled":false,"rental_uris":{"android":"levelo://app?vid=69520595-e4cf-42fd-9154-de78bcfe7fa2","ios":"levelo://app?vid=69520595-e4cf-42fd-9154-de78bcfe7fa2"},"vehicle_type_id":"4","last_reported":1684908536,"current_range_meters":7600,"station_id":"ce4bgop2rcd13ifvqc1g","pricing_plan_id":"free"},{"bike_id":"83f3f744-359d-493d-a816-556264b34e9c","system_id":"levelo_inurba_marseille","lat":43.328371,"lon":5.366912,"is_reserved":false,"is_disabled":false,"rental_uris":{"android":"levelo://app?vid=83f3f744-359d-493d-a816-556264b34e9c","ios":"levelo://app?vid=83f3f744-359d-493d-a816-556264b34e9c"},"vehicle_type_id":"4","last_reported":1684908536,"current_range_meters":12800,"station_id":"ce4bhs92rcd13ifvqi0g","pricing_plan_id":"free"},{"bike_id":"fad50468-bff6-4eb0-bc39-08e7203bec60","system_id":"levelo_inurba_marseille","lat":43.328371,"lon":5.366912,"is_reserved":false,"is_disabled":false,"rental_uris":{"android":"levelo://app?vid=fad50468-bff6-4eb0-bc39-08e7203bec60","ios":"levelo://app?vid=fad50468-bff6-4eb0-bc39-08e7203bec60"},"vehicle_type_id":"4","last_reported":1684908536,"current_range_meters":22400,"station_id":"ce4bhs92rcd13ifvqi0g","pricing_plan_id":"free"},{"bike_id":"14be3b5c-8d7b-481b-b4b4-3edd6df77220","system_id":"levelo_inurba_marseille","lat":43.328371,"lon":5.366909,"is_reserved":false,"is_disabled":false,"rental_uris":{"android":"levelo://app?vid=14be3b5c-8d7b-481b-b4b4-3edd6df77220","ios":"levelo://app?vid=14be3b5c-8d7b-481b-b4b4-3edd6df77220"},"vehicle_type_id":"4","last_reported":1684908536,"current_range_meters":28400,"station_id":"ce4bhs92rcd13ifvqi0g","pricing_plan_id":"free"},{"bike_id":"07d0f5f8-594a-4c99-bd5f-efd86e16327f","system_id":"levelo_inurba_marseille","lat":43.328371,"lon":5.366912,"is_reserved":false,"is_disabled":false,"rental_uris":{"android":"levelo://app?vid=07d0f5f8-594a-4c99-bd5f-efd86e16327f","ios":"levelo://app?vid=07d0f5f8-594a-4c99-bd5f-efd86e16327f"},"vehicle_type_id":"4","last_reported":1684908536,"current_range_meters":17200,"station_id":"ce4bhs92rcd13ifvqi0g","pricing_plan_id":"free"},{"bike_id":"a72cd3ab-e87f-4964-a87c-25d1d90e9843","system_id":"levelo_inurba_marseille","lat":43.328371,"lon":5.366912,"is_reserved":false,"is_disabled":false,"rental_uris":{"android":"levelo://app?vid=a72cd3ab-e87f-4964-a87c-25d1d90e9843","ios":"levelo://app?vid=a72cd3ab-e87f-4964-a87c-25d1d90e9843"},"vehicle_type_id":"4","last_reported":1684908536,"current_range_meters":24400,"station_id":"ce4bhs92rcd13ifvqi0g","pricing_plan_id":"free"},{"bike_id":"46ed5dfe-4da9-48c8-b4d0-4ecb987728b3","system_id":"levelo_inurba_marseille","lat":43.328371,"lon":5.366912,"is_reserved":false,"is_disabled":false,"rental_uris":{"android":"levelo://app?vid=46ed5dfe-4da9-48c8-b4d0-4ecb987728b3","ios":"levelo://app?vid=46ed5dfe-4da9-48c8-b4d0-4ecb987728b3"},"vehicle_type_id":"4","last_reported":1684908536,"current_range_meters":16400,"station_id":"ce4bhs92rcd13ifvqi0g","pricing_plan_id":"free"},{"bike_id":"8055edff-007a-433c-bb5b-643f9582a0ba","system_id":"levelo_inurba_marseille","lat":43.328371,"lon":5.366909,"is_reserved":false,"is_disabled":false,"rental_uris":{"android":"levelo://app?vid=8055edff-007a-433c-bb5b-643f9582a0ba","ios":"levelo://app?vid=8055edff-007a-433c-bb5b-643f9582a0ba"},"vehicle_type_id":"4","last_reported":1684908536,"current_range_meters":15200,"station_id":"ce4bhs92rcd13ifvqi0g","pricing_plan_id":"free"},{"bike_id":"5ff13434-5a23-4b15-a54c-9e00ff66b7b2","system_id":"levelo_inurba_marseille","lat":43.2971,"lon":5.36616,"is_reserved":false,"is_disabled":false,"rental_uris":{"android":"levelo://app?vid=5ff13434-5a23-4b15-a54c-9e00ff66b7b2","ios":"levelo://app?vid=5ff13434-5a23-4b15-a54c-9e00ff66b7b2"},"vehicle_type_id":"4","last_reported":1684908536,"current_range_meters":30000,"station_id":"","pricing_plan_id":"free"},{"bike_id":"88db7a53-f189-4594-9170-9769b794f67d","system_id":"levelo_inurba_marseille","lat":43.29709,"lon":5.36597,"is_reserved":false,"is_disabled":false,"rental_uris":{"android":"levelo://app?vid=88db7a53-f189-4594-9170-9769b794f67d","ios":"levelo://app?vid=88db7a53-f189-4594-9170-9769b794f67d"},"vehicle_type_id":"4","last_reported":1684908536,"current_range_meters":23200,"station_id":"","pricing_plan_id":"free"},{"bike_id":"a42d230a-a6ed-4651-a9fe-630ee16ad2a6","system_id":"levelo_inurba_marseille","lat":43.29706,"lon":5.36612,"is_reserved":false,"is_disabled":false,"rental_uris":{"android":"levelo://app?vid=a42d230a-a6ed-4651-a9fe-630ee16ad2a6","ios":"levelo://app?vid=a42d230a-a6ed-4651-a9fe-630ee16ad2a6"},"vehicle_type_id":"4","last_reported":1684908536,"current_range_meters":28400,"station_id":"","pricing_plan_id":"free"},{"bike_id":"4a74cade-446d-4477-8c3b-839cd9ca8bff","system_id":"levelo_inurba_marseille","lat":43.31512,"lon":5.38923,"is_reserved":false,"is_disabled":false,"rental_uris":{"android":"levelo://app?vid=4a74cade-446d-4477-8c3b-839cd9ca8bff","ios":"levelo://app?vid=4a74cade-446d-4477-8c3b-839cd9ca8bff"},"vehicle_type_id":"4","last_reported":1684908536,"current_range_meters":30400,"station_id":"","pricing_plan_id":"free"},{"bike_id":"0e92811b-3de0-4349-abd6-e8a75903c08a","system_id":"levelo_inurba_marseille","lat":43.2966,"lon":5.37301,"is_reserved":false,"is_disabled":false,"rental_uris":{"android":"levelo://app?vid=0e92811b-3de0-4349-abd6-e8a75903c08a","ios":"levelo://app?vid=0e92811b-3de0-4349-abd6-e8a75903c08a"},"vehicle_type_id":"4","last_reported":1684908536,"current_range_meters":26400,"station_id":"ce4bgk12rcd13ifvqbj0","pricing_plan_id":"free"},{"bike_id":"0022c8e0-b57f-4a16-94cb-1fbd25366096","system_id":"levelo_inurba_marseille","lat":43.29628,"lon":5.37148,"is_reserved":false,"is_disabled":false,"rental_uris":{"android":"levelo://app?vid=0022c8e0-b57f-4a16-94cb-1fbd25366096","ios":"levelo://app?vid=0022c8e0-b57f-4a16-94cb-1fbd25366096"},"vehicle_type_id":"4","last_reported":1684908536,"current_range_meters":28000,"station_id":"","pricing_plan_id":"free"},{"bike_id":"d0b6d416-1820-4936-9fcf-02f246b4ac8e","system_id":"levelo_inurba_marseille","lat":43.29573,"lon":5.367355,"is_reserved":false,"is_disabled":false,"rental_uris":{"android":"levelo://app?vid=d0b6d416-1820-4936-9fcf-02f246b4ac8e","ios":"levelo://app?vid=d0b6d416-1820-4936-9fcf-02f246b4ac8e"},"vehicle_type_id":"4","last_reported":1684908536,"current_range_meters":12800,"station_id":"ce4bgph2rcd13ifvqc2g","pricing_plan_id":"free"},{"bike_id":"db08cb16-9420-4486-9d3d-0cf086c8f37d","system_id":"levelo_inurba_marseille","lat":43.299028,"lon":5.381509,"is_reserved":false,"is_disabled":false,"rental_uris":{"android":"levelo://app?vid=db08cb16-9420-4486-9d3d-0cf086c8f37d","ios":"levelo://app?vid=db08cb16-9420-4486-9d3d-0cf086c8f37d"},"vehicle_type_id":"4","last_reported":1684908536,"current_range_meters":26000,"station_id":"ce4bgj12rcd13ifvqbc0","pricing_plan_id":"free"},{"bike_id":"f04f0668-a5a5-4f66-b324-9110d1203ff8","system_id":"levelo_inurba_marseille","lat":43.309589,"lon":5.390258,"is_reserved":false,"is_disabled":false,"rental_uris":{"android":"levelo://app?vid=f04f0668-a5a5-4f66-b324-9110d1203ff8","ios":"levelo://app?vid=f04f0668-a5a5-4f66-b324-9110d1203ff8"},"vehicle_type_id":"4","last_reported":1684908536,"current_range_meters":15600,"station_id":"ce4bgup2rcd13ifvqco0","pricing_plan_id":"free"},{"bike_id":"5e0e51cb-a381-40fe-9168-c80dea3c6a9d","system_id":"levelo_inurba_marseille","lat":43.317557,"lon":5.390173,"is_reserved":false,"is_disabled":false,"rental_uris":{"android":"levelo://app?vid=5e0e51cb-a381-40fe-9168-c80dea3c6a9d","ios":"levelo://app?vid=5e0e51cb-a381-40fe-9168-c80dea3c6a9d"},"vehicle_type_id":"4","last_reported":1684908536,"current_range_meters":28800,"station_id":"ce4bhqp2rcd13ifvqhng","pricing_plan_id":"free"},{"bike_id":"ce63b0b0-741d-4269-b782-bb63e586d7cb","system_id":"levelo_inurba_marseille","lat":43.317557,"lon":5.390173,"is_reserved":false,"is_disabled":false,"rental_uris":{"android":"levelo://app?vid=ce63b0b0-741d-4269-b782-bb63e586d7cb","ios":"levelo://app?vid=ce63b0b0-741d-4269-b782-bb63e586d7cb"},"vehicle_type_id":"4","last_reported":1684908536,"current_range_meters":31200,"station_id":"ce4bhqp2rcd13ifvqhng","pricing_plan_id":"free"},{"bike_id":"17e9231a-3b51-4021-897d-99e7f67bb168","system_id":"levelo_inurba_marseille","lat":43.31755,"lon":5.3902,"is_reserved":false,"is_disabled":false,"rental_uris":{"android":"levelo://app?vid=17e9231a-3b51-4021-897d-99e7f67bb168","ios":"levelo://app?vid=17e9231a-3b51-4021-897d-99e7f67bb168"},"vehicle_type_id":"4","last_reported":1684908536,"current_range_meters":27200,"station_id":"ce4bhqp2rcd13ifvqhng","pricing_plan_id":"free"},{"bike_id":"122a59ec-3cc9-475c-b791-926ee483b213","system_id":"levelo_inurba_marseille","lat":43.298037,"lon":5.381066,"is_reserved":false,"is_disabled":false,"rental_uris":{"android":"levelo://app?vid=122a59ec-3cc9-475c-b791-926ee483b213","ios":"levelo://app?vid=122a59ec-3cc9-475c-b791-926ee483b213"},"vehicle_type_id":"4","last_reported":1684908536,"current_range_meters":19600,"station_id":"ce4bgip2rcd13ifvqbb0","pricing_plan_id":"free"},{"bike_id":"f979ea3d-928c-4433-9f1c-434f0e297402","system_id":"levelo_inurba_marseille","lat":43.298037,"lon":5.381066,"is_reserved":false,"is_disabled":false,"rental_uris":{"android":"levelo://app?vid=f979ea3d-928c-4433-9f1c-434f0e297402","ios":"levelo://app?vid=f979ea3d-928c-4433-9f1c-434f0e297402"},"vehicle_type_id":"4","last_reported":1684908536,"current_range_meters":24800,"station_id":"ce4bgip2rcd13ifvqbb0","pricing_plan_id":"free"},{"bike_id":"d6eaf838-9906-4890-bc8f-841ad54a578a","system_id":"levelo_inurba_marseille","lat":43.298037,"lon":5.381066,"is_reserved":false,"is_disabled":false,"rental_uris":{"android":"levelo://app?vid=d6eaf838-9906-4890-bc8f-841ad54a578a","ios":"levelo://app?vid=d6eaf838-9906-4890-bc8f-841ad54a578a"},"vehicle_type_id":"4","last_reported":1684908536,"current_range_meters":27200,"station_id":"ce4bgip2rcd13ifvqbb0","pricing_plan_id":"free"},{"bike_id":"99dbcc61-5296-4b5f-8b08-9d2e4e9ec465","system_id":"levelo_inurba_marseille","lat":43.298037,"lon":5.381066,"is_reserved":false,"is_disabled":false,"rental_uris":{"android":"levelo://app?vid=99dbcc61-5296-4b5f-8b08-9d2e4e9ec465","ios":"levelo://app?vid=99dbcc61-5296-4b5f-8b08-9d2e4e9ec465"},"vehicle_type_id":"4","last_reported":1684908536,"current_range_meters":29200,"station_id":"ce4bgip2rcd13ifvqbb0","pricing_plan_id":"free"},{"bike_id":"b33c06f6-0273-4282-b69f-4e8af3f0beae","system_id":"levelo_inurba_marseille","lat":43.290336,"lon":5.386425,"is_reserved":false,"is_disabled":false,"rental_uris":{"android":"levelo://app?vid=b33c06f6-0273-4282-b69f-4e8af3f0beae","ios":"levelo://app?vid=b33c06f6-0273-4282-b69f-4e8af3f0beae"},"vehicle_type_id":"4","last_reported":1684908536,"current_range_meters":2000,"station_id":"ce4bh4p2rcd13ifvqe0g","pricing_plan_id":"free"},{"bike_id":"080869bb-7ea1-40f8-96a7-cc2361df08c1","system_id":"levelo_inurba_marseille","lat":43.298037,"lon":5.381066,"is_reserved":false,"is_disabled":false,"rental_uris":{"android":"levelo://app?vid=080869bb-7ea1-40f8-96a7-cc2361df08c1","ios":"levelo://app?vid=080869bb-7ea1-40f8-96a7-cc2361df08c1"},"vehicle_type_id":"4","last_reported":1684908536,"current_range_meters":22400,"station_id":"ce4bgip2rcd13ifvqbb0","pricing_plan_id":"free"},{"bike_id":"a03ab63c-b081-4e47-b429-23dc4de2739d","system_id":"levelo_inurba_marseille","lat":43.295748,"lon":5.37522,"is_reserved":false,"is_disabled":false,"rental_uris":{"android":"levelo://app?vid=a03ab63c-b081-4e47-b429-23dc4de2739d","ios":"levelo://app?vid=a03ab63c-b081-4e47-b429-23dc4de2739d"},"vehicle_type_id":"4","last_reported":1684908536,"current_range_meters":25600,"station_id":"ce4bgh92rcd13ifvqb50","pricing_plan_id":"free"},{"bike_id":"837f1428-68b8-4a3f-82fd-bd5aafd554c3","system_id":"levelo_inurba_marseille","lat":43.298037,"lon":5.381066,"is_reserved":false,"is_disabled":false,"rental_uris":{"android":"levelo://app?vid=837f1428-68b8-4a3f-82fd-bd5aafd554c3","ios":"levelo://app?vid=837f1428-68b8-4a3f-82fd-bd5aafd554c3"},"vehicle_type_id":"4","last_reported":1684908536,"current_range_meters":10400,"station_id":"ce4bgip2rcd13ifvqbb0","pricing_plan_id":"free"},{"bike_id":"cb7820c5-ad98-4c25-8223-c71da3d4e5b7","system_id":"levelo_inurba_marseille","lat":43.298037,"lon":5.381066,"is_reserved":false,"is_disabled":false,"rental_uris":{"android":"levelo://app?vid=cb7820c5-ad98-4c25-8223-c71da3d4e5b7","ios":"levelo://app?vid=cb7820c5-ad98-4c25-8223-c71da3d4e5b7"},"vehicle_type_id":"4","last_reported":1684908536,"current_range_meters":25200,"station_id":"ce4bgip2rcd13ifvqbb0","pricing_plan_id":"free"},{"bike_id":"86ae5903-a34b-4bbe-9db3-49f60d1f0e7c","system_id":"levelo_inurba_marseille","lat":43.296263,"lon":5.377094,"is_reserved":false,"is_disabled":false,"rental_uris":{"android":"levelo://app?vid=86ae5903-a34b-4bbe-9db3-49f60d1f0e7c","ios":"levelo://app?vid=86ae5903-a34b-4bbe-9db3-49f60d1f0e7c"},"vehicle_type_id":"4","last_reported":1684908536,"current_range_meters":26000,"station_id":"ce4bgi92rcd13ifvqb90","pricing_plan_id":"free"},{"bike_id":"db29392a-4185-4939-8130-9c627bb3b16f","system_id":"levelo_inurba_marseille","lat":43.298037,"lon":5.381066,"is_reserved":false,"is_disabled":false,"rental_uris":{"android":"levelo://app?vid=db29392a-4185-4939-8130-9c627bb3b16f","ios":"levelo://app?vid=db29392a-4185-4939-8130-9c627bb3b16f"},"vehicle_type_id":"4","last_reported":1684908536,"current_range_meters":22800,"station_id":"ce4bgip2rcd13ifvqbb0","pricing_plan_id":"free"},{"bike_id":"d875bcac-d27d-4bb1-a95d-3a5c8711325e","system_id":"levelo_inurba_marseille","lat":43.295748,"lon":5.37522,"is_reserved":false,"is_disabled":false,"rental_uris":{"android":"levelo://app?vid=d875bcac-d27d-4bb1-a95d-3a5c8711325e","ios":"levelo://app?vid=d875bcac-d27d-4bb1-a95d-3a5c8711325e"},"vehicle_type_id":"4","last_reported":1684908536,"current_range_meters":25600,"station_id":"ce4bgh92rcd13ifvqb50","pricing_plan_id":"free"},{"bike_id":"c2903ef7-9a65-4430-9fd1-220b40065ed0","system_id":"levelo_inurba_marseille","lat":43.296263,"lon":5.377094,"is_reserved":false,"is_disabled":false,"rental_uris":{"android":"levelo://app?vid=c2903ef7-9a65-4430-9fd1-220b40065ed0","ios":"levelo://app?vid=c2903ef7-9a65-4430-9fd1-220b40065ed0"},"vehicle_type_id":"4","last_reported":1684908536,"current_range_meters":23200,"station_id":"ce4bgi92rcd13ifvqb90","pricing_plan_id":"free"},{"bike_id":"63dd4adc-dccd-46d7-aff6-3253254db396","system_id":"levelo_inurba_marseille","lat":43.29964,"lon":5.38475,"is_reserved":false,"is_disabled":false,"rental_uris":{"android":"levelo://app?vid=63dd4adc-dccd-46d7-aff6-3253254db396","ios":"levelo://app?vid=63dd4adc-dccd-46d7-aff6-3253254db396"},"vehicle_type_id":"4","last_reported":1684908536,"current_range_meters":0,"station_id":"ce4bgj92rcd13ifvqbd0","pricing_plan_id":"free"},{"bike_id":"96536bad-efe4-40e1-9b01-5909b67ae4d8","system_id":"levelo_inurba_marseille","lat":43.29526,"lon":5.37505,"is_reserved":false,"is_disabled":false,"rental_uris":{"android":"levelo://app?vid=96536bad-efe4-40e1-9b01-5909b67ae4d8","ios":"levelo://app?vid=96536bad-efe4-40e1-9b01-5909b67ae4d8"},"vehicle_type_id":"4","last_reported":1684908536,"current_range_meters":29600,"station_id":"ce4bgkp2rcd13ifvqbmg","pricing_plan_id":"free"},{"bike_id":"3f8c51b1-976c-4389-91e4-6aba882bdcd1","system_id":"levelo_inurba_marseille","lat":43.32357,"lon":5.38881,"is_reserved":false,"is_disabled":false,"rental_uris":{"android":"levelo://app?vid=3f8c51b1-976c-4389-91e4-6aba882bdcd1","ios":"levelo://app?vid=3f8c51b1-976c-4389-91e4-6aba882bdcd1"},"vehicle_type_id":"4","last_reported":1684908536,"current_range_meters":12400,"station_id":"ce4bhqp2rcd13ifvqhog","pricing_plan_id":"free"},{"bike_id":"d08580f2-e011-42b3-a9e9-78969f789498","system_id":"levelo_inurba_marseille","lat":43.32362,"lon":5.38877,"is_reserved":false,"is_disabled":false,"rental_uris":{"android":"levelo://app?vid=d08580f2-e011-42b3-a9e9-78969f789498","ios":"levelo://app?vid=d08580f2-e011-42b3-a9e9-78969f789498"},"vehicle_type_id":"4","last_reported":1684908536,"current_range_meters":28400,"station_id":"ce4bhqp2rcd13ifvqhog","pricing_plan_id":"free"},{"bike_id":"c43523df-276e-4694-adcf-a8b0c16542e3","system_id":"levelo_inurba_marseille","lat":43.32357,"lon":5.38882,"is_reserved":false,"is_disabled":false,"rental_uris":{"android":"levelo://app?vid=c43523df-276e-4694-adcf-a8b0c16542e3","ios":"levelo://app?vid=c43523df-276e-4694-adcf-a8b0c16542e3"},"vehicle_type_id":"4","last_reported":1684908536,"current_range_meters":16000,"station_id":"ce4bhqp2rcd13ifvqhog","pricing_plan_id":"free"},{"bike_id":"f2371f63-e4eb-48fe-aaa9-64cb538c1f31","system_id":"levelo_inurba_marseille","lat":43.32361,"lon":5.38882,"is_reserved":false,"is_disabled":false,"rental_uris":{"android":"levelo://app?vid=f2371f63-e4eb-48fe-aaa9-64cb538c1f31","ios":"levelo://app?vid=f2371f63-e4eb-48fe-aaa9-64cb538c1f31"},"vehicle_type_id":"4","last_reported":1684908536,"current_range_meters":27200,"station_id":"ce4bhqp2rcd13ifvqhog","pricing_plan_id":"free"},{"bike_id":"c22a5f17-c99d-4e39-8c6c-58579d7e478c","system_id":"levelo_inurba_marseille","lat":43.32365,"lon":5.38881,"is_reserved":false,"is_disabled":false,"rental_uris":{"android":"levelo://app?vid=c22a5f17-c99d-4e39-8c6c-58579d7e478c","ios":"levelo://app?vid=c22a5f17-c99d-4e39-8c6c-58579d7e478c"},"vehicle_type_id":"4","last_reported":1684908536,"current_range_meters":6800,"station_id":"ce4bhqp2rcd13ifvqhog","pricing_plan_id":"free"},{"bike_id":"435efeae-a7e4-48dc-9ebe-ef72d32dbddd","system_id":"levelo_inurba_marseille","lat":43.32363,"lon":5.38883,"is_reserved":false,"is_disabled":false,"rental_uris":{"android":"levelo://app?vid=435efeae-a7e4-48dc-9ebe-ef72d32dbddd","ios":"levelo://app?vid=435efeae-a7e4-48dc-9ebe-ef72d32dbddd"},"vehicle_type_id":"4","last_reported":1684908536,"current_range_meters":19600,"station_id":"ce4bhqp2rcd13ifvqhog","pricing_plan_id":"free"},{"bike_id":"6e929eea-ce83-4051-9199-c8d1e6f83d61","system_id":"levelo_inurba_marseille","lat":43.32367,"lon":5.38881,"is_reserved":false,"is_disabled":false,"rental_uris":{"android":"levelo://app?vid=6e929eea-ce83-4051-9199-c8d1e6f83d61","ios":"levelo://app?vid=6e929eea-ce83-4051-9199-c8d1e6f83d61"},"vehicle_type_id":"4","last_reported":1684908536,"current_range_meters":10400,"station_id":"ce4bhqp2rcd13ifvqhog","pricing_plan_id":"free"},{"bike_id":"c491bbd1-3514-426e-8563-fc0fefddf0f3","system_id":"levelo_inurba_marseille","lat":43.32365,"lon":5.38883,"is_reserved":false,"is_disabled":false,"rental_uris":{"android":"levelo://app?vid=c491bbd1-3514-426e-8563-fc0fefddf0f3","ios":"levelo://app?vid=c491bbd1-3514-426e-8563-fc0fefddf0f3"},"vehicle_type_id":"4","last_reported":1684908536,"current_range_meters":24000,"station_id":"ce4bhqp2rcd13ifvqhog","pricing_plan_id":"free"},{"bike_id":"b2239e09-41dc-4cde-9b2f-b27fe7d0a355","system_id":"levelo_inurba_marseille","lat":43.32367,"lon":5.388836,"is_reserved":false,"is_disabled":false,"rental_uris":{"android":"levelo://app?vid=b2239e09-41dc-4cde-9b2f-b27fe7d0a355","ios":"levelo://app?vid=b2239e09-41dc-4cde-9b2f-b27fe7d0a355"},"vehicle_type_id":"4","last_reported":1684908536,"current_range_meters":18400,"station_id":"ce4bhqp2rcd13ifvqhog","pricing_plan_id":"free"},{"bike_id":"01d401da-ad68-4b2e-a4ac-24f3f8771d91","system_id":"levelo_inurba_marseille","lat":43.32367,"lon":5.388836,"is_reserved":false,"is_disabled":false,"rental_uris":{"android":"levelo://app?vid=01d401da-ad68-4b2e-a4ac-24f3f8771d91","ios":"levelo://app?vid=01d401da-ad68-4b2e-a4ac-24f3f8771d91"},"vehicle_type_id":"4","last_reported":1684908536,"current_range_meters":24000,"station_id":"ce4bhqp2rcd13ifvqhog","pricing_plan_id":"free"},{"bike_id":"3afd2c7d-5b2f-4264-8ffa-817642659ef8","system_id":"levelo_inurba_marseille","lat":43.29601,"lon":5.381084,"is_reserved":false,"is_disabled":false,"rental_uris":{"android":"levelo://app?vid=3afd2c7d-5b2f-4264-8ffa-817642659ef8","ios":"levelo://app?vid=3afd2c7d-5b2f-4264-8ffa-817642659ef8"},"vehicle_type_id":"4","last_reported":1684908536,"current_range_meters":30000,"station_id":"ce4bgl12rcd13ifvqbo0","pricing_plan_id":"free"},{"bike_id":"e656c8a4-5ecd-481c-9744-956e1ab50f78","system_id":"levelo_inurba_marseille","lat":43.29601,"lon":5.381084,"is_reserved":false,"is_disabled":false,"rental_uris":{"android":"levelo://app?vid=e656c8a4-5ecd-481c-9744-956e1ab50f78","ios":"levelo://app?vid=e656c8a4-5ecd-481c-9744-956e1ab50f78"},"vehicle_type_id":"4","last_reported":1684908536,"current_range_meters":25200,"station_id":"ce4bgl12rcd13ifvqbo0","pricing_plan_id":"free"},{"bike_id":"4d22ba16-3b1b-478c-9334-f45af9acf90e","system_id":"levelo_inurba_marseille","lat":43.29591,"lon":5.38104,"is_reserved":false,"is_disabled":false,"rental_uris":{"android":"levelo://app?vid=4d22ba16-3b1b-478c-9334-f45af9acf90e","ios":"levelo://app?vid=4d22ba16-3b1b-478c-9334-f45af9acf90e"},"vehicle_type_id":"4","last_reported":1684908536,"current_range_meters":23200,"station_id":"ce4bgl12rcd13ifvqbo0","pricing_plan_id":"free"},{"bike_id":"d8d0ab86-a816-44e1-a69f-04013dd4eca1","system_id":"levelo_inurba_marseille","lat":43.292749,"lon":5.368402,"is_reserved":false,"is_disabled":false,"rental_uris":{"android":"levelo://app?vid=d8d0ab86-a816-44e1-a69f-04013dd4eca1","ios":"levelo://app?vid=d8d0ab86-a816-44e1-a69f-04013dd4eca1"},"vehicle_type_id":"4","last_reported":1684908536,"current_range_meters":30400,"station_id":"ce4bhbp2rcd13ifvqesg","pricing_plan_id":"free"},{"bike_id":"09bde791-7482-4b95-9452-4eabf6d5d6d0","system_id":"levelo_inurba_marseille","lat":43.305994,"lon":5.393687,"is_reserved":false,"is_disabled":false,"rental_uris":{"android":"levelo://app?vid=09bde791-7482-4b95-9452-4eabf6d5d6d0","ios":"levelo://app?vid=09bde791-7482-4b95-9452-4eabf6d5d6d0"},"vehicle_type_id":"4","last_reported":1684908536,"current_range_meters":25600,"station_id":"ce4bh0p2rcd13ifvqd80","pricing_plan_id":"free"},{"bike_id":"7a0ddde1-2ef0-4ca0-b712-069daad7483e","system_id":"levelo_inurba_marseille","lat":43.305994,"lon":5.393687,"is_reserved":false,"is_disabled":false,"rental_uris":{"android":"levelo://app?vid=7a0ddde1-2ef0-4ca0-b712-069daad7483e","ios":"levelo://app?vid=7a0ddde1-2ef0-4ca0-b712-069daad7483e"},"vehicle_type_id":"4","last_reported":1684908536,"current_range_meters":4800,"station_id":"ce4bh0p2rcd13ifvqd80","pricing_plan_id":"free"},{"bike_id":"dc9c2ded-0357-4898-a063-0050810a6f7a","system_id":"levelo_inurba_marseille","lat":43.305994,"lon":5.393687,"is_reserved":false,"is_disabled":false,"rental_uris":{"android":"levelo://app?vid=dc9c2ded-0357-4898-a063-0050810a6f7a","ios":"levelo://app?vid=dc9c2ded-0357-4898-a063-0050810a6f7a"},"vehicle_type_id":"4","last_reported":1684908536,"current_range_meters":22400,"station_id":"ce4bh0p2rcd13ifvqd80","pricing_plan_id":"free"},{"bike_id":"0efa318b-2825-4549-8c0a-8e09e6467638","system_id":"levelo_inurba_marseille","lat":43.305994,"lon":5.393687,"is_reserved":false,"is_disabled":false,"rental_uris":{"android":"levelo://app?vid=0efa318b-2825-4549-8c0a-8e09e6467638","ios":"levelo://app?vid=0efa318b-2825-4549-8c0a-8e09e6467638"},"vehicle_type_id":"4","last_reported":1684908536,"current_range_meters":16800,"station_id":"ce4bh0p2rcd13ifvqd80","pricing_plan_id":"free"},{"bike_id":"f28f5599-64d1-41b5-916d-166acebd71ea","system_id":"levelo_inurba_marseille","lat":43.305994,"lon":5.393687,"is_reserved":false,"is_disabled":false,"rental_uris":{"android":"levelo://app?vid=f28f5599-64d1-41b5-916d-166acebd71ea","ios":"levelo://app?vid=f28f5599-64d1-41b5-916d-166acebd71ea"},"vehicle_type_id":"4","last_reported":1684908536,"current_range_meters":19200,"station_id":"ce4bh0p2rcd13ifvqd80","pricing_plan_id":"free"},{"bike_id":"aa470988-b746-4d93-a7bf-779d62410ad2","system_id":"levelo_inurba_marseille","lat":43.30592,"lon":5.3936,"is_reserved":false,"is_disabled":false,"rental_uris":{"android":"levelo://app?vid=aa470988-b746-4d93-a7bf-779d62410ad2","ios":"levelo://app?vid=aa470988-b746-4d93-a7bf-779d62410ad2"},"vehicle_type_id":"4","last_reported":1684908536,"current_range_meters":800,"station_id":"ce4bh0p2rcd13ifvqd80","pricing_plan_id":"free"},{"bike_id":"8add47ae-b438-4dca-9ce4-cc995f90199c","system_id":"levelo_inurba_marseille","lat":43.305994,"lon":5.393687,"is_reserved":false,"is_disabled":false,"rental_uris":{"android":"levelo://app?vid=8add47ae-b438-4dca-9ce4-cc995f90199c","ios":"levelo://app?vid=8add47ae-b438-4dca-9ce4-cc995f90199c"},"vehicle_type_id":"4","last_reported":1684908536,"current_range_meters":20800,"station_id":"ce4bh0p2rcd13ifvqd80","pricing_plan_id":"free"},{"bike_id":"454cb25e-cbbd-4a2c-96b3-8e09ab38a317","system_id":"levelo_inurba_marseille","lat":43.305994,"lon":5.393687,"is_reserved":false,"is_disabled":false,"rental_uris":{"android":"levelo://app?vid=454cb25e-cbbd-4a2c-96b3-8e09ab38a317","ios":"levelo://app?vid=454cb25e-cbbd-4a2c-96b3-8e09ab38a317"},"vehicle_type_id":"4","last_reported":1684908536,"current_range_meters":13600,"station_id":"ce4bh0p2rcd13ifvqd80","pricing_plan_id":"free"},{"bike_id":"114c216e-aab4-48d8-b7b2-47d8f8da99ff","system_id":"levelo_inurba_marseille","lat":43.305994,"lon":5.393687,"is_reserved":false,"is_disabled":false,"rental_uris":{"android":"levelo://app?vid=114c216e-aab4-48d8-b7b2-47d8f8da99ff","ios":"levelo://app?vid=114c216e-aab4-48d8-b7b2-47d8f8da99ff"},"vehicle_type_id":"4","last_reported":1684908536,"current_range_meters":11600,"station_id":"ce4bh0p2rcd13ifvqd80","pricing_plan_id":"free"},{"bike_id":"1fe0366a-3b22-4140-b95c-dc7ff802438b","system_id":"levelo_inurba_marseille","lat":43.305994,"lon":5.393687,"is_reserved":false,"is_disabled":false,"rental_uris":{"android":"levelo://app?vid=1fe0366a-3b22-4140-b95c-dc7ff802438b","ios":"levelo://app?vid=1fe0366a-3b22-4140-b95c-dc7ff802438b"},"vehicle_type_id":"4","last_reported":1684908536,"current_range_meters":2000,"station_id":"ce4bh0p2rcd13ifvqd80","pricing_plan_id":"free"},{"bike_id":"fc71f6d0-7e73-43ce-a739-765fdb6aa34a","system_id":"levelo_inurba_marseille","lat":43.305994,"lon":5.393687,"is_reserved":false,"is_disabled":false,"rental_uris":{"android":"levelo://app?vid=fc71f6d0-7e73-43ce-a739-765fdb6aa34a","ios":"levelo://app?vid=fc71f6d0-7e73-43ce-a739-765fdb6aa34a"},"vehicle_type_id":"4","last_reported":1684908536,"current_range_meters":21600,"station_id":"ce4bh0p2rcd13ifvqd80","pricing_plan_id":"free"},{"bike_id":"c07929a2-56fb-494e-be58-16837c6eaff8","system_id":"levelo_inurba_marseille","lat":43.305994,"lon":5.393687,"is_reserved":false,"is_disabled":false,"rental_uris":{"android":"levelo://app?vid=c07929a2-56fb-494e-be58-16837c6eaff8","ios":"levelo://app?vid=c07929a2-56fb-494e-be58-16837c6eaff8"},"vehicle_type_id":"4","last_reported":1684908536,"current_range_meters":5200,"station_id":"ce4bh0p2rcd13ifvqd80","pricing_plan_id":"free"},{"bike_id":"0fb6670e-d18a-4c66-b596-782887af1359","system_id":"levelo_inurba_marseille","lat":43.305994,"lon":5.393687,"is_reserved":false,"is_disabled":false,"rental_uris":{"android":"levelo://app?vid=0fb6670e-d18a-4c66-b596-782887af1359","ios":"levelo://app?vid=0fb6670e-d18a-4c66-b596-782887af1359"},"vehicle_type_id":"4","last_reported":1684908536,"current_range_meters":24800,"station_id":"ce4bh0p2rcd13ifvqd80","pricing_plan_id":"free"},{"bike_id":"fa0c80d1-71dc-49aa-b919-edc122fc150f","system_id":"levelo_inurba_marseille","lat":43.2936,"lon":5.37835,"is_reserved":false,"is_disabled":false,"rental_uris":{"android":"levelo://app?vid=fa0c80d1-71dc-49aa-b919-edc122fc150f","ios":"levelo://app?vid=fa0c80d1-71dc-49aa-b919-edc122fc150f"},"vehicle_type_id":"4","last_reported":1684908536,"current_range_meters":26000,"station_id":"ce4bgjh2rcd13ifvqbf0","pricing_plan_id":"free"},{"bike_id":"4efe0607-c817-4529-9aa3-acbbf4d14668","system_id":"levelo_inurba_marseille","lat":43.32774,"lon":5.3881,"is_reserved":false,"is_disabled":false,"rental_uris":{"android":"levelo://app?vid=4efe0607-c817-4529-9aa3-acbbf4d14668","ios":"levelo://app?vid=4efe0607-c817-4529-9aa3-acbbf4d14668"},"vehicle_type_id":"4","last_reported":1684908536,"current_range_meters":12000,"station_id":"","pricing_plan_id":"free"},{"bike_id":"6b01b672-ca16-4c8c-a609-eaa448a62259","system_id":"levelo_inurba_marseille","lat":43.313291,"lon":5.396838,"is_reserved":false,"is_disabled":false,"rental_uris":{"android":"levelo://app?vid=6b01b672-ca16-4c8c-a609-eaa448a62259","ios":"levelo://app?vid=6b01b672-ca16-4c8c-a609-eaa448a62259"},"vehicle_type_id":"4","last_reported":1684908536,"current_range_meters":28000,"station_id":"ce4bgvp2rcd13ifvqcu0","pricing_plan_id":"free"},{"bike_id":"3e7c7ecc-c6fa-450b-90f1-23fcfce19293","system_id":"levelo_inurba_marseille","lat":43.31328,"lon":5.3969,"is_reserved":false,"is_disabled":false,"rental_uris":{"android":"levelo://app?vid=3e7c7ecc-c6fa-450b-90f1-23fcfce19293","ios":"levelo://app?vid=3e7c7ecc-c6fa-450b-90f1-23fcfce19293"},"vehicle_type_id":"4","last_reported":1684908536,"current_range_meters":0,"station_id":"ce4bgvp2rcd13ifvqcu0","pricing_plan_id":"free"},{"bike_id":"4c1e3b57-92b1-4105-b6ab-3cfb2eef35ca","system_id":"levelo_inurba_marseille","lat":43.313109,"lon":5.396952,"is_reserved":false,"is_disabled":false,"rental_uris":{"android":"levelo://app?vid=4c1e3b57-92b1-4105-b6ab-3cfb2eef35ca","ios":"levelo://app?vid=4c1e3b57-92b1-4105-b6ab-3cfb2eef35ca"},"vehicle_type_id":"4","last_reported":1684908536,"current_range_meters":0,"station_id":"","pricing_plan_id":"free"},{"bike_id":"8abb052a-54d7-406c-ab0f-a49d41527023","system_id":"levelo_inurba_marseille","lat":43.313291,"lon":5.396838,"is_reserved":false,"is_disabled":false,"rental_uris":{"android":"levelo://app?vid=8abb052a-54d7-406c-ab0f-a49d41527023","ios":"levelo://app?vid=8abb052a-54d7-406c-ab0f-a49d41527023"},"vehicle_type_id":"4","last_reported":1684908536,"current_range_meters":31200,"station_id":"ce4bgvp2rcd13ifvqcu0","pricing_plan_id":"free"},{"bike_id":"92f1107c-98b1-4f61-b336-1527c59f3969","system_id":"levelo_inurba_marseille","lat":43.302008,"lon":5.394694,"is_reserved":false,"is_disabled":false,"rental_uris":{"android":"levelo://app?vid=92f1107c-98b1-4f61-b336-1527c59f3969","ios":"levelo://app?vid=92f1107c-98b1-4f61-b336-1527c59f3969"},"vehicle_type_id":"4","last_reported":1684908536,"current_range_meters":26400,"station_id":"ce4bh0p2rcd13ifvqd70","pricing_plan_id":"free"},{"bike_id":"331c00f4-c2fe-4e29-8276-6cb16b855c6d","system_id":"levelo_inurba_marseille","lat":43.302008,"lon":5.394694,"is_reserved":false,"is_disabled":false,"rental_uris":{"android":"levelo://app?vid=331c00f4-c2fe-4e29-8276-6cb16b855c6d","ios":"levelo://app?vid=331c00f4-c2fe-4e29-8276-6cb16b855c6d"},"vehicle_type_id":"4","last_reported":1684908536,"current_range_meters":8000,"station_id":"ce4bh0p2rcd13ifvqd70","pricing_plan_id":"free"},{"bike_id":"dcfea269-9866-4056-80df-78f2c03ba9b8","system_id":"levelo_inurba_marseille","lat":43.302008,"lon":5.394694,"is_reserved":false,"is_disabled":false,"rental_uris":{"android":"levelo://app?vid=dcfea269-9866-4056-80df-78f2c03ba9b8","ios":"levelo://app?vid=dcfea269-9866-4056-80df-78f2c03ba9b8"},"vehicle_type_id":"4","last_reported":1684908536,"current_range_meters":22400,"station_id":"ce4bh0p2rcd13ifvqd70","pricing_plan_id":"free"},{"bike_id":"34961e37-3486-4b2c-90bf-78a3da13320d","system_id":"levelo_inurba_marseille","lat":43.3021,"lon":5.39466,"is_reserved":false,"is_disabled":false,"rental_uris":{"android":"levelo://app?vid=34961e37-3486-4b2c-90bf-78a3da13320d","ios":"levelo://app?vid=34961e37-3486-4b2c-90bf-78a3da13320d"},"vehicle_type_id":"4","last_reported":1684908536,"current_range_meters":10400,"station_id":"ce4bh0p2rcd13ifvqd70","pricing_plan_id":"free"},{"bike_id":"6b92ddf2-5814-47d5-b8c2-3941b8857a10","system_id":"levelo_inurba_marseille","lat":43.302008,"lon":5.394694,"is_reserved":false,"is_disabled":false,"rental_uris":{"android":"levelo://app?vid=6b92ddf2-5814-47d5-b8c2-3941b8857a10","ios":"levelo://app?vid=6b92ddf2-5814-47d5-b8c2-3941b8857a10"},"vehicle_type_id":"4","last_reported":1684908536,"current_range_meters":24800,"station_id":"ce4bh0p2rcd13ifvqd70","pricing_plan_id":"free"},{"bike_id":"8dd76156-7839-40e4-b1be-e68f97f9b4fa","system_id":"levelo_inurba_marseille","lat":43.302008,"lon":5.394694,"is_reserved":false,"is_disabled":false,"rental_uris":{"android":"levelo://app?vid=8dd76156-7839-40e4-b1be-e68f97f9b4fa","ios":"levelo://app?vid=8dd76156-7839-40e4-b1be-e68f97f9b4fa"},"vehicle_type_id":"4","last_reported":1684908536,"current_range_meters":27200,"station_id":"ce4bh0p2rcd13ifvqd70","pricing_plan_id":"free"},{"bike_id":"c00c10ba-bf1c-4884-9085-ab49342c17cc","system_id":"levelo_inurba_marseille","lat":43.3102,"lon":5.39818,"is_reserved":false,"is_disabled":false,"rental_uris":{"android":"levelo://app?vid=c00c10ba-bf1c-4884-9085-ab49342c17cc","ios":"levelo://app?vid=c00c10ba-bf1c-4884-9085-ab49342c17cc"},"vehicle_type_id":"4","last_reported":1684908536,"current_range_meters":26000,"station_id":"","pricing_plan_id":"free"},{"bike_id":"1c12b138-bcb7-407c-adc6-90852c881ccf","system_id":"levelo_inurba_marseille","lat":43.290624,"lon":5.359245,"is_reserved":false,"is_disabled":false,"rental_uris":{"android":"levelo://app?vid=1c12b138-bcb7-407c-adc6-90852c881ccf","ios":"levelo://app?vid=1c12b138-bcb7-407c-adc6-90852c881ccf"},"vehicle_type_id":"4","last_reported":1684908536,"current_range_meters":16800,"station_id":"ce4bha92rcd13ifvqeg0","pricing_plan_id":"free"},{"bike_id":"5a3f98b3-f5e4-4456-b59a-39049f8d2357","system_id":"levelo_inurba_marseille","lat":43.289184,"lon":5.366408,"is_reserved":false,"is_disabled":false,"rental_uris":{"android":"levelo://app?vid=5a3f98b3-f5e4-4456-b59a-39049f8d2357","ios":"levelo://app?vid=5a3f98b3-f5e4-4456-b59a-39049f8d2357"},"vehicle_type_id":"4","last_reported":1684908536,"current_range_meters":22000,"station_id":"ce4bhap2rcd13ifvqek0","pricing_plan_id":"free"},{"bike_id":"dc84170b-d58b-47d4-8191-18bbbd9ce37d","system_id":"levelo_inurba_marseille","lat":43.290327,"lon":5.375711,"is_reserved":false,"is_disabled":false,"rental_uris":{"android":"levelo://app?vid=dc84170b-d58b-47d4-8191-18bbbd9ce37d","ios":"levelo://app?vid=dc84170b-d58b-47d4-8191-18bbbd9ce37d"},"vehicle_type_id":"4","last_reported":1684908536,"current_range_meters":23600,"station_id":"ce4bh692rcd13ifvqe90","pricing_plan_id":"free"},{"bike_id":"6f6163e1-1b0b-46b0-830c-5996c1647be9","system_id":"levelo_inurba_marseille","lat":43.289474,"lon":5.364033,"is_reserved":false,"is_disabled":false,"rental_uris":{"android":"levelo://app?vid=6f6163e1-1b0b-46b0-830c-5996c1647be9","ios":"levelo://app?vid=6f6163e1-1b0b-46b0-830c-5996c1647be9"},"vehicle_type_id":"4","last_reported":1684908536,"current_range_meters":14000,"station_id":"ce4bhc92rcd13ifvqetg","pricing_plan_id":"free"},{"bike_id":"441f57f3-436f-4bce-a558-6a5a77c1a60a","system_id":"levelo_inurba_marseille","lat":43.289468,"lon":5.363719,"is_reserved":false,"is_disabled":false,"rental_uris":{"android":"levelo://app?vid=441f57f3-436f-4bce-a558-6a5a77c1a60a","ios":"levelo://app?vid=441f57f3-436f-4bce-a558-6a5a77c1a60a"},"vehicle_type_id":"4","last_reported":1684908536,"current_range_meters":24800,"station_id":"ce4bhc92rcd13ifvqetg","pricing_plan_id":"free"},{"bike_id":"e65cb25c-ab0e-4160-9964-9586a04606af","system_id":"levelo_inurba_marseille","lat":43.289468,"lon":5.363719,"is_reserved":false,"is_disabled":false,"rental_uris":{"android":"levelo://app?vid=e65cb25c-ab0e-4160-9964-9586a04606af","ios":"levelo://app?vid=e65cb25c-ab0e-4160-9964-9586a04606af"},"vehicle_type_id":"4","last_reported":1684908536,"current_range_meters":22400,"station_id":"ce4bhc92rcd13ifvqetg","pricing_plan_id":"free"},{"bike_id":"c2c9218e-b7a4-44bb-950c-f9106bfa52ed","system_id":"levelo_inurba_marseille","lat":43.289468,"lon":5.363719,"is_reserved":false,"is_disabled":false,"rental_uris":{"android":"levelo://app?vid=c2c9218e-b7a4-44bb-950c-f9106bfa52ed","ios":"levelo://app?vid=c2c9218e-b7a4-44bb-950c-f9106bfa52ed"},"vehicle_type_id":"4","last_reported":1684908536,"current_range_meters":30400,"station_id":"ce4bhc92rcd13ifvqetg","pricing_plan_id":"free"},{"bike_id":"10173f54-ce03-47c2-aa4d-d9bd41a6cd92","system_id":"levelo_inurba_marseille","lat":43.30425,"lon":5.39752,"is_reserved":false,"is_disabled":false,"rental_uris":{"android":"levelo://app?vid=10173f54-ce03-47c2-aa4d-d9bd41a6cd92","ios":"levelo://app?vid=10173f54-ce03-47c2-aa4d-d9bd41a6cd92"},"vehicle_type_id":"4","last_reported":1684908536,"current_range_meters":11600,"station_id":"ce4bh092rcd13ifvqd20","pricing_plan_id":"free"},{"bike_id":"772c2fec-0c60-4a29-9bc6-550f431238ed","system_id":"levelo_inurba_marseille","lat":43.33045,"lon":5.38913,"is_reserved":false,"is_disabled":false,"rental_uris":{"android":"levelo://app?vid=772c2fec-0c60-4a29-9bc6-550f431238ed","ios":"levelo://app?vid=772c2fec-0c60-4a29-9bc6-550f431238ed"},"vehicle_type_id":"4","last_reported":1684908536,"current_range_meters":12000,"station_id":"ce4bhr92rcd13ifvqhrg","pricing_plan_id":"free"},{"bike_id":"3df805b3-2810-48e9-b919-b057d3b27e81","system_id":"levelo_inurba_marseille","lat":43.33046,"lon":5.38913,"is_reserved":false,"is_disabled":false,"rental_uris":{"android":"levelo://app?vid=3df805b3-2810-48e9-b919-b057d3b27e81","ios":"levelo://app?vid=3df805b3-2810-48e9-b919-b057d3b27e81"},"vehicle_type_id":"4","last_reported":1684908536,"current_range_meters":23200,"station_id":"ce4bhr92rcd13ifvqhrg","pricing_plan_id":"free"},{"bike_id":"89436d2a-e1c6-4c5d-8c21-4f5ddca0c3e6","system_id":"levelo_inurba_marseille","lat":43.33046,"lon":5.38916,"is_reserved":false,"is_disabled":false,"rental_uris":{"android":"levelo://app?vid=89436d2a-e1c6-4c5d-8c21-4f5ddca0c3e6","ios":"levelo://app?vid=89436d2a-e1c6-4c5d-8c21-4f5ddca0c3e6"},"vehicle_type_id":"4","last_reported":1684908536,"current_range_meters":18000,"station_id":"ce4bhr92rcd13ifvqhrg","pricing_plan_id":"free"},{"bike_id":"8e23463b-2607-4033-b12c-3e0f365c6a03","system_id":"levelo_inurba_marseille","lat":43.290104,"lon":5.356111,"is_reserved":false,"is_disabled":false,"rental_uris":{"android":"levelo://app?vid=8e23463b-2607-4033-b12c-3e0f365c6a03","ios":"levelo://app?vid=8e23463b-2607-4033-b12c-3e0f365c6a03"},"vehicle_type_id":"4","last_reported":1684908536,"current_range_meters":26000,"station_id":"ce4bhb92rcd13ifvqen0","pricing_plan_id":"free"},{"bike_id":"09848ecf-66d2-43ab-b7d7-005564e98ecd","system_id":"levelo_inurba_marseille","lat":43.29101,"lon":5.381385,"is_reserved":false,"is_disabled":false,"rental_uris":{"android":"levelo://app?vid=09848ecf-66d2-43ab-b7d7-005564e98ecd","ios":"levelo://app?vid=09848ecf-66d2-43ab-b7d7-005564e98ecd"},"vehicle_type_id":"4","last_reported":1684908536,"current_range_meters":26400,"station_id":"","pricing_plan_id":"free"},{"bike_id":"d7e1570d-9ea0-4e2a-9ac9-1d07fd9e815d","system_id":"levelo_inurba_marseille","lat":43.290995,"lon":5.381361,"is_reserved":false,"is_disabled":false,"rental_uris":{"android":"levelo://app?vid=d7e1570d-9ea0-4e2a-9ac9-1d07fd9e815d","ios":"levelo://app?vid=d7e1570d-9ea0-4e2a-9ac9-1d07fd9e815d"},"vehicle_type_id":"4","last_reported":1684908536,"current_range_meters":24400,"station_id":"ce4bh512rcd13ifvqe2g","pricing_plan_id":"free"},{"bike_id":"3287baef-cce2-4102-b294-b661af314be6","system_id":"levelo_inurba_marseille","lat":43.290995,"lon":5.381361,"is_reserved":false,"is_disabled":false,"rental_uris":{"android":"levelo://app?vid=3287baef-cce2-4102-b294-b661af314be6","ios":"levelo://app?vid=3287baef-cce2-4102-b294-b661af314be6"},"vehicle_type_id":"4","last_reported":1684908536,"current_range_meters":12400,"station_id":"ce4bh512rcd13ifvqe2g","pricing_plan_id":"free"},{"bike_id":"91bb7fa0-44aa-48a1-8bd2-e44abd7fef18","system_id":"levelo_inurba_marseille","lat":43.289741,"lon":5.378306,"is_reserved":false,"is_disabled":false,"rental_uris":{"android":"levelo://app?vid=91bb7fa0-44aa-48a1-8bd2-e44abd7fef18","ios":"levelo://app?vid=91bb7fa0-44aa-48a1-8bd2-e44abd7fef18"},"vehicle_type_id":"4","last_reported":1684908536,"current_range_meters":29200,"station_id":"ce4bh9p2rcd13ifvqed0","pricing_plan_id":"free"},{"bike_id":"b1122fe6-c328-488f-ad48-39d1d7c02f93","system_id":"levelo_inurba_marseille","lat":43.295169,"lon":5.390426,"is_reserved":false,"is_disabled":false,"rental_uris":{"android":"levelo://app?vid=b1122fe6-c328-488f-ad48-39d1d7c02f93","ios":"levelo://app?vid=b1122fe6-c328-488f-ad48-39d1d7c02f93"},"vehicle_type_id":"4","last_reported":1684908536,"current_range_meters":19200,"station_id":"ce4bh3p2rcd13ifvqdp0","pricing_plan_id":"free"},{"bike_id":"5bdfcb69-a712-4fdb-aaca-35c9a327a274","system_id":"levelo_inurba_marseille","lat":43.29793,"lon":5.3935,"is_reserved":false,"is_disabled":false,"rental_uris":{"android":"levelo://app?vid=5bdfcb69-a712-4fdb-aaca-35c9a327a274","ios":"levelo://app?vid=5bdfcb69-a712-4fdb-aaca-35c9a327a274"},"vehicle_type_id":"4","last_reported":1684908536,"current_range_meters":11600,"station_id":"chh1huq6cuj3fo74tm60","pricing_plan_id":"free"},{"bike_id":"66de6ca6-7055-46fb-bc4a-a80af7ee7037","system_id":"levelo_inurba_marseille","lat":43.30513,"lon":5.39935,"is_reserved":false,"is_disabled":false,"rental_uris":{"android":"levelo://app?vid=66de6ca6-7055-46fb-bc4a-a80af7ee7037","ios":"levelo://app?vid=66de6ca6-7055-46fb-bc4a-a80af7ee7037"},"vehicle_type_id":"4","last_reported":1684908536,"current_range_meters":2400,"station_id":"","pricing_plan_id":"free"},{"bike_id":"6c0a4d9b-5a94-4e51-b059-4b459ad653bc","system_id":"levelo_inurba_marseille","lat":43.28853,"lon":5.35848,"is_reserved":false,"is_disabled":false,"rental_uris":{"android":"levelo://app?vid=6c0a4d9b-5a94-4e51-b059-4b459ad653bc","ios":"levelo://app?vid=6c0a4d9b-5a94-4e51-b059-4b459ad653bc"},"vehicle_type_id":"4","last_reported":1684908536,"current_range_meters":4400,"station_id":"ce4bhb12rcd13ifvqem0","pricing_plan_id":"free"},{"bike_id":"3141cfac-d7ef-4a24-b276-c8b50671e026","system_id":"levelo_inurba_marseille","lat":43.28845,"lon":5.35841,"is_reserved":false,"is_disabled":false,"rental_uris":{"android":"levelo://app?vid=3141cfac-d7ef-4a24-b276-c8b50671e026","ios":"levelo://app?vid=3141cfac-d7ef-4a24-b276-c8b50671e026"},"vehicle_type_id":"4","last_reported":1684908536,"current_range_meters":30400,"station_id":"ce4bhb12rcd13ifvqem0","pricing_plan_id":"free"},{"bike_id":"e123cd43-562a-427d-b741-98d33ce5dea2","system_id":"levelo_inurba_marseille","lat":43.33749,"lon":5.37426,"is_reserved":false,"is_disabled":false,"rental_uris":{"android":"levelo://app?vid=e123cd43-562a-427d-b741-98d33ce5dea2","ios":"levelo://app?vid=e123cd43-562a-427d-b741-98d33ce5dea2"},"vehicle_type_id":"4","last_reported":1684908536,"current_range_meters":31200,"station_id":"","pricing_plan_id":"free"},{"bike_id":"7df7a62c-f249-4aee-a961-7f8771c1e324","system_id":"levelo_inurba_marseille","lat":43.33752,"lon":5.37446,"is_reserved":false,"is_disabled":false,"rental_uris":{"android":"levelo://app?vid=7df7a62c-f249-4aee-a961-7f8771c1e324","ios":"levelo://app?vid=7df7a62c-f249-4aee-a961-7f8771c1e324"},"vehicle_type_id":"4","last_reported":1684908536,"current_range_meters":26000,"station_id":"","pricing_plan_id":"free"},{"bike_id":"d0c44f58-a3a4-409b-a92a-ecd258dc78aa","system_id":"levelo_inurba_marseille","lat":43.337548,"lon":5.37462,"is_reserved":false,"is_disabled":false,"rental_uris":{"android":"levelo://app?vid=d0c44f58-a3a4-409b-a92a-ecd258dc78aa","ios":"levelo://app?vid=d0c44f58-a3a4-409b-a92a-ecd258dc78aa"},"vehicle_type_id":"4","last_reported":1684908536,"current_range_meters":31600,"station_id":"","pricing_plan_id":"free"},{"bike_id":"fa8aa980-3d66-469a-9738-e2e7d6b7aad7","system_id":"levelo_inurba_marseille","lat":43.3376,"lon":5.37442,"is_reserved":false,"is_disabled":false,"rental_uris":{"android":"levelo://app?vid=fa8aa980-3d66-469a-9738-e2e7d6b7aad7","ios":"levelo://app?vid=fa8aa980-3d66-469a-9738-e2e7d6b7aad7"},"vehicle_type_id":"4","last_reported":1684908536,"current_range_meters":30000,"station_id":"","pricing_plan_id":"free"},{"bike_id":"33d14251-098d-417f-aa25-a478d24baec7","system_id":"levelo_inurba_marseille","lat":43.33762,"lon":5.37444,"is_reserved":false,"is_disabled":false,"rental_uris":{"android":"levelo://app?vid=33d14251-098d-417f-aa25-a478d24baec7","ios":"levelo://app?vid=33d14251-098d-417f-aa25-a478d24baec7"},"vehicle_type_id":"4","last_reported":1684908536,"current_range_meters":0,"station_id":"","pricing_plan_id":"free"},{"bike_id":"10499af1-2806-4e28-a7c5-e4dc26aef808","system_id":"levelo_inurba_marseille","lat":43.30425,"lon":5.40074,"is_reserved":false,"is_disabled":false,"rental_uris":{"android":"levelo://app?vid=10499af1-2806-4e28-a7c5-e4dc26aef808","ios":"levelo://app?vid=10499af1-2806-4e28-a7c5-e4dc26aef808"},"vehicle_type_id":"4","last_reported":1684908536,"current_range_meters":7600,"station_id":"","pricing_plan_id":"free"},{"bike_id":"5913b661-430e-4b79-947b-67fc67f7f40b","system_id":"levelo_inurba_marseille","lat":43.286591,"lon":5.363346,"is_reserved":false,"is_disabled":false,"rental_uris":{"android":"levelo://app?vid=5913b661-430e-4b79-947b-67fc67f7f40b","ios":"levelo://app?vid=5913b661-430e-4b79-947b-67fc67f7f40b"},"vehicle_type_id":"4","last_reported":1684908536,"current_range_meters":31200,"station_id":"ce4bhah2rcd13ifvqej0","pricing_plan_id":"free"},{"bike_id":"f88821db-c576-4401-b7b3-13289cb9d77e","system_id":"levelo_inurba_marseille","lat":43.286591,"lon":5.363346,"is_reserved":false,"is_disabled":false,"rental_uris":{"android":"levelo://app?vid=f88821db-c576-4401-b7b3-13289cb9d77e","ios":"levelo://app?vid=f88821db-c576-4401-b7b3-13289cb9d77e"},"vehicle_type_id":"4","last_reported":1684908536,"current_range_meters":29200,"station_id":"ce4bhah2rcd13ifvqej0","pricing_plan_id":"free"},{"bike_id":"abbb07c1-ed9e-4b09-8541-a088bb42b6a6","system_id":"levelo_inurba_marseille","lat":43.286591,"lon":5.363346,"is_reserved":false,"is_disabled":false,"rental_uris":{"android":"levelo://app?vid=abbb07c1-ed9e-4b09-8541-a088bb42b6a6","ios":"levelo://app?vid=abbb07c1-ed9e-4b09-8541-a088bb42b6a6"},"vehicle_type_id":"4","last_reported":1684908536,"current_range_meters":30400,"station_id":"ce4bhah2rcd13ifvqej0","pricing_plan_id":"free"},{"bike_id":"44e782fd-a942-4618-8122-c09833c081b9","system_id":"levelo_inurba_marseille","lat":43.286593,"lon":5.363346,"is_reserved":false,"is_disabled":false,"rental_uris":{"android":"levelo://app?vid=44e782fd-a942-4618-8122-c09833c081b9","ios":"levelo://app?vid=44e782fd-a942-4618-8122-c09833c081b9"},"vehicle_type_id":"4","last_reported":1684908536,"current_range_meters":30000,"station_id":"ce4bhah2rcd13ifvqej0","pricing_plan_id":"free"},{"bike_id":"1532a28d-24fd-4a7f-9258-baaa3b063c49","system_id":"levelo_inurba_marseille","lat":43.286591,"lon":5.363346,"is_reserved":false,"is_disabled":false,"rental_uris":{"android":"levelo://app?vid=1532a28d-24fd-4a7f-9258-baaa3b063c49","ios":"levelo://app?vid=1532a28d-24fd-4a7f-9258-baaa3b063c49"},"vehicle_type_id":"4","last_reported":1684908536,"current_range_meters":18000,"station_id":"ce4bhah2rcd13ifvqej0","pricing_plan_id":"free"},{"bike_id":"20f8981e-69e2-475d-b416-11457ff35fc0","system_id":"levelo_inurba_marseille","lat":43.286591,"lon":5.363346,"is_reserved":false,"is_disabled":false,"rental_uris":{"android":"levelo://app?vid=20f8981e-69e2-475d-b416-11457ff35fc0","ios":"levelo://app?vid=20f8981e-69e2-475d-b416-11457ff35fc0"},"vehicle_type_id":"4","last_reported":1684908536,"current_range_meters":31200,"station_id":"ce4bhah2rcd13ifvqej0","pricing_plan_id":"free"},{"bike_id":"651f95b8-bd06-43e6-a773-2bed2468d127","system_id":"levelo_inurba_marseille","lat":43.286591,"lon":5.363346,"is_reserved":false,"is_disabled":false,"rental_uris":{"android":"levelo://app?vid=651f95b8-bd06-43e6-a773-2bed2468d127","ios":"levelo://app?vid=651f95b8-bd06-43e6-a773-2bed2468d127"},"vehicle_type_id":"4","last_reported":1684908536,"current_range_meters":24400,"station_id":"ce4bhah2rcd13ifvqej0","pricing_plan_id":"free"},{"bike_id":"b4b80226-83c8-4c7f-916b-33846d482e4e","system_id":"levelo_inurba_marseille","lat":43.286593,"lon":5.363346,"is_reserved":false,"is_disabled":false,"rental_uris":{"android":"levelo://app?vid=b4b80226-83c8-4c7f-916b-33846d482e4e","ios":"levelo://app?vid=b4b80226-83c8-4c7f-916b-33846d482e4e"},"vehicle_type_id":"4","last_reported":1684908536,"current_range_meters":31200,"station_id":"ce4bhah2rcd13ifvqej0","pricing_plan_id":"free"},{"bike_id":"be01e501-4ce7-4020-ac6a-90047ed27e2c","system_id":"levelo_inurba_marseille","lat":43.286593,"lon":5.363346,"is_reserved":false,"is_disabled":false,"rental_uris":{"android":"levelo://app?vid=be01e501-4ce7-4020-ac6a-90047ed27e2c","ios":"levelo://app?vid=be01e501-4ce7-4020-ac6a-90047ed27e2c"},"vehicle_type_id":"4","last_reported":1684908536,"current_range_meters":31200,"station_id":"ce4bhah2rcd13ifvqej0","pricing_plan_id":"free"},{"bike_id":"69b9a307-3679-4251-af69-c2a8f0a206cb","system_id":"levelo_inurba_marseille","lat":43.286591,"lon":5.363346,"is_reserved":false,"is_disabled":false,"rental_uris":{"android":"levelo://app?vid=69b9a307-3679-4251-af69-c2a8f0a206cb","ios":"levelo://app?vid=69b9a307-3679-4251-af69-c2a8f0a206cb"},"vehicle_type_id":"4","last_reported":1684908536,"current_range_meters":31200,"station_id":"ce4bhah2rcd13ifvqej0","pricing_plan_id":"free"},{"bike_id":"9f94eb43-d213-4b61-9f1a-0b8b48ad403b","system_id":"levelo_inurba_marseille","lat":43.302759,"lon":5.400793,"is_reserved":false,"is_disabled":false,"rental_uris":{"android":"levelo://app?vid=9f94eb43-d213-4b61-9f1a-0b8b48ad403b","ios":"levelo://app?vid=9f94eb43-d213-4b61-9f1a-0b8b48ad403b"},"vehicle_type_id":"4","last_reported":1684908536,"current_range_meters":22000,"station_id":"ce4bgvh2rcd13ifvqcs0","pricing_plan_id":"free"},{"bike_id":"ff71db4c-7b8d-4765-8781-47ba64f615d7","system_id":"levelo_inurba_marseille","lat":43.290345,"lon":5.38646,"is_reserved":false,"is_disabled":false,"rental_uris":{"android":"levelo://app?vid=ff71db4c-7b8d-4765-8781-47ba64f615d7","ios":"levelo://app?vid=ff71db4c-7b8d-4765-8781-47ba64f615d7"},"vehicle_type_id":"4","last_reported":1684908536,"current_range_meters":27200,"station_id":"ce4bh4p2rcd13ifvqe0g","pricing_plan_id":"free"},{"bike_id":"fd3f8a4a-ba3d-4173-95b5-b5845c77551a","system_id":"levelo_inurba_marseille","lat":43.290336,"lon":5.386425,"is_reserved":false,"is_disabled":false,"rental_uris":{"android":"levelo://app?vid=fd3f8a4a-ba3d-4173-95b5-b5845c77551a","ios":"levelo://app?vid=fd3f8a4a-ba3d-4173-95b5-b5845c77551a"},"vehicle_type_id":"4","last_reported":1684908536,"current_range_meters":5200,"station_id":"ce4bh4p2rcd13ifvqe0g","pricing_plan_id":"free"},{"bike_id":"f901e00c-360c-43f5-905f-7aa1256e662d","system_id":"levelo_inurba_marseille","lat":43.290336,"lon":5.386425,"is_reserved":false,"is_disabled":false,"rental_uris":{"android":"levelo://app?vid=f901e00c-360c-43f5-905f-7aa1256e662d","ios":"levelo://app?vid=f901e00c-360c-43f5-905f-7aa1256e662d"},"vehicle_type_id":"4","last_reported":1684908536,"current_range_meters":13600,"station_id":"ce4bh4p2rcd13ifvqe0g","pricing_plan_id":"free"},{"bike_id":"5980ec25-1300-45c6-ba83-90c0d49503f5","system_id":"levelo_inurba_marseille","lat":43.290336,"lon":5.386425,"is_reserved":false,"is_disabled":false,"rental_uris":{"android":"levelo://app?vid=5980ec25-1300-45c6-ba83-90c0d49503f5","ios":"levelo://app?vid=5980ec25-1300-45c6-ba83-90c0d49503f5"},"vehicle_type_id":"4","last_reported":1684908536,"current_range_meters":24400,"station_id":"ce4bh4p2rcd13ifvqe0g","pricing_plan_id":"free"},{"bike_id":"0cddcdb3-3b7b-4b09-b3e4-9d41b00540bd","system_id":"levelo_inurba_marseille","lat":43.290345,"lon":5.38646,"is_reserved":false,"is_disabled":false,"rental_uris":{"android":"levelo://app?vid=0cddcdb3-3b7b-4b09-b3e4-9d41b00540bd","ios":"levelo://app?vid=0cddcdb3-3b7b-4b09-b3e4-9d41b00540bd"},"vehicle_type_id":"4","last_reported":1684908536,"current_range_meters":24000,"station_id":"ce4bh4p2rcd13ifvqe0g","pricing_plan_id":"free"},{"bike_id":"19e4316c-dd00-4120-973c-ef7c2932cbfe","system_id":"levelo_inurba_marseille","lat":43.290336,"lon":5.386425,"is_reserved":false,"is_disabled":false,"rental_uris":{"android":"levelo://app?vid=19e4316c-dd00-4120-973c-ef7c2932cbfe","ios":"levelo://app?vid=19e4316c-dd00-4120-973c-ef7c2932cbfe"},"vehicle_type_id":"4","last_reported":1684908536,"current_range_meters":22400,"station_id":"ce4bh4p2rcd13ifvqe0g","pricing_plan_id":"free"},{"bike_id":"5a587149-e4c1-42a8-90bd-ac145ba747bb","system_id":"levelo_inurba_marseille","lat":43.290336,"lon":5.386425,"is_reserved":false,"is_disabled":false,"rental_uris":{"android":"levelo://app?vid=5a587149-e4c1-42a8-90bd-ac145ba747bb","ios":"levelo://app?vid=5a587149-e4c1-42a8-90bd-ac145ba747bb"},"vehicle_type_id":"4","last_reported":1684908536,"current_range_meters":15600,"station_id":"ce4bh4p2rcd13ifvqe0g","pricing_plan_id":"free"},{"bike_id":"e2ffb73a-5b85-483d-9613-c45b255905ce","system_id":"levelo_inurba_marseille","lat":43.290336,"lon":5.386425,"is_reserved":false,"is_disabled":false,"rental_uris":{"android":"levelo://app?vid=e2ffb73a-5b85-483d-9613-c45b255905ce","ios":"levelo://app?vid=e2ffb73a-5b85-483d-9613-c45b255905ce"},"vehicle_type_id":"4","last_reported":1684908536,"current_range_meters":24800,"station_id":"ce4bh4p2rcd13ifvqe0g","pricing_plan_id":"free"},{"bike_id":"048167c3-8ec0-4c33-bdca-6c152bf8577e","system_id":"levelo_inurba_marseille","lat":43.30254,"lon":5.40078,"is_reserved":false,"is_disabled":false,"rental_uris":{"android":"levelo://app?vid=048167c3-8ec0-4c33-bdca-6c152bf8577e","ios":"levelo://app?vid=048167c3-8ec0-4c33-bdca-6c152bf8577e"},"vehicle_type_id":"4","last_reported":1684908536,"current_range_meters":0,"station_id":"ce4bgvh2rcd13ifvqcs0","pricing_plan_id":"free"},{"bike_id":"27339928-0197-4f55-91d4-5f5a28e1a1ad","system_id":"levelo_inurba_marseille","lat":43.286039,"lon":5.370681,"is_reserved":false,"is_disabled":false,"rental_uris":{"android":"levelo://app?vid=27339928-0197-4f55-91d4-5f5a28e1a1ad","ios":"levelo://app?vid=27339928-0197-4f55-91d4-5f5a28e1a1ad"},"vehicle_type_id":"4","last_reported":1684908536,"current_range_meters":800,"station_id":"ce4bht12rcd13ifvqi60","pricing_plan_id":"free"},{"bike_id":"2b98a86c-82f6-4f76-bc37-de03cc56a2bb","system_id":"levelo_inurba_marseille","lat":43.287184,"lon":5.37937,"is_reserved":false,"is_disabled":false,"rental_uris":{"android":"levelo://app?vid=2b98a86c-82f6-4f76-bc37-de03cc56a2bb","ios":"levelo://app?vid=2b98a86c-82f6-4f76-bc37-de03cc56a2bb"},"vehicle_type_id":"4","last_reported":1684908536,"current_range_meters":31200,"station_id":"ce4bh9p2rcd13ifvqec0","pricing_plan_id":"free"},{"bike_id":"62d5ded5-8dea-41ee-8574-dc187e707a81","system_id":"levelo_inurba_marseille","lat":43.28799,"lon":5.38267,"is_reserved":false,"is_disabled":false,"rental_uris":{"android":"levelo://app?vid=62d5ded5-8dea-41ee-8574-dc187e707a81","ios":"levelo://app?vid=62d5ded5-8dea-41ee-8574-dc187e707a81"},"vehicle_type_id":"4","last_reported":1684908536,"current_range_meters":5600,"station_id":"","pricing_plan_id":"free"},{"bike_id":"6f87bd09-a64c-454a-8ad8-7bf63b3e271b","system_id":"levelo_inurba_marseille","lat":43.316517,"lon":5.404375,"is_reserved":false,"is_disabled":false,"rental_uris":{"android":"levelo://app?vid=6f87bd09-a64c-454a-8ad8-7bf63b3e271b","ios":"levelo://app?vid=6f87bd09-a64c-454a-8ad8-7bf63b3e271b"},"vehicle_type_id":"4","last_reported":1684908536,"current_range_meters":6000,"station_id":"ce4bh012rcd13ifvqd00","pricing_plan_id":"free"},{"bike_id":"ae4a9f70-99d5-4d86-8781-4cc643fdb0cb","system_id":"levelo_inurba_marseille","lat":43.284534,"lon":5.358662,"is_reserved":false,"is_disabled":false,"rental_uris":{"android":"levelo://app?vid=ae4a9f70-99d5-4d86-8781-4cc643fdb0cb","ios":"levelo://app?vid=ae4a9f70-99d5-4d86-8781-4cc643fdb0cb"},"vehicle_type_id":"4","last_reported":1684908536,"current_range_meters":17200,"station_id":"ce4bhah2rcd13ifvqei0","pricing_plan_id":"free"},{"bike_id":"f3f2e139-9f9c-43e7-8983-fd74cc64e2c7","system_id":"levelo_inurba_marseille","lat":43.28469,"lon":5.35883,"is_reserved":false,"is_disabled":false,"rental_uris":{"android":"levelo://app?vid=f3f2e139-9f9c-43e7-8983-fd74cc64e2c7","ios":"levelo://app?vid=f3f2e139-9f9c-43e7-8983-fd74cc64e2c7"},"vehicle_type_id":"4","last_reported":1684908536,"current_range_meters":30800,"station_id":"ce4bhah2rcd13ifvqei0","pricing_plan_id":"free"},{"bike_id":"24a9f437-3f10-4ec5-811e-48a2ceb23afc","system_id":"levelo_inurba_marseille","lat":43.284534,"lon":5.358662,"is_reserved":false,"is_disabled":false,"rental_uris":{"android":"levelo://app?vid=24a9f437-3f10-4ec5-811e-48a2ceb23afc","ios":"levelo://app?vid=24a9f437-3f10-4ec5-811e-48a2ceb23afc"},"vehicle_type_id":"4","last_reported":1684908536,"current_range_meters":15600,"station_id":"ce4bhah2rcd13ifvqei0","pricing_plan_id":"free"},{"bike_id":"8610fff9-e716-4928-a90b-3c5730670c79","system_id":"levelo_inurba_marseille","lat":43.284534,"lon":5.358662,"is_reserved":false,"is_disabled":false,"rental_uris":{"android":"levelo://app?vid=8610fff9-e716-4928-a90b-3c5730670c79","ios":"levelo://app?vid=8610fff9-e716-4928-a90b-3c5730670c79"},"vehicle_type_id":"4","last_reported":1684908536,"current_range_meters":31200,"station_id":"ce4bhah2rcd13ifvqei0","pricing_plan_id":"free"},{"bike_id":"1e2d7091-9927-4f62-9087-bfb3d6cdce85","system_id":"levelo_inurba_marseille","lat":43.284534,"lon":5.358662,"is_reserved":false,"is_disabled":false,"rental_uris":{"android":"levelo://app?vid=1e2d7091-9927-4f62-9087-bfb3d6cdce85","ios":"levelo://app?vid=1e2d7091-9927-4f62-9087-bfb3d6cdce85"},"vehicle_type_id":"4","last_reported":1684908536,"current_range_meters":14400,"station_id":"ce4bhah2rcd13ifvqei0","pricing_plan_id":"free"},{"bike_id":"acc16539-8558-4d18-a243-f31dddf4bfd1","system_id":"levelo_inurba_marseille","lat":43.284534,"lon":5.358662,"is_reserved":false,"is_disabled":false,"rental_uris":{"android":"levelo://app?vid=acc16539-8558-4d18-a243-f31dddf4bfd1","ios":"levelo://app?vid=acc16539-8558-4d18-a243-f31dddf4bfd1"},"vehicle_type_id":"4","last_reported":1684908536,"current_range_meters":8800,"station_id":"ce4bhah2rcd13ifvqei0","pricing_plan_id":"free"},{"bike_id":"a9952965-61e6-4bba-9631-ae54b2ddd031","system_id":"levelo_inurba_marseille","lat":43.284534,"lon":5.358662,"is_reserved":false,"is_disabled":false,"rental_uris":{"android":"levelo://app?vid=a9952965-61e6-4bba-9631-ae54b2ddd031","ios":"levelo://app?vid=a9952965-61e6-4bba-9631-ae54b2ddd031"},"vehicle_type_id":"4","last_reported":1684908536,"current_range_meters":31200,"station_id":"ce4bhah2rcd13ifvqei0","pricing_plan_id":"free"},{"bike_id":"da5bad9a-7da4-44f5-b7cc-17e8365b3e35","system_id":"levelo_inurba_marseille","lat":43.284534,"lon":5.358662,"is_reserved":false,"is_disabled":false,"rental_uris":{"android":"levelo://app?vid=da5bad9a-7da4-44f5-b7cc-17e8365b3e35","ios":"levelo://app?vid=da5bad9a-7da4-44f5-b7cc-17e8365b3e35"},"vehicle_type_id":"4","last_reported":1684908536,"current_range_meters":14400,"station_id":"ce4bhah2rcd13ifvqei0","pricing_plan_id":"free"},{"bike_id":"b15ac710-d89a-47d0-89ad-51703bc79cd0","system_id":"levelo_inurba_marseille","lat":43.284534,"lon":5.358662,"is_reserved":false,"is_disabled":false,"rental_uris":{"android":"levelo://app?vid=b15ac710-d89a-47d0-89ad-51703bc79cd0","ios":"levelo://app?vid=b15ac710-d89a-47d0-89ad-51703bc79cd0"},"vehicle_type_id":"4","last_reported":1684908536,"current_range_meters":25600,"station_id":"ce4bhah2rcd13ifvqei0","pricing_plan_id":"free"},{"bike_id":"1919365d-fbbc-493a-b24e-5fd61202b101","system_id":"levelo_inurba_marseille","lat":43.284534,"lon":5.358662,"is_reserved":false,"is_disabled":false,"rental_uris":{"android":"levelo://app?vid=1919365d-fbbc-493a-b24e-5fd61202b101","ios":"levelo://app?vid=1919365d-fbbc-493a-b24e-5fd61202b101"},"vehicle_type_id":"4","last_reported":1684908536,"current_range_meters":30000,"station_id":"ce4bhah2rcd13ifvqei0","pricing_plan_id":"free"},{"bike_id":"3f2d1e4b-b301-45c2-8c99-be1bae6f5d82","system_id":"levelo_inurba_marseille","lat":43.284534,"lon":5.358662,"is_reserved":false,"is_disabled":false,"rental_uris":{"android":"levelo://app?vid=3f2d1e4b-b301-45c2-8c99-be1bae6f5d82","ios":"levelo://app?vid=3f2d1e4b-b301-45c2-8c99-be1bae6f5d82"},"vehicle_type_id":"4","last_reported":1684908536,"current_range_meters":16800,"station_id":"ce4bhah2rcd13ifvqei0","pricing_plan_id":"free"},{"bike_id":"a0c19ad0-e657-4cfd-a81b-2a096e6fac1b","system_id":"levelo_inurba_marseille","lat":43.28459,"lon":5.35895,"is_reserved":false,"is_disabled":false,"rental_uris":{"android":"levelo://app?vid=a0c19ad0-e657-4cfd-a81b-2a096e6fac1b","ios":"levelo://app?vid=a0c19ad0-e657-4cfd-a81b-2a096e6fac1b"},"vehicle_type_id":"4","last_reported":1684908536,"current_range_meters":9600,"station_id":"ce4bhah2rcd13ifvqei0","pricing_plan_id":"free"},{"bike_id":"246310d4-111c-466a-a242-a80b7e0325dd","system_id":"levelo_inurba_marseille","lat":43.284534,"lon":5.358662,"is_reserved":false,"is_disabled":false,"rental_uris":{"android":"levelo://app?vid=246310d4-111c-466a-a242-a80b7e0325dd","ios":"levelo://app?vid=246310d4-111c-466a-a242-a80b7e0325dd"},"vehicle_type_id":"4","last_reported":1684908536,"current_range_meters":24000,"station_id":"ce4bhah2rcd13ifvqei0","pricing_plan_id":"free"},{"bike_id":"e7f47499-2326-4757-bd1f-dbb6bd389aa8","system_id":"levelo_inurba_marseille","lat":43.284534,"lon":5.358662,"is_reserved":false,"is_disabled":false,"rental_uris":{"android":"levelo://app?vid=e7f47499-2326-4757-bd1f-dbb6bd389aa8","ios":"levelo://app?vid=e7f47499-2326-4757-bd1f-dbb6bd389aa8"},"vehicle_type_id":"4","last_reported":1684908536,"current_range_meters":31200,"station_id":"ce4bhah2rcd13ifvqei0","pricing_plan_id":"free"},{"bike_id":"4c2785e9-83b7-46c0-90a8-c9d272e8556e","system_id":"levelo_inurba_marseille","lat":43.284534,"lon":5.358662,"is_reserved":false,"is_disabled":false,"rental_uris":{"android":"levelo://app?vid=4c2785e9-83b7-46c0-90a8-c9d272e8556e","ios":"levelo://app?vid=4c2785e9-83b7-46c0-90a8-c9d272e8556e"},"vehicle_type_id":"4","last_reported":1684908536,"current_range_meters":12000,"station_id":"ce4bhah2rcd13ifvqei0","pricing_plan_id":"free"},{"bike_id":"54df7ffb-7202-4fdb-9eb4-4c01031807e2","system_id":"levelo_inurba_marseille","lat":43.284534,"lon":5.358662,"is_reserved":false,"is_disabled":false,"rental_uris":{"android":"levelo://app?vid=54df7ffb-7202-4fdb-9eb4-4c01031807e2","ios":"levelo://app?vid=54df7ffb-7202-4fdb-9eb4-4c01031807e2"},"vehicle_type_id":"4","last_reported":1684908536,"current_range_meters":19600,"station_id":"ce4bhah2rcd13ifvqei0","pricing_plan_id":"free"},{"bike_id":"52e63449-19af-4953-82bf-3cb0d1496a06","system_id":"levelo_inurba_marseille","lat":43.284534,"lon":5.358662,"is_reserved":false,"is_disabled":false,"rental_uris":{"android":"levelo://app?vid=52e63449-19af-4953-82bf-3cb0d1496a06","ios":"levelo://app?vid=52e63449-19af-4953-82bf-3cb0d1496a06"},"vehicle_type_id":"4","last_reported":1684908536,"current_range_meters":25600,"station_id":"ce4bhah2rcd13ifvqei0","pricing_plan_id":"free"},{"bike_id":"b30fecd7-0390-4300-8b2a-d8089641a0cc","system_id":"levelo_inurba_marseille","lat":43.284534,"lon":5.358662,"is_reserved":false,"is_disabled":false,"rental_uris":{"android":"levelo://app?vid=b30fecd7-0390-4300-8b2a-d8089641a0cc","ios":"levelo://app?vid=b30fecd7-0390-4300-8b2a-d8089641a0cc"},"vehicle_type_id":"4","last_reported":1684908536,"current_range_meters":18400,"station_id":"ce4bhah2rcd13ifvqei0","pricing_plan_id":"free"},{"bike_id":"3ab430b9-35e4-440a-9289-df17dedebaf0","system_id":"levelo_inurba_marseille","lat":43.284534,"lon":5.358662,"is_reserved":false,"is_disabled":false,"rental_uris":{"android":"levelo://app?vid=3ab430b9-35e4-440a-9289-df17dedebaf0","ios":"levelo://app?vid=3ab430b9-35e4-440a-9289-df17dedebaf0"},"vehicle_type_id":"4","last_reported":1684908536,"current_range_meters":24400,"station_id":"ce4bhah2rcd13ifvqei0","pricing_plan_id":"free"},{"bike_id":"1b95c390-f78b-4c4d-b02a-107b3d641731","system_id":"levelo_inurba_marseille","lat":43.28454,"lon":5.35887,"is_reserved":false,"is_disabled":false,"rental_uris":{"android":"levelo://app?vid=1b95c390-f78b-4c4d-b02a-107b3d641731","ios":"levelo://app?vid=1b95c390-f78b-4c4d-b02a-107b3d641731"},"vehicle_type_id":"4","last_reported":1684908536,"current_range_meters":18800,"station_id":"ce4bhah2rcd13ifvqei0","pricing_plan_id":"free"},{"bike_id":"dc3aa01a-32ea-46f1-a626-09613fbaaba5","system_id":"levelo_inurba_marseille","lat":43.285848,"lon":5.350787,"is_reserved":false,"is_disabled":false,"rental_uris":{"android":"levelo://app?vid=dc3aa01a-32ea-46f1-a626-09613fbaaba5","ios":"levelo://app?vid=dc3aa01a-32ea-46f1-a626-09613fbaaba5"},"vehicle_type_id":"4","last_reported":1684908536,"current_range_meters":26000,"station_id":"ce4bhch2rcd13ifvqeug","pricing_plan_id":"free"},{"bike_id":"c550d9ed-d1ba-4319-9132-9452267f20c0","system_id":"levelo_inurba_marseille","lat":43.285848,"lon":5.350787,"is_reserved":false,"is_disabled":false,"rental_uris":{"android":"levelo://app?vid=c550d9ed-d1ba-4319-9132-9452267f20c0","ios":"levelo://app?vid=c550d9ed-d1ba-4319-9132-9452267f20c0"},"vehicle_type_id":"4","last_reported":1684908536,"current_range_meters":12400,"station_id":"ce4bhch2rcd13ifvqeug","pricing_plan_id":"free"},{"bike_id":"d7cccc2e-b6ed-4197-b408-7c608ee4ccb8","system_id":"levelo_inurba_marseille","lat":43.28616,"lon":5.35099,"is_reserved":false,"is_disabled":false,"rental_uris":{"android":"levelo://app?vid=d7cccc2e-b6ed-4197-b408-7c608ee4ccb8","ios":"levelo://app?vid=d7cccc2e-b6ed-4197-b408-7c608ee4ccb8"},"vehicle_type_id":"4","last_reported":1684908536,"current_range_meters":2800,"station_id":"","pricing_plan_id":"free"},{"bike_id":"0a8bfebb-d6ae-411f-b8cb-90d16666c198","system_id":"levelo_inurba_marseille","lat":43.285856,"lon":5.350771,"is_reserved":false,"is_disabled":false,"rental_uris":{"android":"levelo://app?vid=0a8bfebb-d6ae-411f-b8cb-90d16666c198","ios":"levelo://app?vid=0a8bfebb-d6ae-411f-b8cb-90d16666c198"},"vehicle_type_id":"4","last_reported":1684908536,"current_range_meters":28400,"station_id":"ce4bhch2rcd13ifvqeug","pricing_plan_id":"free"},{"bike_id":"9a475211-e18d-4af5-935a-0783c9b577fb","system_id":"levelo_inurba_marseille","lat":43.28614,"lon":5.351,"is_reserved":false,"is_disabled":false,"rental_uris":{"android":"levelo://app?vid=9a475211-e18d-4af5-935a-0783c9b577fb","ios":"levelo://app?vid=9a475211-e18d-4af5-935a-0783c9b577fb"},"vehicle_type_id":"4","last_reported":1684908536,"current_range_meters":30400,"station_id":"","pricing_plan_id":"free"},{"bike_id":"94069156-d8f4-4823-9dcf-cd399286c2b0","system_id":"levelo_inurba_marseille","lat":43.295713,"lon":5.399639,"is_reserved":false,"is_disabled":false,"rental_uris":{"android":"levelo://app?vid=94069156-d8f4-4823-9dcf-cd399286c2b0","ios":"levelo://app?vid=94069156-d8f4-4823-9dcf-cd399286c2b0"},"vehicle_type_id":"4","last_reported":1684908536,"current_range_meters":20000,"station_id":"ce4bh312rcd13ifvqdj0","pricing_plan_id":"free"},