{"last_updated":1729350476,"ttl":60,"version":"2.2","data":{"bikes":[{"bike_id":"68435708-a13f-4344-a1fd-3882f718555a","system_id":"levelo_inurba_marseille","lat":43.24069,"lon":5.37773,"is_reserved":false,"is_disabled":false,"rental_uris":{"android":"levelo://app?vid=68435708-a13f-4344-a1fd-3882f718555a","ios":"levelo://app?vid=68435708-a13f-4344-a1fd-3882f718555a"},"vehicle_type_id":"4","last_reported":1729350476,"current_range_meters":18000,"station_id":"ce4bhnp2rcd13ifvqgvg","pricing_plan_id":"cebpf4jnsgd1na2vs0mg"},{"bike_id":"28693a9a-4391-486e-bcd9-606650562166","system_id":"levelo_inurba_marseille","lat":43.30555,"lon":5.36546,"is_reserved":false,"is_disabled":false,"rental_uris":{"android":"levelo://app?vid=28693a9a-4391-486e-bcd9-606650562166","ios":"levelo://app?vid=28693a9a-4391-486e-bcd9-606650562166"},"vehicle_type_id":"4","last_reported":1729350476,"current_range_meters":20400,"station_id":"ce4bgs12rcd13ifvqcag","pricing_plan_id":"cebpf4jnsgd1na2vs0mg"},{"bike_id":"18810235-7f3d-4980-b16d-08ee21a62adb","system_id":"levelo_inurba_marseille","lat":43.28466,"lon":5.35893,"is_reserved":false,"is_disabled":false,"rental_uris":{"android":"levelo://app?vid=18810235-7f3d-4980-b16d-08ee21a62adb","ios":"levelo://app?vid=18810235-7f3d-4980-b16d-08ee21a62adb"},"vehicle_type_id":"4","last_reported":1729350476,"current_range_meters":34000,"station_id":"ce4bhah2rcd13ifvqei0","pricing_plan_id":"cebpf4jnsgd1na2vs0mg"},{"bike_id":"8ee161dc-2b80-4fd9-80de-203c63ce29db","system_id":"levelo_inurba_marseille","lat":43.27373,"lon":5.3626,"is_reserved":false,"is_disabled":false,"rental_uris":{"android":"levelo://app?vid=8ee161dc-2b80-4fd9-80de-203c63ce29db","ios":"levelo://app?vid=8ee161dc-2b80-4fd9-80de-203c63ce29db"},"vehicle_type_id":"4","last_reported":1729350476,"current_range_meters":3600,"station_id":"ce4bhbh2rcd13ifvqeo0","pricing_plan_id":"cebpf4jnsgd1na2vs0mg"},{"bike_id":"193182d2-ef33-4263-a827-6e09ea63385f","system_id":"levelo_inurba_marseille","lat":43.31757,"lon":5.39011,"is_reserved":false,"is_disabled":false,"rental_uris":{"android":"levelo://app?vid=193182d2-ef33-4263-a827-6e09ea63385f","ios":"levelo://app?vid=193182d2-ef33-4263-a827-6e09ea63385f"},"vehicle_type_id":"4","last_reported":1729350476,"current_range_meters":12400,"station_id":"ce4bhqp2rcd13ifvqhng","pricing_plan_id":"cebpf4jnsgd1na2vs0mg"},{"bike_id":"7f71d05f-54a2-4790-8afd-cf4a14f9f4ce","system_id":"levelo_inurba_marseille","lat":43.29302,"lon":5.37441,"is_reserved":false,"is_disabled":false,"rental_uris":{"android":"levelo://app?vid=7f71d05f-54a2-4790-8afd-cf4a14f9f4ce","ios":"levelo://app?vid=7f71d05f-54a2-4790-8afd-cf4a14f9f4ce"},"vehicle_type_id":"4","last_reported":1729350476,"current_range_meters":35600,"station_id":"ce4bgi12rcd13ifvqb70","pricing_plan_id":"cebpf4jnsgd1na2vs0mg"},{"bike_id":"e0879c3f-10eb-4d3b-8053-605cb1c6310c","system_id":"levelo_inurba_marseille","lat":43.26068,"lon":5.39395,"is_reserved":false,"is_disabled":false,"rental_uris":{"android":"levelo://app?vid=e0879c3f-10eb-4d3b-8053-605cb1c6310c","ios":"levelo://app?vid=e0879c3f-10eb-4d3b-8053-605cb1c6310c"},"vehicle_type_id":"4","last_reported":1729350476,"current_range_meters":26000,"station_id":"ce4bhh92rcd13ifvqfj0","pricing_plan_id":"cebpf4jnsgd1na2vs0mg"},{"bike_id":"bee48dfc-1060-450a-af22-95cfbc611275","system_id":"levelo_inurba_marseille","lat":43.28265,"lon":5.35076,"is_reserved":false,"is_disabled":false,"rental_uris":{"android":"levelo://app?vid=bee48dfc-1060-450a-af22-95cfbc611275","ios":"levelo://app?vid=bee48dfc-1060-450a-af22-95cfbc611275"},"vehicle_type_id":"4","last_reported":1729350476,"current_range_meters":2000,"station_id":"ce4bhbp2rcd13ifvqerg","pricing_plan_id":"cebpf4jnsgd1na2vs0mg"},{"bike_id":"6d2f7ec0-0224-420c-8702-10c8019313e6","system_id":"levelo_inurba_marseille","lat":43.29257,"lon":5.38434,"is_reserved":false,"is_disabled":false,"rental_uris":{"android":"levelo://app?vid=6d2f7ec0-0224-420c-8702-10c8019313e6","ios":"levelo://app?vid=6d2f7ec0-0224-420c-8702-10c8019313e6"},"vehicle_type_id":"4","last_reported":1729350476,"current_range_meters":36000,"station_id":"","pricing_plan_id":"cebpf4jnsgd1na2vs0mg"},{"bike_id":"317d7818-96ed-4b00-a33f-364ecbb090a9","system_id":"levelo_inurba_marseille","lat":43.29845,"lon":5.36269,"is_reserved":false,"is_disabled":false,"rental_uris":{"android":"levelo://app?vid=317d7818-96ed-4b00-a33f-364ecbb090a9","ios":"levelo://app?vid=317d7818-96ed-4b00-a33f-364ecbb090a9"},"vehicle_type_id":"4","last_reported":1729350476,"current_range_meters":35600,"station_id":"ce4bgpp2rcd13ifvqc3g","pricing_plan_id":"cebpf4jnsgd1na2vs0mg"},{"bike_id":"c6c79552-aca8-47eb-9108-1a52318586f9","system_id":"levelo_inurba_marseille","lat":43.28642,"lon":5.35136,"is_reserved":false,"is_disabled":false,"rental_uris":{"android":"levelo://app?vid=c6c79552-aca8-47eb-9108-1a52318586f9","ios":"levelo://app?vid=c6c79552-aca8-47eb-9108-1a52318586f9"},"vehicle_type_id":"4","last_reported":1729350476,"current_range_meters":34800,"station_id":"","pricing_plan_id":"cebpf4jnsgd1na2vs0mg"},{"bike_id":"61a04cb9-be4f-4cf5-b789-0758f7c54444","system_id":"levelo_inurba_marseille","lat":43.23191,"lon":5.35559,"is_reserved":false,"is_disabled":false,"rental_uris":{"android":"levelo://app?vid=61a04cb9-be4f-4cf5-b789-0758f7c54444","ios":"levelo://app?vid=61a04cb9-be4f-4cf5-b789-0758f7c54444"},"vehicle_type_id":"4","last_reported":1729350476,"current_range_meters":18800,"station_id":"ce4bhu92rcd13ifvqi70","pricing_plan_id":"cebpf4jnsgd1na2vs0mg"},{"bike_id":"fc6f718c-7c20-497f-a6a3-dbb0e85c06e3","system_id":"levelo_inurba_marseille","lat":43.30604,"lon":5.37221,"is_reserved":false,"is_disabled":false,"rental_uris":{"android":"levelo://app?vid=fc6f718c-7c20-497f-a6a3-dbb0e85c06e3","ios":"levelo://app?vid=fc6f718c-7c20-497f-a6a3-dbb0e85c06e3"},"vehicle_type_id":"4","last_reported":1729350476,"current_range_meters":20000,"station_id":"ce4bgqh2rcd13ifvqc4g","pricing_plan_id":"cebpf4jnsgd1na2vs0mg"},{"bike_id":"409264d0-1441-4f4a-8a2d-fcd2e2ae9281","system_id":"levelo_inurba_marseille","lat":43.28155,"lon":5.42645,"is_reserved":false,"is_disabled":false,"rental_uris":{"android":"levelo://app?vid=409264d0-1441-4f4a-8a2d-fcd2e2ae9281","ios":"levelo://app?vid=409264d0-1441-4f4a-8a2d-fcd2e2ae9281"},"vehicle_type_id":"4","last_reported":1729350476,"current_range_meters":37600,"station_id":"ce4bhnh2rcd13ifvqgug","pricing_plan_id":"cebpf4jnsgd1na2vs0mg"},{"bike_id":"d010bf09-451b-44ba-8c78-34493d6c85f0","system_id":"levelo_inurba_marseille","lat":43.29854,"lon":5.3629,"is_reserved":false,"is_disabled":false,"rental_uris":{"android":"levelo://app?vid=d010bf09-451b-44ba-8c78-34493d6c85f0","ios":"levelo://app?vid=d010bf09-451b-44ba-8c78-34493d6c85f0"},"vehicle_type_id":"4","last_reported":1729350476,"current_range_meters":38800,"station_id":"ce4bgpp2rcd13ifvqc3g","pricing_plan_id":"cebpf4jnsgd1na2vs0mg"},{"bike_id":"c746da30-0175-4c63-8cc4-f4d0284e8127","system_id":"levelo_inurba_marseille","lat":43.23971,"lon":5.36635,"is_reserved":false,"is_disabled":false,"rental_uris":{"android":"levelo://app?vid=c746da30-0175-4c63-8cc4-f4d0284e8127","ios":"levelo://app?vid=c746da30-0175-4c63-8cc4-f4d0284e8127"},"vehicle_type_id":"4","last_reported":1729350476,"current_range_meters":16000,"station_id":"ce4bhi12rcd13ifvqfp0","pricing_plan_id":"cebpf4jnsgd1na2vs0mg"},{"bike_id":"71d2aa6f-8c98-4435-9517-864401b9450f","system_id":"levelo_inurba_marseille","lat":43.3204,"lon":5.41557,"is_reserved":false,"is_disabled":false,"rental_uris":{"android":"levelo://app?vid=71d2aa6f-8c98-4435-9517-864401b9450f","ios":"levelo://app?vid=71d2aa6f-8c98-4435-9517-864401b9450f"},"vehicle_type_id":"4","last_reported":1729350476,"current_range_meters":24400,"station_id":"ce4bhq92rcd13ifvqhkg","pricing_plan_id":"cebpf4jnsgd1na2vs0mg"},{"bike_id":"8e3f5ddd-fc36-4bc3-bc6f-3d48e6ae0140","system_id":"levelo_inurba_marseille","lat":43.28269,"lon":5.35067,"is_reserved":false,"is_disabled":false,"rental_uris":{"android":"levelo://app?vid=8e3f5ddd-fc36-4bc3-bc6f-3d48e6ae0140","ios":"levelo://app?vid=8e3f5ddd-fc36-4bc3-bc6f-3d48e6ae0140"},"vehicle_type_id":"4","last_reported":1729350476,"current_range_meters":16400,"station_id":"ce4bhbp2rcd13ifvqerg","pricing_plan_id":"cebpf4jnsgd1na2vs0mg"},{"bike_id":"d0572c30-13bf-4746-a29b-111549056bfa","system_id":"levelo_inurba_marseille","lat":43.25939,"lon":5.40908,"is_reserved":false,"is_disabled":false,"rental_uris":{"android":"levelo://app?vid=d0572c30-13bf-4746-a29b-111549056bfa","ios":"levelo://app?vid=d0572c30-13bf-4746-a29b-111549056bfa"},"vehicle_type_id":"4","last_reported":1729350476,"current_range_meters":12000,"station_id":"ce4bhm92rcd13ifvqglg","pricing_plan_id":"cebpf4jnsgd1na2vs0mg"},{"bike_id":"7588a213-e3b8-4965-979e-d6dddfac1da4","system_id":"levelo_inurba_marseille","lat":43.22934,"lon":5.35382,"is_reserved":false,"is_disabled":false,"rental_uris":{"android":"levelo://app?vid=7588a213-e3b8-4965-979e-d6dddfac1da4","ios":"levelo://app?vid=7588a213-e3b8-4965-979e-d6dddfac1da4"},"vehicle_type_id":"4","last_reported":1729350476,"current_range_meters":4000,"station_id":"cpo3532slgdg3j2ikp40","pricing_plan_id":"cebpf4jnsgd1na2vs0mg"},{"bike_id":"fc6e513b-da81-4d34-a427-493e42edd768","system_id":"levelo_inurba_marseille","lat":43.29535,"lon":5.39247,"is_reserved":false,"is_disabled":false,"rental_uris":{"android":"levelo://app?vid=fc6e513b-da81-4d34-a427-493e42edd768","ios":"levelo://app?vid=fc6e513b-da81-4d34-a427-493e42edd768"},"vehicle_type_id":"4","last_reported":1729350476,"current_range_meters":21600,"station_id":"","pricing_plan_id":"cebpf4jnsgd1na2vs0mg"},{"bike_id":"ac231a2e-1def-435c-8990-198f2e08ac8d","system_id":"levelo_inurba_marseille","lat":43.23061,"lon":5.35492,"is_reserved":false,"is_disabled":false,"rental_uris":{"android":"levelo://app?vid=ac231a2e-1def-435c-8990-198f2e08ac8d","ios":"levelo://app?vid=ac231a2e-1def-435c-8990-198f2e08ac8d"},"vehicle_type_id":"4","last_reported":1729350476,"current_range_meters":12800,"station_id":"cpo3342slgdg3j2ifvpg","pricing_plan_id":"cebpf4jnsgd1na2vs0mg"},{"bike_id":"9e40451b-4438-465c-a4a1-83fc98f61d63","system_id":"levelo_inurba_marseille","lat":43.30949,"lon":5.39039,"is_reserved":false,"is_disabled":false,"rental_uris":{"android":"levelo://app?vid=9e40451b-4438-465c-a4a1-83fc98f61d63","ios":"levelo://app?vid=9e40451b-4438-465c-a4a1-83fc98f61d63"},"vehicle_type_id":"4","last_reported":1729350476,"current_range_meters":18800,"station_id":"ce4bgup2rcd13ifvqco0","pricing_plan_id":"cebpf4jnsgd1na2vs0mg"},{"bike_id":"ecb85f99-17b9-4bf1-829c-0f61a2cf1ee6","system_id":"levelo_inurba_marseille","lat":43.27976,"lon":5.41677,"is_reserved":false,"is_disabled":false,"rental_uris":{"android":"levelo://app?vid=ecb85f99-17b9-4bf1-829c-0f61a2cf1ee6","ios":"levelo://app?vid=ecb85f99-17b9-4bf1-829c-0f61a2cf1ee6"},"vehicle_type_id":"4","last_reported":1729350476,"current_range_meters":16000,"station_id":"ce4bho12rcd13ifvqh1g","pricing_plan_id":"cebpf4jnsgd1na2vs0mg"},{"bike_id":"f30e5bb2-e070-4b31-8b6f-805306d443a1","system_id":"levelo_inurba_marseille","lat":43.24074,"lon":5.3776,"is_reserved":false,"is_disabled":false,"rental_uris":{"android":"levelo://app?vid=f30e5bb2-e070-4b31-8b6f-805306d443a1","ios":"levelo://app?vid=f30e5bb2-e070-4b31-8b6f-805306d443a1"},"vehicle_type_id":"4","last_reported":1729350476,"current_range_meters":38800,"station_id":"ce4bhnp2rcd13ifvqgvg","pricing_plan_id":"cebpf4jnsgd1na2vs0mg"},{"bike_id":"57dd0012-e7c2-43e3-90a1-087125ac63fa","system_id":"levelo_inurba_marseille","lat":43.33759,"lon":5.37474,"is_reserved":false,"is_disabled":false,"rental_uris":{"android":"levelo://app?vid=57dd0012-e7c2-43e3-90a1-087125ac63fa","ios":"levelo://app?vid=57dd0012-e7c2-43e3-90a1-087125ac63fa"},"vehicle_type_id":"4","last_reported":1729350476,"current_range_meters":37600,"station_id":"","pricing_plan_id":"cebpf4jnsgd1na2vs0mg"},{"bike_id":"86c87b32-efcf-404c-8c0e-f58a95806b94","system_id":"levelo_inurba_marseille","lat":43.26589,"lon":5.39149,"is_reserved":false,"is_disabled":false,"rental_uris":{"android":"levelo://app?vid=86c87b32-efcf-404c-8c0e-f58a95806b94","ios":"levelo://app?vid=86c87b32-efcf-404c-8c0e-f58a95806b94"},"vehicle_type_id":"4","last_reported":1729350476,"current_range_meters":28000,"station_id":"ce4bhe12rcd13ifvqf30","pricing_plan_id":"cebpf4jnsgd1na2vs0mg"},{"bike_id":"a7551cd3-eeb0-4b46-9496-737020a18aeb","system_id":"levelo_inurba_marseille","lat":43.28273,"lon":5.35075,"is_reserved":false,"is_disabled":false,"rental_uris":{"android":"levelo://app?vid=a7551cd3-eeb0-4b46-9496-737020a18aeb","ios":"levelo://app?vid=a7551cd3-eeb0-4b46-9496-737020a18aeb"},"vehicle_type_id":"4","last_reported":1729350476,"current_range_meters":37600,"station_id":"ce4bhbp2rcd13ifvqerg","pricing_plan_id":"cebpf4jnsgd1na2vs0mg"},{"bike_id":"9755f4e0-8354-4cd2-a672-0e5c29ec1e3f","system_id":"levelo_inurba_marseille","lat":43.22935,"lon":5.35384,"is_reserved":false,"is_disabled":false,"rental_uris":{"android":"levelo://app?vid=9755f4e0-8354-4cd2-a672-0e5c29ec1e3f","ios":"levelo://app?vid=9755f4e0-8354-4cd2-a672-0e5c29ec1e3f"},"vehicle_type_id":"4","last_reported":1729350476,"current_range_meters":36800,"station_id":"cpo3532slgdg3j2ikp40","pricing_plan_id":"cebpf4jnsgd1na2vs0mg"},{"bike_id":"e9cac722-cb5a-4d38-9492-8cf828e387a3","system_id":"levelo_inurba_marseille","lat":43.23192,"lon":5.39996,"is_reserved":false,"is_disabled":false,"rental_uris":{"android":"levelo://app?vid=e9cac722-cb5a-4d38-9492-8cf828e387a3","ios":"levelo://app?vid=e9cac722-cb5a-4d38-9492-8cf828e387a3"},"vehicle_type_id":"4","last_reported":1729350476,"current_range_meters":3200,"station_id":"ce4bhn12rcd13ifvqgqg","pricing_plan_id":"cebpf4jnsgd1na2vs0mg"},{"bike_id":"3d7546d0-4dba-4212-88c9-dfe9a2032237","system_id":"levelo_inurba_marseille","lat":43.24168,"lon":5.36393,"is_reserved":false,"is_disabled":false,"rental_uris":{"android":"levelo://app?vid=3d7546d0-4dba-4212-88c9-dfe9a2032237","ios":"levelo://app?vid=3d7546d0-4dba-4212-88c9-dfe9a2032237"},"vehicle_type_id":"4","last_reported":1729350476,"current_range_meters":33200,"station_id":"cpo36qri1sfpv3e86is0","pricing_plan_id":"cebpf4jnsgd1na2vs0mg"},{"bike_id":"8b10c252-b32b-40ef-b8da-9d1c9158f577","system_id":"levelo_inurba_marseille","lat":43.26033,"lon":5.37549,"is_reserved":false,"is_disabled":false,"rental_uris":{"android":"levelo://app?vid=8b10c252-b32b-40ef-b8da-9d1c9158f577","ios":"levelo://app?vid=8b10c252-b32b-40ef-b8da-9d1c9158f577"},"vehicle_type_id":"4","last_reported":1729350476,"current_range_meters":38400,"station_id":"ce4bhgh2rcd13ifvqfa0","pricing_plan_id":"cebpf4jnsgd1na2vs0mg"},{"bike_id":"32ce68a3-3fc7-4257-974f-ab657619c295","system_id":"levelo_inurba_marseille","lat":43.33747,"lon":5.37457,"is_reserved":false,"is_disabled":false,"rental_uris":{"android":"levelo://app?vid=32ce68a3-3fc7-4257-974f-ab657619c295","ios":"levelo://app?vid=32ce68a3-3fc7-4257-974f-ab657619c295"},"vehicle_type_id":"4","last_reported":1729350476,"current_range_meters":4000,"station_id":"","pricing_plan_id":"cebpf4jnsgd1na2vs0mg"},{"bike_id":"39b8704f-7022-4cf3-a208-6a0097cd7c23","system_id":"levelo_inurba_marseille","lat":43.28421,"lon":5.3498,"is_reserved":false,"is_disabled":false,"rental_uris":{"android":"levelo://app?vid=39b8704f-7022-4cf3-a208-6a0097cd7c23","ios":"levelo://app?vid=39b8704f-7022-4cf3-a208-6a0097cd7c23"},"vehicle_type_id":"4","last_reported":1729350476,"current_range_meters":2000,"station_id":"ce4bhbh2rcd13ifvqepg","pricing_plan_id":"cebpf4jnsgd1na2vs0mg"},{"bike_id":"b3b8938b-4687-4cca-b4d9-3fee8073bed6","system_id":"levelo_inurba_marseille","lat":43.24808,"lon":5.37455,"is_reserved":false,"is_disabled":false,"rental_uris":{"android":"levelo://app?vid=b3b8938b-4687-4cca-b4d9-3fee8073bed6","ios":"levelo://app?vid=b3b8938b-4687-4cca-b4d9-3fee8073bed6"},"vehicle_type_id":"4","last_reported":1729350476,"current_range_meters":6400,"station_id":"ce4bhgh2rcd13ifvqfb0","pricing_plan_id":"cebpf4jnsgd1na2vs0mg"},{"bike_id":"319e285c-82b5-439b-a7b4-0550bf15a6bf","system_id":"levelo_inurba_marseille","lat":43.24995,"lon":5.38937,"is_reserved":false,"is_disabled":false,"rental_uris":{"android":"levelo://app?vid=319e285c-82b5-439b-a7b4-0550bf15a6bf","ios":"levelo://app?vid=319e285c-82b5-439b-a7b4-0550bf15a6bf"},"vehicle_type_id":"4","last_reported":1729350476,"current_range_meters":26800,"station_id":"ce4bhgp2rcd13ifvqfd0","pricing_plan_id":"cebpf4jnsgd1na2vs0mg"},{"bike_id":"9fd98e94-e795-4ae5-ba8f-8e26efc1e22c","system_id":"levelo_inurba_marseille","lat":43.27496,"lon":5.42447,"is_reserved":false,"is_disabled":false,"rental_uris":{"android":"levelo://app?vid=9fd98e94-e795-4ae5-ba8f-8e26efc1e22c","ios":"levelo://app?vid=9fd98e94-e795-4ae5-ba8f-8e26efc1e22c"},"vehicle_type_id":"4","last_reported":1729350476,"current_range_meters":38800,"station_id":"ce4bhn92rcd13ifvqgrg","pricing_plan_id":"cebpf4jnsgd1na2vs0mg"},{"bike_id":"87d621be-0e7d-47fc-97a5-02572f9eed90","system_id":"levelo_inurba_marseille","lat":43.25582,"lon":5.38234,"is_reserved":false,"is_disabled":false,"rental_uris":{"android":"levelo://app?vid=87d621be-0e7d-47fc-97a5-02572f9eed90","ios":"levelo://app?vid=87d621be-0e7d-47fc-97a5-02572f9eed90"},"vehicle_type_id":"4","last_reported":1729350476,"current_range_meters":15200,"station_id":"ce4bhih2rcd13ifvqfs0","pricing_plan_id":"cebpf4jnsgd1na2vs0mg"},{"bike_id":"6612700d-9d9a-43e3-9c35-a004e8f5cca2","system_id":"levelo_inurba_marseille","lat":43.28276,"lon":5.35072,"is_reserved":false,"is_disabled":false,"rental_uris":{"android":"levelo://app?vid=6612700d-9d9a-43e3-9c35-a004e8f5cca2","ios":"levelo://app?vid=6612700d-9d9a-43e3-9c35-a004e8f5cca2"},"vehicle_type_id":"4","last_reported":1729350476,"current_range_meters":14800,"station_id":"ce4bhbp2rcd13ifvqerg","pricing_plan_id":"cebpf4jnsgd1na2vs0mg"},{"bike_id":"5ad45944-f1a9-4659-baa9-60cfd8843656","system_id":"levelo_inurba_marseille","lat":43.23198,"lon":5.35559,"is_reserved":false,"is_disabled":false,"rental_uris":{"android":"levelo://app?vid=5ad45944-f1a9-4659-baa9-60cfd8843656","ios":"levelo://app?vid=5ad45944-f1a9-4659-baa9-60cfd8843656"},"vehicle_type_id":"4","last_reported":1729350476,"current_range_meters":6400,"station_id":"ce4bhu92rcd13ifvqi70","pricing_plan_id":"cebpf4jnsgd1na2vs0mg"},{"bike_id":"724cb0ba-2254-4341-8e0a-2b08d7d9235f","system_id":"levelo_inurba_marseille","lat":43.23193,"lon":5.39982,"is_reserved":false,"is_disabled":false,"rental_uris":{"android":"levelo://app?vid=724cb0ba-2254-4341-8e0a-2b08d7d9235f","ios":"levelo://app?vid=724cb0ba-2254-4341-8e0a-2b08d7d9235f"},"vehicle_type_id":"4","last_reported":1729350476,"current_range_meters":2000,"station_id":"ce4bhn12rcd13ifvqgqg","pricing_plan_id":"cebpf4jnsgd1na2vs0mg"},{"bike_id":"bc5c602d-04be-4835-8b59-db6148bc88d9","system_id":"levelo_inurba_marseille","lat":43.32485,"lon":5.36591,"is_reserved":false,"is_disabled":false,"rental_uris":{"android":"levelo://app?vid=bc5c602d-04be-4835-8b59-db6148bc88d9","ios":"levelo://app?vid=bc5c602d-04be-4835-8b59-db6148bc88d9"},"vehicle_type_id":"4","last_reported":1729350476,"current_range_meters":36000,"station_id":"ce4bhs12rcd13ifvqhvg","pricing_plan_id":"cebpf4jnsgd1na2vs0mg"},{"bike_id":"2d40e799-a4b3-41e2-aeac-767fc04c52fe","system_id":"levelo_inurba_marseille","lat":43.28002,"lon":5.41668,"is_reserved":false,"is_disabled":false,"rental_uris":{"android":"levelo://app?vid=2d40e799-a4b3-41e2-aeac-767fc04c52fe","ios":"levelo://app?vid=2d40e799-a4b3-41e2-aeac-767fc04c52fe"},"vehicle_type_id":"4","last_reported":1729350476,"current_range_meters":6800,"station_id":"ce4bho12rcd13ifvqh1g","pricing_plan_id":"cebpf4jnsgd1na2vs0mg"},{"bike_id":"cfe78fd2-5ebc-40fb-858b-89aa9fc29771","system_id":"levelo_inurba_marseille","lat":43.29412,"lon":5.37799,"is_reserved":false,"is_disabled":false,"rental_uris":{"android":"levelo://app?vid=cfe78fd2-5ebc-40fb-858b-89aa9fc29771","ios":"levelo://app?vid=cfe78fd2-5ebc-40fb-858b-89aa9fc29771"},"vehicle_type_id":"4","last_reported":1729350476,"current_range_meters":19200,"station_id":"","pricing_plan_id":"cebpf4jnsgd1na2vs0mg"},{"bike_id":"d5eb2875-166c-45a5-bf85-f91d7c67f161","system_id":"levelo_inurba_marseille","lat":43.28415,"lon":5.34977,"is_reserved":false,"is_disabled":false,"rental_uris":{"android":"levelo://app?vid=d5eb2875-166c-45a5-bf85-f91d7c67f161","ios":"levelo://app?vid=d5eb2875-166c-45a5-bf85-f91d7c67f161"},"vehicle_type_id":"4","last_reported":1729350476,"current_range_meters":19200,"station_id":"ce4bhbh2rcd13ifvqepg","pricing_plan_id":"cebpf4jnsgd1na2vs0mg"},{"bike_id":"fce56a43-24a2-46c2-b63b-01add27b8ab6","system_id":"levelo_inurba_marseille","lat":43.265,"lon":5.38033,"is_reserved":false,"is_disabled":false,"rental_uris":{"android":"levelo://app?vid=fce56a43-24a2-46c2-b63b-01add27b8ab6","ios":"levelo://app?vid=fce56a43-24a2-46c2-b63b-01add27b8ab6"},"vehicle_type_id":"4","last_reported":1729350476,"current_range_meters":33600,"station_id":"","pricing_plan_id":"cebpf4jnsgd1na2vs0mg"},{"bike_id":"3b539b95-4118-4a64-9102-60cfaf6ad6d7","system_id":"levelo_inurba_marseille","lat":43.26187,"lon":5.37454,"is_reserved":false,"is_disabled":false,"rental_uris":{"android":"levelo://app?vid=3b539b95-4118-4a64-9102-60cfaf6ad6d7","ios":"levelo://app?vid=3b539b95-4118-4a64-9102-60cfaf6ad6d7"},"vehicle_type_id":"4","last_reported":1729350476,"current_range_meters":24000,"station_id":"ce4bhgp2rcd13ifvqfc0","pricing_plan_id":"cebpf4jnsgd1na2vs0mg"},{"bike_id":"cc200779-b0ab-472e-8e4c-a492949d5888","system_id":"levelo_inurba_marseille","lat":43.28152,"lon":5.42647,"is_reserved":false,"is_disabled":false,"rental_uris":{"android":"levelo://app?vid=cc200779-b0ab-472e-8e4c-a492949d5888","ios":"levelo://app?vid=cc200779-b0ab-472e-8e4c-a492949d5888"},"vehicle_type_id":"4","last_reported":1729350476,"current_range_meters":15200,"station_id":"ce4bhnh2rcd13ifvqgug","pricing_plan_id":"cebpf4jnsgd1na2vs0mg"},{"bike_id":"48e15ccf-fc80-4ec9-862b-f7c974042319","system_id":"levelo_inurba_marseille","lat":43.30947,"lon":5.39022,"is_reserved":false,"is_disabled":false,"rental_uris":{"android":"levelo://app?vid=48e15ccf-fc80-4ec9-862b-f7c974042319","ios":"levelo://app?vid=48e15ccf-fc80-4ec9-862b-f7c974042319"},"vehicle_type_id":"4","last_reported":1729350476,"current_range_meters":36800,"station_id":"ce4bgup2rcd13ifvqco0","pricing_plan_id":"cebpf4jnsgd1na2vs0mg"},{"bike_id":"22d4bb12-d9cb-4524-8b56-432c4e684dc2","system_id":"levelo_inurba_marseille","lat":43.24082,"lon":5.37761,"is_reserved":false,"is_disabled":false,"rental_uris":{"android":"levelo://app?vid=22d4bb12-d9cb-4524-8b56-432c4e684dc2","ios":"levelo://app?vid=22d4bb12-d9cb-4524-8b56-432c4e684dc2"},"vehicle_type_id":"4","last_reported":1729350476,"current_range_meters":26000,"station_id":"ce4bhnp2rcd13ifvqgvg","pricing_plan_id":"cebpf4jnsgd1na2vs0mg"},{"bike_id":"24e3df0d-bab1-4577-bfb8-ad7f556e8167","system_id":"levelo_inurba_marseille","lat":43.28617,"lon":5.38475,"is_reserved":false,"is_disabled":false,"rental_uris":{"android":"levelo://app?vid=24e3df0d-bab1-4577-bfb8-ad7f556e8167","ios":"levelo://app?vid=24e3df0d-bab1-4577-bfb8-ad7f556e8167"},"vehicle_type_id":"4","last_reported":1729350476,"current_range_meters":3600,"station_id":"ce4bgup2rcd13ifvqco0","pricing_plan_id":"cebpf4jnsgd1na2vs0mg"},{"bike_id":"b8aad1f1-cd6d-43fa-9fea-c98f609f5f77","system_id":"levelo_inurba_marseille","lat":43.33765,"lon":5.37438,"is_reserved":false,"is_disabled":false,"rental_uris":{"android":"levelo://app?vid=b8aad1f1-cd6d-43fa-9fea-c98f609f5f77","ios":"levelo://app?vid=b8aad1f1-cd6d-43fa-9fea-c98f609f5f77"},"vehicle_type_id":"4","last_reported":1729350476,"current_range_meters":36400,"station_id":"","pricing_plan_id":"cebpf4jnsgd1na2vs0mg"},{"bike_id":"371edf8d-7625-48e0-822c-18592ed2a018","system_id":"levelo_inurba_marseille","lat":43.23196,"lon":5.35551,"is_reserved":false,"is_disabled":false,"rental_uris":{"android":"levelo://app?vid=371edf8d-7625-48e0-822c-18592ed2a018","ios":"levelo://app?vid=371edf8d-7625-48e0-822c-18592ed2a018"},"vehicle_type_id":"4","last_reported":1729350476,"current_range_meters":2000,"station_id":"ce4bhu92rcd13ifvqi70","pricing_plan_id":"cebpf4jnsgd1na2vs0mg"},{"bike_id":"c5c770ea-6071-4f74-9c9c-bfb848f892bd","system_id":"levelo_inurba_marseille","lat":43.2841,"lon":5.3752,"is_reserved":false,"is_disabled":false,"rental_uris":{"android":"levelo://app?vid=c5c770ea-6071-4f74-9c9c-bfb848f892bd","ios":"levelo://app?vid=c5c770ea-6071-4f74-9c9c-bfb848f892bd"},"vehicle_type_id":"4","last_reported":1729350476,"current_range_meters":4800,"station_id":"ce4bh412rcd13ifvqds0","pricing_plan_id":"cebpf4jnsgd1na2vs0mg"},{"bike_id":"47b0677d-f1ea-44b9-ad27-95f55e4f3816","system_id":"levelo_inurba_marseille","lat":43.23959,"lon":5.36635,"is_reserved":false,"is_disabled":false,"rental_uris":{"android":"levelo://app?vid=47b0677d-f1ea-44b9-ad27-95f55e4f3816","ios":"levelo://app?vid=47b0677d-f1ea-44b9-ad27-95f55e4f3816"},"vehicle_type_id":"4","last_reported":1729350476,"current_range_meters":38800,"station_id":"ce4bhi12rcd13ifvqfp0","pricing_plan_id":"cebpf4jnsgd1na2vs0mg"},{"bike_id":"fb1ff2bc-71b4-435f-b61a-68f4d51d5a35","system_id":"levelo_inurba_marseille","lat":43.24166,"lon":5.36388,"is_reserved":false,"is_disabled":false,"rental_uris":{"android":"levelo://app?vid=fb1ff2bc-71b4-435f-b61a-68f4d51d5a35","ios":"levelo://app?vid=fb1ff2bc-71b4-435f-b61a-68f4d51d5a35"},"vehicle_type_id":"4","last_reported":1729350476,"current_range_meters":24800,"station_id":"cpo36qri1sfpv3e86is0","pricing_plan_id":"cebpf4jnsgd1na2vs0mg"},{"bike_id":"b6330585-dddc-4cc9-adf4-816fe9ab609f","system_id":"levelo_inurba_marseille","lat":43.23191,"lon":5.39982,"is_reserved":false,"is_disabled":false,"rental_uris":{"android":"levelo://app?vid=b6330585-dddc-4cc9-adf4-816fe9ab609f","ios":"levelo://app?vid=b6330585-dddc-4cc9-adf4-816fe9ab609f"},"vehicle_type_id":"4","last_reported":1729350476,"current_range_meters":16000,"station_id":"ce4bhn12rcd13ifvqgqg","pricing_plan_id":"cebpf4jnsgd1na2vs0mg"},{"bike_id":"a83fa8fc-1a16-4d64-90f0-b4a719003e81","system_id":"levelo_inurba_marseille","lat":43.2901,"lon":5.35617,"is_reserved":false,"is_disabled":false,"rental_uris":{"android":"levelo://app?vid=a83fa8fc-1a16-4d64-90f0-b4a719003e81","ios":"levelo://app?vid=a83fa8fc-1a16-4d64-90f0-b4a719003e81"},"vehicle_type_id":"4","last_reported":1729350476,"current_range_meters":8400,"station_id":"ce4bhb92rcd13ifvqen0","pricing_plan_id":"cebpf4jnsgd1na2vs0mg"},{"bike_id":"907d90e2-7e08-4846-bbc2-01977b54a9bd","system_id":"levelo_inurba_marseille","lat":43.24166,"lon":5.36396,"is_reserved":false,"is_disabled":false,"rental_uris":{"android":"levelo://app?vid=907d90e2-7e08-4846-bbc2-01977b54a9bd","ios":"levelo://app?vid=907d90e2-7e08-4846-bbc2-01977b54a9bd"},"vehicle_type_id":"4","last_reported":1729350476,"current_range_meters":13600,"station_id":"cpo36qri1sfpv3e86is0","pricing_plan_id":"cebpf4jnsgd1na2vs0mg"},{"bike_id":"89390abd-c244-44fc-92d1-ed760ceccf7c","system_id":"levelo_inurba_marseille","lat":43.28268,"lon":5.35072,"is_reserved":false,"is_disabled":false,"rental_uris":{"android":"levelo://app?vid=89390abd-c244-44fc-92d1-ed760ceccf7c","ios":"levelo://app?vid=89390abd-c244-44fc-92d1-ed760ceccf7c"},"vehicle_type_id":"4","last_reported":1729350476,"current_range_meters":38000,"station_id":"ce4bhbp2rcd13ifvqerg","pricing_plan_id":"cebpf4jnsgd1na2vs0mg"},{"bike_id":"ffcfc144-41f6-4e54-abd0-54f168961b48","system_id":"levelo_inurba_marseille","lat":43.26561,"lon":5.37284,"is_reserved":false,"is_disabled":false,"rental_uris":{"android":"levelo://app?vid=ffcfc144-41f6-4e54-abd0-54f168961b48","ios":"levelo://app?vid=ffcfc144-41f6-4e54-abd0-54f168961b48"},"vehicle_type_id":"4","last_reported":1729350476,"current_range_meters":16400,"station_id":"ce4bhg12rcd13ifvqf70","pricing_plan_id":"cebpf4jnsgd1na2vs0mg"},{"bike_id":"3c40c5ca-c40b-47af-917b-55b69fa76fa6","system_id":"levelo_inurba_marseille","lat":43.28272,"lon":5.3508,"is_reserved":false,"is_disabled":false,"rental_uris":{"android":"levelo://app?vid=3c40c5ca-c40b-47af-917b-55b69fa76fa6","ios":"levelo://app?vid=3c40c5ca-c40b-47af-917b-55b69fa76fa6"},"vehicle_type_id":"4","last_reported":1729350476,"current_range_meters":36800,"station_id":"ce4bhbp2rcd13ifvqerg","pricing_plan_id":"cebpf4jnsgd1na2vs0mg"},{"bike_id":"07f74c16-5cbb-45b8-867e-a578f5c126eb","system_id":"levelo_inurba_marseille","lat":43.2293,"lon":5.35381,"is_reserved":false,"is_disabled":false,"rental_uris":{"android":"levelo://app?vid=07f74c16-5cbb-45b8-867e-a578f5c126eb","ios":"levelo://app?vid=07f74c16-5cbb-45b8-867e-a578f5c126eb"},"vehicle_type_id":"4","last_reported":1729350476,"current_range_meters":25600,"station_id":"cpo3532slgdg3j2ikp40","pricing_plan_id":"cebpf4jnsgd1na2vs0mg"},{"bike_id":"39d9c439-8dca-4b2f-843e-bddc90a56611","system_id":"levelo_inurba_marseille","lat":43.2572,"lon":5.41114,"is_reserved":false,"is_disabled":false,"rental_uris":{"android":"levelo://app?vid=39d9c439-8dca-4b2f-843e-bddc90a56611","ios":"levelo://app?vid=39d9c439-8dca-4b2f-843e-bddc90a56611"},"vehicle_type_id":"4","last_reported":1729350476,"current_range_meters":9200,"station_id":"ce4bhkp2rcd13ifvqgd0","pricing_plan_id":"cebpf4jnsgd1na2vs0mg"},{"bike_id":"3fa27c9d-0dd7-4109-9b5e-4db95c2c6b61","system_id":"levelo_inurba_marseille","lat":43.29718,"lon":5.36617,"is_reserved":false,"is_disabled":false,"rental_uris":{"android":"levelo://app?vid=3fa27c9d-0dd7-4109-9b5e-4db95c2c6b61","ios":"levelo://app?vid=3fa27c9d-0dd7-4109-9b5e-4db95c2c6b61"},"vehicle_type_id":"4","last_reported":1729350476,"current_range_meters":37600,"station_id":"ce4bgn12rcd13ifvqbt0","pricing_plan_id":"cebpf4jnsgd1na2vs0mg"},{"bike_id":"9ed66892-1d5d-44f2-a0fb-41e18ceaf1f8","system_id":"levelo_inurba_marseille","lat":43.22938,"lon":5.35381,"is_reserved":false,"is_disabled":false,"rental_uris":{"android":"levelo://app?vid=9ed66892-1d5d-44f2-a0fb-41e18ceaf1f8","ios":"levelo://app?vid=9ed66892-1d5d-44f2-a0fb-41e18ceaf1f8"},"vehicle_type_id":"4","last_reported":1729350476,"current_range_meters":38000,"station_id":"cpo3532slgdg3j2ikp40","pricing_plan_id":"cebpf4jnsgd1na2vs0mg"},{"bike_id":"0fdf6561-b1cc-4179-9444-4a92802f6e5c","system_id":"levelo_inurba_marseille","lat":43.29625,"lon":5.37155,"is_reserved":false,"is_disabled":false,"rental_uris":{"android":"levelo://app?vid=0fdf6561-b1cc-4179-9444-4a92802f6e5c","ios":"levelo://app?vid=0fdf6561-b1cc-4179-9444-4a92802f6e5c"},"vehicle_type_id":"4","last_reported":1729350476,"current_range_meters":38400,"station_id":"ce4bgnh2rcd13ifvqc0g","pricing_plan_id":"cebpf4jnsgd1na2vs0mg"},{"bike_id":"659c4fe6-396c-4646-acce-76721c8ada83","system_id":"levelo_inurba_marseille","lat":43.32663,"lon":5.409594,"is_reserved":false,"is_disabled":false,"rental_uris":{"android":"levelo://app?vid=659c4fe6-396c-4646-acce-76721c8ada83","ios":"levelo://app?vid=659c4fe6-396c-4646-acce-76721c8ada83"},"vehicle_type_id":"4","last_reported":1729350476,"current_range_meters":26800,"station_id":"ce4bhpp2rcd13ifvqhgg","pricing_plan_id":"cebpf4jnsgd1na2vs0mg"},{"bike_id":"60fd44de-0566-4500-8326-cad272f04749","system_id":"levelo_inurba_marseille","lat":43.26782,"lon":5.39421,"is_reserved":false,"is_disabled":false,"rental_uris":{"android":"levelo://app?vid=60fd44de-0566-4500-8326-cad272f04749","ios":"levelo://app?vid=60fd44de-0566-4500-8326-cad272f04749"},"vehicle_type_id":"4","last_reported":1729350476,"current_range_meters":33600,"station_id":"ce4bhh12rcd13ifvqfg0","pricing_plan_id":"cebpf4jnsgd1na2vs0mg"},{"bike_id":"a19bbf99-57ee-4fe3-9c12-f13d9eb440e3","system_id":"levelo_inurba_marseille","lat":43.2984,"lon":5.36264,"is_reserved":false,"is_disabled":false,"rental_uris":{"android":"levelo://app?vid=a19bbf99-57ee-4fe3-9c12-f13d9eb440e3","ios":"levelo://app?vid=a19bbf99-57ee-4fe3-9c12-f13d9eb440e3"},"vehicle_type_id":"4","last_reported":1729350476,"current_range_meters":39200,"station_id":"ce4bgpp2rcd13ifvqc3g","pricing_plan_id":"cebpf4jnsgd1na2vs0mg"},{"bike_id":"2140b6a3-5118-4150-823e-9225aeb56201","system_id":"levelo_inurba_marseille","lat":43.23195,"lon":5.3555,"is_reserved":false,"is_disabled":false,"rental_uris":{"android":"levelo://app?vid=2140b6a3-5118-4150-823e-9225aeb56201","ios":"levelo://app?vid=2140b6a3-5118-4150-823e-9225aeb56201"},"vehicle_type_id":"4","last_reported":1729350476,"current_range_meters":27200,"station_id":"ce4bhu92rcd13ifvqi70","pricing_plan_id":"cebpf4jnsgd1na2vs0mg"},{"bike_id":"214e0ff2-5306-4d25-8859-e40b3b29ae07","system_id":"levelo_inurba_marseille","lat":43.28938,"lon":5.36639,"is_reserved":false,"is_disabled":false,"rental_uris":{"android":"levelo://app?vid=214e0ff2-5306-4d25-8859-e40b3b29ae07","ios":"levelo://app?vid=214e0ff2-5306-4d25-8859-e40b3b29ae07"},"vehicle_type_id":"4","last_reported":1729350476,"current_range_meters":22800,"station_id":"ce4bhap2rcd13ifvqek0","pricing_plan_id":"cebpf4jnsgd1na2vs0mg"},{"bike_id":"6e706dcb-6e41-41b6-a172-73765c66fdaa","system_id":"levelo_inurba_marseille","lat":43.26248,"lon":5.37591,"is_reserved":false,"is_disabled":false,"rental_uris":{"android":"levelo://app?vid=6e706dcb-6e41-41b6-a172-73765c66fdaa","ios":"levelo://app?vid=6e706dcb-6e41-41b6-a172-73765c66fdaa"},"vehicle_type_id":"4","last_reported":1729350476,"current_range_meters":37600,"station_id":"ce4bhhp2rcd13ifvqfm0","pricing_plan_id":"cebpf4jnsgd1na2vs0mg"},{"bike_id":"6cb7a3ce-6d5f-4dc0-ab7f-5cafce2cff2e","system_id":"levelo_inurba_marseille","lat":43.29584,"lon":5.36739,"is_reserved":false,"is_disabled":false,"rental_uris":{"android":"levelo://app?vid=6cb7a3ce-6d5f-4dc0-ab7f-5cafce2cff2e","ios":"levelo://app?vid=6cb7a3ce-6d5f-4dc0-ab7f-5cafce2cff2e"},"vehicle_type_id":"4","last_reported":1729350476,"current_range_meters":31200,"station_id":"ce4bgph2rcd13ifvqc2g","pricing_plan_id":"cebpf4jnsgd1na2vs0mg"},{"bike_id":"35cd31d0-e834-4434-a949-35cf2fbd1d2c","system_id":"levelo_inurba_marseille","lat":43.22937,"lon":5.35381,"is_reserved":false,"is_disabled":false,"rental_uris":{"android":"levelo://app?vid=35cd31d0-e834-4434-a949-35cf2fbd1d2c","ios":"levelo://app?vid=35cd31d0-e834-4434-a949-35cf2fbd1d2c"},"vehicle_type_id":"4","last_reported":1729350476,"current_range_meters":16400,"station_id":"cpo3532slgdg3j2ikp40","pricing_plan_id":"cebpf4jnsgd1na2vs0mg"},{"bike_id":"c93be8f0-3f69-4540-ab5a-a181603ca04f","system_id":"levelo_inurba_marseille","lat":43.30437,"lon":5.37578,"is_reserved":false,"is_disabled":false,"rental_uris":{"android":"levelo://app?vid=c93be8f0-3f69-4540-ab5a-a181603ca04f","ios":"levelo://app?vid=c93be8f0-3f69-4540-ab5a-a181603ca04f"},"vehicle_type_id":"4","last_reported":1729350476,"current_range_meters":38800,"station_id":"ce4bguh2rcd13ifvqcj0","pricing_plan_id":"cebpf4jnsgd1na2vs0mg"},{"bike_id":"7772d39f-5e28-445c-af91-069b0cf63793","system_id":"levelo_inurba_marseille","lat":43.33765,"lon":5.37438,"is_reserved":false,"is_disabled":false,"rental_uris":{"android":"levelo://app?vid=7772d39f-5e28-445c-af91-069b0cf63793","ios":"levelo://app?vid=7772d39f-5e28-445c-af91-069b0cf63793"},"vehicle_type_id":"4","last_reported":1729350476,"current_range_meters":8400,"station_id":"","pricing_plan_id":"cebpf4jnsgd1na2vs0mg"},{"bike_id":"f2e7cfcd-cee3-4d79-bbe2-8d7c26012253","system_id":"levelo_inurba_marseille","lat":43.23064,"lon":5.35495,"is_reserved":false,"is_disabled":false,"rental_uris":{"android":"levelo://app?vid=f2e7cfcd-cee3-4d79-bbe2-8d7c26012253","ios":"levelo://app?vid=f2e7cfcd-cee3-4d79-bbe2-8d7c26012253"},"vehicle_type_id":"4","last_reported":1729350476,"current_range_meters":2800,"station_id":"cpo3342slgdg3j2ifvpg","pricing_plan_id":"cebpf4jnsgd1na2vs0mg"},{"bike_id":"3a9d01be-6baa-4de6-a775-6c44e2a9c4b5","system_id":"levelo_inurba_marseille","lat":43.33026,"lon":5.39041,"is_reserved":false,"is_disabled":false,"rental_uris":{"android":"levelo://app?vid=3a9d01be-6baa-4de6-a775-6c44e2a9c4b5","ios":"levelo://app?vid=3a9d01be-6baa-4de6-a775-6c44e2a9c4b5"},"vehicle_type_id":"4","last_reported":1729350476,"current_range_meters":33600,"station_id":"ce4bhr92rcd13ifvqhrg","pricing_plan_id":"cebpf4jnsgd1na2vs0mg"},{"bike_id":"3213665e-989c-4d22-9f5a-31c8522597dd","system_id":"levelo_inurba_marseille","lat":43.296,"lon":5.36142,"is_reserved":false,"is_disabled":false,"rental_uris":{"android":"levelo://app?vid=3213665e-989c-4d22-9f5a-31c8522597dd","ios":"levelo://app?vid=3213665e-989c-4d22-9f5a-31c8522597dd"},"vehicle_type_id":"4","last_reported":1729350476,"current_range_meters":19200,"station_id":"","pricing_plan_id":"cebpf4jnsgd1na2vs0mg"},{"bike_id":"30a9d30d-b0fd-45d9-9b99-f17cd5646bd7","system_id":"levelo_inurba_marseille","lat":43.2827,"lon":5.35075,"is_reserved":false,"is_disabled":false,"rental_uris":{"android":"levelo://app?vid=30a9d30d-b0fd-45d9-9b99-f17cd5646bd7","ios":"levelo://app?vid=30a9d30d-b0fd-45d9-9b99-f17cd5646bd7"},"vehicle_type_id":"4","last_reported":1729350476,"current_range_meters":6400,"station_id":"ce4bhbp2rcd13ifvqerg","pricing_plan_id":"cebpf4jnsgd1na2vs0mg"},{"bike_id":"7bf9fc4a-5f93-4f55-914c-a326b4e1d82e","system_id":"levelo_inurba_marseille","lat":43.28617,"lon":5.35106,"is_reserved":false,"is_disabled":false,"rental_uris":{"android":"levelo://app?vid=7bf9fc4a-5f93-4f55-914c-a326b4e1d82e","ios":"levelo://app?vid=7bf9fc4a-5f93-4f55-914c-a326b4e1d82e"},"vehicle_type_id":"4","last_reported":1729350476,"current_range_meters":35200,"station_id":"ce4bhch2rcd13ifvqeug","pricing_plan_id":"cebpf4jnsgd1na2vs0mg"},{"bike_id":"57b209a6-076f-4fe9-9e50-8d35d1d4533f","system_id":"levelo_inurba_marseille","lat":43.28153,"lon":5.42646,"is_reserved":false,"is_disabled":false,"rental_uris":{"android":"levelo://app?vid=57b209a6-076f-4fe9-9e50-8d35d1d4533f","ios":"levelo://app?vid=57b209a6-076f-4fe9-9e50-8d35d1d4533f"},"vehicle_type_id":"4","last_reported":1729350476,"current_range_meters":39200,"station_id":"ce4bhnh2rcd13ifvqgug","pricing_plan_id":"cebpf4jnsgd1na2vs0mg"},{"bike_id":"85978b2d-96a1-4496-a15d-3917a97b0613","system_id":"levelo_inurba_marseille","lat":43.3233,"lon":5.38947,"is_reserved":false,"is_disabled":false,"rental_uris":{"android":"levelo://app?vid=85978b2d-96a1-4496-a15d-3917a97b0613","ios":"levelo://app?vid=85978b2d-96a1-4496-a15d-3917a97b0613"},"vehicle_type_id":"4","last_reported":1729350476,"current_range_meters":37600,"station_id":"","pricing_plan_id":"cebpf4jnsgd1na2vs0mg"},{"bike_id":"9d2ca776-3d08-48de-a0ce-7761a211cec7","system_id":"levelo_inurba_marseille","lat":43.297729,"lon":5.392985,"is_reserved":false,"is_disabled":false,"rental_uris":{"android":"levelo://app?vid=9d2ca776-3d08-48de-a0ce-7761a211cec7","ios":"levelo://app?vid=9d2ca776-3d08-48de-a0ce-7761a211cec7"},"vehicle_type_id":"4","last_reported":1729350476,"current_range_meters":24400,"station_id":"chh1huq6cuj3fo74tm60","pricing_plan_id":"cebpf4jnsgd1na2vs0mg"},{"bike_id":"0cb2ff1d-75b8-48e9-8163-d51e41677760","system_id":"levelo_inurba_marseille","lat":43.23068,"lon":5.35493,"is_reserved":false,"is_disabled":false,"rental_uris":{"android":"levelo://app?vid=0cb2ff1d-75b8-48e9-8163-d51e41677760","ios":"levelo://app?vid=0cb2ff1d-75b8-48e9-8163-d51e41677760"},"vehicle_type_id":"4","last_reported":1729350476,"current_range_meters":10800,"station_id":"cpo3342slgdg3j2ifvpg","pricing_plan_id":"cebpf4jnsgd1na2vs0mg"},{"bike_id":"6a1e31b6-d029-4b53-901f-4bdc7b2141ad","system_id":"levelo_inurba_marseille","lat":43.33026,"lon":5.39036,"is_reserved":false,"is_disabled":false,"rental_uris":{"android":"levelo://app?vid=6a1e31b6-d029-4b53-901f-4bdc7b2141ad","ios":"levelo://app?vid=6a1e31b6-d029-4b53-901f-4bdc7b2141ad"},"vehicle_type_id":"4","last_reported":1729350476,"current_range_meters":24400,"station_id":"ce4bhr92rcd13ifvqhrg","pricing_plan_id":"cebpf4jnsgd1na2vs0mg"},{"bike_id":"e78b617d-375d-43c8-adb3-6f4b45c69c54","system_id":"levelo_inurba_marseille","lat":43.28155,"lon":5.42644,"is_reserved":false,"is_disabled":false,"rental_uris":{"android":"levelo://app?vid=e78b617d-375d-43c8-adb3-6f4b45c69c54","ios":"levelo://app?vid=e78b617d-375d-43c8-adb3-6f4b45c69c54"},"vehicle_type_id":"4","last_reported":1729350476,"current_range_meters":14400,"station_id":"ce4bhnh2rcd13ifvqgug","pricing_plan_id":"cebpf4jnsgd1na2vs0mg"},{"bike_id":"60e5d882-0396-4567-9dd1-7257b842a7e3","system_id":"levelo_inurba_marseille","lat":43.29842,"lon":5.36286,"is_reserved":false,"is_disabled":false,"rental_uris":{"android":"levelo://app?vid=60e5d882-0396-4567-9dd1-7257b842a7e3","ios":"levelo://app?vid=60e5d882-0396-4567-9dd1-7257b842a7e3"},"vehicle_type_id":"4","last_reported":1729350476,"current_range_meters":38800,"station_id":"ce4bgpp2rcd13ifvqc3g","pricing_plan_id":"cebpf4jnsgd1na2vs0mg"},{"bike_id":"34256a3b-88e4-407f-9dee-2f9f678f3388","system_id":"levelo_inurba_marseille","lat":43.28423,"lon":5.34976,"is_reserved":false,"is_disabled":false,"rental_uris":{"android":"levelo://app?vid=34256a3b-88e4-407f-9dee-2f9f678f3388","ios":"levelo://app?vid=34256a3b-88e4-407f-9dee-2f9f678f3388"},"vehicle_type_id":"4","last_reported":1729350476,"current_range_meters":28400,"station_id":"ce4bhbh2rcd13ifvqepg","pricing_plan_id":"cebpf4jnsgd1na2vs0mg"},{"bike_id":"62679cc5-0d2d-4ace-abc4-366c100478ff","system_id":"levelo_inurba_marseille","lat":43.31713,"lon":5.43717,"is_reserved":false,"is_disabled":false,"rental_uris":{"android":"levelo://app?vid=62679cc5-0d2d-4ace-abc4-366c100478ff","ios":"levelo://app?vid=62679cc5-0d2d-4ace-abc4-366c100478ff"},"vehicle_type_id":"4","last_reported":1729350476,"current_range_meters":38800,"station_id":"ce4bhp92rcd13ifvqhcg","pricing_plan_id":"cebpf4jnsgd1na2vs0mg"},{"bike_id":"7c7854d7-c673-43ba-8a24-24e33b14586d","system_id":"levelo_inurba_marseille","lat":43.27179,"lon":5.40985,"is_reserved":false,"is_disabled":false,"rental_uris":{"android":"levelo://app?vid=7c7854d7-c673-43ba-8a24-24e33b14586d","ios":"levelo://app?vid=7c7854d7-c673-43ba-8a24-24e33b14586d"},"vehicle_type_id":"4","last_reported":1729350476,"current_range_meters":26800,"station_id":"ce4bhl12rcd13ifvqgf0","pricing_plan_id":"cebpf4jnsgd1na2vs0mg"},{"bike_id":"e0969943-1274-46e8-b737-c8169b66bb25","system_id":"levelo_inurba_marseille","lat":43.29009,"lon":5.35608,"is_reserved":false,"is_disabled":false,"rental_uris":{"android":"levelo://app?vid=e0969943-1274-46e8-b737-c8169b66bb25","ios":"levelo://app?vid=e0969943-1274-46e8-b737-c8169b66bb25"},"vehicle_type_id":"4","last_reported":1729350476,"current_range_meters":36400,"station_id":"ce4bhb92rcd13ifvqen0","pricing_plan_id":"cebpf4jnsgd1na2vs0mg"},{"bike_id":"2075d8e1-9e04-450e-85cd-cdedb5b38038","system_id":"levelo_inurba_marseille","lat":43.27994,"lon":5.4166,"is_reserved":false,"is_disabled":false,"rental_uris":{"android":"levelo://app?vid=2075d8e1-9e04-450e-85cd-cdedb5b38038","ios":"levelo://app?vid=2075d8e1-9e04-450e-85cd-cdedb5b38038"},"vehicle_type_id":"4","last_reported":1729350476,"current_range_meters":34000,"station_id":"ce4bho12rcd13ifvqh1g","pricing_plan_id":"cebpf4jnsgd1na2vs0mg"},{"bike_id":"375f02ef-4905-4da0-aa98-04d9c6c8f603","system_id":"levelo_inurba_marseille","lat":43.23068,"lon":5.35496,"is_reserved":false,"is_disabled":false,"rental_uris":{"android":"levelo://app?vid=375f02ef-4905-4da0-aa98-04d9c6c8f603","ios":"levelo://app?vid=375f02ef-4905-4da0-aa98-04d9c6c8f603"},"vehicle_type_id":"4","last_reported":1729350476,"current_range_meters":11600,"station_id":"cpo3342slgdg3j2ifvpg","pricing_plan_id":"cebpf4jnsgd1na2vs0mg"},{"bike_id":"72bb23b9-c1fe-417e-82d4-6a781c281034","system_id":"levelo_inurba_marseille","lat":43.24677,"lon":5.38164,"is_reserved":false,"is_disabled":false,"rental_uris":{"android":"levelo://app?vid=72bb23b9-c1fe-417e-82d4-6a781c281034","ios":"levelo://app?vid=72bb23b9-c1fe-417e-82d4-6a781c281034"},"vehicle_type_id":"4","last_reported":1729350476,"current_range_meters":15200,"station_id":"ce4bhih2rcd13ifvqfr0","pricing_plan_id":"cebpf4jnsgd1na2vs0mg"},{"bike_id":"3f453f42-c768-459d-9667-f9cb58f70ab1","system_id":"levelo_inurba_marseille","lat":43.2481,"lon":5.37459,"is_reserved":false,"is_disabled":false,"rental_uris":{"android":"levelo://app?vid=3f453f42-c768-459d-9667-f9cb58f70ab1","ios":"levelo://app?vid=3f453f42-c768-459d-9667-f9cb58f70ab1"},"vehicle_type_id":"4","last_reported":1729350476,"current_range_meters":22800,"station_id":"ce4bhgh2rcd13ifvqfb0","pricing_plan_id":"cebpf4jnsgd1na2vs0mg"},{"bike_id":"5b28be2f-cc82-4704-8fab-d09bc8dbc62e","system_id":"levelo_inurba_marseille","lat":43.24858,"lon":5.38857,"is_reserved":false,"is_disabled":false,"rental_uris":{"android":"levelo://app?vid=5b28be2f-cc82-4704-8fab-d09bc8dbc62e","ios":"levelo://app?vid=5b28be2f-cc82-4704-8fab-d09bc8dbc62e"},"vehicle_type_id":"4","last_reported":1729350476,"current_range_meters":18800,"station_id":"","pricing_plan_id":"cebpf4jnsgd1na2vs0mg"},{"bike_id":"067193b3-5c80-4bd0-bba0-f83eb46c9371","system_id":"levelo_inurba_marseille","lat":43.23195,"lon":5.35556,"is_reserved":false,"is_disabled":false,"rental_uris":{"android":"levelo://app?vid=067193b3-5c80-4bd0-bba0-f83eb46c9371","ios":"levelo://app?vid=067193b3-5c80-4bd0-bba0-f83eb46c9371"},"vehicle_type_id":"4","last_reported":1729350476,"current_range_meters":32400,"station_id":"ce4bhu92rcd13ifvqi70","pricing_plan_id":"cebpf4jnsgd1na2vs0mg"},{"bike_id":"b1a2c6e6-7b52-4910-af67-0edd71c1da54","system_id":"levelo_inurba_marseille","lat":43.28426,"lon":5.35,"is_reserved":false,"is_disabled":false,"rental_uris":{"android":"levelo://app?vid=b1a2c6e6-7b52-4910-af67-0edd71c1da54","ios":"levelo://app?vid=b1a2c6e6-7b52-4910-af67-0edd71c1da54"},"vehicle_type_id":"4","last_reported":1729350476,"current_range_meters":12000,"station_id":"ce4bhbh2rcd13ifvqepg","pricing_plan_id":"cebpf4jnsgd1na2vs0mg"},{"bike_id":"454765a2-015f-4f7d-8d45-d8a78b163f03","system_id":"levelo_inurba_marseille","lat":43.28466,"lon":5.35896,"is_reserved":false,"is_disabled":false,"rental_uris":{"android":"levelo://app?vid=454765a2-015f-4f7d-8d45-d8a78b163f03","ios":"levelo://app?vid=454765a2-015f-4f7d-8d45-d8a78b163f03"},"vehicle_type_id":"4","last_reported":1729350476,"current_range_meters":36000,"station_id":"ce4bhah2rcd13ifvqei0","pricing_plan_id":"cebpf4jnsgd1na2vs0mg"},{"bike_id":"be39e6f4-a184-431b-9d36-0e11ef597aec","system_id":"levelo_inurba_marseille","lat":43.33724,"lon":5.39175,"is_reserved":false,"is_disabled":false,"rental_uris":{"android":"levelo://app?vid=be39e6f4-a184-431b-9d36-0e11ef597aec","ios":"levelo://app?vid=be39e6f4-a184-431b-9d36-0e11ef597aec"},"vehicle_type_id":"4","last_reported":1729350476,"current_range_meters":17600,"station_id":"ce4bhr92rcd13ifvqhsg","pricing_plan_id":"cebpf4jnsgd1na2vs0mg"},{"bike_id":"a153fc7c-b781-4c31-b966-18391d0c292a","system_id":"levelo_inurba_marseille","lat":43.292277,"lon":5.360668,"is_reserved":false,"is_disabled":false,"rental_uris":{"android":"levelo://app?vid=a153fc7c-b781-4c31-b966-18391d0c292a","ios":"levelo://app?vid=a153fc7c-b781-4c31-b966-18391d0c292a"},"vehicle_type_id":"4","last_reported":1729350476,"current_range_meters":16400,"station_id":"ce4bhbh2rcd13ifvqeqg","pricing_plan_id":"cebpf4jnsgd1na2vs0mg"},{"bike_id":"a50da574-03c5-475b-b6c5-e3885a5b2ef0","system_id":"levelo_inurba_marseille","lat":43.28152,"lon":5.42635,"is_reserved":false,"is_disabled":false,"rental_uris":{"android":"levelo://app?vid=a50da574-03c5-475b-b6c5-e3885a5b2ef0","ios":"levelo://app?vid=a50da574-03c5-475b-b6c5-e3885a5b2ef0"},"vehicle_type_id":"4","last_reported":1729350476,"current_range_meters":23200,"station_id":"ce4bhnh2rcd13ifvqgug","pricing_plan_id":"cebpf4jnsgd1na2vs0mg"},{"bike_id":"006bbfd0-294d-4716-b026-030ad88cf679","system_id":"levelo_inurba_marseille","lat":43.24392,"lon":5.37055,"is_reserved":false,"is_disabled":false,"rental_uris":{"android":"levelo://app?vid=006bbfd0-294d-4716-b026-030ad88cf679","ios":"levelo://app?vid=006bbfd0-294d-4716-b026-030ad88cf679"},"vehicle_type_id":"4","last_reported":1729350476,"current_range_meters":38800,"station_id":"ce4bhhh2rcd13ifvqfk0","pricing_plan_id":"cebpf4jnsgd1na2vs0mg"},{"bike_id":"905b4438-0aea-4718-aa68-23aad8e40795","system_id":"levelo_inurba_marseille","lat":43.30548,"lon":5.36561,"is_reserved":false,"is_disabled":false,"rental_uris":{"android":"levelo://app?vid=905b4438-0aea-4718-aa68-23aad8e40795","ios":"levelo://app?vid=905b4438-0aea-4718-aa68-23aad8e40795"},"vehicle_type_id":"4","last_reported":1729350476,"current_range_meters":36800,"station_id":"ce4bgs12rcd13ifvqcag","pricing_plan_id":"cebpf4jnsgd1na2vs0mg"},{"bike_id":"7b5164b4-90cc-41bc-a797-681402c746de","system_id":"levelo_inurba_marseille","lat":43.25003,"lon":5.38938,"is_reserved":false,"is_disabled":false,"rental_uris":{"android":"levelo://app?vid=7b5164b4-90cc-41bc-a797-681402c746de","ios":"levelo://app?vid=7b5164b4-90cc-41bc-a797-681402c746de"},"vehicle_type_id":"4","last_reported":1729350476,"current_range_meters":38800,"station_id":"ce4bhgp2rcd13ifvqfd0","pricing_plan_id":"cebpf4jnsgd1na2vs0mg"},{"bike_id":"8b622db3-54e4-4f13-bc7d-10b12ac1b590","system_id":"levelo_inurba_marseille","lat":43.28038,"lon":5.36946,"is_reserved":false,"is_disabled":false,"rental_uris":{"android":"levelo://app?vid=8b622db3-54e4-4f13-bc7d-10b12ac1b590","ios":"levelo://app?vid=8b622db3-54e4-4f13-bc7d-10b12ac1b590"},"vehicle_type_id":"4","last_reported":1729350476,"current_range_meters":14800,"station_id":"ce4bha12rcd13ifvqef0","pricing_plan_id":"cebpf4jnsgd1na2vs0mg"},{"bike_id":"a87568bb-8e37-4975-8ad3-b41f92c33a68","system_id":"levelo_inurba_marseille","lat":43.29853,"lon":5.36291,"is_reserved":false,"is_disabled":false,"rental_uris":{"android":"levelo://app?vid=a87568bb-8e37-4975-8ad3-b41f92c33a68","ios":"levelo://app?vid=a87568bb-8e37-4975-8ad3-b41f92c33a68"},"vehicle_type_id":"4","last_reported":1729350476,"current_range_meters":9600,"station_id":"ce4bgpp2rcd13ifvqc3g","pricing_plan_id":"cebpf4jnsgd1na2vs0mg"},{"bike_id":"dd36401a-83be-4ce2-851c-12296c074af5","system_id":"levelo_inurba_marseille","lat":43.25506,"lon":5.37654,"is_reserved":false,"is_disabled":false,"rental_uris":{"android":"levelo://app?vid=dd36401a-83be-4ce2-851c-12296c074af5","ios":"levelo://app?vid=dd36401a-83be-4ce2-851c-12296c074af5"},"vehicle_type_id":"4","last_reported":1729350476,"current_range_meters":20800,"station_id":"ce4bhh12rcd13ifvqff0","pricing_plan_id":"cebpf4jnsgd1na2vs0mg"},{"bike_id":"dfc3be88-576d-454d-9762-166f2396c414","system_id":"levelo_inurba_marseille","lat":43.29853,"lon":5.36291,"is_reserved":false,"is_disabled":false,"rental_uris":{"android":"levelo://app?vid=dfc3be88-576d-454d-9762-166f2396c414","ios":"levelo://app?vid=dfc3be88-576d-454d-9762-166f2396c414"},"vehicle_type_id":"4","last_reported":1729350476,"current_range_meters":36400,"station_id":"ce4bgpp2rcd13ifvqc3g","pricing_plan_id":"cebpf4jnsgd1na2vs0mg"},{"bike_id":"723e6171-f0c2-4d86-9524-4220ac9fcc01","system_id":"levelo_inurba_marseille","lat":43.25581,"lon":5.38245,"is_reserved":false,"is_disabled":false,"rental_uris":{"android":"levelo://app?vid=723e6171-f0c2-4d86-9524-4220ac9fcc01","ios":"levelo://app?vid=723e6171-f0c2-4d86-9524-4220ac9fcc01"},"vehicle_type_id":"4","last_reported":1729350476,"current_range_meters":24800,"station_id":"ce4bhih2rcd13ifvqfs0","pricing_plan_id":"cebpf4jnsgd1na2vs0mg"},{"bike_id":"2134f16c-34e0-4f2b-acf5-61c651387c40","system_id":"levelo_inurba_marseille","lat":43.26559,"lon":5.37284,"is_reserved":false,"is_disabled":false,"rental_uris":{"android":"levelo://app?vid=2134f16c-34e0-4f2b-acf5-61c651387c40","ios":"levelo://app?vid=2134f16c-34e0-4f2b-acf5-61c651387c40"},"vehicle_type_id":"4","last_reported":1729350476,"current_range_meters":33200,"station_id":"ce4bhg12rcd13ifvqf70","pricing_plan_id":"cebpf4jnsgd1na2vs0mg"},{"bike_id":"4e75b40e-a7bf-4b9a-887d-11ce9440a48e","system_id":"levelo_inurba_marseille","lat":43.24082,"lon":5.37747,"is_reserved":false,"is_disabled":false,"rental_uris":{"android":"levelo://app?vid=4e75b40e-a7bf-4b9a-887d-11ce9440a48e","ios":"levelo://app?vid=4e75b40e-a7bf-4b9a-887d-11ce9440a48e"},"vehicle_type_id":"4","last_reported":1729350476,"current_range_meters":35200,"station_id":"ce4bhnp2rcd13ifvqgvg","pricing_plan_id":"cebpf4jnsgd1na2vs0mg"},{"bike_id":"f2c99d8f-2c6c-4673-83c3-9b204275d3a2","system_id":"levelo_inurba_marseille","lat":43.23965,"lon":5.36629,"is_reserved":false,"is_disabled":false,"rental_uris":{"android":"levelo://app?vid=f2c99d8f-2c6c-4673-83c3-9b204275d3a2","ios":"levelo://app?vid=f2c99d8f-2c6c-4673-83c3-9b204275d3a2"},"vehicle_type_id":"4","last_reported":1729350476,"current_range_meters":14000,"station_id":"ce4bhi12rcd13ifvqfp0","pricing_plan_id":"cebpf4jnsgd1na2vs0mg"},{"bike_id":"be2bbaa1-f672-4dc8-a1c0-85466066b76d","system_id":"levelo_inurba_marseille","lat":43.23199,"lon":5.35557,"is_reserved":false,"is_disabled":false,"rental_uris":{"android":"levelo://app?vid=be2bbaa1-f672-4dc8-a1c0-85466066b76d","ios":"levelo://app?vid=be2bbaa1-f672-4dc8-a1c0-85466066b76d"},"vehicle_type_id":"4","last_reported":1729350476,"current_range_meters":23200,"station_id":"ce4bhu92rcd13ifvqi70","pricing_plan_id":"cebpf4jnsgd1na2vs0mg"},{"bike_id":"0ca61beb-790c-496b-8efa-f5725b722b3f","system_id":"levelo_inurba_marseille","lat":43.323547,"lon":5.38183,"is_reserved":false,"is_disabled":false,"rental_uris":{"android":"levelo://app?vid=0ca61beb-790c-496b-8efa-f5725b722b3f","ios":"levelo://app?vid=0ca61beb-790c-496b-8efa-f5725b722b3f"},"vehicle_type_id":"4","last_reported":1729350476,"current_range_meters":8000,"station_id":"ce4bhr12rcd13ifvqhqg","pricing_plan_id":"cebpf4jnsgd1na2vs0mg"},{"bike_id":"5715e832-098d-4c62-8619-ea0204aa01d5","system_id":"levelo_inurba_marseille","lat":43.27066,"lon":5.42275,"is_reserved":false,"is_disabled":false,"rental_uris":{"android":"levelo://app?vid=5715e832-098d-4c62-8619-ea0204aa01d5","ios":"levelo://app?vid=5715e832-098d-4c62-8619-ea0204aa01d5"},"vehicle_type_id":"4","last_reported":1729350476,"current_range_meters":29600,"station_id":"ce4bhk92rcd13ifvqgb0","pricing_plan_id":"cebpf4jnsgd1na2vs0mg"},{"bike_id":"1ba3c57d-fe8a-4cbb-b7ac-5af8e752d070","system_id":"levelo_inurba_marseille","lat":43.29845,"lon":5.36265,"is_reserved":false,"is_disabled":false,"rental_uris":{"android":"levelo://app?vid=1ba3c57d-fe8a-4cbb-b7ac-5af8e752d070","ios":"levelo://app?vid=1ba3c57d-fe8a-4cbb-b7ac-5af8e752d070"},"vehicle_type_id":"4","last_reported":1729350476,"current_range_meters":39200,"station_id":"ce4bgpp2rcd13ifvqc3g","pricing_plan_id":"cebpf4jnsgd1na2vs0mg"},{"bike_id":"b3e964b1-e94c-4054-b5ce-54627364fa06","system_id":"levelo_inurba_marseille","lat":43.28275,"lon":5.35083,"is_reserved":false,"is_disabled":false,"rental_uris":{"android":"levelo://app?vid=b3e964b1-e94c-4054-b5ce-54627364fa06","ios":"levelo://app?vid=b3e964b1-e94c-4054-b5ce-54627364fa06"},"vehicle_type_id":"4","last_reported":1729350476,"current_range_meters":14000,"station_id":"ce4bhbp2rcd13ifvqerg","pricing_plan_id":"cebpf4jnsgd1na2vs0mg"},{"bike_id":"653344d8-2cf3-46ef-845c-7a41bd4051bc","system_id":"levelo_inurba_marseille","lat":43.28149,"lon":5.42643,"is_reserved":false,"is_disabled":false,"rental_uris":{"android":"levelo://app?vid=653344d8-2cf3-46ef-845c-7a41bd4051bc","ios":"levelo://app?vid=653344d8-2cf3-46ef-845c-7a41bd4051bc"},"vehicle_type_id":"4","last_reported":1729350476,"current_range_meters":19200,"station_id":"ce4bhnh2rcd13ifvqgug","pricing_plan_id":"cebpf4jnsgd1na2vs0mg"},{"bike_id":"8951eb02-0db9-4678-94e1-9552377fdb43","system_id":"levelo_inurba_marseille","lat":43.29251,"lon":5.3843,"is_reserved":false,"is_disabled":false,"rental_uris":{"android":"levelo://app?vid=8951eb02-0db9-4678-94e1-9552377fdb43","ios":"levelo://app?vid=8951eb02-0db9-4678-94e1-9552377fdb43"},"vehicle_type_id":"4","last_reported":1729350476,"current_range_meters":21600,"station_id":"","pricing_plan_id":"cebpf4jnsgd1na2vs0mg"},{"bike_id":"a9d80141-cb04-4f88-bcc5-9763572e3517","system_id":"levelo_inurba_marseille","lat":43.23191,"lon":5.35546,"is_reserved":false,"is_disabled":false,"rental_uris":{"android":"levelo://app?vid=a9d80141-cb04-4f88-bcc5-9763572e3517","ios":"levelo://app?vid=a9d80141-cb04-4f88-bcc5-9763572e3517"},"vehicle_type_id":"4","last_reported":1729350476,"current_range_meters":24000,"station_id":"ce4bhu92rcd13ifvqi70","pricing_plan_id":"cebpf4jnsgd1na2vs0mg"},{"bike_id":"6bb6eaea-6464-4250-8b65-6f9c52c53a3f","system_id":"levelo_inurba_marseille","lat":43.31726,"lon":5.42407,"is_reserved":false,"is_disabled":false,"rental_uris":{"android":"levelo://app?vid=6bb6eaea-6464-4250-8b65-6f9c52c53a3f","ios":"levelo://app?vid=6bb6eaea-6464-4250-8b65-6f9c52c53a3f"},"vehicle_type_id":"4","last_reported":1729350476,"current_range_meters":37600,"station_id":"ce4bhp92rcd13ifvqhbg","pricing_plan_id":"cebpf4jnsgd1na2vs0mg"},{"bike_id":"92ff8359-5c7f-4f3e-9ee9-02895e762538","system_id":"levelo_inurba_marseille","lat":43.24169,"lon":5.36395,"is_reserved":false,"is_disabled":false,"rental_uris":{"android":"levelo://app?vid=92ff8359-5c7f-4f3e-9ee9-02895e762538","ios":"levelo://app?vid=92ff8359-5c7f-4f3e-9ee9-02895e762538"},"vehicle_type_id":"4","last_reported":1729350476,"current_range_meters":22000,"station_id":"cpo36qri1sfpv3e86is0","pricing_plan_id":"cebpf4jnsgd1na2vs0mg"},{"bike_id":"36a0cdb0-c033-4f9e-9fd4-1910a5064b1c","system_id":"levelo_inurba_marseille","lat":43.2827,"lon":5.35077,"is_reserved":false,"is_disabled":false,"rental_uris":{"android":"levelo://app?vid=36a0cdb0-c033-4f9e-9fd4-1910a5064b1c","ios":"levelo://app?vid=36a0cdb0-c033-4f9e-9fd4-1910a5064b1c"},"vehicle_type_id":"4","last_reported":1729350476,"current_range_meters":27200,"station_id":"ce4bhbp2rcd13ifvqerg","pricing_plan_id":"cebpf4jnsgd1na2vs0mg"},{"bike_id":"428472c6-a1b2-43d4-afec-d2ca00f0d134","system_id":"levelo_inurba_marseille","lat":43.282755,"lon":5.3508,"is_reserved":false,"is_disabled":false,"rental_uris":{"android":"levelo://app?vid=428472c6-a1b2-43d4-afec-d2ca00f0d134","ios":"levelo://app?vid=428472c6-a1b2-43d4-afec-d2ca00f0d134"},"vehicle_type_id":"4","last_reported":1729350476,"current_range_meters":7200,"station_id":"ce4bhbp2rcd13ifvqerg","pricing_plan_id":"cebpf4jnsgd1na2vs0mg"},{"bike_id":"c9bf36b3-0190-480f-9d47-ca55ed1ea5cb","system_id":"levelo_inurba_marseille","lat":43.32133,"lon":5.37007,"is_reserved":false,"is_disabled":false,"rental_uris":{"android":"levelo://app?vid=c9bf36b3-0190-480f-9d47-ca55ed1ea5cb","ios":"levelo://app?vid=c9bf36b3-0190-480f-9d47-ca55ed1ea5cb"},"vehicle_type_id":"4","last_reported":1729350476,"current_range_meters":24000,"station_id":"","pricing_plan_id":"cebpf4jnsgd1na2vs0mg"},{"bike_id":"a143e650-0cfe-4d42-bb40-5fd1075a4f52","system_id":"levelo_inurba_marseille","lat":43.23187,"lon":5.39998,"is_reserved":false,"is_disabled":false,"rental_uris":{"android":"levelo://app?vid=a143e650-0cfe-4d42-bb40-5fd1075a4f52","ios":"levelo://app?vid=a143e650-0cfe-4d42-bb40-5fd1075a4f52"},"vehicle_type_id":"4","last_reported":1729350476,"current_range_meters":10800,"station_id":"ce4bhn12rcd13ifvqgqg","pricing_plan_id":"cebpf4jnsgd1na2vs0mg"},{"bike_id":"67f3a430-a435-476c-9f14-03933430901e","system_id":"levelo_inurba_marseille","lat":43.23067,"lon":5.3549,"is_reserved":false,"is_disabled":false,"rental_uris":{"android":"levelo://app?vid=67f3a430-a435-476c-9f14-03933430901e","ios":"levelo://app?vid=67f3a430-a435-476c-9f14-03933430901e"},"vehicle_type_id":"4","last_reported":1729350476,"current_range_meters":30000,"station_id":"cpo3342slgdg3j2ifvpg","pricing_plan_id":"cebpf4jnsgd1na2vs0mg"},{"bike_id":"c448d391-cb2b-4e8e-a36a-f641e9acf129","system_id":"levelo_inurba_marseille","lat":43.28272,"lon":5.35073,"is_reserved":false,"is_disabled":false,"rental_uris":{"android":"levelo://app?vid=c448d391-cb2b-4e8e-a36a-f641e9acf129","ios":"levelo://app?vid=c448d391-cb2b-4e8e-a36a-f641e9acf129"},"vehicle_type_id":"4","last_reported":1729350476,"current_range_meters":6400,"station_id":"ce4bhbp2rcd13ifvqerg","pricing_plan_id":"cebpf4jnsgd1na2vs0mg"},{"bike_id":"97676e40-dc06-43a5-b01e-651b6d379fd0","system_id":"levelo_inurba_marseille","lat":43.32001,"lon":5.38163,"is_reserved":false,"is_disabled":false,"rental_uris":{"android":"levelo://app?vid=97676e40-dc06-43a5-b01e-651b6d379fd0","ios":"levelo://app?vid=97676e40-dc06-43a5-b01e-651b6d379fd0"},"vehicle_type_id":"4","last_reported":1729350476,"current_range_meters":24400,"station_id":"ce4bhr12rcd13ifvqhpg","pricing_plan_id":"cebpf4jnsgd1na2vs0mg"},{"bike_id":"b860db51-93bd-4620-ae89-de85201bb15f","system_id":"levelo_inurba_marseille","lat":43.23193,"lon":5.35557,"is_reserved":false,"is_disabled":false,"rental_uris":{"android":"levelo://app?vid=b860db51-93bd-4620-ae89-de85201bb15f","ios":"levelo://app?vid=b860db51-93bd-4620-ae89-de85201bb15f"},"vehicle_type_id":"4","last_reported":1729350476,"current_range_meters":22000,"station_id":"ce4bhu92rcd13ifvqi70","pricing_plan_id":"cebpf4jnsgd1na2vs0mg"},{"bike_id":"2c474e23-fdac-4e19-971c-a8865e64d765","system_id":"levelo_inurba_marseille","lat":43.28275,"lon":5.35057,"is_reserved":false,"is_disabled":false,"rental_uris":{"android":"levelo://app?vid=2c474e23-fdac-4e19-971c-a8865e64d765","ios":"levelo://app?vid=2c474e23-fdac-4e19-971c-a8865e64d765"},"vehicle_type_id":"4","last_reported":1729350476,"current_range_meters":24400,"station_id":"ce4bhbp2rcd13ifvqerg","pricing_plan_id":"cebpf4jnsgd1na2vs0mg"},{"bike_id":"2661bf78-d577-495a-b92c-a669ea67dff8","system_id":"levelo_inurba_marseille","lat":43.28266,"lon":5.35083,"is_reserved":false,"is_disabled":false,"rental_uris":{"android":"levelo://app?vid=2661bf78-d577-495a-b92c-a669ea67dff8","ios":"levelo://app?vid=2661bf78-d577-495a-b92c-a669ea67dff8"},"vehicle_type_id":"4","last_reported":1729350476,"current_range_meters":11600,"station_id":"ce4bhbp2rcd13ifvqerg","pricing_plan_id":"cebpf4jnsgd1na2vs0mg"},{"bike_id":"f3a96a4d-bc6d-460f-a415-db98973047b8","system_id":"levelo_inurba_marseille","lat":43.29899,"lon":5.43664,"is_reserved":false,"is_disabled":false,"rental_uris":{"android":"levelo://app?vid=f3a96a4d-bc6d-460f-a415-db98973047b8","ios":"levelo://app?vid=f3a96a4d-bc6d-460f-a415-db98973047b8"},"vehicle_type_id":"4","last_reported":1729350476,"current_range_meters":39200,"station_id":"ce4bhpp2rcd13ifvqhfg","pricing_plan_id":"cebpf4jnsgd1na2vs0mg"},{"bike_id":"9fe8db15-0111-408d-8e77-5936a9d06147","system_id":"levelo_inurba_marseille","lat":43.23962,"lon":5.3663,"is_reserved":false,"is_disabled":false,"rental_uris":{"android":"levelo://app?vid=9fe8db15-0111-408d-8e77-5936a9d06147","ios":"levelo://app?vid=9fe8db15-0111-408d-8e77-5936a9d06147"},"vehicle_type_id":"4","last_reported":1729350476,"current_range_meters":31200,"station_id":"ce4bhi12rcd13ifvqfp0","pricing_plan_id":"cebpf4jnsgd1na2vs0mg"},{"bike_id":"1346ea84-ccfa-4dca-85a7-8858d05dcb2f","system_id":"levelo_inurba_marseille","lat":43.23183,"lon":5.39984,"is_reserved":false,"is_disabled":false,"rental_uris":{"android":"levelo://app?vid=1346ea84-ccfa-4dca-85a7-8858d05dcb2f","ios":"levelo://app?vid=1346ea84-ccfa-4dca-85a7-8858d05dcb2f"},"vehicle_type_id":"4","last_reported":1729350476,"current_range_meters":36400,"station_id":"ce4bhn12rcd13ifvqgqg","pricing_plan_id":"cebpf4jnsgd1na2vs0mg"},{"bike_id":"ef9c8e8a-1611-47d0-9040-86581a83e7cd","system_id":"levelo_inurba_marseille","lat":43.25579,"lon":5.38242,"is_reserved":false,"is_disabled":false,"rental_uris":{"android":"levelo://app?vid=ef9c8e8a-1611-47d0-9040-86581a83e7cd","ios":"levelo://app?vid=ef9c8e8a-1611-47d0-9040-86581a83e7cd"},"vehicle_type_id":"4","last_reported":1729350476,"current_range_meters":24400,"station_id":"ce4bhih2rcd13ifvqfs0","pricing_plan_id":"cebpf4jnsgd1na2vs0mg"},{"bike_id":"8a61b0d3-96ba-49fc-af75-dd8176297036","system_id":"levelo_inurba_marseille","lat":43.2396,"lon":5.36624,"is_reserved":false,"is_disabled":false,"rental_uris":{"android":"levelo://app?vid=8a61b0d3-96ba-49fc-af75-dd8176297036","ios":"levelo://app?vid=8a61b0d3-96ba-49fc-af75-dd8176297036"},"vehicle_type_id":"4","last_reported":1729350476,"current_range_meters":15200,"station_id":"ce4bhi12rcd13ifvqfp0","pricing_plan_id":"cebpf4jnsgd1na2vs0mg"},{"bike_id":"4411742c-e4a0-464d-9251-cb80401b2850","system_id":"levelo_inurba_marseille","lat":43.27075,"lon":5.42283,"is_reserved":false,"is_disabled":false,"rental_uris":{"android":"levelo://app?vid=4411742c-e4a0-464d-9251-cb80401b2850","ios":"levelo://app?vid=4411742c-e4a0-464d-9251-cb80401b2850"},"vehicle_type_id":"4","last_reported":1729350476,"current_range_meters":12000,"station_id":"ce4bhk92rcd13ifvqgb0","pricing_plan_id":"cebpf4jnsgd1na2vs0mg"},{"bike_id":"3643b16b-6daa-48ed-9d2d-3619ab33a87a","system_id":"levelo_inurba_marseille","lat":43.28274,"lon":5.35081,"is_reserved":false,"is_disabled":false,"rental_uris":{"android":"levelo://app?vid=3643b16b-6daa-48ed-9d2d-3619ab33a87a","ios":"levelo://app?vid=3643b16b-6daa-48ed-9d2d-3619ab33a87a"},"vehicle_type_id":"4","last_reported":1729350476,"current_range_meters":16400,"station_id":"ce4bhbp2rcd13ifvqerg","pricing_plan_id":"cebpf4jnsgd1na2vs0mg"},{"bike_id":"18a2295f-dc94-4982-b958-80180456d9a4","system_id":"levelo_inurba_marseille","lat":43.26886,"lon":5.393399,"is_reserved":false,"is_disabled":false,"rental_uris":{"android":"levelo://app?vid=18a2295f-dc94-4982-b958-80180456d9a4","ios":"levelo://app?vid=18a2295f-dc94-4982-b958-80180456d9a4"},"vehicle_type_id":"4","last_reported":1729350476,"current_range_meters":9200,"station_id":"ce4bhh12rcd13ifvqfg0","pricing_plan_id":"cebpf4jnsgd1na2vs0mg"},{"bike_id":"b655f0e5-9f54-4337-9f8f-e40c329da075","system_id":"levelo_inurba_marseille","lat":43.293258,"lon":5.375049,"is_reserved":false,"is_disabled":false,"rental_uris":{"android":"levelo://app?vid=b655f0e5-9f54-4337-9f8f-e40c329da075","ios":"levelo://app?vid=b655f0e5-9f54-4337-9f8f-e40c329da075"},"vehicle_type_id":"4","last_reported":1729350476,"current_range_meters":6800,"station_id":"ce4bgi12rcd13ifvqb70","pricing_plan_id":"cebpf4jnsgd1na2vs0mg"},{"bike_id":"239e1ca4-817a-4e38-97bd-1eb6419b9bfe","system_id":"levelo_inurba_marseille","lat":43.26566,"lon":5.39013,"is_reserved":false,"is_disabled":false,"rental_uris":{"android":"levelo://app?vid=239e1ca4-817a-4e38-97bd-1eb6419b9bfe","ios":"levelo://app?vid=239e1ca4-817a-4e38-97bd-1eb6419b9bfe"},"vehicle_type_id":"4","last_reported":1729350476,"current_range_meters":36800,"station_id":"ce4bhe12rcd13ifvqf30","pricing_plan_id":"cebpf4jnsgd1na2vs0mg"},{"bike_id":"5cc7e9b9-85de-46d0-81b3-f6bf8d219e67","system_id":"levelo_inurba_marseille","lat":43.24079,"lon":5.37752,"is_reserved":false,"is_disabled":false,"rental_uris":{"android":"levelo://app?vid=5cc7e9b9-85de-46d0-81b3-f6bf8d219e67","ios":"levelo://app?vid=5cc7e9b9-85de-46d0-81b3-f6bf8d219e67"},"vehicle_type_id":"4","last_reported":1729350476,"current_range_meters":38800,"station_id":"ce4bhnp2rcd13ifvqgvg","pricing_plan_id":"cebpf4jnsgd1na2vs0mg"},{"bike_id":"7b8f967f-c2b6-43e0-bada-17343d9a6f11","system_id":"levelo_inurba_marseille","lat":43.2827,"lon":5.35075,"is_reserved":false,"is_disabled":false,"rental_uris":{"android":"levelo://app?vid=7b8f967f-c2b6-43e0-bada-17343d9a6f11","ios":"levelo://app?vid=7b8f967f-c2b6-43e0-bada-17343d9a6f11"},"vehicle_type_id":"4","last_reported":1729350476,"current_range_meters":38800,"station_id":"ce4bhbp2rcd13ifvqerg","pricing_plan_id":"cebpf4jnsgd1na2vs0mg"},{"bike_id":"ddcac861-3a1a-4cdf-8d91-8c0ebd2a878d","system_id":"levelo_inurba_marseille","lat":43.28268,"lon":5.35071,"is_reserved":false,"is_disabled":false,"rental_uris":{"android":"levelo://app?vid=ddcac861-3a1a-4cdf-8d91-8c0ebd2a878d","ios":"levelo://app?vid=ddcac861-3a1a-4cdf-8d91-8c0ebd2a878d"},"vehicle_type_id":"4","last_reported":1729350476,"current_range_meters":33200,"station_id":"ce4bhbp2rcd13ifvqerg","pricing_plan_id":"cebpf4jnsgd1na2vs0mg"},{"bike_id":"9b78167b-ae5a-47c9-9d1b-58b45505fd1c","system_id":"levelo_inurba_marseille","lat":43.24168,"lon":5.36401,"is_reserved":false,"is_disabled":false,"rental_uris":{"android":"levelo://app?vid=9b78167b-ae5a-47c9-9d1b-58b45505fd1c","ios":"levelo://app?vid=9b78167b-ae5a-47c9-9d1b-58b45505fd1c"},"vehicle_type_id":"4","last_reported":1729350476,"current_range_meters":36000,"station_id":"cpo36qri1sfpv3e86is0","pricing_plan_id":"cebpf4jnsgd1na2vs0mg"},{"bike_id":"96c45d21-03ea-46ea-afa5-0c108eeb81d1","system_id":"levelo_inurba_marseille","lat":43.24994,"lon":5.38949,"is_reserved":false,"is_disabled":false,"rental_uris":{"android":"levelo://app?vid=96c45d21-03ea-46ea-afa5-0c108eeb81d1","ios":"levelo://app?vid=96c45d21-03ea-46ea-afa5-0c108eeb81d1"},"vehicle_type_id":"4","last_reported":1729350476,"current_range_meters":3600,"station_id":"ce4bhgp2rcd13ifvqfd0","pricing_plan_id":"cebpf4jnsgd1na2vs0mg"},{"bike_id":"4abd684e-2272-4a73-b8da-11dc8d30d8d5","system_id":"levelo_inurba_marseille","lat":43.25582,"lon":5.38238,"is_reserved":false,"is_disabled":false,"rental_uris":{"android":"levelo://app?vid=4abd684e-2272-4a73-b8da-11dc8d30d8d5","ios":"levelo://app?vid=4abd684e-2272-4a73-b8da-11dc8d30d8d5"},"vehicle_type_id":"4","last_reported":1729350476,"current_range_meters":39200,"station_id":"ce4bhih2rcd13ifvqfs0","pricing_plan_id":"cebpf4jnsgd1na2vs0mg"},{"bike_id":"c8fa6f39-e07d-463d-8d01-7ccf9e86f944","system_id":"levelo_inurba_marseille","lat":43.23195,"lon":5.35547,"is_reserved":false,"is_disabled":false,"rental_uris":{"android":"levelo://app?vid=c8fa6f39-e07d-463d-8d01-7ccf9e86f944","ios":"levelo://app?vid=c8fa6f39-e07d-463d-8d01-7ccf9e86f944"},"vehicle_type_id":"4","last_reported":1729350476,"current_range_meters":16800,"station_id":"ce4bhu92rcd13ifvqi70","pricing_plan_id":"cebpf4jnsgd1na2vs0mg"},{"bike_id":"3ecd5c07-0403-4fc0-92a5-49f183ce169a","system_id":"levelo_inurba_marseille","lat":43.28726,"lon":5.37917,"is_reserved":false,"is_disabled":false,"rental_uris":{"android":"levelo://app?vid=3ecd5c07-0403-4fc0-92a5-49f183ce169a","ios":"levelo://app?vid=3ecd5c07-0403-4fc0-92a5-49f183ce169a"},"vehicle_type_id":"4","last_reported":1729350476,"current_range_meters":30400,"station_id":"ce4bh4p2rcd13ifvqe1g","pricing_plan_id":"cebpf4jnsgd1na2vs0mg"},{"bike_id":"6e099ce7-6b7d-45fb-9ad5-e5f3d80e03f1","system_id":"levelo_inurba_marseille","lat":43.23962,"lon":5.36635,"is_reserved":false,"is_disabled":false,"rental_uris":{"android":"levelo://app?vid=6e099ce7-6b7d-45fb-9ad5-e5f3d80e03f1","ios":"levelo://app?vid=6e099ce7-6b7d-45fb-9ad5-e5f3d80e03f1"},"vehicle_type_id":"4","last_reported":1729350476,"current_range_meters":24400,"station_id":"ce4bhi12rcd13ifvqfp0","pricing_plan_id":"cebpf4jnsgd1na2vs0mg"},{"bike_id":"61b615b6-047f-422f-826b-0c7a7d8351f5","system_id":"levelo_inurba_marseille","lat":43.27619,"lon":5.36113,"is_reserved":false,"is_disabled":false,"rental_uris":{"android":"levelo://app?vid=61b615b6-047f-422f-826b-0c7a7d8351f5","ios":"levelo://app?vid=61b615b6-047f-422f-826b-0c7a7d8351f5"},"vehicle_type_id":"4","last_reported":1729350476,"current_range_meters":3600,"station_id":"ce4bgj92rcd13ifvqbe0","pricing_plan_id":"cebpf4jnsgd1na2vs0mg"},{"bike_id":"54223c06-469a-4362-9d64-f6bc8552edc2","system_id":"levelo_inurba_marseille","lat":43.23968,"lon":5.36629,"is_reserved":false,"is_disabled":false,"rental_uris":{"android":"levelo://app?vid=54223c06-469a-4362-9d64-f6bc8552edc2","ios":"levelo://app?vid=54223c06-469a-4362-9d64-f6bc8552edc2"},"vehicle_type_id":"4","last_reported":1729350476,"current_range_meters":25600,"station_id":"ce4bhi12rcd13ifvqfp0","pricing_plan_id":"cebpf4jnsgd1na2vs0mg"},{"bike_id":"a123632a-591c-4b88-aa22-7acd56019d50","system_id":"levelo_inurba_marseille","lat":43.32063,"lon":5.41541,"is_reserved":false,"is_disabled":false,"rental_uris":{"android":"levelo://app?vid=a123632a-591c-4b88-aa22-7acd56019d50","ios":"levelo://app?vid=a123632a-591c-4b88-aa22-7acd56019d50"},"vehicle_type_id":"4","last_reported":1729350476,"current_range_meters":34800,"station_id":"ce4bhq92rcd13ifvqhkg","pricing_plan_id":"cebpf4jnsgd1na2vs0mg"},{"bike_id":"681ed7e2-7c90-4e4a-892a-67adc5d5a6bf","system_id":"levelo_inurba_marseille","lat":43.23968,"lon":5.36625,"is_reserved":false,"is_disabled":false,"rental_uris":{"android":"levelo://app?vid=681ed7e2-7c90-4e4a-892a-67adc5d5a6bf","ios":"levelo://app?vid=681ed7e2-7c90-4e4a-892a-67adc5d5a6bf"},"vehicle_type_id":"4","last_reported":1729350476,"current_range_meters":34800,"station_id":"ce4bhi12rcd13ifvqfp0","pricing_plan_id":"cebpf4jnsgd1na2vs0mg"},{"bike_id":"30160e53-8fb4-4d63-8020-a76f765332ee","system_id":"levelo_inurba_marseille","lat":43.27966,"lon":5.38744,"is_reserved":false,"is_disabled":false,"rental_uris":{"android":"levelo://app?vid=30160e53-8fb4-4d63-8020-a76f765332ee","ios":"levelo://app?vid=30160e53-8fb4-4d63-8020-a76f765332ee"},"vehicle_type_id":"4","last_reported":1729350476,"current_range_meters":4400,"station_id":"ce4bhg12rcd13ifvqf80","pricing_plan_id":"cebpf4jnsgd1na2vs0mg"},{"bike_id":"ac320038-41f8-4872-9efc-1ddba5d45cfe","system_id":"levelo_inurba_marseille","lat":43.24545,"lon":5.39518,"is_reserved":false,"is_disabled":false,"rental_uris":{"android":"levelo://app?vid=ac320038-41f8-4872-9efc-1ddba5d45cfe","ios":"levelo://app?vid=ac320038-41f8-4872-9efc-1ddba5d45cfe"},"vehicle_type_id":"4","last_reported":1729350476,"current_range_meters":16400,"station_id":"ce4bhlp2rcd13ifvqgjg","pricing_plan_id":"cebpf4jnsgd1na2vs0mg"},{"bike_id":"4e7678a8-9986-4ac8-be6b-f6576d488fdd","system_id":"levelo_inurba_marseille","lat":43.2951,"lon":5.37502,"is_reserved":false,"is_disabled":false,"rental_uris":{"android":"levelo://app?vid=4e7678a8-9986-4ac8-be6b-f6576d488fdd","ios":"levelo://app?vid=4e7678a8-9986-4ac8-be6b-f6576d488fdd"},"vehicle_type_id":"4","last_reported":1729350476,"current_range_meters":19200,"station_id":"ce4bgkp2rcd13ifvqbmg","pricing_plan_id":"cebpf4jnsgd1na2vs0mg"},{"bike_id":"7d1af8f0-0657-4cf5-9266-acbbc69b3b9a","system_id":"levelo_inurba_marseille","lat":43.30956,"lon":5.39032,"is_reserved":false,"is_disabled":false,"rental_uris":{"android":"levelo://app?vid=7d1af8f0-0657-4cf5-9266-acbbc69b3b9a","ios":"levelo://app?vid=7d1af8f0-0657-4cf5-9266-acbbc69b3b9a"},"vehicle_type_id":"4","last_reported":1729350476,"current_range_meters":28400,"station_id":"ce4bgup2rcd13ifvqco0","pricing_plan_id":"cebpf4jnsgd1na2vs0mg"},{"bike_id":"ae49e890-28c7-4b12-85df-75341d30795c","system_id":"levelo_inurba_marseille","lat":43.28268,"lon":5.3508,"is_reserved":false,"is_disabled":false,"rental_uris":{"android":"levelo://app?vid=ae49e890-28c7-4b12-85df-75341d30795c","ios":"levelo://app?vid=ae49e890-28c7-4b12-85df-75341d30795c"},"vehicle_type_id":"4","last_reported":1729350476,"current_range_meters":28800,"station_id":"ce4bhbp2rcd13ifvqerg","pricing_plan_id":"cebpf4jnsgd1na2vs0mg"},{"bike_id":"53c82642-be13-460a-93f6-1c19cb1e51c3","system_id":"levelo_inurba_marseille","lat":43.2962,"lon":5.37154,"is_reserved":false,"is_disabled":false,"rental_uris":{"android":"levelo://app?vid=53c82642-be13-460a-93f6-1c19cb1e51c3","ios":"levelo://app?vid=53c82642-be13-460a-93f6-1c19cb1e51c3"},"vehicle_type_id":"4","last_reported":1729350476,"current_range_meters":32400,"station_id":"ce4bgnh2rcd13ifvqc0g","pricing_plan_id":"cebpf4jnsgd1na2vs0mg"},{"bike_id":"3a9a1015-81aa-4fc3-adac-3ac17105cf1b","system_id":"levelo_inurba_marseille","lat":43.25504,"lon":5.37653,"is_reserved":false,"is_disabled":false,"rental_uris":{"android":"levelo://app?vid=3a9a1015-81aa-4fc3-adac-3ac17105cf1b","ios":"levelo://app?vid=3a9a1015-81aa-4fc3-adac-3ac17105cf1b"},"vehicle_type_id":"4","last_reported":1729350476,"current_range_meters":32000,"station_id":"ce4bhh12rcd13ifvqff0","pricing_plan_id":"cebpf4jnsgd1na2vs0mg"},{"bike_id":"b341ba22-0784-46bc-9f55-55dabd1b702d","system_id":"levelo_inurba_marseille","lat":43.28273,"lon":5.35084,"is_reserved":false,"is_disabled":false,"rental_uris":{"android":"levelo://app?vid=b341ba22-0784-46bc-9f55-55dabd1b702d","ios":"levelo://app?vid=b341ba22-0784-46bc-9f55-55dabd1b702d"},"vehicle_type_id":"4","last_reported":1729350476,"current_range_meters":25600,"station_id":"ce4bhbp2rcd13ifvqerg","pricing_plan_id":"cebpf4jnsgd1na2vs0mg"},{"bike_id":"f8a257ac-af07-40d9-a6f6-89a4bd490c52","system_id":"levelo_inurba_marseille","lat":43.25001,"lon":5.38926,"is_reserved":false,"is_disabled":false,"rental_uris":{"android":"levelo://app?vid=f8a257ac-af07-40d9-a6f6-89a4bd490c52","ios":"levelo://app?vid=f8a257ac-af07-40d9-a6f6-89a4bd490c52"},"vehicle_type_id":"4","last_reported":1729350476,"current_range_meters":18000,"station_id":"ce4bhgp2rcd13ifvqfd0","pricing_plan_id":"cebpf4jnsgd1na2vs0mg"},{"bike_id":"3c229fe4-120c-470a-b462-d102b28f2de1","system_id":"levelo_inurba_marseille","lat":43.25579,"lon":5.38234,"is_reserved":false,"is_disabled":false,"rental_uris":{"android":"levelo://app?vid=3c229fe4-120c-470a-b462-d102b28f2de1","ios":"levelo://app?vid=3c229fe4-120c-470a-b462-d102b28f2de1"},"vehicle_type_id":"4","last_reported":1729350476,"current_range_meters":35200,"station_id":"ce4bhih2rcd13ifvqfs0","pricing_plan_id":"cebpf4jnsgd1na2vs0mg"},{"bike_id":"0120576e-b1f8-4cc7-9e30-ce8cf8a6a97f","system_id":"levelo_inurba_marseille","lat":43.29852,"lon":5.36295,"is_reserved":false,"is_disabled":false,"rental_uris":{"android":"levelo://app?vid=0120576e-b1f8-4cc7-9e30-ce8cf8a6a97f","ios":"levelo://app?vid=0120576e-b1f8-4cc7-9e30-ce8cf8a6a97f"},"vehicle_type_id":"4","last_reported":1729350476,"current_range_meters":30400,"station_id":"ce4bgpp2rcd13ifvqc3g","pricing_plan_id":"cebpf4jnsgd1na2vs0mg"},{"bike_id":"1ba4092a-fde9-4b58-9e81-1c8759e5df14","system_id":"levelo_inurba_marseille","lat":43.27938,"lon":5.41049,"is_reserved":false,"is_disabled":false,"rental_uris":{"android":"levelo://app?vid=1ba4092a-fde9-4b58-9e81-1c8759e5df14","ios":"levelo://app?vid=1ba4092a-fde9-4b58-9e81-1c8759e5df14"},"vehicle_type_id":"4","last_reported":1729350476,"current_range_meters":9600,"station_id":"ce4bhnp2rcd13ifvqh0g","pricing_plan_id":"cebpf4jnsgd1na2vs0mg"},{"bike_id":"075b2f64-b7cc-4060-bc48-efbc8b5aa798","system_id":"levelo_inurba_marseille","lat":43.28421,"lon":5.34991,"is_reserved":false,"is_disabled":false,"rental_uris":{"android":"levelo://app?vid=075b2f64-b7cc-4060-bc48-efbc8b5aa798","ios":"levelo://app?vid=075b2f64-b7cc-4060-bc48-efbc8b5aa798"},"vehicle_type_id":"4","last_reported":1729350476,"current_range_meters":31200,"station_id":"ce4bhbh2rcd13ifvqepg","pricing_plan_id":"cebpf4jnsgd1na2vs0mg"},{"bike_id":"8779a9e7-be1d-4078-a566-2a3c8864eeeb","system_id":"levelo_inurba_marseille","lat":43.3171,"lon":5.43709,"is_reserved":false,"is_disabled":false,"rental_uris":{"android":"levelo://app?vid=8779a9e7-be1d-4078-a566-2a3c8864eeeb","ios":"levelo://app?vid=8779a9e7-be1d-4078-a566-2a3c8864eeeb"},"vehicle_type_id":"4","last_reported":1729350476,"current_range_meters":32800,"station_id":"ce4bhp92rcd13ifvqhcg","pricing_plan_id":"cebpf4jnsgd1na2vs0mg"},{"bike_id":"2f5a8e1c-8db0-40a3-899f-1d538b301e75","system_id":"levelo_inurba_marseille","lat":43.2319,"lon":5.39988,"is_reserved":false,"is_disabled":false,"rental_uris":{"android":"levelo://app?vid=2f5a8e1c-8db0-40a3-899f-1d538b301e75","ios":"levelo://app?vid=2f5a8e1c-8db0-40a3-899f-1d538b301e75"},"vehicle_type_id":"4","last_reported":1729350476,"current_range_meters":16000,"station_id":"ce4bhn12rcd13ifvqgqg","pricing_plan_id":"cebpf4jnsgd1na2vs0mg"},{"bike_id":"c9119563-5a43-4cfa-8596-4f328fa40aa4","system_id":"levelo_inurba_marseille","lat":43.23196,"lon":5.35554,"is_reserved":false,"is_disabled":false,"rental_uris":{"android":"levelo://app?vid=c9119563-5a43-4cfa-8596-4f328fa40aa4","ios":"levelo://app?vid=c9119563-5a43-4cfa-8596-4f328fa40aa4"},"vehicle_type_id":"4","last_reported":1729350476,"current_range_meters":10800,"station_id":"ce4bhu92rcd13ifvqi70","pricing_plan_id":"cebpf4jnsgd1na2vs0mg"},{"bike_id":"956339c0-186f-4e43-b1f0-a18a187b18d8","system_id":"levelo_inurba_marseille","lat":43.26062,"lon":5.39401,"is_reserved":false,"is_disabled":false,"rental_uris":{"android":"levelo://app?vid=956339c0-186f-4e43-b1f0-a18a187b18d8","ios":"levelo://app?vid=956339c0-186f-4e43-b1f0-a18a187b18d8"},"vehicle_type_id":"4","last_reported":1729350476,"current_range_meters":4800,"station_id":"ce4bhh92rcd13ifvqfj0","pricing_plan_id":"cebpf4jnsgd1na2vs0mg"},{"bike_id":"97bc5af9-6fca-44dd-841b-c474f682165a","system_id":"levelo_inurba_marseille","lat":43.262,"lon":5.37929,"is_reserved":false,"is_disabled":false,"rental_uris":{"android":"levelo://app?vid=97bc5af9-6fca-44dd-841b-c474f682165a","ios":"levelo://app?vid=97bc5af9-6fca-44dd-841b-c474f682165a"},"vehicle_type_id":"4","last_reported":1729350476,"current_range_meters":30000,"station_id":"ce4bhjp2rcd13ifvqg90","pricing_plan_id":"cebpf4jnsgd1na2vs0mg"},{"bike_id":"be6829e4-0c15-4307-9615-22a486ed0ef0","system_id":"levelo_inurba_marseille","lat":43.33023,"lon":5.39044,"is_reserved":false,"is_disabled":false,"rental_uris":{"android":"levelo://app?vid=be6829e4-0c15-4307-9615-22a486ed0ef0","ios":"levelo://app?vid=be6829e4-0c15-4307-9615-22a486ed0ef0"},"vehicle_type_id":"4","last_reported":1729350476,"current_range_meters":38800,"station_id":"ce4bhr92rcd13ifvqhrg","pricing_plan_id":"cebpf4jnsgd1na2vs0mg"},{"bike_id":"2a804de5-6132-4e00-99ac-cf0673cf3645","system_id":"levelo_inurba_marseille","lat":43.31359,"lon":5.38487,"is_reserved":false,"is_disabled":false,"rental_uris":{"android":"levelo://app?vid=2a804de5-6132-4e00-99ac-cf0673cf3645","ios":"levelo://app?vid=2a804de5-6132-4e00-99ac-cf0673cf3645"},"vehicle_type_id":"4","last_reported":1729350476,"current_range_meters":32000,"station_id":"ce4bgt92rcd13ifvqcf0","pricing_plan_id":"cebpf4jnsgd1na2vs0mg"},{"bike_id":"68022529-a267-4c22-b379-9c81b5a21bef","system_id":"levelo_inurba_marseille","lat":43.30011,"lon":5.39775,"is_reserved":false,"is_disabled":false,"rental_uris":{"android":"levelo://app?vid=68022529-a267-4c22-b379-9c81b5a21bef","ios":"levelo://app?vid=68022529-a267-4c22-b379-9c81b5a21bef"},"vehicle_type_id":"4","last_reported":1729350476,"current_range_meters":30000,"station_id":"ce4bgup2rcd13ifvqco0","pricing_plan_id":"cebpf4jnsgd1na2vs0mg"},{"bike_id":"46aaa56d-170f-4e00-9425-201c79d5498a","system_id":"levelo_inurba_marseille","lat":43.25585,"lon":5.38225,"is_reserved":false,"is_disabled":false,"rental_uris":{"android":"levelo://app?vid=46aaa56d-170f-4e00-9425-201c79d5498a","ios":"levelo://app?vid=46aaa56d-170f-4e00-9425-201c79d5498a"},"vehicle_type_id":"4","last_reported":1729350476,"current_range_meters":7200,"station_id":"ce4bhih2rcd13ifvqfs0","pricing_plan_id":"cebpf4jnsgd1na2vs0mg"},{"bike_id":"b3040c09-5cc9-4399-a463-ac0ccfd2dc9e","system_id":"levelo_inurba_marseille","lat":43.29254,"lon":5.40912,"is_reserved":false,"is_disabled":false,"rental_uris":{"android":"levelo://app?vid=b3040c09-5cc9-4399-a463-ac0ccfd2dc9e","ios":"levelo://app?vid=b3040c09-5cc9-4399-a463-ac0ccfd2dc9e"},"vehicle_type_id":"4","last_reported":1729350476,"current_range_meters":32800,"station_id":"ce4bh192rcd13ifvqdc0","pricing_plan_id":"cebpf4jnsgd1na2vs0mg"},{"bike_id":"6cdd7997-333d-465c-a415-fe39597b4870","system_id":"levelo_inurba_marseille","lat":43.23962,"lon":5.36635,"is_reserved":false,"is_disabled":false,"rental_uris":{"android":"levelo://app?vid=6cdd7997-333d-465c-a415-fe39597b4870","ios":"levelo://app?vid=6cdd7997-333d-465c-a415-fe39597b4870"},"vehicle_type_id":"4","last_reported":1729350476,"current_range_meters":12400,"station_id":"ce4bhi12rcd13ifvqfp0","pricing_plan_id":"cebpf4jnsgd1na2vs0mg"},{"bike_id":"d20262c8-4239-4244-8d3e-c29521b401a0","system_id":"levelo_inurba_marseille","lat":43.23966,"lon":5.36633,"is_reserved":false,"is_disabled":false,"rental_uris":{"android":"levelo://app?vid=d20262c8-4239-4244-8d3e-c29521b401a0","ios":"levelo://app?vid=d20262c8-4239-4244-8d3e-c29521b401a0"},"vehicle_type_id":"4","last_reported":1729350476,"current_range_meters":4000,"station_id":"ce4bhi12rcd13ifvqfp0","pricing_plan_id":"cebpf4jnsgd1na2vs0mg"},{"bike_id":"b61550bb-b717-4b9a-9ef2-3f8ca003f1ef","system_id":"levelo_inurba_marseille","lat":43.26806,"lon":5.40271,"is_reserved":false,"is_disabled":false,"rental_uris":{"android":"levelo://app?vid=b61550bb-b717-4b9a-9ef2-3f8ca003f1ef","ios":"levelo://app?vid=b61550bb-b717-4b9a-9ef2-3f8ca003f1ef"},"vehicle_type_id":"4","last_reported":1729350476,"current_range_meters":24400,"station_id":"ce501612rcd8frsf0b60","pricing_plan_id":"cebpf4jnsgd1na2vs0mg"},{"bike_id":"8c7c3ed4-3b1d-4133-9c1c-e10e113d96e9","system_id":"levelo_inurba_marseille","lat":43.29849,"lon":5.36277,"is_reserved":false,"is_disabled":false,"rental_uris":{"android":"levelo://app?vid=8c7c3ed4-3b1d-4133-9c1c-e10e113d96e9","ios":"levelo://app?vid=8c7c3ed4-3b1d-4133-9c1c-e10e113d96e9"},"vehicle_type_id":"4","last_reported":1729350476,"current_range_meters":38800,"station_id":"ce4bgpp2rcd13ifvqc3g","pricing_plan_id":"cebpf4jnsgd1na2vs0mg"},{"bike_id":"f38b41b1-d119-4e60-94fc-a6dd8dc39d0e","system_id":"levelo_inurba_marseille","lat":43.33756,"lon":5.37467,"is_reserved":false,"is_disabled":false,"rental_uris":{"android":"levelo://app?vid=f38b41b1-d119-4e60-94fc-a6dd8dc39d0e","ios":"levelo://app?vid=f38b41b1-d119-4e60-94fc-a6dd8dc39d0e"},"vehicle_type_id":"4","last_reported":1729350476,"current_range_meters":35600,"station_id":"","pricing_plan_id":"cebpf4jnsgd1na2vs0mg"},{"bike_id":"18cd8b28-c973-4850-9ea8-ff5c5b585529","system_id":"levelo_inurba_marseille","lat":43.27943,"lon":5.41054,"is_reserved":false,"is_disabled":false,"rental_uris":{"android":"levelo://app?vid=18cd8b28-c973-4850-9ea8-ff5c5b585529","ios":"levelo://app?vid=18cd8b28-c973-4850-9ea8-ff5c5b585529"},"vehicle_type_id":"4","last_reported":1729350476,"current_range_meters":25200,"station_id":"ce4bhnp2rcd13ifvqh0g","pricing_plan_id":"cebpf4jnsgd1na2vs0mg"},{"bike_id":"bcba3295-371a-4f1a-8c07-6f405679e009","system_id":"levelo_inurba_marseille","lat":43.3266,"lon":5.40991,"is_reserved":false,"is_disabled":false,"rental_uris":{"android":"levelo://app?vid=bcba3295-371a-4f1a-8c07-6f405679e009","ios":"levelo://app?vid=bcba3295-371a-4f1a-8c07-6f405679e009"},"vehicle_type_id":"4","last_reported":1729350476,"current_range_meters":27600,"station_id":"ce4bhpp2rcd13ifvqhgg","pricing_plan_id":"cebpf4jnsgd1na2vs0mg"},{"bike_id":"91a00572-9d9c-4529-8336-1c9e96a2703f","system_id":"levelo_inurba_marseille","lat":43.25087,"lon":5.39528,"is_reserved":false,"is_disabled":false,"rental_uris":{"android":"levelo://app?vid=91a00572-9d9c-4529-8336-1c9e96a2703f","ios":"levelo://app?vid=91a00572-9d9c-4529-8336-1c9e96a2703f"},"vehicle_type_id":"4","last_reported":1729350476,"current_range_meters":27200,"station_id":"ce4bhm12rcd13ifvqgkg","pricing_plan_id":"cebpf4jnsgd1na2vs0mg"},{"bike_id":"540e6e1d-815a-4f21-a0c2-0d9f9c931086","system_id":"levelo_inurba_marseille","lat":43.26943,"lon":5.40258,"is_reserved":false,"is_disabled":false,"rental_uris":{"android":"levelo://app?vid=540e6e1d-815a-4f21-a0c2-0d9f9c931086","ios":"levelo://app?vid=540e6e1d-815a-4f21-a0c2-0d9f9c931086"},"vehicle_type_id":"4","last_reported":1729350476,"current_range_meters":7200,"station_id":"cjm6bp8fraef2m0cb0m0","pricing_plan_id":"cebpf4jnsgd1na2vs0mg"},{"bike_id":"06371849-6978-4d56-8e33-981eae044ffe","system_id":"levelo_inurba_marseille","lat":43.28421,"lon":5.34981,"is_reserved":false,"is_disabled":false,"rental_uris":{"android":"levelo://app?vid=06371849-6978-4d56-8e33-981eae044ffe","ios":"levelo://app?vid=06371849-6978-4d56-8e33-981eae044ffe"},"vehicle_type_id":"4","last_reported":1729350476,"current_range_meters":24000,"station_id":"ce4bhbh2rcd13ifvqepg","pricing_plan_id":"cebpf4jnsgd1na2vs0mg"},{"bike_id":"964a684b-e7cb-482c-893d-dab03d02f20d","system_id":"levelo_inurba_marseille","lat":43.23963,"lon":5.36641,"is_reserved":false,"is_disabled":false,"rental_uris":{"android":"levelo://app?vid=964a684b-e7cb-482c-893d-dab03d02f20d","ios":"levelo://app?vid=964a684b-e7cb-482c-893d-dab03d02f20d"},"vehicle_type_id":"4","last_reported":1729350476,"current_range_meters":16400,"station_id":"ce4bhi12rcd13ifvqfp0","pricing_plan_id":"cebpf4jnsgd1na2vs0mg"},{"bike_id":"92989e3e-37c8-4b6d-970e-22e72e334b87","system_id":"levelo_inurba_marseille","lat":43.24068,"lon":5.3776,"is_reserved":false,"is_disabled":false,"rental_uris":{"android":"levelo://app?vid=92989e3e-37c8-4b6d-970e-22e72e334b87","ios":"levelo://app?vid=92989e3e-37c8-4b6d-970e-22e72e334b87"},"vehicle_type_id":"4","last_reported":1729350476,"current_range_meters":11600,"station_id":"ce4bhnp2rcd13ifvqgvg","pricing_plan_id":"cebpf4jnsgd1na2vs0mg"},{"bike_id":"14095b1e-97cd-45fa-8730-b69a40eefc16","system_id":"levelo_inurba_marseille","lat":43.31342,"lon":5.36727,"is_reserved":false,"is_disabled":false,"rental_uris":{"android":"levelo://app?vid=14095b1e-97cd-45fa-8730-b69a40eefc16","ios":"levelo://app?vid=14095b1e-97cd-45fa-8730-b69a40eefc16"},"vehicle_type_id":"4","last_reported":1729350476,"current_range_meters":28000,"station_id":"ce4bgr92rcd13ifvqc6g","pricing_plan_id":"cebpf4jnsgd1na2vs0mg"},{"bike_id":"c61834e5-ab0c-4e12-b32f-eb9d3c1af5fe","system_id":"levelo_inurba_marseille","lat":43.239584,"lon":5.3664,"is_reserved":false,"is_disabled":false,"rental_uris":{"android":"levelo://app?vid=c61834e5-ab0c-4e12-b32f-eb9d3c1af5fe","ios":"levelo://app?vid=c61834e5-ab0c-4e12-b32f-eb9d3c1af5fe"},"vehicle_type_id":"4","last_reported":1729350476,"current_range_meters":21600,"station_id":"ce4bhi12rcd13ifvqfp0","pricing_plan_id":"cebpf4jnsgd1na2vs0mg"},{"bike_id":"f62b13b0-c478-4c23-80cb-1320d8336e78","system_id":"levelo_inurba_marseille","lat":43.29004,"lon":5.35611,"is_reserved":false,"is_disabled":false,"rental_uris":{"android":"levelo://app?vid=f62b13b0-c478-4c23-80cb-1320d8336e78","ios":"levelo://app?vid=f62b13b0-c478-4c23-80cb-1320d8336e78"},"vehicle_type_id":"4","last_reported":1729350476,"current_range_meters":38400,"station_id":"ce4bhb92rcd13ifvqen0","pricing_plan_id":"cebpf4jnsgd1na2vs0mg"},{"bike_id":"bd0cfc77-e1ca-45dd-bc33-df497e2bf065","system_id":"levelo_inurba_marseille","lat":43.28622,"lon":5.35111,"is_reserved":false,"is_disabled":false,"rental_uris":{"android":"levelo://app?vid=bd0cfc77-e1ca-45dd-bc33-df497e2bf065","ios":"levelo://app?vid=bd0cfc77-e1ca-45dd-bc33-df497e2bf065"},"vehicle_type_id":"4","last_reported":1729350476,"current_range_meters":10000,"station_id":"ce4bhch2rcd13ifvqeug","pricing_plan_id":"cebpf4jnsgd1na2vs0mg"},{"bike_id":"1cea25e3-c03d-40c2-9b82-cac6c297a0f9","system_id":"levelo_inurba_marseille","lat":43.23065,"lon":5.355,"is_reserved":false,"is_disabled":false,"rental_uris":{"android":"levelo://app?vid=1cea25e3-c03d-40c2-9b82-cac6c297a0f9","ios":"levelo://app?vid=1cea25e3-c03d-40c2-9b82-cac6c297a0f9"},"vehicle_type_id":"4","last_reported":1729350476,"current_range_meters":36400,"station_id":"cpo3342slgdg3j2ifvpg","pricing_plan_id":"cebpf4jnsgd1na2vs0mg"},{"bike_id":"d8efc19c-2990-47f7-9dad-741cdea74e5b","system_id":"levelo_inurba_marseille","lat":43.28424,"lon":5.34994,"is_reserved":false,"is_disabled":false,"rental_uris":{"android":"levelo://app?vid=d8efc19c-2990-47f7-9dad-741cdea74e5b","ios":"levelo://app?vid=d8efc19c-2990-47f7-9dad-741cdea74e5b"},"vehicle_type_id":"4","last_reported":1729350476,"current_range_meters":39200,"station_id":"ce4bhbh2rcd13ifvqepg","pricing_plan_id":"cebpf4jnsgd1na2vs0mg"},{"bike_id":"329136aa-07f5-4f25-9455-64cdd338572b","system_id":"levelo_inurba_marseille","lat":43.28154,"lon":5.42644,"is_reserved":false,"is_disabled":false,"rental_uris":{"android":"levelo://app?vid=329136aa-07f5-4f25-9455-64cdd338572b","ios":"levelo://app?vid=329136aa-07f5-4f25-9455-64cdd338572b"},"vehicle_type_id":"4","last_reported":1729350476,"current_range_meters":38400,"station_id":"ce4bhnh2rcd13ifvqgug","pricing_plan_id":"cebpf4jnsgd1na2vs0mg"},{"bike_id":"7cf52ff0-478c-46e2-940e-6842be0d4e38","system_id":"levelo_inurba_marseille","lat":43.24163,"lon":5.36398,"is_reserved":false,"is_disabled":false,"rental_uris":{"android":"levelo://app?vid=7cf52ff0-478c-46e2-940e-6842be0d4e38","ios":"levelo://app?vid=7cf52ff0-478c-46e2-940e-6842be0d4e38"},"vehicle_type_id":"4","last_reported":1729350476,"current_range_meters":2800,"station_id":"cpo36qri1sfpv3e86is0","pricing_plan_id":"cebpf4jnsgd1na2vs0mg"},{"bike_id":"7672b1d4-b83a-4070-bd43-b5127fe0f907","system_id":"levelo_inurba_marseille","lat":43.23187,"lon":5.39985,"is_reserved":false,"is_disabled":false,"rental_uris":{"android":"levelo://app?vid=7672b1d4-b83a-4070-bd43-b5127fe0f907","ios":"levelo://app?vid=7672b1d4-b83a-4070-bd43-b5127fe0f907"},"vehicle_type_id":"4","last_reported":1729350476,"current_range_meters":8400,"station_id":"ce4bhn12rcd13ifvqgqg","pricing_plan_id":"cebpf4jnsgd1na2vs0mg"},{"bike_id":"74fdfb54-1930-4756-a0b8-9d0566e42c09","system_id":"levelo_inurba_marseille","lat":43.32107,"lon":5.36772,"is_reserved":false,"is_disabled":false,"rental_uris":{"android":"levelo://app?vid=74fdfb54-1930-4756-a0b8-9d0566e42c09","ios":"levelo://app?vid=74fdfb54-1930-4756-a0b8-9d0566e42c09"},"vehicle_type_id":"4","last_reported":1729350476,"current_range_meters":30800,"station_id":"ce4bhrh2rcd13ifvqhug","pricing_plan_id":"cebpf4jnsgd1na2vs0mg"},{"bike_id":"b86c03aa-77cc-4600-b540-8950da6f02eb","system_id":"levelo_inurba_marseille","lat":43.30789,"lon":5.38163,"is_reserved":false,"is_disabled":false,"rental_uris":{"android":"levelo://app?vid=b86c03aa-77cc-4600-b540-8950da6f02eb","ios":"levelo://app?vid=b86c03aa-77cc-4600-b540-8950da6f02eb"},"vehicle_type_id":"4","last_reported":1729350476,"current_range_meters":2000,"station_id":"ce4bgt12rcd13ifvqce0","pricing_plan_id":"cebpf4jnsgd1na2vs0mg"},{"bike_id":"1dc2efc4-5cdd-4907-983c-f89552c4dd61","system_id":"levelo_inurba_marseille","lat":43.24169,"lon":5.36398,"is_reserved":false,"is_disabled":false,"rental_uris":{"android":"levelo://app?vid=1dc2efc4-5cdd-4907-983c-f89552c4dd61","ios":"levelo://app?vid=1dc2efc4-5cdd-4907-983c-f89552c4dd61"},"vehicle_type_id":"4","last_reported":1729350476,"current_range_meters":34800,"station_id":"cpo36qri1sfpv3e86is0","pricing_plan_id":"cebpf4jnsgd1na2vs0mg"},{"bike_id":"582805d6-d176-461f-84bb-f1c48d857c67","system_id":"levelo_inurba_marseille","lat":43.272675,"lon":5.391761,"is_reserved":false,"is_disabled":false,"rental_uris":{"android":"levelo://app?vid=582805d6-d176-461f-84bb-f1c48d857c67","ios":"levelo://app?vid=582805d6-d176-461f-84bb-f1c48d857c67"},"vehicle_type_id":"4","last_reported":1729350476,"current_range_meters":4800,"station_id":"ce4bh492rcd13ifvqdvg","pricing_plan_id":"cebpf4jnsgd1na2vs0mg"},{"bike_id":"9d40e33f-9e46-4f7b-a172-ac51f99950bd","system_id":"levelo_inurba_marseille","lat":43.24172,"lon":5.36395,"is_reserved":false,"is_disabled":false,"rental_uris":{"android":"levelo://app?vid=9d40e33f-9e46-4f7b-a172-ac51f99950bd","ios":"levelo://app?vid=9d40e33f-9e46-4f7b-a172-ac51f99950bd"},"vehicle_type_id":"4","last_reported":1729350476,"current_range_meters":17200,"station_id":"cpo36qri1sfpv3e86is0","pricing_plan_id":"cebpf4jnsgd1na2vs0mg"},{"bike_id":"373022c6-0c5e-4ab5-a096-0f5e1d5769b4","system_id":"levelo_inurba_marseille","lat":43.25205,"lon":5.37347,"is_reserved":false,"is_disabled":false,"rental_uris":{"android":"levelo://app?vid=373022c6-0c5e-4ab5-a096-0f5e1d5769b4","ios":"levelo://app?vid=373022c6-0c5e-4ab5-a096-0f5e1d5769b4"},"vehicle_type_id":"4","last_reported":1729350476,"current_range_meters":8400,"station_id":"","pricing_plan_id":"cebpf4jnsgd1na2vs0mg"},{"bike_id":"b2d5a4f0-ad99-4252-ad65-605a9016e54e","system_id":"levelo_inurba_marseille","lat":43.325762,"lon":5.372534,"is_reserved":false,"is_disabled":false,"rental_uris":{"android":"levelo://app?vid=b2d5a4f0-ad99-4252-ad65-605a9016e54e","ios":"levelo://app?vid=b2d5a4f0-ad99-4252-ad65-605a9016e54e"},"vehicle_type_id":"4","last_reported":1729350476,"current_range_meters":4000,"station_id":"","pricing_plan_id":"cebpf4jnsgd1na2vs0mg"},{"bike_id":"996b68ea-a3b8-48c9-9cf2-f66df1d63882","system_id":"levelo_inurba_marseille","lat":43.23193,"lon":5.35548,"is_reserved":false,"is_disabled":false,"rental_uris":{"android":"levelo://app?vid=996b68ea-a3b8-48c9-9cf2-f66df1d63882","ios":"levelo://app?vid=996b68ea-a3b8-48c9-9cf2-f66df1d63882"},"vehicle_type_id":"4","last_reported":1729350476,"current_range_meters":17600,"station_id":"ce4bhu92rcd13ifvqi70","pricing_plan_id":"cebpf4jnsgd1na2vs0mg"},{"bike_id":"f6b0da53-a5c3-4b96-9a98-d3bf53394edb","system_id":"levelo_inurba_marseille","lat":43.23967,"lon":5.36634,"is_reserved":false,"is_disabled":false,"rental_uris":{"android":"levelo://app?vid=f6b0da53-a5c3-4b96-9a98-d3bf53394edb","ios":"levelo://app?vid=f6b0da53-a5c3-4b96-9a98-d3bf53394edb"},"vehicle_type_id":"4","last_reported":1729350476,"current_range_meters":24400,"station_id":"ce4bhi12rcd13ifvqfp0","pricing_plan_id":"cebpf4jnsgd1na2vs0mg"},{"bike_id":"0efe6e76-478d-4fce-802e-67026243bc41","system_id":"levelo_inurba_marseille","lat":43.28276,"lon":5.35082,"is_reserved":false,"is_disabled":false,"rental_uris":{"android":"levelo://app?vid=0efe6e76-478d-4fce-802e-67026243bc41","ios":"levelo://app?vid=0efe6e76-478d-4fce-802e-67026243bc41"},"vehicle_type_id":"4","last_reported":1729350476,"current_range_meters":36800,"station_id":"ce4bhbp2rcd13ifvqerg","pricing_plan_id":"cebpf4jnsgd1na2vs0mg"},{"bike_id":"02b9aadc-1bcb-4263-bd80-f3addaedfdf0","system_id":"levelo_inurba_marseille","lat":43.24167,"lon":5.36391,"is_reserved":false,"is_disabled":false,"rental_uris":{"android":"levelo://app?vid=02b9aadc-1bcb-4263-bd80-f3addaedfdf0","ios":"levelo://app?vid=02b9aadc-1bcb-4263-bd80-f3addaedfdf0"},"vehicle_type_id":"4","last_reported":1729350476,"current_range_meters":17600,"station_id":"cpo36qri1sfpv3e86is0","pricing_plan_id":"cebpf4jnsgd1na2vs0mg"},{"bike_id":"5a6bdb42-d9f4-4df3-8941-ea3071aed898","system_id":"levelo_inurba_marseille","lat":43.23967,"lon":5.36629,"is_reserved":false,"is_disabled":false,"rental_uris":{"android":"levelo://app?vid=5a6bdb42-d9f4-4df3-8941-ea3071aed898","ios":"levelo://app?vid=5a6bdb42-d9f4-4df3-8941-ea3071aed898"},"vehicle_type_id":"4","last_reported":1729350476,"current_range_meters":17200,"station_id":"ce4bhi12rcd13ifvqfp0","pricing_plan_id":"cebpf4jnsgd1na2vs0mg"},{"bike_id":"982726d3-99b9-4e87-9b04-7f29183ae6e9","system_id":"levelo_inurba_marseille","lat":43.28276,"lon":5.35073,"is_reserved":false,"is_disabled":false,"rental_uris":{"android":"levelo://app?vid=982726d3-99b9-4e87-9b04-7f29183ae6e9","ios":"levelo://app?vid=982726d3-99b9-4e87-9b04-7f29183ae6e9"},"vehicle_type_id":"4","last_reported":1729350476,"current_range_meters":20000,"station_id":"ce4bhbp2rcd13ifvqerg","pricing_plan_id":"cebpf4jnsgd1na2vs0mg"},{"bike_id":"5233c573-36cd-4e58-a11b-fb425581081a","system_id":"levelo_inurba_marseille","lat":43.28619,"lon":5.35103,"is_reserved":false,"is_disabled":false,"rental_uris":{"android":"levelo://app?vid=5233c573-36cd-4e58-a11b-fb425581081a","ios":"levelo://app?vid=5233c573-36cd-4e58-a11b-fb425581081a"},"vehicle_type_id":"4","last_reported":1729350476,"current_range_meters":30000,"station_id":"ce4bhch2rcd13ifvqeug","pricing_plan_id":"cebpf4jnsgd1na2vs0mg"},{"bike_id":"b915f077-0d1a-43fc-86d7-d54c787b59a2","system_id":"levelo_inurba_marseille","lat":43.24291,"lon":5.43831,"is_reserved":false,"is_disabled":false,"rental_uris":{"android":"levelo://app?vid=b915f077-0d1a-43fc-86d7-d54c787b59a2","ios":"levelo://app?vid=b915f077-0d1a-43fc-86d7-d54c787b59a2"},"vehicle_type_id":"4","last_reported":1729350476,"current_range_meters":22000,"station_id":"","pricing_plan_id":"cebpf4jnsgd1na2vs0mg"},{"bike_id":"474d5c64-4154-4ae7-b02e-9a105d79c6fa","system_id":"levelo_inurba_marseille","lat":43.23967,"lon":5.36627,"is_reserved":false,"is_disabled":false,"rental_uris":{"android":"levelo://app?vid=474d5c64-4154-4ae7-b02e-9a105d79c6fa","ios":"levelo://app?vid=474d5c64-4154-4ae7-b02e-9a105d79c6fa"},"vehicle_type_id":"4","last_reported":1729350476,"current_range_meters":17200,"station_id":"ce4bhi12rcd13ifvqfp0","pricing_plan_id":"cebpf4jnsgd1na2vs0mg"},{"bike_id":"e34d4a4f-9333-4b9a-8e59-c2e265d82b22","system_id":"levelo_inurba_marseille","lat":43.32483,"lon":5.36567,"is_reserved":false,"is_disabled":false,"rental_uris":{"android":"levelo://app?vid=e34d4a4f-9333-4b9a-8e59-c2e265d82b22","ios":"levelo://app?vid=e34d4a4f-9333-4b9a-8e59-c2e265d82b22"},"vehicle_type_id":"4","last_reported":1729350476,"current_range_meters":25600,"station_id":"ce4bhs12rcd13ifvqhvg","pricing_plan_id":"cebpf4jnsgd1na2vs0mg"},