{"last_updated":1762441893,"ttl":60,"version":"2.2","data":{"bikes":[{"bike_id":"9c46a9f5-39cb-461a-ac28-286dc216524b","system_id":"levelo_inurba_marseille","lat":43.337444,"lon":5.374475,"is_reserved":false,"is_disabled":false,"rental_uris":{"android":"levelo://app?vid=9c46a9f5-39cb-461a-ac28-286dc216524b","ios":"levelo://app?vid=9c46a9f5-39cb-461a-ac28-286dc216524b"},"vehicle_type_id":"4","last_reported":1762441893,"current_range_meters":0,"station_id":"","pricing_plan_id":"cebpf4jnsgd1na2vs0mg"},{"bike_id":"7a6bd91c-07e4-4e8e-8289-87db73153b3b","system_id":"levelo_inurba_marseille","lat":43.29257,"lon":5.37625,"is_reserved":false,"is_disabled":false,"rental_uris":{"android":"levelo://app?vid=7a6bd91c-07e4-4e8e-8289-87db73153b3b","ios":"levelo://app?vid=7a6bd91c-07e4-4e8e-8289-87db73153b3b"},"vehicle_type_id":"4","last_reported":1762441893,"current_range_meters":2800,"station_id":"ce4bgi12rcd13ifvqb80","pricing_plan_id":"cebpf4jnsgd1na2vs0mg"},{"bike_id":"bc749a6c-9590-41f4-8c50-32e3f643a998","system_id":"levelo_inurba_marseille","lat":43.28468,"lon":5.35883,"is_reserved":false,"is_disabled":false,"rental_uris":{"android":"levelo://app?vid=bc749a6c-9590-41f4-8c50-32e3f643a998","ios":"levelo://app?vid=bc749a6c-9590-41f4-8c50-32e3f643a998"},"vehicle_type_id":"4","last_reported":1762441893,"current_range_meters":2800,"station_id":"ce4bhah2rcd13ifvqei0","pricing_plan_id":"cebpf4jnsgd1na2vs0mg"},{"bike_id":"3774192e-7921-4480-9b9b-01ffcab67a4c","system_id":"levelo_inurba_marseille","lat":43.27059,"lon":5.40261,"is_reserved":false,"is_disabled":false,"rental_uris":{"android":"levelo://app?vid=3774192e-7921-4480-9b9b-01ffcab67a4c","ios":"levelo://app?vid=3774192e-7921-4480-9b9b-01ffcab67a4c"},"vehicle_type_id":"4","last_reported":1762441893,"current_range_meters":3200,"station_id":"ce4bhk92rcd13ifvqgc0","pricing_plan_id":"cebpf4jnsgd1na2vs0mg"},{"bike_id":"2e7bd310-1a5f-4d72-a5aa-19f0c8e64587","system_id":"levelo_inurba_marseille","lat":43.30898,"lon":5.40161,"is_reserved":false,"is_disabled":false,"rental_uris":{"android":"levelo://app?vid=2e7bd310-1a5f-4d72-a5aa-19f0c8e64587","ios":"levelo://app?vid=2e7bd310-1a5f-4d72-a5aa-19f0c8e64587"},"vehicle_type_id":"4","last_reported":1762441893,"current_range_meters":3600,"station_id":"ce4bgvp2rcd13ifvqct0","pricing_plan_id":"cebpf4jnsgd1na2vs0mg"},{"bike_id":"c677b586-dbe3-4301-9b4e-19ce9afad917","system_id":"levelo_inurba_marseille","lat":43.31699,"lon":5.37746,"is_reserved":false,"is_disabled":false,"rental_uris":{"android":"levelo://app?vid=c677b586-dbe3-4301-9b4e-19ce9afad917","ios":"levelo://app?vid=c677b586-dbe3-4301-9b4e-19ce9afad917"},"vehicle_type_id":"4","last_reported":1762441893,"current_range_meters":3600,"station_id":"ce4bgth2rcd13ifvqch0","pricing_plan_id":"cebpf4jnsgd1na2vs0mg"},{"bike_id":"4e255d04-9436-450d-a2bf-7c4e0c7bad10","system_id":"levelo_inurba_marseille","lat":43.32368,"lon":5.38886,"is_reserved":false,"is_disabled":false,"rental_uris":{"android":"levelo://app?vid=4e255d04-9436-450d-a2bf-7c4e0c7bad10","ios":"levelo://app?vid=4e255d04-9436-450d-a2bf-7c4e0c7bad10"},"vehicle_type_id":"4","last_reported":1762441893,"current_range_meters":4400,"station_id":"ce4bhqp2rcd13ifvqhog","pricing_plan_id":"cebpf4jnsgd1na2vs0mg"},{"bike_id":"cd9c6c8f-813a-4b2c-b0c7-7a3265cb2fa0","system_id":"levelo_inurba_marseille","lat":43.24241,"lon":5.39324,"is_reserved":false,"is_disabled":false,"rental_uris":{"android":"levelo://app?vid=cd9c6c8f-813a-4b2c-b0c7-7a3265cb2fa0","ios":"levelo://app?vid=cd9c6c8f-813a-4b2c-b0c7-7a3265cb2fa0"},"vehicle_type_id":"4","last_reported":1762441893,"current_range_meters":4800,"station_id":"","pricing_plan_id":"cebpf4jnsgd1na2vs0mg"},{"bike_id":"7ab5dc7b-4262-4668-8616-c4f77160ead2","system_id":"levelo_inurba_marseille","lat":43.25514,"lon":5.37649,"is_reserved":false,"is_disabled":false,"rental_uris":{"android":"levelo://app?vid=7ab5dc7b-4262-4668-8616-c4f77160ead2","ios":"levelo://app?vid=7ab5dc7b-4262-4668-8616-c4f77160ead2"},"vehicle_type_id":"4","last_reported":1762441893,"current_range_meters":4800,"station_id":"ce4bhh12rcd13ifvqff0","pricing_plan_id":"cebpf4jnsgd1na2vs0mg"},{"bike_id":"9db23817-100d-4feb-906a-faeaa5a942cd","system_id":"levelo_inurba_marseille","lat":43.30544,"lon":5.36556,"is_reserved":false,"is_disabled":false,"rental_uris":{"android":"levelo://app?vid=9db23817-100d-4feb-906a-faeaa5a942cd","ios":"levelo://app?vid=9db23817-100d-4feb-906a-faeaa5a942cd"},"vehicle_type_id":"4","last_reported":1762441893,"current_range_meters":4800,"station_id":"ce4bgs12rcd13ifvqcag","pricing_plan_id":"cebpf4jnsgd1na2vs0mg"},{"bike_id":"5e6b5e6b-9f8a-43ab-9eb8-b69e41a6c1e6","system_id":"levelo_inurba_marseille","lat":43.22538,"lon":5.34841,"is_reserved":false,"is_disabled":false,"rental_uris":{"android":"levelo://app?vid=5e6b5e6b-9f8a-43ab-9eb8-b69e41a6c1e6","ios":"levelo://app?vid=5e6b5e6b-9f8a-43ab-9eb8-b69e41a6c1e6"},"vehicle_type_id":"4","last_reported":1762441893,"current_range_meters":5600,"station_id":"","pricing_plan_id":"cebpf4jnsgd1na2vs0mg"},{"bike_id":"ea4f4b84-78b0-4180-a7f8-ecb8c6182713","system_id":"levelo_inurba_marseille","lat":43.2953,"lon":5.36104,"is_reserved":false,"is_disabled":true,"rental_uris":{"android":"levelo://app?vid=ea4f4b84-78b0-4180-a7f8-ecb8c6182713","ios":"levelo://app?vid=ea4f4b84-78b0-4180-a7f8-ecb8c6182713"},"vehicle_type_id":"4","last_reported":1762441893,"current_range_meters":5600,"station_id":"","pricing_plan_id":"cebpf4jnsgd1na2vs0mg"},{"bike_id":"398fd9da-daf6-446f-bd04-db3123ae7dd2","system_id":"levelo_inurba_marseille","lat":43.29011,"lon":5.38135,"is_reserved":false,"is_disabled":false,"rental_uris":{"android":"levelo://app?vid=398fd9da-daf6-446f-bd04-db3123ae7dd2","ios":"levelo://app?vid=398fd9da-daf6-446f-bd04-db3123ae7dd2"},"vehicle_type_id":"4","last_reported":1762441893,"current_range_meters":5600,"station_id":"ce4bh4p2rcd13ifvqe1g","pricing_plan_id":"cebpf4jnsgd1na2vs0mg"},{"bike_id":"a3d867ae-f4dd-486a-a20d-682f4496217d","system_id":"levelo_inurba_marseille","lat":43.33759,"lon":5.37525,"is_reserved":false,"is_disabled":false,"rental_uris":{"android":"levelo://app?vid=a3d867ae-f4dd-486a-a20d-682f4496217d","ios":"levelo://app?vid=a3d867ae-f4dd-486a-a20d-682f4496217d"},"vehicle_type_id":"4","last_reported":1762441893,"current_range_meters":6000,"station_id":"","pricing_plan_id":"cebpf4jnsgd1na2vs0mg"},{"bike_id":"16e8ecd0-1bbc-4db1-8997-1affeee864a8","system_id":"levelo_inurba_marseille","lat":43.29803,"lon":5.4412,"is_reserved":false,"is_disabled":false,"rental_uris":{"android":"levelo://app?vid=16e8ecd0-1bbc-4db1-8997-1affeee864a8","ios":"levelo://app?vid=16e8ecd0-1bbc-4db1-8997-1affeee864a8"},"vehicle_type_id":"4","last_reported":1762441893,"current_range_meters":6000,"station_id":"st_d3jp68qikq2c7381ktn0","pricing_plan_id":"cebpf4jnsgd1na2vs0mg"},{"bike_id":"1b9f60e9-1202-4344-b646-c3c56bcd62d8","system_id":"levelo_inurba_marseille","lat":43.24171,"lon":5.36395,"is_reserved":false,"is_disabled":false,"rental_uris":{"android":"levelo://app?vid=1b9f60e9-1202-4344-b646-c3c56bcd62d8","ios":"levelo://app?vid=1b9f60e9-1202-4344-b646-c3c56bcd62d8"},"vehicle_type_id":"4","last_reported":1762441893,"current_range_meters":6000,"station_id":"cpo36qri1sfpv3e86is0","pricing_plan_id":"cebpf4jnsgd1na2vs0mg"},{"bike_id":"f0219c26-67cb-4ec3-9691-f64648f168d3","system_id":"levelo_inurba_marseille","lat":43.28646,"lon":5.36405,"is_reserved":false,"is_disabled":false,"rental_uris":{"android":"levelo://app?vid=f0219c26-67cb-4ec3-9691-f64648f168d3","ios":"levelo://app?vid=f0219c26-67cb-4ec3-9691-f64648f168d3"},"vehicle_type_id":"4","last_reported":1762441893,"current_range_meters":6400,"station_id":"ce4bhah2rcd13ifvqej0","pricing_plan_id":"cebpf4jnsgd1na2vs0mg"},{"bike_id":"fc77f0d5-7f86-4180-92cb-31fe1865f593","system_id":"levelo_inurba_marseille","lat":43.28041,"lon":5.3694,"is_reserved":false,"is_disabled":false,"rental_uris":{"android":"levelo://app?vid=fc77f0d5-7f86-4180-92cb-31fe1865f593","ios":"levelo://app?vid=fc77f0d5-7f86-4180-92cb-31fe1865f593"},"vehicle_type_id":"4","last_reported":1762441893,"current_range_meters":6400,"station_id":"ce4bha12rcd13ifvqef0","pricing_plan_id":"cebpf4jnsgd1na2vs0mg"},{"bike_id":"e7002296-a724-4792-9c77-9aa7da662e7d","system_id":"levelo_inurba_marseille","lat":43.29752,"lon":5.36248,"is_reserved":false,"is_disabled":false,"rental_uris":{"android":"levelo://app?vid=e7002296-a724-4792-9c77-9aa7da662e7d","ios":"levelo://app?vid=e7002296-a724-4792-9c77-9aa7da662e7d"},"vehicle_type_id":"4","last_reported":1762441893,"current_range_meters":6400,"station_id":"","pricing_plan_id":"cebpf4jnsgd1na2vs0mg"},{"bike_id":"875e96ec-7513-4f6a-b671-3b51437d0c35","system_id":"levelo_inurba_marseille","lat":43.27052,"lon":5.40269,"is_reserved":false,"is_disabled":false,"rental_uris":{"android":"levelo://app?vid=875e96ec-7513-4f6a-b671-3b51437d0c35","ios":"levelo://app?vid=875e96ec-7513-4f6a-b671-3b51437d0c35"},"vehicle_type_id":"4","last_reported":1762441893,"current_range_meters":6800,"station_id":"ce4bhk92rcd13ifvqgc0","pricing_plan_id":"cebpf4jnsgd1na2vs0mg"},{"bike_id":"765b9661-2b24-4c0f-a9fb-732d7409b10c","system_id":"levelo_inurba_marseille","lat":43.21623,"lon":5.34448,"is_reserved":false,"is_disabled":false,"rental_uris":{"android":"levelo://app?vid=765b9661-2b24-4c0f-a9fb-732d7409b10c","ios":"levelo://app?vid=765b9661-2b24-4c0f-a9fb-732d7409b10c"},"vehicle_type_id":"4","last_reported":1762441893,"current_range_meters":6800,"station_id":"","pricing_plan_id":"cebpf4jnsgd1na2vs0mg"},{"bike_id":"95ae1777-b7c8-4c2b-a8ca-f03f887e0169","system_id":"levelo_inurba_marseille","lat":43.29742,"lon":5.38097,"is_reserved":false,"is_disabled":false,"rental_uris":{"android":"levelo://app?vid=95ae1777-b7c8-4c2b-a8ca-f03f887e0169","ios":"levelo://app?vid=95ae1777-b7c8-4c2b-a8ca-f03f887e0169"},"vehicle_type_id":"4","last_reported":1762441893,"current_range_meters":6800,"station_id":"","pricing_plan_id":"cebpf4jnsgd1na2vs0mg"},{"bike_id":"aaad2aa1-50b4-4664-ab28-5814de27dff3","system_id":"levelo_inurba_marseille","lat":43.29037,"lon":5.38655,"is_reserved":false,"is_disabled":false,"rental_uris":{"android":"levelo://app?vid=aaad2aa1-50b4-4664-ab28-5814de27dff3","ios":"levelo://app?vid=aaad2aa1-50b4-4664-ab28-5814de27dff3"},"vehicle_type_id":"4","last_reported":1762441893,"current_range_meters":6800,"station_id":"ce4bh4p2rcd13ifvqe0g","pricing_plan_id":"cebpf4jnsgd1na2vs0mg"},{"bike_id":"0258a731-9719-4e23-bb20-6fb6c0d79742","system_id":"levelo_inurba_marseille","lat":43.27919,"lon":5.39578,"is_reserved":false,"is_disabled":false,"rental_uris":{"android":"levelo://app?vid=0258a731-9719-4e23-bb20-6fb6c0d79742","ios":"levelo://app?vid=0258a731-9719-4e23-bb20-6fb6c0d79742"},"vehicle_type_id":"4","last_reported":1762441893,"current_range_meters":6800,"station_id":"ce4bhf92rcd13ifvqf40","pricing_plan_id":"cebpf4jnsgd1na2vs0mg"},{"bike_id":"873517d4-0b2b-40f3-b3e3-e62b6c8c1687","system_id":"levelo_inurba_marseille","lat":43.30954,"lon":5.39046,"is_reserved":false,"is_disabled":false,"rental_uris":{"android":"levelo://app?vid=873517d4-0b2b-40f3-b3e3-e62b6c8c1687","ios":"levelo://app?vid=873517d4-0b2b-40f3-b3e3-e62b6c8c1687"},"vehicle_type_id":"4","last_reported":1762441893,"current_range_meters":7200,"station_id":"ce4bgup2rcd13ifvqco0","pricing_plan_id":"cebpf4jnsgd1na2vs0mg"},{"bike_id":"dcd7cc05-09ca-451c-b5c3-aec30ed844a3","system_id":"levelo_inurba_marseille","lat":43.29493,"lon":5.42733,"is_reserved":false,"is_disabled":false,"rental_uris":{"android":"levelo://app?vid=dcd7cc05-09ca-451c-b5c3-aec30ed844a3","ios":"levelo://app?vid=dcd7cc05-09ca-451c-b5c3-aec30ed844a3"},"vehicle_type_id":"4","last_reported":1762441893,"current_range_meters":7200,"station_id":"","pricing_plan_id":"cebpf4jnsgd1na2vs0mg"},{"bike_id":"f4778c9a-6dd1-4867-973f-176df11332ec","system_id":"levelo_inurba_marseille","lat":43.29348,"lon":5.37873,"is_reserved":false,"is_disabled":false,"rental_uris":{"android":"levelo://app?vid=f4778c9a-6dd1-4867-973f-176df11332ec","ios":"levelo://app?vid=f4778c9a-6dd1-4867-973f-176df11332ec"},"vehicle_type_id":"4","last_reported":1762441893,"current_range_meters":7200,"station_id":"ce4bgjh2rcd13ifvqbf0","pricing_plan_id":"cebpf4jnsgd1na2vs0mg"},{"bike_id":"39454994-d7c2-415d-beec-36cc05c4b04c","system_id":"levelo_inurba_marseille","lat":43.27946,"lon":5.4105,"is_reserved":false,"is_disabled":false,"rental_uris":{"android":"levelo://app?vid=39454994-d7c2-415d-beec-36cc05c4b04c","ios":"levelo://app?vid=39454994-d7c2-415d-beec-36cc05c4b04c"},"vehicle_type_id":"4","last_reported":1762441893,"current_range_meters":7200,"station_id":"ce4bhnp2rcd13ifvqh0g","pricing_plan_id":"cebpf4jnsgd1na2vs0mg"},{"bike_id":"e63b906b-1e2b-4b0e-bbf0-4d3516fe1c53","system_id":"levelo_inurba_marseille","lat":43.29628,"lon":5.41911,"is_reserved":false,"is_disabled":false,"rental_uris":{"android":"levelo://app?vid=e63b906b-1e2b-4b0e-bbf0-4d3516fe1c53","ios":"levelo://app?vid=e63b906b-1e2b-4b0e-bbf0-4d3516fe1c53"},"vehicle_type_id":"4","last_reported":1762441893,"current_range_meters":7200,"station_id":"","pricing_plan_id":"cebpf4jnsgd1na2vs0mg"},{"bike_id":"93fdce70-ebd3-4171-95a1-c27d6d292d8a","system_id":"levelo_inurba_marseille","lat":43.28036,"lon":5.36946,"is_reserved":false,"is_disabled":false,"rental_uris":{"android":"levelo://app?vid=93fdce70-ebd3-4171-95a1-c27d6d292d8a","ios":"levelo://app?vid=93fdce70-ebd3-4171-95a1-c27d6d292d8a"},"vehicle_type_id":"4","last_reported":1762441893,"current_range_meters":7200,"station_id":"ce4bha12rcd13ifvqef0","pricing_plan_id":"cebpf4jnsgd1na2vs0mg"},{"bike_id":"fdfa115d-f2d7-479d-a662-58b8b0763b15","system_id":"levelo_inurba_marseille","lat":43.29263,"lon":5.38441,"is_reserved":false,"is_disabled":false,"rental_uris":{"android":"levelo://app?vid=fdfa115d-f2d7-479d-a662-58b8b0763b15","ios":"levelo://app?vid=fdfa115d-f2d7-479d-a662-58b8b0763b15"},"vehicle_type_id":"4","last_reported":1762441893,"current_range_meters":8000,"station_id":"ce4bh692rcd13ifvqea0","pricing_plan_id":"cebpf4jnsgd1na2vs0mg"},{"bike_id":"94b0c8b8-8f4c-4510-99c3-3125e8372759","system_id":"levelo_inurba_marseille","lat":43.27075,"lon":5.42248,"is_reserved":false,"is_disabled":false,"rental_uris":{"android":"levelo://app?vid=94b0c8b8-8f4c-4510-99c3-3125e8372759","ios":"levelo://app?vid=94b0c8b8-8f4c-4510-99c3-3125e8372759"},"vehicle_type_id":"4","last_reported":1762441893,"current_range_meters":8000,"station_id":"ce4bhk92rcd13ifvqgb0","pricing_plan_id":"cebpf4jnsgd1na2vs0mg"},{"bike_id":"3ed02add-87f3-41d7-bdf1-1cf82493034f","system_id":"levelo_inurba_marseille","lat":43.29326,"lon":5.38328,"is_reserved":false,"is_disabled":false,"rental_uris":{"android":"levelo://app?vid=3ed02add-87f3-41d7-bdf1-1cf82493034f","ios":"levelo://app?vid=3ed02add-87f3-41d7-bdf1-1cf82493034f"},"vehicle_type_id":"4","last_reported":1762441893,"current_range_meters":8000,"station_id":"","pricing_plan_id":"cebpf4jnsgd1na2vs0mg"},{"bike_id":"81ba9be3-868f-450a-b964-768bf3c20192","system_id":"levelo_inurba_marseille","lat":43.2951,"lon":5.39396,"is_reserved":false,"is_disabled":false,"rental_uris":{"android":"levelo://app?vid=81ba9be3-868f-450a-b964-768bf3c20192","ios":"levelo://app?vid=81ba9be3-868f-450a-b964-768bf3c20192"},"vehicle_type_id":"4","last_reported":1762441893,"current_range_meters":8400,"station_id":"ce4bh292rcd13ifvqdf0","pricing_plan_id":"cebpf4jnsgd1na2vs0mg"},{"bike_id":"571bd3a6-912b-44a3-9841-50c558a61481","system_id":"levelo_inurba_marseille","lat":43.2813,"lon":5.40557,"is_reserved":false,"is_disabled":false,"rental_uris":{"android":"levelo://app?vid=571bd3a6-912b-44a3-9841-50c558a61481","ios":"levelo://app?vid=571bd3a6-912b-44a3-9841-50c558a61481"},"vehicle_type_id":"4","last_reported":1762441893,"current_range_meters":8400,"station_id":"","pricing_plan_id":"cebpf4jnsgd1na2vs0mg"},{"bike_id":"a5264d9d-f215-4f6a-9035-71f1593f24a3","system_id":"levelo_inurba_marseille","lat":43.2926,"lon":5.38436,"is_reserved":false,"is_disabled":false,"rental_uris":{"android":"levelo://app?vid=a5264d9d-f215-4f6a-9035-71f1593f24a3","ios":"levelo://app?vid=a5264d9d-f215-4f6a-9035-71f1593f24a3"},"vehicle_type_id":"4","last_reported":1762441893,"current_range_meters":8400,"station_id":"ce4bh692rcd13ifvqea0","pricing_plan_id":"cebpf4jnsgd1na2vs0mg"},{"bike_id":"78d7186f-2286-4a0e-8987-87a85237f27b","system_id":"levelo_inurba_marseille","lat":43.30956,"lon":5.39049,"is_reserved":false,"is_disabled":false,"rental_uris":{"android":"levelo://app?vid=78d7186f-2286-4a0e-8987-87a85237f27b","ios":"levelo://app?vid=78d7186f-2286-4a0e-8987-87a85237f27b"},"vehicle_type_id":"4","last_reported":1762441893,"current_range_meters":8400,"station_id":"ce4bgup2rcd13ifvqco0","pricing_plan_id":"cebpf4jnsgd1na2vs0mg"},{"bike_id":"a80322af-ed5b-4292-a927-2fe8792435d5","system_id":"levelo_inurba_marseille","lat":43.29387,"lon":5.38486,"is_reserved":false,"is_disabled":false,"rental_uris":{"android":"levelo://app?vid=a80322af-ed5b-4292-a927-2fe8792435d5","ios":"levelo://app?vid=a80322af-ed5b-4292-a927-2fe8792435d5"},"vehicle_type_id":"4","last_reported":1762441893,"current_range_meters":8400,"station_id":"","pricing_plan_id":"cebpf4jnsgd1na2vs0mg"},{"bike_id":"d3a8c452-bd73-4909-9cfe-f1c0285f3d0c","system_id":"levelo_inurba_marseille","lat":43.28482,"lon":5.48398,"is_reserved":false,"is_disabled":false,"rental_uris":{"android":"levelo://app?vid=d3a8c452-bd73-4909-9cfe-f1c0285f3d0c","ios":"levelo://app?vid=d3a8c452-bd73-4909-9cfe-f1c0285f3d0c"},"vehicle_type_id":"4","last_reported":1762441893,"current_range_meters":8800,"station_id":"","pricing_plan_id":"cebpf4jnsgd1na2vs0mg"},{"bike_id":"843994f9-f02c-4a90-a759-e76aafd68575","system_id":"levelo_inurba_marseille","lat":43.23969,"lon":5.36635,"is_reserved":false,"is_disabled":false,"rental_uris":{"android":"levelo://app?vid=843994f9-f02c-4a90-a759-e76aafd68575","ios":"levelo://app?vid=843994f9-f02c-4a90-a759-e76aafd68575"},"vehicle_type_id":"4","last_reported":1762441893,"current_range_meters":8800,"station_id":"ce4bhi12rcd13ifvqfp0","pricing_plan_id":"cebpf4jnsgd1na2vs0mg"},{"bike_id":"84093930-b519-4c6d-81ba-50aeb8eecc2d","system_id":"levelo_inurba_marseille","lat":43.29618,"lon":5.37716,"is_reserved":false,"is_disabled":false,"rental_uris":{"android":"levelo://app?vid=84093930-b519-4c6d-81ba-50aeb8eecc2d","ios":"levelo://app?vid=84093930-b519-4c6d-81ba-50aeb8eecc2d"},"vehicle_type_id":"4","last_reported":1762441893,"current_range_meters":8800,"station_id":"ce4bgi92rcd13ifvqb90","pricing_plan_id":"cebpf4jnsgd1na2vs0mg"},{"bike_id":"00065666-b382-40c8-87f2-d52ded706b03","system_id":"levelo_inurba_marseille","lat":43.301817,"lon":5.391908,"is_reserved":false,"is_disabled":false,"rental_uris":{"android":"levelo://app?vid=00065666-b382-40c8-87f2-d52ded706b03","ios":"levelo://app?vid=00065666-b382-40c8-87f2-d52ded706b03"},"vehicle_type_id":"4","last_reported":1762441893,"current_range_meters":9600,"station_id":"","pricing_plan_id":"cebpf4jnsgd1na2vs0mg"},{"bike_id":"b4586849-be59-4c8b-a11e-9a30751aafa0","system_id":"levelo_inurba_marseille","lat":43.27944,"lon":5.4104,"is_reserved":false,"is_disabled":false,"rental_uris":{"android":"levelo://app?vid=b4586849-be59-4c8b-a11e-9a30751aafa0","ios":"levelo://app?vid=b4586849-be59-4c8b-a11e-9a30751aafa0"},"vehicle_type_id":"4","last_reported":1762441893,"current_range_meters":9600,"station_id":"ce4bhnp2rcd13ifvqh0g","pricing_plan_id":"cebpf4jnsgd1na2vs0mg"},{"bike_id":"794b0378-7658-40ab-8f57-a84e739e60bf","system_id":"levelo_inurba_marseille","lat":43.24165,"lon":5.39715,"is_reserved":false,"is_disabled":false,"rental_uris":{"android":"levelo://app?vid=794b0378-7658-40ab-8f57-a84e739e60bf","ios":"levelo://app?vid=794b0378-7658-40ab-8f57-a84e739e60bf"},"vehicle_type_id":"4","last_reported":1762441893,"current_range_meters":9600,"station_id":"ce4bhn12rcd13ifvqgpg","pricing_plan_id":"cebpf4jnsgd1na2vs0mg"},{"bike_id":"81dcc136-dea2-46c0-98af-42dbdee92b54","system_id":"levelo_inurba_marseille","lat":43.2845,"lon":5.48386,"is_reserved":false,"is_disabled":false,"rental_uris":{"android":"levelo://app?vid=81dcc136-dea2-46c0-98af-42dbdee92b54","ios":"levelo://app?vid=81dcc136-dea2-46c0-98af-42dbdee92b54"},"vehicle_type_id":"4","last_reported":1762441893,"current_range_meters":9600,"station_id":"","pricing_plan_id":"cebpf4jnsgd1na2vs0mg"},{"bike_id":"39c243bb-a405-42fa-b50e-53adb5534ed5","system_id":"levelo_inurba_marseille","lat":43.30144,"lon":5.3986,"is_reserved":false,"is_disabled":false,"rental_uris":{"android":"levelo://app?vid=39c243bb-a405-42fa-b50e-53adb5534ed5","ios":"levelo://app?vid=39c243bb-a405-42fa-b50e-53adb5534ed5"},"vehicle_type_id":"4","last_reported":1762441893,"current_range_meters":10000,"station_id":"ce4bh0h2rcd13ifvqd40","pricing_plan_id":"cebpf4jnsgd1na2vs0mg"},{"bike_id":"94b06f3e-9c43-404e-899a-d1e48d6d7a76","system_id":"levelo_inurba_marseille","lat":43.287102,"lon":5.399967,"is_reserved":false,"is_disabled":false,"rental_uris":{"android":"levelo://app?vid=94b06f3e-9c43-404e-899a-d1e48d6d7a76","ios":"levelo://app?vid=94b06f3e-9c43-404e-899a-d1e48d6d7a76"},"vehicle_type_id":"4","last_reported":1762441893,"current_range_meters":10000,"station_id":"ce4bho92rcd13ifvqh3g","pricing_plan_id":"cebpf4jnsgd1na2vs0mg"},{"bike_id":"bcb3c39b-ec48-48ef-9eac-eb8b71840959","system_id":"levelo_inurba_marseille","lat":43.33757,"lon":5.37464,"is_reserved":false,"is_disabled":false,"rental_uris":{"android":"levelo://app?vid=bcb3c39b-ec48-48ef-9eac-eb8b71840959","ios":"levelo://app?vid=bcb3c39b-ec48-48ef-9eac-eb8b71840959"},"vehicle_type_id":"4","last_reported":1762441893,"current_range_meters":10000,"station_id":"","pricing_plan_id":"cebpf4jnsgd1na2vs0mg"},{"bike_id":"f0dc7254-913b-4960-b9a0-67e32f447551","system_id":"levelo_inurba_marseille","lat":43.29279,"lon":5.3746,"is_reserved":false,"is_disabled":false,"rental_uris":{"android":"levelo://app?vid=f0dc7254-913b-4960-b9a0-67e32f447551","ios":"levelo://app?vid=f0dc7254-913b-4960-b9a0-67e32f447551"},"vehicle_type_id":"4","last_reported":1762441893,"current_range_meters":10000,"station_id":"ce4bgi12rcd13ifvqb70","pricing_plan_id":"cebpf4jnsgd1na2vs0mg"},{"bike_id":"2b2ab16d-753b-41be-b7c0-94f4be36356c","system_id":"levelo_inurba_marseille","lat":43.23773,"lon":5.36638,"is_reserved":false,"is_disabled":false,"rental_uris":{"android":"levelo://app?vid=2b2ab16d-753b-41be-b7c0-94f4be36356c","ios":"levelo://app?vid=2b2ab16d-753b-41be-b7c0-94f4be36356c"},"vehicle_type_id":"4","last_reported":1762441893,"current_range_meters":10000,"station_id":"st_d3nk18o9ro0c73en2l3g","pricing_plan_id":"cebpf4jnsgd1na2vs0mg"},{"bike_id":"2c89c3ed-62de-4c74-8e11-a37172c6c77b","system_id":"levelo_inurba_marseille","lat":43.22864,"lon":5.40232,"is_reserved":false,"is_disabled":false,"rental_uris":{"android":"levelo://app?vid=2c89c3ed-62de-4c74-8e11-a37172c6c77b","ios":"levelo://app?vid=2c89c3ed-62de-4c74-8e11-a37172c6c77b"},"vehicle_type_id":"4","last_reported":1762441893,"current_range_meters":10000,"station_id":"","pricing_plan_id":"cebpf4jnsgd1na2vs0mg"},{"bike_id":"4650e02f-f60a-4ff2-a214-56837e0e12af","system_id":"levelo_inurba_marseille","lat":43.26041,"lon":5.37536,"is_reserved":false,"is_disabled":false,"rental_uris":{"android":"levelo://app?vid=4650e02f-f60a-4ff2-a214-56837e0e12af","ios":"levelo://app?vid=4650e02f-f60a-4ff2-a214-56837e0e12af"},"vehicle_type_id":"4","last_reported":1762441893,"current_range_meters":10800,"station_id":"ce4bhgh2rcd13ifvqfa0","pricing_plan_id":"cebpf4jnsgd1na2vs0mg"},{"bike_id":"d5a23017-3bc2-485f-8e85-4da9e257d3db","system_id":"levelo_inurba_marseille","lat":43.30573,"lon":5.37213,"is_reserved":false,"is_disabled":false,"rental_uris":{"android":"levelo://app?vid=d5a23017-3bc2-485f-8e85-4da9e257d3db","ios":"levelo://app?vid=d5a23017-3bc2-485f-8e85-4da9e257d3db"},"vehicle_type_id":"4","last_reported":1762441893,"current_range_meters":10800,"station_id":"ce4bgqh2rcd13ifvqc4g","pricing_plan_id":"cebpf4jnsgd1na2vs0mg"},{"bike_id":"a715c0ef-3857-414c-967a-b5d1a542eb13","system_id":"levelo_inurba_marseille","lat":43.22534,"lon":5.34827,"is_reserved":false,"is_disabled":false,"rental_uris":{"android":"levelo://app?vid=a715c0ef-3857-414c-967a-b5d1a542eb13","ios":"levelo://app?vid=a715c0ef-3857-414c-967a-b5d1a542eb13"},"vehicle_type_id":"4","last_reported":1762441893,"current_range_meters":10800,"station_id":"","pricing_plan_id":"cebpf4jnsgd1na2vs0mg"},{"bike_id":"7fa2016d-25f7-48f2-b00a-5381b1c067b0","system_id":"levelo_inurba_marseille","lat":43.31263,"lon":5.40171,"is_reserved":false,"is_disabled":false,"rental_uris":{"android":"levelo://app?vid=7fa2016d-25f7-48f2-b00a-5381b1c067b0","ios":"levelo://app?vid=7fa2016d-25f7-48f2-b00a-5381b1c067b0"},"vehicle_type_id":"4","last_reported":1762441893,"current_range_meters":10800,"station_id":"ce4bh092rcd13ifvqd30","pricing_plan_id":"cebpf4jnsgd1na2vs0mg"},{"bike_id":"7573b0ce-2bea-4f9b-b8d0-df9704e404a1","system_id":"levelo_inurba_marseille","lat":43.337444,"lon":5.374475,"is_reserved":false,"is_disabled":false,"rental_uris":{"android":"levelo://app?vid=7573b0ce-2bea-4f9b-b8d0-df9704e404a1","ios":"levelo://app?vid=7573b0ce-2bea-4f9b-b8d0-df9704e404a1"},"vehicle_type_id":"4","last_reported":1762441893,"current_range_meters":10800,"station_id":"","pricing_plan_id":"cebpf4jnsgd1na2vs0mg"},{"bike_id":"7947a110-dfee-4339-92f7-0105ecdae1cb","system_id":"levelo_inurba_marseille","lat":43.30134,"lon":5.388,"is_reserved":false,"is_disabled":false,"rental_uris":{"android":"levelo://app?vid=7947a110-dfee-4339-92f7-0105ecdae1cb","ios":"levelo://app?vid=7947a110-dfee-4339-92f7-0105ecdae1cb"},"vehicle_type_id":"4","last_reported":1762441893,"current_range_meters":10800,"station_id":"ce4bghh2rcd13ifvqb60","pricing_plan_id":"cebpf4jnsgd1na2vs0mg"},{"bike_id":"1a82c6bb-16b3-4a4c-bb1e-763fb9e08b99","system_id":"levelo_inurba_marseille","lat":43.29059,"lon":5.3715,"is_reserved":false,"is_disabled":false,"rental_uris":{"android":"levelo://app?vid=1a82c6bb-16b3-4a4c-bb1e-763fb9e08b99","ios":"levelo://app?vid=1a82c6bb-16b3-4a4c-bb1e-763fb9e08b99"},"vehicle_type_id":"4","last_reported":1762441893,"current_range_meters":10800,"station_id":"ce4bh5p2rcd13ifvqe4g","pricing_plan_id":"cebpf4jnsgd1na2vs0mg"},{"bike_id":"3246f580-e1cd-4ebf-945f-a37746802851","system_id":"levelo_inurba_marseille","lat":43.32537,"lon":5.41423,"is_reserved":false,"is_disabled":false,"rental_uris":{"android":"levelo://app?vid=3246f580-e1cd-4ebf-945f-a37746802851","ios":"levelo://app?vid=3246f580-e1cd-4ebf-945f-a37746802851"},"vehicle_type_id":"4","last_reported":1762441893,"current_range_meters":11200,"station_id":"ce4bhq12rcd13ifvqhhg","pricing_plan_id":"cebpf4jnsgd1na2vs0mg"},{"bike_id":"2609ce9a-9928-4dab-b0d4-bafbf43c3f80","system_id":"levelo_inurba_marseille","lat":43.31324,"lon":5.39713,"is_reserved":false,"is_disabled":false,"rental_uris":{"android":"levelo://app?vid=2609ce9a-9928-4dab-b0d4-bafbf43c3f80","ios":"levelo://app?vid=2609ce9a-9928-4dab-b0d4-bafbf43c3f80"},"vehicle_type_id":"4","last_reported":1762441893,"current_range_meters":11200,"station_id":"ce4bgvp2rcd13ifvqcu0","pricing_plan_id":"cebpf4jnsgd1na2vs0mg"},{"bike_id":"710eb1a3-ab5f-4072-9520-80ae27fc1288","system_id":"levelo_inurba_marseille","lat":43.273266,"lon":5.390756,"is_reserved":false,"is_disabled":false,"rental_uris":{"android":"levelo://app?vid=710eb1a3-ab5f-4072-9520-80ae27fc1288","ios":"levelo://app?vid=710eb1a3-ab5f-4072-9520-80ae27fc1288"},"vehicle_type_id":"4","last_reported":1762441893,"current_range_meters":11200,"station_id":"ce4bhgp2rcd13ifvqfe0","pricing_plan_id":"cebpf4jnsgd1na2vs0mg"},{"bike_id":"8d00dbca-b5c1-42d2-89ba-f167016578da","system_id":"levelo_inurba_marseille","lat":43.2986,"lon":5.36261,"is_reserved":false,"is_disabled":false,"rental_uris":{"android":"levelo://app?vid=8d00dbca-b5c1-42d2-89ba-f167016578da","ios":"levelo://app?vid=8d00dbca-b5c1-42d2-89ba-f167016578da"},"vehicle_type_id":"4","last_reported":1762441893,"current_range_meters":11600,"station_id":"ce4bgpp2rcd13ifvqc3g","pricing_plan_id":"cebpf4jnsgd1na2vs0mg"},{"bike_id":"dae30738-204c-4787-a9b5-e056fa94e0c9","system_id":"levelo_inurba_marseille","lat":43.22568,"lon":5.41625,"is_reserved":false,"is_disabled":false,"rental_uris":{"android":"levelo://app?vid=dae30738-204c-4787-a9b5-e056fa94e0c9","ios":"levelo://app?vid=dae30738-204c-4787-a9b5-e056fa94e0c9"},"vehicle_type_id":"4","last_reported":1762441893,"current_range_meters":11600,"station_id":"st_d2o4gvlbi1j2169b742g","pricing_plan_id":"cebpf4jnsgd1na2vs0mg"},{"bike_id":"f466af75-1314-4586-9256-861eb39b8fc5","system_id":"levelo_inurba_marseille","lat":43.31264,"lon":5.40182,"is_reserved":false,"is_disabled":false,"rental_uris":{"android":"levelo://app?vid=f466af75-1314-4586-9256-861eb39b8fc5","ios":"levelo://app?vid=f466af75-1314-4586-9256-861eb39b8fc5"},"vehicle_type_id":"4","last_reported":1762441893,"current_range_meters":11600,"station_id":"ce4bh092rcd13ifvqd30","pricing_plan_id":"cebpf4jnsgd1na2vs0mg"},{"bike_id":"09ed3eb5-c2d4-4c5e-b9d1-44fb102a0a7e","system_id":"levelo_inurba_marseille","lat":43.2257,"lon":5.41633,"is_reserved":false,"is_disabled":false,"rental_uris":{"android":"levelo://app?vid=09ed3eb5-c2d4-4c5e-b9d1-44fb102a0a7e","ios":"levelo://app?vid=09ed3eb5-c2d4-4c5e-b9d1-44fb102a0a7e"},"vehicle_type_id":"4","last_reported":1762441893,"current_range_meters":11600,"station_id":"st_d2o4gvlbi1j2169b742g","pricing_plan_id":"cebpf4jnsgd1na2vs0mg"},{"bike_id":"3bfb9706-fa77-4e3c-96b3-8a2b5d68cd94","system_id":"levelo_inurba_marseille","lat":43.28273,"lon":5.3507,"is_reserved":false,"is_disabled":false,"rental_uris":{"android":"levelo://app?vid=3bfb9706-fa77-4e3c-96b3-8a2b5d68cd94","ios":"levelo://app?vid=3bfb9706-fa77-4e3c-96b3-8a2b5d68cd94"},"vehicle_type_id":"4","last_reported":1762441893,"current_range_meters":11600,"station_id":"ce4bhbp2rcd13ifvqerg","pricing_plan_id":"cebpf4jnsgd1na2vs0mg"},{"bike_id":"05bac233-8b70-46d4-a480-f148fb7e8001","system_id":"levelo_inurba_marseille","lat":43.28927,"lon":5.38419,"is_reserved":false,"is_disabled":false,"rental_uris":{"android":"levelo://app?vid=05bac233-8b70-46d4-a480-f148fb7e8001","ios":"levelo://app?vid=05bac233-8b70-46d4-a480-f148fb7e8001"},"vehicle_type_id":"4","last_reported":1762441893,"current_range_meters":12000,"station_id":"ce4bh612rcd13ifvqe6g","pricing_plan_id":"cebpf4jnsgd1na2vs0mg"},{"bike_id":"6e9601c8-3a9b-4c4f-8a50-e778f7d9a229","system_id":"levelo_inurba_marseille","lat":43.29937,"lon":5.36548,"is_reserved":false,"is_disabled":false,"rental_uris":{"android":"levelo://app?vid=6e9601c8-3a9b-4c4f-8a50-e778f7d9a229","ios":"levelo://app?vid=6e9601c8-3a9b-4c4f-8a50-e778f7d9a229"},"vehicle_type_id":"4","last_reported":1762441893,"current_range_meters":12000,"station_id":"ce4bgm92rcd13ifvqbr0","pricing_plan_id":"cebpf4jnsgd1na2vs0mg"},{"bike_id":"f68cdb11-4ad5-494f-8b44-dc318ce342e5","system_id":"levelo_inurba_marseille","lat":43.27801,"lon":5.4074,"is_reserved":false,"is_disabled":false,"rental_uris":{"android":"levelo://app?vid=f68cdb11-4ad5-494f-8b44-dc318ce342e5","ios":"levelo://app?vid=f68cdb11-4ad5-494f-8b44-dc318ce342e5"},"vehicle_type_id":"4","last_reported":1762441893,"current_range_meters":12000,"station_id":"ce4bhnh2rcd13ifvqgtg","pricing_plan_id":"cebpf4jnsgd1na2vs0mg"},{"bike_id":"13db7e9c-cf9d-491d-86e5-74f3cdbe8716","system_id":"levelo_inurba_marseille","lat":43.28941,"lon":5.36637,"is_reserved":false,"is_disabled":false,"rental_uris":{"android":"levelo://app?vid=13db7e9c-cf9d-491d-86e5-74f3cdbe8716","ios":"levelo://app?vid=13db7e9c-cf9d-491d-86e5-74f3cdbe8716"},"vehicle_type_id":"4","last_reported":1762441893,"current_range_meters":12000,"station_id":"ce4bhap2rcd13ifvqek0","pricing_plan_id":"cebpf4jnsgd1na2vs0mg"},{"bike_id":"71967476-752a-4f5e-b222-99c0eea95f39","system_id":"levelo_inurba_marseille","lat":43.32309,"lon":5.38436,"is_reserved":false,"is_disabled":false,"rental_uris":{"android":"levelo://app?vid=71967476-752a-4f5e-b222-99c0eea95f39","ios":"levelo://app?vid=71967476-752a-4f5e-b222-99c0eea95f39"},"vehicle_type_id":"4","last_reported":1762441893,"current_range_meters":12000,"station_id":"","pricing_plan_id":"cebpf4jnsgd1na2vs0mg"},{"bike_id":"f94d989f-60db-4f42-b90c-28c276f0febe","system_id":"levelo_inurba_marseille","lat":43.30139,"lon":5.380928,"is_reserved":false,"is_disabled":false,"rental_uris":{"android":"levelo://app?vid=f94d989f-60db-4f42-b90c-28c276f0febe","ios":"levelo://app?vid=f94d989f-60db-4f42-b90c-28c276f0febe"},"vehicle_type_id":"4","last_reported":1762441893,"current_range_meters":12000,"station_id":"ce4bgjp2rcd13ifvqbh0","pricing_plan_id":"cebpf4jnsgd1na2vs0mg"},{"bike_id":"183e2631-a9d1-4a91-a0ae-354080fb430e","system_id":"levelo_inurba_marseille","lat":43.29806,"lon":5.38091,"is_reserved":false,"is_disabled":false,"rental_uris":{"android":"levelo://app?vid=183e2631-a9d1-4a91-a0ae-354080fb430e","ios":"levelo://app?vid=183e2631-a9d1-4a91-a0ae-354080fb430e"},"vehicle_type_id":"4","last_reported":1762441893,"current_range_meters":12400,"station_id":"ce4bgip2rcd13ifvqbb0","pricing_plan_id":"cebpf4jnsgd1na2vs0mg"},{"bike_id":"1048395e-bb46-4ecc-a045-ad5a8e0aa7c8","system_id":"levelo_inurba_marseille","lat":43.24552,"lon":5.39523,"is_reserved":false,"is_disabled":false,"rental_uris":{"android":"levelo://app?vid=1048395e-bb46-4ecc-a045-ad5a8e0aa7c8","ios":"levelo://app?vid=1048395e-bb46-4ecc-a045-ad5a8e0aa7c8"},"vehicle_type_id":"4","last_reported":1762441893,"current_range_meters":12400,"station_id":"ce4bhlp2rcd13ifvqgjg","pricing_plan_id":"cebpf4jnsgd1na2vs0mg"},{"bike_id":"a5c3acfa-37e1-4f49-acd1-2ea1fd12c477","system_id":"levelo_inurba_marseille","lat":43.293671,"lon":5.378798,"is_reserved":false,"is_disabled":false,"rental_uris":{"android":"levelo://app?vid=a5c3acfa-37e1-4f49-acd1-2ea1fd12c477","ios":"levelo://app?vid=a5c3acfa-37e1-4f49-acd1-2ea1fd12c477"},"vehicle_type_id":"4","last_reported":1762441893,"current_range_meters":12400,"station_id":"ce4bgjh2rcd13ifvqbf0","pricing_plan_id":"cebpf4jnsgd1na2vs0mg"},{"bike_id":"bb1b1199-0aff-4e93-9dcc-486912ec5f57","system_id":"levelo_inurba_marseille","lat":43.24162,"lon":5.39712,"is_reserved":false,"is_disabled":false,"rental_uris":{"android":"levelo://app?vid=bb1b1199-0aff-4e93-9dcc-486912ec5f57","ios":"levelo://app?vid=bb1b1199-0aff-4e93-9dcc-486912ec5f57"},"vehicle_type_id":"4","last_reported":1762441893,"current_range_meters":12400,"station_id":"ce4bhn12rcd13ifvqgpg","pricing_plan_id":"cebpf4jnsgd1na2vs0mg"},{"bike_id":"59b31ef2-3fe3-46e5-b5a5-685f264695ce","system_id":"levelo_inurba_marseille","lat":43.28481,"lon":5.48402,"is_reserved":false,"is_disabled":false,"rental_uris":{"android":"levelo://app?vid=59b31ef2-3fe3-46e5-b5a5-685f264695ce","ios":"levelo://app?vid=59b31ef2-3fe3-46e5-b5a5-685f264695ce"},"vehicle_type_id":"4","last_reported":1762441893,"current_range_meters":12400,"station_id":"","pricing_plan_id":"cebpf4jnsgd1na2vs0mg"},{"bike_id":"3ffe2c7b-f27f-49bd-95c3-0ecfbf0880d2","system_id":"levelo_inurba_marseille","lat":43.30694,"lon":5.38439,"is_reserved":false,"is_disabled":false,"rental_uris":{"android":"levelo://app?vid=3ffe2c7b-f27f-49bd-95c3-0ecfbf0880d2","ios":"levelo://app?vid=3ffe2c7b-f27f-49bd-95c3-0ecfbf0880d2"},"vehicle_type_id":"4","last_reported":1762441893,"current_range_meters":12400,"station_id":"","pricing_plan_id":"cebpf4jnsgd1na2vs0mg"},{"bike_id":"f87be1b0-e50e-4571-93db-7237db3b9998","system_id":"levelo_inurba_marseille","lat":43.28938,"lon":5.36391,"is_reserved":false,"is_disabled":false,"rental_uris":{"android":"levelo://app?vid=f87be1b0-e50e-4571-93db-7237db3b9998","ios":"levelo://app?vid=f87be1b0-e50e-4571-93db-7237db3b9998"},"vehicle_type_id":"4","last_reported":1762441893,"current_range_meters":12400,"station_id":"ce4bhc92rcd13ifvqetg","pricing_plan_id":"cebpf4jnsgd1na2vs0mg"},{"bike_id":"30b34b57-a1a3-4da5-b531-5d00060a189f","system_id":"levelo_inurba_marseille","lat":43.28477,"lon":5.38406,"is_reserved":false,"is_disabled":false,"rental_uris":{"android":"levelo://app?vid=30b34b57-a1a3-4da5-b531-5d00060a189f","ios":"levelo://app?vid=30b34b57-a1a3-4da5-b531-5d00060a189f"},"vehicle_type_id":"4","last_reported":1762441893,"current_range_meters":12400,"station_id":"ce4bh512rcd13ifvqe3g","pricing_plan_id":"cebpf4jnsgd1na2vs0mg"},{"bike_id":"5716f376-f186-41fc-84b8-f65cc7631f4c","system_id":"levelo_inurba_marseille","lat":43.29552,"lon":5.42277,"is_reserved":false,"is_disabled":false,"rental_uris":{"android":"levelo://app?vid=5716f376-f186-41fc-84b8-f65cc7631f4c","ios":"levelo://app?vid=5716f376-f186-41fc-84b8-f65cc7631f4c"},"vehicle_type_id":"4","last_reported":1762441893,"current_range_meters":12800,"station_id":"ce4bhph2rcd13ifvqhdg","pricing_plan_id":"cebpf4jnsgd1na2vs0mg"},{"bike_id":"ea3493ac-549f-4563-8ebc-3496272766af","system_id":"levelo_inurba_marseille","lat":43.2622,"lon":5.37919,"is_reserved":false,"is_disabled":false,"rental_uris":{"android":"levelo://app?vid=ea3493ac-549f-4563-8ebc-3496272766af","ios":"levelo://app?vid=ea3493ac-549f-4563-8ebc-3496272766af"},"vehicle_type_id":"4","last_reported":1762441893,"current_range_meters":12800,"station_id":"ce4bhjp2rcd13ifvqg90","pricing_plan_id":"cebpf4jnsgd1na2vs0mg"},{"bike_id":"1be15ad6-0175-4d9f-ac40-15c34d4992fa","system_id":"levelo_inurba_marseille","lat":43.24178,"lon":5.364032,"is_reserved":false,"is_disabled":false,"rental_uris":{"android":"levelo://app?vid=1be15ad6-0175-4d9f-ac40-15c34d4992fa","ios":"levelo://app?vid=1be15ad6-0175-4d9f-ac40-15c34d4992fa"},"vehicle_type_id":"4","last_reported":1762441893,"current_range_meters":12800,"station_id":"cpo36qri1sfpv3e86is0","pricing_plan_id":"cebpf4jnsgd1na2vs0mg"},{"bike_id":"ac034e5a-871e-452b-9658-fd7e70d3f0b2","system_id":"levelo_inurba_marseille","lat":43.29289,"lon":5.37449,"is_reserved":false,"is_disabled":true,"rental_uris":{"android":"levelo://app?vid=ac034e5a-871e-452b-9658-fd7e70d3f0b2","ios":"levelo://app?vid=ac034e5a-871e-452b-9658-fd7e70d3f0b2"},"vehicle_type_id":"4","last_reported":1762441893,"current_range_meters":13600,"station_id":"ce4bgi12rcd13ifvqb70","pricing_plan_id":"cebpf4jnsgd1na2vs0mg"},{"bike_id":"ab3a4d6b-b442-44b9-8f02-c1c222f445ba","system_id":"levelo_inurba_marseille","lat":43.274441,"lon":5.392793,"is_reserved":false,"is_disabled":false,"rental_uris":{"android":"levelo://app?vid=ab3a4d6b-b442-44b9-8f02-c1c222f445ba","ios":"levelo://app?vid=ab3a4d6b-b442-44b9-8f02-c1c222f445ba"},"vehicle_type_id":"4","last_reported":1762441893,"current_range_meters":13600,"station_id":"","pricing_plan_id":"cebpf4jnsgd1na2vs0mg"},{"bike_id":"71d4b0d7-56cd-4a50-b987-eaf15e10bd3f","system_id":"levelo_inurba_marseille","lat":43.28726,"lon":5.3608,"is_reserved":false,"is_disabled":false,"rental_uris":{"android":"levelo://app?vid=71d4b0d7-56cd-4a50-b987-eaf15e10bd3f","ios":"levelo://app?vid=71d4b0d7-56cd-4a50-b987-eaf15e10bd3f"},"vehicle_type_id":"4","last_reported":1762441893,"current_range_meters":13600,"station_id":"cki0cbj6b192h4jlfktg","pricing_plan_id":"cebpf4jnsgd1na2vs0mg"},{"bike_id":"e3ac346c-0805-4945-ad7e-2886590e1e41","system_id":"levelo_inurba_marseille","lat":43.24955,"lon":5.40487,"is_reserved":false,"is_disabled":false,"rental_uris":{"android":"levelo://app?vid=e3ac346c-0805-4945-ad7e-2886590e1e41","ios":"levelo://app?vid=e3ac346c-0805-4945-ad7e-2886590e1e41"},"vehicle_type_id":"4","last_reported":1762441893,"current_range_meters":13600,"station_id":"st_d2ngiaodas8pm72gd1h0","pricing_plan_id":"cebpf4jnsgd1na2vs0mg"},{"bike_id":"8e77a43c-9dc4-47ec-8663-1fc87de25da5","system_id":"levelo_inurba_marseille","lat":43.29793,"lon":5.38111,"is_reserved":false,"is_disabled":false,"rental_uris":{"android":"levelo://app?vid=8e77a43c-9dc4-47ec-8663-1fc87de25da5","ios":"levelo://app?vid=8e77a43c-9dc4-47ec-8663-1fc87de25da5"},"vehicle_type_id":"4","last_reported":1762441893,"current_range_meters":13600,"station_id":"ce4bgip2rcd13ifvqbb0","pricing_plan_id":"cebpf4jnsgd1na2vs0mg"},{"bike_id":"e5b7a6a7-d553-4b7e-8e86-265ea393fc63","system_id":"levelo_inurba_marseille","lat":43.29014,"lon":5.38128,"is_reserved":false,"is_disabled":false,"rental_uris":{"android":"levelo://app?vid=e5b7a6a7-d553-4b7e-8e86-265ea393fc63","ios":"levelo://app?vid=e5b7a6a7-d553-4b7e-8e86-265ea393fc63"},"vehicle_type_id":"4","last_reported":1762441893,"current_range_meters":13600,"station_id":"ce4bh4p2rcd13ifvqe1g","pricing_plan_id":"cebpf4jnsgd1na2vs0mg"},{"bike_id":"a0fa2a99-f2f8-452b-8267-cccde37b7574","system_id":"levelo_inurba_marseille","lat":43.294919,"lon":5.43307,"is_reserved":false,"is_disabled":false,"rental_uris":{"android":"levelo://app?vid=a0fa2a99-f2f8-452b-8267-cccde37b7574","ios":"levelo://app?vid=a0fa2a99-f2f8-452b-8267-cccde37b7574"},"vehicle_type_id":"4","last_reported":1762441893,"current_range_meters":13600,"station_id":"st_d3j5ugp08ojc73fj9d10","pricing_plan_id":"cebpf4jnsgd1na2vs0mg"},{"bike_id":"58913ae0-74ea-49b4-8d46-6c500447e71d","system_id":"levelo_inurba_marseille","lat":43.29841,"lon":5.37711,"is_reserved":false,"is_disabled":false,"rental_uris":{"android":"levelo://app?vid=58913ae0-74ea-49b4-8d46-6c500447e71d","ios":"levelo://app?vid=58913ae0-74ea-49b4-8d46-6c500447e71d"},"vehicle_type_id":"4","last_reported":1762441893,"current_range_meters":14000,"station_id":"","pricing_plan_id":"cebpf4jnsgd1na2vs0mg"},{"bike_id":"ab9b2bcc-ea75-449d-adbb-4add292d38c4","system_id":"levelo_inurba_marseille","lat":43.3405,"lon":5.38253,"is_reserved":false,"is_disabled":false,"rental_uris":{"android":"levelo://app?vid=ab9b2bcc-ea75-449d-adbb-4add292d38c4","ios":"levelo://app?vid=ab9b2bcc-ea75-449d-adbb-4add292d38c4"},"vehicle_type_id":"4","last_reported":1762441893,"current_range_meters":14000,"station_id":"","pricing_plan_id":"cebpf4jnsgd1na2vs0mg"},{"bike_id":"ea0109b0-25f3-45a5-992f-bb5daa1491a1","system_id":"levelo_inurba_marseille","lat":43.30138,"lon":5.37421,"is_reserved":false,"is_disabled":false,"rental_uris":{"android":"levelo://app?vid=ea0109b0-25f3-45a5-992f-bb5daa1491a1","ios":"levelo://app?vid=ea0109b0-25f3-45a5-992f-bb5daa1491a1"},"vehicle_type_id":"4","last_reported":1762441893,"current_range_meters":14000,"station_id":"ce4bgs92rcd13ifvqcc0","pricing_plan_id":"cebpf4jnsgd1na2vs0mg"},{"bike_id":"35baa2b5-de26-469e-a60b-649e840f80f0","system_id":"levelo_inurba_marseille","lat":43.297136,"lon":5.376911,"is_reserved":false,"is_disabled":false,"rental_uris":{"android":"levelo://app?vid=35baa2b5-de26-469e-a60b-649e840f80f0","ios":"levelo://app?vid=35baa2b5-de26-469e-a60b-649e840f80f0"},"vehicle_type_id":"4","last_reported":1762441893,"current_range_meters":14000,"station_id":"ce4bgkh2rcd13ifvqbl0","pricing_plan_id":"cebpf4jnsgd1na2vs0mg"},{"bike_id":"864a9729-ce58-4e79-982b-8161767b37d8","system_id":"levelo_inurba_marseille","lat":43.337693,"lon":5.374333,"is_reserved":false,"is_disabled":false,"rental_uris":{"android":"levelo://app?vid=864a9729-ce58-4e79-982b-8161767b37d8","ios":"levelo://app?vid=864a9729-ce58-4e79-982b-8161767b37d8"},"vehicle_type_id":"4","last_reported":1762441893,"current_range_meters":14000,"station_id":"","pricing_plan_id":"cebpf4jnsgd1na2vs0mg"},{"bike_id":"8d52ea93-c1b3-4c53-844e-a20efd913cd8","system_id":"levelo_inurba_marseille","lat":43.246492,"lon":5.38891,"is_reserved":false,"is_disabled":false,"rental_uris":{"android":"levelo://app?vid=8d52ea93-c1b3-4c53-844e-a20efd913cd8","ios":"levelo://app?vid=8d52ea93-c1b3-4c53-844e-a20efd913cd8"},"vehicle_type_id":"4","last_reported":1762441893,"current_range_meters":14000,"station_id":"ce4bhg12rcd13ifvqf60","pricing_plan_id":"cebpf4jnsgd1na2vs0mg"},{"bike_id":"90fb8975-4c34-4228-869a-efb507d720cf","system_id":"levelo_inurba_marseille","lat":43.27494,"lon":5.42453,"is_reserved":false,"is_disabled":false,"rental_uris":{"android":"levelo://app?vid=90fb8975-4c34-4228-869a-efb507d720cf","ios":"levelo://app?vid=90fb8975-4c34-4228-869a-efb507d720cf"},"vehicle_type_id":"4","last_reported":1762441893,"current_range_meters":14400,"station_id":"ce4bhn92rcd13ifvqgrg","pricing_plan_id":"cebpf4jnsgd1na2vs0mg"},{"bike_id":"62108f50-122e-4e55-b472-d8dccec44f91","system_id":"levelo_inurba_marseille","lat":43.29506,"lon":5.39433,"is_reserved":false,"is_disabled":false,"rental_uris":{"android":"levelo://app?vid=62108f50-122e-4e55-b472-d8dccec44f91","ios":"levelo://app?vid=62108f50-122e-4e55-b472-d8dccec44f91"},"vehicle_type_id":"4","last_reported":1762441893,"current_range_meters":14400,"station_id":"ce4bh292rcd13ifvqdf0","pricing_plan_id":"cebpf4jnsgd1na2vs0mg"},{"bike_id":"b565574a-9bdf-4792-b451-221643610acf","system_id":"levelo_inurba_marseille","lat":43.22536,"lon":5.34846,"is_reserved":false,"is_disabled":false,"rental_uris":{"android":"levelo://app?vid=b565574a-9bdf-4792-b451-221643610acf","ios":"levelo://app?vid=b565574a-9bdf-4792-b451-221643610acf"},"vehicle_type_id":"4","last_reported":1762441893,"current_range_meters":14400,"station_id":"","pricing_plan_id":"cebpf4jnsgd1na2vs0mg"},{"bike_id":"d0581743-e06c-4ad1-9f8a-41b25975ba07","system_id":"levelo_inurba_marseille","lat":43.29811,"lon":5.44066,"is_reserved":false,"is_disabled":false,"rental_uris":{"android":"levelo://app?vid=d0581743-e06c-4ad1-9f8a-41b25975ba07","ios":"levelo://app?vid=d0581743-e06c-4ad1-9f8a-41b25975ba07"},"vehicle_type_id":"4","last_reported":1762441893,"current_range_meters":14400,"station_id":"st_d3jp68qikq2c7381ktn0","pricing_plan_id":"cebpf4jnsgd1na2vs0mg"},{"bike_id":"769b84f9-db5a-4b36-b8db-27eaf1a3a3c2","system_id":"levelo_inurba_marseille","lat":43.324693,"lon":5.364964,"is_reserved":false,"is_disabled":false,"rental_uris":{"android":"levelo://app?vid=769b84f9-db5a-4b36-b8db-27eaf1a3a3c2","ios":"levelo://app?vid=769b84f9-db5a-4b36-b8db-27eaf1a3a3c2"},"vehicle_type_id":"4","last_reported":1762441893,"current_range_meters":14800,"station_id":"ce4bhs12rcd13ifvqhvg","pricing_plan_id":"cebpf4jnsgd1na2vs0mg"},{"bike_id":"54a1426f-ab8c-4ef5-b7b1-c239d546b191","system_id":"levelo_inurba_marseille","lat":43.24168,"lon":5.36397,"is_reserved":false,"is_disabled":false,"rental_uris":{"android":"levelo://app?vid=54a1426f-ab8c-4ef5-b7b1-c239d546b191","ios":"levelo://app?vid=54a1426f-ab8c-4ef5-b7b1-c239d546b191"},"vehicle_type_id":"4","last_reported":1762441893,"current_range_meters":14800,"station_id":"cpo36qri1sfpv3e86is0","pricing_plan_id":"cebpf4jnsgd1na2vs0mg"},{"bike_id":"07ab8c24-a03d-487a-a930-5f7d1786c5c9","system_id":"levelo_inurba_marseille","lat":43.29977,"lon":5.38484,"is_reserved":false,"is_disabled":false,"rental_uris":{"android":"levelo://app?vid=07ab8c24-a03d-487a-a930-5f7d1786c5c9","ios":"levelo://app?vid=07ab8c24-a03d-487a-a930-5f7d1786c5c9"},"vehicle_type_id":"4","last_reported":1762441893,"current_range_meters":14800,"station_id":"ce4bgj92rcd13ifvqbd0","pricing_plan_id":"cebpf4jnsgd1na2vs0mg"},{"bike_id":"319ffc4e-7711-40e6-a5bd-4d90d7a995da","system_id":"levelo_inurba_marseille","lat":43.31084,"lon":5.42434,"is_reserved":false,"is_disabled":false,"rental_uris":{"android":"levelo://app?vid=319ffc4e-7711-40e6-a5bd-4d90d7a995da","ios":"levelo://app?vid=319ffc4e-7711-40e6-a5bd-4d90d7a995da"},"vehicle_type_id":"4","last_reported":1762441893,"current_range_meters":14800,"station_id":"ce4bhp92rcd13ifvqhag","pricing_plan_id":"cebpf4jnsgd1na2vs0mg"},{"bike_id":"b6acac36-f0af-4d1b-8caa-556786c7f8bc","system_id":"levelo_inurba_marseille","lat":43.30146,"lon":5.38776,"is_reserved":false,"is_disabled":false,"rental_uris":{"android":"levelo://app?vid=b6acac36-f0af-4d1b-8caa-556786c7f8bc","ios":"levelo://app?vid=b6acac36-f0af-4d1b-8caa-556786c7f8bc"},"vehicle_type_id":"4","last_reported":1762441893,"current_range_meters":14800,"station_id":"ce4bghh2rcd13ifvqb60","pricing_plan_id":"cebpf4jnsgd1na2vs0mg"},{"bike_id":"f0162dd0-493e-4789-b7c3-cabd55d30c5f","system_id":"levelo_inurba_marseille","lat":43.32478,"lon":5.36559,"is_reserved":false,"is_disabled":false,"rental_uris":{"android":"levelo://app?vid=f0162dd0-493e-4789-b7c3-cabd55d30c5f","ios":"levelo://app?vid=f0162dd0-493e-4789-b7c3-cabd55d30c5f"},"vehicle_type_id":"4","last_reported":1762441893,"current_range_meters":14800,"station_id":"ce4bhs12rcd13ifvqhvg","pricing_plan_id":"cebpf4jnsgd1na2vs0mg"},{"bike_id":"0990d13d-02e1-4e54-9d32-bff81dbbfd6f","system_id":"levelo_inurba_marseille","lat":43.30195,"lon":5.37353,"is_reserved":false,"is_disabled":false,"rental_uris":{"android":"levelo://app?vid=0990d13d-02e1-4e54-9d32-bff81dbbfd6f","ios":"levelo://app?vid=0990d13d-02e1-4e54-9d32-bff81dbbfd6f"},"vehicle_type_id":"4","last_reported":1762441893,"current_range_meters":15200,"station_id":"","pricing_plan_id":"cebpf4jnsgd1na2vs0mg"},{"bike_id":"43cfab9e-f547-4304-9999-4a8329474751","system_id":"levelo_inurba_marseille","lat":43.21195,"lon":5.35117,"is_reserved":false,"is_disabled":false,"rental_uris":{"android":"levelo://app?vid=43cfab9e-f547-4304-9999-4a8329474751","ios":"levelo://app?vid=43cfab9e-f547-4304-9999-4a8329474751"},"vehicle_type_id":"4","last_reported":1762441893,"current_range_meters":15200,"station_id":"st_cvj6sg6p6f1abm77japg","pricing_plan_id":"cebpf4jnsgd1na2vs0mg"},{"bike_id":"33ae4984-5f12-485a-9589-62afcaed0591","system_id":"levelo_inurba_marseille","lat":43.29113,"lon":5.40811,"is_reserved":false,"is_disabled":false,"rental_uris":{"android":"levelo://app?vid=33ae4984-5f12-485a-9589-62afcaed0591","ios":"levelo://app?vid=33ae4984-5f12-485a-9589-62afcaed0591"},"vehicle_type_id":"4","last_reported":1762441893,"current_range_meters":15200,"station_id":"","pricing_plan_id":"cebpf4jnsgd1na2vs0mg"},{"bike_id":"a0dc2ab3-bc0b-4517-855e-a8facdaf8ef4","system_id":"levelo_inurba_marseille","lat":43.321083,"lon":5.41401,"is_reserved":false,"is_disabled":false,"rental_uris":{"android":"levelo://app?vid=a0dc2ab3-bc0b-4517-855e-a8facdaf8ef4","ios":"levelo://app?vid=a0dc2ab3-bc0b-4517-855e-a8facdaf8ef4"},"vehicle_type_id":"4","last_reported":1762441893,"current_range_meters":15200,"station_id":"ce4bhq92rcd13ifvqhkg","pricing_plan_id":"cebpf4jnsgd1na2vs0mg"},{"bike_id":"1c1406c3-ccbf-4c7e-948d-af3d562996c8","system_id":"levelo_inurba_marseille","lat":43.29813,"lon":5.44057,"is_reserved":false,"is_disabled":false,"rental_uris":{"android":"levelo://app?vid=1c1406c3-ccbf-4c7e-948d-af3d562996c8","ios":"levelo://app?vid=1c1406c3-ccbf-4c7e-948d-af3d562996c8"},"vehicle_type_id":"4","last_reported":1762441893,"current_range_meters":16000,"station_id":"st_d3jp68qikq2c7381ktn0","pricing_plan_id":"cebpf4jnsgd1na2vs0mg"},{"bike_id":"1e89aa19-8456-4398-b70e-ce2874dd6d89","system_id":"levelo_inurba_marseille","lat":43.21556,"lon":5.34459,"is_reserved":false,"is_disabled":false,"rental_uris":{"android":"levelo://app?vid=1e89aa19-8456-4398-b70e-ce2874dd6d89","ios":"levelo://app?vid=1e89aa19-8456-4398-b70e-ce2874dd6d89"},"vehicle_type_id":"4","last_reported":1762441893,"current_range_meters":16000,"station_id":"","pricing_plan_id":"cebpf4jnsgd1na2vs0mg"},{"bike_id":"4fda6e4b-620c-47ba-80d1-4bfb26d644a6","system_id":"levelo_inurba_marseille","lat":43.293133,"lon":5.371722,"is_reserved":false,"is_disabled":false,"rental_uris":{"android":"levelo://app?vid=4fda6e4b-620c-47ba-80d1-4bfb26d644a6","ios":"levelo://app?vid=4fda6e4b-620c-47ba-80d1-4bfb26d644a6"},"vehicle_type_id":"4","last_reported":1762441893,"current_range_meters":16000,"station_id":"ce4bgh92rcd13ifvqb40","pricing_plan_id":"cebpf4jnsgd1na2vs0mg"},{"bike_id":"15b54e6d-22a9-4e87-bca1-10f51918d8f7","system_id":"levelo_inurba_marseille","lat":43.24173,"lon":5.397323,"is_reserved":false,"is_disabled":false,"rental_uris":{"android":"levelo://app?vid=15b54e6d-22a9-4e87-bca1-10f51918d8f7","ios":"levelo://app?vid=15b54e6d-22a9-4e87-bca1-10f51918d8f7"},"vehicle_type_id":"4","last_reported":1762441893,"current_range_meters":16000,"station_id":"ce4bhn12rcd13ifvqgpg","pricing_plan_id":"cebpf4jnsgd1na2vs0mg"},{"bike_id":"6b965bfc-884a-484d-88c5-749454f2331e","system_id":"levelo_inurba_marseille","lat":43.27497,"lon":5.42458,"is_reserved":false,"is_disabled":true,"rental_uris":{"android":"levelo://app?vid=6b965bfc-884a-484d-88c5-749454f2331e","ios":"levelo://app?vid=6b965bfc-884a-484d-88c5-749454f2331e"},"vehicle_type_id":"4","last_reported":1762441893,"current_range_meters":16000,"station_id":"ce4bhn92rcd13ifvqgrg","pricing_plan_id":"cebpf4jnsgd1na2vs0mg"},{"bike_id":"24e2a0b1-a4d5-4f1b-abbb-aa22e0fbb736","system_id":"levelo_inurba_marseille","lat":43.231538,"lon":5.437053,"is_reserved":false,"is_disabled":false,"rental_uris":{"android":"levelo://app?vid=24e2a0b1-a4d5-4f1b-abbb-aa22e0fbb736","ios":"levelo://app?vid=24e2a0b1-a4d5-4f1b-abbb-aa22e0fbb736"},"vehicle_type_id":"4","last_reported":1762441893,"current_range_meters":16400,"station_id":"ce4bhmp2rcd13ifvqgog","pricing_plan_id":"cebpf4jnsgd1na2vs0mg"},{"bike_id":"b3af7f0b-6f35-4ff3-9368-bf3b9577ae52","system_id":"levelo_inurba_marseille","lat":43.304875,"lon":5.367189,"is_reserved":false,"is_disabled":false,"rental_uris":{"android":"levelo://app?vid=b3af7f0b-6f35-4ff3-9368-bf3b9577ae52","ios":"levelo://app?vid=b3af7f0b-6f35-4ff3-9368-bf3b9577ae52"},"vehicle_type_id":"4","last_reported":1762441893,"current_range_meters":16400,"station_id":"ce4bgrp2rcd13ifvqc9g","pricing_plan_id":"cebpf4jnsgd1na2vs0mg"},{"bike_id":"9e793a49-77b3-4b52-9c9b-5394d2724364","system_id":"levelo_inurba_marseille","lat":43.27318,"lon":5.3908,"is_reserved":false,"is_disabled":false,"rental_uris":{"android":"levelo://app?vid=9e793a49-77b3-4b52-9c9b-5394d2724364","ios":"levelo://app?vid=9e793a49-77b3-4b52-9c9b-5394d2724364"},"vehicle_type_id":"4","last_reported":1762441893,"current_range_meters":16400,"station_id":"ce4bhgp2rcd13ifvqfe0","pricing_plan_id":"cebpf4jnsgd1na2vs0mg"},{"bike_id":"06f25dea-ca18-4cca-a251-573298dd6aba","system_id":"levelo_inurba_marseille","lat":43.32081,"lon":5.36795,"is_reserved":false,"is_disabled":false,"rental_uris":{"android":"levelo://app?vid=06f25dea-ca18-4cca-a251-573298dd6aba","ios":"levelo://app?vid=06f25dea-ca18-4cca-a251-573298dd6aba"},"vehicle_type_id":"4","last_reported":1762441893,"current_range_meters":16400,"station_id":"ce4bhrh2rcd13ifvqhug","pricing_plan_id":"cebpf4jnsgd1na2vs0mg"},{"bike_id":"cda8ee5f-cad7-4035-b7f0-7ee3b38adda9","system_id":"levelo_inurba_marseille","lat":43.284617,"lon":5.384094,"is_reserved":false,"is_disabled":false,"rental_uris":{"android":"levelo://app?vid=cda8ee5f-cad7-4035-b7f0-7ee3b38adda9","ios":"levelo://app?vid=cda8ee5f-cad7-4035-b7f0-7ee3b38adda9"},"vehicle_type_id":"4","last_reported":1762441893,"current_range_meters":16400,"station_id":"","pricing_plan_id":"cebpf4jnsgd1na2vs0mg"},{"bike_id":"01eed466-66d3-43b6-acb9-94704c7a5d64","system_id":"levelo_inurba_marseille","lat":43.29792,"lon":5.37905,"is_reserved":false,"is_disabled":false,"rental_uris":{"android":"levelo://app?vid=01eed466-66d3-43b6-acb9-94704c7a5d64","ios":"levelo://app?vid=01eed466-66d3-43b6-acb9-94704c7a5d64"},"vehicle_type_id":"4","last_reported":1762441893,"current_range_meters":16400,"station_id":"","pricing_plan_id":"cebpf4jnsgd1na2vs0mg"},{"bike_id":"850c9d67-a983-41db-8e9d-4cde68e54bbc","system_id":"levelo_inurba_marseille","lat":43.28937,"lon":5.3641,"is_reserved":false,"is_disabled":false,"rental_uris":{"android":"levelo://app?vid=850c9d67-a983-41db-8e9d-4cde68e54bbc","ios":"levelo://app?vid=850c9d67-a983-41db-8e9d-4cde68e54bbc"},"vehicle_type_id":"4","last_reported":1762441893,"current_range_meters":16400,"station_id":"ce4bhc92rcd13ifvqetg","pricing_plan_id":"cebpf4jnsgd1na2vs0mg"},{"bike_id":"5173c532-d3c7-4f40-b318-f61637d10908","system_id":"levelo_inurba_marseille","lat":43.24546,"lon":5.39519,"is_reserved":false,"is_disabled":false,"rental_uris":{"android":"levelo://app?vid=5173c532-d3c7-4f40-b318-f61637d10908","ios":"levelo://app?vid=5173c532-d3c7-4f40-b318-f61637d10908"},"vehicle_type_id":"4","last_reported":1762441893,"current_range_meters":16400,"station_id":"ce4bhlp2rcd13ifvqgjg","pricing_plan_id":"cebpf4jnsgd1na2vs0mg"},{"bike_id":"7c9760db-1d79-4982-8318-f34400c4e90d","system_id":"levelo_inurba_marseille","lat":43.31497,"lon":5.37303,"is_reserved":false,"is_disabled":false,"rental_uris":{"android":"levelo://app?vid=7c9760db-1d79-4982-8318-f34400c4e90d","ios":"levelo://app?vid=7c9760db-1d79-4982-8318-f34400c4e90d"},"vehicle_type_id":"4","last_reported":1762441893,"current_range_meters":16400,"station_id":"ce4bgt12rcd13ifvqcd0","pricing_plan_id":"cebpf4jnsgd1na2vs0mg"},{"bike_id":"e071e82c-cdb6-459f-b22d-eefcbaca951d","system_id":"levelo_inurba_marseille","lat":43.31581,"lon":5.38399,"is_reserved":false,"is_disabled":false,"rental_uris":{"android":"levelo://app?vid=e071e82c-cdb6-459f-b22d-eefcbaca951d","ios":"levelo://app?vid=e071e82c-cdb6-459f-b22d-eefcbaca951d"},"vehicle_type_id":"4","last_reported":1762441893,"current_range_meters":16800,"station_id":"","pricing_plan_id":"cebpf4jnsgd1na2vs0mg"},{"bike_id":"ef860c1c-3e4f-49da-9f52-3ad2e51b444c","system_id":"levelo_inurba_marseille","lat":43.30554,"lon":5.36569,"is_reserved":false,"is_disabled":false,"rental_uris":{"android":"levelo://app?vid=ef860c1c-3e4f-49da-9f52-3ad2e51b444c","ios":"levelo://app?vid=ef860c1c-3e4f-49da-9f52-3ad2e51b444c"},"vehicle_type_id":"4","last_reported":1762441893,"current_range_meters":16800,"station_id":"ce4bgs12rcd13ifvqcag","pricing_plan_id":"cebpf4jnsgd1na2vs0mg"},{"bike_id":"e05cec73-d569-46e0-9e66-3b89b51a0278","system_id":"levelo_inurba_marseille","lat":43.26782,"lon":5.39417,"is_reserved":false,"is_disabled":false,"rental_uris":{"android":"levelo://app?vid=e05cec73-d569-46e0-9e66-3b89b51a0278","ios":"levelo://app?vid=e05cec73-d569-46e0-9e66-3b89b51a0278"},"vehicle_type_id":"4","last_reported":1762441893,"current_range_meters":16800,"station_id":"ce4bhh12rcd13ifvqfg0","pricing_plan_id":"cebpf4jnsgd1na2vs0mg"},{"bike_id":"b6d6ed38-4c87-427d-b530-709237f9a962","system_id":"levelo_inurba_marseille","lat":43.23161,"lon":5.43698,"is_reserved":false,"is_disabled":false,"rental_uris":{"android":"levelo://app?vid=b6d6ed38-4c87-427d-b530-709237f9a962","ios":"levelo://app?vid=b6d6ed38-4c87-427d-b530-709237f9a962"},"vehicle_type_id":"4","last_reported":1762441893,"current_range_meters":16800,"station_id":"ce4bhmp2rcd13ifvqgog","pricing_plan_id":"cebpf4jnsgd1na2vs0mg"},{"bike_id":"5ef84235-eddd-425b-8be4-c31c46a00271","system_id":"levelo_inurba_marseille","lat":43.241688,"lon":5.364078,"is_reserved":false,"is_disabled":false,"rental_uris":{"android":"levelo://app?vid=5ef84235-eddd-425b-8be4-c31c46a00271","ios":"levelo://app?vid=5ef84235-eddd-425b-8be4-c31c46a00271"},"vehicle_type_id":"4","last_reported":1762441893,"current_range_meters":16800,"station_id":"cpo36qri1sfpv3e86is0","pricing_plan_id":"cebpf4jnsgd1na2vs0mg"},{"bike_id":"1e27fb54-278b-402e-b3c3-8f026b6520be","system_id":"levelo_inurba_marseille","lat":43.27967,"lon":5.38732,"is_reserved":false,"is_disabled":false,"rental_uris":{"android":"levelo://app?vid=1e27fb54-278b-402e-b3c3-8f026b6520be","ios":"levelo://app?vid=1e27fb54-278b-402e-b3c3-8f026b6520be"},"vehicle_type_id":"4","last_reported":1762441893,"current_range_meters":16800,"station_id":"ce4bhg12rcd13ifvqf80","pricing_plan_id":"cebpf4jnsgd1na2vs0mg"},{"bike_id":"0f4ffc77-cafe-489d-b8b6-ccbf6aa9af95","system_id":"levelo_inurba_marseille","lat":43.28612,"lon":5.35104,"is_reserved":false,"is_disabled":false,"rental_uris":{"android":"levelo://app?vid=0f4ffc77-cafe-489d-b8b6-ccbf6aa9af95","ios":"levelo://app?vid=0f4ffc77-cafe-489d-b8b6-ccbf6aa9af95"},"vehicle_type_id":"4","last_reported":1762441893,"current_range_meters":16800,"station_id":"ce4bhch2rcd13ifvqeug","pricing_plan_id":"cebpf4jnsgd1na2vs0mg"},{"bike_id":"0ab43d90-1272-4d3e-93ca-d153c21b67be","system_id":"levelo_inurba_marseille","lat":43.30563,"lon":5.36555,"is_reserved":false,"is_disabled":false,"rental_uris":{"android":"levelo://app?vid=0ab43d90-1272-4d3e-93ca-d153c21b67be","ios":"levelo://app?vid=0ab43d90-1272-4d3e-93ca-d153c21b67be"},"vehicle_type_id":"4","last_reported":1762441893,"current_range_meters":16800,"station_id":"ce4bgs12rcd13ifvqcag","pricing_plan_id":"cebpf4jnsgd1na2vs0mg"},{"bike_id":"ef88bf48-a9f7-437f-9e02-d63c04098e5b","system_id":"levelo_inurba_marseille","lat":43.28687,"lon":5.37401,"is_reserved":false,"is_disabled":false,"rental_uris":{"android":"levelo://app?vid=ef88bf48-a9f7-437f-9e02-d63c04098e5b","ios":"levelo://app?vid=ef88bf48-a9f7-437f-9e02-d63c04098e5b"},"vehicle_type_id":"4","last_reported":1762441893,"current_range_meters":16800,"station_id":"ce4bh3p2rcd13ifvqdq0","pricing_plan_id":"cebpf4jnsgd1na2vs0mg"},{"bike_id":"dd9dd3ba-f841-4d2a-b206-9ab2184df950","system_id":"levelo_inurba_marseille","lat":43.299864,"lon":5.371906,"is_reserved":false,"is_disabled":false,"rental_uris":{"android":"levelo://app?vid=dd9dd3ba-f841-4d2a-b206-9ab2184df950","ios":"levelo://app?vid=dd9dd3ba-f841-4d2a-b206-9ab2184df950"},"vehicle_type_id":"4","last_reported":1762441893,"current_range_meters":17200,"station_id":"","pricing_plan_id":"cebpf4jnsgd1na2vs0mg"},{"bike_id":"711b5184-06a1-46c6-b1ad-270408b914a4","system_id":"levelo_inurba_marseille","lat":43.30002,"lon":5.40967,"is_reserved":false,"is_disabled":false,"rental_uris":{"android":"levelo://app?vid=711b5184-06a1-46c6-b1ad-270408b914a4","ios":"levelo://app?vid=711b5184-06a1-46c6-b1ad-270408b914a4"},"vehicle_type_id":"4","last_reported":1762441893,"current_range_meters":17200,"station_id":"","pricing_plan_id":"cebpf4jnsgd1na2vs0mg"},{"bike_id":"c05bf494-3cd3-4b7c-9a7e-d99f119b148e","system_id":"levelo_inurba_marseille","lat":43.29593,"lon":5.37733,"is_reserved":false,"is_disabled":false,"rental_uris":{"android":"levelo://app?vid=c05bf494-3cd3-4b7c-9a7e-d99f119b148e","ios":"levelo://app?vid=c05bf494-3cd3-4b7c-9a7e-d99f119b148e"},"vehicle_type_id":"4","last_reported":1762441893,"current_range_meters":17200,"station_id":"ce4bgi92rcd13ifvqb90","pricing_plan_id":"cebpf4jnsgd1na2vs0mg"},{"bike_id":"735af335-66bf-4340-87fb-78f795989dcc","system_id":"levelo_inurba_marseille","lat":43.2996,"lon":5.38214,"is_reserved":false,"is_disabled":false,"rental_uris":{"android":"levelo://app?vid=735af335-66bf-4340-87fb-78f795989dcc","ios":"levelo://app?vid=735af335-66bf-4340-87fb-78f795989dcc"},"vehicle_type_id":"4","last_reported":1762441893,"current_range_meters":17200,"station_id":"","pricing_plan_id":"cebpf4jnsgd1na2vs0mg"},{"bike_id":"3921a448-f9ee-49b9-8111-743e81f0b333","system_id":"levelo_inurba_marseille","lat":43.30296,"lon":5.36894,"is_reserved":false,"is_disabled":false,"rental_uris":{"android":"levelo://app?vid=3921a448-f9ee-49b9-8111-743e81f0b333","ios":"levelo://app?vid=3921a448-f9ee-49b9-8111-743e81f0b333"},"vehicle_type_id":"4","last_reported":1762441893,"current_range_meters":17200,"station_id":"ce4bgqh2rcd13ifvqc5g","pricing_plan_id":"cebpf4jnsgd1na2vs0mg"},{"bike_id":"acd11f1f-a797-4d8a-ac97-7cfd85277af2","system_id":"levelo_inurba_marseille","lat":43.22942,"lon":5.35393,"is_reserved":false,"is_disabled":false,"rental_uris":{"android":"levelo://app?vid=acd11f1f-a797-4d8a-ac97-7cfd85277af2","ios":"levelo://app?vid=acd11f1f-a797-4d8a-ac97-7cfd85277af2"},"vehicle_type_id":"4","last_reported":1762441893,"current_range_meters":17200,"station_id":"cpo3532slgdg3j2ikp40","pricing_plan_id":"cebpf4jnsgd1na2vs0mg"},{"bike_id":"8029b962-a0f3-4e77-a857-db82d1c12263","system_id":"levelo_inurba_marseille","lat":43.29257,"lon":5.37625,"is_reserved":false,"is_disabled":false,"rental_uris":{"android":"levelo://app?vid=8029b962-a0f3-4e77-a857-db82d1c12263","ios":"levelo://app?vid=8029b962-a0f3-4e77-a857-db82d1c12263"},"vehicle_type_id":"4","last_reported":1762441893,"current_range_meters":17200,"station_id":"ce4bgi12rcd13ifvqb80","pricing_plan_id":"cebpf4jnsgd1na2vs0mg"},{"bike_id":"28b54568-250f-48ad-b030-25d760bf4abc","system_id":"levelo_inurba_marseille","lat":43.32089,"lon":5.36831,"is_reserved":false,"is_disabled":false,"rental_uris":{"android":"levelo://app?vid=28b54568-250f-48ad-b030-25d760bf4abc","ios":"levelo://app?vid=28b54568-250f-48ad-b030-25d760bf4abc"},"vehicle_type_id":"4","last_reported":1762441893,"current_range_meters":17200,"station_id":"","pricing_plan_id":"cebpf4jnsgd1na2vs0mg"},{"bike_id":"a906c8f7-b25b-4dd8-acc7-fd101c297e0c","system_id":"levelo_inurba_marseille","lat":43.25911,"lon":5.40923,"is_reserved":false,"is_disabled":false,"rental_uris":{"android":"levelo://app?vid=a906c8f7-b25b-4dd8-acc7-fd101c297e0c","ios":"levelo://app?vid=a906c8f7-b25b-4dd8-acc7-fd101c297e0c"},"vehicle_type_id":"4","last_reported":1762441893,"current_range_meters":17200,"station_id":"ce4bhm92rcd13ifvqglg","pricing_plan_id":"cebpf4jnsgd1na2vs0mg"},{"bike_id":"68f31e5e-1413-4626-94ff-9a2cd71e2df4","system_id":"levelo_inurba_marseille","lat":43.30792,"lon":5.38183,"is_reserved":false,"is_disabled":false,"rental_uris":{"android":"levelo://app?vid=68f31e5e-1413-4626-94ff-9a2cd71e2df4","ios":"levelo://app?vid=68f31e5e-1413-4626-94ff-9a2cd71e2df4"},"vehicle_type_id":"4","last_reported":1762441893,"current_range_meters":17200,"station_id":"ce4bgt12rcd13ifvqce0","pricing_plan_id":"cebpf4jnsgd1na2vs0mg"},{"bike_id":"a5173696-5ba0-4fe6-bac5-de4a58477c02","system_id":"levelo_inurba_marseille","lat":43.33776,"lon":5.37469,"is_reserved":false,"is_disabled":false,"rental_uris":{"android":"levelo://app?vid=a5173696-5ba0-4fe6-bac5-de4a58477c02","ios":"levelo://app?vid=a5173696-5ba0-4fe6-bac5-de4a58477c02"},"vehicle_type_id":"4","last_reported":1762441893,"current_range_meters":17600,"station_id":"","pricing_plan_id":"cebpf4jnsgd1na2vs0mg"},{"bike_id":"364e7252-6c8d-481d-b075-6ed46540f13b","system_id":"levelo_inurba_marseille","lat":43.26271,"lon":5.39871,"is_reserved":false,"is_disabled":false,"rental_uris":{"android":"levelo://app?vid=364e7252-6c8d-481d-b075-6ed46540f13b","ios":"levelo://app?vid=364e7252-6c8d-481d-b075-6ed46540f13b"},"vehicle_type_id":"4","last_reported":1762441893,"current_range_meters":17600,"station_id":"","pricing_plan_id":"cebpf4jnsgd1na2vs0mg"},{"bike_id":"91195dc3-7219-4139-a8eb-8e52bb6d271e","system_id":"levelo_inurba_marseille","lat":43.23191,"lon":5.35551,"is_reserved":false,"is_disabled":false,"rental_uris":{"android":"levelo://app?vid=91195dc3-7219-4139-a8eb-8e52bb6d271e","ios":"levelo://app?vid=91195dc3-7219-4139-a8eb-8e52bb6d271e"},"vehicle_type_id":"4","last_reported":1762441893,"current_range_meters":17600,"station_id":"ce4bhu92rcd13ifvqi70","pricing_plan_id":"cebpf4jnsgd1na2vs0mg"},{"bike_id":"65d83eaf-428a-43cd-a356-ecaed95948ff","system_id":"levelo_inurba_marseille","lat":43.24834,"lon":5.3978,"is_reserved":false,"is_disabled":false,"rental_uris":{"android":"levelo://app?vid=65d83eaf-428a-43cd-a356-ecaed95948ff","ios":"levelo://app?vid=65d83eaf-428a-43cd-a356-ecaed95948ff"},"vehicle_type_id":"4","last_reported":1762441893,"current_range_meters":17600,"station_id":"","pricing_plan_id":"cebpf4jnsgd1na2vs0mg"},{"bike_id":"329070e8-d502-4a6c-b48c-e60c98fc285b","system_id":"levelo_inurba_marseille","lat":43.31266,"lon":5.38954,"is_reserved":false,"is_disabled":false,"rental_uris":{"android":"levelo://app?vid=329070e8-d502-4a6c-b48c-e60c98fc285b","ios":"levelo://app?vid=329070e8-d502-4a6c-b48c-e60c98fc285b"},"vehicle_type_id":"4","last_reported":1762441893,"current_range_meters":17600,"station_id":"","pricing_plan_id":"cebpf4jnsgd1na2vs0mg"},{"bike_id":"4db561fa-0133-449c-a0eb-011343a5bd3a","system_id":"levelo_inurba_marseille","lat":43.28862,"lon":5.42525,"is_reserved":false,"is_disabled":false,"rental_uris":{"android":"levelo://app?vid=4db561fa-0133-449c-a0eb-011343a5bd3a","ios":"levelo://app?vid=4db561fa-0133-449c-a0eb-011343a5bd3a"},"vehicle_type_id":"4","last_reported":1762441893,"current_range_meters":17600,"station_id":"st_d3b462108ojc7389ooeg","pricing_plan_id":"cebpf4jnsgd1na2vs0mg"},{"bike_id":"ec44e195-cde1-4252-aadf-701a64256dd7","system_id":"levelo_inurba_marseille","lat":43.24617,"lon":5.43166,"is_reserved":false,"is_disabled":false,"rental_uris":{"android":"levelo://app?vid=ec44e195-cde1-4252-aadf-701a64256dd7","ios":"levelo://app?vid=ec44e195-cde1-4252-aadf-701a64256dd7"},"vehicle_type_id":"4","last_reported":1762441893,"current_range_meters":17600,"station_id":"st_d2m6c4gdas8pm72e190g","pricing_plan_id":"cebpf4jnsgd1na2vs0mg"},{"bike_id":"decad613-875f-4e39-a5cc-a2636a2419c6","system_id":"levelo_inurba_marseille","lat":43.23164,"lon":5.437,"is_reserved":false,"is_disabled":false,"rental_uris":{"android":"levelo://app?vid=decad613-875f-4e39-a5cc-a2636a2419c6","ios":"levelo://app?vid=decad613-875f-4e39-a5cc-a2636a2419c6"},"vehicle_type_id":"4","last_reported":1762441893,"current_range_meters":17600,"station_id":"ce4bhmp2rcd13ifvqgog","pricing_plan_id":"cebpf4jnsgd1na2vs0mg"},{"bike_id":"d91ef251-46e7-42de-8736-634f86c14458","system_id":"levelo_inurba_marseille","lat":43.29301,"lon":5.37461,"is_reserved":false,"is_disabled":false,"rental_uris":{"android":"levelo://app?vid=d91ef251-46e7-42de-8736-634f86c14458","ios":"levelo://app?vid=d91ef251-46e7-42de-8736-634f86c14458"},"vehicle_type_id":"4","last_reported":1762441893,"current_range_meters":17600,"station_id":"ce4bgi12rcd13ifvqb70","pricing_plan_id":"cebpf4jnsgd1na2vs0mg"},{"bike_id":"b3ef1f8f-45a0-41b6-b3fd-960c674e4ba3","system_id":"levelo_inurba_marseille","lat":43.3014,"lon":5.37417,"is_reserved":false,"is_disabled":false,"rental_uris":{"android":"levelo://app?vid=b3ef1f8f-45a0-41b6-b3fd-960c674e4ba3","ios":"levelo://app?vid=b3ef1f8f-45a0-41b6-b3fd-960c674e4ba3"},"vehicle_type_id":"4","last_reported":1762441893,"current_range_meters":17600,"station_id":"ce4bgs92rcd13ifvqcc0","pricing_plan_id":"cebpf4jnsgd1na2vs0mg"},{"bike_id":"d4e9d211-996c-4b4a-819e-c03f71e7b112","system_id":"levelo_inurba_marseille","lat":43.2655,"lon":5.37315,"is_reserved":false,"is_disabled":false,"rental_uris":{"android":"levelo://app?vid=d4e9d211-996c-4b4a-819e-c03f71e7b112","ios":"levelo://app?vid=d4e9d211-996c-4b4a-819e-c03f71e7b112"},"vehicle_type_id":"4","last_reported":1762441893,"current_range_meters":17600,"station_id":"ce4bhg12rcd13ifvqf70","pricing_plan_id":"cebpf4jnsgd1na2vs0mg"},{"bike_id":"5bee8f0f-57fe-4257-a72a-04a4967570b5","system_id":"levelo_inurba_marseille","lat":43.30043,"lon":5.37742,"is_reserved":false,"is_disabled":false,"rental_uris":{"android":"levelo://app?vid=5bee8f0f-57fe-4257-a72a-04a4967570b5","ios":"levelo://app?vid=5bee8f0f-57fe-4257-a72a-04a4967570b5"},"vehicle_type_id":"4","last_reported":1762441893,"current_range_meters":17600,"station_id":"","pricing_plan_id":"cebpf4jnsgd1na2vs0mg"},{"bike_id":"7c8627a5-565b-4b37-9dc9-7bce13187d0b","system_id":"levelo_inurba_marseille","lat":43.317533,"lon":5.390125,"is_reserved":false,"is_disabled":false,"rental_uris":{"android":"levelo://app?vid=7c8627a5-565b-4b37-9dc9-7bce13187d0b","ios":"levelo://app?vid=7c8627a5-565b-4b37-9dc9-7bce13187d0b"},"vehicle_type_id":"4","last_reported":1762441893,"current_range_meters":17600,"station_id":"ce4bhqp2rcd13ifvqhng","pricing_plan_id":"cebpf4jnsgd1na2vs0mg"},{"bike_id":"63883f67-4f24-4f44-bb15-ac4ff10cbc24","system_id":"levelo_inurba_marseille","lat":43.29575,"lon":5.37515,"is_reserved":false,"is_disabled":false,"rental_uris":{"android":"levelo://app?vid=63883f67-4f24-4f44-bb15-ac4ff10cbc24","ios":"levelo://app?vid=63883f67-4f24-4f44-bb15-ac4ff10cbc24"},"vehicle_type_id":"4","last_reported":1762441893,"current_range_meters":18000,"station_id":"ce4bgh92rcd13ifvqb50","pricing_plan_id":"cebpf4jnsgd1na2vs0mg"},{"bike_id":"6edac929-d79d-4e1a-b3eb-9d5af3dfd010","system_id":"levelo_inurba_marseille","lat":43.299216,"lon":5.374623,"is_reserved":false,"is_disabled":false,"rental_uris":{"android":"levelo://app?vid=6edac929-d79d-4e1a-b3eb-9d5af3dfd010","ios":"levelo://app?vid=6edac929-d79d-4e1a-b3eb-9d5af3dfd010"},"vehicle_type_id":"4","last_reported":1762441893,"current_range_meters":18000,"station_id":"ce4bh4p2rcd13ifvqe0g","pricing_plan_id":"cebpf4jnsgd1na2vs0mg"},{"bike_id":"55c6a609-9074-4f89-a752-5a65b39a1df5","system_id":"levelo_inurba_marseille","lat":43.32065,"lon":5.36929,"is_reserved":false,"is_disabled":false,"rental_uris":{"android":"levelo://app?vid=55c6a609-9074-4f89-a752-5a65b39a1df5","ios":"levelo://app?vid=55c6a609-9074-4f89-a752-5a65b39a1df5"},"vehicle_type_id":"4","last_reported":1762441893,"current_range_meters":18000,"station_id":"","pricing_plan_id":"cebpf4jnsgd1na2vs0mg"},{"bike_id":"98e41974-51ef-424a-81c4-9cacb2d13dc4","system_id":"levelo_inurba_marseille","lat":43.27174,"lon":5.40994,"is_reserved":false,"is_disabled":false,"rental_uris":{"android":"levelo://app?vid=98e41974-51ef-424a-81c4-9cacb2d13dc4","ios":"levelo://app?vid=98e41974-51ef-424a-81c4-9cacb2d13dc4"},"vehicle_type_id":"4","last_reported":1762441893,"current_range_meters":18000,"station_id":"ce4bhl12rcd13ifvqgf0","pricing_plan_id":"cebpf4jnsgd1na2vs0mg"},{"bike_id":"ada7c068-07f5-4885-8cb5-5c4f9b537ace","system_id":"levelo_inurba_marseille","lat":43.23148,"lon":5.4372,"is_reserved":false,"is_disabled":false,"rental_uris":{"android":"levelo://app?vid=ada7c068-07f5-4885-8cb5-5c4f9b537ace","ios":"levelo://app?vid=ada7c068-07f5-4885-8cb5-5c4f9b537ace"},"vehicle_type_id":"4","last_reported":1762441893,"current_range_meters":18000,"station_id":"ce4bhmp2rcd13ifvqgog","pricing_plan_id":"cebpf4jnsgd1na2vs0mg"},{"bike_id":"b03fc7f2-3e91-4203-aba6-afaae3f0c1fc","system_id":"levelo_inurba_marseille","lat":43.29157,"lon":5.40017,"is_reserved":false,"is_disabled":false,"rental_uris":{"android":"levelo://app?vid=b03fc7f2-3e91-4203-aba6-afaae3f0c1fc","ios":"levelo://app?vid=b03fc7f2-3e91-4203-aba6-afaae3f0c1fc"},"vehicle_type_id":"4","last_reported":1762441893,"current_range_meters":18000,"station_id":"","pricing_plan_id":"cebpf4jnsgd1na2vs0mg"},{"bike_id":"781f864f-0610-42a1-8539-b44ad3ca704a","system_id":"levelo_inurba_marseille","lat":43.23203,"lon":5.35537,"is_reserved":false,"is_disabled":false,"rental_uris":{"android":"levelo://app?vid=781f864f-0610-42a1-8539-b44ad3ca704a","ios":"levelo://app?vid=781f864f-0610-42a1-8539-b44ad3ca704a"},"vehicle_type_id":"4","last_reported":1762441893,"current_range_meters":18000,"station_id":"ce4bhu92rcd13ifvqi70","pricing_plan_id":"cebpf4jnsgd1na2vs0mg"},{"bike_id":"4ccea25f-2fc3-4ed4-a980-08ad43f86d65","system_id":"levelo_inurba_marseille","lat":43.26557,"lon":5.40329,"is_reserved":false,"is_disabled":false,"rental_uris":{"android":"levelo://app?vid=4ccea25f-2fc3-4ed4-a980-08ad43f86d65","ios":"levelo://app?vid=4ccea25f-2fc3-4ed4-a980-08ad43f86d65"},"vehicle_type_id":"4","last_reported":1762441893,"current_range_meters":18000,"station_id":"ce4bhmp2rcd13ifvqgng","pricing_plan_id":"cebpf4jnsgd1na2vs0mg"},{"bike_id":"a735d687-c1f2-4178-b5e0-322c47da6013","system_id":"levelo_inurba_marseille","lat":43.28905,"lon":5.36143,"is_reserved":false,"is_disabled":false,"rental_uris":{"android":"levelo://app?vid=a735d687-c1f2-4178-b5e0-322c47da6013","ios":"levelo://app?vid=a735d687-c1f2-4178-b5e0-322c47da6013"},"vehicle_type_id":"4","last_reported":1762441893,"current_range_meters":18000,"station_id":"","pricing_plan_id":"cebpf4jnsgd1na2vs0mg"},{"bike_id":"8e48148f-cf0f-41b4-bc43-bc33ede1c51e","system_id":"levelo_inurba_marseille","lat":43.28404,"lon":5.37511,"is_reserved":false,"is_disabled":false,"rental_uris":{"android":"levelo://app?vid=8e48148f-cf0f-41b4-bc43-bc33ede1c51e","ios":"levelo://app?vid=8e48148f-cf0f-41b4-bc43-bc33ede1c51e"},"vehicle_type_id":"4","last_reported":1762441893,"current_range_meters":18000,"station_id":"ce4bh412rcd13ifvqds0","pricing_plan_id":"cebpf4jnsgd1na2vs0mg"},{"bike_id":"b74854bb-0331-417a-801d-fddc45f18697","system_id":"levelo_inurba_marseille","lat":43.337444,"lon":5.374475,"is_reserved":false,"is_disabled":false,"rental_uris":{"android":"levelo://app?vid=b74854bb-0331-417a-801d-fddc45f18697","ios":"levelo://app?vid=b74854bb-0331-417a-801d-fddc45f18697"},"vehicle_type_id":"4","last_reported":1762441893,"current_range_meters":18000,"station_id":"ce4bhi12rcd13ifvqfp0","pricing_plan_id":"cebpf4jnsgd1na2vs0mg"},{"bike_id":"980e715d-14c5-4364-a68c-1f9ba6d153df","system_id":"levelo_inurba_marseille","lat":43.29937,"lon":5.36538,"is_reserved":false,"is_disabled":false,"rental_uris":{"android":"levelo://app?vid=980e715d-14c5-4364-a68c-1f9ba6d153df","ios":"levelo://app?vid=980e715d-14c5-4364-a68c-1f9ba6d153df"},"vehicle_type_id":"4","last_reported":1762441893,"current_range_meters":18800,"station_id":"ce4bgm92rcd13ifvqbr0","pricing_plan_id":"cebpf4jnsgd1na2vs0mg"},{"bike_id":"2e4c9504-c84f-4445-aecf-275f442d1d7f","system_id":"levelo_inurba_marseille","lat":43.29863,"lon":5.38928,"is_reserved":false,"is_disabled":false,"rental_uris":{"android":"levelo://app?vid=2e4c9504-c84f-4445-aecf-275f442d1d7f","ios":"levelo://app?vid=2e4c9504-c84f-4445-aecf-275f442d1d7f"},"vehicle_type_id":"4","last_reported":1762441893,"current_range_meters":18800,"station_id":"ce4bh392rcd13ifvqdl0","pricing_plan_id":"cebpf4jnsgd1na2vs0mg"},{"bike_id":"809f7a44-c5b2-41d0-b5fd-761522a121c5","system_id":"levelo_inurba_marseille","lat":43.25551,"lon":5.38282,"is_reserved":false,"is_disabled":false,"rental_uris":{"android":"levelo://app?vid=809f7a44-c5b2-41d0-b5fd-761522a121c5","ios":"levelo://app?vid=809f7a44-c5b2-41d0-b5fd-761522a121c5"},"vehicle_type_id":"4","last_reported":1762441893,"current_range_meters":18800,"station_id":"","pricing_plan_id":"cebpf4jnsgd1na2vs0mg"},{"bike_id":"a88522c2-7f31-460d-8b59-1c10109fed19","system_id":"levelo_inurba_marseille","lat":43.31441,"lon":5.37602,"is_reserved":false,"is_disabled":false,"rental_uris":{"android":"levelo://app?vid=a88522c2-7f31-460d-8b59-1c10109fed19","ios":"levelo://app?vid=a88522c2-7f31-460d-8b59-1c10109fed19"},"vehicle_type_id":"4","last_reported":1762441893,"current_range_meters":18800,"station_id":"","pricing_plan_id":"cebpf4jnsgd1na2vs0mg"},{"bike_id":"0767b797-8806-47e8-9164-d5c7e2e97d33","system_id":"levelo_inurba_marseille","lat":43.30124,"lon":5.37443,"is_reserved":false,"is_disabled":false,"rental_uris":{"android":"levelo://app?vid=0767b797-8806-47e8-9164-d5c7e2e97d33","ios":"levelo://app?vid=0767b797-8806-47e8-9164-d5c7e2e97d33"},"vehicle_type_id":"4","last_reported":1762441893,"current_range_meters":18800,"station_id":"ce4bgs92rcd13ifvqcc0","pricing_plan_id":"cebpf4jnsgd1na2vs0mg"},{"bike_id":"a0780bc9-5bab-46f2-8d08-98e1e3141e80","system_id":"levelo_inurba_marseille","lat":43.30947,"lon":5.36826,"is_reserved":false,"is_disabled":false,"rental_uris":{"android":"levelo://app?vid=a0780bc9-5bab-46f2-8d08-98e1e3141e80","ios":"levelo://app?vid=a0780bc9-5bab-46f2-8d08-98e1e3141e80"},"vehicle_type_id":"4","last_reported":1762441893,"current_range_meters":18800,"station_id":"ce4bgn92rcd13ifvqbvg","pricing_plan_id":"cebpf4jnsgd1na2vs0mg"},{"bike_id":"d9217edb-2a77-46d2-8c74-1939f00ab8dd","system_id":"levelo_inurba_marseille","lat":43.25093,"lon":5.39518,"is_reserved":false,"is_disabled":false,"rental_uris":{"android":"levelo://app?vid=d9217edb-2a77-46d2-8c74-1939f00ab8dd","ios":"levelo://app?vid=d9217edb-2a77-46d2-8c74-1939f00ab8dd"},"vehicle_type_id":"4","last_reported":1762441893,"current_range_meters":18800,"station_id":"ce4bhm12rcd13ifvqgkg","pricing_plan_id":"cebpf4jnsgd1na2vs0mg"},{"bike_id":"2214147d-b2bc-47a5-8262-b29a2f3cbd90","system_id":"levelo_inurba_marseille","lat":43.28871,"lon":5.42508,"is_reserved":false,"is_disabled":false,"rental_uris":{"android":"levelo://app?vid=2214147d-b2bc-47a5-8262-b29a2f3cbd90","ios":"levelo://app?vid=2214147d-b2bc-47a5-8262-b29a2f3cbd90"},"vehicle_type_id":"4","last_reported":1762441893,"current_range_meters":18800,"station_id":"st_d3b462108ojc7389ooeg","pricing_plan_id":"cebpf4jnsgd1na2vs0mg"},{"bike_id":"a0268f72-51b3-47c5-a008-fa38e7b7cd0d","system_id":"levelo_inurba_marseille","lat":43.309609,"lon":5.390333,"is_reserved":false,"is_disabled":false,"rental_uris":{"android":"levelo://app?vid=a0268f72-51b3-47c5-a008-fa38e7b7cd0d","ios":"levelo://app?vid=a0268f72-51b3-47c5-a008-fa38e7b7cd0d"},"vehicle_type_id":"4","last_reported":1762441893,"current_range_meters":19200,"station_id":"ce4bh3p2rcd13ifvqdp0","pricing_plan_id":"cebpf4jnsgd1na2vs0mg"},{"bike_id":"ed82b8d2-8cbc-4da1-a5c7-4c451af47c41","system_id":"levelo_inurba_marseille","lat":43.29874,"lon":5.39722,"is_reserved":false,"is_disabled":false,"rental_uris":{"android":"levelo://app?vid=ed82b8d2-8cbc-4da1-a5c7-4c451af47c41","ios":"levelo://app?vid=ed82b8d2-8cbc-4da1-a5c7-4c451af47c41"},"vehicle_type_id":"4","last_reported":1762441893,"current_range_meters":19200,"station_id":"ce4bh0h2rcd13ifvqd50","pricing_plan_id":"cebpf4jnsgd1na2vs0mg"},{"bike_id":"14bede57-e6c3-42e3-85ea-7147697689db","system_id":"levelo_inurba_marseille","lat":43.24947,"lon":5.40492,"is_reserved":false,"is_disabled":false,"rental_uris":{"android":"levelo://app?vid=14bede57-e6c3-42e3-85ea-7147697689db","ios":"levelo://app?vid=14bede57-e6c3-42e3-85ea-7147697689db"},"vehicle_type_id":"4","last_reported":1762441893,"current_range_meters":19200,"station_id":"st_d2ngiaodas8pm72gd1h0","pricing_plan_id":"cebpf4jnsgd1na2vs0mg"},{"bike_id":"51b9afea-e3f9-46da-a79d-624b2847ee35","system_id":"levelo_inurba_marseille","lat":43.29932,"lon":5.3654,"is_reserved":false,"is_disabled":false,"rental_uris":{"android":"levelo://app?vid=51b9afea-e3f9-46da-a79d-624b2847ee35","ios":"levelo://app?vid=51b9afea-e3f9-46da-a79d-624b2847ee35"},"vehicle_type_id":"4","last_reported":1762441893,"current_range_meters":19200,"station_id":"ce4bgm92rcd13ifvqbr0","pricing_plan_id":"cebpf4jnsgd1na2vs0mg"},{"bike_id":"ea019f21-7495-4b0f-818f-882165f8bd9a","system_id":"levelo_inurba_marseille","lat":43.290306,"lon":5.386498,"is_reserved":false,"is_disabled":false,"rental_uris":{"android":"levelo://app?vid=ea019f21-7495-4b0f-818f-882165f8bd9a","ios":"levelo://app?vid=ea019f21-7495-4b0f-818f-882165f8bd9a"},"vehicle_type_id":"4","last_reported":1762441893,"current_range_meters":19200,"station_id":"ce4bh4p2rcd13ifvqe0g","pricing_plan_id":"cebpf4jnsgd1na2vs0mg"},{"bike_id":"905efa3c-15af-43c3-81a4-30788e50f3ee","system_id":"levelo_inurba_marseille","lat":43.25869,"lon":5.39895,"is_reserved":false,"is_disabled":false,"rental_uris":{"android":"levelo://app?vid=905efa3c-15af-43c3-81a4-30788e50f3ee","ios":"levelo://app?vid=905efa3c-15af-43c3-81a4-30788e50f3ee"},"vehicle_type_id":"4","last_reported":1762441893,"current_range_meters":19200,"station_id":"ce4bhl92rcd13ifvqghg","pricing_plan_id":"cebpf4jnsgd1na2vs0mg"},{"bike_id":"ba00a797-bc94-42f1-aba8-9bf207fe458c","system_id":"levelo_inurba_marseille","lat":43.30525,"lon":5.36572,"is_reserved":false,"is_disabled":false,"rental_uris":{"android":"levelo://app?vid=ba00a797-bc94-42f1-aba8-9bf207fe458c","ios":"levelo://app?vid=ba00a797-bc94-42f1-aba8-9bf207fe458c"},"vehicle_type_id":"4","last_reported":1762441893,"current_range_meters":19200,"station_id":"ce4bgs12rcd13ifvqcag","pricing_plan_id":"cebpf4jnsgd1na2vs0mg"},{"bike_id":"1679969c-611f-47e9-9d02-40ff3326d6bf","system_id":"levelo_inurba_marseille","lat":43.299207,"lon":5.374723,"is_reserved":false,"is_disabled":false,"rental_uris":{"android":"levelo://app?vid=1679969c-611f-47e9-9d02-40ff3326d6bf","ios":"levelo://app?vid=1679969c-611f-47e9-9d02-40ff3326d6bf"},"vehicle_type_id":"4","last_reported":1762441893,"current_range_meters":19600,"station_id":"ce4bgjh2rcd13ifvqbg0","pricing_plan_id":"cebpf4jnsgd1na2vs0mg"},{"bike_id":"d08ee228-c2c7-475f-9a3e-386d21e2995f","system_id":"levelo_inurba_marseille","lat":43.28856,"lon":5.42515,"is_reserved":false,"is_disabled":false,"rental_uris":{"android":"levelo://app?vid=d08ee228-c2c7-475f-9a3e-386d21e2995f","ios":"levelo://app?vid=d08ee228-c2c7-475f-9a3e-386d21e2995f"},"vehicle_type_id":"4","last_reported":1762441893,"current_range_meters":19600,"station_id":"st_d3b462108ojc7389ooeg","pricing_plan_id":"cebpf4jnsgd1na2vs0mg"},{"bike_id":"702b228e-48c7-4846-ad48-f2ad00aac197","system_id":"levelo_inurba_marseille","lat":43.30313,"lon":5.369,"is_reserved":false,"is_disabled":false,"rental_uris":{"android":"levelo://app?vid=702b228e-48c7-4846-ad48-f2ad00aac197","ios":"levelo://app?vid=702b228e-48c7-4846-ad48-f2ad00aac197"},"vehicle_type_id":"4","last_reported":1762441893,"current_range_meters":19600,"station_id":"ce4bgqh2rcd13ifvqc5g","pricing_plan_id":"cebpf4jnsgd1na2vs0mg"},{"bike_id":"c9279355-9e6c-4197-a375-2d4c6c4c793f","system_id":"levelo_inurba_marseille","lat":43.27205,"lon":5.39181,"is_reserved":false,"is_disabled":false,"rental_uris":{"android":"levelo://app?vid=c9279355-9e6c-4197-a375-2d4c6c4c793f","ios":"levelo://app?vid=c9279355-9e6c-4197-a375-2d4c6c4c793f"},"vehicle_type_id":"4","last_reported":1762441893,"current_range_meters":19600,"station_id":"ce4bhhp2rcd13ifvqfm0","pricing_plan_id":"cebpf4jnsgd1na2vs0mg"},{"bike_id":"a7628e15-e703-4ea9-b322-ccb8d1addac4","system_id":"levelo_inurba_marseille","lat":43.31501,"lon":5.37297,"is_reserved":false,"is_disabled":false,"rental_uris":{"android":"levelo://app?vid=a7628e15-e703-4ea9-b322-ccb8d1addac4","ios":"levelo://app?vid=a7628e15-e703-4ea9-b322-ccb8d1addac4"},"vehicle_type_id":"4","last_reported":1762441893,"current_range_meters":19600,"station_id":"ce4bgt12rcd13ifvqcd0","pricing_plan_id":"cebpf4jnsgd1na2vs0mg"},{"bike_id":"5557556a-fa8d-4b28-8cca-1df677730186","system_id":"levelo_inurba_marseille","lat":43.25089,"lon":5.40462,"is_reserved":false,"is_disabled":false,"rental_uris":{"android":"levelo://app?vid=5557556a-fa8d-4b28-8cca-1df677730186","ios":"levelo://app?vid=5557556a-fa8d-4b28-8cca-1df677730186"},"vehicle_type_id":"4","last_reported":1762441893,"current_range_meters":19600,"station_id":"","pricing_plan_id":"cebpf4jnsgd1na2vs0mg"},{"bike_id":"8cc8578a-995f-4bad-8334-5762b6cb4eaa","system_id":"levelo_inurba_marseille","lat":43.29255,"lon":5.38449,"is_reserved":false,"is_disabled":false,"rental_uris":{"android":"levelo://app?vid=8cc8578a-995f-4bad-8334-5762b6cb4eaa","ios":"levelo://app?vid=8cc8578a-995f-4bad-8334-5762b6cb4eaa"},"vehicle_type_id":"4","last_reported":1762441893,"current_range_meters":19600,"station_id":"ce4bh692rcd13ifvqea0","pricing_plan_id":"cebpf4jnsgd1na2vs0mg"},{"bike_id":"9bec4afe-155d-48d1-a4e6-904550ab93e2","system_id":"levelo_inurba_marseille","lat":43.29563,"lon":5.37523,"is_reserved":false,"is_disabled":false,"rental_uris":{"android":"levelo://app?vid=9bec4afe-155d-48d1-a4e6-904550ab93e2","ios":"levelo://app?vid=9bec4afe-155d-48d1-a4e6-904550ab93e2"},"vehicle_type_id":"4","last_reported":1762441893,"current_range_meters":19600,"station_id":"ce4bgh92rcd13ifvqb50","pricing_plan_id":"cebpf4jnsgd1na2vs0mg"},{"bike_id":"3a6b939b-8483-4a00-8652-d825cdd856d7","system_id":"levelo_inurba_marseille","lat":43.22554,"lon":5.41625,"is_reserved":false,"is_disabled":false,"rental_uris":{"android":"levelo://app?vid=3a6b939b-8483-4a00-8652-d825cdd856d7","ios":"levelo://app?vid=3a6b939b-8483-4a00-8652-d825cdd856d7"},"vehicle_type_id":"4","last_reported":1762441893,"current_range_meters":19600,"station_id":"st_d2o4gvlbi1j2169b742g","pricing_plan_id":"cebpf4jnsgd1na2vs0mg"},{"bike_id":"7ad48db3-3342-4b61-90c5-5878608ee270","system_id":"levelo_inurba_marseille","lat":43.27061,"lon":5.40264,"is_reserved":false,"is_disabled":false,"rental_uris":{"android":"levelo://app?vid=7ad48db3-3342-4b61-90c5-5878608ee270","ios":"levelo://app?vid=7ad48db3-3342-4b61-90c5-5878608ee270"},"vehicle_type_id":"4","last_reported":1762441893,"current_range_meters":19600,"station_id":"ce4bhk92rcd13ifvqgc0","pricing_plan_id":"cebpf4jnsgd1na2vs0mg"},{"bike_id":"9599e800-c0f3-4d1c-ae6f-0370f8960f5c","system_id":"levelo_inurba_marseille","lat":43.32091,"lon":5.36831,"is_reserved":false,"is_disabled":false,"rental_uris":{"android":"levelo://app?vid=9599e800-c0f3-4d1c-ae6f-0370f8960f5c","ios":"levelo://app?vid=9599e800-c0f3-4d1c-ae6f-0370f8960f5c"},"vehicle_type_id":"4","last_reported":1762441893,"current_range_meters":19600,"station_id":"ce4bhrh2rcd13ifvqhug","pricing_plan_id":"cebpf4jnsgd1na2vs0mg"},{"bike_id":"c278268f-fbfc-47d2-88c4-1cf41927faa2","system_id":"levelo_inurba_marseille","lat":43.3073,"lon":5.42445,"is_reserved":false,"is_disabled":false,"rental_uris":{"android":"levelo://app?vid=c278268f-fbfc-47d2-88c4-1cf41927faa2","ios":"levelo://app?vid=c278268f-fbfc-47d2-88c4-1cf41927faa2"},"vehicle_type_id":"4","last_reported":1762441893,"current_range_meters":19600,"station_id":"st_cvj6ca6bvosntc0bfgr0","pricing_plan_id":"cebpf4jnsgd1na2vs0mg"},{"bike_id":"401209f9-1098-407a-9275-182f209531f6","system_id":"levelo_inurba_marseille","lat":43.29551,"lon":5.42294,"is_reserved":false,"is_disabled":false,"rental_uris":{"android":"levelo://app?vid=401209f9-1098-407a-9275-182f209531f6","ios":"levelo://app?vid=401209f9-1098-407a-9275-182f209531f6"},"vehicle_type_id":"4","last_reported":1762441893,"current_range_meters":19600,"station_id":"ce4bhph2rcd13ifvqhdg","pricing_plan_id":"cebpf4jnsgd1na2vs0mg"},{"bike_id":"310115a0-7bf2-4a4a-9d53-56bf6918e4d0","system_id":"levelo_inurba_marseille","lat":43.28495,"lon":5.48395,"is_reserved":false,"is_disabled":false,"rental_uris":{"android":"levelo://app?vid=310115a0-7bf2-4a4a-9d53-56bf6918e4d0","ios":"levelo://app?vid=310115a0-7bf2-4a4a-9d53-56bf6918e4d0"},"vehicle_type_id":"4","last_reported":1762441893,"current_range_meters":20000,"station_id":"st_d3svhcjqgbts73a3dn0g","pricing_plan_id":"cebpf4jnsgd1na2vs0mg"},{"bike_id":"9350f380-0894-488f-93ed-c8c017fa2838","system_id":"levelo_inurba_marseille","lat":43.27489,"lon":5.42462,"is_reserved":false,"is_disabled":false,"rental_uris":{"android":"levelo://app?vid=9350f380-0894-488f-93ed-c8c017fa2838","ios":"levelo://app?vid=9350f380-0894-488f-93ed-c8c017fa2838"},"vehicle_type_id":"4","last_reported":1762441893,"current_range_meters":20000,"station_id":"ce4bhn92rcd13ifvqgrg","pricing_plan_id":"cebpf4jnsgd1na2vs0mg"},{"bike_id":"adc728c4-7d88-468c-be89-220c19218372","system_id":"levelo_inurba_marseille","lat":43.32161,"lon":5.37848,"is_reserved":false,"is_disabled":false,"rental_uris":{"android":"levelo://app?vid=adc728c4-7d88-468c-be89-220c19218372","ios":"levelo://app?vid=adc728c4-7d88-468c-be89-220c19218372"},"vehicle_type_id":"4","last_reported":1762441893,"current_range_meters":20000,"station_id":"","pricing_plan_id":"cebpf4jnsgd1na2vs0mg"},{"bike_id":"55f1dab9-4e73-4d5a-a5af-9097e35c1bc1","system_id":"levelo_inurba_marseille","lat":43.24953,"lon":5.40513,"is_reserved":false,"is_disabled":false,"rental_uris":{"android":"levelo://app?vid=55f1dab9-4e73-4d5a-a5af-9097e35c1bc1","ios":"levelo://app?vid=55f1dab9-4e73-4d5a-a5af-9097e35c1bc1"},"vehicle_type_id":"4","last_reported":1762441893,"current_range_meters":20000,"station_id":"st_d2ngiaodas8pm72gd1h0","pricing_plan_id":"cebpf4jnsgd1na2vs0mg"},{"bike_id":"2d7344b1-0030-4280-b0f6-0a3871e86dd4","system_id":"levelo_inurba_marseille","lat":43.28851,"lon":5.39323,"is_reserved":false,"is_disabled":true,"rental_uris":{"android":"levelo://app?vid=2d7344b1-0030-4280-b0f6-0a3871e86dd4","ios":"levelo://app?vid=2d7344b1-0030-4280-b0f6-0a3871e86dd4"},"vehicle_type_id":"4","last_reported":1762441893,"current_range_meters":20000,"station_id":"ce4bh2p2rcd13ifvqdi0","pricing_plan_id":"cebpf4jnsgd1na2vs0mg"},{"bike_id":"14a9a516-5d6c-4018-94fe-ffcfc99a0213","system_id":"levelo_inurba_marseille","lat":43.30145,"lon":5.37419,"is_reserved":false,"is_disabled":false,"rental_uris":{"android":"levelo://app?vid=14a9a516-5d6c-4018-94fe-ffcfc99a0213","ios":"levelo://app?vid=14a9a516-5d6c-4018-94fe-ffcfc99a0213"},"vehicle_type_id":"4","last_reported":1762441893,"current_range_meters":20000,"station_id":"ce4bgs92rcd13ifvqcc0","pricing_plan_id":"cebpf4jnsgd1na2vs0mg"},{"bike_id":"79606fcb-c57e-4cfd-a218-339376c90dd9","system_id":"levelo_inurba_marseille","lat":43.33793,"lon":5.37437,"is_reserved":false,"is_disabled":false,"rental_uris":{"android":"levelo://app?vid=79606fcb-c57e-4cfd-a218-339376c90dd9","ios":"levelo://app?vid=79606fcb-c57e-4cfd-a218-339376c90dd9"},"vehicle_type_id":"4","last_reported":1762441893,"current_range_meters":20000,"station_id":"","pricing_plan_id":"cebpf4jnsgd1na2vs0mg"},{"bike_id":"3ab21f04-3c40-4908-afbe-83e7ca374ea7","system_id":"levelo_inurba_marseille","lat":43.28615,"lon":5.35105,"is_reserved":false,"is_disabled":false,"rental_uris":{"android":"levelo://app?vid=3ab21f04-3c40-4908-afbe-83e7ca374ea7","ios":"levelo://app?vid=3ab21f04-3c40-4908-afbe-83e7ca374ea7"},"vehicle_type_id":"4","last_reported":1762441893,"current_range_meters":20400,"station_id":"ce4bhch2rcd13ifvqeug","pricing_plan_id":"cebpf4jnsgd1na2vs0mg"},{"bike_id":"4b18c56b-4410-45b0-bd39-2e4be739c205","system_id":"levelo_inurba_marseille","lat":43.3248,"lon":5.36559,"is_reserved":false,"is_disabled":false,"rental_uris":{"android":"levelo://app?vid=4b18c56b-4410-45b0-bd39-2e4be739c205","ios":"levelo://app?vid=4b18c56b-4410-45b0-bd39-2e4be739c205"},"vehicle_type_id":"4","last_reported":1762441893,"current_range_meters":20400,"station_id":"ce4bhs12rcd13ifvqhvg","pricing_plan_id":"cebpf4jnsgd1na2vs0mg"},{"bike_id":"ed1fcf0b-dbc9-445e-8508-a65c5717fa35","system_id":"levelo_inurba_marseille","lat":43.30165,"lon":5.36679,"is_reserved":false,"is_disabled":false,"rental_uris":{"android":"levelo://app?vid=ed1fcf0b-dbc9-445e-8508-a65c5717fa35","ios":"levelo://app?vid=ed1fcf0b-dbc9-445e-8508-a65c5717fa35"},"vehicle_type_id":"4","last_reported":1762441893,"current_range_meters":20400,"station_id":"","pricing_plan_id":"cebpf4jnsgd1na2vs0mg"},{"bike_id":"039044ab-ea2d-48e7-b957-f84dbaee464f","system_id":"levelo_inurba_marseille","lat":43.30886,"lon":5.39636,"is_reserved":false,"is_disabled":false,"rental_uris":{"android":"levelo://app?vid=039044ab-ea2d-48e7-b957-f84dbaee464f","ios":"levelo://app?vid=039044ab-ea2d-48e7-b957-f84dbaee464f"},"vehicle_type_id":"4","last_reported":1762441893,"current_range_meters":20400,"station_id":"ce4bh012rcd13ifvqcv0","pricing_plan_id":"cebpf4jnsgd1na2vs0mg"},{"bike_id":"de13d42a-6a5a-4ebb-a1cf-c57031a1d135","system_id":"levelo_inurba_marseille","lat":43.30146,"lon":5.38092,"is_reserved":false,"is_disabled":false,"rental_uris":{"android":"levelo://app?vid=de13d42a-6a5a-4ebb-a1cf-c57031a1d135","ios":"levelo://app?vid=de13d42a-6a5a-4ebb-a1cf-c57031a1d135"},"vehicle_type_id":"4","last_reported":1762441893,"current_range_meters":20400,"station_id":"ce4bgjp2rcd13ifvqbh0","pricing_plan_id":"cebpf4jnsgd1na2vs0mg"},{"bike_id":"0a693bd9-ea79-409d-9256-4f1db0292c0c","system_id":"levelo_inurba_marseille","lat":43.297071,"lon":5.362925,"is_reserved":false,"is_disabled":false,"rental_uris":{"android":"levelo://app?vid=0a693bd9-ea79-409d-9256-4f1db0292c0c","ios":"levelo://app?vid=0a693bd9-ea79-409d-9256-4f1db0292c0c"},"vehicle_type_id":"4","last_reported":1762441893,"current_range_meters":20400,"station_id":"","pricing_plan_id":"cebpf4jnsgd1na2vs0mg"},{"bike_id":"558e8fdc-0aa2-4f99-bb51-73012d1254cf","system_id":"levelo_inurba_marseille","lat":43.27196,"lon":5.39206,"is_reserved":false,"is_disabled":false,"rental_uris":{"android":"levelo://app?vid=558e8fdc-0aa2-4f99-bb51-73012d1254cf","ios":"levelo://app?vid=558e8fdc-0aa2-4f99-bb51-73012d1254cf"},"vehicle_type_id":"4","last_reported":1762441893,"current_range_meters":20400,"station_id":"ce4bhhp2rcd13ifvqfm0","pricing_plan_id":"cebpf4jnsgd1na2vs0mg"},{"bike_id":"5c763650-49a8-487b-a98d-70668068aaa4","system_id":"levelo_inurba_marseille","lat":43.30646,"lon":5.40105,"is_reserved":false,"is_disabled":false,"rental_uris":{"android":"levelo://app?vid=5c763650-49a8-487b-a98d-70668068aaa4","ios":"levelo://app?vid=5c763650-49a8-487b-a98d-70668068aaa4"},"vehicle_type_id":"4","last_reported":1762441893,"current_range_meters":20400,"station_id":"ce4bh112rcd13ifvqda0","pricing_plan_id":"cebpf4jnsgd1na2vs0mg"},{"bike_id":"f3aebef0-0371-493e-8518-289aa5366e9d","system_id":"levelo_inurba_marseille","lat":43.315177,"lon":5.380222,"is_reserved":false,"is_disabled":false,"rental_uris":{"android":"levelo://app?vid=f3aebef0-0371-493e-8518-289aa5366e9d","ios":"levelo://app?vid=f3aebef0-0371-493e-8518-289aa5366e9d"},"vehicle_type_id":"4","last_reported":1762441893,"current_range_meters":20400,"station_id":"ce4bhsp2rcd13ifvqi50","pricing_plan_id":"cebpf4jnsgd1na2vs0mg"},{"bike_id":"439c53c6-f824-45cf-979a-29d4a8e7f60e","system_id":"levelo_inurba_marseille","lat":43.30949,"lon":5.39047,"is_reserved":false,"is_disabled":false,"rental_uris":{"android":"levelo://app?vid=439c53c6-f824-45cf-979a-29d4a8e7f60e","ios":"levelo://app?vid=439c53c6-f824-45cf-979a-29d4a8e7f60e"},"vehicle_type_id":"4","last_reported":1762441893,"current_range_meters":20800,"station_id":"ce4bgup2rcd13ifvqco0","pricing_plan_id":"cebpf4jnsgd1na2vs0mg"},{"bike_id":"a24ecaa7-dc5d-4c8e-a910-6021da3d40da","system_id":"levelo_inurba_marseille","lat":43.22564,"lon":5.41618,"is_reserved":false,"is_disabled":false,"rental_uris":{"android":"levelo://app?vid=a24ecaa7-dc5d-4c8e-a910-6021da3d40da","ios":"levelo://app?vid=a24ecaa7-dc5d-4c8e-a910-6021da3d40da"},"vehicle_type_id":"4","last_reported":1762441893,"current_range_meters":20800,"station_id":"st_d2o4gvlbi1j2169b742g","pricing_plan_id":"cebpf4jnsgd1na2vs0mg"},{"bike_id":"084128ea-8f40-4d48-bf07-74511521ee99","system_id":"levelo_inurba_marseille","lat":43.26674,"lon":5.38273,"is_reserved":false,"is_disabled":false,"rental_uris":{"android":"levelo://app?vid=084128ea-8f40-4d48-bf07-74511521ee99","ios":"levelo://app?vid=084128ea-8f40-4d48-bf07-74511521ee99"},"vehicle_type_id":"4","last_reported":1762441893,"current_range_meters":20800,"station_id":"ce4bhg92rcd13ifvqf90","pricing_plan_id":"cebpf4jnsgd1na2vs0mg"},{"bike_id":"22918fb7-a391-4f35-8c21-8eb60e2ab03f","system_id":"levelo_inurba_marseille","lat":43.22557,"lon":5.41633,"is_reserved":false,"is_disabled":false,"rental_uris":{"android":"levelo://app?vid=22918fb7-a391-4f35-8c21-8eb60e2ab03f","ios":"levelo://app?vid=22918fb7-a391-4f35-8c21-8eb60e2ab03f"},"vehicle_type_id":"4","last_reported":1762441893,"current_range_meters":20800,"station_id":"st_d2o4gvlbi1j2169b742g","pricing_plan_id":"cebpf4jnsgd1na2vs0mg"},{"bike_id":"d975e5c1-3a94-457d-8066-9bb046a73e78","system_id":"levelo_inurba_marseille","lat":43.23187,"lon":5.39998,"is_reserved":false,"is_disabled":false,"rental_uris":{"android":"levelo://app?vid=d975e5c1-3a94-457d-8066-9bb046a73e78","ios":"levelo://app?vid=d975e5c1-3a94-457d-8066-9bb046a73e78"},"vehicle_type_id":"4","last_reported":1762441893,"current_range_meters":20800,"station_id":"ce4bhn12rcd13ifvqgqg","pricing_plan_id":"cebpf4jnsgd1na2vs0mg"},{"bike_id":"0ad217fa-38c0-4fff-94ee-5247c6a55140","system_id":"levelo_inurba_marseille","lat":43.24734,"lon":5.37517,"is_reserved":false,"is_disabled":false,"rental_uris":{"android":"levelo://app?vid=0ad217fa-38c0-4fff-94ee-5247c6a55140","ios":"levelo://app?vid=0ad217fa-38c0-4fff-94ee-5247c6a55140"},"vehicle_type_id":"4","last_reported":1762441893,"current_range_meters":20800,"station_id":"ce4bhgh2rcd13ifvqfb0","pricing_plan_id":"cebpf4jnsgd1na2vs0mg"},{"bike_id":"f0bc3f78-8247-434d-b9ec-89fca1027ea4","system_id":"levelo_inurba_marseille","lat":43.27909,"lon":5.395779,"is_reserved":false,"is_disabled":false,"rental_uris":{"android":"levelo://app?vid=f0bc3f78-8247-434d-b9ec-89fca1027ea4","ios":"levelo://app?vid=f0bc3f78-8247-434d-b9ec-89fca1027ea4"},"vehicle_type_id":"4","last_reported":1762441893,"current_range_meters":20800,"station_id":"","pricing_plan_id":"cebpf4jnsgd1na2vs0mg"},{"bike_id":"5b03e0a7-e5b7-4bb1-a15f-78dcdc45fd57","system_id":"levelo_inurba_marseille","lat":43.23141,"lon":5.43726,"is_reserved":false,"is_disabled":false,"rental_uris":{"android":"levelo://app?vid=5b03e0a7-e5b7-4bb1-a15f-78dcdc45fd57","ios":"levelo://app?vid=5b03e0a7-e5b7-4bb1-a15f-78dcdc45fd57"},"vehicle_type_id":"4","last_reported":1762441893,"current_range_meters":20800,"station_id":"ce4bhmp2rcd13ifvqgog","pricing_plan_id":"cebpf4jnsgd1na2vs0mg"},{"bike_id":"060e8c5a-a85c-493a-86b6-2bbf4aee67da","system_id":"levelo_inurba_marseille","lat":43.27184,"lon":5.39212,"is_reserved":false,"is_disabled":false,"rental_uris":{"android":"levelo://app?vid=060e8c5a-a85c-493a-86b6-2bbf4aee67da","ios":"levelo://app?vid=060e8c5a-a85c-493a-86b6-2bbf4aee67da"},"vehicle_type_id":"4","last_reported":1762441893,"current_range_meters":20800,"station_id":"ce4bhhp2rcd13ifvqfm0","pricing_plan_id":"cebpf4jnsgd1na2vs0mg"},{"bike_id":"45836931-800f-42ce-9822-005d3b5c5b1d","system_id":"levelo_inurba_marseille","lat":43.25805,"lon":5.40834,"is_reserved":false,"is_disabled":false,"rental_uris":{"android":"levelo://app?vid=45836931-800f-42ce-9822-005d3b5c5b1d","ios":"levelo://app?vid=45836931-800f-42ce-9822-005d3b5c5b1d"},