{"last_updated":1736511439,"ttl":60,"version":"2.2","data":{"bikes":[{"bike_id":"0f76e212-d4d6-4f0a-af8c-988bfb1f7f0e","system_id":"levelo_inurba_marseille","lat":43.29203,"lon":5.39324,"is_reserved":false,"is_disabled":false,"rental_uris":{"android":"levelo://app?vid=0f76e212-d4d6-4f0a-af8c-988bfb1f7f0e","ios":"levelo://app?vid=0f76e212-d4d6-4f0a-af8c-988bfb1f7f0e"},"vehicle_type_id":"4","last_reported":1736511439,"current_range_meters":38800,"station_id":"ce4bh192rcd13ifvqdd0","pricing_plan_id":"cebpf4jnsgd1na2vs0mg"},{"bike_id":"2458715d-6f84-486a-b430-82f242df2c8b","system_id":"levelo_inurba_marseille","lat":43.28351,"lon":5.38103,"is_reserved":false,"is_disabled":false,"rental_uris":{"android":"levelo://app?vid=2458715d-6f84-486a-b430-82f242df2c8b","ios":"levelo://app?vid=2458715d-6f84-486a-b430-82f242df2c8b"},"vehicle_type_id":"4","last_reported":1736511439,"current_range_meters":16000,"station_id":"ce4bh412rcd13ifvqdr0","pricing_plan_id":"cebpf4jnsgd1na2vs0mg"},{"bike_id":"9ff24b9e-60a3-48d4-8cde-0ae6dfde2dc8","system_id":"levelo_inurba_marseille","lat":43.33028,"lon":5.39037,"is_reserved":false,"is_disabled":false,"rental_uris":{"android":"levelo://app?vid=9ff24b9e-60a3-48d4-8cde-0ae6dfde2dc8","ios":"levelo://app?vid=9ff24b9e-60a3-48d4-8cde-0ae6dfde2dc8"},"vehicle_type_id":"4","last_reported":1736511439,"current_range_meters":33600,"station_id":"ce4bhr92rcd13ifvqhrg","pricing_plan_id":"cebpf4jnsgd1na2vs0mg"},{"bike_id":"bbabd9f4-0056-40a8-881b-b14292dbcb52","system_id":"levelo_inurba_marseille","lat":43.29287,"lon":5.40912,"is_reserved":false,"is_disabled":false,"rental_uris":{"android":"levelo://app?vid=bbabd9f4-0056-40a8-881b-b14292dbcb52","ios":"levelo://app?vid=bbabd9f4-0056-40a8-881b-b14292dbcb52"},"vehicle_type_id":"4","last_reported":1736511439,"current_range_meters":39200,"station_id":"ce4bh192rcd13ifvqdc0","pricing_plan_id":"cebpf4jnsgd1na2vs0mg"},{"bike_id":"6369c140-3323-465a-a3e4-b9f4b2637437","system_id":"levelo_inurba_marseille","lat":43.259246,"lon":5.4091,"is_reserved":false,"is_disabled":false,"rental_uris":{"android":"levelo://app?vid=6369c140-3323-465a-a3e4-b9f4b2637437","ios":"levelo://app?vid=6369c140-3323-465a-a3e4-b9f4b2637437"},"vehicle_type_id":"4","last_reported":1736511439,"current_range_meters":30400,"station_id":"ce4bhm92rcd13ifvqglg","pricing_plan_id":"cebpf4jnsgd1na2vs0mg"},{"bike_id":"2d6c236c-6962-4db0-8c1c-2f479db973ca","system_id":"levelo_inurba_marseille","lat":43.2583,"lon":5.39434,"is_reserved":false,"is_disabled":false,"rental_uris":{"android":"levelo://app?vid=2d6c236c-6962-4db0-8c1c-2f479db973ca","ios":"levelo://app?vid=2d6c236c-6962-4db0-8c1c-2f479db973ca"},"vehicle_type_id":"4","last_reported":1736511439,"current_range_meters":36800,"station_id":"ce4bhip2rcd13ifvqft0","pricing_plan_id":"cebpf4jnsgd1na2vs0mg"},{"bike_id":"47532ca9-10bb-4fb6-9e01-8331536a997f","system_id":"levelo_inurba_marseille","lat":43.30536,"lon":5.36542,"is_reserved":false,"is_disabled":false,"rental_uris":{"android":"levelo://app?vid=47532ca9-10bb-4fb6-9e01-8331536a997f","ios":"levelo://app?vid=47532ca9-10bb-4fb6-9e01-8331536a997f"},"vehicle_type_id":"4","last_reported":1736511439,"current_range_meters":38800,"station_id":"ce4bgs12rcd13ifvqcag","pricing_plan_id":"cebpf4jnsgd1na2vs0mg"},{"bike_id":"11dba74e-f950-48f0-8b73-b2767dbec7b1","system_id":"levelo_inurba_marseille","lat":43.3111,"lon":5.37772,"is_reserved":false,"is_disabled":false,"rental_uris":{"android":"levelo://app?vid=11dba74e-f950-48f0-8b73-b2767dbec7b1","ios":"levelo://app?vid=11dba74e-f950-48f0-8b73-b2767dbec7b1"},"vehicle_type_id":"4","last_reported":1736511439,"current_range_meters":32400,"station_id":"ce4bgt92rcd13ifvqcg0","pricing_plan_id":"cebpf4jnsgd1na2vs0mg"},{"bike_id":"5f54f5aa-f30f-4b3f-860d-3aafa44ee543","system_id":"levelo_inurba_marseille","lat":43.24076,"lon":5.37771,"is_reserved":false,"is_disabled":false,"rental_uris":{"android":"levelo://app?vid=5f54f5aa-f30f-4b3f-860d-3aafa44ee543","ios":"levelo://app?vid=5f54f5aa-f30f-4b3f-860d-3aafa44ee543"},"vehicle_type_id":"4","last_reported":1736511439,"current_range_meters":38800,"station_id":"ce4bhnp2rcd13ifvqgvg","pricing_plan_id":"cebpf4jnsgd1na2vs0mg"},{"bike_id":"3db0d231-5ae3-43f1-bf83-bda0d7bf8dc0","system_id":"levelo_inurba_marseille","lat":43.297853,"lon":5.370939,"is_reserved":false,"is_disabled":false,"rental_uris":{"android":"levelo://app?vid=3db0d231-5ae3-43f1-bf83-bda0d7bf8dc0","ios":"levelo://app?vid=3db0d231-5ae3-43f1-bf83-bda0d7bf8dc0"},"vehicle_type_id":"4","last_reported":1736511439,"current_range_meters":32400,"station_id":"ce4bgop2rcd13ifvqc1g","pricing_plan_id":"cebpf4jnsgd1na2vs0mg"},{"bike_id":"6997943a-025f-4730-9c4b-a22ad05a6557","system_id":"levelo_inurba_marseille","lat":43.2827,"lon":5.35073,"is_reserved":false,"is_disabled":false,"rental_uris":{"android":"levelo://app?vid=6997943a-025f-4730-9c4b-a22ad05a6557","ios":"levelo://app?vid=6997943a-025f-4730-9c4b-a22ad05a6557"},"vehicle_type_id":"4","last_reported":1736511439,"current_range_meters":38800,"station_id":"ce4bhbp2rcd13ifvqerg","pricing_plan_id":"cebpf4jnsgd1na2vs0mg"},{"bike_id":"ece82557-6569-4215-9027-5b44a37fe52e","system_id":"levelo_inurba_marseille","lat":43.29099,"lon":5.37982,"is_reserved":false,"is_disabled":true,"rental_uris":{"android":"levelo://app?vid=ece82557-6569-4215-9027-5b44a37fe52e","ios":"levelo://app?vid=ece82557-6569-4215-9027-5b44a37fe52e"},"vehicle_type_id":"4","last_reported":1736511439,"current_range_meters":0,"station_id":"","pricing_plan_id":"cebpf4jnsgd1na2vs0mg"},{"bike_id":"2dd6555b-6bc4-416c-a7b5-ce2f2351f8f6","system_id":"levelo_inurba_marseille","lat":43.29721,"lon":5.3771,"is_reserved":false,"is_disabled":false,"rental_uris":{"android":"levelo://app?vid=2dd6555b-6bc4-416c-a7b5-ce2f2351f8f6","ios":"levelo://app?vid=2dd6555b-6bc4-416c-a7b5-ce2f2351f8f6"},"vehicle_type_id":"4","last_reported":1736511439,"current_range_meters":38800,"station_id":"ce4bgkh2rcd13ifvqbl0","pricing_plan_id":"cebpf4jnsgd1na2vs0mg"},{"bike_id":"f01ea6f0-bc8d-4a05-9b13-c07e39713332","system_id":"levelo_inurba_marseille","lat":43.27623,"lon":5.36108,"is_reserved":false,"is_disabled":false,"rental_uris":{"android":"levelo://app?vid=f01ea6f0-bc8d-4a05-9b13-c07e39713332","ios":"levelo://app?vid=f01ea6f0-bc8d-4a05-9b13-c07e39713332"},"vehicle_type_id":"4","last_reported":1736511439,"current_range_meters":27600,"station_id":"ce4bgj92rcd13ifvqbe0","pricing_plan_id":"cebpf4jnsgd1na2vs0mg"},{"bike_id":"0771b7ed-c880-4b9e-8489-9820c522d97f","system_id":"levelo_inurba_marseille","lat":43.30148,"lon":5.380955,"is_reserved":false,"is_disabled":false,"rental_uris":{"android":"levelo://app?vid=0771b7ed-c880-4b9e-8489-9820c522d97f","ios":"levelo://app?vid=0771b7ed-c880-4b9e-8489-9820c522d97f"},"vehicle_type_id":"4","last_reported":1736511439,"current_range_meters":10800,"station_id":"ce4bgjp2rcd13ifvqbh0","pricing_plan_id":"cebpf4jnsgd1na2vs0mg"},{"bike_id":"04745ce5-c863-4d05-a4b1-70a293af40c0","system_id":"levelo_inurba_marseille","lat":43.29225,"lon":5.40919,"is_reserved":false,"is_disabled":false,"rental_uris":{"android":"levelo://app?vid=04745ce5-c863-4d05-a4b1-70a293af40c0","ios":"levelo://app?vid=04745ce5-c863-4d05-a4b1-70a293af40c0"},"vehicle_type_id":"4","last_reported":1736511439,"current_range_meters":10000,"station_id":"ce4bh192rcd13ifvqdc0","pricing_plan_id":"cebpf4jnsgd1na2vs0mg"},{"bike_id":"004c2ac5-7f25-4e48-8a80-9a02537f6ba6","system_id":"levelo_inurba_marseille","lat":43.32097,"lon":5.36802,"is_reserved":false,"is_disabled":false,"rental_uris":{"android":"levelo://app?vid=004c2ac5-7f25-4e48-8a80-9a02537f6ba6","ios":"levelo://app?vid=004c2ac5-7f25-4e48-8a80-9a02537f6ba6"},"vehicle_type_id":"4","last_reported":1736511439,"current_range_meters":36400,"station_id":"ce4bhrh2rcd13ifvqhug","pricing_plan_id":"cebpf4jnsgd1na2vs0mg"},{"bike_id":"cd2dec4b-8229-470a-9925-7c7d66729c62","system_id":"levelo_inurba_marseille","lat":43.28707,"lon":5.39986,"is_reserved":false,"is_disabled":false,"rental_uris":{"android":"levelo://app?vid=cd2dec4b-8229-470a-9925-7c7d66729c62","ios":"levelo://app?vid=cd2dec4b-8229-470a-9925-7c7d66729c62"},"vehicle_type_id":"4","last_reported":1736511439,"current_range_meters":38800,"station_id":"ce4bho92rcd13ifvqh3g","pricing_plan_id":"cebpf4jnsgd1na2vs0mg"},{"bike_id":"49d154ab-b066-4a04-b00a-22a27742a39e","system_id":"levelo_inurba_marseille","lat":43.241699,"lon":5.397426,"is_reserved":false,"is_disabled":false,"rental_uris":{"android":"levelo://app?vid=49d154ab-b066-4a04-b00a-22a27742a39e","ios":"levelo://app?vid=49d154ab-b066-4a04-b00a-22a27742a39e"},"vehicle_type_id":"4","last_reported":1736511439,"current_range_meters":39200,"station_id":"ce4bhn12rcd13ifvqgpg","pricing_plan_id":"cebpf4jnsgd1na2vs0mg"},{"bike_id":"9ba9b015-c1d3-4202-9813-5166f411a487","system_id":"levelo_inurba_marseille","lat":43.29278,"lon":5.36849,"is_reserved":false,"is_disabled":false,"rental_uris":{"android":"levelo://app?vid=9ba9b015-c1d3-4202-9813-5166f411a487","ios":"levelo://app?vid=9ba9b015-c1d3-4202-9813-5166f411a487"},"vehicle_type_id":"4","last_reported":1736511439,"current_range_meters":18800,"station_id":"ce4bhbp2rcd13ifvqesg","pricing_plan_id":"cebpf4jnsgd1na2vs0mg"},{"bike_id":"9f35e75c-ba6d-4f8b-b521-eefbbebfb95e","system_id":"levelo_inurba_marseille","lat":43.24668,"lon":5.38171,"is_reserved":false,"is_disabled":false,"rental_uris":{"android":"levelo://app?vid=9f35e75c-ba6d-4f8b-b521-eefbbebfb95e","ios":"levelo://app?vid=9f35e75c-ba6d-4f8b-b521-eefbbebfb95e"},"vehicle_type_id":"4","last_reported":1736511439,"current_range_meters":16800,"station_id":"ce4bhih2rcd13ifvqfr0","pricing_plan_id":"cebpf4jnsgd1na2vs0mg"},{"bike_id":"e7693de3-6f4e-4c13-85ed-784b0ea1a283","system_id":"levelo_inurba_marseille","lat":43.28616,"lon":5.38122,"is_reserved":false,"is_disabled":false,"rental_uris":{"android":"levelo://app?vid=e7693de3-6f4e-4c13-85ed-784b0ea1a283","ios":"levelo://app?vid=e7693de3-6f4e-4c13-85ed-784b0ea1a283"},"vehicle_type_id":"4","last_reported":1736511439,"current_range_meters":14800,"station_id":"ce4bgi92rcd13ifvqb90","pricing_plan_id":"cebpf4jnsgd1na2vs0mg"},{"bike_id":"c4e1dc95-7998-4669-80d6-c855ccd0bfd7","system_id":"levelo_inurba_marseille","lat":43.30601,"lon":5.3723,"is_reserved":false,"is_disabled":false,"rental_uris":{"android":"levelo://app?vid=c4e1dc95-7998-4669-80d6-c855ccd0bfd7","ios":"levelo://app?vid=c4e1dc95-7998-4669-80d6-c855ccd0bfd7"},"vehicle_type_id":"4","last_reported":1736511439,"current_range_meters":20000,"station_id":"ce4bgqh2rcd13ifvqc4g","pricing_plan_id":"cebpf4jnsgd1na2vs0mg"},{"bike_id":"e1d410c6-22be-4056-903b-af42d8b54faa","system_id":"levelo_inurba_marseille","lat":43.250031,"lon":5.389258,"is_reserved":false,"is_disabled":false,"rental_uris":{"android":"levelo://app?vid=e1d410c6-22be-4056-903b-af42d8b54faa","ios":"levelo://app?vid=e1d410c6-22be-4056-903b-af42d8b54faa"},"vehicle_type_id":"4","last_reported":1736511439,"current_range_meters":27600,"station_id":"ce4bhgp2rcd13ifvqfd0","pricing_plan_id":"cebpf4jnsgd1na2vs0mg"},{"bike_id":"cdcdb287-81f9-4597-9351-d772c617e558","system_id":"levelo_inurba_marseille","lat":43.31348,"lon":5.36723,"is_reserved":false,"is_disabled":false,"rental_uris":{"android":"levelo://app?vid=cdcdb287-81f9-4597-9351-d772c617e558","ios":"levelo://app?vid=cdcdb287-81f9-4597-9351-d772c617e558"},"vehicle_type_id":"4","last_reported":1736511439,"current_range_meters":20400,"station_id":"ce4bgr92rcd13ifvqc6g","pricing_plan_id":"cebpf4jnsgd1na2vs0mg"},{"bike_id":"678ecc6a-68b8-4782-ab6d-14117fed5936","system_id":"levelo_inurba_marseille","lat":43.30891,"lon":5.36883,"is_reserved":false,"is_disabled":false,"rental_uris":{"android":"levelo://app?vid=678ecc6a-68b8-4782-ab6d-14117fed5936","ios":"levelo://app?vid=678ecc6a-68b8-4782-ab6d-14117fed5936"},"vehicle_type_id":"4","last_reported":1736511439,"current_range_meters":37600,"station_id":"ce4bgn92rcd13ifvqbvg","pricing_plan_id":"cebpf4jnsgd1na2vs0mg"},{"bike_id":"9d5535df-7edb-47f9-ac14-54793dd626e0","system_id":"levelo_inurba_marseille","lat":43.22932,"lon":5.35382,"is_reserved":false,"is_disabled":false,"rental_uris":{"android":"levelo://app?vid=9d5535df-7edb-47f9-ac14-54793dd626e0","ios":"levelo://app?vid=9d5535df-7edb-47f9-ac14-54793dd626e0"},"vehicle_type_id":"4","last_reported":1736511439,"current_range_meters":24800,"station_id":"cpo3532slgdg3j2ikp40","pricing_plan_id":"cebpf4jnsgd1na2vs0mg"},{"bike_id":"6a37db2e-c575-4bb3-b858-7fc08de43543","system_id":"levelo_inurba_marseille","lat":43.26561,"lon":5.37297,"is_reserved":false,"is_disabled":false,"rental_uris":{"android":"levelo://app?vid=6a37db2e-c575-4bb3-b858-7fc08de43543","ios":"levelo://app?vid=6a37db2e-c575-4bb3-b858-7fc08de43543"},"vehicle_type_id":"4","last_reported":1736511439,"current_range_meters":38800,"station_id":"ce4bhg12rcd13ifvqf70","pricing_plan_id":"cebpf4jnsgd1na2vs0mg"},{"bike_id":"66090242-33ef-43c8-a368-336765c55207","system_id":"levelo_inurba_marseille","lat":43.27816,"lon":5.40721,"is_reserved":false,"is_disabled":false,"rental_uris":{"android":"levelo://app?vid=66090242-33ef-43c8-a368-336765c55207","ios":"levelo://app?vid=66090242-33ef-43c8-a368-336765c55207"},"vehicle_type_id":"4","last_reported":1736511439,"current_range_meters":36000,"station_id":"ce4bhnh2rcd13ifvqgtg","pricing_plan_id":"cebpf4jnsgd1na2vs0mg"},{"bike_id":"57d8a911-b309-449d-86e9-1c415d5e6c25","system_id":"levelo_inurba_marseille","lat":43.23185,"lon":5.39995,"is_reserved":false,"is_disabled":false,"rental_uris":{"android":"levelo://app?vid=57d8a911-b309-449d-86e9-1c415d5e6c25","ios":"levelo://app?vid=57d8a911-b309-449d-86e9-1c415d5e6c25"},"vehicle_type_id":"4","last_reported":1736511439,"current_range_meters":21600,"station_id":"ce4bhn12rcd13ifvqgqg","pricing_plan_id":"cebpf4jnsgd1na2vs0mg"},{"bike_id":"6b750947-fb43-40e2-9931-495446cc2b3f","system_id":"levelo_inurba_marseille","lat":43.2292,"lon":5.3538,"is_reserved":false,"is_disabled":true,"rental_uris":{"android":"levelo://app?vid=6b750947-fb43-40e2-9931-495446cc2b3f","ios":"levelo://app?vid=6b750947-fb43-40e2-9931-495446cc2b3f"},"vehicle_type_id":"4","last_reported":1736511439,"current_range_meters":400,"station_id":"cpo3532slgdg3j2ikp40","pricing_plan_id":"cebpf4jnsgd1na2vs0mg"},{"bike_id":"54c2499e-d908-47f3-8c39-8e04b6291f7f","system_id":"levelo_inurba_marseille","lat":43.30214,"lon":5.39472,"is_reserved":false,"is_disabled":false,"rental_uris":{"android":"levelo://app?vid=54c2499e-d908-47f3-8c39-8e04b6291f7f","ios":"levelo://app?vid=54c2499e-d908-47f3-8c39-8e04b6291f7f"},"vehicle_type_id":"4","last_reported":1736511439,"current_range_meters":37600,"station_id":"ce4bh0p2rcd13ifvqd70","pricing_plan_id":"cebpf4jnsgd1na2vs0mg"},{"bike_id":"5b79b006-d7c3-4b04-9541-c9d77e2d63cb","system_id":"levelo_inurba_marseille","lat":43.3169,"lon":5.40488,"is_reserved":false,"is_disabled":true,"rental_uris":{"android":"levelo://app?vid=5b79b006-d7c3-4b04-9541-c9d77e2d63cb","ios":"levelo://app?vid=5b79b006-d7c3-4b04-9541-c9d77e2d63cb"},"vehicle_type_id":"4","last_reported":1736511439,"current_range_meters":17200,"station_id":"ce4bh012rcd13ifvqd00","pricing_plan_id":"cebpf4jnsgd1na2vs0mg"},{"bike_id":"e0f3f4e6-9117-430e-9f8e-dfe5b7c3f4d0","system_id":"levelo_inurba_marseille","lat":43.27942,"lon":5.41044,"is_reserved":false,"is_disabled":false,"rental_uris":{"android":"levelo://app?vid=e0f3f4e6-9117-430e-9f8e-dfe5b7c3f4d0","ios":"levelo://app?vid=e0f3f4e6-9117-430e-9f8e-dfe5b7c3f4d0"},"vehicle_type_id":"4","last_reported":1736511439,"current_range_meters":28400,"station_id":"ce4bhnp2rcd13ifvqh0g","pricing_plan_id":"cebpf4jnsgd1na2vs0mg"},{"bike_id":"dbe4d7d2-95f9-4a28-b000-f9ac7c3f52eb","system_id":"levelo_inurba_marseille","lat":43.29213,"lon":5.39328,"is_reserved":false,"is_disabled":true,"rental_uris":{"android":"levelo://app?vid=dbe4d7d2-95f9-4a28-b000-f9ac7c3f52eb","ios":"levelo://app?vid=dbe4d7d2-95f9-4a28-b000-f9ac7c3f52eb"},"vehicle_type_id":"4","last_reported":1736511439,"current_range_meters":0,"station_id":"ce4bh192rcd13ifvqdd0","pricing_plan_id":"cebpf4jnsgd1na2vs0mg"},{"bike_id":"4af16076-0c4c-4b77-bf13-a9dfad761f4a","system_id":"levelo_inurba_marseille","lat":43.26028,"lon":5.37558,"is_reserved":false,"is_disabled":false,"rental_uris":{"android":"levelo://app?vid=4af16076-0c4c-4b77-bf13-a9dfad761f4a","ios":"levelo://app?vid=4af16076-0c4c-4b77-bf13-a9dfad761f4a"},"vehicle_type_id":"4","last_reported":1736511439,"current_range_meters":20400,"station_id":"ce4bhgh2rcd13ifvqfa0","pricing_plan_id":"cebpf4jnsgd1na2vs0mg"},{"bike_id":"6d907632-b7a4-409f-98d5-031bae93ab87","system_id":"levelo_inurba_marseille","lat":43.23966,"lon":5.36635,"is_reserved":false,"is_disabled":false,"rental_uris":{"android":"levelo://app?vid=6d907632-b7a4-409f-98d5-031bae93ab87","ios":"levelo://app?vid=6d907632-b7a4-409f-98d5-031bae93ab87"},"vehicle_type_id":"4","last_reported":1736511439,"current_range_meters":38800,"station_id":"ce4bhi12rcd13ifvqfp0","pricing_plan_id":"cebpf4jnsgd1na2vs0mg"},{"bike_id":"0cce481a-4c77-4685-8792-bd64ad5b37cd","system_id":"levelo_inurba_marseille","lat":43.29158,"lon":5.37169,"is_reserved":false,"is_disabled":false,"rental_uris":{"android":"levelo://app?vid=0cce481a-4c77-4685-8792-bd64ad5b37cd","ios":"levelo://app?vid=0cce481a-4c77-4685-8792-bd64ad5b37cd"},"vehicle_type_id":"4","last_reported":1736511439,"current_range_meters":27600,"station_id":"ce4bha92rcd13ifvqeh0","pricing_plan_id":"cebpf4jnsgd1na2vs0mg"},{"bike_id":"237b367f-69c6-422c-b184-44b6091e4d4e","system_id":"levelo_inurba_marseille","lat":43.23966,"lon":5.36635,"is_reserved":false,"is_disabled":false,"rental_uris":{"android":"levelo://app?vid=237b367f-69c6-422c-b184-44b6091e4d4e","ios":"levelo://app?vid=237b367f-69c6-422c-b184-44b6091e4d4e"},"vehicle_type_id":"4","last_reported":1736511439,"current_range_meters":28000,"station_id":"ce4bhi12rcd13ifvqfp0","pricing_plan_id":"cebpf4jnsgd1na2vs0mg"},{"bike_id":"e317371f-3cb8-4455-a218-71b01dcac120","system_id":"levelo_inurba_marseille","lat":43.29519,"lon":5.3751,"is_reserved":false,"is_disabled":false,"rental_uris":{"android":"levelo://app?vid=e317371f-3cb8-4455-a218-71b01dcac120","ios":"levelo://app?vid=e317371f-3cb8-4455-a218-71b01dcac120"},"vehicle_type_id":"4","last_reported":1736511439,"current_range_meters":33600,"station_id":"ce4bgkp2rcd13ifvqbmg","pricing_plan_id":"cebpf4jnsgd1na2vs0mg"},{"bike_id":"77e0a60c-d32c-4d76-a00a-973ede995e60","system_id":"levelo_inurba_marseille","lat":43.25132,"lon":5.40322,"is_reserved":false,"is_disabled":false,"rental_uris":{"android":"levelo://app?vid=77e0a60c-d32c-4d76-a00a-973ede995e60","ios":"levelo://app?vid=77e0a60c-d32c-4d76-a00a-973ede995e60"},"vehicle_type_id":"4","last_reported":1736511439,"current_range_meters":38800,"station_id":"ce4bhlh2rcd13ifvqgig","pricing_plan_id":"cebpf4jnsgd1na2vs0mg"},{"bike_id":"dafa00c8-aa63-4e9a-b090-bc223ab75b71","system_id":"levelo_inurba_marseille","lat":43.25938,"lon":5.40919,"is_reserved":false,"is_disabled":false,"rental_uris":{"android":"levelo://app?vid=dafa00c8-aa63-4e9a-b090-bc223ab75b71","ios":"levelo://app?vid=dafa00c8-aa63-4e9a-b090-bc223ab75b71"},"vehicle_type_id":"4","last_reported":1736511439,"current_range_meters":38400,"station_id":"ce4bhm92rcd13ifvqglg","pricing_plan_id":"cebpf4jnsgd1na2vs0mg"},{"bike_id":"60c97533-95bd-4324-a21f-a804a4e55da7","system_id":"levelo_inurba_marseille","lat":43.26692,"lon":5.38268,"is_reserved":false,"is_disabled":false,"rental_uris":{"android":"levelo://app?vid=60c97533-95bd-4324-a21f-a804a4e55da7","ios":"levelo://app?vid=60c97533-95bd-4324-a21f-a804a4e55da7"},"vehicle_type_id":"4","last_reported":1736511439,"current_range_meters":25200,"station_id":"ce4bhg92rcd13ifvqf90","pricing_plan_id":"cebpf4jnsgd1na2vs0mg"},{"bike_id":"168c2084-99c3-45eb-88e5-cf54af8eb1df","system_id":"levelo_inurba_marseille","lat":43.2795,"lon":5.38673,"is_reserved":false,"is_disabled":true,"rental_uris":{"android":"levelo://app?vid=168c2084-99c3-45eb-88e5-cf54af8eb1df","ios":"levelo://app?vid=168c2084-99c3-45eb-88e5-cf54af8eb1df"},"vehicle_type_id":"4","last_reported":1736511439,"current_range_meters":800,"station_id":"","pricing_plan_id":"cebpf4jnsgd1na2vs0mg"},{"bike_id":"3f694d6d-b605-4a3c-b425-a2d6fd911706","system_id":"levelo_inurba_marseille","lat":43.28156,"lon":5.42641,"is_reserved":false,"is_disabled":false,"rental_uris":{"android":"levelo://app?vid=3f694d6d-b605-4a3c-b425-a2d6fd911706","ios":"levelo://app?vid=3f694d6d-b605-4a3c-b425-a2d6fd911706"},"vehicle_type_id":"4","last_reported":1736511439,"current_range_meters":35600,"station_id":"ce4bhnh2rcd13ifvqgug","pricing_plan_id":"cebpf4jnsgd1na2vs0mg"},{"bike_id":"1b4587cd-457c-43a2-92e0-249106938ab1","system_id":"levelo_inurba_marseille","lat":43.26161,"lon":5.37957,"is_reserved":false,"is_disabled":false,"rental_uris":{"android":"levelo://app?vid=1b4587cd-457c-43a2-92e0-249106938ab1","ios":"levelo://app?vid=1b4587cd-457c-43a2-92e0-249106938ab1"},"vehicle_type_id":"4","last_reported":1736511439,"current_range_meters":25200,"station_id":"","pricing_plan_id":"cebpf4jnsgd1na2vs0mg"},{"bike_id":"dc7c3254-8743-46e0-83e6-a66225f60699","system_id":"levelo_inurba_marseille","lat":43.31248,"lon":5.36847,"is_reserved":false,"is_disabled":false,"rental_uris":{"android":"levelo://app?vid=dc7c3254-8743-46e0-83e6-a66225f60699","ios":"levelo://app?vid=dc7c3254-8743-46e0-83e6-a66225f60699"},"vehicle_type_id":"4","last_reported":1736511439,"current_range_meters":24000,"station_id":"ce4bgl92rcd13ifvqbq0","pricing_plan_id":"cebpf4jnsgd1na2vs0mg"},{"bike_id":"426ee80e-06b0-4d0f-86a5-ea8ad64aaa11","system_id":"levelo_inurba_marseille","lat":43.2892,"lon":5.437829,"is_reserved":false,"is_disabled":false,"rental_uris":{"android":"levelo://app?vid=426ee80e-06b0-4d0f-86a5-ea8ad64aaa11","ios":"levelo://app?vid=426ee80e-06b0-4d0f-86a5-ea8ad64aaa11"},"vehicle_type_id":"4","last_reported":1736511439,"current_range_meters":22000,"station_id":"","pricing_plan_id":"cebpf4jnsgd1na2vs0mg"},{"bike_id":"26e99618-7509-4292-89a6-e22bb8ba9da0","system_id":"levelo_inurba_marseille","lat":43.33779,"lon":5.374,"is_reserved":false,"is_disabled":false,"rental_uris":{"android":"levelo://app?vid=26e99618-7509-4292-89a6-e22bb8ba9da0","ios":"levelo://app?vid=26e99618-7509-4292-89a6-e22bb8ba9da0"},"vehicle_type_id":"4","last_reported":1736511439,"current_range_meters":38800,"station_id":"","pricing_plan_id":"cebpf4jnsgd1na2vs0mg"},{"bike_id":"2977bbcd-113d-43a7-9780-de2fb14de1e7","system_id":"levelo_inurba_marseille","lat":43.29292,"lon":5.37449,"is_reserved":false,"is_disabled":false,"rental_uris":{"android":"levelo://app?vid=2977bbcd-113d-43a7-9780-de2fb14de1e7","ios":"levelo://app?vid=2977bbcd-113d-43a7-9780-de2fb14de1e7"},"vehicle_type_id":"4","last_reported":1736511439,"current_range_meters":38400,"station_id":"ce4bgi12rcd13ifvqb70","pricing_plan_id":"cebpf4jnsgd1na2vs0mg"},{"bike_id":"4b63a2de-fb6d-4d99-a67a-7732200ce7d3","system_id":"levelo_inurba_marseille","lat":43.29921,"lon":5.36538,"is_reserved":false,"is_disabled":false,"rental_uris":{"android":"levelo://app?vid=4b63a2de-fb6d-4d99-a67a-7732200ce7d3","ios":"levelo://app?vid=4b63a2de-fb6d-4d99-a67a-7732200ce7d3"},"vehicle_type_id":"4","last_reported":1736511439,"current_range_meters":33600,"station_id":"ce4bgm92rcd13ifvqbr0","pricing_plan_id":"cebpf4jnsgd1na2vs0mg"},{"bike_id":"9b3d97c9-0e0b-429b-be92-9de889b7cdb6","system_id":"levelo_inurba_marseille","lat":43.27964,"lon":5.38754,"is_reserved":false,"is_disabled":true,"rental_uris":{"android":"levelo://app?vid=9b3d97c9-0e0b-429b-be92-9de889b7cdb6","ios":"levelo://app?vid=9b3d97c9-0e0b-429b-be92-9de889b7cdb6"},"vehicle_type_id":"4","last_reported":1736511439,"current_range_meters":38800,"station_id":"ce4bhg12rcd13ifvqf80","pricing_plan_id":"cebpf4jnsgd1na2vs0mg"},{"bike_id":"25e6deaf-104b-49cf-b8c3-11ce39271b03","system_id":"levelo_inurba_marseille","lat":43.28357,"lon":5.38104,"is_reserved":false,"is_disabled":false,"rental_uris":{"android":"levelo://app?vid=25e6deaf-104b-49cf-b8c3-11ce39271b03","ios":"levelo://app?vid=25e6deaf-104b-49cf-b8c3-11ce39271b03"},"vehicle_type_id":"4","last_reported":1736511439,"current_range_meters":38000,"station_id":"ce4bh412rcd13ifvqdr0","pricing_plan_id":"cebpf4jnsgd1na2vs0mg"},{"bike_id":"2ff4e172-01b2-4ce7-ac46-4fbccfd6169d","system_id":"levelo_inurba_marseille","lat":43.29194,"lon":5.39329,"is_reserved":false,"is_disabled":false,"rental_uris":{"android":"levelo://app?vid=2ff4e172-01b2-4ce7-ac46-4fbccfd6169d","ios":"levelo://app?vid=2ff4e172-01b2-4ce7-ac46-4fbccfd6169d"},"vehicle_type_id":"4","last_reported":1736511439,"current_range_meters":38800,"station_id":"ce4bh192rcd13ifvqdd0","pricing_plan_id":"cebpf4jnsgd1na2vs0mg"},{"bike_id":"acc34b2c-5523-4d7c-9046-a37b386d1b16","system_id":"levelo_inurba_marseille","lat":43.2791,"lon":5.40734,"is_reserved":false,"is_disabled":false,"rental_uris":{"android":"levelo://app?vid=acc34b2c-5523-4d7c-9046-a37b386d1b16","ios":"levelo://app?vid=acc34b2c-5523-4d7c-9046-a37b386d1b16"},"vehicle_type_id":"4","last_reported":1736511439,"current_range_meters":12400,"station_id":"","pricing_plan_id":"cebpf4jnsgd1na2vs0mg"},{"bike_id":"2837a76e-1964-41aa-834f-ffc821525c0d","system_id":"levelo_inurba_marseille","lat":43.312235,"lon":5.36844,"is_reserved":false,"is_disabled":false,"rental_uris":{"android":"levelo://app?vid=2837a76e-1964-41aa-834f-ffc821525c0d","ios":"levelo://app?vid=2837a76e-1964-41aa-834f-ffc821525c0d"},"vehicle_type_id":"4","last_reported":1736511439,"current_range_meters":3600,"station_id":"ce4bgl92rcd13ifvqbq0","pricing_plan_id":"cebpf4jnsgd1na2vs0mg"},{"bike_id":"6c004e40-3e90-45b8-9d95-1ac91177a380","system_id":"levelo_inurba_marseille","lat":43.27496,"lon":5.42457,"is_reserved":false,"is_disabled":false,"rental_uris":{"android":"levelo://app?vid=6c004e40-3e90-45b8-9d95-1ac91177a380","ios":"levelo://app?vid=6c004e40-3e90-45b8-9d95-1ac91177a380"},"vehicle_type_id":"4","last_reported":1736511439,"current_range_meters":38800,"station_id":"ce4bhn92rcd13ifvqgrg","pricing_plan_id":"cebpf4jnsgd1na2vs0mg"},{"bike_id":"88472096-b5e0-4d06-a84a-d349a2857239","system_id":"levelo_inurba_marseille","lat":43.31061,"lon":5.401,"is_reserved":false,"is_disabled":false,"rental_uris":{"android":"levelo://app?vid=88472096-b5e0-4d06-a84a-d349a2857239","ios":"levelo://app?vid=88472096-b5e0-4d06-a84a-d349a2857239"},"vehicle_type_id":"4","last_reported":1736511439,"current_range_meters":30800,"station_id":"","pricing_plan_id":"cebpf4jnsgd1na2vs0mg"},{"bike_id":"e662f410-002e-4ddd-a73b-d91d78e1c666","system_id":"levelo_inurba_marseille","lat":43.31187,"lon":5.3686,"is_reserved":false,"is_disabled":false,"rental_uris":{"android":"levelo://app?vid=e662f410-002e-4ddd-a73b-d91d78e1c666","ios":"levelo://app?vid=e662f410-002e-4ddd-a73b-d91d78e1c666"},"vehicle_type_id":"4","last_reported":1736511439,"current_range_meters":21600,"station_id":"ce4bgl92rcd13ifvqbq0","pricing_plan_id":"cebpf4jnsgd1na2vs0mg"},{"bike_id":"0f77072b-fd14-4403-808b-7e9c1ce16ad9","system_id":"levelo_inurba_marseille","lat":43.32485,"lon":5.36574,"is_reserved":false,"is_disabled":false,"rental_uris":{"android":"levelo://app?vid=0f77072b-fd14-4403-808b-7e9c1ce16ad9","ios":"levelo://app?vid=0f77072b-fd14-4403-808b-7e9c1ce16ad9"},"vehicle_type_id":"4","last_reported":1736511439,"current_range_meters":20000,"station_id":"ce4bhs12rcd13ifvqhvg","pricing_plan_id":"cebpf4jnsgd1na2vs0mg"},{"bike_id":"b5161366-98b5-4acb-86ae-7da0c3a7cf04","system_id":"levelo_inurba_marseille","lat":43.30129,"lon":5.39856,"is_reserved":false,"is_disabled":false,"rental_uris":{"android":"levelo://app?vid=b5161366-98b5-4acb-86ae-7da0c3a7cf04","ios":"levelo://app?vid=b5161366-98b5-4acb-86ae-7da0c3a7cf04"},"vehicle_type_id":"4","last_reported":1736511439,"current_range_meters":32400,"station_id":"ce4bh0h2rcd13ifvqd40","pricing_plan_id":"cebpf4jnsgd1na2vs0mg"},{"bike_id":"aebffcef-ecfd-4644-baa5-41ef6ceb4909","system_id":"levelo_inurba_marseille","lat":43.2396,"lon":5.36648,"is_reserved":false,"is_disabled":false,"rental_uris":{"android":"levelo://app?vid=aebffcef-ecfd-4644-baa5-41ef6ceb4909","ios":"levelo://app?vid=aebffcef-ecfd-4644-baa5-41ef6ceb4909"},"vehicle_type_id":"4","last_reported":1736511439,"current_range_meters":22800,"station_id":"ce4bhi12rcd13ifvqfp0","pricing_plan_id":"cebpf4jnsgd1na2vs0mg"},{"bike_id":"a34d11e0-f731-4ea8-8ef5-9738ad51a012","system_id":"levelo_inurba_marseille","lat":43.29011,"lon":5.35613,"is_reserved":false,"is_disabled":false,"rental_uris":{"android":"levelo://app?vid=a34d11e0-f731-4ea8-8ef5-9738ad51a012","ios":"levelo://app?vid=a34d11e0-f731-4ea8-8ef5-9738ad51a012"},"vehicle_type_id":"4","last_reported":1736511439,"current_range_meters":31200,"station_id":"ce4bhb92rcd13ifvqen0","pricing_plan_id":"cebpf4jnsgd1na2vs0mg"},{"bike_id":"debcdd4a-ef12-4810-9c09-dc453dfb5b2f","system_id":"levelo_inurba_marseille","lat":43.26684,"lon":5.38266,"is_reserved":false,"is_disabled":false,"rental_uris":{"android":"levelo://app?vid=debcdd4a-ef12-4810-9c09-dc453dfb5b2f","ios":"levelo://app?vid=debcdd4a-ef12-4810-9c09-dc453dfb5b2f"},"vehicle_type_id":"4","last_reported":1736511439,"current_range_meters":37600,"station_id":"ce4bhg92rcd13ifvqf90","pricing_plan_id":"cebpf4jnsgd1na2vs0mg"},{"bike_id":"6d0e52d5-171f-4142-95ad-661bb82f8fd1","system_id":"levelo_inurba_marseille","lat":43.26579,"lon":5.37315,"is_reserved":false,"is_disabled":false,"rental_uris":{"android":"levelo://app?vid=6d0e52d5-171f-4142-95ad-661bb82f8fd1","ios":"levelo://app?vid=6d0e52d5-171f-4142-95ad-661bb82f8fd1"},"vehicle_type_id":"4","last_reported":1736511439,"current_range_meters":32000,"station_id":"ce4bhg12rcd13ifvqf70","pricing_plan_id":"cebpf4jnsgd1na2vs0mg"},{"bike_id":"05fc5a6b-940e-41da-82a1-7012bc0365ac","system_id":"levelo_inurba_marseille","lat":43.30538,"lon":5.38422,"is_reserved":false,"is_disabled":false,"rental_uris":{"android":"levelo://app?vid=05fc5a6b-940e-41da-82a1-7012bc0365ac","ios":"levelo://app?vid=05fc5a6b-940e-41da-82a1-7012bc0365ac"},"vehicle_type_id":"4","last_reported":1736511439,"current_range_meters":14400,"station_id":"ce4bgg92rcd13ifvqb30","pricing_plan_id":"cebpf4jnsgd1na2vs0mg"},{"bike_id":"eccda36e-f31d-4d01-b219-d2103b9a6ede","system_id":"levelo_inurba_marseille","lat":43.27605,"lon":5.36145,"is_reserved":false,"is_disabled":false,"rental_uris":{"android":"levelo://app?vid=eccda36e-f31d-4d01-b219-d2103b9a6ede","ios":"levelo://app?vid=eccda36e-f31d-4d01-b219-d2103b9a6ede"},"vehicle_type_id":"4","last_reported":1736511439,"current_range_meters":38800,"station_id":"ce4bgj92rcd13ifvqbe0","pricing_plan_id":"cebpf4jnsgd1na2vs0mg"},{"bike_id":"7a581628-3cab-4cdb-b830-6e9f114d85d3","system_id":"levelo_inurba_marseille","lat":43.24663,"lon":5.38159,"is_reserved":false,"is_disabled":false,"rental_uris":{"android":"levelo://app?vid=7a581628-3cab-4cdb-b830-6e9f114d85d3","ios":"levelo://app?vid=7a581628-3cab-4cdb-b830-6e9f114d85d3"},"vehicle_type_id":"4","last_reported":1736511439,"current_range_meters":36400,"station_id":"ce4bhih2rcd13ifvqfr0","pricing_plan_id":"cebpf4jnsgd1na2vs0mg"},{"bike_id":"6c16b955-c13c-49a6-a5bb-29559922d02c","system_id":"levelo_inurba_marseille","lat":43.23955,"lon":5.36642,"is_reserved":false,"is_disabled":false,"rental_uris":{"android":"levelo://app?vid=6c16b955-c13c-49a6-a5bb-29559922d02c","ios":"levelo://app?vid=6c16b955-c13c-49a6-a5bb-29559922d02c"},"vehicle_type_id":"4","last_reported":1736511439,"current_range_meters":25200,"station_id":"ce4bhi12rcd13ifvqfp0","pricing_plan_id":"cebpf4jnsgd1na2vs0mg"},{"bike_id":"e5b661c0-5639-40a4-90a1-dcef1f99f698","system_id":"levelo_inurba_marseille","lat":43.3047,"lon":5.37886,"is_reserved":false,"is_disabled":false,"rental_uris":{"android":"levelo://app?vid=e5b661c0-5639-40a4-90a1-dcef1f99f698","ios":"levelo://app?vid=e5b661c0-5639-40a4-90a1-dcef1f99f698"},"vehicle_type_id":"4","last_reported":1736511439,"current_range_meters":33600,"station_id":"ce4bgup2rcd13ifvqcn0","pricing_plan_id":"cebpf4jnsgd1na2vs0mg"},{"bike_id":"dd95b172-24fd-4056-9bb1-1ba37d74b460","system_id":"levelo_inurba_marseille","lat":43.255726,"lon":5.382522,"is_reserved":false,"is_disabled":false,"rental_uris":{"android":"levelo://app?vid=dd95b172-24fd-4056-9bb1-1ba37d74b460","ios":"levelo://app?vid=dd95b172-24fd-4056-9bb1-1ba37d74b460"},"vehicle_type_id":"4","last_reported":1736511439,"current_range_meters":16400,"station_id":"ce4bhih2rcd13ifvqfs0","pricing_plan_id":"cebpf4jnsgd1na2vs0mg"},{"bike_id":"cb4054df-e9e3-4c8b-a564-b8cd1f63b584","system_id":"levelo_inurba_marseille","lat":43.24666,"lon":5.38164,"is_reserved":false,"is_disabled":false,"rental_uris":{"android":"levelo://app?vid=cb4054df-e9e3-4c8b-a564-b8cd1f63b584","ios":"levelo://app?vid=cb4054df-e9e3-4c8b-a564-b8cd1f63b584"},"vehicle_type_id":"4","last_reported":1736511439,"current_range_meters":30800,"station_id":"ce4bhih2rcd13ifvqfr0","pricing_plan_id":"cebpf4jnsgd1na2vs0mg"},{"bike_id":"e247b89a-68d3-4787-a893-22107163a77e","system_id":"levelo_inurba_marseille","lat":43.23187,"lon":5.39978,"is_reserved":false,"is_disabled":false,"rental_uris":{"android":"levelo://app?vid=e247b89a-68d3-4787-a893-22107163a77e","ios":"levelo://app?vid=e247b89a-68d3-4787-a893-22107163a77e"},"vehicle_type_id":"4","last_reported":1736511439,"current_range_meters":25600,"station_id":"ce4bhn12rcd13ifvqgqg","pricing_plan_id":"cebpf4jnsgd1na2vs0mg"},{"bike_id":"a1a982e7-e625-4dfa-991a-019bb63c806f","system_id":"levelo_inurba_marseille","lat":43.23952,"lon":5.36649,"is_reserved":false,"is_disabled":false,"rental_uris":{"android":"levelo://app?vid=a1a982e7-e625-4dfa-991a-019bb63c806f","ios":"levelo://app?vid=a1a982e7-e625-4dfa-991a-019bb63c806f"},"vehicle_type_id":"4","last_reported":1736511439,"current_range_meters":23200,"station_id":"ce4bhi12rcd13ifvqfp0","pricing_plan_id":"cebpf4jnsgd1na2vs0mg"},{"bike_id":"b98c6d5f-ff80-4e80-add7-6c690b4783ae","system_id":"levelo_inurba_marseille","lat":43.29623,"lon":5.37738,"is_reserved":false,"is_disabled":false,"rental_uris":{"android":"levelo://app?vid=b98c6d5f-ff80-4e80-add7-6c690b4783ae","ios":"levelo://app?vid=b98c6d5f-ff80-4e80-add7-6c690b4783ae"},"vehicle_type_id":"4","last_reported":1736511439,"current_range_meters":23200,"station_id":"ce4bgi92rcd13ifvqb90","pricing_plan_id":"cebpf4jnsgd1na2vs0mg"},{"bike_id":"13c9ffd1-0571-4a01-b1c4-cdbe934dff2a","system_id":"levelo_inurba_marseille","lat":43.24995,"lon":5.38934,"is_reserved":false,"is_disabled":false,"rental_uris":{"android":"levelo://app?vid=13c9ffd1-0571-4a01-b1c4-cdbe934dff2a","ios":"levelo://app?vid=13c9ffd1-0571-4a01-b1c4-cdbe934dff2a"},"vehicle_type_id":"4","last_reported":1736511439,"current_range_meters":32000,"station_id":"ce4bhgp2rcd13ifvqfd0","pricing_plan_id":"cebpf4jnsgd1na2vs0mg"},{"bike_id":"e71db8cf-7b3c-485e-a8dd-487e8221434b","system_id":"levelo_inurba_marseille","lat":43.30495,"lon":5.3673,"is_reserved":false,"is_disabled":false,"rental_uris":{"android":"levelo://app?vid=e71db8cf-7b3c-485e-a8dd-487e8221434b","ios":"levelo://app?vid=e71db8cf-7b3c-485e-a8dd-487e8221434b"},"vehicle_type_id":"4","last_reported":1736511439,"current_range_meters":38800,"station_id":"ce4bgrp2rcd13ifvqc9g","pricing_plan_id":"cebpf4jnsgd1na2vs0mg"},{"bike_id":"db2bb327-84ca-49b3-a980-9c69d6ef41a2","system_id":"levelo_inurba_marseille","lat":43.232023,"lon":5.355613,"is_reserved":false,"is_disabled":false,"rental_uris":{"android":"levelo://app?vid=db2bb327-84ca-49b3-a980-9c69d6ef41a2","ios":"levelo://app?vid=db2bb327-84ca-49b3-a980-9c69d6ef41a2"},"vehicle_type_id":"4","last_reported":1736511439,"current_range_meters":38000,"station_id":"ce4bhu92rcd13ifvqi70","pricing_plan_id":"cebpf4jnsgd1na2vs0mg"},{"bike_id":"b1cd05bd-cc6d-452b-8b8c-f24ee7fb627f","system_id":"levelo_inurba_marseille","lat":43.2583,"lon":5.39424,"is_reserved":false,"is_disabled":false,"rental_uris":{"android":"levelo://app?vid=b1cd05bd-cc6d-452b-8b8c-f24ee7fb627f","ios":"levelo://app?vid=b1cd05bd-cc6d-452b-8b8c-f24ee7fb627f"},"vehicle_type_id":"4","last_reported":1736511439,"current_range_meters":36800,"station_id":"ce4bhip2rcd13ifvqft0","pricing_plan_id":"cebpf4jnsgd1na2vs0mg"},{"bike_id":"d590638f-51bd-486f-9a31-a7765bc7baf1","system_id":"levelo_inurba_marseille","lat":43.34143,"lon":5.40902,"is_reserved":false,"is_disabled":false,"rental_uris":{"android":"levelo://app?vid=d590638f-51bd-486f-9a31-a7765bc7baf1","ios":"levelo://app?vid=d590638f-51bd-486f-9a31-a7765bc7baf1"},"vehicle_type_id":"4","last_reported":1736511439,"current_range_meters":37600,"station_id":"ce4bhqh2rcd13ifvqhlg","pricing_plan_id":"cebpf4jnsgd1na2vs0mg"},{"bike_id":"9d27d288-9638-4ffa-a41f-98c9e72676c0","system_id":"levelo_inurba_marseille","lat":43.23205,"lon":5.35567,"is_reserved":false,"is_disabled":false,"rental_uris":{"android":"levelo://app?vid=9d27d288-9638-4ffa-a41f-98c9e72676c0","ios":"levelo://app?vid=9d27d288-9638-4ffa-a41f-98c9e72676c0"},"vehicle_type_id":"4","last_reported":1736511439,"current_range_meters":8400,"station_id":"ce4bhu92rcd13ifvqi70","pricing_plan_id":"cebpf4jnsgd1na2vs0mg"},{"bike_id":"5aee579e-4d1a-4cdd-b13b-286ee35e83d9","system_id":"levelo_inurba_marseille","lat":43.25926,"lon":5.409067,"is_reserved":false,"is_disabled":false,"rental_uris":{"android":"levelo://app?vid=5aee579e-4d1a-4cdd-b13b-286ee35e83d9","ios":"levelo://app?vid=5aee579e-4d1a-4cdd-b13b-286ee35e83d9"},"vehicle_type_id":"4","last_reported":1736511439,"current_range_meters":36800,"station_id":"ce4bhm92rcd13ifvqglg","pricing_plan_id":"cebpf4jnsgd1na2vs0mg"},{"bike_id":"b9976952-4a08-4451-ad5d-1dcdb3e3ca97","system_id":"levelo_inurba_marseille","lat":43.299683,"lon":5.385465,"is_reserved":false,"is_disabled":true,"rental_uris":{"android":"levelo://app?vid=b9976952-4a08-4451-ad5d-1dcdb3e3ca97","ios":"levelo://app?vid=b9976952-4a08-4451-ad5d-1dcdb3e3ca97"},"vehicle_type_id":"4","last_reported":1736511439,"current_range_meters":26800,"station_id":"ce4bgj92rcd13ifvqbd0","pricing_plan_id":"cebpf4jnsgd1na2vs0mg"},{"bike_id":"11585661-9606-4540-9904-4049c3c3dbe3","system_id":"levelo_inurba_marseille","lat":43.29622,"lon":5.37172,"is_reserved":false,"is_disabled":false,"rental_uris":{"android":"levelo://app?vid=11585661-9606-4540-9904-4049c3c3dbe3","ios":"levelo://app?vid=11585661-9606-4540-9904-4049c3c3dbe3"},"vehicle_type_id":"4","last_reported":1736511439,"current_range_meters":13600,"station_id":"ce4bgnh2rcd13ifvqc0g","pricing_plan_id":"cebpf4jnsgd1na2vs0mg"},{"bike_id":"4a0c0673-179a-4f2d-8d08-d5aba8097f7a","system_id":"levelo_inurba_marseille","lat":43.30132,"lon":5.39892,"is_reserved":false,"is_disabled":false,"rental_uris":{"android":"levelo://app?vid=4a0c0673-179a-4f2d-8d08-d5aba8097f7a","ios":"levelo://app?vid=4a0c0673-179a-4f2d-8d08-d5aba8097f7a"},"vehicle_type_id":"4","last_reported":1736511439,"current_range_meters":31200,"station_id":"ce4bh0h2rcd13ifvqd40","pricing_plan_id":"cebpf4jnsgd1na2vs0mg"},{"bike_id":"bb4e7338-4d7d-4b1a-b8af-976eaac9866a","system_id":"levelo_inurba_marseille","lat":43.29281,"lon":5.40112,"is_reserved":false,"is_disabled":false,"rental_uris":{"android":"levelo://app?vid=bb4e7338-4d7d-4b1a-b8af-976eaac9866a","ios":"levelo://app?vid=bb4e7338-4d7d-4b1a-b8af-976eaac9866a"},"vehicle_type_id":"4","last_reported":1736511439,"current_range_meters":34000,"station_id":"ce4bh312rcd13ifvqdk0","pricing_plan_id":"cebpf4jnsgd1na2vs0mg"},{"bike_id":"2c56569d-ff0b-4284-ba64-74611e7006a4","system_id":"levelo_inurba_marseille","lat":43.24996,"lon":5.38942,"is_reserved":false,"is_disabled":false,"rental_uris":{"android":"levelo://app?vid=2c56569d-ff0b-4284-ba64-74611e7006a4","ios":"levelo://app?vid=2c56569d-ff0b-4284-ba64-74611e7006a4"},"vehicle_type_id":"4","last_reported":1736511439,"current_range_meters":20400,"station_id":"ce4bhgp2rcd13ifvqfd0","pricing_plan_id":"cebpf4jnsgd1na2vs0mg"},{"bike_id":"b7a9af4a-f050-47c0-8298-26fae1024e10","system_id":"levelo_inurba_marseille","lat":43.26701,"lon":5.38289,"is_reserved":false,"is_disabled":false,"rental_uris":{"android":"levelo://app?vid=b7a9af4a-f050-47c0-8298-26fae1024e10","ios":"levelo://app?vid=b7a9af4a-f050-47c0-8298-26fae1024e10"},"vehicle_type_id":"4","last_reported":1736511439,"current_range_meters":35200,"station_id":"ce4bhg92rcd13ifvqf90","pricing_plan_id":"cebpf4jnsgd1na2vs0mg"},{"bike_id":"3d30a71a-2c30-474a-bc72-07a8166c738b","system_id":"levelo_inurba_marseille","lat":43.27825,"lon":5.40707,"is_reserved":false,"is_disabled":false,"rental_uris":{"android":"levelo://app?vid=3d30a71a-2c30-474a-bc72-07a8166c738b","ios":"levelo://app?vid=3d30a71a-2c30-474a-bc72-07a8166c738b"},"vehicle_type_id":"4","last_reported":1736511439,"current_range_meters":12000,"station_id":"ce4bhnh2rcd13ifvqgtg","pricing_plan_id":"cebpf4jnsgd1na2vs0mg"},{"bike_id":"29a696da-688e-4491-990d-975870c6f8d2","system_id":"levelo_inurba_marseille","lat":43.28265,"lon":5.35061,"is_reserved":false,"is_disabled":false,"rental_uris":{"android":"levelo://app?vid=29a696da-688e-4491-990d-975870c6f8d2","ios":"levelo://app?vid=29a696da-688e-4491-990d-975870c6f8d2"},"vehicle_type_id":"4","last_reported":1736511439,"current_range_meters":12400,"station_id":"ce4bhbp2rcd13ifvqerg","pricing_plan_id":"cebpf4jnsgd1na2vs0mg"},{"bike_id":"9ed1c0a7-5035-4dde-954f-378a0451f32a","system_id":"levelo_inurba_marseille","lat":43.23956,"lon":5.36647,"is_reserved":false,"is_disabled":false,"rental_uris":{"android":"levelo://app?vid=9ed1c0a7-5035-4dde-954f-378a0451f32a","ios":"levelo://app?vid=9ed1c0a7-5035-4dde-954f-378a0451f32a"},"vehicle_type_id":"4","last_reported":1736511439,"current_range_meters":38800,"station_id":"ce4bhi12rcd13ifvqfp0","pricing_plan_id":"cebpf4jnsgd1na2vs0mg"},{"bike_id":"147b7553-34f7-4e8b-a337-b51baf3b47e1","system_id":"levelo_inurba_marseille","lat":43.29883,"lon":5.38907,"is_reserved":false,"is_disabled":true,"rental_uris":{"android":"levelo://app?vid=147b7553-34f7-4e8b-a337-b51baf3b47e1","ios":"levelo://app?vid=147b7553-34f7-4e8b-a337-b51baf3b47e1"},"vehicle_type_id":"4","last_reported":1736511439,"current_range_meters":38800,"station_id":"ce4bh392rcd13ifvqdl0","pricing_plan_id":"cebpf4jnsgd1na2vs0mg"},{"bike_id":"1f04e43e-ad27-41d8-af08-5001240149b3","system_id":"levelo_inurba_marseille","lat":43.30223,"lon":5.39472,"is_reserved":false,"is_disabled":false,"rental_uris":{"android":"levelo://app?vid=1f04e43e-ad27-41d8-af08-5001240149b3","ios":"levelo://app?vid=1f04e43e-ad27-41d8-af08-5001240149b3"},"vehicle_type_id":"4","last_reported":1736511439,"current_range_meters":38800,"station_id":"ce4bh0p2rcd13ifvqd70","pricing_plan_id":"cebpf4jnsgd1na2vs0mg"},{"bike_id":"ce698391-360f-48cf-bafb-5da536e90928","system_id":"levelo_inurba_marseille","lat":43.3253,"lon":5.41486,"is_reserved":false,"is_disabled":false,"rental_uris":{"android":"levelo://app?vid=ce698391-360f-48cf-bafb-5da536e90928","ios":"levelo://app?vid=ce698391-360f-48cf-bafb-5da536e90928"},"vehicle_type_id":"4","last_reported":1736511439,"current_range_meters":30000,"station_id":"ce4bhq12rcd13ifvqhhg","pricing_plan_id":"cebpf4jnsgd1na2vs0mg"},{"bike_id":"3499c2e3-a89c-4eb9-b8bb-035633a0657e","system_id":"levelo_inurba_marseille","lat":43.28941,"lon":5.3963,"is_reserved":false,"is_disabled":false,"rental_uris":{"android":"levelo://app?vid=3499c2e3-a89c-4eb9-b8bb-035633a0657e","ios":"levelo://app?vid=3499c2e3-a89c-4eb9-b8bb-035633a0657e"},"vehicle_type_id":"4","last_reported":1736511439,"current_range_meters":38800,"station_id":"ce4bh3h2rcd13ifvqdn0","pricing_plan_id":"cebpf4jnsgd1na2vs0mg"},{"bike_id":"af1d8654-7f66-4539-8667-313d56746f24","system_id":"levelo_inurba_marseille","lat":43.25078,"lon":5.39537,"is_reserved":false,"is_disabled":false,"rental_uris":{"android":"levelo://app?vid=af1d8654-7f66-4539-8667-313d56746f24","ios":"levelo://app?vid=af1d8654-7f66-4539-8667-313d56746f24"},"vehicle_type_id":"4","last_reported":1736511439,"current_range_meters":38800,"station_id":"ce4bhm12rcd13ifvqgkg","pricing_plan_id":"cebpf4jnsgd1na2vs0mg"},{"bike_id":"60271d0f-3a77-4626-8905-d712a41f6304","system_id":"levelo_inurba_marseille","lat":43.28463,"lon":5.3589,"is_reserved":false,"is_disabled":false,"rental_uris":{"android":"levelo://app?vid=60271d0f-3a77-4626-8905-d712a41f6304","ios":"levelo://app?vid=60271d0f-3a77-4626-8905-d712a41f6304"},"vehicle_type_id":"4","last_reported":1736511439,"current_range_meters":27600,"station_id":"ce4bhah2rcd13ifvqei0","pricing_plan_id":"cebpf4jnsgd1na2vs0mg"},{"bike_id":"2c0c1541-14a8-4bd0-bc83-5430249abf48","system_id":"levelo_inurba_marseille","lat":43.23155,"lon":5.43707,"is_reserved":false,"is_disabled":false,"rental_uris":{"android":"levelo://app?vid=2c0c1541-14a8-4bd0-bc83-5430249abf48","ios":"levelo://app?vid=2c0c1541-14a8-4bd0-bc83-5430249abf48"},"vehicle_type_id":"4","last_reported":1736511439,"current_range_meters":6400,"station_id":"ce4bhmp2rcd13ifvqgog","pricing_plan_id":"cebpf4jnsgd1na2vs0mg"},{"bike_id":"c46557b6-d3c5-4e7e-aae0-5e8c331ea4fb","system_id":"levelo_inurba_marseille","lat":43.28925,"lon":5.38399,"is_reserved":false,"is_disabled":false,"rental_uris":{"android":"levelo://app?vid=c46557b6-d3c5-4e7e-aae0-5e8c331ea4fb","ios":"levelo://app?vid=c46557b6-d3c5-4e7e-aae0-5e8c331ea4fb"},"vehicle_type_id":"4","last_reported":1736511439,"current_range_meters":38800,"station_id":"ce4bh612rcd13ifvqe6g","pricing_plan_id":"cebpf4jnsgd1na2vs0mg"},{"bike_id":"7a0a8a69-615c-43f3-a001-073b74f4a57b","system_id":"levelo_inurba_marseille","lat":43.2557,"lon":5.38238,"is_reserved":false,"is_disabled":false,"rental_uris":{"android":"levelo://app?vid=7a0a8a69-615c-43f3-a001-073b74f4a57b","ios":"levelo://app?vid=7a0a8a69-615c-43f3-a001-073b74f4a57b"},"vehicle_type_id":"4","last_reported":1736511439,"current_range_meters":27200,"station_id":"ce4bhih2rcd13ifvqfs0","pricing_plan_id":"cebpf4jnsgd1na2vs0mg"},{"bike_id":"b92f72f1-59d7-4039-9c72-ec1c0f416103","system_id":"levelo_inurba_marseille","lat":43.29968,"lon":5.38496,"is_reserved":false,"is_disabled":false,"rental_uris":{"android":"levelo://app?vid=b92f72f1-59d7-4039-9c72-ec1c0f416103","ios":"levelo://app?vid=b92f72f1-59d7-4039-9c72-ec1c0f416103"},"vehicle_type_id":"4","last_reported":1736511439,"current_range_meters":31200,"station_id":"ce4bgj92rcd13ifvqbd0","pricing_plan_id":"cebpf4jnsgd1na2vs0mg"},{"bike_id":"04b99ebe-7927-40e6-9554-a7aa6d8ff5da","system_id":"levelo_inurba_marseille","lat":43.33019,"lon":5.39047,"is_reserved":false,"is_disabled":false,"rental_uris":{"android":"levelo://app?vid=04b99ebe-7927-40e6-9554-a7aa6d8ff5da","ios":"levelo://app?vid=04b99ebe-7927-40e6-9554-a7aa6d8ff5da"},"vehicle_type_id":"4","last_reported":1736511439,"current_range_meters":38800,"station_id":"ce4bhr92rcd13ifvqhrg","pricing_plan_id":"cebpf4jnsgd1na2vs0mg"},{"bike_id":"284e1831-9922-4f3c-809c-0f802c9ef2e6","system_id":"levelo_inurba_marseille","lat":43.29546,"lon":5.42286,"is_reserved":false,"is_disabled":false,"rental_uris":{"android":"levelo://app?vid=284e1831-9922-4f3c-809c-0f802c9ef2e6","ios":"levelo://app?vid=284e1831-9922-4f3c-809c-0f802c9ef2e6"},"vehicle_type_id":"4","last_reported":1736511439,"current_range_meters":15200,"station_id":"ce4bhph2rcd13ifvqhdg","pricing_plan_id":"cebpf4jnsgd1na2vs0mg"},{"bike_id":"ad744619-fbc5-4026-9541-81b1adebd4d3","system_id":"levelo_inurba_marseille","lat":43.26037,"lon":5.37553,"is_reserved":false,"is_disabled":true,"rental_uris":{"android":"levelo://app?vid=ad744619-fbc5-4026-9541-81b1adebd4d3","ios":"levelo://app?vid=ad744619-fbc5-4026-9541-81b1adebd4d3"},"vehicle_type_id":"4","last_reported":1736511439,"current_range_meters":38800,"station_id":"ce4bhgh2rcd13ifvqfa0","pricing_plan_id":"cebpf4jnsgd1na2vs0mg"},{"bike_id":"2b68127b-8c99-46f9-b65f-98bf288dc9b7","system_id":"levelo_inurba_marseille","lat":43.255786,"lon":5.382566,"is_reserved":false,"is_disabled":false,"rental_uris":{"android":"levelo://app?vid=2b68127b-8c99-46f9-b65f-98bf288dc9b7","ios":"levelo://app?vid=2b68127b-8c99-46f9-b65f-98bf288dc9b7"},"vehicle_type_id":"4","last_reported":1736511439,"current_range_meters":7200,"station_id":"ce4bhih2rcd13ifvqfs0","pricing_plan_id":"cebpf4jnsgd1na2vs0mg"},{"bike_id":"bb435be4-2b27-4bb9-8be1-d044b9b11fe5","system_id":"levelo_inurba_marseille","lat":43.29906,"lon":5.38129,"is_reserved":false,"is_disabled":false,"rental_uris":{"android":"levelo://app?vid=bb435be4-2b27-4bb9-8be1-d044b9b11fe5","ios":"levelo://app?vid=bb435be4-2b27-4bb9-8be1-d044b9b11fe5"},"vehicle_type_id":"4","last_reported":1736511439,"current_range_meters":24800,"station_id":"ce4bgj12rcd13ifvqbc0","pricing_plan_id":"cebpf4jnsgd1na2vs0mg"},{"bike_id":"61887126-fdb3-4684-971d-b9bd718ff60a","system_id":"levelo_inurba_marseille","lat":43.30598,"lon":5.39342,"is_reserved":false,"is_disabled":false,"rental_uris":{"android":"levelo://app?vid=61887126-fdb3-4684-971d-b9bd718ff60a","ios":"levelo://app?vid=61887126-fdb3-4684-971d-b9bd718ff60a"},"vehicle_type_id":"4","last_reported":1736511439,"current_range_meters":39200,"station_id":"ce4bh0p2rcd13ifvqd80","pricing_plan_id":"cebpf4jnsgd1na2vs0mg"},{"bike_id":"54471564-bd33-4455-b850-4f293cdf3987","system_id":"levelo_inurba_marseille","lat":43.23066,"lon":5.35495,"is_reserved":false,"is_disabled":false,"rental_uris":{"android":"levelo://app?vid=54471564-bd33-4455-b850-4f293cdf3987","ios":"levelo://app?vid=54471564-bd33-4455-b850-4f293cdf3987"},"vehicle_type_id":"4","last_reported":1736511439,"current_range_meters":12800,"station_id":"cpo3342slgdg3j2ifvpg","pricing_plan_id":"cebpf4jnsgd1na2vs0mg"},{"bike_id":"8038473f-41bb-4c43-a65c-88becaf0a94d","system_id":"levelo_inurba_marseille","lat":43.32662,"lon":5.41013,"is_reserved":false,"is_disabled":false,"rental_uris":{"android":"levelo://app?vid=8038473f-41bb-4c43-a65c-88becaf0a94d","ios":"levelo://app?vid=8038473f-41bb-4c43-a65c-88becaf0a94d"},"vehicle_type_id":"4","last_reported":1736511439,"current_range_meters":8400,"station_id":"ce4bhpp2rcd13ifvqhgg","pricing_plan_id":"cebpf4jnsgd1na2vs0mg"},{"bike_id":"5ecc8615-e1bd-4d04-8ab0-d6ffe1e2ef8c","system_id":"levelo_inurba_marseille","lat":43.27502,"lon":5.42454,"is_reserved":false,"is_disabled":false,"rental_uris":{"android":"levelo://app?vid=5ecc8615-e1bd-4d04-8ab0-d6ffe1e2ef8c","ios":"levelo://app?vid=5ecc8615-e1bd-4d04-8ab0-d6ffe1e2ef8c"},"vehicle_type_id":"4","last_reported":1736511439,"current_range_meters":16800,"station_id":"ce4bhn92rcd13ifvqgrg","pricing_plan_id":"cebpf4jnsgd1na2vs0mg"},{"bike_id":"37f9d671-8cf0-4f55-b6f8-808ab130e732","system_id":"levelo_inurba_marseille","lat":43.296206,"lon":5.377134,"is_reserved":false,"is_disabled":false,"rental_uris":{"android":"levelo://app?vid=37f9d671-8cf0-4f55-b6f8-808ab130e732","ios":"levelo://app?vid=37f9d671-8cf0-4f55-b6f8-808ab130e732"},"vehicle_type_id":"4","last_reported":1736511439,"current_range_meters":39200,"station_id":"ce4bgi92rcd13ifvqb90","pricing_plan_id":"cebpf4jnsgd1na2vs0mg"},{"bike_id":"c0428676-c11a-41ec-a23f-5a5988828fcb","system_id":"levelo_inurba_marseille","lat":43.26566,"lon":5.39012,"is_reserved":false,"is_disabled":false,"rental_uris":{"android":"levelo://app?vid=c0428676-c11a-41ec-a23f-5a5988828fcb","ios":"levelo://app?vid=c0428676-c11a-41ec-a23f-5a5988828fcb"},"vehicle_type_id":"4","last_reported":1736511439,"current_range_meters":35600,"station_id":"ce4bhe12rcd13ifvqf30","pricing_plan_id":"cebpf4jnsgd1na2vs0mg"},{"bike_id":"2e414a70-54b3-420b-bc06-3746b6491a4b","system_id":"levelo_inurba_marseille","lat":43.24535,"lon":5.39536,"is_reserved":false,"is_disabled":false,"rental_uris":{"android":"levelo://app?vid=2e414a70-54b3-420b-bc06-3746b6491a4b","ios":"levelo://app?vid=2e414a70-54b3-420b-bc06-3746b6491a4b"},"vehicle_type_id":"4","last_reported":1736511439,"current_range_meters":33200,"station_id":"ce4bhlp2rcd13ifvqgjg","pricing_plan_id":"cebpf4jnsgd1na2vs0mg"},{"bike_id":"af0e1ebf-9a76-4056-9bb9-7fbcd789ecdd","system_id":"levelo_inurba_marseille","lat":43.28103,"lon":5.37835,"is_reserved":false,"is_disabled":false,"rental_uris":{"android":"levelo://app?vid=af0e1ebf-9a76-4056-9bb9-7fbcd789ecdd","ios":"levelo://app?vid=af0e1ebf-9a76-4056-9bb9-7fbcd789ecdd"},"vehicle_type_id":"4","last_reported":1736511439,"current_range_meters":14000,"station_id":"ce4bha12rcd13ifvqee0","pricing_plan_id":"cebpf4jnsgd1na2vs0mg"},{"bike_id":"b55e0856-1a4c-4f20-937e-73f4361d81ed","system_id":"levelo_inurba_marseille","lat":43.31165,"lon":5.3872,"is_reserved":false,"is_disabled":false,"rental_uris":{"android":"levelo://app?vid=b55e0856-1a4c-4f20-937e-73f4361d81ed","ios":"levelo://app?vid=b55e0856-1a4c-4f20-937e-73f4361d81ed"},"vehicle_type_id":"4","last_reported":1736511439,"current_range_meters":25200,"station_id":"ce4bgv12rcd13ifvqcp0","pricing_plan_id":"cebpf4jnsgd1na2vs0mg"},{"bike_id":"6927f15e-bcac-445c-8616-81dfd2276d30","system_id":"levelo_inurba_marseille","lat":43.27182,"lon":5.40991,"is_reserved":false,"is_disabled":false,"rental_uris":{"android":"levelo://app?vid=6927f15e-bcac-445c-8616-81dfd2276d30","ios":"levelo://app?vid=6927f15e-bcac-445c-8616-81dfd2276d30"},"vehicle_type_id":"4","last_reported":1736511439,"current_range_meters":38800,"station_id":"ce4bhl12rcd13ifvqgf0","pricing_plan_id":"cebpf4jnsgd1na2vs0mg"},{"bike_id":"315b0a81-0cdc-4bde-b4a3-0c4d420190bc","system_id":"levelo_inurba_marseille","lat":43.27622,"lon":5.36117,"is_reserved":false,"is_disabled":false,"rental_uris":{"android":"levelo://app?vid=315b0a81-0cdc-4bde-b4a3-0c4d420190bc","ios":"levelo://app?vid=315b0a81-0cdc-4bde-b4a3-0c4d420190bc"},"vehicle_type_id":"4","last_reported":1736511439,"current_range_meters":38800,"station_id":"ce4bgj92rcd13ifvqbe0","pricing_plan_id":"cebpf4jnsgd1na2vs0mg"},{"bike_id":"31016978-d0b0-4386-b4de-c93290de99e5","system_id":"levelo_inurba_marseille","lat":43.30546,"lon":5.38432,"is_reserved":false,"is_disabled":false,"rental_uris":{"android":"levelo://app?vid=31016978-d0b0-4386-b4de-c93290de99e5","ios":"levelo://app?vid=31016978-d0b0-4386-b4de-c93290de99e5"},"vehicle_type_id":"4","last_reported":1736511439,"current_range_meters":37600,"station_id":"ce4bgg92rcd13ifvqb30","pricing_plan_id":"cebpf4jnsgd1na2vs0mg"},{"bike_id":"58d55c13-c084-4215-8eba-08eee415768e","system_id":"levelo_inurba_marseille","lat":43.28667,"lon":5.36361,"is_reserved":false,"is_disabled":false,"rental_uris":{"android":"levelo://app?vid=58d55c13-c084-4215-8eba-08eee415768e","ios":"levelo://app?vid=58d55c13-c084-4215-8eba-08eee415768e"},"vehicle_type_id":"4","last_reported":1736511439,"current_range_meters":38800,"station_id":"ce4bhah2rcd13ifvqej0","pricing_plan_id":"cebpf4jnsgd1na2vs0mg"},{"bike_id":"7e225827-041a-42b6-bee9-05b9aaf89e59","system_id":"levelo_inurba_marseille","lat":43.32547,"lon":5.41467,"is_reserved":false,"is_disabled":true,"rental_uris":{"android":"levelo://app?vid=7e225827-041a-42b6-bee9-05b9aaf89e59","ios":"levelo://app?vid=7e225827-041a-42b6-bee9-05b9aaf89e59"},"vehicle_type_id":"4","last_reported":1736511439,"current_range_meters":38800,"station_id":"ce4bhq12rcd13ifvqhhg","pricing_plan_id":"cebpf4jnsgd1na2vs0mg"},{"bike_id":"dab217a0-b2df-4ca9-a812-c80195b1fbf4","system_id":"levelo_inurba_marseille","lat":43.31409,"lon":5.36666,"is_reserved":false,"is_disabled":false,"rental_uris":{"android":"levelo://app?vid=dab217a0-b2df-4ca9-a812-c80195b1fbf4","ios":"levelo://app?vid=dab217a0-b2df-4ca9-a812-c80195b1fbf4"},"vehicle_type_id":"4","last_reported":1736511439,"current_range_meters":38000,"station_id":"ce4bgr92rcd13ifvqc6g","pricing_plan_id":"cebpf4jnsgd1na2vs0mg"},{"bike_id":"d4b9ec52-492e-41b6-8dae-be3aec56cf81","system_id":"levelo_inurba_marseille","lat":43.28609,"lon":5.35107,"is_reserved":false,"is_disabled":false,"rental_uris":{"android":"levelo://app?vid=d4b9ec52-492e-41b6-8dae-be3aec56cf81","ios":"levelo://app?vid=d4b9ec52-492e-41b6-8dae-be3aec56cf81"},"vehicle_type_id":"4","last_reported":1736511439,"current_range_meters":10000,"station_id":"ce4bhch2rcd13ifvqeug","pricing_plan_id":"cebpf4jnsgd1na2vs0mg"},{"bike_id":"c7bc53ab-4672-4599-9629-8976fb594ff4","system_id":"levelo_inurba_marseille","lat":43.28342,"lon":5.38098,"is_reserved":false,"is_disabled":false,"rental_uris":{"android":"levelo://app?vid=c7bc53ab-4672-4599-9629-8976fb594ff4","ios":"levelo://app?vid=c7bc53ab-4672-4599-9629-8976fb594ff4"},"vehicle_type_id":"4","last_reported":1736511439,"current_range_meters":17600,"station_id":"ce4bh412rcd13ifvqdr0","pricing_plan_id":"cebpf4jnsgd1na2vs0mg"},{"bike_id":"37d8e1ef-d932-49d7-b893-49542cf44d13","system_id":"levelo_inurba_marseille","lat":43.32345,"lon":5.40629,"is_reserved":false,"is_disabled":true,"rental_uris":{"android":"levelo://app?vid=37d8e1ef-d932-49d7-b893-49542cf44d13","ios":"levelo://app?vid=37d8e1ef-d932-49d7-b893-49542cf44d13"},"vehicle_type_id":"4","last_reported":1736511439,"current_range_meters":0,"station_id":"ce4bhq92rcd13ifvqhjg","pricing_plan_id":"cebpf4jnsgd1na2vs0mg"},{"bike_id":"458c3d58-e6a5-4d1a-8df2-05d9cb3e0072","system_id":"levelo_inurba_marseille","lat":43.25586,"lon":5.38226,"is_reserved":false,"is_disabled":false,"rental_uris":{"android":"levelo://app?vid=458c3d58-e6a5-4d1a-8df2-05d9cb3e0072","ios":"levelo://app?vid=458c3d58-e6a5-4d1a-8df2-05d9cb3e0072"},"vehicle_type_id":"4","last_reported":1736511439,"current_range_meters":16800,"station_id":"ce4bhih2rcd13ifvqfs0","pricing_plan_id":"cebpf4jnsgd1na2vs0mg"},{"bike_id":"10f7d31a-ef8d-4e8a-acbf-8aa9a8c72143","system_id":"levelo_inurba_marseille","lat":43.24395,"lon":5.37069,"is_reserved":false,"is_disabled":false,"rental_uris":{"android":"levelo://app?vid=10f7d31a-ef8d-4e8a-acbf-8aa9a8c72143","ios":"levelo://app?vid=10f7d31a-ef8d-4e8a-acbf-8aa9a8c72143"},"vehicle_type_id":"4","last_reported":1736511439,"current_range_meters":24000,"station_id":"ce4bhhh2rcd13ifvqfk0","pricing_plan_id":"cebpf4jnsgd1na2vs0mg"},{"bike_id":"ca816353-e256-4b3f-ac97-bb40a263d9a5","system_id":"levelo_inurba_marseille","lat":43.29572,"lon":5.39979,"is_reserved":false,"is_disabled":false,"rental_uris":{"android":"levelo://app?vid=ca816353-e256-4b3f-ac97-bb40a263d9a5","ios":"levelo://app?vid=ca816353-e256-4b3f-ac97-bb40a263d9a5"},"vehicle_type_id":"4","last_reported":1736511439,"current_range_meters":36800,"station_id":"ce4bh312rcd13ifvqdj0","pricing_plan_id":"cebpf4jnsgd1na2vs0mg"},{"bike_id":"edadbfec-104a-4656-8949-30a8add206d8","system_id":"levelo_inurba_marseille","lat":43.28476,"lon":5.38422,"is_reserved":false,"is_disabled":false,"rental_uris":{"android":"levelo://app?vid=edadbfec-104a-4656-8949-30a8add206d8","ios":"levelo://app?vid=edadbfec-104a-4656-8949-30a8add206d8"},"vehicle_type_id":"4","last_reported":1736511439,"current_range_meters":24000,"station_id":"ce4bh512rcd13ifvqe3g","pricing_plan_id":"cebpf4jnsgd1na2vs0mg"},{"bike_id":"a2b8733f-18d3-4c7f-a699-4ad1eee082fe","system_id":"levelo_inurba_marseille","lat":43.31719,"lon":5.42411,"is_reserved":false,"is_disabled":false,"rental_uris":{"android":"levelo://app?vid=a2b8733f-18d3-4c7f-a699-4ad1eee082fe","ios":"levelo://app?vid=a2b8733f-18d3-4c7f-a699-4ad1eee082fe"},"vehicle_type_id":"4","last_reported":1736511439,"current_range_meters":38400,"station_id":"ce4bhp92rcd13ifvqhbg","pricing_plan_id":"cebpf4jnsgd1na2vs0mg"},{"bike_id":"96f09216-8806-4f0e-908d-6ebe96172e03","system_id":"levelo_inurba_marseille","lat":43.27983,"lon":5.41662,"is_reserved":false,"is_disabled":false,"rental_uris":{"android":"levelo://app?vid=96f09216-8806-4f0e-908d-6ebe96172e03","ios":"levelo://app?vid=96f09216-8806-4f0e-908d-6ebe96172e03"},"vehicle_type_id":"4","last_reported":1736511439,"current_range_meters":6400,"station_id":"ce4bho12rcd13ifvqh1g","pricing_plan_id":"cebpf4jnsgd1na2vs0mg"},{"bike_id":"48d3a5fe-85eb-4e25-b8f3-7c02f80bbef0","system_id":"levelo_inurba_marseille","lat":43.29619,"lon":5.3772,"is_reserved":false,"is_disabled":false,"rental_uris":{"android":"levelo://app?vid=48d3a5fe-85eb-4e25-b8f3-7c02f80bbef0","ios":"levelo://app?vid=48d3a5fe-85eb-4e25-b8f3-7c02f80bbef0"},"vehicle_type_id":"4","last_reported":1736511439,"current_range_meters":30800,"station_id":"ce4bgi92rcd13ifvqb90","pricing_plan_id":"cebpf4jnsgd1na2vs0mg"},{"bike_id":"5fd2a075-2c76-4c65-b6f5-ba5c1cec79e3","system_id":"levelo_inurba_marseille","lat":43.3061,"lon":5.37243,"is_reserved":false,"is_disabled":false,"rental_uris":{"android":"levelo://app?vid=5fd2a075-2c76-4c65-b6f5-ba5c1cec79e3","ios":"levelo://app?vid=5fd2a075-2c76-4c65-b6f5-ba5c1cec79e3"},"vehicle_type_id":"4","last_reported":1736511439,"current_range_meters":27600,"station_id":"ce4bgqh2rcd13ifvqc4g","pricing_plan_id":"cebpf4jnsgd1na2vs0mg"},{"bike_id":"f580c3d3-f413-41d1-bd47-672206e4759f","system_id":"levelo_inurba_marseille","lat":43.27815,"lon":5.40716,"is_reserved":false,"is_disabled":false,"rental_uris":{"android":"levelo://app?vid=f580c3d3-f413-41d1-bd47-672206e4759f","ios":"levelo://app?vid=f580c3d3-f413-41d1-bd47-672206e4759f"},"vehicle_type_id":"4","last_reported":1736511439,"current_range_meters":24400,"station_id":"ce4bhnh2rcd13ifvqgtg","pricing_plan_id":"cebpf4jnsgd1na2vs0mg"},{"bike_id":"c150f8af-fc8f-4eb5-ac98-0b06dadf4ce0","system_id":"levelo_inurba_marseille","lat":43.2558,"lon":5.38241,"is_reserved":false,"is_disabled":false,"rental_uris":{"android":"levelo://app?vid=c150f8af-fc8f-4eb5-ac98-0b06dadf4ce0","ios":"levelo://app?vid=c150f8af-fc8f-4eb5-ac98-0b06dadf4ce0"},"vehicle_type_id":"4","last_reported":1736511439,"current_range_meters":33600,"station_id":"ce4bhih2rcd13ifvqfs0","pricing_plan_id":"cebpf4jnsgd1na2vs0mg"},{"bike_id":"ff45e7b0-f7ac-4438-a41c-45b74df8aef7","system_id":"levelo_inurba_marseille","lat":43.28885,"lon":5.39319,"is_reserved":false,"is_disabled":false,"rental_uris":{"android":"levelo://app?vid=ff45e7b0-f7ac-4438-a41c-45b74df8aef7","ios":"levelo://app?vid=ff45e7b0-f7ac-4438-a41c-45b74df8aef7"},"vehicle_type_id":"4","last_reported":1736511439,"current_range_meters":22800,"station_id":"ce4bh2p2rcd13ifvqdi0","pricing_plan_id":"cebpf4jnsgd1na2vs0mg"},{"bike_id":"80e6d864-209b-44fb-bebb-aeae347160a6","system_id":"levelo_inurba_marseille","lat":43.24066,"lon":5.3777,"is_reserved":false,"is_disabled":false,"rental_uris":{"android":"levelo://app?vid=80e6d864-209b-44fb-bebb-aeae347160a6","ios":"levelo://app?vid=80e6d864-209b-44fb-bebb-aeae347160a6"},"vehicle_type_id":"4","last_reported":1736511439,"current_range_meters":24000,"station_id":"ce4bhnp2rcd13ifvqgvg","pricing_plan_id":"cebpf4jnsgd1na2vs0mg"},{"bike_id":"b9eae0bb-8010-4eb9-90f8-e9011b9a4c76","system_id":"levelo_inurba_marseille","lat":43.33759,"lon":5.37459,"is_reserved":false,"is_disabled":false,"rental_uris":{"android":"levelo://app?vid=b9eae0bb-8010-4eb9-90f8-e9011b9a4c76","ios":"levelo://app?vid=b9eae0bb-8010-4eb9-90f8-e9011b9a4c76"},"vehicle_type_id":"4","last_reported":1736511439,"current_range_meters":38800,"station_id":"","pricing_plan_id":"cebpf4jnsgd1na2vs0mg"},{"bike_id":"2054ef6b-8b90-4aee-ad09-cd0ae8b708c7","system_id":"levelo_inurba_marseille","lat":43.31713,"lon":5.43708,"is_reserved":false,"is_disabled":false,"rental_uris":{"android":"levelo://app?vid=2054ef6b-8b90-4aee-ad09-cd0ae8b708c7","ios":"levelo://app?vid=2054ef6b-8b90-4aee-ad09-cd0ae8b708c7"},"vehicle_type_id":"4","last_reported":1736511439,"current_range_meters":18000,"station_id":"ce4bhp92rcd13ifvqhcg","pricing_plan_id":"cebpf4jnsgd1na2vs0mg"},{"bike_id":"30e9f014-0a6e-4b5f-a4b7-873d8aefd349","system_id":"levelo_inurba_marseille","lat":43.31108,"lon":5.37811,"is_reserved":false,"is_disabled":false,"rental_uris":{"android":"levelo://app?vid=30e9f014-0a6e-4b5f-a4b7-873d8aefd349","ios":"levelo://app?vid=30e9f014-0a6e-4b5f-a4b7-873d8aefd349"},"vehicle_type_id":"4","last_reported":1736511439,"current_range_meters":17200,"station_id":"","pricing_plan_id":"cebpf4jnsgd1na2vs0mg"},{"bike_id":"60ce1b70-e47d-4caf-abee-52e7d5bfe299","system_id":"levelo_inurba_marseille","lat":43.24649,"lon":5.38895,"is_reserved":false,"is_disabled":false,"rental_uris":{"android":"levelo://app?vid=60ce1b70-e47d-4caf-abee-52e7d5bfe299","ios":"levelo://app?vid=60ce1b70-e47d-4caf-abee-52e7d5bfe299"},"vehicle_type_id":"4","last_reported":1736511439,"current_range_meters":35200,"station_id":"ce4bhg12rcd13ifvqf60","pricing_plan_id":"cebpf4jnsgd1na2vs0mg"},{"bike_id":"ca3c1cd5-d73b-4d51-add1-a7369ed13f44","system_id":"levelo_inurba_marseille","lat":43.23969,"lon":5.36642,"is_reserved":false,"is_disabled":false,"rental_uris":{"android":"levelo://app?vid=ca3c1cd5-d73b-4d51-add1-a7369ed13f44","ios":"levelo://app?vid=ca3c1cd5-d73b-4d51-add1-a7369ed13f44"},"vehicle_type_id":"4","last_reported":1736511439,"current_range_meters":32400,"station_id":"ce4bhi12rcd13ifvqfp0","pricing_plan_id":"cebpf4jnsgd1na2vs0mg"},{"bike_id":"408554f9-e938-4c8d-b712-51774be7b111","system_id":"levelo_inurba_marseille","lat":43.30557,"lon":5.36561,"is_reserved":false,"is_disabled":false,"rental_uris":{"android":"levelo://app?vid=408554f9-e938-4c8d-b712-51774be7b111","ios":"levelo://app?vid=408554f9-e938-4c8d-b712-51774be7b111"},"vehicle_type_id":"4","last_reported":1736511439,"current_range_meters":38800,"station_id":"ce4bgs12rcd13ifvqcag","pricing_plan_id":"cebpf4jnsgd1na2vs0mg"},{"bike_id":"67e77517-b1de-49d0-8227-b576cf2cff6e","system_id":"levelo_inurba_marseille","lat":43.28155,"lon":5.42648,"is_reserved":false,"is_disabled":false,"rental_uris":{"android":"levelo://app?vid=67e77517-b1de-49d0-8227-b576cf2cff6e","ios":"levelo://app?vid=67e77517-b1de-49d0-8227-b576cf2cff6e"},"vehicle_type_id":"4","last_reported":1736511439,"current_range_meters":24000,"station_id":"ce4bhnh2rcd13ifvqgug","pricing_plan_id":"cebpf4jnsgd1na2vs0mg"},{"bike_id":"c7f56a86-ef75-45f8-8134-46d816d7f56e","system_id":"levelo_inurba_marseille","lat":43.28346,"lon":5.38111,"is_reserved":false,"is_disabled":false,"rental_uris":{"android":"levelo://app?vid=c7f56a86-ef75-45f8-8134-46d816d7f56e","ios":"levelo://app?vid=c7f56a86-ef75-45f8-8134-46d816d7f56e"},"vehicle_type_id":"4","last_reported":1736511439,"current_range_meters":33200,"station_id":"ce4bh412rcd13ifvqdr0","pricing_plan_id":"cebpf4jnsgd1na2vs0mg"},{"bike_id":"48998462-e2fe-4046-8dbf-a3db091ad704","system_id":"levelo_inurba_marseille","lat":43.25582,"lon":5.38233,"is_reserved":false,"is_disabled":false,"rental_uris":{"android":"levelo://app?vid=48998462-e2fe-4046-8dbf-a3db091ad704","ios":"levelo://app?vid=48998462-e2fe-4046-8dbf-a3db091ad704"},"vehicle_type_id":"4","last_reported":1736511439,"current_range_meters":24000,"station_id":"ce4bhih2rcd13ifvqfs0","pricing_plan_id":"cebpf4jnsgd1na2vs0mg"},{"bike_id":"cad4a6a5-5208-47dd-a17d-ca38efa63f22","system_id":"levelo_inurba_marseille","lat":43.31066,"lon":5.38339,"is_reserved":false,"is_disabled":true,"rental_uris":{"android":"levelo://app?vid=cad4a6a5-5208-47dd-a17d-ca38efa63f22","ios":"levelo://app?vid=cad4a6a5-5208-47dd-a17d-ca38efa63f22"},"vehicle_type_id":"4","last_reported":1736511439,"current_range_meters":26000,"station_id":"ce4bgv92rcd13ifvqcr0","pricing_plan_id":"cebpf4jnsgd1na2vs0mg"},{"bike_id":"59680959-993e-49d5-827b-d5b17bfefc71","system_id":"levelo_inurba_marseille","lat":43.27839,"lon":5.39206,"is_reserved":false,"is_disabled":true,"rental_uris":{"android":"levelo://app?vid=59680959-993e-49d5-827b-d5b17bfefc71","ios":"levelo://app?vid=59680959-993e-49d5-827b-d5b17bfefc71"},"vehicle_type_id":"4","last_reported":1736511439,"current_range_meters":0,"station_id":"ce4bhjp2rcd13ifvqga0","pricing_plan_id":"cebpf4jnsgd1na2vs0mg"},{"bike_id":"7b521ce6-875a-4cbb-9fae-a6ba6a0ba13b","system_id":"levelo_inurba_marseille","lat":43.28152,"lon":5.42646,"is_reserved":false,"is_disabled":false,"rental_uris":{"android":"levelo://app?vid=7b521ce6-875a-4cbb-9fae-a6ba6a0ba13b","ios":"levelo://app?vid=7b521ce6-875a-4cbb-9fae-a6ba6a0ba13b"},"vehicle_type_id":"4","last_reported":1736511439,"current_range_meters":37600,"station_id":"ce4bhnh2rcd13ifvqgug","pricing_plan_id":"cebpf4jnsgd1na2vs0mg"},{"bike_id":"04c144bb-885d-4367-8bc8-e2ccfca26ca3","system_id":"levelo_inurba_marseille","lat":43.31334,"lon":5.39702,"is_reserved":false,"is_disabled":true,"rental_uris":{"android":"levelo://app?vid=04c144bb-885d-4367-8bc8-e2ccfca26ca3","ios":"levelo://app?vid=04c144bb-885d-4367-8bc8-e2ccfca26ca3"},"vehicle_type_id":"4","last_reported":1736511439,"current_range_meters":26000,"station_id":"ce4bgvp2rcd13ifvqcu0","pricing_plan_id":"cebpf4jnsgd1na2vs0mg"},{"bike_id":"fc1057d4-90a1-4917-8219-50abd6b84da3","system_id":"levelo_inurba_marseille","lat":43.32114,"lon":5.367808,"is_reserved":false,"is_disabled":false,"rental_uris":{"android":"levelo://app?vid=fc1057d4-90a1-4917-8219-50abd6b84da3","ios":"levelo://app?vid=fc1057d4-90a1-4917-8219-50abd6b84da3"},"vehicle_type_id":"4","last_reported":1736511439,"current_range_meters":23200,"station_id":"ce4bhrh2rcd13ifvqhug","pricing_plan_id":"cebpf4jnsgd1na2vs0mg"},{"bike_id":"f03ff58f-d6d7-49cd-85c4-5e481c7878fa","system_id":"levelo_inurba_marseille","lat":43.28493,"lon":5.38411,"is_reserved":false,"is_disabled":true,"rental_uris":{"android":"levelo://app?vid=f03ff58f-d6d7-49cd-85c4-5e481c7878fa","ios":"levelo://app?vid=f03ff58f-d6d7-49cd-85c4-5e481c7878fa"},"vehicle_type_id":"4","last_reported":1736511439,"current_range_meters":38800,"station_id":"ce4bh512rcd13ifvqe3g","pricing_plan_id":"cebpf4jnsgd1na2vs0mg"},{"bike_id":"aa637afa-5dab-4e4f-a5b1-a846e41a59b6","system_id":"levelo_inurba_marseille","lat":43.24097,"lon":5.37741,"is_reserved":false,"is_disabled":false,"rental_uris":{"android":"levelo://app?vid=aa637afa-5dab-4e4f-a5b1-a846e41a59b6","ios":"levelo://app?vid=aa637afa-5dab-4e4f-a5b1-a846e41a59b6"},"vehicle_type_id":"4","last_reported":1736511439,"current_range_meters":38800,"station_id":"ce4bhnp2rcd13ifvqgvg","pricing_plan_id":"cebpf4jnsgd1na2vs0mg"},{"bike_id":"9936dd48-dc8c-4650-b545-8ea56f90f610","system_id":"levelo_inurba_marseille","lat":43.31707,"lon":5.37743,"is_reserved":false,"is_disabled":false,"rental_uris":{"android":"levelo://app?vid=9936dd48-dc8c-4650-b545-8ea56f90f610","ios":"levelo://app?vid=9936dd48-dc8c-4650-b545-8ea56f90f610"},"vehicle_type_id":"4","last_reported":1736511439,"current_range_meters":30000,"station_id":"ce4bgth2rcd13ifvqch0","pricing_plan_id":"cebpf4jnsgd1na2vs0mg"},{"bike_id":"7475f743-fa68-4b23-ab37-60e01b01184f","system_id":"levelo_inurba_marseille","lat":43.32113,"lon":5.3678,"is_reserved":false,"is_disabled":false,"rental_uris":{"android":"levelo://app?vid=7475f743-fa68-4b23-ab37-60e01b01184f","ios":"levelo://app?vid=7475f743-fa68-4b23-ab37-60e01b01184f"},"vehicle_type_id":"4","last_reported":1736511439,"current_range_meters":32000,"station_id":"ce4bhrh2rcd13ifvqhug","pricing_plan_id":"cebpf4jnsgd1na2vs0mg"},{"bike_id":"6da1441d-65d3-4090-8dfd-7cec4713998c","system_id":"levelo_inurba_marseille","lat":43.29045,"lon":5.39968,"is_reserved":false,"is_disabled":false,"rental_uris":{"android":"levelo://app?vid=6da1441d-65d3-4090-8dfd-7cec4713998c","ios":"levelo://app?vid=6da1441d-65d3-4090-8dfd-7cec4713998c"},"vehicle_type_id":"4","last_reported":1736511439,"current_range_meters":36400,"station_id":"ce4bh392rcd13ifvqdm0","pricing_plan_id":"cebpf4jnsgd1na2vs0mg"},{"bike_id":"39e8b8db-a45b-47ac-924f-708d2b3bef9a","system_id":"levelo_inurba_marseille","lat":43.28623,"lon":5.35103,"is_reserved":false,"is_disabled":false,"rental_uris":{"android":"levelo://app?vid=39e8b8db-a45b-47ac-924f-708d2b3bef9a","ios":"levelo://app?vid=39e8b8db-a45b-47ac-924f-708d2b3bef9a"},"vehicle_type_id":"4","last_reported":1736511439,"current_range_meters":18800,"station_id":"ce4bhch2rcd13ifvqeug","pricing_plan_id":"cebpf4jnsgd1na2vs0mg"},{"bike_id":"4e415297-1651-4007-b5da-4923f3ed2b98","system_id":"levelo_inurba_marseille","lat":43.30186,"lon":5.38137,"is_reserved":false,"is_disabled":false,"rental_uris":{"android":"levelo://app?vid=4e415297-1651-4007-b5da-4923f3ed2b98","ios":"levelo://app?vid=4e415297-1651-4007-b5da-4923f3ed2b98"},"vehicle_type_id":"4","last_reported":1736511439,"current_range_meters":25600,"station_id":"","pricing_plan_id":"cebpf4jnsgd1na2vs0mg"},{"bike_id":"ea0bdbe7-6a15-4f0f-be61-80a25085303f","system_id":"levelo_inurba_marseille","lat":43.32661,"lon":5.40993,"is_reserved":false,"is_disabled":false,"rental_uris":{"android":"levelo://app?vid=ea0bdbe7-6a15-4f0f-be61-80a25085303f","ios":"levelo://app?vid=ea0bdbe7-6a15-4f0f-be61-80a25085303f"},"vehicle_type_id":"4","last_reported":1736511439,"current_range_meters":38400,"station_id":"ce4bhpp2rcd13ifvqhgg","pricing_plan_id":"cebpf4jnsgd1na2vs0mg"},{"bike_id":"3d97d3e0-d45c-47c2-9a56-3b2182dc5b15","system_id":"levelo_inurba_marseille","lat":43.27967,"lon":5.38737,"is_reserved":false,"is_disabled":true,"rental_uris":{"android":"levelo://app?vid=3d97d3e0-d45c-47c2-9a56-3b2182dc5b15","ios":"levelo://app?vid=3d97d3e0-d45c-47c2-9a56-3b2182dc5b15"},"vehicle_type_id":"4","last_reported":1736511439,"current_range_meters":0,"station_id":"ce4bhg12rcd13ifvqf80","pricing_plan_id":"cebpf4jnsgd1na2vs0mg"},{"bike_id":"d8b37533-1e4f-475e-837e-47479c1d586f","system_id":"levelo_inurba_marseille","lat":43.23152,"lon":5.43716,"is_reserved":false,"is_disabled":false,"rental_uris":{"android":"levelo://app?vid=d8b37533-1e4f-475e-837e-47479c1d586f","ios":"levelo://app?vid=d8b37533-1e4f-475e-837e-47479c1d586f"},"vehicle_type_id":"4","last_reported":1736511439,"current_range_meters":28800,"station_id":"ce4bhmp2rcd13ifvqgog","pricing_plan_id":"cebpf4jnsgd1na2vs0mg"},{"bike_id":"985c7c77-08a0-42dd-bf21-77633d295e62","system_id":"levelo_inurba_marseille","lat":43.2781,"lon":5.40707,"is_reserved":false,"is_disabled":false,"rental_uris":{"android":"levelo://app?vid=985c7c77-08a0-42dd-bf21-77633d295e62","ios":"levelo://app?vid=985c7c77-08a0-42dd-bf21-77633d295e62"},"vehicle_type_id":"4","last_reported":1736511439,"current_range_meters":38800,"station_id":"ce4bhnh2rcd13ifvqgtg","pricing_plan_id":"cebpf4jnsgd1na2vs0mg"},{"bike_id":"2eb264c8-1e8d-4f17-a831-3cda07857865","system_id":"levelo_inurba_marseille","lat":43.32112,"lon":5.36773,"is_reserved":false,"is_disabled":false,"rental_uris":{"android":"levelo://app?vid=2eb264c8-1e8d-4f17-a831-3cda07857865","ios":"levelo://app?vid=2eb264c8-1e8d-4f17-a831-3cda07857865"},"vehicle_type_id":"4","last_reported":1736511439,"current_range_meters":35200,"station_id":"ce4bhrh2rcd13ifvqhug","pricing_plan_id":"cebpf4jnsgd1na2vs0mg"},{"bike_id":"6c73134e-c658-49a4-bbd7-9746d8c3ffeb","system_id":"levelo_inurba_marseille","lat":43.27182,"lon":5.40989,"is_reserved":false,"is_disabled":false,"rental_uris":{"android":"levelo://app?vid=6c73134e-c658-49a4-bbd7-9746d8c3ffeb","ios":"levelo://app?vid=6c73134e-c658-49a4-bbd7-9746d8c3ffeb"},"vehicle_type_id":"4","last_reported":1736511439,"current_range_meters":39200,"station_id":"ce4bhl12rcd13ifvqgf0","pricing_plan_id":"cebpf4jnsgd1na2vs0mg"},{"bike_id":"b4e0bd20-a2e6-4de4-88c5-a15032bffd77","system_id":"levelo_inurba_marseille","lat":43.27984,"lon":5.38713,"is_reserved":false,"is_disabled":false,"rental_uris":{"android":"levelo://app?vid=b4e0bd20-a2e6-4de4-88c5-a15032bffd77","ios":"levelo://app?vid=b4e0bd20-a2e6-4de4-88c5-a15032bffd77"},"vehicle_type_id":"4","last_reported":1736511439,"current_range_meters":38800,"station_id":"ce4bhg12rcd13ifvqf80","pricing_plan_id":"cebpf4jnsgd1na2vs0mg"},{"bike_id":"1e2223a2-c032-49e7-8dbf-982df86a0520","system_id":"levelo_inurba_marseille","lat":43.22933,"lon":5.3538,"is_reserved":false,"is_disabled":false,"rental_uris":{"android":"levelo://app?vid=1e2223a2-c032-49e7-8dbf-982df86a0520","ios":"levelo://app?vid=1e2223a2-c032-49e7-8dbf-982df86a0520"},"vehicle_type_id":"4","last_reported":1736511439,"current_range_meters":32400,"station_id":"cpo3532slgdg3j2ikp40","pricing_plan_id":"cebpf4jnsgd1na2vs0mg"},{"bike_id":"145cfbb0-a64d-4e6e-9f48-a8948b305dc3","system_id":"levelo_inurba_marseille","lat":43.3056,"lon":5.36539,"is_reserved":false,"is_disabled":false,"rental_uris":{"android":"levelo://app?vid=145cfbb0-a64d-4e6e-9f48-a8948b305dc3","ios":"levelo://app?vid=145cfbb0-a64d-4e6e-9f48-a8948b305dc3"},"vehicle_type_id":"4","last_reported":1736511439,"current_range_meters":30400,"station_id":"ce4bgs12rcd13ifvqcag","pricing_plan_id":"cebpf4jnsgd1na2vs0mg"},{"bike_id":"816c2567-570f-4dea-94a5-cee630be949a","system_id":"levelo_inurba_marseille","lat":43.25577,"lon":5.38227,"is_reserved":false,"is_disabled":true,"rental_uris":{"android":"levelo://app?vid=816c2567-570f-4dea-94a5-cee630be949a","ios":"levelo://app?vid=816c2567-570f-4dea-94a5-cee630be949a"},"vehicle_type_id":"4","last_reported":1736511439,"current_range_meters":37600,"station_id":"ce4bhih2rcd13ifvqfs0","pricing_plan_id":"cebpf4jnsgd1na2vs0mg"},{"bike_id":"be8a233f-ad85-41b2-af03-bfa1e3033438","system_id":"levelo_inurba_marseille","lat":43.23198,"lon":5.3555,"is_reserved":false,"is_disabled":false,"rental_uris":{"android":"levelo://app?vid=be8a233f-ad85-41b2-af03-bfa1e3033438","ios":"levelo://app?vid=be8a233f-ad85-41b2-af03-bfa1e3033438"},"vehicle_type_id":"4","last_reported":1736511439,"current_range_meters":24800,"station_id":"ce4bhu92rcd13ifvqi70","pricing_plan_id":"cebpf4jnsgd1na2vs0mg"},{"bike_id":"d7284d59-0fa0-4e55-88c3-9102035d8a99","system_id":"levelo_inurba_marseille","lat":43.30245,"lon":5.40071,"is_reserved":false,"is_disabled":true,"rental_uris":{"android":"levelo://app?vid=d7284d59-0fa0-4e55-88c3-9102035d8a99","ios":"levelo://app?vid=d7284d59-0fa0-4e55-88c3-9102035d8a99"},"vehicle_type_id":"4","last_reported":1736511439,"current_range_meters":17200,"station_id":"ce4bgvh2rcd13ifvqcs0","pricing_plan_id":"cebpf4jnsgd1na2vs0mg"},{"bike_id":"0bdeb971-ad4a-4345-aca1-ced646282b0d","system_id":"levelo_inurba_marseille","lat":43.31373,"lon":5.38509,"is_reserved":false,"is_disabled":false,"rental_uris":{"android":"levelo://app?vid=0bdeb971-ad4a-4345-aca1-ced646282b0d","ios":"levelo://app?vid=0bdeb971-ad4a-4345-aca1-ced646282b0d"},"vehicle_type_id":"4","last_reported":1736511439,"current_range_meters":36400,"station_id":"ce4bgt92rcd13ifvqcf0","pricing_plan_id":"cebpf4jnsgd1na2vs0mg"},{"bike_id":"e855948e-cd89-4529-9045-87f440aafc90","system_id":"levelo_inurba_marseille","lat":43.29253,"lon":5.40911,"is_reserved":false,"is_disabled":false,"rental_uris":{"android":"levelo://app?vid=e855948e-cd89-4529-9045-87f440aafc90","ios":"levelo://app?vid=e855948e-cd89-4529-9045-87f440aafc90"},"vehicle_type_id":"4","last_reported":1736511439,"current_range_meters":20000,"station_id":"ce4bh192rcd13ifvqdc0","pricing_plan_id":"cebpf4jnsgd1na2vs0mg"},{"bike_id":"e5854bd3-0b92-4cbe-b4aa-3e77ea72a10b","system_id":"levelo_inurba_marseille","lat":43.31054,"lon":5.38347,"is_reserved":false,"is_disabled":false,"rental_uris":{"android":"levelo://app?vid=e5854bd3-0b92-4cbe-b4aa-3e77ea72a10b","ios":"levelo://app?vid=e5854bd3-0b92-4cbe-b4aa-3e77ea72a10b"},"vehicle_type_id":"4","last_reported":1736511439,"current_range_meters":36400,"station_id":"ce4bgv92rcd13ifvqcr0","pricing_plan_id":"cebpf4jnsgd1na2vs0mg"},{"bike_id":"3d457ffa-1e9f-48b9-93db-22215008928f","system_id":"levelo_inurba_marseille","lat":43.31346,"lon":5.37067,"is_reserved":false,"is_disabled":true,"rental_uris":{"android":"levelo://app?vid=3d457ffa-1e9f-48b9-93db-22215008928f","ios":"levelo://app?vid=3d457ffa-1e9f-48b9-93db-22215008928f"},"vehicle_type_id":"4","last_reported":1736511439,"current_range_meters":32000,"station_id":"","pricing_plan_id":"cebpf4jnsgd1na2vs0mg"},{"bike_id":"7c6b4ab8-094c-4fb3-b826-f64ede01dc18","system_id":"levelo_inurba_marseille","lat":43.29317,"lon":5.37168,"is_reserved":false,"is_disabled":false,"rental_uris":{"android":"levelo://app?vid=7c6b4ab8-094c-4fb3-b826-f64ede01dc18","ios":"levelo://app?vid=7c6b4ab8-094c-4fb3-b826-f64ede01dc18"},"vehicle_type_id":"4","last_reported":1736511439,"current_range_meters":30400,"station_id":"ce4bgh92rcd13ifvqb40","pricing_plan_id":"cebpf4jnsgd1na2vs0mg"},{"bike_id":"42493c24-1fba-4001-a0b3-0c52e38f703b","system_id":"levelo_inurba_marseille","lat":43.26808,"lon":5.40272,"is_reserved":false,"is_disabled":false,"rental_uris":{"android":"levelo://app?vid=42493c24-1fba-4001-a0b3-0c52e38f703b","ios":"levelo://app?vid=42493c24-1fba-4001-a0b3-0c52e38f703b"},"vehicle_type_id":"4","last_reported":1736511439,"current_range_meters":20000,"station_id":"ce501612rcd8frsf0b60","pricing_plan_id":"cebpf4jnsgd1na2vs0mg"},{"bike_id":"4420f604-31b1-4342-852b-728b56ca993d","system_id":"levelo_inurba_marseille","lat":43.2749,"lon":5.42467,"is_reserved":false,"is_disabled":false,"rental_uris":{"android":"levelo://app?vid=4420f604-31b1-4342-852b-728b56ca993d","ios":"levelo://app?vid=4420f604-31b1-4342-852b-728b56ca993d"},"vehicle_type_id":"4","last_reported":1736511439,"current_range_meters":9200,"station_id":"ce4bhn92rcd13ifvqgrg","pricing_plan_id":"cebpf4jnsgd1na2vs0mg"},{"bike_id":"0751221b-37bf-4486-a78f-e3467767c553","system_id":"levelo_inurba_marseille","lat":43.25567,"lon":5.38247,"is_reserved":false,"is_disabled":false,"rental_uris":{"android":"levelo://app?vid=0751221b-37bf-4486-a78f-e3467767c553","ios":"levelo://app?vid=0751221b-37bf-4486-a78f-e3467767c553"},"vehicle_type_id":"4","last_reported":1736511439,"current_range_meters":37600,"station_id":"ce4bhih2rcd13ifvqfs0","pricing_plan_id":"cebpf4jnsgd1na2vs0mg"},{"bike_id":"ce2cca2d-f10c-4078-a6c6-e3331fe38940","system_id":"levelo_inurba_marseille","lat":43.30114,"lon":5.38789,"is_reserved":false,"is_disabled":true,"rental_uris":{"android":"levelo://app?vid=ce2cca2d-f10c-4078-a6c6-e3331fe38940","ios":"levelo://app?vid=ce2cca2d-f10c-4078-a6c6-e3331fe38940"},"vehicle_type_id":"4","last_reported":1736511439,"current_range_meters":38000,"station_id":"ce4bghh2rcd13ifvqb60","pricing_plan_id":"cebpf4jnsgd1na2vs0mg"},{"bike_id":"dc574cad-e78d-4999-a6a3-465558435f2f","system_id":"levelo_inurba_marseille","lat":43.26958,"lon":5.38641,"is_reserved":false,"is_disabled":false,"rental_uris":{"android":"levelo://app?vid=dc574cad-e78d-4999-a6a3-465558435f2f","ios":"levelo://app?vid=dc574cad-e78d-4999-a6a3-465558435f2f"},"vehicle_type_id":"4","last_reported":1736511439,"current_range_meters":36800,"station_id":"ce4bhh92rcd13ifvqfh0","pricing_plan_id":"cebpf4jnsgd1na2vs0mg"},{"bike_id":"fc9288ed-9da0-4c7f-9aba-d64070cdbf51","system_id":"levelo_inurba_marseille","lat":43.23151,"lon":5.4371,"is_reserved":false,"is_disabled":false,"rental_uris":{"android":"levelo://app?vid=fc9288ed-9da0-4c7f-9aba-d64070cdbf51","ios":"levelo://app?vid=fc9288ed-9da0-4c7f-9aba-d64070cdbf51"},"vehicle_type_id":"4","last_reported":1736511439,"current_range_meters":37600,"station_id":"ce4bhmp2rcd13ifvqgog","pricing_plan_id":"cebpf4jnsgd1na2vs0mg"},{"bike_id":"950b9615-1315-406c-b0f7-3ddb461b09c3","system_id":"levelo_inurba_marseille","lat":43.26561,"lon":5.37286,"is_reserved":false,"is_disabled":false,"rental_uris":{"android":"levelo://app?vid=950b9615-1315-406c-b0f7-3ddb461b09c3","ios":"levelo://app?vid=950b9615-1315-406c-b0f7-3ddb461b09c3"},"vehicle_type_id":"4","last_reported":1736511439,"current_range_meters":18800,"station_id":"ce4bhg12rcd13ifvqf70","pricing_plan_id":"cebpf4jnsgd1na2vs0mg"},{"bike_id":"ad28bd53-1c8c-44ea-9a1c-1e5a5b2498fe","system_id":"levelo_inurba_marseille","lat":43.2417,"lon":5.36398,"is_reserved":false,"is_disabled":false,"rental_uris":{"android":"levelo://app?vid=ad28bd53-1c8c-44ea-9a1c-1e5a5b2498fe","ios":"levelo://app?vid=ad28bd53-1c8c-44ea-9a1c-1e5a5b2498fe"},"vehicle_type_id":"4","last_reported":1736511439,"current_range_meters":10000,"station_id":"cpo36qri1sfpv3e86is0","pricing_plan_id":"cebpf4jnsgd1na2vs0mg"},{"bike_id":"36e63bb0-e819-4f2e-b051-513a78efe4e5","system_id":"levelo_inurba_marseille","lat":43.28151,"lon":5.42651,"is_reserved":false,"is_disabled":false,"rental_uris":{"android":"levelo://app?vid=36e63bb0-e819-4f2e-b051-513a78efe4e5","ios":"levelo://app?vid=36e63bb0-e819-4f2e-b051-513a78efe4e5"},"vehicle_type_id":"4","last_reported":1736511439,"current_range_meters":33600,"station_id":"ce4bhnh2rcd13ifvqgug","pricing_plan_id":"cebpf4jnsgd1na2vs0mg"},{"bike_id":"ed5f8f9c-24db-4495-ba73-b7cea4b154a2","system_id":"levelo_inurba_marseille","lat":43.24087,"lon":5.37746,"is_reserved":false,"is_disabled":true,"rental_uris":{"android":"levelo://app?vid=ed5f8f9c-24db-4495-ba73-b7cea4b154a2","ios":"levelo://app?vid=ed5f8f9c-24db-4495-ba73-b7cea4b154a2"},"vehicle_type_id":"4","last_reported":1736511439,"current_range_meters":38800,"station_id":"ce4bhnp2rcd13ifvqgvg","pricing_plan_id":"cebpf4jnsgd1na2vs0mg"},{"bike_id":"a25ca04d-6d9e-4ed1-bda3-27eb64313b13","system_id":"levelo_inurba_marseille","lat":43.30894,"lon":5.37187,"is_reserved":false,"is_disabled":false,"rental_uris":{"android":"levelo://app?vid=a25ca04d-6d9e-4ed1-bda3-27eb64313b13","ios":"levelo://app?vid=a25ca04d-6d9e-4ed1-bda3-27eb64313b13"},"vehicle_type_id":"4","last_reported":1736511439,"current_range_meters":38800,"station_id":"ce4bguh2rcd13ifvqckg","pricing_plan_id":"cebpf4jnsgd1na2vs0mg"},{"bike_id":"06bc23f9-1449-4ecb-8815-1bd5e784d3da","system_id":"levelo_inurba_marseille","lat":43.3016,"lon":5.3808,"is_reserved":false,"is_disabled":false,"rental_uris":{"android":"levelo://app?vid=06bc23f9-1449-4ecb-8815-1bd5e784d3da","ios":"levelo://app?vid=06bc23f9-1449-4ecb-8815-1bd5e784d3da"},"vehicle_type_id":"4","last_reported":1736511439,"current_range_meters":38800,"station_id":"ce4bgjp2rcd13ifvqbh0","pricing_plan_id":"cebpf4jnsgd1na2vs0mg"},{"bike_id":"e3dc1723-c304-42fb-b1ea-ebc3611aa765","system_id":"levelo_inurba_marseille","lat":43.25932,"lon":5.40909,"is_reserved":false,"is_disabled":false,"rental_uris":{"android":"levelo://app?vid=e3dc1723-c304-42fb-b1ea-ebc3611aa765","ios":"levelo://app?vid=e3dc1723-c304-42fb-b1ea-ebc3611aa765"},"vehicle_type_id":"4","last_reported":1736511439,"current_range_meters":38400,"station_id":"ce4bhm92rcd13ifvqglg","pricing_plan_id":"cebpf4jnsgd1na2vs0mg"},{"bike_id":"d8b9d46a-68c7-41b7-9016-a3d5e5de21f0","system_id":"levelo_inurba_marseille","lat":43.310762,"lon":5.38337,"is_reserved":false,"is_disabled":false,"rental_uris":{"android":"levelo://app?vid=d8b9d46a-68c7-41b7-9016-a3d5e5de21f0","ios":"levelo://app?vid=d8b9d46a-68c7-41b7-9016-a3d5e5de21f0"},"vehicle_type_id":"4","last_reported":1736511439,"current_range_meters":13600,"station_id":"ce4bgv92rcd13ifvqcr0","pricing_plan_id":"cebpf4jnsgd1na2vs0mg"},{"bike_id":"f53ff303-ab72-435c-83f4-5d9dc60dceab","system_id":"levelo_inurba_marseille","lat":43.29278,"lon":5.40118,"is_reserved":false,"is_disabled":false,"rental_uris":{"android":"levelo://app?vid=f53ff303-ab72-435c-83f4-5d9dc60dceab","ios":"levelo://app?vid=f53ff303-ab72-435c-83f4-5d9dc60dceab"},"vehicle_type_id":"4","last_reported":1736511439,"current_range_meters":36000,"station_id":"ce4bh312rcd13ifvqdk0","pricing_plan_id":"cebpf4jnsgd1na2vs0mg"},{"bike_id":"0acb8acd-5d0a-4a57-be9f-5e7c1b5bfca2","system_id":"levelo_inurba_marseille","lat":43.31325,"lon":5.39698,"is_reserved":false,"is_disabled":false,"rental_uris":{"android":"levelo://app?vid=0acb8acd-5d0a-4a57-be9f-5e7c1b5bfca2","ios":"levelo://app?vid=0acb8acd-5d0a-4a57-be9f-5e7c1b5bfca2"},"vehicle_type_id":"4","last_reported":1736511439,"current_range_meters":22800,"station_id":"ce4bgvp2rcd13ifvqcu0","pricing_plan_id":"cebpf4jnsgd1na2vs0mg"},{"bike_id":"c68e5b75-cfe5-431d-bab6-a21cd9971bcd","system_id":"levelo_inurba_marseille","lat":43.2872,"lon":5.37933,"is_reserved":false,"is_disabled":false,"rental_uris":{"android":"levelo://app?vid=c68e5b75-cfe5-431d-bab6-a21cd9971bcd","ios":"levelo://app?vid=c68e5b75-cfe5-431d-bab6-a21cd9971bcd"},"vehicle_type_id":"4","last_reported":1736511439,"current_range_meters":34800,"station_id":"ce4bh9p2rcd13ifvqec0","pricing_plan_id":"cebpf4jnsgd1na2vs0mg"},{"bike_id":"b8acbba0-a715-4ced-a2aa-0517db10ac9d","system_id":"levelo_inurba_marseille","lat":43.22921,"lon":5.3538,"is_reserved":false,"is_disabled":true,"rental_uris":{"android":"levelo://app?vid=b8acbba0-a715-4ced-a2aa-0517db10ac9d","ios":"levelo://app?vid=b8acbba0-a715-4ced-a2aa-0517db10ac9d"},"vehicle_type_id":"4","last_reported":1736511439,"current_range_meters":8000,"station_id":"cpo3532slgdg3j2ikp40","pricing_plan_id":"cebpf4jnsgd1na2vs0mg"},{"bike_id":"3ab0b05c-daff-42cc-b1d8-0b28c82f3263","system_id":"levelo_inurba_marseille","lat":43.27815,"lon":5.4072,"is_reserved":false,"is_disabled":false,"rental_uris":{"android":"levelo://app?vid=3ab0b05c-daff-42cc-b1d8-0b28c82f3263","ios":"levelo://app?vid=3ab0b05c-daff-42cc-b1d8-0b28c82f3263"},"vehicle_type_id":"4","last_reported":1736511439,"current_range_meters":26000,"station_id":"ce4bhnh2rcd13ifvqgtg","pricing_plan_id":"cebpf4jnsgd1na2vs0mg"},{"bike_id":"7e645727-bb54-4055-89fb-277ec407cf5d","system_id":"levelo_inurba_marseille","lat":43.24079,"lon":5.37756,"is_reserved":false,"is_disabled":false,"rental_uris":{"android":"levelo://app?vid=7e645727-bb54-4055-89fb-277ec407cf5d","ios":"levelo://app?vid=7e645727-bb54-4055-89fb-277ec407cf5d"},"vehicle_type_id":"4","last_reported":1736511439,"current_range_meters":12400,"station_id":"ce4bhnp2rcd13ifvqgvg","pricing_plan_id":"cebpf4jnsgd1na2vs0mg"},{"bike_id":"62f87a94-556e-4521-8c9a-cb113eefc874","system_id":"levelo_inurba_marseille","lat":43.28932,"lon":5.38423,"is_reserved":false,"is_disabled":true,"rental_uris":{"android":"levelo://app?vid=62f87a94-556e-4521-8c9a-cb113eefc874","ios":"levelo://app?vid=62f87a94-556e-4521-8c9a-cb113eefc874"},"vehicle_type_id":"4","last_reported":1736511439,"current_range_meters":2000,"station_id":"ce4bh612rcd13ifvqe6g","pricing_plan_id":"cebpf4jnsgd1na2vs0mg"},{"bike_id":"ad113f76-a766-497a-90be-d1902352af36","system_id":"levelo_inurba_marseille","lat":43.32121,"lon":5.36788,"is_reserved":false,"is_disabled":false,"rental_uris":{"android":"levelo://app?vid=ad113f76-a766-497a-90be-d1902352af36","ios":"levelo://app?vid=ad113f76-a766-497a-90be-d1902352af36"},"vehicle_type_id":"4","last_reported":1736511439,"current_range_meters":38400,"station_id":"ce4bhrh2rcd13ifvqhug","pricing_plan_id":"cebpf4jnsgd1na2vs0mg"},{"bike_id":"9f45806b-0439-44e8-9147-35b59088d5f3","system_id":"levelo_inurba_marseille","lat":43.24176,"lon":5.36398,"is_reserved":false,"is_disabled":false,"rental_uris":{"android":"levelo://app?vid=9f45806b-0439-44e8-9147-35b59088d5f3","ios":"levelo://app?vid=9f45806b-0439-44e8-9147-35b59088d5f3"},"vehicle_type_id":"4","last_reported":1736511439,"current_range_meters":14400,"station_id":"cpo36qri1sfpv3e86is0","pricing_plan_id":"cebpf4jnsgd1na2vs0mg"},{"bike_id":"da5e617c-b0b4-4a0f-988d-1036e5f8b0ce","system_id":"levelo_inurba_marseille","lat":43.30569,"lon":5.36528,"is_reserved":false,"is_disabled":false,"rental_uris":{"android":"levelo://app?vid=da5e617c-b0b4-4a0f-988d-1036e5f8b0ce","ios":"levelo://app?vid=da5e617c-b0b4-4a0f-988d-1036e5f8b0ce"},"vehicle_type_id":"4","last_reported":1736511439,"current_range_meters":38400,"station_id":"ce4bgs12rcd13ifvqcag","pricing_plan_id":"cebpf4jnsgd1na2vs0mg"},{"bike_id":"c90d1336-07f9-4b85-a89b-f0513cdd170d","system_id":"levelo_inurba_marseille","lat":43.3053,"lon":5.36526,"is_reserved":false,"is_disabled":false,"rental_uris":{"android":"levelo://app?vid=c90d1336-07f9-4b85-a89b-f0513cdd170d","ios":"levelo://app?vid=c90d1336-07f9-4b85-a89b-f0513cdd170d"},"vehicle_type_id":"4","last_reported":1736511439,"current_range_meters":29600,"station_id":"ce4bgs12rcd13ifvqcag","pricing_plan_id":"cebpf4jnsgd1na2vs0mg"},{"bike_id":"55bd12de-4e06-43c9-9bc7-5074934f0364","system_id":"levelo_inurba_marseille","lat":43.29531,"lon":5.37513,"is_reserved":false,"is_disabled":false,"rental_uris":{"android":"levelo://app?vid=55bd12de-4e06-43c9-9bc7-5074934f0364","ios":"levelo://app?vid=55bd12de-4e06-43c9-9bc7-5074934f0364"},"vehicle_type_id":"4","last_reported":1736511439,"current_range_meters":35200,"station_id":"ce4bgkp2rcd13ifvqbmg","pricing_plan_id":"cebpf4jnsgd1na2vs0mg"},{"bike_id":"07ccab10-cdda-4c0b-bba3-cb0e1013117c","system_id":"levelo_inurba_marseille","lat":43.29782,"lon":5.39353,"is_reserved":false,"is_disabled":true,"rental_uris":{"android":"levelo://app?vid=07ccab10-cdda-4c0b-bba3-cb0e1013117c","ios":"levelo://app?vid=07ccab10-cdda-4c0b-bba3-cb0e1013117c"},"vehicle_type_id":"4","last_reported":1736511439,"current_range_meters":6800,"station_id":"chh1huq6cuj3fo74tm60","pricing_plan_id":"cebpf4jnsgd1na2vs0mg"},{"bike_id":"4300ba8a-9844-4fec-8f62-212c72183d84","system_id":"levelo_inurba_marseille","lat":43.30884,"lon":5.39644,"is_reserved":false,"is_disabled":true,"rental_uris":{"android":"levelo://app?vid=4300ba8a-9844-4fec-8f62-212c72183d84","ios":"levelo://app?vid=4300ba8a-9844-4fec-8f62-212c72183d84"},"vehicle_type_id":"4","last_reported":1736511439,"current_range_meters":1200,"station_id":"ce4bh012rcd13ifvqcv0","pricing_plan_id":"cebpf4jnsgd1na2vs0mg"},{"bike_id":"45e4d301-9d1b-48ed-94fb-4096d70191e3","system_id":"levelo_inurba_marseille","lat":43.2668,"lon":5.38271,"is_reserved":false,"is_disabled":false,"rental_uris":{"android":"levelo://app?vid=45e4d301-9d1b-48ed-94fb-4096d70191e3","ios":"levelo://app?vid=45e4d301-9d1b-48ed-94fb-4096d70191e3"},"vehicle_type_id":"4","last_reported":1736511439,"current_range_meters":33200,"station_id":"ce4bhg92rcd13ifvqf90","pricing_plan_id":"cebpf4jnsgd1na2vs0mg"},{"bike_id":"6595f884-e6e0-4e95-ac93-7eb9e7bc32b3","system_id":"levelo_inurba_marseille","lat":43.29914,"lon":5.38152,"is_reserved":false,"is_disabled":false,"rental_uris":{"android":"levelo://app?vid=6595f884-e6e0-4e95-ac93-7eb9e7bc32b3","ios":"levelo://app?vid=6595f884-e6e0-4e95-ac93-7eb9e7bc32b3"},"vehicle_type_id":"4","last_reported":1736511439,"current_range_meters":16000,"station_id":"ce4bgj12rcd13ifvqbc0","pricing_plan_id":"cebpf4jnsgd1na2vs0mg"},{"bike_id":"b7134f4d-db9b-4988-8d37-8b974d1032be","system_id":"levelo_inurba_marseille","lat":43.26682,"lon":5.38263,"is_reserved":false,"is_disabled":false,"rental_uris":{"android":"levelo://app?vid=b7134f4d-db9b-4988-8d37-8b974d1032be","ios":"levelo://app?vid=b7134f4d-db9b-4988-8d37-8b974d1032be"},"vehicle_type_id":"4","last_reported":1736511439,"current_range_meters":38800,"station_id":"ce4bhg92rcd13ifvqf90","pricing_plan_id":"cebpf4jnsgd1na2vs0mg"},{"bike_id":"a27a27df-43fe-458b-9678-ced92de2aadb","system_id":"levelo_inurba_marseille","lat":43.30164,"lon":5.38073,"is_reserved":false,"is_disabled":false,"rental_uris":{"android":"levelo://app?vid=a27a27df-43fe-458b-9678-ced92de2aadb","ios":"levelo://app?vid=a27a27df-43fe-458b-9678-ced92de2aadb"},"vehicle_type_id":"4","last_reported":1736511439,"current_range_meters":19200,"station_id":"ce4bgjp2rcd13ifvqbh0","pricing_plan_id":"cebpf4jnsgd1na2vs0mg"},{"bike_id":"6639eb91-0c71-4f1a-a349-4c6c60470097","system_id":"levelo_inurba_marseille","lat":43.2857,"lon":5.39513,"is_reserved":false,"is_disabled":false,"rental_uris":{"android":"levelo://app?vid=6639eb91-0c71-4f1a-a349-4c6c60470097","ios":"levelo://app?vid=6639eb91-0c71-4f1a-a349-4c6c60470097"},"vehicle_type_id":"4","last_reported":1736511439,"current_range_meters":19600,"station_id":"ce4bh292rcd13ifvqdg0","pricing_plan_id":"cebpf4jnsgd1na2vs0mg"},{"bike_id":"13e212b8-5740-4590-8c47-c11f63d4d407","system_id":"levelo_inurba_marseille","lat":43.28271,"lon":5.35084,"is_reserved":false,"is_disabled":false,"rental_uris":{"android":"levelo://app?vid=13e212b8-5740-4590-8c47-c11f63d4d407","ios":"levelo://app?vid=13e212b8-5740-4590-8c47-c11f63d4d407"},"vehicle_type_id":"4","last_reported":1736511439,"current_range_meters":30400,"station_id":"ce4bhbp2rcd13ifvqerg","pricing_plan_id":"cebpf4jnsgd1na2vs0mg"},{"bike_id":"68187e5c-8a2e-467b-94cb-f5bf1ea6d290","system_id":"levelo_inurba_marseille","lat":43.298,"lon":5.40401,"is_reserved":false,"is_disabled":false,"rental_uris":{"android":"levelo://app?vid=68187e5c-8a2e-467b-94cb-f5bf1ea6d290","ios":"levelo://app?vid=68187e5c-8a2e-467b-94cb-f5bf1ea6d290"},"vehicle_type_id":"4","last_reported":1736511439,"current_range_meters":14400,"station_id":"ce4bh112rcd13ifvqd90","pricing_plan_id":"cebpf4jnsgd1na2vs0mg"},{"bike_id":"f95a3f6e-e375-4dc4-9d6e-2ae8c5602a90","system_id":"levelo_inurba_marseille","lat":43.2861,"lon":5.35146,"is_reserved":false,"is_disabled":false,"rental_uris":{"android":"levelo://app?vid=f95a3f6e-e375-4dc4-9d6e-2ae8c5602a90","ios":"levelo://app?vid=f95a3f6e-e375-4dc4-9d6e-2ae8c5602a90"},"vehicle_type_id":"4","last_reported":1736511439,"current_range_meters":24800,"station_id":"ce4bhch2rcd13ifvqeug","pricing_plan_id":"cebpf4jnsgd1na2vs0mg"},{"bike_id":"bceda76b-7eb8-491f-a170-13b4ba74011a","system_id":"levelo_inurba_marseille","lat":43.29598,"lon":5.38109,"is_reserved":false,"is_disabled":false,"rental_uris":{"android":"levelo://app?vid=bceda76b-7eb8-491f-a170-13b4ba74011a","ios":"levelo://app?vid=bceda76b-7eb8-491f-a170-13b4ba74011a"},"vehicle_type_id":"4","last_reported":1736511439,"current_range_meters":14800,"station_id":"ce4bgl12rcd13ifvqbo0","pricing_plan_id":"cebpf4jnsgd1na2vs0mg"},{"bike_id":"b3087262-1d90-47d2-b171-9187fb306b43","system_id":"levelo_inurba_marseille","lat":43.30324,"lon":5.39198,"is_reserved":false,"is_disabled":true,"rental_uris":{"android":"levelo://app?vid=b3087262-1d90-47d2-b171-9187fb306b43","ios":"levelo://app?vid=b3087262-1d90-47d2-b171-9187fb306b43"},"vehicle_type_id":"4","last_reported":1736511439,"current_range_meters":38400,"station_id":"ce4bgkh2rcd13ifvqbk0","pricing_plan_id":"cebpf4jnsgd1na2vs0mg"},{"bike_id":"79a24b3c-b438-4f40-a7f1-f2932908eb0a","system_id":"levelo_inurba_marseille","lat":43.31328,"lon":5.3969,"is_reserved":false,"is_disabled":false,"rental_uris":{"android":"levelo://app?vid=79a24b3c-b438-4f40-a7f1-f2932908eb0a","ios":"levelo://app?vid=79a24b3c-b438-4f40-a7f1-f2932908eb0a"},"vehicle_type_id":"4","last_reported":1736511439,"current_range_meters":18000,"station_id":"ce4bgvp2rcd13ifvqcu0","pricing_plan_id":"cebpf4jnsgd1na2vs0mg"},{"bike_id":"10837590-8cff-4e9e-a42f-5348f2c9d3bc","system_id":"levelo_inurba_marseille","lat":43.268821,"lon":5.389028,"is_reserved":false,"is_disabled":true,"rental_uris":{"android":"levelo://app?vid=10837590-8cff-4e9e-a42f-5348f2c9d3bc","ios":"levelo://app?vid=10837590-8cff-4e9e-a42f-5348f2c9d3bc"},"vehicle_type_id":"4","last_reported":1736511439,"current_range_meters":0,"station_id":"","pricing_plan_id":"cebpf4jnsgd1na2vs0mg"},{"bike_id":"3bbdedb2-6c37-4353-8a89-df77f9573bff","system_id":"levelo_inurba_marseille","lat":43.27814,"lon":5.40719,"is_reserved":false,"is_disabled":false,"rental_uris":{"android":"levelo://app?vid=3bbdedb2-6c37-4353-8a89-df77f9573bff","ios":"levelo://app?vid=3bbdedb2-6c37-4353-8a89-df77f9573bff"},"vehicle_type_id":"4","last_reported":1736511439,"current_range_meters":20400,"station_id":"ce4bhnh2rcd13ifvqgtg","pricing_plan_id":"cebpf4jnsgd1na2vs0mg"},{"bike_id":"1fa5d6c8-6c35-448b-a928-e5af108635bc","system_id":"levelo_inurba_marseille","lat":43.23177,"lon":5.39984,"is_reserved":false,"is_disabled":false,"rental_uris":{"android":"levelo://app?vid=1fa5d6c8-6c35-448b-a928-e5af108635bc","ios":"levelo://app?vid=1fa5d6c8-6c35-448b-a928-e5af108635bc"},"vehicle_type_id":"4","last_reported":1736511439,"current_range_meters":35200,"station_id":"ce4bhn12rcd13ifvqgqg","pricing_plan_id":"cebpf4jnsgd1na2vs0mg"},{"bike_id":"fa13c2ee-7838-41d7-9228-ae3f8138ebea","system_id":"levelo_inurba_marseille","lat":43.26935,"lon":5.38915,"is_reserved":false,"is_disabled":false,"rental_uris":{"android":"levelo://app?vid=fa13c2ee-7838-41d7-9228-ae3f8138ebea","ios":"levelo://app?vid=fa13c2ee-7838-41d7-9228-ae3f8138ebea"},"vehicle_type_id":"4","last_reported":1736511439,"current_range_meters":38400,"station_id":"ce4bhhh2rcd13ifvqfl0","pricing_plan_id":"cebpf4jnsgd1na2vs0mg"},{"bike_id":"c12bbde8-1e18-48f6-bc42-f5bbc01f7670","system_id":"levelo_inurba_marseille","lat":43.29578,"lon":5.36734,"is_reserved":false,"is_disabled":false,"rental_uris":{"android":"levelo://app?vid=c12bbde8-1e18-48f6-bc42-f5bbc01f7670","ios":"levelo://app?vid=c12bbde8-1e18-48f6-bc42-f5bbc01f7670"},"vehicle_type_id":"4","last_reported":1736511439,"current_range_meters":19200,"station_id":"ce4bgph2rcd13ifvqc2g","pricing_plan_id":"cebpf4jnsgd1na2vs0mg"},{"bike_id":"c4a85191-4eb5-4d65-871c-bf6cfd3c59dc","system_id":"levelo_inurba_marseille","lat":43.24084,"lon":5.37756,"is_reserved":false,"is_disabled":false,"rental_uris":{"android":"levelo://app?vid=c4a85191-4eb5-4d65-871c-bf6cfd3c59dc","ios":"levelo://app?vid=c4a85191-4eb5-4d65-871c-bf6cfd3c59dc"},"vehicle_type_id":"4","last_reported":1736511439,"current_range_meters":38400,"station_id":"ce4bhnp2rcd13ifvqgvg","pricing_plan_id":"cebpf4jnsgd1na2vs0mg"},