{"last_updated":1701284740,"ttl":30,"version":"2.2","data":{"bikes":[{"bike_id":"c266fed0-f73f-4325-b317-0562d2dc2e01","system_id":"levelo_inurba_marseille","lat":43.31341,"lon":5.367098,"is_reserved":false,"is_disabled":false,"rental_uris":{"android":"levelo://app?vid=c266fed0-f73f-4325-b317-0562d2dc2e01","ios":"levelo://app?vid=c266fed0-f73f-4325-b317-0562d2dc2e01"},"vehicle_type_id":"4","last_reported":1701284740,"current_range_meters":16400,"station_id":"ce4bgr92rcd13ifvqc6g","pricing_plan_id":"free"},{"bike_id":"f65440ed-f83b-4d94-bce9-632bf490eedc","system_id":"levelo_inurba_marseille","lat":43.312239,"lon":5.368562,"is_reserved":false,"is_disabled":false,"rental_uris":{"android":"levelo://app?vid=f65440ed-f83b-4d94-bce9-632bf490eedc","ios":"levelo://app?vid=f65440ed-f83b-4d94-bce9-632bf490eedc"},"vehicle_type_id":"4","last_reported":1701284740,"current_range_meters":4000,"station_id":"ce4bgl92rcd13ifvqbq0","pricing_plan_id":"free"},{"bike_id":"4aac5522-1c29-4759-af83-ee8fc109674c","system_id":"levelo_inurba_marseille","lat":43.312239,"lon":5.368562,"is_reserved":false,"is_disabled":false,"rental_uris":{"android":"levelo://app?vid=4aac5522-1c29-4759-af83-ee8fc109674c","ios":"levelo://app?vid=4aac5522-1c29-4759-af83-ee8fc109674c"},"vehicle_type_id":"4","last_reported":1701284740,"current_range_meters":0,"station_id":"ce4bgl92rcd13ifvqbq0","pricing_plan_id":"free"},{"bike_id":"8c3b5d4a-40af-46c7-8b88-185b0b708f7e","system_id":"levelo_inurba_marseille","lat":43.314811,"lon":5.373103,"is_reserved":false,"is_disabled":false,"rental_uris":{"android":"levelo://app?vid=8c3b5d4a-40af-46c7-8b88-185b0b708f7e","ios":"levelo://app?vid=8c3b5d4a-40af-46c7-8b88-185b0b708f7e"},"vehicle_type_id":"4","last_reported":1701284740,"current_range_meters":16400,"station_id":"ce4bgt12rcd13ifvqcd0","pricing_plan_id":"free"},{"bike_id":"965a1d19-b90a-46fb-8b82-ff82339fc081","system_id":"levelo_inurba_marseille","lat":43.308877,"lon":5.371813,"is_reserved":false,"is_disabled":false,"rental_uris":{"android":"levelo://app?vid=965a1d19-b90a-46fb-8b82-ff82339fc081","ios":"levelo://app?vid=965a1d19-b90a-46fb-8b82-ff82339fc081"},"vehicle_type_id":"4","last_reported":1701284740,"current_range_meters":0,"station_id":"ce4bguh2rcd13ifvqckg","pricing_plan_id":"free"},{"bike_id":"054b1570-f75c-423b-b756-858dd77075ce","system_id":"levelo_inurba_marseille","lat":43.305368,"lon":5.367343,"is_reserved":false,"is_disabled":false,"rental_uris":{"android":"levelo://app?vid=054b1570-f75c-423b-b756-858dd77075ce","ios":"levelo://app?vid=054b1570-f75c-423b-b756-858dd77075ce"},"vehicle_type_id":"4","last_reported":1701284740,"current_range_meters":0,"station_id":"ce4bgrp2rcd13ifvqc9g","pricing_plan_id":"free"},{"bike_id":"b5129530-3639-47e5-92b6-d358b01a2cff","system_id":"levelo_inurba_marseille","lat":43.308209,"lon":5.376588,"is_reserved":false,"is_disabled":false,"rental_uris":{"android":"levelo://app?vid=b5129530-3639-47e5-92b6-d358b01a2cff","ios":"levelo://app?vid=b5129530-3639-47e5-92b6-d358b01a2cff"},"vehicle_type_id":"4","last_reported":1701284740,"current_range_meters":24000,"station_id":"ce4bgv92rcd13ifvqcq0","pricing_plan_id":"free"},{"bike_id":"f427a2c3-6e4a-446b-ae2f-9be8aa7f4122","system_id":"levelo_inurba_marseille","lat":43.31719,"lon":5.376813,"is_reserved":false,"is_disabled":false,"rental_uris":{"android":"levelo://app?vid=f427a2c3-6e4a-446b-ae2f-9be8aa7f4122","ios":"levelo://app?vid=f427a2c3-6e4a-446b-ae2f-9be8aa7f4122"},"vehicle_type_id":"4","last_reported":1701284740,"current_range_meters":8400,"station_id":"ce4bgth2rcd13ifvqch0","pricing_plan_id":"free"},{"bike_id":"e913f328-1e31-4c22-bd87-f809ea246de4","system_id":"levelo_inurba_marseille","lat":43.317168,"lon":5.376883,"is_reserved":false,"is_disabled":false,"rental_uris":{"android":"levelo://app?vid=e913f328-1e31-4c22-bd87-f809ea246de4","ios":"levelo://app?vid=e913f328-1e31-4c22-bd87-f809ea246de4"},"vehicle_type_id":"4","last_reported":1701284740,"current_range_meters":10800,"station_id":"ce4bgth2rcd13ifvqch0","pricing_plan_id":"free"},{"bike_id":"f4f2ab07-ad83-4fca-80c6-8e6d2144a8df","system_id":"levelo_inurba_marseille","lat":43.317075,"lon":5.377367,"is_reserved":false,"is_disabled":false,"rental_uris":{"android":"levelo://app?vid=f4f2ab07-ad83-4fca-80c6-8e6d2144a8df","ios":"levelo://app?vid=f4f2ab07-ad83-4fca-80c6-8e6d2144a8df"},"vehicle_type_id":"4","last_reported":1701284740,"current_range_meters":800,"station_id":"ce4bgth2rcd13ifvqch0","pricing_plan_id":"free"},{"bike_id":"3e09080e-9db5-4c48-951f-c5f672a60264","system_id":"levelo_inurba_marseille","lat":43.32143,"lon":5.37478,"is_reserved":false,"is_disabled":false,"rental_uris":{"android":"levelo://app?vid=3e09080e-9db5-4c48-951f-c5f672a60264","ios":"levelo://app?vid=3e09080e-9db5-4c48-951f-c5f672a60264"},"vehicle_type_id":"4","last_reported":1701284740,"current_range_meters":7200,"station_id":"","pricing_plan_id":"free"},{"bike_id":"098c0a19-468c-44ab-9b9a-41ed1e6c47cc","system_id":"levelo_inurba_marseille","lat":43.301939,"lon":5.366286,"is_reserved":false,"is_disabled":false,"rental_uris":{"android":"levelo://app?vid=098c0a19-468c-44ab-9b9a-41ed1e6c47cc","ios":"levelo://app?vid=098c0a19-468c-44ab-9b9a-41ed1e6c47cc"},"vehicle_type_id":"4","last_reported":1701284740,"current_range_meters":23200,"station_id":"ce4bgrh2rcd13ifvqc8g","pricing_plan_id":"free"},{"bike_id":"13c86c9b-7cc3-440a-91aa-2bb4583152e4","system_id":"levelo_inurba_marseille","lat":43.308012,"lon":5.381511,"is_reserved":false,"is_disabled":false,"rental_uris":{"android":"levelo://app?vid=13c86c9b-7cc3-440a-91aa-2bb4583152e4","ios":"levelo://app?vid=13c86c9b-7cc3-440a-91aa-2bb4583152e4"},"vehicle_type_id":"4","last_reported":1701284740,"current_range_meters":9600,"station_id":"ce4bgt12rcd13ifvqce0","pricing_plan_id":"free"},{"bike_id":"b82a5407-3dc0-4be2-bdc2-0389b4414ee4","system_id":"levelo_inurba_marseille","lat":43.30459,"lon":5.379,"is_reserved":false,"is_disabled":false,"rental_uris":{"android":"levelo://app?vid=b82a5407-3dc0-4be2-bdc2-0389b4414ee4","ios":"levelo://app?vid=b82a5407-3dc0-4be2-bdc2-0389b4414ee4"},"vehicle_type_id":"4","last_reported":1701284740,"current_range_meters":0,"station_id":"ce4bgup2rcd13ifvqcn0","pricing_plan_id":"free"},{"bike_id":"969fdeee-571a-460a-9f7e-5afe9c7293c7","system_id":"levelo_inurba_marseille","lat":43.302784,"lon":5.377158,"is_reserved":false,"is_disabled":false,"rental_uris":{"android":"levelo://app?vid=969fdeee-571a-460a-9f7e-5afe9c7293c7","ios":"levelo://app?vid=969fdeee-571a-460a-9f7e-5afe9c7293c7"},"vehicle_type_id":"4","last_reported":1701284740,"current_range_meters":11600,"station_id":"ce4bguh2rcd13ifvqcj0","pricing_plan_id":"free"},{"bike_id":"3e01df68-27f0-42b4-ac09-2ec4a13acda6","system_id":"levelo_inurba_marseille","lat":43.319935,"lon":5.381699,"is_reserved":false,"is_disabled":false,"rental_uris":{"android":"levelo://app?vid=3e01df68-27f0-42b4-ac09-2ec4a13acda6","ios":"levelo://app?vid=3e01df68-27f0-42b4-ac09-2ec4a13acda6"},"vehicle_type_id":"4","last_reported":1701284740,"current_range_meters":12000,"station_id":"ce4bhr12rcd13ifvqhpg","pricing_plan_id":"free"},{"bike_id":"2275aca5-3158-4c2c-8022-ca5d2714bc86","system_id":"levelo_inurba_marseille","lat":43.319997,"lon":5.381594,"is_reserved":false,"is_disabled":false,"rental_uris":{"android":"levelo://app?vid=2275aca5-3158-4c2c-8022-ca5d2714bc86","ios":"levelo://app?vid=2275aca5-3158-4c2c-8022-ca5d2714bc86"},"vehicle_type_id":"4","last_reported":1701284740,"current_range_meters":26000,"station_id":"ce4bhr12rcd13ifvqhpg","pricing_plan_id":"free"},{"bike_id":"90aef721-8643-4dbb-9b6a-290e122f0319","system_id":"levelo_inurba_marseille","lat":43.3136,"lon":5.38496,"is_reserved":false,"is_disabled":false,"rental_uris":{"android":"levelo://app?vid=90aef721-8643-4dbb-9b6a-290e122f0319","ios":"levelo://app?vid=90aef721-8643-4dbb-9b6a-290e122f0319"},"vehicle_type_id":"4","last_reported":1701284740,"current_range_meters":1200,"station_id":"ce4bgt92rcd13ifvqcf0","pricing_plan_id":"free"},{"bike_id":"3dc6a239-bff3-4146-93c2-218aa19e5974","system_id":"levelo_inurba_marseille","lat":43.299724,"lon":5.371829,"is_reserved":false,"is_disabled":false,"rental_uris":{"android":"levelo://app?vid=3dc6a239-bff3-4146-93c2-218aa19e5974","ios":"levelo://app?vid=3dc6a239-bff3-4146-93c2-218aa19e5974"},"vehicle_type_id":"4","last_reported":1701284740,"current_range_meters":6000,"station_id":"ce4bgr92rcd13ifvqc7g","pricing_plan_id":"free"},{"bike_id":"a3f0b42b-5d92-482d-84ed-825833017f36","system_id":"levelo_inurba_marseille","lat":43.298433,"lon":5.362774,"is_reserved":false,"is_disabled":false,"rental_uris":{"android":"levelo://app?vid=a3f0b42b-5d92-482d-84ed-825833017f36","ios":"levelo://app?vid=a3f0b42b-5d92-482d-84ed-825833017f36"},"vehicle_type_id":"4","last_reported":1701284740,"current_range_meters":16000,"station_id":"ce4bgpp2rcd13ifvqc3g","pricing_plan_id":"free"},{"bike_id":"5e2f07fd-01bf-4a81-a369-2827b0686d95","system_id":"levelo_inurba_marseille","lat":43.311722,"lon":5.387247,"is_reserved":false,"is_disabled":false,"rental_uris":{"android":"levelo://app?vid=5e2f07fd-01bf-4a81-a369-2827b0686d95","ios":"levelo://app?vid=5e2f07fd-01bf-4a81-a369-2827b0686d95"},"vehicle_type_id":"4","last_reported":1701284740,"current_range_meters":7600,"station_id":"ce4bgv12rcd13ifvqcp0","pricing_plan_id":"free"},{"bike_id":"f4a743fd-0e85-40ec-96de-d29aafeb5076","system_id":"levelo_inurba_marseille","lat":43.311722,"lon":5.387247,"is_reserved":false,"is_disabled":false,"rental_uris":{"android":"levelo://app?vid=f4a743fd-0e85-40ec-96de-d29aafeb5076","ios":"levelo://app?vid=f4a743fd-0e85-40ec-96de-d29aafeb5076"},"vehicle_type_id":"4","last_reported":1701284740,"current_range_meters":5600,"station_id":"ce4bgv12rcd13ifvqcp0","pricing_plan_id":"free"},{"bike_id":"aebb5f1f-3a1e-4323-a4f0-ae83e0b78d14","system_id":"levelo_inurba_marseille","lat":43.327603,"lon":5.36705,"is_reserved":false,"is_disabled":false,"rental_uris":{"android":"levelo://app?vid=aebb5f1f-3a1e-4323-a4f0-ae83e0b78d14","ios":"levelo://app?vid=aebb5f1f-3a1e-4323-a4f0-ae83e0b78d14"},"vehicle_type_id":"4","last_reported":1701284740,"current_range_meters":27600,"station_id":"","pricing_plan_id":"free"},{"bike_id":"d36e4daa-8cbf-4921-b012-b92a6a8b8bf6","system_id":"levelo_inurba_marseille","lat":43.322872,"lon":5.382756,"is_reserved":false,"is_disabled":false,"rental_uris":{"android":"levelo://app?vid=d36e4daa-8cbf-4921-b012-b92a6a8b8bf6","ios":"levelo://app?vid=d36e4daa-8cbf-4921-b012-b92a6a8b8bf6"},"vehicle_type_id":"4","last_reported":1701284740,"current_range_meters":25600,"station_id":"ce4bhr12rcd13ifvqhqg","pricing_plan_id":"free"},{"bike_id":"0da4b62f-0db6-4479-8cb1-8d25ba70b760","system_id":"levelo_inurba_marseille","lat":43.322872,"lon":5.382756,"is_reserved":false,"is_disabled":false,"rental_uris":{"android":"levelo://app?vid=0da4b62f-0db6-4479-8cb1-8d25ba70b760","ios":"levelo://app?vid=0da4b62f-0db6-4479-8cb1-8d25ba70b760"},"vehicle_type_id":"4","last_reported":1701284740,"current_range_meters":30000,"station_id":"ce4bhr12rcd13ifvqhqg","pricing_plan_id":"free"},{"bike_id":"3486d651-45b6-46b6-82dc-903d5fa070d2","system_id":"levelo_inurba_marseille","lat":43.328371,"lon":5.366909,"is_reserved":false,"is_disabled":false,"rental_uris":{"android":"levelo://app?vid=3486d651-45b6-46b6-82dc-903d5fa070d2","ios":"levelo://app?vid=3486d651-45b6-46b6-82dc-903d5fa070d2"},"vehicle_type_id":"4","last_reported":1701284740,"current_range_meters":19600,"station_id":"ce4bhs92rcd13ifvqi0g","pricing_plan_id":"free"},{"bike_id":"e9ab0315-6181-435b-b867-b18be155f794","system_id":"levelo_inurba_marseille","lat":43.297163,"lon":5.365866,"is_reserved":false,"is_disabled":false,"rental_uris":{"android":"levelo://app?vid=e9ab0315-6181-435b-b867-b18be155f794","ios":"levelo://app?vid=e9ab0315-6181-435b-b867-b18be155f794"},"vehicle_type_id":"4","last_reported":1701284740,"current_range_meters":24000,"station_id":"ce4bgn12rcd13ifvqbt0","pricing_plan_id":"free"},{"bike_id":"56768e4e-9386-4af4-86a9-5511352d419c","system_id":"levelo_inurba_marseille","lat":43.29607,"lon":5.367377,"is_reserved":false,"is_disabled":false,"rental_uris":{"android":"levelo://app?vid=56768e4e-9386-4af4-86a9-5511352d419c","ios":"levelo://app?vid=56768e4e-9386-4af4-86a9-5511352d419c"},"vehicle_type_id":"4","last_reported":1701284740,"current_range_meters":11200,"station_id":"ce4bgph2rcd13ifvqc2g","pricing_plan_id":"free"},{"bike_id":"f3449596-e9b3-46af-9337-6058b9c8cebb","system_id":"levelo_inurba_marseille","lat":43.29573,"lon":5.367355,"is_reserved":false,"is_disabled":false,"rental_uris":{"android":"levelo://app?vid=f3449596-e9b3-46af-9337-6058b9c8cebb","ios":"levelo://app?vid=f3449596-e9b3-46af-9337-6058b9c8cebb"},"vehicle_type_id":"4","last_reported":1701284740,"current_range_meters":12000,"station_id":"ce4bgph2rcd13ifvqc2g","pricing_plan_id":"free"},{"bike_id":"df29a0ae-9a7a-40bc-885c-1520975e3feb","system_id":"levelo_inurba_marseille","lat":43.309403,"lon":5.390173,"is_reserved":false,"is_disabled":false,"rental_uris":{"android":"levelo://app?vid=df29a0ae-9a7a-40bc-885c-1520975e3feb","ios":"levelo://app?vid=df29a0ae-9a7a-40bc-885c-1520975e3feb"},"vehicle_type_id":"4","last_reported":1701284740,"current_range_meters":30400,"station_id":"ce4bgup2rcd13ifvqco0","pricing_plan_id":"free"},{"bike_id":"37844856-6645-42b0-8838-fd760b64463a","system_id":"levelo_inurba_marseille","lat":43.309527,"lon":5.390437,"is_reserved":false,"is_disabled":false,"rental_uris":{"android":"levelo://app?vid=37844856-6645-42b0-8838-fd760b64463a","ios":"levelo://app?vid=37844856-6645-42b0-8838-fd760b64463a"},"vehicle_type_id":"4","last_reported":1701284740,"current_range_meters":0,"station_id":"ce4bgup2rcd13ifvqco0","pricing_plan_id":"free"},{"bike_id":"5f404070-e56a-43ba-b7ae-b95c51c02b1e","system_id":"levelo_inurba_marseille","lat":43.319935,"lon":5.381699,"is_reserved":false,"is_disabled":false,"rental_uris":{"android":"levelo://app?vid=5f404070-e56a-43ba-b7ae-b95c51c02b1e","ios":"levelo://app?vid=5f404070-e56a-43ba-b7ae-b95c51c02b1e"},"vehicle_type_id":"4","last_reported":1701284740,"current_range_meters":0,"station_id":"ce4bhr12rcd13ifvqhpg","pricing_plan_id":"free"},{"bike_id":"2b9b2ec5-f3c9-4640-b75a-456672f2fd59","system_id":"levelo_inurba_marseille","lat":43.317557,"lon":5.390173,"is_reserved":false,"is_disabled":false,"rental_uris":{"android":"levelo://app?vid=2b9b2ec5-f3c9-4640-b75a-456672f2fd59","ios":"levelo://app?vid=2b9b2ec5-f3c9-4640-b75a-456672f2fd59"},"vehicle_type_id":"4","last_reported":1701284740,"current_range_meters":10000,"station_id":"ce4bhqp2rcd13ifvqhng","pricing_plan_id":"free"},{"bike_id":"6ed22076-9ba5-4488-a16d-4aa18d2dd911","system_id":"levelo_inurba_marseille","lat":43.317557,"lon":5.390173,"is_reserved":false,"is_disabled":false,"rental_uris":{"android":"levelo://app?vid=6ed22076-9ba5-4488-a16d-4aa18d2dd911","ios":"levelo://app?vid=6ed22076-9ba5-4488-a16d-4aa18d2dd911"},"vehicle_type_id":"4","last_reported":1701284740,"current_range_meters":1200,"station_id":"ce4bhqp2rcd13ifvqhng","pricing_plan_id":"free"},{"bike_id":"057ae66f-c5eb-4cf3-ad62-ae217c15f56b","system_id":"levelo_inurba_marseille","lat":43.317557,"lon":5.390173,"is_reserved":false,"is_disabled":false,"rental_uris":{"android":"levelo://app?vid=057ae66f-c5eb-4cf3-ad62-ae217c15f56b","ios":"levelo://app?vid=057ae66f-c5eb-4cf3-ad62-ae217c15f56b"},"vehicle_type_id":"4","last_reported":1701284740,"current_range_meters":28000,"station_id":"ce4bhqp2rcd13ifvqhng","pricing_plan_id":"free"},{"bike_id":"1412b3d0-6383-4576-83ac-b2d0f61bb67c","system_id":"levelo_inurba_marseille","lat":43.298037,"lon":5.381066,"is_reserved":false,"is_disabled":false,"rental_uris":{"android":"levelo://app?vid=1412b3d0-6383-4576-83ac-b2d0f61bb67c","ios":"levelo://app?vid=1412b3d0-6383-4576-83ac-b2d0f61bb67c"},"vehicle_type_id":"4","last_reported":1701284740,"current_range_meters":1200,"station_id":"ce4bgip2rcd13ifvqbb0","pricing_plan_id":"free"},{"bike_id":"1c5627e7-dde9-4bf6-9293-7d1f2a089b20","system_id":"levelo_inurba_marseille","lat":43.298037,"lon":5.381066,"is_reserved":false,"is_disabled":false,"rental_uris":{"android":"levelo://app?vid=1c5627e7-dde9-4bf6-9293-7d1f2a089b20","ios":"levelo://app?vid=1c5627e7-dde9-4bf6-9293-7d1f2a089b20"},"vehicle_type_id":"4","last_reported":1701284740,"current_range_meters":29200,"station_id":"ce4bgip2rcd13ifvqbb0","pricing_plan_id":"free"},{"bike_id":"288854a1-a8b2-454f-bf0a-82f0facdad02","system_id":"levelo_inurba_marseille","lat":43.304274,"lon":5.388873,"is_reserved":false,"is_disabled":false,"rental_uris":{"android":"levelo://app?vid=288854a1-a8b2-454f-bf0a-82f0facdad02","ios":"levelo://app?vid=288854a1-a8b2-454f-bf0a-82f0facdad02"},"vehicle_type_id":"4","last_reported":1701284740,"current_range_meters":2400,"station_id":"ce4bgk12rcd13ifvqbi0","pricing_plan_id":"free"},{"bike_id":"2301695c-cef2-469a-acf6-51555d508287","system_id":"levelo_inurba_marseille","lat":43.304278,"lon":5.388868,"is_reserved":false,"is_disabled":false,"rental_uris":{"android":"levelo://app?vid=2301695c-cef2-469a-acf6-51555d508287","ios":"levelo://app?vid=2301695c-cef2-469a-acf6-51555d508287"},"vehicle_type_id":"4","last_reported":1701284740,"current_range_meters":9200,"station_id":"ce4bgk12rcd13ifvqbi0","pricing_plan_id":"free"},{"bike_id":"7f074262-5f1c-4682-97c7-29a78fb5dcf7","system_id":"levelo_inurba_marseille","lat":43.29523,"lon":5.37484,"is_reserved":false,"is_disabled":false,"rental_uris":{"android":"levelo://app?vid=7f074262-5f1c-4682-97c7-29a78fb5dcf7","ios":"levelo://app?vid=7f074262-5f1c-4682-97c7-29a78fb5dcf7"},"vehicle_type_id":"4","last_reported":1701284740,"current_range_meters":0,"station_id":"ce4bgkp2rcd13ifvqbmg","pricing_plan_id":"free"},{"bike_id":"130c3260-d1d3-45ee-b777-c955fe7b4369","system_id":"levelo_inurba_marseille","lat":43.299724,"lon":5.384848,"is_reserved":false,"is_disabled":false,"rental_uris":{"android":"levelo://app?vid=130c3260-d1d3-45ee-b777-c955fe7b4369","ios":"levelo://app?vid=130c3260-d1d3-45ee-b777-c955fe7b4369"},"vehicle_type_id":"4","last_reported":1701284740,"current_range_meters":0,"station_id":"ce4bgj92rcd13ifvqbd0","pricing_plan_id":"free"},{"bike_id":"8163dc2b-dbef-4d47-9d6e-a709b8278484","system_id":"levelo_inurba_marseille","lat":43.29602,"lon":5.381084,"is_reserved":false,"is_disabled":false,"rental_uris":{"android":"levelo://app?vid=8163dc2b-dbef-4d47-9d6e-a709b8278484","ios":"levelo://app?vid=8163dc2b-dbef-4d47-9d6e-a709b8278484"},"vehicle_type_id":"4","last_reported":1701284740,"current_range_meters":14000,"station_id":"ce4bgl12rcd13ifvqbo0","pricing_plan_id":"free"},{"bike_id":"9f5cf04a-c8d7-49c4-90ac-0a6ca57cf80d","system_id":"levelo_inurba_marseille","lat":43.293259,"lon":5.371586,"is_reserved":false,"is_disabled":false,"rental_uris":{"android":"levelo://app?vid=9f5cf04a-c8d7-49c4-90ac-0a6ca57cf80d","ios":"levelo://app?vid=9f5cf04a-c8d7-49c4-90ac-0a6ca57cf80d"},"vehicle_type_id":"4","last_reported":1701284740,"current_range_meters":17600,"station_id":"ce4bgh92rcd13ifvqb40","pricing_plan_id":"free"},{"bike_id":"52bbaf17-0b84-4fa7-8822-841bda517aae","system_id":"levelo_inurba_marseille","lat":43.292749,"lon":5.368402,"is_reserved":false,"is_disabled":false,"rental_uris":{"android":"levelo://app?vid=52bbaf17-0b84-4fa7-8822-841bda517aae","ios":"levelo://app?vid=52bbaf17-0b84-4fa7-8822-841bda517aae"},"vehicle_type_id":"4","last_reported":1701284740,"current_range_meters":10400,"station_id":"ce4bhbp2rcd13ifvqesg","pricing_plan_id":"free"},{"bike_id":"759045cd-3abc-4ed9-a621-9aec60ce8043","system_id":"levelo_inurba_marseille","lat":43.2927,"lon":5.36845,"is_reserved":false,"is_disabled":false,"rental_uris":{"android":"levelo://app?vid=759045cd-3abc-4ed9-a621-9aec60ce8043","ios":"levelo://app?vid=759045cd-3abc-4ed9-a621-9aec60ce8043"},"vehicle_type_id":"4","last_reported":1701284740,"current_range_meters":6400,"station_id":"ce4bhbp2rcd13ifvqesg","pricing_plan_id":"free"},{"bike_id":"294e789b-6e29-46a1-aa12-fd06feeb3a90","system_id":"levelo_inurba_marseille","lat":43.292749,"lon":5.368402,"is_reserved":false,"is_disabled":false,"rental_uris":{"android":"levelo://app?vid=294e789b-6e29-46a1-aa12-fd06feeb3a90","ios":"levelo://app?vid=294e789b-6e29-46a1-aa12-fd06feeb3a90"},"vehicle_type_id":"4","last_reported":1701284740,"current_range_meters":16800,"station_id":"ce4bhbp2rcd13ifvqesg","pricing_plan_id":"free"},{"bike_id":"2e9f4e16-151e-42d6-a2f6-e431dd8a48a5","system_id":"levelo_inurba_marseille","lat":43.29266,"lon":5.36844,"is_reserved":false,"is_disabled":false,"rental_uris":{"android":"levelo://app?vid=2e9f4e16-151e-42d6-a2f6-e431dd8a48a5","ios":"levelo://app?vid=2e9f4e16-151e-42d6-a2f6-e431dd8a48a5"},"vehicle_type_id":"4","last_reported":1701284740,"current_range_meters":20400,"station_id":"ce4bhbp2rcd13ifvqesg","pricing_plan_id":"free"},{"bike_id":"f02620d0-f576-4649-bc8e-470574e8948e","system_id":"levelo_inurba_marseille","lat":43.29261,"lon":5.36857,"is_reserved":false,"is_disabled":false,"rental_uris":{"android":"levelo://app?vid=f02620d0-f576-4649-bc8e-470574e8948e","ios":"levelo://app?vid=f02620d0-f576-4649-bc8e-470574e8948e"},"vehicle_type_id":"4","last_reported":1701284740,"current_range_meters":22000,"station_id":"ce4bhbp2rcd13ifvqesg","pricing_plan_id":"free"},{"bike_id":"889fdfc6-b0b9-4f5a-a8b4-86026652913b","system_id":"levelo_inurba_marseille","lat":43.305994,"lon":5.393687,"is_reserved":false,"is_disabled":false,"rental_uris":{"android":"levelo://app?vid=889fdfc6-b0b9-4f5a-a8b4-86026652913b","ios":"levelo://app?vid=889fdfc6-b0b9-4f5a-a8b4-86026652913b"},"vehicle_type_id":"4","last_reported":1701284740,"current_range_meters":4400,"station_id":"ce4bh0p2rcd13ifvqd80","pricing_plan_id":"free"},{"bike_id":"ae8f3bfc-db2a-4947-a122-603a94ac6623","system_id":"levelo_inurba_marseille","lat":43.293009,"lon":5.374584,"is_reserved":false,"is_disabled":false,"rental_uris":{"android":"levelo://app?vid=ae8f3bfc-db2a-4947-a122-603a94ac6623","ios":"levelo://app?vid=ae8f3bfc-db2a-4947-a122-603a94ac6623"},"vehicle_type_id":"4","last_reported":1701284740,"current_range_meters":800,"station_id":"ce4bgi12rcd13ifvqb70","pricing_plan_id":"free"},{"bike_id":"79bc3353-0039-4037-b663-c198949da24b","system_id":"levelo_inurba_marseille","lat":43.293009,"lon":5.374584,"is_reserved":false,"is_disabled":false,"rental_uris":{"android":"levelo://app?vid=79bc3353-0039-4037-b663-c198949da24b","ios":"levelo://app?vid=79bc3353-0039-4037-b663-c198949da24b"},"vehicle_type_id":"4","last_reported":1701284740,"current_range_meters":17600,"station_id":"ce4bgi12rcd13ifvqb70","pricing_plan_id":"free"},{"bike_id":"18921e53-463a-40e9-9d08-a0f31e714d37","system_id":"levelo_inurba_marseille","lat":43.305994,"lon":5.393687,"is_reserved":false,"is_disabled":false,"rental_uris":{"android":"levelo://app?vid=18921e53-463a-40e9-9d08-a0f31e714d37","ios":"levelo://app?vid=18921e53-463a-40e9-9d08-a0f31e714d37"},"vehicle_type_id":"4","last_reported":1701284740,"current_range_meters":21600,"station_id":"ce4bh0p2rcd13ifvqd80","pricing_plan_id":"free"},{"bike_id":"26f7a164-f9c5-4308-bfae-a2e36d46f5df","system_id":"levelo_inurba_marseille","lat":43.292311,"lon":5.360731,"is_reserved":false,"is_disabled":false,"rental_uris":{"android":"levelo://app?vid=26f7a164-f9c5-4308-bfae-a2e36d46f5df","ios":"levelo://app?vid=26f7a164-f9c5-4308-bfae-a2e36d46f5df"},"vehicle_type_id":"4","last_reported":1701284740,"current_range_meters":25200,"station_id":"ce4bhbh2rcd13ifvqeqg","pricing_plan_id":"free"},{"bike_id":"d9564635-fc12-40e3-8578-77f1bdcbbca5","system_id":"levelo_inurba_marseille","lat":43.292663,"lon":5.376394,"is_reserved":false,"is_disabled":false,"rental_uris":{"android":"levelo://app?vid=d9564635-fc12-40e3-8578-77f1bdcbbca5","ios":"levelo://app?vid=d9564635-fc12-40e3-8578-77f1bdcbbca5"},"vehicle_type_id":"4","last_reported":1701284740,"current_range_meters":14400,"station_id":"ce4bgi12rcd13ifvqb80","pricing_plan_id":"free"},{"bike_id":"ba493285-7956-4eff-a124-748a416d14c1","system_id":"levelo_inurba_marseille","lat":43.292663,"lon":5.376394,"is_reserved":false,"is_disabled":false,"rental_uris":{"android":"levelo://app?vid=ba493285-7956-4eff-a124-748a416d14c1","ios":"levelo://app?vid=ba493285-7956-4eff-a124-748a416d14c1"},"vehicle_type_id":"4","last_reported":1701284740,"current_range_meters":23200,"station_id":"ce4bgi12rcd13ifvqb80","pricing_plan_id":"free"},{"bike_id":"f11b760d-1b2c-47e2-9353-9c5d2e06ede8","system_id":"levelo_inurba_marseille","lat":43.291671,"lon":5.371575,"is_reserved":false,"is_disabled":false,"rental_uris":{"android":"levelo://app?vid=f11b760d-1b2c-47e2-9353-9c5d2e06ede8","ios":"levelo://app?vid=f11b760d-1b2c-47e2-9353-9c5d2e06ede8"},"vehicle_type_id":"4","last_reported":1701284740,"current_range_meters":21200,"station_id":"ce4bha92rcd13ifvqeh0","pricing_plan_id":"free"},{"bike_id":"3db5fa06-5865-46f8-ac9f-5b3a612f8b58","system_id":"levelo_inurba_marseille","lat":43.29199,"lon":5.35808,"is_reserved":false,"is_disabled":false,"rental_uris":{"android":"levelo://app?vid=3db5fa06-5865-46f8-ac9f-5b3a612f8b58","ios":"levelo://app?vid=3db5fa06-5865-46f8-ac9f-5b3a612f8b58"},"vehicle_type_id":"4","last_reported":1701284740,"current_range_meters":12800,"station_id":"ce4bhb12rcd13ifvqel0","pricing_plan_id":"free"},{"bike_id":"9fc02e1b-18cf-4ba2-a4b6-43fb4433d289","system_id":"levelo_inurba_marseille","lat":43.308896,"lon":5.396372,"is_reserved":false,"is_disabled":false,"rental_uris":{"android":"levelo://app?vid=9fc02e1b-18cf-4ba2-a4b6-43fb4433d289","ios":"levelo://app?vid=9fc02e1b-18cf-4ba2-a4b6-43fb4433d289"},"vehicle_type_id":"4","last_reported":1701284740,"current_range_meters":0,"station_id":"ce4bh012rcd13ifvqcv0","pricing_plan_id":"free"},{"bike_id":"d736a3a0-e0ba-44c9-be47-b2c5d3595594","system_id":"levelo_inurba_marseille","lat":43.313291,"lon":5.396838,"is_reserved":false,"is_disabled":false,"rental_uris":{"android":"levelo://app?vid=d736a3a0-e0ba-44c9-be47-b2c5d3595594","ios":"levelo://app?vid=d736a3a0-e0ba-44c9-be47-b2c5d3595594"},"vehicle_type_id":"4","last_reported":1701284740,"current_range_meters":29600,"station_id":"ce4bgvp2rcd13ifvqcu0","pricing_plan_id":"free"},{"bike_id":"887e78e0-9da4-4826-9863-865544e23e8a","system_id":"levelo_inurba_marseille","lat":43.309038,"lon":5.396546,"is_reserved":false,"is_disabled":false,"rental_uris":{"android":"levelo://app?vid=887e78e0-9da4-4826-9863-865544e23e8a","ios":"levelo://app?vid=887e78e0-9da4-4826-9863-865544e23e8a"},"vehicle_type_id":"4","last_reported":1701284740,"current_range_meters":15200,"station_id":"ce4bh012rcd13ifvqcv0","pricing_plan_id":"free"},{"bike_id":"9b97892f-e5d3-4719-ac76-f97595c651b6","system_id":"levelo_inurba_marseille","lat":43.313291,"lon":5.396838,"is_reserved":false,"is_disabled":false,"rental_uris":{"android":"levelo://app?vid=9b97892f-e5d3-4719-ac76-f97595c651b6","ios":"levelo://app?vid=9b97892f-e5d3-4719-ac76-f97595c651b6"},"vehicle_type_id":"4","last_reported":1701284740,"current_range_meters":15600,"station_id":"ce4bgvp2rcd13ifvqcu0","pricing_plan_id":"free"},{"bike_id":"4a09bbcc-4a9b-4e20-a1dd-dc2d704c2936","system_id":"levelo_inurba_marseille","lat":43.313307,"lon":5.396987,"is_reserved":false,"is_disabled":false,"rental_uris":{"android":"levelo://app?vid=4a09bbcc-4a9b-4e20-a1dd-dc2d704c2936","ios":"levelo://app?vid=4a09bbcc-4a9b-4e20-a1dd-dc2d704c2936"},"vehicle_type_id":"4","last_reported":1701284740,"current_range_meters":30400,"station_id":"ce4bgvp2rcd13ifvqcu0","pricing_plan_id":"free"},{"bike_id":"7c3a263f-151a-4a8a-88c3-35f7de6c51ae","system_id":"levelo_inurba_marseille","lat":43.31332,"lon":5.397,"is_reserved":false,"is_disabled":false,"rental_uris":{"android":"levelo://app?vid=7c3a263f-151a-4a8a-88c3-35f7de6c51ae","ios":"levelo://app?vid=7c3a263f-151a-4a8a-88c3-35f7de6c51ae"},"vehicle_type_id":"4","last_reported":1701284740,"current_range_meters":31200,"station_id":"ce4bgvp2rcd13ifvqcu0","pricing_plan_id":"free"},{"bike_id":"d0bd1234-5ab7-4467-bf10-71fe5a2749fc","system_id":"levelo_inurba_marseille","lat":43.29529,"lon":5.385581,"is_reserved":false,"is_disabled":false,"rental_uris":{"android":"levelo://app?vid=d0bd1234-5ab7-4467-bf10-71fe5a2749fc","ios":"levelo://app?vid=d0bd1234-5ab7-4467-bf10-71fe5a2749fc"},"vehicle_type_id":"4","last_reported":1701284740,"current_range_meters":1200,"station_id":"ce4bgih2rcd13ifvqba0","pricing_plan_id":"free"},{"bike_id":"d869c316-14d9-4676-aba2-63c15e7c5d91","system_id":"levelo_inurba_marseille","lat":43.31326,"lon":5.39719,"is_reserved":false,"is_disabled":false,"rental_uris":{"android":"levelo://app?vid=d869c316-14d9-4676-aba2-63c15e7c5d91","ios":"levelo://app?vid=d869c316-14d9-4676-aba2-63c15e7c5d91"},"vehicle_type_id":"4","last_reported":1701284740,"current_range_meters":29600,"station_id":"ce4bgvp2rcd13ifvqcu0","pricing_plan_id":"free"},{"bike_id":"e6e58503-e103-4cac-834f-d7f8cc0a7ebf","system_id":"levelo_inurba_marseille","lat":43.29529,"lon":5.385581,"is_reserved":false,"is_disabled":false,"rental_uris":{"android":"levelo://app?vid=e6e58503-e103-4cac-834f-d7f8cc0a7ebf","ios":"levelo://app?vid=e6e58503-e103-4cac-834f-d7f8cc0a7ebf"},"vehicle_type_id":"4","last_reported":1701284740,"current_range_meters":0,"station_id":"ce4bgih2rcd13ifvqba0","pricing_plan_id":"free"},{"bike_id":"53a04108-b6bc-42bd-9860-c7a188389977","system_id":"levelo_inurba_marseille","lat":43.290744,"lon":5.371574,"is_reserved":false,"is_disabled":false,"rental_uris":{"android":"levelo://app?vid=53a04108-b6bc-42bd-9860-c7a188389977","ios":"levelo://app?vid=53a04108-b6bc-42bd-9860-c7a188389977"},"vehicle_type_id":"4","last_reported":1701284740,"current_range_meters":2000,"station_id":"","pricing_plan_id":"free"},{"bike_id":"49fee729-ff3e-451a-ac12-7dde25fd963e","system_id":"levelo_inurba_marseille","lat":43.290779,"lon":5.371482,"is_reserved":false,"is_disabled":false,"rental_uris":{"android":"levelo://app?vid=49fee729-ff3e-451a-ac12-7dde25fd963e","ios":"levelo://app?vid=49fee729-ff3e-451a-ac12-7dde25fd963e"},"vehicle_type_id":"4","last_reported":1701284740,"current_range_meters":26800,"station_id":"ce4bh5p2rcd13ifvqe4g","pricing_plan_id":"free"},{"bike_id":"799398f1-3006-4bdd-a7b1-bbeb14787237","system_id":"levelo_inurba_marseille","lat":43.302008,"lon":5.394694,"is_reserved":false,"is_disabled":false,"rental_uris":{"android":"levelo://app?vid=799398f1-3006-4bdd-a7b1-bbeb14787237","ios":"levelo://app?vid=799398f1-3006-4bdd-a7b1-bbeb14787237"},"vehicle_type_id":"4","last_reported":1701284740,"current_range_meters":8400,"station_id":"ce4bh0p2rcd13ifvqd70","pricing_plan_id":"free"},{"bike_id":"09399dd6-7fca-45ec-9bf9-cc78fb9395d8","system_id":"levelo_inurba_marseille","lat":43.290631,"lon":5.359244,"is_reserved":false,"is_disabled":false,"rental_uris":{"android":"levelo://app?vid=09399dd6-7fca-45ec-9bf9-cc78fb9395d8","ios":"levelo://app?vid=09399dd6-7fca-45ec-9bf9-cc78fb9395d8"},"vehicle_type_id":"4","last_reported":1701284740,"current_range_meters":13200,"station_id":"ce4bha92rcd13ifvqeg0","pricing_plan_id":"free"},{"bike_id":"bff90c8d-f8ad-46be-8c94-89ca244dddc2","system_id":"levelo_inurba_marseille","lat":43.294153,"lon":5.386305,"is_reserved":false,"is_disabled":false,"rental_uris":{"android":"levelo://app?vid=bff90c8d-f8ad-46be-8c94-89ca244dddc2","ios":"levelo://app?vid=bff90c8d-f8ad-46be-8c94-89ca244dddc2"},"vehicle_type_id":"4","last_reported":1701284740,"current_range_meters":0,"station_id":"ce4bh2h2rcd13ifvqdh0","pricing_plan_id":"free"},{"bike_id":"fe92dd33-cbaf-43ab-9c1f-cd784d438a6f","system_id":"levelo_inurba_marseille","lat":43.294162,"lon":5.386292,"is_reserved":false,"is_disabled":false,"rental_uris":{"android":"levelo://app?vid=fe92dd33-cbaf-43ab-9c1f-cd784d438a6f","ios":"levelo://app?vid=fe92dd33-cbaf-43ab-9c1f-cd784d438a6f"},"vehicle_type_id":"4","last_reported":1701284740,"current_range_meters":10000,"station_id":"ce4bh2h2rcd13ifvqdh0","pricing_plan_id":"free"},{"bike_id":"3618bff0-e2d0-4021-8472-3709cb15c861","system_id":"levelo_inurba_marseille","lat":43.28942,"lon":5.36633,"is_reserved":false,"is_disabled":false,"rental_uris":{"android":"levelo://app?vid=3618bff0-e2d0-4021-8472-3709cb15c861","ios":"levelo://app?vid=3618bff0-e2d0-4021-8472-3709cb15c861"},"vehicle_type_id":"4","last_reported":1701284740,"current_range_meters":0,"station_id":"ce4bhap2rcd13ifvqek0","pricing_plan_id":"free"},{"bike_id":"561600c7-fb29-4c6e-b6e3-ba6ec1022b99","system_id":"levelo_inurba_marseille","lat":43.289184,"lon":5.366408,"is_reserved":false,"is_disabled":false,"rental_uris":{"android":"levelo://app?vid=561600c7-fb29-4c6e-b6e3-ba6ec1022b99","ios":"levelo://app?vid=561600c7-fb29-4c6e-b6e3-ba6ec1022b99"},"vehicle_type_id":"4","last_reported":1701284740,"current_range_meters":6800,"station_id":"ce4bhap2rcd13ifvqek0","pricing_plan_id":"free"},{"bike_id":"8cb93093-5bc0-416f-99bf-08816200f2ed","system_id":"levelo_inurba_marseille","lat":43.289184,"lon":5.366408,"is_reserved":false,"is_disabled":false,"rental_uris":{"android":"levelo://app?vid=8cb93093-5bc0-416f-99bf-08816200f2ed","ios":"levelo://app?vid=8cb93093-5bc0-416f-99bf-08816200f2ed"},"vehicle_type_id":"4","last_reported":1701284740,"current_range_meters":21200,"station_id":"ce4bhap2rcd13ifvqek0","pricing_plan_id":"free"},{"bike_id":"dd2169e6-d554-4534-bbc7-6685222618d8","system_id":"levelo_inurba_marseille","lat":43.290103,"lon":5.356114,"is_reserved":false,"is_disabled":false,"rental_uris":{"android":"levelo://app?vid=dd2169e6-d554-4534-bbc7-6685222618d8","ios":"levelo://app?vid=dd2169e6-d554-4534-bbc7-6685222618d8"},"vehicle_type_id":"4","last_reported":1701284740,"current_range_meters":800,"station_id":"ce4bhb92rcd13ifvqen0","pricing_plan_id":"free"},{"bike_id":"54bbdb35-5117-4013-8623-1db83b6dca71","system_id":"levelo_inurba_marseille","lat":43.290103,"lon":5.356114,"is_reserved":false,"is_disabled":false,"rental_uris":{"android":"levelo://app?vid=54bbdb35-5117-4013-8623-1db83b6dca71","ios":"levelo://app?vid=54bbdb35-5117-4013-8623-1db83b6dca71"},"vehicle_type_id":"4","last_reported":1701284740,"current_range_meters":4000,"station_id":"ce4bhb92rcd13ifvqen0","pricing_plan_id":"free"},{"bike_id":"ad2f7736-9eec-4d71-a71a-65726625f89e","system_id":"levelo_inurba_marseille","lat":43.33043,"lon":5.3892,"is_reserved":false,"is_disabled":false,"rental_uris":{"android":"levelo://app?vid=ad2f7736-9eec-4d71-a71a-65726625f89e","ios":"levelo://app?vid=ad2f7736-9eec-4d71-a71a-65726625f89e"},"vehicle_type_id":"4","last_reported":1701284740,"current_range_meters":4800,"station_id":"ce4bhr92rcd13ifvqhrg","pricing_plan_id":"free"},{"bike_id":"34bea496-3f1e-4256-b051-849cb983048a","system_id":"levelo_inurba_marseille","lat":43.290103,"lon":5.356114,"is_reserved":false,"is_disabled":false,"rental_uris":{"android":"levelo://app?vid=34bea496-3f1e-4256-b051-849cb983048a","ios":"levelo://app?vid=34bea496-3f1e-4256-b051-849cb983048a"},"vehicle_type_id":"4","last_reported":1701284740,"current_range_meters":23600,"station_id":"ce4bhb92rcd13ifvqen0","pricing_plan_id":"free"},{"bike_id":"d43e64cf-2217-47ec-8e96-5cd098a028ae","system_id":"levelo_inurba_marseille","lat":43.290104,"lon":5.356111,"is_reserved":false,"is_disabled":false,"rental_uris":{"android":"levelo://app?vid=d43e64cf-2217-47ec-8e96-5cd098a028ae","ios":"levelo://app?vid=d43e64cf-2217-47ec-8e96-5cd098a028ae"},"vehicle_type_id":"4","last_reported":1701284740,"current_range_meters":18400,"station_id":"ce4bhb92rcd13ifvqen0","pricing_plan_id":"free"},{"bike_id":"d599b142-0570-4a4d-adf0-3d3996523e32","system_id":"levelo_inurba_marseille","lat":43.290104,"lon":5.356111,"is_reserved":false,"is_disabled":false,"rental_uris":{"android":"levelo://app?vid=d599b142-0570-4a4d-adf0-3d3996523e32","ios":"levelo://app?vid=d599b142-0570-4a4d-adf0-3d3996523e32"},"vehicle_type_id":"4","last_reported":1701284740,"current_range_meters":3200,"station_id":"ce4bhb92rcd13ifvqen0","pricing_plan_id":"free"},{"bike_id":"689ea2d6-880c-46aa-81f5-d62502bb2a30","system_id":"levelo_inurba_marseille","lat":43.290995,"lon":5.381361,"is_reserved":false,"is_disabled":false,"rental_uris":{"android":"levelo://app?vid=689ea2d6-880c-46aa-81f5-d62502bb2a30","ios":"levelo://app?vid=689ea2d6-880c-46aa-81f5-d62502bb2a30"},"vehicle_type_id":"4","last_reported":1701284740,"current_range_meters":16400,"station_id":"ce4bh512rcd13ifvqe2g","pricing_plan_id":"free"},{"bike_id":"8dd6119c-7aef-4d30-9ad4-05127783a43f","system_id":"levelo_inurba_marseille","lat":43.28856,"lon":5.358371,"is_reserved":false,"is_disabled":false,"rental_uris":{"android":"levelo://app?vid=8dd6119c-7aef-4d30-9ad4-05127783a43f","ios":"levelo://app?vid=8dd6119c-7aef-4d30-9ad4-05127783a43f"},"vehicle_type_id":"4","last_reported":1701284740,"current_range_meters":1200,"station_id":"ce4bhb12rcd13ifvqem0","pricing_plan_id":"free"},{"bike_id":"56208fed-65b7-43c7-bea2-60139fa50f28","system_id":"levelo_inurba_marseille","lat":43.289741,"lon":5.378306,"is_reserved":false,"is_disabled":false,"rental_uris":{"android":"levelo://app?vid=56208fed-65b7-43c7-bea2-60139fa50f28","ios":"levelo://app?vid=56208fed-65b7-43c7-bea2-60139fa50f28"},"vehicle_type_id":"4","last_reported":1701284740,"current_range_meters":3600,"station_id":"ce4bh9p2rcd13ifvqed0","pricing_plan_id":"free"},{"bike_id":"bd5a5c31-6495-426c-82e9-f1d928ff8b17","system_id":"levelo_inurba_marseille","lat":43.28856,"lon":5.358371,"is_reserved":false,"is_disabled":false,"rental_uris":{"android":"levelo://app?vid=bd5a5c31-6495-426c-82e9-f1d928ff8b17","ios":"levelo://app?vid=bd5a5c31-6495-426c-82e9-f1d928ff8b17"},"vehicle_type_id":"4","last_reported":1701284740,"current_range_meters":6400,"station_id":"ce4bhb12rcd13ifvqem0","pricing_plan_id":"free"},{"bike_id":"fb7aa3a5-ca37-4bac-bdbb-c731879eb205","system_id":"levelo_inurba_marseille","lat":43.28856,"lon":5.358371,"is_reserved":false,"is_disabled":false,"rental_uris":{"android":"levelo://app?vid=fb7aa3a5-ca37-4bac-bdbb-c731879eb205","ios":"levelo://app?vid=fb7aa3a5-ca37-4bac-bdbb-c731879eb205"},"vehicle_type_id":"4","last_reported":1701284740,"current_range_meters":5200,"station_id":"ce4bhb12rcd13ifvqem0","pricing_plan_id":"free"},{"bike_id":"58b62225-256e-4d7a-addd-88854b12de0e","system_id":"levelo_inurba_marseille","lat":43.28856,"lon":5.358371,"is_reserved":false,"is_disabled":false,"rental_uris":{"android":"levelo://app?vid=58b62225-256e-4d7a-addd-88854b12de0e","ios":"levelo://app?vid=58b62225-256e-4d7a-addd-88854b12de0e"},"vehicle_type_id":"4","last_reported":1701284740,"current_range_meters":20800,"station_id":"ce4bhb12rcd13ifvqem0","pricing_plan_id":"free"},{"bike_id":"9b423f68-d616-48b9-84f8-80768552cb20","system_id":"levelo_inurba_marseille","lat":43.30935,"lon":5.40143,"is_reserved":false,"is_disabled":false,"rental_uris":{"android":"levelo://app?vid=9b423f68-d616-48b9-84f8-80768552cb20","ios":"levelo://app?vid=9b423f68-d616-48b9-84f8-80768552cb20"},"vehicle_type_id":"4","last_reported":1701284740,"current_range_meters":3600,"station_id":"ce4bgvp2rcd13ifvqct0","pricing_plan_id":"free"},{"bike_id":"959c7334-9895-402a-ad4a-727ec9a0454a","system_id":"levelo_inurba_marseille","lat":43.33749,"lon":5.37449,"is_reserved":false,"is_disabled":false,"rental_uris":{"android":"levelo://app?vid=959c7334-9895-402a-ad4a-727ec9a0454a","ios":"levelo://app?vid=959c7334-9895-402a-ad4a-727ec9a0454a"},"vehicle_type_id":"4","last_reported":1701284740,"current_range_meters":29200,"station_id":"","pricing_plan_id":"free"},{"bike_id":"854b19d0-18b3-43de-b1b9-1e844087ef5d","system_id":"levelo_inurba_marseille","lat":43.309371,"lon":5.401449,"is_reserved":false,"is_disabled":false,"rental_uris":{"android":"levelo://app?vid=854b19d0-18b3-43de-b1b9-1e844087ef5d","ios":"levelo://app?vid=854b19d0-18b3-43de-b1b9-1e844087ef5d"},"vehicle_type_id":"4","last_reported":1701284740,"current_range_meters":4000,"station_id":"ce4bgvp2rcd13ifvqct0","pricing_plan_id":"free"},{"bike_id":"6ea13113-8a59-4240-b979-38b120a1f26f","system_id":"levelo_inurba_marseille","lat":43.306567,"lon":5.400783,"is_reserved":false,"is_disabled":false,"rental_uris":{"android":"levelo://app?vid=6ea13113-8a59-4240-b979-38b120a1f26f","ios":"levelo://app?vid=6ea13113-8a59-4240-b979-38b120a1f26f"},"vehicle_type_id":"4","last_reported":1701284740,"current_range_meters":0,"station_id":"ce4bh112rcd13ifvqda0","pricing_plan_id":"free"},{"bike_id":"fb5f170d-2490-4436-87a6-bba2582b13d8","system_id":"levelo_inurba_marseille","lat":43.33756,"lon":5.37454,"is_reserved":false,"is_disabled":false,"rental_uris":{"android":"levelo://app?vid=fb5f170d-2490-4436-87a6-bba2582b13d8","ios":"levelo://app?vid=fb5f170d-2490-4436-87a6-bba2582b13d8"},"vehicle_type_id":"4","last_reported":1701284740,"current_range_meters":20000,"station_id":"","pricing_plan_id":"free"},{"bike_id":"7620b8f1-7dfb-4e86-ae84-85187bc0556d","system_id":"levelo_inurba_marseille","lat":43.301117,"lon":5.398795,"is_reserved":false,"is_disabled":false,"rental_uris":{"android":"levelo://app?vid=7620b8f1-7dfb-4e86-ae84-85187bc0556d","ios":"levelo://app?vid=7620b8f1-7dfb-4e86-ae84-85187bc0556d"},"vehicle_type_id":"4","last_reported":1701284740,"current_range_meters":17600,"station_id":"ce4bh0h2rcd13ifvqd40","pricing_plan_id":"free"},{"bike_id":"1cd9cdd2-5dc3-4b7a-b58d-e4c21bdddb29","system_id":"levelo_inurba_marseille","lat":43.301117,"lon":5.398795,"is_reserved":false,"is_disabled":false,"rental_uris":{"android":"levelo://app?vid=1cd9cdd2-5dc3-4b7a-b58d-e4c21bdddb29","ios":"levelo://app?vid=1cd9cdd2-5dc3-4b7a-b58d-e4c21bdddb29"},"vehicle_type_id":"4","last_reported":1701284740,"current_range_meters":12000,"station_id":"ce4bh0h2rcd13ifvqd40","pricing_plan_id":"free"},{"bike_id":"713f67b8-b4c7-4572-95f9-6af4967dff9c","system_id":"levelo_inurba_marseille","lat":43.28704,"lon":5.3738,"is_reserved":false,"is_disabled":false,"rental_uris":{"android":"levelo://app?vid=713f67b8-b4c7-4572-95f9-6af4967dff9c","ios":"levelo://app?vid=713f67b8-b4c7-4572-95f9-6af4967dff9c"},"vehicle_type_id":"4","last_reported":1701284740,"current_range_meters":0,"station_id":"ce4bh3p2rcd13ifvqdq0","pricing_plan_id":"free"},{"bike_id":"d4bf3a1c-6ca4-42b6-b1eb-ff77eb67050d","system_id":"levelo_inurba_marseille","lat":43.286593,"lon":5.363346,"is_reserved":false,"is_disabled":false,"rental_uris":{"android":"levelo://app?vid=d4bf3a1c-6ca4-42b6-b1eb-ff77eb67050d","ios":"levelo://app?vid=d4bf3a1c-6ca4-42b6-b1eb-ff77eb67050d"},"vehicle_type_id":"4","last_reported":1701284740,"current_range_meters":11200,"station_id":"ce4bhah2rcd13ifvqej0","pricing_plan_id":"free"},{"bike_id":"4e9ab30d-2e1e-4ea9-8e92-126c06348fd4","system_id":"levelo_inurba_marseille","lat":43.29035,"lon":5.38618,"is_reserved":false,"is_disabled":false,"rental_uris":{"android":"levelo://app?vid=4e9ab30d-2e1e-4ea9-8e92-126c06348fd4","ios":"levelo://app?vid=4e9ab30d-2e1e-4ea9-8e92-126c06348fd4"},"vehicle_type_id":"4","last_reported":1701284740,"current_range_meters":28800,"station_id":"ce4bh4p2rcd13ifvqe0g","pricing_plan_id":"free"},{"bike_id":"204a466b-c20a-4444-9833-e0fcc717d0cd","system_id":"levelo_inurba_marseille","lat":43.29035,"lon":5.38633,"is_reserved":false,"is_disabled":false,"rental_uris":{"android":"levelo://app?vid=204a466b-c20a-4444-9833-e0fcc717d0cd","ios":"levelo://app?vid=204a466b-c20a-4444-9833-e0fcc717d0cd"},"vehicle_type_id":"4","last_reported":1701284740,"current_range_meters":4400,"station_id":"ce4bh4p2rcd13ifvqe0g","pricing_plan_id":"free"},{"bike_id":"f2ea8347-169c-407b-9d96-4e377f679873","system_id":"levelo_inurba_marseille","lat":43.290275,"lon":5.38627,"is_reserved":false,"is_disabled":false,"rental_uris":{"android":"levelo://app?vid=f2ea8347-169c-407b-9d96-4e377f679873","ios":"levelo://app?vid=f2ea8347-169c-407b-9d96-4e377f679873"},"vehicle_type_id":"4","last_reported":1701284740,"current_range_meters":18800,"station_id":"","pricing_plan_id":"free"},{"bike_id":"d5b8d4c5-bb97-4bd7-9bb8-3450f8282e40","system_id":"levelo_inurba_marseille","lat":43.302759,"lon":5.400793,"is_reserved":false,"is_disabled":false,"rental_uris":{"android":"levelo://app?vid=d5b8d4c5-bb97-4bd7-9bb8-3450f8282e40","ios":"levelo://app?vid=d5b8d4c5-bb97-4bd7-9bb8-3450f8282e40"},"vehicle_type_id":"4","last_reported":1701284740,"current_range_meters":20400,"station_id":"ce4bgvh2rcd13ifvqcs0","pricing_plan_id":"free"},{"bike_id":"25755960-aa3b-4310-a962-6897f27bf45b","system_id":"levelo_inurba_marseille","lat":43.290262,"lon":5.386473,"is_reserved":false,"is_disabled":false,"rental_uris":{"android":"levelo://app?vid=25755960-aa3b-4310-a962-6897f27bf45b","ios":"levelo://app?vid=25755960-aa3b-4310-a962-6897f27bf45b"},"vehicle_type_id":"4","last_reported":1701284740,"current_range_meters":12400,"station_id":"","pricing_plan_id":"free"},{"bike_id":"0526307c-0370-4e37-b020-e1bf9bba0bb2","system_id":"levelo_inurba_marseille","lat":43.302759,"lon":5.400793,"is_reserved":false,"is_disabled":false,"rental_uris":{"android":"levelo://app?vid=0526307c-0370-4e37-b020-e1bf9bba0bb2","ios":"levelo://app?vid=0526307c-0370-4e37-b020-e1bf9bba0bb2"},"vehicle_type_id":"4","last_reported":1701284740,"current_range_meters":4000,"station_id":"ce4bgvh2rcd13ifvqcs0","pricing_plan_id":"free"},{"bike_id":"8296418a-b4a9-4348-b696-b19482c12906","system_id":"levelo_inurba_marseille","lat":43.290179,"lon":5.386561,"is_reserved":false,"is_disabled":false,"rental_uris":{"android":"levelo://app?vid=8296418a-b4a9-4348-b696-b19482c12906","ios":"levelo://app?vid=8296418a-b4a9-4348-b696-b19482c12906"},"vehicle_type_id":"4","last_reported":1701284740,"current_range_meters":0,"station_id":"","pricing_plan_id":"free"},{"bike_id":"954f4efa-609b-491c-b070-69b1a37e943b","system_id":"levelo_inurba_marseille","lat":43.286039,"lon":5.370679,"is_reserved":false,"is_disabled":false,"rental_uris":{"android":"levelo://app?vid=954f4efa-609b-491c-b070-69b1a37e943b","ios":"levelo://app?vid=954f4efa-609b-491c-b070-69b1a37e943b"},"vehicle_type_id":"4","last_reported":1701284740,"current_range_meters":19600,"station_id":"ce4bht12rcd13ifvqi60","pricing_plan_id":"free"},{"bike_id":"02fcc584-c8b8-4992-9f27-1b91b53f8229","system_id":"levelo_inurba_marseille","lat":43.28462,"lon":5.35899,"is_reserved":false,"is_disabled":false,"rental_uris":{"android":"levelo://app?vid=02fcc584-c8b8-4992-9f27-1b91b53f8229","ios":"levelo://app?vid=02fcc584-c8b8-4992-9f27-1b91b53f8229"},"vehicle_type_id":"4","last_reported":1701284740,"current_range_meters":0,"station_id":"ce4bhah2rcd13ifvqei0","pricing_plan_id":"free"},{"bike_id":"bce8683f-c779-4be1-a388-197e44b65b21","system_id":"levelo_inurba_marseille","lat":43.284625,"lon":5.358908,"is_reserved":false,"is_disabled":false,"rental_uris":{"android":"levelo://app?vid=bce8683f-c779-4be1-a388-197e44b65b21","ios":"levelo://app?vid=bce8683f-c779-4be1-a388-197e44b65b21"},"vehicle_type_id":"4","last_reported":1701284740,"current_range_meters":5200,"station_id":"ce4bhah2rcd13ifvqei0","pricing_plan_id":"free"},{"bike_id":"f9601311-7b5a-45ca-b201-3634bd08062d","system_id":"levelo_inurba_marseille","lat":43.28615,"lon":5.35101,"is_reserved":false,"is_disabled":false,"rental_uris":{"android":"levelo://app?vid=f9601311-7b5a-45ca-b201-3634bd08062d","ios":"levelo://app?vid=f9601311-7b5a-45ca-b201-3634bd08062d"},"vehicle_type_id":"4","last_reported":1701284740,"current_range_meters":20800,"station_id":"ce4bhch2rcd13ifvqeug","pricing_plan_id":"free"},{"bike_id":"6d9d61a6-296e-4a36-849c-473d91eb59a2","system_id":"levelo_inurba_marseille","lat":43.295716,"lon":5.399782,"is_reserved":false,"is_disabled":false,"rental_uris":{"android":"levelo://app?vid=6d9d61a6-296e-4a36-849c-473d91eb59a2","ios":"levelo://app?vid=6d9d61a6-296e-4a36-849c-473d91eb59a2"},"vehicle_type_id":"4","last_reported":1701284740,"current_range_meters":0,"station_id":"ce4bh312rcd13ifvqdj0","pricing_plan_id":"free"},{"bike_id":"1fd15ded-26de-4593-ba9f-39e33fbdd455","system_id":"levelo_inurba_marseille","lat":43.288501,"lon":5.393087,"is_reserved":false,"is_disabled":false,"rental_uris":{"android":"levelo://app?vid=1fd15ded-26de-4593-ba9f-39e33fbdd455","ios":"levelo://app?vid=1fd15ded-26de-4593-ba9f-39e33fbdd455"},"vehicle_type_id":"4","last_reported":1701284740,"current_range_meters":24000,"station_id":"ce4bh2p2rcd13ifvqdi0","pricing_plan_id":"free"},{"bike_id":"d2120d76-0fad-47eb-b244-dc59d199f1f4","system_id":"levelo_inurba_marseille","lat":43.33342,"lon":5.398684,"is_reserved":false,"is_disabled":false,"rental_uris":{"android":"levelo://app?vid=d2120d76-0fad-47eb-b244-dc59d199f1f4","ios":"levelo://app?vid=d2120d76-0fad-47eb-b244-dc59d199f1f4"},"vehicle_type_id":"4","last_reported":1701284740,"current_range_meters":2000,"station_id":"","pricing_plan_id":"free"},{"bike_id":"f2240c5d-7466-4949-8927-38b568ddd3e8","system_id":"levelo_inurba_marseille","lat":43.292724,"lon":5.401131,"is_reserved":false,"is_disabled":false,"rental_uris":{"android":"levelo://app?vid=f2240c5d-7466-4949-8927-38b568ddd3e8","ios":"levelo://app?vid=f2240c5d-7466-4949-8927-38b568ddd3e8"},"vehicle_type_id":"4","last_reported":1701284740,"current_range_meters":22400,"station_id":"ce4bh312rcd13ifvqdk0","pricing_plan_id":"free"},{"bike_id":"57779e04-8afa-4377-95b2-da8342b685c2","system_id":"levelo_inurba_marseille","lat":43.282754,"lon":5.350519,"is_reserved":false,"is_disabled":false,"rental_uris":{"android":"levelo://app?vid=57779e04-8afa-4377-95b2-da8342b685c2","ios":"levelo://app?vid=57779e04-8afa-4377-95b2-da8342b685c2"},"vehicle_type_id":"4","last_reported":1701284740,"current_range_meters":5600,"station_id":"ce4bhbp2rcd13ifvqerg","pricing_plan_id":"free"},{"bike_id":"30a97aca-b684-4e51-aa70-f687ae0f0064","system_id":"levelo_inurba_marseille","lat":43.28276,"lon":5.35053,"is_reserved":false,"is_disabled":false,"rental_uris":{"android":"levelo://app?vid=30a97aca-b684-4e51-aa70-f687ae0f0064","ios":"levelo://app?vid=30a97aca-b684-4e51-aa70-f687ae0f0064"},"vehicle_type_id":"4","last_reported":1701284740,"current_range_meters":0,"station_id":"ce4bhbp2rcd13ifvqerg","pricing_plan_id":"free"},{"bike_id":"9e7d2b7e-d41e-4100-b53e-3884bdb92092","system_id":"levelo_inurba_marseille","lat":43.282744,"lon":5.350533,"is_reserved":false,"is_disabled":false,"rental_uris":{"android":"levelo://app?vid=9e7d2b7e-d41e-4100-b53e-3884bdb92092","ios":"levelo://app?vid=9e7d2b7e-d41e-4100-b53e-3884bdb92092"},"vehicle_type_id":"4","last_reported":1701284740,"current_range_meters":28800,"station_id":"ce4bhbp2rcd13ifvqerg","pricing_plan_id":"free"},{"bike_id":"babc2d95-9b8c-4ee4-8c3d-6aa0f5fb51df","system_id":"levelo_inurba_marseille","lat":43.282744,"lon":5.350533,"is_reserved":false,"is_disabled":false,"rental_uris":{"android":"levelo://app?vid=babc2d95-9b8c-4ee4-8c3d-6aa0f5fb51df","ios":"levelo://app?vid=babc2d95-9b8c-4ee4-8c3d-6aa0f5fb51df"},"vehicle_type_id":"4","last_reported":1701284740,"current_range_meters":15200,"station_id":"ce4bhbp2rcd13ifvqerg","pricing_plan_id":"free"},{"bike_id":"b39cf2b2-ecca-4141-a4e9-def827cec38f","system_id":"levelo_inurba_marseille","lat":43.2804,"lon":5.36937,"is_reserved":false,"is_disabled":false,"rental_uris":{"android":"levelo://app?vid=b39cf2b2-ecca-4141-a4e9-def827cec38f","ios":"levelo://app?vid=b39cf2b2-ecca-4141-a4e9-def827cec38f"},"vehicle_type_id":"4","last_reported":1701284740,"current_range_meters":6000,"station_id":"ce4bha12rcd13ifvqef0","pricing_plan_id":"free"},{"bike_id":"275d6402-0ea6-4af0-8fc5-9b35462d469f","system_id":"levelo_inurba_marseille","lat":43.280382,"lon":5.369291,"is_reserved":false,"is_disabled":false,"rental_uris":{"android":"levelo://app?vid=275d6402-0ea6-4af0-8fc5-9b35462d469f","ios":"levelo://app?vid=275d6402-0ea6-4af0-8fc5-9b35462d469f"},"vehicle_type_id":"4","last_reported":1701284740,"current_range_meters":8400,"station_id":"ce4bha12rcd13ifvqef0","pricing_plan_id":"free"},{"bike_id":"f3edfa28-1f6b-4879-b4f7-158bdbbdee95","system_id":"levelo_inurba_marseille","lat":43.280382,"lon":5.369291,"is_reserved":false,"is_disabled":false,"rental_uris":{"android":"levelo://app?vid=f3edfa28-1f6b-4879-b4f7-158bdbbdee95","ios":"levelo://app?vid=f3edfa28-1f6b-4879-b4f7-158bdbbdee95"},"vehicle_type_id":"4","last_reported":1701284740,"current_range_meters":30400,"station_id":"ce4bha12rcd13ifvqef0","pricing_plan_id":"free"},{"bike_id":"730d6574-35f2-4c7e-a4c2-72ac67eb3b70","system_id":"levelo_inurba_marseille","lat":43.280382,"lon":5.369291,"is_reserved":false,"is_disabled":false,"rental_uris":{"android":"levelo://app?vid=730d6574-35f2-4c7e-a4c2-72ac67eb3b70","ios":"levelo://app?vid=730d6574-35f2-4c7e-a4c2-72ac67eb3b70"},"vehicle_type_id":"4","last_reported":1701284740,"current_range_meters":25600,"station_id":"ce4bha12rcd13ifvqef0","pricing_plan_id":"free"},{"bike_id":"f6ebb7a9-b097-4f65-bad2-e6900739b283","system_id":"levelo_inurba_marseille","lat":43.28039,"lon":5.369297,"is_reserved":false,"is_disabled":false,"rental_uris":{"android":"levelo://app?vid=f6ebb7a9-b097-4f65-bad2-e6900739b283","ios":"levelo://app?vid=f6ebb7a9-b097-4f65-bad2-e6900739b283"},"vehicle_type_id":"4","last_reported":1701284740,"current_range_meters":29200,"station_id":"ce4bha12rcd13ifvqef0","pricing_plan_id":"free"},{"bike_id":"50b9c447-0cd6-4d43-9fd6-b2b09fd4d1df","system_id":"levelo_inurba_marseille","lat":43.281044,"lon":5.378308,"is_reserved":false,"is_disabled":false,"rental_uris":{"android":"levelo://app?vid=50b9c447-0cd6-4d43-9fd6-b2b09fd4d1df","ios":"levelo://app?vid=50b9c447-0cd6-4d43-9fd6-b2b09fd4d1df"},"vehicle_type_id":"4","last_reported":1701284740,"current_range_meters":7200,"station_id":"ce4bha12rcd13ifvqee0","pricing_plan_id":"free"},{"bike_id":"956f7551-abbc-42c5-bcc6-9ce6ccd26220","system_id":"levelo_inurba_marseille","lat":43.281044,"lon":5.378308,"is_reserved":false,"is_disabled":false,"rental_uris":{"android":"levelo://app?vid=956f7551-abbc-42c5-bcc6-9ce6ccd26220","ios":"levelo://app?vid=956f7551-abbc-42c5-bcc6-9ce6ccd26220"},"vehicle_type_id":"4","last_reported":1701284740,"current_range_meters":8400,"station_id":"ce4bha12rcd13ifvqee0","pricing_plan_id":"free"},{"bike_id":"fba1bf70-eee7-4253-be10-052639b58afc","system_id":"levelo_inurba_marseille","lat":43.284462,"lon":5.392121,"is_reserved":false,"is_disabled":false,"rental_uris":{"android":"levelo://app?vid=fba1bf70-eee7-4253-be10-052639b58afc","ios":"levelo://app?vid=fba1bf70-eee7-4253-be10-052639b58afc"},"vehicle_type_id":"4","last_reported":1701284740,"current_range_meters":1600,"station_id":"ce4bhoh2rcd13ifvqh5g","pricing_plan_id":"free"},{"bike_id":"29c0ce43-fe61-4c99-a846-f386a86ae7f7","system_id":"levelo_inurba_marseille","lat":43.284462,"lon":5.392121,"is_reserved":false,"is_disabled":false,"rental_uris":{"android":"levelo://app?vid=29c0ce43-fe61-4c99-a846-f386a86ae7f7","ios":"levelo://app?vid=29c0ce43-fe61-4c99-a846-f386a86ae7f7"},"vehicle_type_id":"4","last_reported":1701284740,"current_range_meters":22400,"station_id":"ce4bhoh2rcd13ifvqh5g","pricing_plan_id":"free"},{"bike_id":"010d9f9f-5238-4fb9-b42b-e62d985c34ce","system_id":"levelo_inurba_marseille","lat":43.304188,"lon":5.412904,"is_reserved":false,"is_disabled":false,"rental_uris":{"android":"levelo://app?vid=010d9f9f-5238-4fb9-b42b-e62d985c34ce","ios":"levelo://app?vid=010d9f9f-5238-4fb9-b42b-e62d985c34ce"},"vehicle_type_id":"4","last_reported":1701284740,"current_range_meters":9200,"station_id":"ce4bhop2rcd13ifvqh8g","pricing_plan_id":"free"},{"bike_id":"a5bb187d-181a-43e7-9fde-4a868f311a26","system_id":"levelo_inurba_marseille","lat":43.279087,"lon":5.380114,"is_reserved":false,"is_disabled":false,"rental_uris":{"android":"levelo://app?vid=a5bb187d-181a-43e7-9fde-4a868f311a26","ios":"levelo://app?vid=a5bb187d-181a-43e7-9fde-4a868f311a26"},"vehicle_type_id":"4","last_reported":1701284740,"current_range_meters":13600,"station_id":"ce4bhf92rcd13ifvqf50","pricing_plan_id":"free"},{"bike_id":"83397cea-2635-43e5-b2fa-f1ab4be41b4c","system_id":"levelo_inurba_marseille","lat":43.27903,"lon":5.38019,"is_reserved":false,"is_disabled":false,"rental_uris":{"android":"levelo://app?vid=83397cea-2635-43e5-b2fa-f1ab4be41b4c","ios":"levelo://app?vid=83397cea-2635-43e5-b2fa-f1ab4be41b4c"},"vehicle_type_id":"4","last_reported":1701284740,"current_range_meters":0,"station_id":"ce4bhf92rcd13ifvqf50","pricing_plan_id":"free"},{"bike_id":"62959f90-fcd5-4229-abc7-0801a6e6276f","system_id":"levelo_inurba_marseille","lat":43.279742,"lon":5.38744,"is_reserved":false,"is_disabled":false,"rental_uris":{"android":"levelo://app?vid=62959f90-fcd5-4229-abc7-0801a6e6276f","ios":"levelo://app?vid=62959f90-fcd5-4229-abc7-0801a6e6276f"},"vehicle_type_id":"4","last_reported":1701284740,"current_range_meters":26400,"station_id":"ce4bhg12rcd13ifvqf80","pricing_plan_id":"free"},{"bike_id":"827eaff3-4e9a-4214-a175-f4bd88056092","system_id":"levelo_inurba_marseille","lat":43.27618,"lon":5.361009,"is_reserved":false,"is_disabled":false,"rental_uris":{"android":"levelo://app?vid=827eaff3-4e9a-4214-a175-f4bd88056092","ios":"levelo://app?vid=827eaff3-4e9a-4214-a175-f4bd88056092"},"vehicle_type_id":"4","last_reported":1701284740,"current_range_meters":16000,"station_id":"ce4bgj92rcd13ifvqbe0","pricing_plan_id":"free"},{"bike_id":"73c210cd-d4ca-42ad-a6ef-47262b8ad102","system_id":"levelo_inurba_marseille","lat":43.280784,"lon":5.396622,"is_reserved":false,"is_disabled":false,"rental_uris":{"android":"levelo://app?vid=73c210cd-d4ca-42ad-a6ef-47262b8ad102","ios":"levelo://app?vid=73c210cd-d4ca-42ad-a6ef-47262b8ad102"},"vehicle_type_id":"4","last_reported":1701284740,"current_range_meters":22400,"station_id":"ce4bho12rcd13ifvqh2g","pricing_plan_id":"free"},{"bike_id":"501524f4-f9ef-4f91-bc7b-280dd09aa0e0","system_id":"levelo_inurba_marseille","lat":43.278401,"lon":5.392152,"is_reserved":false,"is_disabled":false,"rental_uris":{"android":"levelo://app?vid=501524f4-f9ef-4f91-bc7b-280dd09aa0e0","ios":"levelo://app?vid=501524f4-f9ef-4f91-bc7b-280dd09aa0e0"},"vehicle_type_id":"4","last_reported":1701284740,"current_range_meters":4800,"station_id":"ce4bhjp2rcd13ifvqga0","pricing_plan_id":"free"},{"bike_id":"d5414050-262d-4ebb-935b-d4ad91bd844a","system_id":"levelo_inurba_marseille","lat":43.278401,"lon":5.392152,"is_reserved":false,"is_disabled":false,"rental_uris":{"android":"levelo://app?vid=d5414050-262d-4ebb-935b-d4ad91bd844a","ios":"levelo://app?vid=d5414050-262d-4ebb-935b-d4ad91bd844a"},"vehicle_type_id":"4","last_reported":1701284740,"current_range_meters":2800,"station_id":"ce4bhjp2rcd13ifvqga0","pricing_plan_id":"free"},{"bike_id":"f24bc288-73f9-4d38-b2ff-bbd72ec4c6da","system_id":"levelo_inurba_marseille","lat":43.2784,"lon":5.3921,"is_reserved":false,"is_disabled":false,"rental_uris":{"android":"levelo://app?vid=f24bc288-73f9-4d38-b2ff-bbd72ec4c6da","ios":"levelo://app?vid=f24bc288-73f9-4d38-b2ff-bbd72ec4c6da"},"vehicle_type_id":"4","last_reported":1701284740,"current_range_meters":0,"station_id":"ce4bhjp2rcd13ifvqga0","pricing_plan_id":"free"},{"bike_id":"0a049d50-b041-4147-af81-584cd5aff2e6","system_id":"levelo_inurba_marseille","lat":43.278401,"lon":5.392152,"is_reserved":false,"is_disabled":false,"rental_uris":{"android":"levelo://app?vid=0a049d50-b041-4147-af81-584cd5aff2e6","ios":"levelo://app?vid=0a049d50-b041-4147-af81-584cd5aff2e6"},"vehicle_type_id":"4","last_reported":1701284740,"current_range_meters":24000,"station_id":"ce4bhjp2rcd13ifvqga0","pricing_plan_id":"free"},{"bike_id":"296f705c-8804-4ce5-861e-e9c04f4fe098","system_id":"levelo_inurba_marseille","lat":43.27835,"lon":5.39203,"is_reserved":false,"is_disabled":false,"rental_uris":{"android":"levelo://app?vid=296f705c-8804-4ce5-861e-e9c04f4fe098","ios":"levelo://app?vid=296f705c-8804-4ce5-861e-e9c04f4fe098"},"vehicle_type_id":"4","last_reported":1701284740,"current_range_meters":16000,"station_id":"ce4bhjp2rcd13ifvqga0","pricing_plan_id":"free"},{"bike_id":"b224427a-db73-4df2-8587-66b6f15eb21c","system_id":"levelo_inurba_marseille","lat":43.278399,"lon":5.392139,"is_reserved":false,"is_disabled":false,"rental_uris":{"android":"levelo://app?vid=b224427a-db73-4df2-8587-66b6f15eb21c","ios":"levelo://app?vid=b224427a-db73-4df2-8587-66b6f15eb21c"},"vehicle_type_id":"4","last_reported":1701284740,"current_range_meters":2800,"station_id":"ce4bhjp2rcd13ifvqga0","pricing_plan_id":"free"},{"bike_id":"f446fc7b-7371-4f46-a6d1-ad41abff8e72","system_id":"levelo_inurba_marseille","lat":43.27828,"lon":5.39208,"is_reserved":false,"is_disabled":false,"rental_uris":{"android":"levelo://app?vid=f446fc7b-7371-4f46-a6d1-ad41abff8e72","ios":"levelo://app?vid=f446fc7b-7371-4f46-a6d1-ad41abff8e72"},"vehicle_type_id":"4","last_reported":1701284740,"current_range_meters":11600,"station_id":"ce4bhjp2rcd13ifvqga0","pricing_plan_id":"free"},{"bike_id":"2ff8d530-edfd-4dcb-b395-370a78501d2b","system_id":"levelo_inurba_marseille","lat":43.275938,"lon":5.389363,"is_reserved":false,"is_disabled":false,"rental_uris":{"android":"levelo://app?vid=2ff8d530-edfd-4dcb-b395-370a78501d2b","ios":"levelo://app?vid=2ff8d530-edfd-4dcb-b395-370a78501d2b"},"vehicle_type_id":"4","last_reported":1701284740,"current_range_meters":26400,"station_id":"","pricing_plan_id":"free"},{"bike_id":"26bdd0b4-350e-4474-8ebf-56e9ab6b60cd","system_id":"levelo_inurba_marseille","lat":43.317121,"lon":5.423936,"is_reserved":false,"is_disabled":false,"rental_uris":{"android":"levelo://app?vid=26bdd0b4-350e-4474-8ebf-56e9ab6b60cd","ios":"levelo://app?vid=26bdd0b4-350e-4474-8ebf-56e9ab6b60cd"},"vehicle_type_id":"4","last_reported":1701284740,"current_range_meters":800,"station_id":"ce4bhp92rcd13ifvqhbg","pricing_plan_id":"free"},{"bike_id":"69074476-d243-4f41-9b35-a2ca1c437551","system_id":"levelo_inurba_marseille","lat":43.317121,"lon":5.423936,"is_reserved":false,"is_disabled":false,"rental_uris":{"android":"levelo://app?vid=69074476-d243-4f41-9b35-a2ca1c437551","ios":"levelo://app?vid=69074476-d243-4f41-9b35-a2ca1c437551"},"vehicle_type_id":"4","last_reported":1701284740,"current_range_meters":28000,"station_id":"ce4bhp92rcd13ifvqhbg","pricing_plan_id":"free"},{"bike_id":"a76aea1e-f460-4283-9591-8fd8c7ac0ea7","system_id":"levelo_inurba_marseille","lat":43.340804,"lon":5.410219,"is_reserved":false,"is_disabled":false,"rental_uris":{"android":"levelo://app?vid=a76aea1e-f460-4283-9591-8fd8c7ac0ea7","ios":"levelo://app?vid=a76aea1e-f460-4283-9591-8fd8c7ac0ea7"},"vehicle_type_id":"4","last_reported":1701284740,"current_range_meters":10400,"station_id":"ce4bhqh2rcd13ifvqhlg","pricing_plan_id":"free"},{"bike_id":"678707f0-f18b-4526-938d-cbb54df77004","system_id":"levelo_inurba_marseille","lat":43.275056,"lon":5.396204,"is_reserved":false,"is_disabled":false,"rental_uris":{"android":"levelo://app?vid=678707f0-f18b-4526-938d-cbb54df77004","ios":"levelo://app?vid=678707f0-f18b-4526-938d-cbb54df77004"},"vehicle_type_id":"4","last_reported":1701284740,"current_range_meters":30400,"station_id":"","pricing_plan_id":"free"},{"bike_id":"4629788e-4f7a-4103-b95e-583d0b30f54b","system_id":"levelo_inurba_marseille","lat":43.27283,"lon":5.39092,"is_reserved":false,"is_disabled":false,"rental_uris":{"android":"levelo://app?vid=4629788e-4f7a-4103-b95e-583d0b30f54b","ios":"levelo://app?vid=4629788e-4f7a-4103-b95e-583d0b30f54b"},"vehicle_type_id":"4","last_reported":1701284740,"current_range_meters":0,"station_id":"ce4bhgp2rcd13ifvqfe0","pricing_plan_id":"free"},{"bike_id":"0120dbbf-4353-4df3-96d2-747d00c5e0f6","system_id":"levelo_inurba_marseille","lat":43.2952,"lon":5.42276,"is_reserved":false,"is_disabled":false,"rental_uris":{"android":"levelo://app?vid=0120dbbf-4353-4df3-96d2-747d00c5e0f6","ios":"levelo://app?vid=0120dbbf-4353-4df3-96d2-747d00c5e0f6"},"vehicle_type_id":"4","last_reported":1701284740,"current_range_meters":23600,"station_id":"ce4bhph2rcd13ifvqhdg","pricing_plan_id":"free"},{"bike_id":"694aed59-e71a-4752-8342-82ee2778c1c9","system_id":"levelo_inurba_marseille","lat":43.272116,"lon":5.391763,"is_reserved":false,"is_disabled":false,"rental_uris":{"android":"levelo://app?vid=694aed59-e71a-4752-8342-82ee2778c1c9","ios":"levelo://app?vid=694aed59-e71a-4752-8342-82ee2778c1c9"},"vehicle_type_id":"4","last_reported":1701284740,"current_range_meters":0,"station_id":"ce4bhhp2rcd13ifvqfm0","pricing_plan_id":"free"},{"bike_id":"a77ff4ee-8be9-4d58-9101-6e5b4c0186f4","system_id":"levelo_inurba_marseille","lat":43.278128,"lon":5.407195,"is_reserved":false,"is_disabled":false,"rental_uris":{"android":"levelo://app?vid=a77ff4ee-8be9-4d58-9101-6e5b4c0186f4","ios":"levelo://app?vid=a77ff4ee-8be9-4d58-9101-6e5b4c0186f4"},"vehicle_type_id":"4","last_reported":1701284740,"current_range_meters":7200,"station_id":"ce4bhnh2rcd13ifvqgtg","pricing_plan_id":"free"},{"bike_id":"b86dbd69-5cf9-4dd0-9316-a75973d7ca26","system_id":"levelo_inurba_marseille","lat":43.27996,"lon":5.416624,"is_reserved":false,"is_disabled":false,"rental_uris":{"android":"levelo://app?vid=b86dbd69-5cf9-4dd0-9316-a75973d7ca26","ios":"levelo://app?vid=b86dbd69-5cf9-4dd0-9316-a75973d7ca26"},"vehicle_type_id":"4","last_reported":1701284740,"current_range_meters":20400,"station_id":"ce4bho12rcd13ifvqh1g","pricing_plan_id":"free"},{"bike_id":"5b8d6ebd-7a55-479a-89ac-ee7802dc6529","system_id":"levelo_inurba_marseille","lat":43.265714,"lon":5.372891,"is_reserved":false,"is_disabled":false,"rental_uris":{"android":"levelo://app?vid=5b8d6ebd-7a55-479a-89ac-ee7802dc6529","ios":"levelo://app?vid=5b8d6ebd-7a55-479a-89ac-ee7802dc6529"},"vehicle_type_id":"4","last_reported":1701284740,"current_range_meters":17200,"station_id":"ce4bhg12rcd13ifvqf70","pricing_plan_id":"free"},{"bike_id":"41bb4c7b-e964-49c7-9e0c-a0d7453b1535","system_id":"levelo_inurba_marseille","lat":43.265714,"lon":5.372891,"is_reserved":false,"is_disabled":false,"rental_uris":{"android":"levelo://app?vid=41bb4c7b-e964-49c7-9e0c-a0d7453b1535","ios":"levelo://app?vid=41bb4c7b-e964-49c7-9e0c-a0d7453b1535"},"vehicle_type_id":"4","last_reported":1701284740,"current_range_meters":15200,"station_id":"ce4bhg12rcd13ifvqf70","pricing_plan_id":"free"},{"bike_id":"0d006465-d816-465b-bbac-7bf816938765","system_id":"levelo_inurba_marseille","lat":43.317104,"lon":5.436818,"is_reserved":false,"is_disabled":false,"rental_uris":{"android":"levelo://app?vid=0d006465-d816-465b-bbac-7bf816938765","ios":"levelo://app?vid=0d006465-d816-465b-bbac-7bf816938765"},"vehicle_type_id":"4","last_reported":1701284740,"current_range_meters":22400,"station_id":"ce4bhp92rcd13ifvqhcg","pricing_plan_id":"free"},{"bike_id":"f554caff-ea27-4c9a-835c-3ef548d12f07","system_id":"levelo_inurba_marseille","lat":43.317104,"lon":5.436818,"is_reserved":false,"is_disabled":false,"rental_uris":{"android":"levelo://app?vid=f554caff-ea27-4c9a-835c-3ef548d12f07","ios":"levelo://app?vid=f554caff-ea27-4c9a-835c-3ef548d12f07"},"vehicle_type_id":"4","last_reported":1701284740,"current_range_meters":5600,"station_id":"ce4bhp92rcd13ifvqhcg","pricing_plan_id":"free"},{"bike_id":"a840c070-fc43-4b8e-aaa0-06a7984fb6f2","system_id":"levelo_inurba_marseille","lat":43.317104,"lon":5.436818,"is_reserved":false,"is_disabled":false,"rental_uris":{"android":"levelo://app?vid=a840c070-fc43-4b8e-aaa0-06a7984fb6f2","ios":"levelo://app?vid=a840c070-fc43-4b8e-aaa0-06a7984fb6f2"},"vehicle_type_id":"4","last_reported":1701284740,"current_range_meters":3600,"station_id":"ce4bhp92rcd13ifvqhcg","pricing_plan_id":"free"},{"bike_id":"1c859d8c-6823-4772-9abb-da577a635321","system_id":"levelo_inurba_marseille","lat":43.317104,"lon":5.436818,"is_reserved":false,"is_disabled":false,"rental_uris":{"android":"levelo://app?vid=1c859d8c-6823-4772-9abb-da577a635321","ios":"levelo://app?vid=1c859d8c-6823-4772-9abb-da577a635321"},"vehicle_type_id":"4","last_reported":1701284740,"current_range_meters":20800,"station_id":"ce4bhp92rcd13ifvqhcg","pricing_plan_id":"free"},{"bike_id":"99d63533-62af-4498-b6d6-41c459d84925","system_id":"levelo_inurba_marseille","lat":43.317104,"lon":5.436818,"is_reserved":false,"is_disabled":false,"rental_uris":{"android":"levelo://app?vid=99d63533-62af-4498-b6d6-41c459d84925","ios":"levelo://app?vid=99d63533-62af-4498-b6d6-41c459d84925"},"vehicle_type_id":"4","last_reported":1701284740,"current_range_meters":22400,"station_id":"ce4bhp92rcd13ifvqhcg","pricing_plan_id":"free"},{"bike_id":"3b0c0bb4-5989-4886-a288-42d1a3878a2b","system_id":"levelo_inurba_marseille","lat":43.27175,"lon":5.40987,"is_reserved":false,"is_disabled":false,"rental_uris":{"android":"levelo://app?vid=3b0c0bb4-5989-4886-a288-42d1a3878a2b","ios":"levelo://app?vid=3b0c0bb4-5989-4886-a288-42d1a3878a2b"},"vehicle_type_id":"4","last_reported":1701284740,"current_range_meters":0,"station_id":"ce4bhl12rcd13ifvqgf0","pricing_plan_id":"free"},{"bike_id":"21a03390-fa51-48ce-b3df-632632e9af2b","system_id":"levelo_inurba_marseille","lat":43.298768,"lon":5.43643,"is_reserved":false,"is_disabled":false,"rental_uris":{"android":"levelo://app?vid=21a03390-fa51-48ce-b3df-632632e9af2b","ios":"levelo://app?vid=21a03390-fa51-48ce-b3df-632632e9af2b"},"vehicle_type_id":"4","last_reported":1701284740,"current_range_meters":14800,"station_id":"ce4bhpp2rcd13ifvqhfg","pricing_plan_id":"free"},{"bike_id":"0048fac2-56d5-4842-9efe-a79340b04119","system_id":"levelo_inurba_marseille","lat":43.298768,"lon":5.43643,"is_reserved":false,"is_disabled":false,"rental_uris":{"android":"levelo://app?vid=0048fac2-56d5-4842-9efe-a79340b04119","ios":"levelo://app?vid=0048fac2-56d5-4842-9efe-a79340b04119"},"vehicle_type_id":"4","last_reported":1701284740,"current_range_meters":15200,"station_id":"ce4bhpp2rcd13ifvqhfg","pricing_plan_id":"free"},{"bike_id":"6f84c55d-bb59-4e45-aace-0862fdfac904","system_id":"levelo_inurba_marseille","lat":43.298768,"lon":5.43643,"is_reserved":false,"is_disabled":false,"rental_uris":{"android":"levelo://app?vid=6f84c55d-bb59-4e45-aace-0862fdfac904","ios":"levelo://app?vid=6f84c55d-bb59-4e45-aace-0862fdfac904"},"vehicle_type_id":"4","last_reported":1701284740,"current_range_meters":14400,"station_id":"ce4bhpp2rcd13ifvqhfg","pricing_plan_id":"free"},{"bike_id":"d98caf9e-d22c-4f31-b6fb-9daa7be7f2d0","system_id":"levelo_inurba_marseille","lat":43.281548,"lon":5.42643,"is_reserved":false,"is_disabled":false,"rental_uris":{"android":"levelo://app?vid=d98caf9e-d22c-4f31-b6fb-9daa7be7f2d0","ios":"levelo://app?vid=d98caf9e-d22c-4f31-b6fb-9daa7be7f2d0"},"vehicle_type_id":"4","last_reported":1701284740,"current_range_meters":10800,"station_id":"ce4bhnh2rcd13ifvqgug","pricing_plan_id":"free"},{"bike_id":"2cbd4b3c-d8dd-4b95-ac76-1323d53b4182","system_id":"levelo_inurba_marseille","lat":43.281548,"lon":5.42643,"is_reserved":false,"is_disabled":false,"rental_uris":{"android":"levelo://app?vid=2cbd4b3c-d8dd-4b95-ac76-1323d53b4182","ios":"levelo://app?vid=2cbd4b3c-d8dd-4b95-ac76-1323d53b4182"},"vehicle_type_id":"4","last_reported":1701284740,"current_range_meters":31600,"station_id":"ce4bhnh2rcd13ifvqgug","pricing_plan_id":"free"},{"bike_id":"6a423f92-9b07-4949-8514-2ee167e03bcf","system_id":"levelo_inurba_marseille","lat":43.281548,"lon":5.42643,"is_reserved":false,"is_disabled":false,"rental_uris":{"android":"levelo://app?vid=6a423f92-9b07-4949-8514-2ee167e03bcf","ios":"levelo://app?vid=6a423f92-9b07-4949-8514-2ee167e03bcf"},"vehicle_type_id":"4","last_reported":1701284740,"current_range_meters":30000,"station_id":"ce4bhnh2rcd13ifvqgug","pricing_plan_id":"free"},{"bike_id":"5d6c08b1-f1a5-4de3-874d-829b5159ed1d","system_id":"levelo_inurba_marseille","lat":43.281548,"lon":5.42643,"is_reserved":false,"is_disabled":false,"rental_uris":{"android":"levelo://app?vid=5d6c08b1-f1a5-4de3-874d-829b5159ed1d","ios":"levelo://app?vid=5d6c08b1-f1a5-4de3-874d-829b5159ed1d"},"vehicle_type_id":"4","last_reported":1701284740,"current_range_meters":16400,"station_id":"ce4bhnh2rcd13ifvqgug","pricing_plan_id":"free"},{"bike_id":"85158950-5b86-488b-bdb1-726b8dfbb936","system_id":"levelo_inurba_marseille","lat":43.281548,"lon":5.42643,"is_reserved":false,"is_disabled":false,"rental_uris":{"android":"levelo://app?vid=85158950-5b86-488b-bdb1-726b8dfbb936","ios":"levelo://app?vid=85158950-5b86-488b-bdb1-726b8dfbb936"},"vehicle_type_id":"4","last_reported":1701284740,"current_range_meters":16000,"station_id":"ce4bhnh2rcd13ifvqgug","pricing_plan_id":"free"},{"bike_id":"54e7103a-044b-433e-9f97-9f60b9ff0bee","system_id":"levelo_inurba_marseille","lat":43.281548,"lon":5.42643,"is_reserved":false,"is_disabled":false,"rental_uris":{"android":"levelo://app?vid=54e7103a-044b-433e-9f97-9f60b9ff0bee","ios":"levelo://app?vid=54e7103a-044b-433e-9f97-9f60b9ff0bee"},"vehicle_type_id":"4","last_reported":1701284740,"current_range_meters":20400,"station_id":"ce4bhnh2rcd13ifvqgug","pricing_plan_id":"free"},{"bike_id":"00d1bf49-5f2f-40eb-ba1c-6d61ac984990","system_id":"levelo_inurba_marseille","lat":43.281548,"lon":5.42643,"is_reserved":false,"is_disabled":false,"rental_uris":{"android":"levelo://app?vid=00d1bf49-5f2f-40eb-ba1c-6d61ac984990","ios":"levelo://app?vid=00d1bf49-5f2f-40eb-ba1c-6d61ac984990"},"vehicle_type_id":"4","last_reported":1701284740,"current_range_meters":30000,"station_id":"ce4bhnh2rcd13ifvqgug","pricing_plan_id":"free"},{"bike_id":"af194385-9d88-4239-bc79-52ad5f088bb8","system_id":"levelo_inurba_marseille","lat":43.2607,"lon":5.393983,"is_reserved":false,"is_disabled":false,"rental_uris":{"android":"levelo://app?vid=af194385-9d88-4239-bc79-52ad5f088bb8","ios":"levelo://app?vid=af194385-9d88-4239-bc79-52ad5f088bb8"},"vehicle_type_id":"4","last_reported":1701284740,"current_range_meters":12000,"station_id":"ce4bhh92rcd13ifvqfj0","pricing_plan_id":"free"},{"bike_id":"e62a3c67-c8ce-43ec-8603-11752278aa57","system_id":"levelo_inurba_marseille","lat":43.2607,"lon":5.393983,"is_reserved":false,"is_disabled":false,"rental_uris":{"android":"levelo://app?vid=e62a3c67-c8ce-43ec-8603-11752278aa57","ios":"levelo://app?vid=e62a3c67-c8ce-43ec-8603-11752278aa57"},"vehicle_type_id":"4","last_reported":1701284740,"current_range_meters":16400,"station_id":"ce4bhh92rcd13ifvqfj0","pricing_plan_id":"free"},{"bike_id":"ecf17c06-f85c-45b3-88f9-e573b3bb3c29","system_id":"levelo_inurba_marseille","lat":43.258224,"lon":5.394369,"is_reserved":false,"is_disabled":false,"rental_uris":{"android":"levelo://app?vid=ecf17c06-f85c-45b3-88f9-e573b3bb3c29","ios":"levelo://app?vid=ecf17c06-f85c-45b3-88f9-e573b3bb3c29"},"vehicle_type_id":"4","last_reported":1701284740,"current_range_meters":22800,"station_id":"ce4bhip2rcd13ifvqft0","pricing_plan_id":"free"},{"bike_id":"19029ed7-bf97-4f4d-a8c2-7d27e70ef7f7","system_id":"levelo_inurba_marseille","lat":43.270721,"lon":5.422764,"is_reserved":false,"is_disabled":false,"rental_uris":{"android":"levelo://app?vid=19029ed7-bf97-4f4d-a8c2-7d27e70ef7f7","ios":"levelo://app?vid=19029ed7-bf97-4f4d-a8c2-7d27e70ef7f7"},"vehicle_type_id":"4","last_reported":1701284740,"current_range_meters":30000,"station_id":"ce4bhk92rcd13ifvqgb0","pricing_plan_id":"free"},{"bike_id":"ccee216e-5faf-4999-b768-7a0903d5fe3e","system_id":"levelo_inurba_marseille","lat":43.259013,"lon":5.409301,"is_reserved":false,"is_disabled":false,"rental_uris":{"android":"levelo://app?vid=ccee216e-5faf-4999-b768-7a0903d5fe3e","ios":"levelo://app?vid=ccee216e-5faf-4999-b768-7a0903d5fe3e"},"vehicle_type_id":"4","last_reported":1701284740,"current_range_meters":2000,"station_id":"ce4bhm92rcd13ifvqglg","pricing_plan_id":"free"},{"bike_id":"916224f8-83b6-4e7c-8933-ae5fb7bcd879","system_id":"levelo_inurba_marseille","lat":43.257079,"lon":5.411051,"is_reserved":false,"is_disabled":false,"rental_uris":{"android":"levelo://app?vid=916224f8-83b6-4e7c-8933-ae5fb7bcd879","ios":"levelo://app?vid=916224f8-83b6-4e7c-8933-ae5fb7bcd879"},"vehicle_type_id":"4","last_reported":1701284740,"current_range_meters":24000,"station_id":"ce4bhkp2rcd13ifvqgd0","pricing_plan_id":"free"},{"bike_id":"89a99e0e-84f9-4cb4-9aa6-53df93c20d13","system_id":"levelo_inurba_marseille","lat":43.2572,"lon":5.41115,"is_reserved":false,"is_disabled":false,"rental_uris":{"android":"levelo://app?vid=89a99e0e-84f9-4cb4-9aa6-53df93c20d13","ios":"levelo://app?vid=89a99e0e-84f9-4cb4-9aa6-53df93c20d13"},"vehicle_type_id":"4","last_reported":1701284740,"current_range_meters":20000,"station_id":"ce4bhkp2rcd13ifvqgd0","pricing_plan_id":"free"},{"bike_id":"a83a69c1-cd07-43a0-965f-501437ea80b4","system_id":"levelo_inurba_marseille","lat":43.2479,"lon":5.374457,"is_reserved":false,"is_disabled":false,"rental_uris":{"android":"levelo://app?vid=a83a69c1-cd07-43a0-965f-501437ea80b4","ios":"levelo://app?vid=a83a69c1-cd07-43a0-965f-501437ea80b4"},"vehicle_type_id":"4","last_reported":1701284740,"current_range_meters":30000,"station_id":"ce4bhgh2rcd13ifvqfb0","pricing_plan_id":"free"},{"bike_id":"1ee6ccac-fa0e-40cb-ad63-a576623c103c","system_id":"levelo_inurba_marseille","lat":43.250966,"lon":5.395186,"is_reserved":false,"is_disabled":false,"rental_uris":{"android":"levelo://app?vid=1ee6ccac-fa0e-40cb-ad63-a576623c103c","ios":"levelo://app?vid=1ee6ccac-fa0e-40cb-ad63-a576623c103c"},"vehicle_type_id":"4","last_reported":1701284740,"current_range_meters":10000,"station_id":"ce4bhm12rcd13ifvqgkg","pricing_plan_id":"free"},{"bike_id":"987ff51d-b31d-4176-9915-e7c653778fdc","system_id":"levelo_inurba_marseille","lat":43.250897,"lon":5.395161,"is_reserved":false,"is_disabled":false,"rental_uris":{"android":"levelo://app?vid=987ff51d-b31d-4176-9915-e7c653778fdc","ios":"levelo://app?vid=987ff51d-b31d-4176-9915-e7c653778fdc"},"vehicle_type_id":"4","last_reported":1701284740,"current_range_meters":11600,"station_id":"ce4bhm12rcd13ifvqgkg","pricing_plan_id":"free"},{"bike_id":"51b49d2c-71aa-4e8a-9241-da25f3d4ff8c","system_id":"levelo_inurba_marseille","lat":43.25092,"lon":5.39528,"is_reserved":false,"is_disabled":false,"rental_uris":{"android":"levelo://app?vid=51b49d2c-71aa-4e8a-9241-da25f3d4ff8c","ios":"levelo://app?vid=51b49d2c-71aa-4e8a-9241-da25f3d4ff8c"},"vehicle_type_id":"4","last_reported":1701284740,"current_range_meters":0,"station_id":"ce4bhm12rcd13ifvqgkg","pricing_plan_id":"free"},{"bike_id":"4967ab4e-a884-4957-bdb9-f89f823e0acd","system_id":"levelo_inurba_marseille","lat":43.2509,"lon":5.39522,"is_reserved":false,"is_disabled":false,"rental_uris":{"android":"levelo://app?vid=4967ab4e-a884-4957-bdb9-f89f823e0acd","ios":"levelo://app?vid=4967ab4e-a884-4957-bdb9-f89f823e0acd"},"vehicle_type_id":"4","last_reported":1701284740,"current_range_meters":20000,"station_id":"ce4bhm12rcd13ifvqgkg","pricing_plan_id":"free"},{"bike_id":"c8b315d1-84b3-46e3-9bb4-29bc191f5211","system_id":"levelo_inurba_marseille","lat":43.25085,"lon":5.39515,"is_reserved":false,"is_disabled":false,"rental_uris":{"android":"levelo://app?vid=c8b315d1-84b3-46e3-9bb4-29bc191f5211","ios":"levelo://app?vid=c8b315d1-84b3-46e3-9bb4-29bc191f5211"},"vehicle_type_id":"4","last_reported":1701284740,"current_range_meters":30000,"station_id":"ce4bhm12rcd13ifvqgkg","pricing_plan_id":"free"},{"bike_id":"9228a6fe-c5e2-45f4-a167-7f60ff317749","system_id":"levelo_inurba_marseille","lat":43.250966,"lon":5.395186,"is_reserved":false,"is_disabled":false,"rental_uris":{"android":"levelo://app?vid=9228a6fe-c5e2-45f4-a167-7f60ff317749","ios":"levelo://app?vid=9228a6fe-c5e2-45f4-a167-7f60ff317749"},"vehicle_type_id":"4","last_reported":1701284740,"current_range_meters":9200,"station_id":"ce4bhm12rcd13ifvqgkg","pricing_plan_id":"free"},{"bike_id":"f2e7ea44-1802-445c-b14e-d15b1d57b78d","system_id":"levelo_inurba_marseille","lat":43.24693,"lon":5.382096,"is_reserved":false,"is_disabled":false,"rental_uris":{"android":"levelo://app?vid=f2e7ea44-1802-445c-b14e-d15b1d57b78d","ios":"levelo://app?vid=f2e7ea44-1802-445c-b14e-d15b1d57b78d"},"vehicle_type_id":"4","last_reported":1701284740,"current_range_meters":7600,"station_id":"ce4bhih2rcd13ifvqfr0","pricing_plan_id":"free"},{"bike_id":"e3d09a6b-46f8-4049-9245-e5b95a6446e7","system_id":"levelo_inurba_marseille","lat":43.246461,"lon":5.389014,"is_reserved":false,"is_disabled":false,"rental_uris":{"android":"levelo://app?vid=e3d09a6b-46f8-4049-9245-e5b95a6446e7","ios":"levelo://app?vid=e3d09a6b-46f8-4049-9245-e5b95a6446e7"},"vehicle_type_id":"4","last_reported":1701284740,"current_range_meters":29200,"station_id":"ce4bhg12rcd13ifvqf60","pricing_plan_id":"free"},{"bike_id":"f639acdd-7efb-492c-8765-ce9d356aeefc","system_id":"levelo_inurba_marseille","lat":43.24649,"lon":5.38895,"is_reserved":false,"is_disabled":false,"rental_uris":{"android":"levelo://app?vid=f639acdd-7efb-492c-8765-ce9d356aeefc","ios":"levelo://app?vid=f639acdd-7efb-492c-8765-ce9d356aeefc"},"vehicle_type_id":"4","last_reported":1701284740,"current_range_meters":5200,"station_id":"ce4bhg12rcd13ifvqf60","pricing_plan_id":"free"},{"bike_id":"d24d75ab-5b89-4fed-aec9-cdbe284f48f5","system_id":"levelo_inurba_marseille","lat":43.246467,"lon":5.388984,"is_reserved":false,"is_disabled":false,"rental_uris":{"android":"levelo://app?vid=d24d75ab-5b89-4fed-aec9-cdbe284f48f5","ios":"levelo://app?vid=d24d75ab-5b89-4fed-aec9-cdbe284f48f5"},"vehicle_type_id":"4","last_reported":1701284740,"current_range_meters":18800,"station_id":"ce4bhg12rcd13ifvqf60","pricing_plan_id":"free"},{"bike_id":"e92ab474-a5bd-471e-9e22-08fc877b9fc4","system_id":"levelo_inurba_marseille","lat":43.243884,"lon":5.370736,"is_reserved":false,"is_disabled":false,"rental_uris":{"android":"levelo://app?vid=e92ab474-a5bd-471e-9e22-08fc877b9fc4","ios":"levelo://app?vid=e92ab474-a5bd-471e-9e22-08fc877b9fc4"},"vehicle_type_id":"4","last_reported":1701284740,"current_range_meters":14800,"station_id":"ce4bhhh2rcd13ifvqfk0","pricing_plan_id":"free"},{"bike_id":"285dece3-9d26-4a73-9d21-5686695f9c74","system_id":"levelo_inurba_marseille","lat":43.243884,"lon":5.370736,"is_reserved":false,"is_disabled":false,"rental_uris":{"android":"levelo://app?vid=285dece3-9d26-4a73-9d21-5686695f9c74","ios":"levelo://app?vid=285dece3-9d26-4a73-9d21-5686695f9c74"},"vehicle_type_id":"4","last_reported":1701284740,"current_range_meters":3600,"station_id":"ce4bhhh2rcd13ifvqfk0","pricing_plan_id":"free"},{"bike_id":"17cfa8b2-8aec-4aff-bbbd-2bb6d45fd3dc","system_id":"levelo_inurba_marseille","lat":43.243884,"lon":5.370736,"is_reserved":false,"is_disabled":false,"rental_uris":{"android":"levelo://app?vid=17cfa8b2-8aec-4aff-bbbd-2bb6d45fd3dc","ios":"levelo://app?vid=17cfa8b2-8aec-4aff-bbbd-2bb6d45fd3dc"},"vehicle_type_id":"4","last_reported":1701284740,"current_range_meters":16000,"station_id":"ce4bhhh2rcd13ifvqfk0","pricing_plan_id":"free"},{"bike_id":"bae450d4-0dd8-4937-a099-78153b6b9a44","system_id":"levelo_inurba_marseille","lat":43.2455,"lon":5.39523,"is_reserved":false,"is_disabled":false,"rental_uris":{"android":"levelo://app?vid=bae450d4-0dd8-4937-a099-78153b6b9a44","ios":"levelo://app?vid=bae450d4-0dd8-4937-a099-78153b6b9a44"},"vehicle_type_id":"4","last_reported":1701284740,"current_range_meters":0,"station_id":"ce4bhlp2rcd13ifvqgjg","pricing_plan_id":"free"},{"bike_id":"89a262b1-744b-4962-bf8c-ec45ae71b53d","system_id":"levelo_inurba_marseille","lat":43.240623,"lon":5.377642,"is_reserved":false,"is_disabled":false,"rental_uris":{"android":"levelo://app?vid=89a262b1-744b-4962-bf8c-ec45ae71b53d","ios":"levelo://app?vid=89a262b1-744b-4962-bf8c-ec45ae71b53d"},"vehicle_type_id":"4","last_reported":1701284740,"current_range_meters":10400,"station_id":"ce4bhnp2rcd13ifvqgvg","pricing_plan_id":"free"},{"bike_id":"88bebf45-8475-4741-968d-60bc8bb8028a","system_id":"levelo_inurba_marseille","lat":43.240623,"lon":5.377642,"is_reserved":false,"is_disabled":false,"rental_uris":{"android":"levelo://app?vid=88bebf45-8475-4741-968d-60bc8bb8028a","ios":"levelo://app?vid=88bebf45-8475-4741-968d-60bc8bb8028a"},"vehicle_type_id":"4","last_reported":1701284740,"current_range_meters":800,"station_id":"ce4bhnp2rcd13ifvqgvg","pricing_plan_id":"free"},{"bike_id":"72cddfac-add6-49c8-8c38-8b67a598d05b","system_id":"levelo_inurba_marseille","lat":43.240623,"lon":5.377642,"is_reserved":false,"is_disabled":false,"rental_uris":{"android":"levelo://app?vid=72cddfac-add6-49c8-8c38-8b67a598d05b","ios":"levelo://app?vid=72cddfac-add6-49c8-8c38-8b67a598d05b"},"vehicle_type_id":"4","last_reported":1701284740,"current_range_meters":20800,"station_id":"ce4bhnp2rcd13ifvqgvg","pricing_plan_id":"free"},{"bike_id":"3fec6690-6c16-4ec2-b876-954ae6579bbc","system_id":"levelo_inurba_marseille","lat":43.240623,"lon":5.377642,"is_reserved":false,"is_disabled":false,"rental_uris":{"android":"levelo://app?vid=3fec6690-6c16-4ec2-b876-954ae6579bbc","ios":"levelo://app?vid=3fec6690-6c16-4ec2-b876-954ae6579bbc"},"vehicle_type_id":"4","last_reported":1701284740,"current_range_meters":28800,"station_id":"ce4bhnp2rcd13ifvqgvg","pricing_plan_id":"free"},{"bike_id":"a4f78971-c959-4252-a3c2-be5c31a13a53","system_id":"levelo_inurba_marseille","lat":43.240623,"lon":5.377642,"is_reserved":false,"is_disabled":false,"rental_uris":{"android":"levelo://app?vid=a4f78971-c959-4252-a3c2-be5c31a13a53","ios":"levelo://app?vid=a4f78971-c959-4252-a3c2-be5c31a13a53"},"vehicle_type_id":"4","last_reported":1701284740,"current_range_meters":22400,"station_id":"ce4bhnp2rcd13ifvqgvg","pricing_plan_id":"free"},{"bike_id":"ed5968c4-ab87-4c5b-865c-7ac3e746bdbd","system_id":"levelo_inurba_marseille","lat":43.241782,"lon":5.397261,"is_reserved":false,"is_disabled":false,"rental_uris":{"android":"levelo://app?vid=ed5968c4-ab87-4c5b-865c-7ac3e746bdbd","ios":"levelo://app?vid=ed5968c4-ab87-4c5b-865c-7ac3e746bdbd"},"vehicle_type_id":"4","last_reported":1701284740,"current_range_meters":9200,"station_id":"ce4bhn12rcd13ifvqgpg","pricing_plan_id":"free"},{"bike_id":"675c970c-c0cf-4822-a023-175273da4489","system_id":"levelo_inurba_marseille","lat":43.231923,"lon":5.355545,"is_reserved":false,"is_disabled":false,"rental_uris":{"android":"levelo://app?vid=675c970c-c0cf-4822-a023-175273da4489","ios":"levelo://app?vid=675c970c-c0cf-4822-a023-175273da4489"},"vehicle_type_id":"4","last_reported":1701284740,"current_range_meters":10400,"station_id":"ce4bhu92rcd13ifvqi70","pricing_plan_id":"free"},{"bike_id":"5823558f-5e45-4b8f-8bb1-5079aaae37c9","system_id":"levelo_inurba_marseille","lat":43.231923,"lon":5.355545,"is_reserved":false,"is_disabled":false,"rental_uris":{"android":"levelo://app?vid=5823558f-5e45-4b8f-8bb1-5079aaae37c9","ios":"levelo://app?vid=5823558f-5e45-4b8f-8bb1-5079aaae37c9"},"vehicle_type_id":"4","last_reported":1701284740,"current_range_meters":17200,"station_id":"ce4bhu92rcd13ifvqi70","pricing_plan_id":"free"},{"bike_id":"26cd3036-9e31-4635-8449-e01c086f6041","system_id":"levelo_inurba_marseille","lat":43.231923,"lon":5.355545,"is_reserved":false,"is_disabled":false,"rental_uris":{"android":"levelo://app?vid=26cd3036-9e31-4635-8449-e01c086f6041","ios":"levelo://app?vid=26cd3036-9e31-4635-8449-e01c086f6041"},"vehicle_type_id":"4","last_reported":1701284740,"current_range_meters":21600,"station_id":"ce4bhu92rcd13ifvqi70","pricing_plan_id":"free"},{"bike_id":"be42eec5-4aaf-4f1c-8445-219a8901db92","system_id":"levelo_inurba_marseille","lat":43.231923,"lon":5.355545,"is_reserved":false,"is_disabled":false,"rental_uris":{"android":"levelo://app?vid=be42eec5-4aaf-4f1c-8445-219a8901db92","ios":"levelo://app?vid=be42eec5-4aaf-4f1c-8445-219a8901db92"},"vehicle_type_id":"4","last_reported":1701284740,"current_range_meters":4000,"station_id":"ce4bhu92rcd13ifvqi70","pricing_plan_id":"free"},{"bike_id":"b37cf8bc-ef87-4960-b38c-3279b894369f","system_id":"levelo_inurba_marseille","lat":43.231923,"lon":5.355545,"is_reserved":false,"is_disabled":false,"rental_uris":{"android":"levelo://app?vid=b37cf8bc-ef87-4960-b38c-3279b894369f","ios":"levelo://app?vid=b37cf8bc-ef87-4960-b38c-3279b894369f"},"vehicle_type_id":"4","last_reported":1701284740,"current_range_meters":32000,"station_id":"ce4bhu92rcd13ifvqi70","pricing_plan_id":"free"},{"bike_id":"3bbe1fd5-b7d2-484c-969b-f57a381950c3","system_id":"levelo_inurba_marseille","lat":43.231923,"lon":5.355545,"is_reserved":false,"is_disabled":false,"rental_uris":{"android":"levelo://app?vid=3bbe1fd5-b7d2-484c-969b-f57a381950c3","ios":"levelo://app?vid=3bbe1fd5-b7d2-484c-969b-f57a381950c3"},"vehicle_type_id":"4","last_reported":1701284740,"current_range_meters":14400,"station_id":"ce4bhu92rcd13ifvqi70","pricing_plan_id":"free"},{"bike_id":"d1703505-b125-4a98-a807-11024241bc04","system_id":"levelo_inurba_marseille","lat":43.231923,"lon":5.355545,"is_reserved":false,"is_disabled":false,"rental_uris":{"android":"levelo://app?vid=d1703505-b125-4a98-a807-11024241bc04","ios":"levelo://app?vid=d1703505-b125-4a98-a807-11024241bc04"},"vehicle_type_id":"4","last_reported":1701284740,"current_range_meters":32000,"station_id":"ce4bhu92rcd13ifvqi70","pricing_plan_id":"free"},{"bike_id":"6a15bd61-65f5-44c0-9706-42eeb78c349c","system_id":"levelo_inurba_marseille","lat":43.231919,"lon":5.355532,"is_reserved":false,"is_disabled":false,"rental_uris":{"android":"levelo://app?vid=6a15bd61-65f5-44c0-9706-42eeb78c349c","ios":"levelo://app?vid=6a15bd61-65f5-44c0-9706-42eeb78c349c"},"vehicle_type_id":"4","last_reported":1701284740,"current_range_meters":31200,"station_id":"ce4bhu92rcd13ifvqi70","pricing_plan_id":"free"},{"bike_id":"c0c7fee1-5737-446f-a765-fa607e9e3e85","system_id":"levelo_inurba_marseille","lat":43.231793,"lon":5.400044,"is_reserved":false,"is_disabled":false,"rental_uris":{"android":"levelo://app?vid=c0c7fee1-5737-446f-a765-fa607e9e3e85","ios":"levelo://app?vid=c0c7fee1-5737-446f-a765-fa607e9e3e85"},"vehicle_type_id":"4","last_reported":1701284740,"current_range_meters":20400,"station_id":"ce4bhn12rcd13ifvqgqg","pricing_plan_id":"free"},{"bike_id":"aa92b96d-64d8-4c3b-a126-5fd9d905cd28","system_id":"levelo_inurba_marseille","lat":43.231793,"lon":5.400044,"is_reserved":false,"is_disabled":false,"rental_uris":{"android":"levelo://app?vid=aa92b96d-64d8-4c3b-a126-5fd9d905cd28","ios":"levelo://app?vid=aa92b96d-64d8-4c3b-a126-5fd9d905cd28"},"vehicle_type_id":"4","last_reported":1701284740,"current_range_meters":31600,"station_id":"ce4bhn12rcd13ifvqgqg","pricing_plan_id":"free"},{"bike_id":"5c24af45-4ee2-4093-93e4-b4426fd403c2","system_id":"levelo_inurba_marseille","lat":43.231794,"lon":5.400052,"is_reserved":false,"is_disabled":false,"rental_uris":{"android":"levelo://app?vid=5c24af45-4ee2-4093-93e4-b4426fd403c2","ios":"levelo://app?vid=5c24af45-4ee2-4093-93e4-b4426fd403c2"},"vehicle_type_id":"4","last_reported":1701284740,"current_range_meters":29200,"station_id":"ce4bhn12rcd13ifvqgqg","pricing_plan_id":"free"},{"bike_id":"017c7298-0a0b-4b52-accd-1cfa244cac68","system_id":"levelo_inurba_marseille","lat":43.231793,"lon":5.400044,"is_reserved":false,"is_disabled":false,"rental_uris":{"android":"levelo://app?vid=017c7298-0a0b-4b52-accd-1cfa244cac68","ios":"levelo://app?vid=017c7298-0a0b-4b52-accd-1cfa244cac68"},"vehicle_type_id":"4","last_reported":1701284740,"current_range_meters":30800,"station_id":"ce4bhn12rcd13ifvqgqg","pricing_plan_id":"free"},{"bike_id":"5ff68776-d431-4895-866c-f190f6faec3c","system_id":"levelo_inurba_marseille","lat":43.231793,"lon":5.400044,"is_reserved":false,"is_disabled":false,"rental_uris":{"android":"levelo://app?vid=5ff68776-d431-4895-866c-f190f6faec3c","ios":"levelo://app?vid=5ff68776-d431-4895-866c-f190f6faec3c"},"vehicle_type_id":"4","last_reported":1701284740,"current_range_meters":32000,"station_id":"ce4bhn12rcd13ifvqgqg","pricing_plan_id":"free"},{"bike_id":"bf302e61-4f67-454e-a18b-ae01c9d54d0c","system_id":"levelo_inurba_marseille","lat":43.231793,"lon":5.400044,"is_reserved":false,"is_disabled":false,"rental_uris":{"android":"levelo://app?vid=bf302e61-4f67-454e-a18b-ae01c9d54d0c","ios":"levelo://app?vid=bf302e61-4f67-454e-a18b-ae01c9d54d0c"},"vehicle_type_id":"4","last_reported":1701284740,"current_range_meters":20000,"station_id":"ce4bhn12rcd13ifvqgqg","pricing_plan_id":"free"},{"bike_id":"1cc950d9-b775-4678-93c4-e31b06221635","system_id":"levelo_inurba_marseille","lat":43.23185,"lon":5.39982,"is_reserved":false,"is_disabled":false,"rental_uris":{"android":"levelo://app?vid=1cc950d9-b775-4678-93c4-e31b06221635","ios":"levelo://app?vid=1cc950d9-b775-4678-93c4-e31b06221635"},"vehicle_type_id":"4","last_reported":1701284740,"current_range_meters":9600,"station_id":"ce4bhn12rcd13ifvqgqg","pricing_plan_id":"free"},{"bike_id":"06853db6-aa55-4d29-9d8f-a856bd2de594","system_id":"levelo_inurba_marseille","lat":43.231793,"lon":5.400044,"is_reserved":false,"is_disabled":false,"rental_uris":{"android":"levelo://app?vid=06853db6-aa55-4d29-9d8f-a856bd2de594","ios":"levelo://app?vid=06853db6-aa55-4d29-9d8f-a856bd2de594"},"vehicle_type_id":"4","last_reported":1701284740,"current_range_meters":24800,"station_id":"ce4bhn12rcd13ifvqgqg","pricing_plan_id":"free"},{"bike_id":"bf960234-cffc-43d1-ad60-fe105776c7f7","system_id":"levelo_inurba_marseille","lat":43.23184,"lon":5.399958,"is_reserved":false,"is_disabled":false,"rental_uris":{"android":"levelo://app?vid=bf960234-cffc-43d1-ad60-fe105776c7f7","ios":"levelo://app?vid=bf960234-cffc-43d1-ad60-fe105776c7f7"},"vehicle_type_id":"4","last_reported":1701284740,"current_range_meters":0,"station_id":"ce4bhn12rcd13ifvqgqg","pricing_plan_id":"free"}]}}