{"last_updated":1731100069,"ttl":60,"version":"2.2","data":{"bikes":[{"bike_id":"db1270ab-1d82-4751-8226-c53da6298ee0","system_id":"levelo_inurba_marseille","lat":43.27567,"lon":5.38427,"is_reserved":false,"is_disabled":false,"rental_uris":{"android":"levelo://app?vid=db1270ab-1d82-4751-8226-c53da6298ee0","ios":"levelo://app?vid=db1270ab-1d82-4751-8226-c53da6298ee0"},"vehicle_type_id":"4","last_reported":1731100069,"current_range_meters":37600,"station_id":"ce4bhh92rcd13ifvqfi0","pricing_plan_id":"cebpf4jnsgd1na2vs0mg"},{"bike_id":"810dd2a8-51ac-424e-a216-350e3c574e31","system_id":"levelo_inurba_marseille","lat":43.27208,"lon":5.39179,"is_reserved":false,"is_disabled":false,"rental_uris":{"android":"levelo://app?vid=810dd2a8-51ac-424e-a216-350e3c574e31","ios":"levelo://app?vid=810dd2a8-51ac-424e-a216-350e3c574e31"},"vehicle_type_id":"4","last_reported":1731100069,"current_range_meters":8400,"station_id":"ce4bhhp2rcd13ifvqfm0","pricing_plan_id":"cebpf4jnsgd1na2vs0mg"},{"bike_id":"37b18ebd-4aa0-4ca2-bfbb-ac9479701cc7","system_id":"levelo_inurba_marseille","lat":43.28072,"lon":5.39646,"is_reserved":false,"is_disabled":false,"rental_uris":{"android":"levelo://app?vid=37b18ebd-4aa0-4ca2-bfbb-ac9479701cc7","ios":"levelo://app?vid=37b18ebd-4aa0-4ca2-bfbb-ac9479701cc7"},"vehicle_type_id":"4","last_reported":1731100069,"current_range_meters":38400,"station_id":"ce4bho12rcd13ifvqh2g","pricing_plan_id":"cebpf4jnsgd1na2vs0mg"},{"bike_id":"bc9ad84d-5cec-457f-9b01-7ecc4819cbd6","system_id":"levelo_inurba_marseille","lat":43.28718,"lon":5.36093,"is_reserved":false,"is_disabled":false,"rental_uris":{"android":"levelo://app?vid=bc9ad84d-5cec-457f-9b01-7ecc4819cbd6","ios":"levelo://app?vid=bc9ad84d-5cec-457f-9b01-7ecc4819cbd6"},"vehicle_type_id":"4","last_reported":1731100069,"current_range_meters":34000,"station_id":"cki0cbj6b192h4jlfktg","pricing_plan_id":"cebpf4jnsgd1na2vs0mg"},{"bike_id":"82536cc0-376e-4593-bc1a-7a6291b8b76e","system_id":"levelo_inurba_marseille","lat":43.26937,"lon":5.40254,"is_reserved":false,"is_disabled":false,"rental_uris":{"android":"levelo://app?vid=82536cc0-376e-4593-bc1a-7a6291b8b76e","ios":"levelo://app?vid=82536cc0-376e-4593-bc1a-7a6291b8b76e"},"vehicle_type_id":"4","last_reported":1731100069,"current_range_meters":36800,"station_id":"cjm6bp8fraef2m0cb0m0","pricing_plan_id":"cebpf4jnsgd1na2vs0mg"},{"bike_id":"06bb3e06-6dfc-4c7a-bbfb-aaacb082969f","system_id":"levelo_inurba_marseille","lat":43.25109,"lon":5.40314,"is_reserved":false,"is_disabled":false,"rental_uris":{"android":"levelo://app?vid=06bb3e06-6dfc-4c7a-bbfb-aaacb082969f","ios":"levelo://app?vid=06bb3e06-6dfc-4c7a-bbfb-aaacb082969f"},"vehicle_type_id":"4","last_reported":1731100069,"current_range_meters":36000,"station_id":"ce4bhlh2rcd13ifvqgig","pricing_plan_id":"cebpf4jnsgd1na2vs0mg"},{"bike_id":"68bb9078-c705-4e4c-81de-7ae7c7d86c43","system_id":"levelo_inurba_marseille","lat":43.3173,"lon":5.37774,"is_reserved":false,"is_disabled":false,"rental_uris":{"android":"levelo://app?vid=68bb9078-c705-4e4c-81de-7ae7c7d86c43","ios":"levelo://app?vid=68bb9078-c705-4e4c-81de-7ae7c7d86c43"},"vehicle_type_id":"4","last_reported":1731100069,"current_range_meters":32400,"station_id":"ce4bgth2rcd13ifvqch0","pricing_plan_id":"cebpf4jnsgd1na2vs0mg"},{"bike_id":"c177dc92-529f-4508-8556-099e0eb2ba11","system_id":"levelo_inurba_marseille","lat":43.29774,"lon":5.38116,"is_reserved":false,"is_disabled":false,"rental_uris":{"android":"levelo://app?vid=c177dc92-529f-4508-8556-099e0eb2ba11","ios":"levelo://app?vid=c177dc92-529f-4508-8556-099e0eb2ba11"},"vehicle_type_id":"4","last_reported":1731100069,"current_range_meters":38800,"station_id":"ce4bgip2rcd13ifvqbb0","pricing_plan_id":"cebpf4jnsgd1na2vs0mg"},{"bike_id":"21a4caf6-1ef6-4700-8f5a-d389caaf6e3a","system_id":"levelo_inurba_marseille","lat":43.285089,"lon":5.398794,"is_reserved":false,"is_disabled":false,"rental_uris":{"android":"levelo://app?vid=21a4caf6-1ef6-4700-8f5a-d389caaf6e3a","ios":"levelo://app?vid=21a4caf6-1ef6-4700-8f5a-d389caaf6e3a"},"vehicle_type_id":"4","last_reported":1731100069,"current_range_meters":32000,"station_id":"ce4bh192rcd13ifvqdd0","pricing_plan_id":"cebpf4jnsgd1na2vs0mg"},{"bike_id":"3f8e9100-8f64-42ec-b328-73d6145177de","system_id":"levelo_inurba_marseille","lat":43.337444,"lon":5.374475,"is_reserved":false,"is_disabled":false,"rental_uris":{"android":"levelo://app?vid=3f8e9100-8f64-42ec-b328-73d6145177de","ios":"levelo://app?vid=3f8e9100-8f64-42ec-b328-73d6145177de"},"vehicle_type_id":"4","last_reported":1731100069,"current_range_meters":20000,"station_id":"","pricing_plan_id":"cebpf4jnsgd1na2vs0mg"},{"bike_id":"80f82b3a-f845-4fcb-8369-8424e6a25244","system_id":"levelo_inurba_marseille","lat":43.27312,"lon":5.39115,"is_reserved":false,"is_disabled":false,"rental_uris":{"android":"levelo://app?vid=80f82b3a-f845-4fcb-8369-8424e6a25244","ios":"levelo://app?vid=80f82b3a-f845-4fcb-8369-8424e6a25244"},"vehicle_type_id":"4","last_reported":1731100069,"current_range_meters":24400,"station_id":"ce4bhgp2rcd13ifvqfe0","pricing_plan_id":"cebpf4jnsgd1na2vs0mg"},{"bike_id":"2b71a9d2-3360-4ca4-8e23-6be6968c51d6","system_id":"levelo_inurba_marseille","lat":43.28,"lon":5.40004,"is_reserved":false,"is_disabled":false,"rental_uris":{"android":"levelo://app?vid=2b71a9d2-3360-4ca4-8e23-6be6968c51d6","ios":"levelo://app?vid=2b71a9d2-3360-4ca4-8e23-6be6968c51d6"},"vehicle_type_id":"4","last_reported":1731100069,"current_range_meters":3600,"station_id":"ce4bho92rcd13ifvqh4g","pricing_plan_id":"cebpf4jnsgd1na2vs0mg"},{"bike_id":"26aa55ac-2690-4a78-8f64-8e4e023c2846","system_id":"levelo_inurba_marseille","lat":43.28919,"lon":5.38398,"is_reserved":false,"is_disabled":false,"rental_uris":{"android":"levelo://app?vid=26aa55ac-2690-4a78-8f64-8e4e023c2846","ios":"levelo://app?vid=26aa55ac-2690-4a78-8f64-8e4e023c2846"},"vehicle_type_id":"4","last_reported":1731100069,"current_range_meters":7200,"station_id":"ce4bh612rcd13ifvqe6g","pricing_plan_id":"cebpf4jnsgd1na2vs0mg"},{"bike_id":"04702635-01a3-4d23-8cf0-96cf13d36152","system_id":"levelo_inurba_marseille","lat":43.28416,"lon":5.37518,"is_reserved":false,"is_disabled":false,"rental_uris":{"android":"levelo://app?vid=04702635-01a3-4d23-8cf0-96cf13d36152","ios":"levelo://app?vid=04702635-01a3-4d23-8cf0-96cf13d36152"},"vehicle_type_id":"4","last_reported":1731100069,"current_range_meters":28800,"station_id":"ce4bh412rcd13ifvqds0","pricing_plan_id":"cebpf4jnsgd1na2vs0mg"},{"bike_id":"58f06547-8fc9-4765-9cc6-5c8fde8efe2f","system_id":"levelo_inurba_marseille","lat":43.26945,"lon":5.40254,"is_reserved":false,"is_disabled":false,"rental_uris":{"android":"levelo://app?vid=58f06547-8fc9-4765-9cc6-5c8fde8efe2f","ios":"levelo://app?vid=58f06547-8fc9-4765-9cc6-5c8fde8efe2f"},"vehicle_type_id":"4","last_reported":1731100069,"current_range_meters":38800,"station_id":"cjm6bp8fraef2m0cb0m0","pricing_plan_id":"cebpf4jnsgd1na2vs0mg"},{"bike_id":"7a61aa54-4124-4dcd-858b-db846d80c8c4","system_id":"levelo_inurba_marseille","lat":43.27617,"lon":5.361,"is_reserved":false,"is_disabled":false,"rental_uris":{"android":"levelo://app?vid=7a61aa54-4124-4dcd-858b-db846d80c8c4","ios":"levelo://app?vid=7a61aa54-4124-4dcd-858b-db846d80c8c4"},"vehicle_type_id":"4","last_reported":1731100069,"current_range_meters":6400,"station_id":"ce4bgj92rcd13ifvqbe0","pricing_plan_id":"cebpf4jnsgd1na2vs0mg"},{"bike_id":"bdd10c90-2ab5-4a28-ad01-095799b15206","system_id":"levelo_inurba_marseille","lat":43.32049,"lon":5.41542,"is_reserved":false,"is_disabled":false,"rental_uris":{"android":"levelo://app?vid=bdd10c90-2ab5-4a28-ad01-095799b15206","ios":"levelo://app?vid=bdd10c90-2ab5-4a28-ad01-095799b15206"},"vehicle_type_id":"4","last_reported":1731100069,"current_range_meters":24800,"station_id":"ce4bhqh2rcd13ifvqhlg","pricing_plan_id":"cebpf4jnsgd1na2vs0mg"},{"bike_id":"0824fe63-8fc1-4904-bc53-0fca7e216039","system_id":"levelo_inurba_marseille","lat":43.26947,"lon":5.40249,"is_reserved":false,"is_disabled":false,"rental_uris":{"android":"levelo://app?vid=0824fe63-8fc1-4904-bc53-0fca7e216039","ios":"levelo://app?vid=0824fe63-8fc1-4904-bc53-0fca7e216039"},"vehicle_type_id":"4","last_reported":1731100069,"current_range_meters":16800,"station_id":"cjm6bp8fraef2m0cb0m0","pricing_plan_id":"cebpf4jnsgd1na2vs0mg"},{"bike_id":"ad6ff796-c433-497f-b32d-d9cf3cdcb14b","system_id":"levelo_inurba_marseille","lat":43.2942,"lon":5.3862,"is_reserved":false,"is_disabled":false,"rental_uris":{"android":"levelo://app?vid=ad6ff796-c433-497f-b32d-d9cf3cdcb14b","ios":"levelo://app?vid=ad6ff796-c433-497f-b32d-d9cf3cdcb14b"},"vehicle_type_id":"4","last_reported":1731100069,"current_range_meters":38000,"station_id":"ce4bh2h2rcd13ifvqdh0","pricing_plan_id":"cebpf4jnsgd1na2vs0mg"},{"bike_id":"cd62cddb-4486-407a-9af0-e3090d3beae1","system_id":"levelo_inurba_marseille","lat":43.30544,"lon":5.36538,"is_reserved":false,"is_disabled":false,"rental_uris":{"android":"levelo://app?vid=cd62cddb-4486-407a-9af0-e3090d3beae1","ios":"levelo://app?vid=cd62cddb-4486-407a-9af0-e3090d3beae1"},"vehicle_type_id":"4","last_reported":1731100069,"current_range_meters":35200,"station_id":"ce4bgs12rcd13ifvqcag","pricing_plan_id":"cebpf4jnsgd1na2vs0mg"},{"bike_id":"adc01c03-3bc1-444f-9c1f-abb84e743474","system_id":"levelo_inurba_marseille","lat":43.30542,"lon":5.38435,"is_reserved":false,"is_disabled":false,"rental_uris":{"android":"levelo://app?vid=adc01c03-3bc1-444f-9c1f-abb84e743474","ios":"levelo://app?vid=adc01c03-3bc1-444f-9c1f-abb84e743474"},"vehicle_type_id":"4","last_reported":1731100069,"current_range_meters":4800,"station_id":"ce4bgg92rcd13ifvqb30","pricing_plan_id":"cebpf4jnsgd1na2vs0mg"},{"bike_id":"d1a14875-c4c1-42aa-a7c2-8e96cb80e3de","system_id":"levelo_inurba_marseille","lat":43.293,"lon":5.37169,"is_reserved":false,"is_disabled":false,"rental_uris":{"android":"levelo://app?vid=d1a14875-c4c1-42aa-a7c2-8e96cb80e3de","ios":"levelo://app?vid=d1a14875-c4c1-42aa-a7c2-8e96cb80e3de"},"vehicle_type_id":"4","last_reported":1731100069,"current_range_meters":38800,"station_id":"ce4bgh92rcd13ifvqb40","pricing_plan_id":"cebpf4jnsgd1na2vs0mg"},{"bike_id":"3346f908-de04-43e9-8754-5e6979379c61","system_id":"levelo_inurba_marseille","lat":43.27996,"lon":5.40009,"is_reserved":false,"is_disabled":false,"rental_uris":{"android":"levelo://app?vid=3346f908-de04-43e9-8754-5e6979379c61","ios":"levelo://app?vid=3346f908-de04-43e9-8754-5e6979379c61"},"vehicle_type_id":"4","last_reported":1731100069,"current_range_meters":25200,"station_id":"ce4bho92rcd13ifvqh4g","pricing_plan_id":"cebpf4jnsgd1na2vs0mg"},{"bike_id":"b2ea2d84-8520-4feb-b30b-1ffe3087e1c8","system_id":"levelo_inurba_marseille","lat":43.29263,"lon":5.38432,"is_reserved":false,"is_disabled":false,"rental_uris":{"android":"levelo://app?vid=b2ea2d84-8520-4feb-b30b-1ffe3087e1c8","ios":"levelo://app?vid=b2ea2d84-8520-4feb-b30b-1ffe3087e1c8"},"vehicle_type_id":"4","last_reported":1731100069,"current_range_meters":24000,"station_id":"ce4bh692rcd13ifvqea0","pricing_plan_id":"cebpf4jnsgd1na2vs0mg"},{"bike_id":"b9059161-bc2a-4853-8231-de961bd5f1e7","system_id":"levelo_inurba_marseille","lat":43.3372,"lon":5.39176,"is_reserved":false,"is_disabled":false,"rental_uris":{"android":"levelo://app?vid=b9059161-bc2a-4853-8231-de961bd5f1e7","ios":"levelo://app?vid=b9059161-bc2a-4853-8231-de961bd5f1e7"},"vehicle_type_id":"4","last_reported":1731100069,"current_range_meters":26000,"station_id":"ce4bhr92rcd13ifvqhsg","pricing_plan_id":"cebpf4jnsgd1na2vs0mg"},{"bike_id":"dd966a76-ccc0-4266-9126-0178b34bacf2","system_id":"levelo_inurba_marseille","lat":43.26941,"lon":5.40243,"is_reserved":false,"is_disabled":false,"rental_uris":{"android":"levelo://app?vid=dd966a76-ccc0-4266-9126-0178b34bacf2","ios":"levelo://app?vid=dd966a76-ccc0-4266-9126-0178b34bacf2"},"vehicle_type_id":"4","last_reported":1731100069,"current_range_meters":25600,"station_id":"cjm6bp8fraef2m0cb0m0","pricing_plan_id":"cebpf4jnsgd1na2vs0mg"},{"bike_id":"06378b38-212e-4272-b251-15a93642382d","system_id":"levelo_inurba_marseille","lat":43.27915,"lon":5.39577,"is_reserved":false,"is_disabled":false,"rental_uris":{"android":"levelo://app?vid=06378b38-212e-4272-b251-15a93642382d","ios":"levelo://app?vid=06378b38-212e-4272-b251-15a93642382d"},"vehicle_type_id":"4","last_reported":1731100069,"current_range_meters":26800,"station_id":"ce4bhf92rcd13ifvqf40","pricing_plan_id":"cebpf4jnsgd1na2vs0mg"},{"bike_id":"4164c8e3-6c75-4914-8649-dc09b80feb36","system_id":"levelo_inurba_marseille","lat":43.29555,"lon":5.42289,"is_reserved":false,"is_disabled":false,"rental_uris":{"android":"levelo://app?vid=4164c8e3-6c75-4914-8649-dc09b80feb36","ios":"levelo://app?vid=4164c8e3-6c75-4914-8649-dc09b80feb36"},"vehicle_type_id":"4","last_reported":1731100069,"current_range_meters":38800,"station_id":"ce4bhph2rcd13ifvqhdg","pricing_plan_id":"cebpf4jnsgd1na2vs0mg"},{"bike_id":"ec342a9d-5c61-4984-a28e-8519e0aa0e08","system_id":"levelo_inurba_marseille","lat":43.2756,"lon":5.38429,"is_reserved":false,"is_disabled":false,"rental_uris":{"android":"levelo://app?vid=ec342a9d-5c61-4984-a28e-8519e0aa0e08","ios":"levelo://app?vid=ec342a9d-5c61-4984-a28e-8519e0aa0e08"},"vehicle_type_id":"4","last_reported":1731100069,"current_range_meters":16800,"station_id":"ce4bhh92rcd13ifvqfi0","pricing_plan_id":"cebpf4jnsgd1na2vs0mg"},{"bike_id":"e6165f22-aa34-421d-9e00-1449d6cb9156","system_id":"levelo_inurba_marseille","lat":43.28938,"lon":5.36634,"is_reserved":false,"is_disabled":false,"rental_uris":{"android":"levelo://app?vid=e6165f22-aa34-421d-9e00-1449d6cb9156","ios":"levelo://app?vid=e6165f22-aa34-421d-9e00-1449d6cb9156"},"vehicle_type_id":"4","last_reported":1731100069,"current_range_meters":34000,"station_id":"ce4bhap2rcd13ifvqek0","pricing_plan_id":"cebpf4jnsgd1na2vs0mg"},{"bike_id":"90849aa7-29be-4f63-a008-efbe269f63de","system_id":"levelo_inurba_marseille","lat":43.29262,"lon":5.38441,"is_reserved":false,"is_disabled":false,"rental_uris":{"android":"levelo://app?vid=90849aa7-29be-4f63-a008-efbe269f63de","ios":"levelo://app?vid=90849aa7-29be-4f63-a008-efbe269f63de"},"vehicle_type_id":"4","last_reported":1731100069,"current_range_meters":12800,"station_id":"ce4bh692rcd13ifvqea0","pricing_plan_id":"cebpf4jnsgd1na2vs0mg"},{"bike_id":"ab2d5df1-6a82-4ee7-ae9d-a6e74a705fb9","system_id":"levelo_inurba_marseille","lat":43.27903,"lon":5.39581,"is_reserved":false,"is_disabled":false,"rental_uris":{"android":"levelo://app?vid=ab2d5df1-6a82-4ee7-ae9d-a6e74a705fb9","ios":"levelo://app?vid=ab2d5df1-6a82-4ee7-ae9d-a6e74a705fb9"},"vehicle_type_id":"4","last_reported":1731100069,"current_range_meters":24400,"station_id":"ce4bhf92rcd13ifvqf40","pricing_plan_id":"cebpf4jnsgd1na2vs0mg"},{"bike_id":"22c2910c-c395-401a-9c60-3a72ab53ce1d","system_id":"levelo_inurba_marseille","lat":43.26548,"lon":5.39502,"is_reserved":false,"is_disabled":false,"rental_uris":{"android":"levelo://app?vid=22c2910c-c395-401a-9c60-3a72ab53ce1d","ios":"levelo://app?vid=22c2910c-c395-401a-9c60-3a72ab53ce1d"},"vehicle_type_id":"4","last_reported":1731100069,"current_range_meters":30800,"station_id":"ce4bhh12rcd13ifvqfg0","pricing_plan_id":"cebpf4jnsgd1na2vs0mg"},{"bike_id":"f4ef053d-e709-4411-bdd9-de1d0f41e46f","system_id":"levelo_inurba_marseille","lat":43.2293,"lon":5.35374,"is_reserved":false,"is_disabled":false,"rental_uris":{"android":"levelo://app?vid=f4ef053d-e709-4411-bdd9-de1d0f41e46f","ios":"levelo://app?vid=f4ef053d-e709-4411-bdd9-de1d0f41e46f"},"vehicle_type_id":"4","last_reported":1731100069,"current_range_meters":38800,"station_id":"cpo3532slgdg3j2ikp40","pricing_plan_id":"cebpf4jnsgd1na2vs0mg"},{"bike_id":"fadedcf9-dfd3-4e59-94d6-79eeeb18d149","system_id":"levelo_inurba_marseille","lat":43.28937,"lon":5.36629,"is_reserved":false,"is_disabled":false,"rental_uris":{"android":"levelo://app?vid=fadedcf9-dfd3-4e59-94d6-79eeeb18d149","ios":"levelo://app?vid=fadedcf9-dfd3-4e59-94d6-79eeeb18d149"},"vehicle_type_id":"4","last_reported":1731100069,"current_range_meters":38400,"station_id":"ce4bhap2rcd13ifvqek0","pricing_plan_id":"cebpf4jnsgd1na2vs0mg"},{"bike_id":"503ccb46-cf30-4fd3-a875-8113b57651dd","system_id":"levelo_inurba_marseille","lat":43.272076,"lon":5.391795,"is_reserved":false,"is_disabled":false,"rental_uris":{"android":"levelo://app?vid=503ccb46-cf30-4fd3-a875-8113b57651dd","ios":"levelo://app?vid=503ccb46-cf30-4fd3-a875-8113b57651dd"},"vehicle_type_id":"4","last_reported":1731100069,"current_range_meters":38800,"station_id":"ce4bhhp2rcd13ifvqfm0","pricing_plan_id":"cebpf4jnsgd1na2vs0mg"},{"bike_id":"32c2bd90-d3d2-4c4e-9401-f0ea9e3ce881","system_id":"levelo_inurba_marseille","lat":43.29262,"lon":5.3843,"is_reserved":false,"is_disabled":false,"rental_uris":{"android":"levelo://app?vid=32c2bd90-d3d2-4c4e-9401-f0ea9e3ce881","ios":"levelo://app?vid=32c2bd90-d3d2-4c4e-9401-f0ea9e3ce881"},"vehicle_type_id":"4","last_reported":1731100069,"current_range_meters":38800,"station_id":"ce4bh692rcd13ifvqea0","pricing_plan_id":"cebpf4jnsgd1na2vs0mg"},{"bike_id":"b46d8704-507c-4c8c-901e-28a2fc75bec7","system_id":"levelo_inurba_marseille","lat":43.30304,"lon":5.39212,"is_reserved":false,"is_disabled":false,"rental_uris":{"android":"levelo://app?vid=b46d8704-507c-4c8c-901e-28a2fc75bec7","ios":"levelo://app?vid=b46d8704-507c-4c8c-901e-28a2fc75bec7"},"vehicle_type_id":"4","last_reported":1731100069,"current_range_meters":26800,"station_id":"ce4bgkh2rcd13ifvqbk0","pricing_plan_id":"cebpf4jnsgd1na2vs0mg"},{"bike_id":"80590553-7a60-4301-a5bc-0f28a55be41a","system_id":"levelo_inurba_marseille","lat":43.26801,"lon":5.40258,"is_reserved":false,"is_disabled":false,"rental_uris":{"android":"levelo://app?vid=80590553-7a60-4301-a5bc-0f28a55be41a","ios":"levelo://app?vid=80590553-7a60-4301-a5bc-0f28a55be41a"},"vehicle_type_id":"4","last_reported":1731100069,"current_range_meters":7200,"station_id":"ce501612rcd8frsf0b60","pricing_plan_id":"cebpf4jnsgd1na2vs0mg"},{"bike_id":"af082970-ba64-4941-8194-28b5d72d5abc","system_id":"levelo_inurba_marseille","lat":43.26947,"lon":5.40242,"is_reserved":false,"is_disabled":false,"rental_uris":{"android":"levelo://app?vid=af082970-ba64-4941-8194-28b5d72d5abc","ios":"levelo://app?vid=af082970-ba64-4941-8194-28b5d72d5abc"},"vehicle_type_id":"4","last_reported":1731100069,"current_range_meters":38800,"station_id":"cjm6bp8fraef2m0cb0m0","pricing_plan_id":"cebpf4jnsgd1na2vs0mg"},{"bike_id":"82f750ef-4c11-46df-bf3f-eb1ee954f51e","system_id":"levelo_inurba_marseille","lat":43.3088,"lon":5.39644,"is_reserved":false,"is_disabled":false,"rental_uris":{"android":"levelo://app?vid=82f750ef-4c11-46df-bf3f-eb1ee954f51e","ios":"levelo://app?vid=82f750ef-4c11-46df-bf3f-eb1ee954f51e"},"vehicle_type_id":"4","last_reported":1731100069,"current_range_meters":28400,"station_id":"ce4bh012rcd13ifvqcv0","pricing_plan_id":"cebpf4jnsgd1na2vs0mg"},{"bike_id":"2f3ef333-964e-4579-b425-b7a8a7e7b0d6","system_id":"levelo_inurba_marseille","lat":43.2955,"lon":5.42291,"is_reserved":false,"is_disabled":false,"rental_uris":{"android":"levelo://app?vid=2f3ef333-964e-4579-b425-b7a8a7e7b0d6","ios":"levelo://app?vid=2f3ef333-964e-4579-b425-b7a8a7e7b0d6"},"vehicle_type_id":"4","last_reported":1731100069,"current_range_meters":18000,"station_id":"ce4bhph2rcd13ifvqhdg","pricing_plan_id":"cebpf4jnsgd1na2vs0mg"},{"bike_id":"982c92fa-5a39-4022-a5c2-2c0c81e43e5c","system_id":"levelo_inurba_marseille","lat":43.26943,"lon":5.40252,"is_reserved":false,"is_disabled":false,"rental_uris":{"android":"levelo://app?vid=982c92fa-5a39-4022-a5c2-2c0c81e43e5c","ios":"levelo://app?vid=982c92fa-5a39-4022-a5c2-2c0c81e43e5c"},"vehicle_type_id":"4","last_reported":1731100069,"current_range_meters":29600,"station_id":"cjm6bp8fraef2m0cb0m0","pricing_plan_id":"cebpf4jnsgd1na2vs0mg"},{"bike_id":"d6934832-8784-49bd-ba70-00625b158265","system_id":"levelo_inurba_marseille","lat":43.28437,"lon":5.39191,"is_reserved":false,"is_disabled":false,"rental_uris":{"android":"levelo://app?vid=d6934832-8784-49bd-ba70-00625b158265","ios":"levelo://app?vid=d6934832-8784-49bd-ba70-00625b158265"},"vehicle_type_id":"4","last_reported":1731100069,"current_range_meters":25600,"station_id":"ce4bhoh2rcd13ifvqh5g","pricing_plan_id":"cebpf4jnsgd1na2vs0mg"},{"bike_id":"0068481c-09a4-465d-a885-c578d3b25bf9","system_id":"levelo_inurba_marseille","lat":43.29419,"lon":5.38622,"is_reserved":false,"is_disabled":false,"rental_uris":{"android":"levelo://app?vid=0068481c-09a4-465d-a885-c578d3b25bf9","ios":"levelo://app?vid=0068481c-09a4-465d-a885-c578d3b25bf9"},"vehicle_type_id":"4","last_reported":1731100069,"current_range_meters":13600,"station_id":"ce4bh2h2rcd13ifvqdh0","pricing_plan_id":"cebpf4jnsgd1na2vs0mg"},{"bike_id":"7243fcc8-e91d-49aa-a78b-3d82c9cf3c65","system_id":"levelo_inurba_marseille","lat":43.2858,"lon":5.35075,"is_reserved":false,"is_disabled":false,"rental_uris":{"android":"levelo://app?vid=7243fcc8-e91d-49aa-a78b-3d82c9cf3c65","ios":"levelo://app?vid=7243fcc8-e91d-49aa-a78b-3d82c9cf3c65"},"vehicle_type_id":"4","last_reported":1731100069,"current_range_meters":37600,"station_id":"","pricing_plan_id":"cebpf4jnsgd1na2vs0mg"},{"bike_id":"d6b5f488-d126-4a27-860c-5f7b4e6dfa13","system_id":"levelo_inurba_marseille","lat":43.27321,"lon":5.39085,"is_reserved":false,"is_disabled":false,"rental_uris":{"android":"levelo://app?vid=d6b5f488-d126-4a27-860c-5f7b4e6dfa13","ios":"levelo://app?vid=d6b5f488-d126-4a27-860c-5f7b4e6dfa13"},"vehicle_type_id":"4","last_reported":1731100069,"current_range_meters":17200,"station_id":"ce4bhgp2rcd13ifvqfe0","pricing_plan_id":"cebpf4jnsgd1na2vs0mg"},{"bike_id":"71bb50a1-6cdb-4a6f-b24c-1cbd7c603ad3","system_id":"levelo_inurba_marseille","lat":43.31435,"lon":5.37391,"is_reserved":false,"is_disabled":false,"rental_uris":{"android":"levelo://app?vid=71bb50a1-6cdb-4a6f-b24c-1cbd7c603ad3","ios":"levelo://app?vid=71bb50a1-6cdb-4a6f-b24c-1cbd7c603ad3"},"vehicle_type_id":"4","last_reported":1731100069,"current_range_meters":31200,"station_id":"","pricing_plan_id":"cebpf4jnsgd1na2vs0mg"},{"bike_id":"b4ad1abe-6669-4317-b6c7-ea7e704ed285","system_id":"levelo_inurba_marseille","lat":43.29583,"lon":5.36733,"is_reserved":false,"is_disabled":false,"rental_uris":{"android":"levelo://app?vid=b4ad1abe-6669-4317-b6c7-ea7e704ed285","ios":"levelo://app?vid=b4ad1abe-6669-4317-b6c7-ea7e704ed285"},"vehicle_type_id":"4","last_reported":1731100069,"current_range_meters":40000,"station_id":"ce4bgph2rcd13ifvqc2g","pricing_plan_id":"cebpf4jnsgd1na2vs0mg"},{"bike_id":"ff467891-7b0f-4851-8db2-7f7247327ba0","system_id":"levelo_inurba_marseille","lat":43.24668,"lon":5.38147,"is_reserved":false,"is_disabled":false,"rental_uris":{"android":"levelo://app?vid=ff467891-7b0f-4851-8db2-7f7247327ba0","ios":"levelo://app?vid=ff467891-7b0f-4851-8db2-7f7247327ba0"},"vehicle_type_id":"4","last_reported":1731100069,"current_range_meters":27200,"station_id":"ce4bhih2rcd13ifvqfr0","pricing_plan_id":"cebpf4jnsgd1na2vs0mg"},{"bike_id":"b8fdd341-0697-41ca-82c9-e4253415f4e6","system_id":"levelo_inurba_marseille","lat":43.23055,"lon":5.35495,"is_reserved":false,"is_disabled":false,"rental_uris":{"android":"levelo://app?vid=b8fdd341-0697-41ca-82c9-e4253415f4e6","ios":"levelo://app?vid=b8fdd341-0697-41ca-82c9-e4253415f4e6"},"vehicle_type_id":"4","last_reported":1731100069,"current_range_meters":36000,"station_id":"cpo3342slgdg3j2ifvpg","pricing_plan_id":"cebpf4jnsgd1na2vs0mg"},{"bike_id":"ef324560-12c5-4148-af3f-a0021ee9327d","system_id":"levelo_inurba_marseille","lat":43.29264,"lon":5.38433,"is_reserved":false,"is_disabled":false,"rental_uris":{"android":"levelo://app?vid=ef324560-12c5-4148-af3f-a0021ee9327d","ios":"levelo://app?vid=ef324560-12c5-4148-af3f-a0021ee9327d"},"vehicle_type_id":"4","last_reported":1731100069,"current_range_meters":5600,"station_id":"ce4bh692rcd13ifvqea0","pricing_plan_id":"cebpf4jnsgd1na2vs0mg"},{"bike_id":"0eb8a685-c917-4253-b289-9a5d7059d804","system_id":"levelo_inurba_marseille","lat":43.29001,"lon":5.3561,"is_reserved":false,"is_disabled":false,"rental_uris":{"android":"levelo://app?vid=0eb8a685-c917-4253-b289-9a5d7059d804","ios":"levelo://app?vid=0eb8a685-c917-4253-b289-9a5d7059d804"},"vehicle_type_id":"4","last_reported":1731100069,"current_range_meters":12400,"station_id":"ce4bhb92rcd13ifvqen0","pricing_plan_id":"cebpf4jnsgd1na2vs0mg"},{"bike_id":"dba055a8-65ad-4a26-95af-d855889f0816","system_id":"levelo_inurba_marseille","lat":43.27173,"lon":5.40982,"is_reserved":false,"is_disabled":false,"rental_uris":{"android":"levelo://app?vid=dba055a8-65ad-4a26-95af-d855889f0816","ios":"levelo://app?vid=dba055a8-65ad-4a26-95af-d855889f0816"},"vehicle_type_id":"4","last_reported":1731100069,"current_range_meters":38800,"station_id":"ce4bhl12rcd13ifvqgf0","pricing_plan_id":"cebpf4jnsgd1na2vs0mg"},{"bike_id":"6de08f95-1ac0-4aa9-9d0f-86f4adf78a03","system_id":"levelo_inurba_marseille","lat":43.29527,"lon":5.38545,"is_reserved":false,"is_disabled":false,"rental_uris":{"android":"levelo://app?vid=6de08f95-1ac0-4aa9-9d0f-86f4adf78a03","ios":"levelo://app?vid=6de08f95-1ac0-4aa9-9d0f-86f4adf78a03"},"vehicle_type_id":"4","last_reported":1731100069,"current_range_meters":38800,"station_id":"ce4bgih2rcd13ifvqba0","pricing_plan_id":"cebpf4jnsgd1na2vs0mg"},{"bike_id":"5e418003-5cf9-4c0b-b413-0e4245b800de","system_id":"levelo_inurba_marseille","lat":43.29964,"lon":5.38495,"is_reserved":false,"is_disabled":false,"rental_uris":{"android":"levelo://app?vid=5e418003-5cf9-4c0b-b413-0e4245b800de","ios":"levelo://app?vid=5e418003-5cf9-4c0b-b413-0e4245b800de"},"vehicle_type_id":"4","last_reported":1731100069,"current_range_meters":14800,"station_id":"ce4bgj92rcd13ifvqbd0","pricing_plan_id":"cebpf4jnsgd1na2vs0mg"},{"bike_id":"84295f8d-41ac-40c9-acd4-fdcb78fbebe8","system_id":"levelo_inurba_marseille","lat":43.248077,"lon":5.374564,"is_reserved":false,"is_disabled":false,"rental_uris":{"android":"levelo://app?vid=84295f8d-41ac-40c9-acd4-fdcb78fbebe8","ios":"levelo://app?vid=84295f8d-41ac-40c9-acd4-fdcb78fbebe8"},"vehicle_type_id":"4","last_reported":1731100069,"current_range_meters":6000,"station_id":"ce4bhgh2rcd13ifvqfb0","pricing_plan_id":"cebpf4jnsgd1na2vs0mg"},{"bike_id":"24fe3a95-aa50-4e46-84b9-72dfa61a474e","system_id":"levelo_inurba_marseille","lat":43.26948,"lon":5.38627,"is_reserved":false,"is_disabled":false,"rental_uris":{"android":"levelo://app?vid=24fe3a95-aa50-4e46-84b9-72dfa61a474e","ios":"levelo://app?vid=24fe3a95-aa50-4e46-84b9-72dfa61a474e"},"vehicle_type_id":"4","last_reported":1731100069,"current_range_meters":38800,"station_id":"ce4bhh92rcd13ifvqfh0","pricing_plan_id":"cebpf4jnsgd1na2vs0mg"},{"bike_id":"44fbaf17-78eb-4401-9a44-b348747dcdb6","system_id":"levelo_inurba_marseille","lat":43.30883,"lon":5.39638,"is_reserved":false,"is_disabled":false,"rental_uris":{"android":"levelo://app?vid=44fbaf17-78eb-4401-9a44-b348747dcdb6","ios":"levelo://app?vid=44fbaf17-78eb-4401-9a44-b348747dcdb6"},"vehicle_type_id":"4","last_reported":1731100069,"current_range_meters":38800,"station_id":"ce4bh012rcd13ifvqcv0","pricing_plan_id":"cebpf4jnsgd1na2vs0mg"},{"bike_id":"ad1ea731-bbba-4f11-8072-f97e49de7dc0","system_id":"levelo_inurba_marseille","lat":43.27995,"lon":5.40009,"is_reserved":false,"is_disabled":false,"rental_uris":{"android":"levelo://app?vid=ad1ea731-bbba-4f11-8072-f97e49de7dc0","ios":"levelo://app?vid=ad1ea731-bbba-4f11-8072-f97e49de7dc0"},"vehicle_type_id":"4","last_reported":1731100069,"current_range_meters":37600,"station_id":"ce4bho92rcd13ifvqh4g","pricing_plan_id":"cebpf4jnsgd1na2vs0mg"},{"bike_id":"12ed9fc9-1c4a-474b-a107-f53e8dda30e5","system_id":"levelo_inurba_marseille","lat":43.29416,"lon":5.38621,"is_reserved":false,"is_disabled":false,"rental_uris":{"android":"levelo://app?vid=12ed9fc9-1c4a-474b-a107-f53e8dda30e5","ios":"levelo://app?vid=12ed9fc9-1c4a-474b-a107-f53e8dda30e5"},"vehicle_type_id":"4","last_reported":1731100069,"current_range_meters":36400,"station_id":"ce4bh2h2rcd13ifvqdh0","pricing_plan_id":"cebpf4jnsgd1na2vs0mg"},{"bike_id":"2b150863-8b5e-476c-ab0d-bac5bd403021","system_id":"levelo_inurba_marseille","lat":43.27066,"lon":5.40254,"is_reserved":false,"is_disabled":false,"rental_uris":{"android":"levelo://app?vid=2b150863-8b5e-476c-ab0d-bac5bd403021","ios":"levelo://app?vid=2b150863-8b5e-476c-ab0d-bac5bd403021"},"vehicle_type_id":"4","last_reported":1731100069,"current_range_meters":38800,"station_id":"ce4bhk92rcd13ifvqgc0","pricing_plan_id":"cebpf4jnsgd1na2vs0mg"},{"bike_id":"dbe1ee58-77eb-4a4b-b965-2fa3fdb48b3f","system_id":"levelo_inurba_marseille","lat":43.3127,"lon":5.40164,"is_reserved":false,"is_disabled":false,"rental_uris":{"android":"levelo://app?vid=dbe1ee58-77eb-4a4b-b965-2fa3fdb48b3f","ios":"levelo://app?vid=dbe1ee58-77eb-4a4b-b965-2fa3fdb48b3f"},"vehicle_type_id":"4","last_reported":1731100069,"current_range_meters":27200,"station_id":"ce4bh092rcd13ifvqd30","pricing_plan_id":"cebpf4jnsgd1na2vs0mg"},{"bike_id":"d05d1420-7bba-4688-a70e-2633a6d83a6a","system_id":"levelo_inurba_marseille","lat":43.29025,"lon":5.38644,"is_reserved":false,"is_disabled":false,"rental_uris":{"android":"levelo://app?vid=d05d1420-7bba-4688-a70e-2633a6d83a6a","ios":"levelo://app?vid=d05d1420-7bba-4688-a70e-2633a6d83a6a"},"vehicle_type_id":"4","last_reported":1731100069,"current_range_meters":38800,"station_id":"ce4bh4p2rcd13ifvqe0g","pricing_plan_id":"cebpf4jnsgd1na2vs0mg"},{"bike_id":"84734344-4100-498f-90db-13a43f921e51","system_id":"levelo_inurba_marseille","lat":43.29618,"lon":5.37151,"is_reserved":false,"is_disabled":false,"rental_uris":{"android":"levelo://app?vid=84734344-4100-498f-90db-13a43f921e51","ios":"levelo://app?vid=84734344-4100-498f-90db-13a43f921e51"},"vehicle_type_id":"4","last_reported":1731100069,"current_range_meters":28000,"station_id":"ce4bgnh2rcd13ifvqc0g","pricing_plan_id":"cebpf4jnsgd1na2vs0mg"},{"bike_id":"82bcb5cc-eff7-40fa-ae6c-a3c17f56dccf","system_id":"levelo_inurba_marseille","lat":43.31997,"lon":5.38141,"is_reserved":false,"is_disabled":false,"rental_uris":{"android":"levelo://app?vid=82bcb5cc-eff7-40fa-ae6c-a3c17f56dccf","ios":"levelo://app?vid=82bcb5cc-eff7-40fa-ae6c-a3c17f56dccf"},"vehicle_type_id":"4","last_reported":1731100069,"current_range_meters":13600,"station_id":"ce4bhr12rcd13ifvqhpg","pricing_plan_id":"cebpf4jnsgd1na2vs0mg"},{"bike_id":"879d09ab-787c-4911-b501-6a06b67ef3ec","system_id":"levelo_inurba_marseille","lat":43.27205,"lon":5.39176,"is_reserved":false,"is_disabled":false,"rental_uris":{"android":"levelo://app?vid=879d09ab-787c-4911-b501-6a06b67ef3ec","ios":"levelo://app?vid=879d09ab-787c-4911-b501-6a06b67ef3ec"},"vehicle_type_id":"4","last_reported":1731100069,"current_range_meters":16000,"station_id":"ce4bhhp2rcd13ifvqfm0","pricing_plan_id":"cebpf4jnsgd1na2vs0mg"},{"bike_id":"b8ef9640-9524-4f24-8173-bd17b4f5b7d8","system_id":"levelo_inurba_marseille","lat":43.2732,"lon":5.39094,"is_reserved":false,"is_disabled":false,"rental_uris":{"android":"levelo://app?vid=b8ef9640-9524-4f24-8173-bd17b4f5b7d8","ios":"levelo://app?vid=b8ef9640-9524-4f24-8173-bd17b4f5b7d8"},"vehicle_type_id":"4","last_reported":1731100069,"current_range_meters":35200,"station_id":"ce4bhgp2rcd13ifvqfe0","pricing_plan_id":"cebpf4jnsgd1na2vs0mg"},{"bike_id":"c48e6a42-0730-45d9-8b9d-84308ea8d228","system_id":"levelo_inurba_marseille","lat":43.26941,"lon":5.40255,"is_reserved":false,"is_disabled":false,"rental_uris":{"android":"levelo://app?vid=c48e6a42-0730-45d9-8b9d-84308ea8d228","ios":"levelo://app?vid=c48e6a42-0730-45d9-8b9d-84308ea8d228"},"vehicle_type_id":"4","last_reported":1731100069,"current_range_meters":12400,"station_id":"cjm6bp8fraef2m0cb0m0","pricing_plan_id":"cebpf4jnsgd1na2vs0mg"},{"bike_id":"bc2d6971-e395-4768-9fc5-d20d0fa99369","system_id":"levelo_inurba_marseille","lat":43.28011,"lon":5.40003,"is_reserved":false,"is_disabled":false,"rental_uris":{"android":"levelo://app?vid=bc2d6971-e395-4768-9fc5-d20d0fa99369","ios":"levelo://app?vid=bc2d6971-e395-4768-9fc5-d20d0fa99369"},"vehicle_type_id":"4","last_reported":1731100069,"current_range_meters":18800,"station_id":"ce4bho92rcd13ifvqh4g","pricing_plan_id":"cebpf4jnsgd1na2vs0mg"},{"bike_id":"4196c03e-69d8-4f99-9423-2897f6861c23","system_id":"levelo_inurba_marseille","lat":43.28102,"lon":5.37837,"is_reserved":false,"is_disabled":false,"rental_uris":{"android":"levelo://app?vid=4196c03e-69d8-4f99-9423-2897f6861c23","ios":"levelo://app?vid=4196c03e-69d8-4f99-9423-2897f6861c23"},"vehicle_type_id":"4","last_reported":1731100069,"current_range_meters":36400,"station_id":"ce4bha12rcd13ifvqee0","pricing_plan_id":"cebpf4jnsgd1na2vs0mg"},{"bike_id":"2a1f2b15-e51a-4a08-958c-9704bd56602b","system_id":"levelo_inurba_marseille","lat":43.268,"lon":5.40259,"is_reserved":false,"is_disabled":false,"rental_uris":{"android":"levelo://app?vid=2a1f2b15-e51a-4a08-958c-9704bd56602b","ios":"levelo://app?vid=2a1f2b15-e51a-4a08-958c-9704bd56602b"},"vehicle_type_id":"4","last_reported":1731100069,"current_range_meters":8400,"station_id":"ce501612rcd8frsf0b60","pricing_plan_id":"cebpf4jnsgd1na2vs0mg"},{"bike_id":"05ab3f7a-8f9d-46a2-b519-c0ebbd246364","system_id":"levelo_inurba_marseille","lat":43.27669,"lon":5.38884,"is_reserved":false,"is_disabled":false,"rental_uris":{"android":"levelo://app?vid=05ab3f7a-8f9d-46a2-b519-c0ebbd246364","ios":"levelo://app?vid=05ab3f7a-8f9d-46a2-b519-c0ebbd246364"},"vehicle_type_id":"4","last_reported":1731100069,"current_range_meters":9200,"station_id":"ce4bhi12rcd13ifvqfo0","pricing_plan_id":"cebpf4jnsgd1na2vs0mg"},{"bike_id":"79c31e38-c961-491e-bf26-01c3071ff7ba","system_id":"levelo_inurba_marseille","lat":43.27318,"lon":5.39096,"is_reserved":false,"is_disabled":false,"rental_uris":{"android":"levelo://app?vid=79c31e38-c961-491e-bf26-01c3071ff7ba","ios":"levelo://app?vid=79c31e38-c961-491e-bf26-01c3071ff7ba"},"vehicle_type_id":"4","last_reported":1731100069,"current_range_meters":33200,"station_id":"ce4bhgp2rcd13ifvqfe0","pricing_plan_id":"cebpf4jnsgd1na2vs0mg"},{"bike_id":"d0d7f828-bd04-4608-b04e-888aeb08a5a6","system_id":"levelo_inurba_marseille","lat":43.2706,"lon":5.40261,"is_reserved":false,"is_disabled":false,"rental_uris":{"android":"levelo://app?vid=d0d7f828-bd04-4608-b04e-888aeb08a5a6","ios":"levelo://app?vid=d0d7f828-bd04-4608-b04e-888aeb08a5a6"},"vehicle_type_id":"4","last_reported":1731100069,"current_range_meters":8000,"station_id":"ce4bhk92rcd13ifvqgc0","pricing_plan_id":"cebpf4jnsgd1na2vs0mg"},{"bike_id":"5a51db41-9e4f-477f-920b-33379583a86c","system_id":"levelo_inurba_marseille","lat":43.29532,"lon":5.38544,"is_reserved":false,"is_disabled":false,"rental_uris":{"android":"levelo://app?vid=5a51db41-9e4f-477f-920b-33379583a86c","ios":"levelo://app?vid=5a51db41-9e4f-477f-920b-33379583a86c"},"vehicle_type_id":"4","last_reported":1731100069,"current_range_meters":10800,"station_id":"ce4bgih2rcd13ifvqba0","pricing_plan_id":"cebpf4jnsgd1na2vs0mg"},{"bike_id":"fe9bc27c-4f00-454d-a1fc-d675d0e6b387","system_id":"levelo_inurba_marseille","lat":43.26943,"lon":5.40252,"is_reserved":false,"is_disabled":false,"rental_uris":{"android":"levelo://app?vid=fe9bc27c-4f00-454d-a1fc-d675d0e6b387","ios":"levelo://app?vid=fe9bc27c-4f00-454d-a1fc-d675d0e6b387"},"vehicle_type_id":"4","last_reported":1731100069,"current_range_meters":27600,"station_id":"cjm6bp8fraef2m0cb0m0","pricing_plan_id":"cebpf4jnsgd1na2vs0mg"},{"bike_id":"f2b88fdd-2e0b-4b5e-888c-35155555732c","system_id":"levelo_inurba_marseille","lat":43.3199,"lon":5.38149,"is_reserved":false,"is_disabled":false,"rental_uris":{"android":"levelo://app?vid=f2b88fdd-2e0b-4b5e-888c-35155555732c","ios":"levelo://app?vid=f2b88fdd-2e0b-4b5e-888c-35155555732c"},"vehicle_type_id":"4","last_reported":1731100069,"current_range_meters":38800,"station_id":"ce4bhr12rcd13ifvqhpg","pricing_plan_id":"cebpf4jnsgd1na2vs0mg"},{"bike_id":"6620e73e-63eb-4fc6-8f54-cfecf7ecd726","system_id":"levelo_inurba_marseille","lat":43.280015,"lon":5.400068,"is_reserved":false,"is_disabled":false,"rental_uris":{"android":"levelo://app?vid=6620e73e-63eb-4fc6-8f54-cfecf7ecd726","ios":"levelo://app?vid=6620e73e-63eb-4fc6-8f54-cfecf7ecd726"},"vehicle_type_id":"4","last_reported":1731100069,"current_range_meters":8400,"station_id":"ce4bho92rcd13ifvqh4g","pricing_plan_id":"cebpf4jnsgd1na2vs0mg"},{"bike_id":"da13d5cd-964e-4f39-b1f4-c24734caa4d9","system_id":"levelo_inurba_marseille","lat":43.29299,"lon":5.37164,"is_reserved":false,"is_disabled":false,"rental_uris":{"android":"levelo://app?vid=da13d5cd-964e-4f39-b1f4-c24734caa4d9","ios":"levelo://app?vid=da13d5cd-964e-4f39-b1f4-c24734caa4d9"},"vehicle_type_id":"4","last_reported":1731100069,"current_range_meters":21600,"station_id":"ce4bgh92rcd13ifvqb40","pricing_plan_id":"cebpf4jnsgd1na2vs0mg"},{"bike_id":"b9478b1d-79e3-44c9-ae60-496dd5151f62","system_id":"levelo_inurba_marseille","lat":43.2917,"lon":5.37143,"is_reserved":false,"is_disabled":false,"rental_uris":{"android":"levelo://app?vid=b9478b1d-79e3-44c9-ae60-496dd5151f62","ios":"levelo://app?vid=b9478b1d-79e3-44c9-ae60-496dd5151f62"},"vehicle_type_id":"4","last_reported":1731100069,"current_range_meters":39200,"station_id":"ce4bha92rcd13ifvqeh0","pricing_plan_id":"cebpf4jnsgd1na2vs0mg"},{"bike_id":"99901ec2-e5f3-49d5-a242-6c162c4c89b9","system_id":"levelo_inurba_marseille","lat":43.26944,"lon":5.4025,"is_reserved":false,"is_disabled":false,"rental_uris":{"android":"levelo://app?vid=99901ec2-e5f3-49d5-a242-6c162c4c89b9","ios":"levelo://app?vid=99901ec2-e5f3-49d5-a242-6c162c4c89b9"},"vehicle_type_id":"4","last_reported":1731100069,"current_range_meters":38800,"station_id":"cjm6bp8fraef2m0cb0m0","pricing_plan_id":"cebpf4jnsgd1na2vs0mg"},{"bike_id":"2d6670b0-58a0-4902-bd78-19105391cbc7","system_id":"levelo_inurba_marseille","lat":43.29223,"lon":5.36061,"is_reserved":false,"is_disabled":false,"rental_uris":{"android":"levelo://app?vid=2d6670b0-58a0-4902-bd78-19105391cbc7","ios":"levelo://app?vid=2d6670b0-58a0-4902-bd78-19105391cbc7"},"vehicle_type_id":"4","last_reported":1731100069,"current_range_meters":19200,"station_id":"ce4bhbh2rcd13ifvqeqg","pricing_plan_id":"cebpf4jnsgd1na2vs0mg"},{"bike_id":"0244cb55-5c6d-481d-8473-12d40bb6d28a","system_id":"levelo_inurba_marseille","lat":43.27559,"lon":5.38439,"is_reserved":false,"is_disabled":false,"rental_uris":{"android":"levelo://app?vid=0244cb55-5c6d-481d-8473-12d40bb6d28a","ios":"levelo://app?vid=0244cb55-5c6d-481d-8473-12d40bb6d28a"},"vehicle_type_id":"4","last_reported":1731100069,"current_range_meters":30800,"station_id":"ce4bhh92rcd13ifvqfi0","pricing_plan_id":"cebpf4jnsgd1na2vs0mg"},{"bike_id":"7adb32ad-fa93-48f3-8ff7-95b77f67bd56","system_id":"levelo_inurba_marseille","lat":43.29846,"lon":5.36282,"is_reserved":false,"is_disabled":false,"rental_uris":{"android":"levelo://app?vid=7adb32ad-fa93-48f3-8ff7-95b77f67bd56","ios":"levelo://app?vid=7adb32ad-fa93-48f3-8ff7-95b77f67bd56"},"vehicle_type_id":"4","last_reported":1731100069,"current_range_meters":38400,"station_id":"ce4bgpp2rcd13ifvqc3g","pricing_plan_id":"cebpf4jnsgd1na2vs0mg"},{"bike_id":"89dea935-c016-4547-b4f2-a6dcfc6157cb","system_id":"levelo_inurba_marseille","lat":43.26938,"lon":5.40243,"is_reserved":false,"is_disabled":false,"rental_uris":{"android":"levelo://app?vid=89dea935-c016-4547-b4f2-a6dcfc6157cb","ios":"levelo://app?vid=89dea935-c016-4547-b4f2-a6dcfc6157cb"},"vehicle_type_id":"4","last_reported":1731100069,"current_range_meters":36800,"station_id":"cjm6bp8fraef2m0cb0m0","pricing_plan_id":"cebpf4jnsgd1na2vs0mg"},{"bike_id":"d070148f-8ecc-4c75-8cb1-c8bc85f50390","system_id":"levelo_inurba_marseille","lat":43.3302,"lon":5.39032,"is_reserved":false,"is_disabled":false,"rental_uris":{"android":"levelo://app?vid=d070148f-8ecc-4c75-8cb1-c8bc85f50390","ios":"levelo://app?vid=d070148f-8ecc-4c75-8cb1-c8bc85f50390"},"vehicle_type_id":"4","last_reported":1731100069,"current_range_meters":13600,"station_id":"ce4bhr92rcd13ifvqhrg","pricing_plan_id":"cebpf4jnsgd1na2vs0mg"},{"bike_id":"49802e5d-6e7d-4d65-ade0-af9d690a65b9","system_id":"levelo_inurba_marseille","lat":43.27814,"lon":5.40718,"is_reserved":false,"is_disabled":false,"rental_uris":{"android":"levelo://app?vid=49802e5d-6e7d-4d65-ade0-af9d690a65b9","ios":"levelo://app?vid=49802e5d-6e7d-4d65-ade0-af9d690a65b9"},"vehicle_type_id":"4","last_reported":1731100069,"current_range_meters":22000,"station_id":"ce4bhnh2rcd13ifvqgtg","pricing_plan_id":"cebpf4jnsgd1na2vs0mg"},{"bike_id":"29824cde-4cdc-4355-9b22-a5922a403deb","system_id":"levelo_inurba_marseille","lat":43.337444,"lon":5.374475,"is_reserved":false,"is_disabled":false,"rental_uris":{"android":"levelo://app?vid=29824cde-4cdc-4355-9b22-a5922a403deb","ios":"levelo://app?vid=29824cde-4cdc-4355-9b22-a5922a403deb"},"vehicle_type_id":"4","last_reported":1731100069,"current_range_meters":36400,"station_id":"","pricing_plan_id":"cebpf4jnsgd1na2vs0mg"},{"bike_id":"bd8c2fc7-b0b3-4959-b841-fd9492586770","system_id":"levelo_inurba_marseille","lat":43.2694,"lon":5.40246,"is_reserved":false,"is_disabled":false,"rental_uris":{"android":"levelo://app?vid=bd8c2fc7-b0b3-4959-b841-fd9492586770","ios":"levelo://app?vid=bd8c2fc7-b0b3-4959-b841-fd9492586770"},"vehicle_type_id":"4","last_reported":1731100069,"current_range_meters":28400,"station_id":"cjm6bp8fraef2m0cb0m0","pricing_plan_id":"cebpf4jnsgd1na2vs0mg"},{"bike_id":"136548bd-9b2c-4d98-84ce-36d39467f2b3","system_id":"levelo_inurba_marseille","lat":43.26942,"lon":5.40246,"is_reserved":false,"is_disabled":false,"rental_uris":{"android":"levelo://app?vid=136548bd-9b2c-4d98-84ce-36d39467f2b3","ios":"levelo://app?vid=136548bd-9b2c-4d98-84ce-36d39467f2b3"},"vehicle_type_id":"4","last_reported":1731100069,"current_range_meters":22400,"station_id":"cjm6bp8fraef2m0cb0m0","pricing_plan_id":"cebpf4jnsgd1na2vs0mg"},{"bike_id":"67e17654-368e-4b56-a0c7-552a55a43533","system_id":"levelo_inurba_marseille","lat":43.27567,"lon":5.38411,"is_reserved":false,"is_disabled":false,"rental_uris":{"android":"levelo://app?vid=67e17654-368e-4b56-a0c7-552a55a43533","ios":"levelo://app?vid=67e17654-368e-4b56-a0c7-552a55a43533"},"vehicle_type_id":"4","last_reported":1731100069,"current_range_meters":31200,"station_id":"ce4bhh92rcd13ifvqfi0","pricing_plan_id":"cebpf4jnsgd1na2vs0mg"},{"bike_id":"eccb9bf1-4a0c-4df5-8229-bf46f21c4329","system_id":"levelo_inurba_marseille","lat":43.3172,"lon":5.42403,"is_reserved":false,"is_disabled":false,"rental_uris":{"android":"levelo://app?vid=eccb9bf1-4a0c-4df5-8229-bf46f21c4329","ios":"levelo://app?vid=eccb9bf1-4a0c-4df5-8229-bf46f21c4329"},"vehicle_type_id":"4","last_reported":1731100069,"current_range_meters":36800,"station_id":"ce4bhp92rcd13ifvqhbg","pricing_plan_id":"cebpf4jnsgd1na2vs0mg"},{"bike_id":"ef288286-229d-4b9a-a189-8d61840dcffb","system_id":"levelo_inurba_marseille","lat":43.23189,"lon":5.35548,"is_reserved":false,"is_disabled":false,"rental_uris":{"android":"levelo://app?vid=ef288286-229d-4b9a-a189-8d61840dcffb","ios":"levelo://app?vid=ef288286-229d-4b9a-a189-8d61840dcffb"},"vehicle_type_id":"4","last_reported":1731100069,"current_range_meters":36800,"station_id":"ce4bhu92rcd13ifvqi70","pricing_plan_id":"cebpf4jnsgd1na2vs0mg"},{"bike_id":"68df6f6b-61ce-494c-870f-eed158722807","system_id":"levelo_inurba_marseille","lat":43.26553,"lon":5.37285,"is_reserved":false,"is_disabled":false,"rental_uris":{"android":"levelo://app?vid=68df6f6b-61ce-494c-870f-eed158722807","ios":"levelo://app?vid=68df6f6b-61ce-494c-870f-eed158722807"},"vehicle_type_id":"4","last_reported":1731100069,"current_range_meters":36400,"station_id":"ce4bhg12rcd13ifvqf70","pricing_plan_id":"cebpf4jnsgd1na2vs0mg"},{"bike_id":"886c5890-2348-46d7-aae9-e41e14c2a41f","system_id":"levelo_inurba_marseille","lat":43.27996,"lon":5.40014,"is_reserved":false,"is_disabled":false,"rental_uris":{"android":"levelo://app?vid=886c5890-2348-46d7-aae9-e41e14c2a41f","ios":"levelo://app?vid=886c5890-2348-46d7-aae9-e41e14c2a41f"},"vehicle_type_id":"4","last_reported":1731100069,"current_range_meters":37600,"station_id":"ce4bho92rcd13ifvqh4g","pricing_plan_id":"cebpf4jnsgd1na2vs0mg"},{"bike_id":"94a00c26-13b4-4ba2-a583-a82739dfdf71","system_id":"levelo_inurba_marseille","lat":43.26947,"lon":5.40232,"is_reserved":false,"is_disabled":false,"rental_uris":{"android":"levelo://app?vid=94a00c26-13b4-4ba2-a583-a82739dfdf71","ios":"levelo://app?vid=94a00c26-13b4-4ba2-a583-a82739dfdf71"},"vehicle_type_id":"4","last_reported":1731100069,"current_range_meters":38800,"station_id":"cjm6bp8fraef2m0cb0m0","pricing_plan_id":"cebpf4jnsgd1na2vs0mg"},{"bike_id":"ec2c11b7-eadd-46da-a0b4-6f08cd8a9b45","system_id":"levelo_inurba_marseille","lat":43.27439,"lon":5.39401,"is_reserved":false,"is_disabled":false,"rental_uris":{"android":"levelo://app?vid=ec2c11b7-eadd-46da-a0b4-6f08cd8a9b45","ios":"levelo://app?vid=ec2c11b7-eadd-46da-a0b4-6f08cd8a9b45"},"vehicle_type_id":"4","last_reported":1731100069,"current_range_meters":34000,"station_id":"ce4bhdp2rcd13ifvqf20","pricing_plan_id":"cebpf4jnsgd1na2vs0mg"},{"bike_id":"c5ac0297-7c32-4fa8-90a0-78eafcc097af","system_id":"levelo_inurba_marseille","lat":43.30794,"lon":5.39994,"is_reserved":false,"is_disabled":false,"rental_uris":{"android":"levelo://app?vid=c5ac0297-7c32-4fa8-90a0-78eafcc097af","ios":"levelo://app?vid=c5ac0297-7c32-4fa8-90a0-78eafcc097af"},"vehicle_type_id":"4","last_reported":1731100069,"current_range_meters":9200,"station_id":"","pricing_plan_id":"cebpf4jnsgd1na2vs0mg"},{"bike_id":"5c2e91b0-db21-4162-85e8-dbe374504ee6","system_id":"levelo_inurba_marseille","lat":43.27813,"lon":5.40705,"is_reserved":false,"is_disabled":false,"rental_uris":{"android":"levelo://app?vid=5c2e91b0-db21-4162-85e8-dbe374504ee6","ios":"levelo://app?vid=5c2e91b0-db21-4162-85e8-dbe374504ee6"},"vehicle_type_id":"4","last_reported":1731100069,"current_range_meters":38800,"station_id":"ce4bhnh2rcd13ifvqgtg","pricing_plan_id":"cebpf4jnsgd1na2vs0mg"},{"bike_id":"5b5df625-091a-48ae-a114-d616b146cb56","system_id":"levelo_inurba_marseille","lat":43.2983,"lon":5.36261,"is_reserved":false,"is_disabled":false,"rental_uris":{"android":"levelo://app?vid=5b5df625-091a-48ae-a114-d616b146cb56","ios":"levelo://app?vid=5b5df625-091a-48ae-a114-d616b146cb56"},"vehicle_type_id":"4","last_reported":1731100069,"current_range_meters":38000,"station_id":"ce4bgpp2rcd13ifvqc3g","pricing_plan_id":"cebpf4jnsgd1na2vs0mg"},{"bike_id":"e92acd98-e027-46b9-8acb-9f2e6dac68de","system_id":"levelo_inurba_marseille","lat":43.27065,"lon":5.40261,"is_reserved":false,"is_disabled":false,"rental_uris":{"android":"levelo://app?vid=e92acd98-e027-46b9-8acb-9f2e6dac68de","ios":"levelo://app?vid=e92acd98-e027-46b9-8acb-9f2e6dac68de"},"vehicle_type_id":"4","last_reported":1731100069,"current_range_meters":38800,"station_id":"ce4bhk92rcd13ifvqgc0","pricing_plan_id":"cebpf4jnsgd1na2vs0mg"},{"bike_id":"17af4bea-b3de-4c83-bdca-1950a356db9a","system_id":"levelo_inurba_marseille","lat":43.31275,"lon":5.40167,"is_reserved":false,"is_disabled":false,"rental_uris":{"android":"levelo://app?vid=17af4bea-b3de-4c83-bdca-1950a356db9a","ios":"levelo://app?vid=17af4bea-b3de-4c83-bdca-1950a356db9a"},"vehicle_type_id":"4","last_reported":1731100069,"current_range_meters":37600,"station_id":"ce4bh092rcd13ifvqd30","pricing_plan_id":"cebpf4jnsgd1na2vs0mg"},{"bike_id":"37cbea81-cd52-4d51-b897-93a27b07082a","system_id":"levelo_inurba_marseille","lat":43.295337,"lon":5.385453,"is_reserved":false,"is_disabled":false,"rental_uris":{"android":"levelo://app?vid=37cbea81-cd52-4d51-b897-93a27b07082a","ios":"levelo://app?vid=37cbea81-cd52-4d51-b897-93a27b07082a"},"vehicle_type_id":"4","last_reported":1731100069,"current_range_meters":26000,"station_id":"ce4bgih2rcd13ifvqba0","pricing_plan_id":"cebpf4jnsgd1na2vs0mg"},{"bike_id":"fdd15750-5113-435c-81dc-aa8b468c48eb","system_id":"levelo_inurba_marseille","lat":43.27439,"lon":5.39411,"is_reserved":false,"is_disabled":false,"rental_uris":{"android":"levelo://app?vid=fdd15750-5113-435c-81dc-aa8b468c48eb","ios":"levelo://app?vid=fdd15750-5113-435c-81dc-aa8b468c48eb"},"vehicle_type_id":"4","last_reported":1731100069,"current_range_meters":8400,"station_id":"ce4bhdp2rcd13ifvqf20","pricing_plan_id":"cebpf4jnsgd1na2vs0mg"},{"bike_id":"21cfec02-cf73-459b-8941-f6b96b319f9e","system_id":"levelo_inurba_marseille","lat":43.31492,"lon":5.37304,"is_reserved":false,"is_disabled":false,"rental_uris":{"android":"levelo://app?vid=21cfec02-cf73-459b-8941-f6b96b319f9e","ios":"levelo://app?vid=21cfec02-cf73-459b-8941-f6b96b319f9e"},"vehicle_type_id":"4","last_reported":1731100069,"current_range_meters":38800,"station_id":"ce4bgt12rcd13ifvqcd0","pricing_plan_id":"cebpf4jnsgd1na2vs0mg"},{"bike_id":"1d9634b7-92f8-42dc-b38d-c9b269308e00","system_id":"levelo_inurba_marseille","lat":43.28001,"lon":5.40001,"is_reserved":false,"is_disabled":false,"rental_uris":{"android":"levelo://app?vid=1d9634b7-92f8-42dc-b38d-c9b269308e00","ios":"levelo://app?vid=1d9634b7-92f8-42dc-b38d-c9b269308e00"},"vehicle_type_id":"4","last_reported":1731100069,"current_range_meters":34000,"station_id":"ce4bho92rcd13ifvqh4g","pricing_plan_id":"cebpf4jnsgd1na2vs0mg"},{"bike_id":"5064550b-8dae-4427-b3bf-a8ac14819c60","system_id":"levelo_inurba_marseille","lat":43.31709,"lon":5.43694,"is_reserved":false,"is_disabled":false,"rental_uris":{"android":"levelo://app?vid=5064550b-8dae-4427-b3bf-a8ac14819c60","ios":"levelo://app?vid=5064550b-8dae-4427-b3bf-a8ac14819c60"},"vehicle_type_id":"4","last_reported":1731100069,"current_range_meters":38800,"station_id":"ce4bhp92rcd13ifvqhcg","pricing_plan_id":"cebpf4jnsgd1na2vs0mg"},{"bike_id":"8faa22dc-5f3c-4af6-b84b-f554e09d6313","system_id":"levelo_inurba_marseille","lat":43.337444,"lon":5.374475,"is_reserved":false,"is_disabled":false,"rental_uris":{"android":"levelo://app?vid=8faa22dc-5f3c-4af6-b84b-f554e09d6313","ios":"levelo://app?vid=8faa22dc-5f3c-4af6-b84b-f554e09d6313"},"vehicle_type_id":"4","last_reported":1731100069,"current_range_meters":36400,"station_id":"","pricing_plan_id":"cebpf4jnsgd1na2vs0mg"},{"bike_id":"c5eb6fd9-48e9-46e5-82ae-a044f97572e4","system_id":"levelo_inurba_marseille","lat":43.28932,"lon":5.36649,"is_reserved":false,"is_disabled":false,"rental_uris":{"android":"levelo://app?vid=c5eb6fd9-48e9-46e5-82ae-a044f97572e4","ios":"levelo://app?vid=c5eb6fd9-48e9-46e5-82ae-a044f97572e4"},"vehicle_type_id":"4","last_reported":1731100069,"current_range_meters":35200,"station_id":"ce4bhap2rcd13ifvqek0","pricing_plan_id":"cebpf4jnsgd1na2vs0mg"},{"bike_id":"61892a9e-576b-4a39-a5c5-aa7b307c3d49","system_id":"levelo_inurba_marseille","lat":43.27997,"lon":5.39999,"is_reserved":false,"is_disabled":false,"rental_uris":{"android":"levelo://app?vid=61892a9e-576b-4a39-a5c5-aa7b307c3d49","ios":"levelo://app?vid=61892a9e-576b-4a39-a5c5-aa7b307c3d49"},"vehicle_type_id":"4","last_reported":1731100069,"current_range_meters":18800,"station_id":"ce4bho92rcd13ifvqh4g","pricing_plan_id":"cebpf4jnsgd1na2vs0mg"},{"bike_id":"ca24a55b-6170-4d7b-9cb2-9b51ff03f68f","system_id":"levelo_inurba_marseille","lat":43.26935,"lon":5.38903,"is_reserved":false,"is_disabled":false,"rental_uris":{"android":"levelo://app?vid=ca24a55b-6170-4d7b-9cb2-9b51ff03f68f","ios":"levelo://app?vid=ca24a55b-6170-4d7b-9cb2-9b51ff03f68f"},"vehicle_type_id":"4","last_reported":1731100069,"current_range_meters":39200,"station_id":"ce4bhhh2rcd13ifvqfl0","pricing_plan_id":"cebpf4jnsgd1na2vs0mg"},{"bike_id":"927ec79a-7622-4b3a-a5ad-61150cfb7795","system_id":"levelo_inurba_marseille","lat":43.29537,"lon":5.38544,"is_reserved":false,"is_disabled":false,"rental_uris":{"android":"levelo://app?vid=927ec79a-7622-4b3a-a5ad-61150cfb7795","ios":"levelo://app?vid=927ec79a-7622-4b3a-a5ad-61150cfb7795"},"vehicle_type_id":"4","last_reported":1731100069,"current_range_meters":25200,"station_id":"ce4bgih2rcd13ifvqba0","pricing_plan_id":"cebpf4jnsgd1na2vs0mg"},{"bike_id":"c7a601e3-837f-43df-885f-82aca8c8aba7","system_id":"levelo_inurba_marseille","lat":43.29445,"lon":5.38456,"is_reserved":false,"is_disabled":false,"rental_uris":{"android":"levelo://app?vid=c7a601e3-837f-43df-885f-82aca8c8aba7","ios":"levelo://app?vid=c7a601e3-837f-43df-885f-82aca8c8aba7"},"vehicle_type_id":"4","last_reported":1731100069,"current_range_meters":15200,"station_id":"","pricing_plan_id":"cebpf4jnsgd1na2vs0mg"},{"bike_id":"804d1eeb-66c6-4c53-84af-991639b68540","system_id":"levelo_inurba_marseille","lat":43.29527,"lon":5.38546,"is_reserved":false,"is_disabled":false,"rental_uris":{"android":"levelo://app?vid=804d1eeb-66c6-4c53-84af-991639b68540","ios":"levelo://app?vid=804d1eeb-66c6-4c53-84af-991639b68540"},"vehicle_type_id":"4","last_reported":1731100069,"current_range_meters":37600,"station_id":"ce4bgih2rcd13ifvqba0","pricing_plan_id":"cebpf4jnsgd1na2vs0mg"},{"bike_id":"8ee7b9d5-9f1d-49f2-870d-69c8b74d6a1f","system_id":"levelo_inurba_marseille","lat":43.24663,"lon":5.38164,"is_reserved":false,"is_disabled":false,"rental_uris":{"android":"levelo://app?vid=8ee7b9d5-9f1d-49f2-870d-69c8b74d6a1f","ios":"levelo://app?vid=8ee7b9d5-9f1d-49f2-870d-69c8b74d6a1f"},"vehicle_type_id":"4","last_reported":1731100069,"current_range_meters":24000,"station_id":"ce4bhih2rcd13ifvqfr0","pricing_plan_id":"cebpf4jnsgd1na2vs0mg"},{"bike_id":"dee76a84-a568-43ea-9d78-a3ea36150b1b","system_id":"levelo_inurba_marseille","lat":43.29525,"lon":5.38537,"is_reserved":false,"is_disabled":false,"rental_uris":{"android":"levelo://app?vid=dee76a84-a568-43ea-9d78-a3ea36150b1b","ios":"levelo://app?vid=dee76a84-a568-43ea-9d78-a3ea36150b1b"},"vehicle_type_id":"4","last_reported":1731100069,"current_range_meters":32400,"station_id":"ce4bgih2rcd13ifvqba0","pricing_plan_id":"cebpf4jnsgd1na2vs0mg"},{"bike_id":"51c9ec69-0aca-4a87-9653-500df8e21edb","system_id":"levelo_inurba_marseille","lat":43.32293,"lon":5.38275,"is_reserved":false,"is_disabled":false,"rental_uris":{"android":"levelo://app?vid=51c9ec69-0aca-4a87-9653-500df8e21edb","ios":"levelo://app?vid=51c9ec69-0aca-4a87-9653-500df8e21edb"},"vehicle_type_id":"4","last_reported":1731100069,"current_range_meters":39200,"station_id":"ce4bhr12rcd13ifvqhqg","pricing_plan_id":"cebpf4jnsgd1na2vs0mg"},{"bike_id":"f71f3d24-e3fa-489a-bd82-3a7b3caecc0b","system_id":"levelo_inurba_marseille","lat":43.3123,"lon":5.369,"is_reserved":false,"is_disabled":false,"rental_uris":{"android":"levelo://app?vid=f71f3d24-e3fa-489a-bd82-3a7b3caecc0b","ios":"levelo://app?vid=f71f3d24-e3fa-489a-bd82-3a7b3caecc0b"},"vehicle_type_id":"4","last_reported":1731100069,"current_range_meters":37600,"station_id":"ce4bgl92rcd13ifvqbq0","pricing_plan_id":"cebpf4jnsgd1na2vs0mg"},{"bike_id":"aa35c694-7acd-48ed-9090-f77bffe48398","system_id":"levelo_inurba_marseille","lat":43.26941,"lon":5.40246,"is_reserved":false,"is_disabled":false,"rental_uris":{"android":"levelo://app?vid=aa35c694-7acd-48ed-9090-f77bffe48398","ios":"levelo://app?vid=aa35c694-7acd-48ed-9090-f77bffe48398"},"vehicle_type_id":"4","last_reported":1731100069,"current_range_meters":38800,"station_id":"cjm6bp8fraef2m0cb0m0","pricing_plan_id":"cebpf4jnsgd1na2vs0mg"},{"bike_id":"ff7570c7-1717-4401-8bd2-0bba327aa8d4","system_id":"levelo_inurba_marseille","lat":43.27997,"lon":5.40016,"is_reserved":false,"is_disabled":false,"rental_uris":{"android":"levelo://app?vid=ff7570c7-1717-4401-8bd2-0bba327aa8d4","ios":"levelo://app?vid=ff7570c7-1717-4401-8bd2-0bba327aa8d4"},"vehicle_type_id":"4","last_reported":1731100069,"current_range_meters":36800,"station_id":"","pricing_plan_id":"cebpf4jnsgd1na2vs0mg"},{"bike_id":"21b20976-c242-4dcd-b3a7-f0921569a3dc","system_id":"levelo_inurba_marseille","lat":43.29045,"lon":5.35909,"is_reserved":false,"is_disabled":false,"rental_uris":{"android":"levelo://app?vid=21b20976-c242-4dcd-b3a7-f0921569a3dc","ios":"levelo://app?vid=21b20976-c242-4dcd-b3a7-f0921569a3dc"},"vehicle_type_id":"4","last_reported":1731100069,"current_range_meters":17200,"station_id":"ce4bha92rcd13ifvqeg0","pricing_plan_id":"cebpf4jnsgd1na2vs0mg"},{"bike_id":"174b8d7c-6848-4016-b24b-870b68ed4eb7","system_id":"levelo_inurba_marseille","lat":43.28567,"lon":5.39496,"is_reserved":false,"is_disabled":false,"rental_uris":{"android":"levelo://app?vid=174b8d7c-6848-4016-b24b-870b68ed4eb7","ios":"levelo://app?vid=174b8d7c-6848-4016-b24b-870b68ed4eb7"},"vehicle_type_id":"4","last_reported":1731100069,"current_range_meters":38000,"station_id":"ce4bh292rcd13ifvqdg0","pricing_plan_id":"cebpf4jnsgd1na2vs0mg"},{"bike_id":"16a8dee7-4bf6-4c5e-af34-c49906bd0ac3","system_id":"levelo_inurba_marseille","lat":43.25113,"lon":5.40308,"is_reserved":false,"is_disabled":false,"rental_uris":{"android":"levelo://app?vid=16a8dee7-4bf6-4c5e-af34-c49906bd0ac3","ios":"levelo://app?vid=16a8dee7-4bf6-4c5e-af34-c49906bd0ac3"},"vehicle_type_id":"4","last_reported":1731100069,"current_range_meters":2800,"station_id":"ce4bhlh2rcd13ifvqgig","pricing_plan_id":"cebpf4jnsgd1na2vs0mg"},{"bike_id":"e21f7810-51f2-470c-be96-cee661a17dba","system_id":"levelo_inurba_marseille","lat":43.29413,"lon":5.38621,"is_reserved":false,"is_disabled":false,"rental_uris":{"android":"levelo://app?vid=e21f7810-51f2-470c-be96-cee661a17dba","ios":"levelo://app?vid=e21f7810-51f2-470c-be96-cee661a17dba"},"vehicle_type_id":"4","last_reported":1731100069,"current_range_meters":6400,"station_id":"ce4bh2h2rcd13ifvqdh0","pricing_plan_id":"cebpf4jnsgd1na2vs0mg"},{"bike_id":"6b2aa77e-fcc3-4423-8069-024d8720ad99","system_id":"levelo_inurba_marseille","lat":43.29841,"lon":5.36267,"is_reserved":false,"is_disabled":false,"rental_uris":{"android":"levelo://app?vid=6b2aa77e-fcc3-4423-8069-024d8720ad99","ios":"levelo://app?vid=6b2aa77e-fcc3-4423-8069-024d8720ad99"},"vehicle_type_id":"4","last_reported":1731100069,"current_range_meters":36800,"station_id":"ce4bgpp2rcd13ifvqc3g","pricing_plan_id":"cebpf4jnsgd1na2vs0mg"},{"bike_id":"8b792342-90e2-45c5-8153-6444b1c3d7cd","system_id":"levelo_inurba_marseille","lat":43.29528,"lon":5.38547,"is_reserved":false,"is_disabled":false,"rental_uris":{"android":"levelo://app?vid=8b792342-90e2-45c5-8153-6444b1c3d7cd","ios":"levelo://app?vid=8b792342-90e2-45c5-8153-6444b1c3d7cd"},"vehicle_type_id":"4","last_reported":1731100069,"current_range_meters":38400,"station_id":"ce4bgih2rcd13ifvqba0","pricing_plan_id":"cebpf4jnsgd1na2vs0mg"},{"bike_id":"d6fdae69-642e-4d84-a8fd-edeb75ed0ef4","system_id":"levelo_inurba_marseille","lat":43.22932,"lon":5.35376,"is_reserved":false,"is_disabled":false,"rental_uris":{"android":"levelo://app?vid=d6fdae69-642e-4d84-a8fd-edeb75ed0ef4","ios":"levelo://app?vid=d6fdae69-642e-4d84-a8fd-edeb75ed0ef4"},"vehicle_type_id":"4","last_reported":1731100069,"current_range_meters":38800,"station_id":"cpo3532slgdg3j2ikp40","pricing_plan_id":"cebpf4jnsgd1na2vs0mg"},{"bike_id":"5cc66348-f056-4771-be0a-d998fca017be","system_id":"levelo_inurba_marseille","lat":43.25084,"lon":5.39523,"is_reserved":false,"is_disabled":false,"rental_uris":{"android":"levelo://app?vid=5cc66348-f056-4771-be0a-d998fca017be","ios":"levelo://app?vid=5cc66348-f056-4771-be0a-d998fca017be"},"vehicle_type_id":"4","last_reported":1731100069,"current_range_meters":20400,"station_id":"ce4bhm12rcd13ifvqgkg","pricing_plan_id":"cebpf4jnsgd1na2vs0mg"},{"bike_id":"0d4a3ef2-7e8f-464c-8dda-238b7ada00ae","system_id":"levelo_inurba_marseille","lat":43.27619,"lon":5.36108,"is_reserved":false,"is_disabled":false,"rental_uris":{"android":"levelo://app?vid=0d4a3ef2-7e8f-464c-8dda-238b7ada00ae","ios":"levelo://app?vid=0d4a3ef2-7e8f-464c-8dda-238b7ada00ae"},"vehicle_type_id":"4","last_reported":1731100069,"current_range_meters":36400,"station_id":"ce4bgj92rcd13ifvqbe0","pricing_plan_id":"cebpf4jnsgd1na2vs0mg"},{"bike_id":"184f2107-36e4-47c6-a7a6-518314f9306d","system_id":"levelo_inurba_marseille","lat":43.29794,"lon":5.40412,"is_reserved":false,"is_disabled":false,"rental_uris":{"android":"levelo://app?vid=184f2107-36e4-47c6-a7a6-518314f9306d","ios":"levelo://app?vid=184f2107-36e4-47c6-a7a6-518314f9306d"},"vehicle_type_id":"4","last_reported":1731100069,"current_range_meters":3200,"station_id":"ce4bh112rcd13ifvqd90","pricing_plan_id":"cebpf4jnsgd1na2vs0mg"},{"bike_id":"7aa9ea6d-fd53-4ef0-9fca-72c8c69457b8","system_id":"levelo_inurba_marseille","lat":43.26485,"lon":5.39557,"is_reserved":false,"is_disabled":false,"rental_uris":{"android":"levelo://app?vid=7aa9ea6d-fd53-4ef0-9fca-72c8c69457b8","ios":"levelo://app?vid=7aa9ea6d-fd53-4ef0-9fca-72c8c69457b8"},"vehicle_type_id":"4","last_reported":1731100069,"current_range_meters":38800,"station_id":"ce4bhi12rcd13ifvqfq0","pricing_plan_id":"cebpf4jnsgd1na2vs0mg"},{"bike_id":"86d64521-d332-4842-b4fb-5fa4820d8c81","system_id":"levelo_inurba_marseille","lat":43.337444,"lon":5.374475,"is_reserved":false,"is_disabled":false,"rental_uris":{"android":"levelo://app?vid=86d64521-d332-4842-b4fb-5fa4820d8c81","ios":"levelo://app?vid=86d64521-d332-4842-b4fb-5fa4820d8c81"},"vehicle_type_id":"4","last_reported":1731100069,"current_range_meters":36000,"station_id":"","pricing_plan_id":"cebpf4jnsgd1na2vs0mg"},{"bike_id":"9bbff7b8-428e-47df-8d3d-f789dfd2f297","system_id":"levelo_inurba_marseille","lat":43.30543,"lon":5.36702,"is_reserved":false,"is_disabled":false,"rental_uris":{"android":"levelo://app?vid=9bbff7b8-428e-47df-8d3d-f789dfd2f297","ios":"levelo://app?vid=9bbff7b8-428e-47df-8d3d-f789dfd2f297"},"vehicle_type_id":"4","last_reported":1731100069,"current_range_meters":39200,"station_id":"ce4bgrp2rcd13ifvqc9g","pricing_plan_id":"cebpf4jnsgd1na2vs0mg"},{"bike_id":"e60eb568-be45-4840-9fb5-e8c23b1c67b0","system_id":"levelo_inurba_marseille","lat":43.26937,"lon":5.40247,"is_reserved":false,"is_disabled":false,"rental_uris":{"android":"levelo://app?vid=e60eb568-be45-4840-9fb5-e8c23b1c67b0","ios":"levelo://app?vid=e60eb568-be45-4840-9fb5-e8c23b1c67b0"},"vehicle_type_id":"4","last_reported":1731100069,"current_range_meters":19600,"station_id":"cjm6bp8fraef2m0cb0m0","pricing_plan_id":"cebpf4jnsgd1na2vs0mg"},{"bike_id":"561dcda3-b315-468a-84a8-7bb4d296bc0c","system_id":"levelo_inurba_marseille","lat":43.29583,"lon":5.36745,"is_reserved":false,"is_disabled":false,"rental_uris":{"android":"levelo://app?vid=561dcda3-b315-468a-84a8-7bb4d296bc0c","ios":"levelo://app?vid=561dcda3-b315-468a-84a8-7bb4d296bc0c"},"vehicle_type_id":"4","last_reported":1731100069,"current_range_meters":14400,"station_id":"ce4bgph2rcd13ifvqc2g","pricing_plan_id":"cebpf4jnsgd1na2vs0mg"},{"bike_id":"448d3bf9-78cb-439a-a23b-0e48f1b89013","system_id":"levelo_inurba_marseille","lat":43.32363,"lon":5.38887,"is_reserved":false,"is_disabled":false,"rental_uris":{"android":"levelo://app?vid=448d3bf9-78cb-439a-a23b-0e48f1b89013","ios":"levelo://app?vid=448d3bf9-78cb-439a-a23b-0e48f1b89013"},"vehicle_type_id":"4","last_reported":1731100069,"current_range_meters":15200,"station_id":"ce4bhqp2rcd13ifvqhog","pricing_plan_id":"cebpf4jnsgd1na2vs0mg"},{"bike_id":"08c87c74-8ce5-4912-ab68-fb06a199a47b","system_id":"levelo_inurba_marseille","lat":43.23184,"lon":5.39977,"is_reserved":false,"is_disabled":false,"rental_uris":{"android":"levelo://app?vid=08c87c74-8ce5-4912-ab68-fb06a199a47b","ios":"levelo://app?vid=08c87c74-8ce5-4912-ab68-fb06a199a47b"},"vehicle_type_id":"4","last_reported":1731100069,"current_range_meters":10800,"station_id":"ce4bhn12rcd13ifvqgqg","pricing_plan_id":"cebpf4jnsgd1na2vs0mg"},{"bike_id":"2f4d52ef-6541-4e82-a17b-dac1d37484f1","system_id":"levelo_inurba_marseille","lat":43.26784,"lon":5.39411,"is_reserved":false,"is_disabled":false,"rental_uris":{"android":"levelo://app?vid=2f4d52ef-6541-4e82-a17b-dac1d37484f1","ios":"levelo://app?vid=2f4d52ef-6541-4e82-a17b-dac1d37484f1"},"vehicle_type_id":"4","last_reported":1731100069,"current_range_meters":38000,"station_id":"ce4bhh12rcd13ifvqfg0","pricing_plan_id":"cebpf4jnsgd1na2vs0mg"},{"bike_id":"4170029e-5428-40cf-a5bb-2421162fec17","system_id":"levelo_inurba_marseille","lat":43.29898,"lon":5.43667,"is_reserved":false,"is_disabled":false,"rental_uris":{"android":"levelo://app?vid=4170029e-5428-40cf-a5bb-2421162fec17","ios":"levelo://app?vid=4170029e-5428-40cf-a5bb-2421162fec17"},"vehicle_type_id":"4","last_reported":1731100069,"current_range_meters":19600,"station_id":"ce4bhpp2rcd13ifvqhfg","pricing_plan_id":"cebpf4jnsgd1na2vs0mg"},{"bike_id":"8223f247-c531-4644-9539-f8becba52cfc","system_id":"levelo_inurba_marseille","lat":43.27204,"lon":5.3918,"is_reserved":false,"is_disabled":false,"rental_uris":{"android":"levelo://app?vid=8223f247-c531-4644-9539-f8becba52cfc","ios":"levelo://app?vid=8223f247-c531-4644-9539-f8becba52cfc"},"vehicle_type_id":"4","last_reported":1731100069,"current_range_meters":38800,"station_id":"ce4bhhp2rcd13ifvqfm0","pricing_plan_id":"cebpf4jnsgd1na2vs0mg"},{"bike_id":"bb685ad8-1a90-4b71-b061-f9ef80ef6433","system_id":"levelo_inurba_marseille","lat":43.29527,"lon":5.38534,"is_reserved":false,"is_disabled":false,"rental_uris":{"android":"levelo://app?vid=bb685ad8-1a90-4b71-b061-f9ef80ef6433","ios":"levelo://app?vid=bb685ad8-1a90-4b71-b061-f9ef80ef6433"},"vehicle_type_id":"4","last_reported":1731100069,"current_range_meters":8000,"station_id":"ce4bgih2rcd13ifvqba0","pricing_plan_id":"cebpf4jnsgd1na2vs0mg"},{"bike_id":"16707eb3-de5e-467f-af73-905987900ac6","system_id":"levelo_inurba_marseille","lat":43.24808,"lon":5.37456,"is_reserved":false,"is_disabled":false,"rental_uris":{"android":"levelo://app?vid=16707eb3-de5e-467f-af73-905987900ac6","ios":"levelo://app?vid=16707eb3-de5e-467f-af73-905987900ac6"},"vehicle_type_id":"4","last_reported":1731100069,"current_range_meters":28800,"station_id":"ce4bhgh2rcd13ifvqfb0","pricing_plan_id":"cebpf4jnsgd1na2vs0mg"},{"bike_id":"9811d2da-a3af-4a13-974e-d46269704564","system_id":"levelo_inurba_marseille","lat":43.29186,"lon":5.35794,"is_reserved":false,"is_disabled":false,"rental_uris":{"android":"levelo://app?vid=9811d2da-a3af-4a13-974e-d46269704564","ios":"levelo://app?vid=9811d2da-a3af-4a13-974e-d46269704564"},"vehicle_type_id":"4","last_reported":1731100069,"current_range_meters":38800,"station_id":"ce4bhb12rcd13ifvqel0","pricing_plan_id":"cebpf4jnsgd1na2vs0mg"},{"bike_id":"77f8fb8e-be1a-4fbe-ac49-6a6d9bdb23b2","system_id":"levelo_inurba_marseille","lat":43.30189,"lon":5.36601,"is_reserved":false,"is_disabled":false,"rental_uris":{"android":"levelo://app?vid=77f8fb8e-be1a-4fbe-ac49-6a6d9bdb23b2","ios":"levelo://app?vid=77f8fb8e-be1a-4fbe-ac49-6a6d9bdb23b2"},"vehicle_type_id":"4","last_reported":1731100069,"current_range_meters":23200,"station_id":"ce4bgrh2rcd13ifvqc8g","pricing_plan_id":"cebpf4jnsgd1na2vs0mg"},{"bike_id":"d22a4110-4c70-43c5-8608-50218d76a669","system_id":"levelo_inurba_marseille","lat":43.29839,"lon":5.36267,"is_reserved":false,"is_disabled":false,"rental_uris":{"android":"levelo://app?vid=d22a4110-4c70-43c5-8608-50218d76a669","ios":"levelo://app?vid=d22a4110-4c70-43c5-8608-50218d76a669"},"vehicle_type_id":"4","last_reported":1731100069,"current_range_meters":26800,"station_id":"ce4bgpp2rcd13ifvqc3g","pricing_plan_id":"cebpf4jnsgd1na2vs0mg"},{"bike_id":"d0426f5c-c552-4520-9d45-ccf437352948","system_id":"levelo_inurba_marseille","lat":43.29972,"lon":5.38495,"is_reserved":false,"is_disabled":false,"rental_uris":{"android":"levelo://app?vid=d0426f5c-c552-4520-9d45-ccf437352948","ios":"levelo://app?vid=d0426f5c-c552-4520-9d45-ccf437352948"},"vehicle_type_id":"4","last_reported":1731100069,"current_range_meters":38800,"station_id":"ce4bgj92rcd13ifvqbd0","pricing_plan_id":"cebpf4jnsgd1na2vs0mg"},{"bike_id":"a8bb5a98-1d27-4048-8772-79de755cdc82","system_id":"levelo_inurba_marseille","lat":43.28082,"lon":5.39663,"is_reserved":false,"is_disabled":false,"rental_uris":{"android":"levelo://app?vid=a8bb5a98-1d27-4048-8772-79de755cdc82","ios":"levelo://app?vid=a8bb5a98-1d27-4048-8772-79de755cdc82"},"vehicle_type_id":"4","last_reported":1731100069,"current_range_meters":15200,"station_id":"ce4bho12rcd13ifvqh2g","pricing_plan_id":"cebpf4jnsgd1na2vs0mg"},{"bike_id":"e5b66137-47e9-4737-b5da-3c1c07eae51e","system_id":"levelo_inurba_marseille","lat":43.28082,"lon":5.39652,"is_reserved":false,"is_disabled":false,"rental_uris":{"android":"levelo://app?vid=e5b66137-47e9-4737-b5da-3c1c07eae51e","ios":"levelo://app?vid=e5b66137-47e9-4737-b5da-3c1c07eae51e"},"vehicle_type_id":"4","last_reported":1731100069,"current_range_meters":6000,"station_id":"ce4bho12rcd13ifvqh2g","pricing_plan_id":"cebpf4jnsgd1na2vs0mg"},{"bike_id":"9bb8c5d7-cad2-430b-8ef0-c08b020acb0c","system_id":"levelo_inurba_marseille","lat":43.26793,"lon":5.39411,"is_reserved":false,"is_disabled":false,"rental_uris":{"android":"levelo://app?vid=9bb8c5d7-cad2-430b-8ef0-c08b020acb0c","ios":"levelo://app?vid=9bb8c5d7-cad2-430b-8ef0-c08b020acb0c"},"vehicle_type_id":"4","last_reported":1731100069,"current_range_meters":32400,"station_id":"ce4bhh12rcd13ifvqfg0","pricing_plan_id":"cebpf4jnsgd1na2vs0mg"},{"bike_id":"a0d9d5ae-de17-4341-bed9-edfa4e4e8139","system_id":"levelo_inurba_marseille","lat":43.30438,"lon":5.36623,"is_reserved":false,"is_disabled":false,"rental_uris":{"android":"levelo://app?vid=a0d9d5ae-de17-4341-bed9-edfa4e4e8139","ios":"levelo://app?vid=a0d9d5ae-de17-4341-bed9-edfa4e4e8139"},"vehicle_type_id":"4","last_reported":1731100069,"current_range_meters":6400,"station_id":"","pricing_plan_id":"cebpf4jnsgd1na2vs0mg"},{"bike_id":"240fac95-469b-4ec1-a905-bc2e3ab6eab7","system_id":"levelo_inurba_marseille","lat":43.24804,"lon":5.37457,"is_reserved":false,"is_disabled":false,"rental_uris":{"android":"levelo://app?vid=240fac95-469b-4ec1-a905-bc2e3ab6eab7","ios":"levelo://app?vid=240fac95-469b-4ec1-a905-bc2e3ab6eab7"},"vehicle_type_id":"4","last_reported":1731100069,"current_range_meters":38800,"station_id":"ce4bhgh2rcd13ifvqfb0","pricing_plan_id":"cebpf4jnsgd1na2vs0mg"},{"bike_id":"a69400a5-a810-4ee2-929b-27ab1cc2faf2","system_id":"levelo_inurba_marseille","lat":43.29024,"lon":5.38636,"is_reserved":false,"is_disabled":false,"rental_uris":{"android":"levelo://app?vid=a69400a5-a810-4ee2-929b-27ab1cc2faf2","ios":"levelo://app?vid=a69400a5-a810-4ee2-929b-27ab1cc2faf2"},"vehicle_type_id":"4","last_reported":1731100069,"current_range_meters":32400,"station_id":"ce4bh4p2rcd13ifvqe0g","pricing_plan_id":"cebpf4jnsgd1na2vs0mg"},{"bike_id":"99e03d11-763b-4e9c-ba9a-0c9a2185b360","system_id":"levelo_inurba_marseille","lat":43.32484,"lon":5.36558,"is_reserved":false,"is_disabled":false,"rental_uris":{"android":"levelo://app?vid=99e03d11-763b-4e9c-ba9a-0c9a2185b360","ios":"levelo://app?vid=99e03d11-763b-4e9c-ba9a-0c9a2185b360"},"vehicle_type_id":"4","last_reported":1731100069,"current_range_meters":35200,"station_id":"ce4bhs12rcd13ifvqhvg","pricing_plan_id":"cebpf4jnsgd1na2vs0mg"},{"bike_id":"77579d8b-19be-49f1-81b8-797c693d2109","system_id":"levelo_inurba_marseille","lat":43.28005,"lon":5.40004,"is_reserved":false,"is_disabled":false,"rental_uris":{"android":"levelo://app?vid=77579d8b-19be-49f1-81b8-797c693d2109","ios":"levelo://app?vid=77579d8b-19be-49f1-81b8-797c693d2109"},"vehicle_type_id":"4","last_reported":1731100069,"current_range_meters":6800,"station_id":"ce4bho92rcd13ifvqh4g","pricing_plan_id":"cebpf4jnsgd1na2vs0mg"},{"bike_id":"af4daf64-18f9-41ec-b8bd-1df711ac30af","system_id":"levelo_inurba_marseille","lat":43.31215,"lon":5.3685,"is_reserved":false,"is_disabled":false,"rental_uris":{"android":"levelo://app?vid=af4daf64-18f9-41ec-b8bd-1df711ac30af","ios":"levelo://app?vid=af4daf64-18f9-41ec-b8bd-1df711ac30af"},"vehicle_type_id":"4","last_reported":1731100069,"current_range_meters":28800,"station_id":"ce4bgl92rcd13ifvqbq0","pricing_plan_id":"cebpf4jnsgd1na2vs0mg"},{"bike_id":"0396d81f-1315-431b-9708-9e4ab19f7741","system_id":"levelo_inurba_marseille","lat":43.27998,"lon":5.40008,"is_reserved":false,"is_disabled":false,"rental_uris":{"android":"levelo://app?vid=0396d81f-1315-431b-9708-9e4ab19f7741","ios":"levelo://app?vid=0396d81f-1315-431b-9708-9e4ab19f7741"},"vehicle_type_id":"4","last_reported":1731100069,"current_range_meters":39200,"station_id":"ce4bho92rcd13ifvqh4g","pricing_plan_id":"cebpf4jnsgd1na2vs0mg"},{"bike_id":"774649b8-3eb5-4e5a-bdc0-8cf43dfb86a6","system_id":"levelo_inurba_marseille","lat":43.24646,"lon":5.388869,"is_reserved":false,"is_disabled":false,"rental_uris":{"android":"levelo://app?vid=774649b8-3eb5-4e5a-bdc0-8cf43dfb86a6","ios":"levelo://app?vid=774649b8-3eb5-4e5a-bdc0-8cf43dfb86a6"},"vehicle_type_id":"4","last_reported":1731100069,"current_range_meters":35200,"station_id":"ce4bhg12rcd13ifvqf60","pricing_plan_id":"cebpf4jnsgd1na2vs0mg"},{"bike_id":"c0b7610c-63b9-41b2-a446-26e06a755ed8","system_id":"levelo_inurba_marseille","lat":43.29276,"lon":5.36848,"is_reserved":false,"is_disabled":false,"rental_uris":{"android":"levelo://app?vid=c0b7610c-63b9-41b2-a446-26e06a755ed8","ios":"levelo://app?vid=c0b7610c-63b9-41b2-a446-26e06a755ed8"},"vehicle_type_id":"4","last_reported":1731100069,"current_range_meters":30000,"station_id":"ce4bhbp2rcd13ifvqesg","pricing_plan_id":"cebpf4jnsgd1na2vs0mg"},{"bike_id":"f2b48753-19da-4417-9c33-55d3019c581a","system_id":"levelo_inurba_marseille","lat":43.28001,"lon":5.40015,"is_reserved":false,"is_disabled":false,"rental_uris":{"android":"levelo://app?vid=f2b48753-19da-4417-9c33-55d3019c581a","ios":"levelo://app?vid=f2b48753-19da-4417-9c33-55d3019c581a"},"vehicle_type_id":"4","last_reported":1731100069,"current_range_meters":12800,"station_id":"ce4bho92rcd13ifvqh4g","pricing_plan_id":"cebpf4jnsgd1na2vs0mg"},{"bike_id":"b375be74-6c57-4501-9ce7-4352ef01626b","system_id":"levelo_inurba_marseille","lat":43.27994,"lon":5.39996,"is_reserved":false,"is_disabled":false,"rental_uris":{"android":"levelo://app?vid=b375be74-6c57-4501-9ce7-4352ef01626b","ios":"levelo://app?vid=b375be74-6c57-4501-9ce7-4352ef01626b"},"vehicle_type_id":"4","last_reported":1731100069,"current_range_meters":4400,"station_id":"ce4bho92rcd13ifvqh4g","pricing_plan_id":"cebpf4jnsgd1na2vs0mg"},{"bike_id":"ae26c1a5-a0f0-470a-94a5-93de2da4cc6b","system_id":"levelo_inurba_marseille","lat":43.31713,"lon":5.40429,"is_reserved":false,"is_disabled":false,"rental_uris":{"android":"levelo://app?vid=ae26c1a5-a0f0-470a-94a5-93de2da4cc6b","ios":"levelo://app?vid=ae26c1a5-a0f0-470a-94a5-93de2da4cc6b"},"vehicle_type_id":"4","last_reported":1731100069,"current_range_meters":14800,"station_id":"ce4bh012rcd13ifvqd00","pricing_plan_id":"cebpf4jnsgd1na2vs0mg"},{"bike_id":"0efb37ae-077f-4af8-926a-196d33e7cca8","system_id":"levelo_inurba_marseille","lat":43.28566,"lon":5.39493,"is_reserved":false,"is_disabled":false,"rental_uris":{"android":"levelo://app?vid=0efb37ae-077f-4af8-926a-196d33e7cca8","ios":"levelo://app?vid=0efb37ae-077f-4af8-926a-196d33e7cca8"},"vehicle_type_id":"4","last_reported":1731100069,"current_range_meters":38000,"station_id":"ce4bh292rcd13ifvqdg0","pricing_plan_id":"cebpf4jnsgd1na2vs0mg"},{"bike_id":"4adc051b-cab2-444f-a4c6-933d4708baf0","system_id":"levelo_inurba_marseille","lat":43.31714,"lon":5.42398,"is_reserved":false,"is_disabled":false,"rental_uris":{"android":"levelo://app?vid=4adc051b-cab2-444f-a4c6-933d4708baf0","ios":"levelo://app?vid=4adc051b-cab2-444f-a4c6-933d4708baf0"},"vehicle_type_id":"4","last_reported":1731100069,"current_range_meters":11600,"station_id":"ce4bhp92rcd13ifvqhbg","pricing_plan_id":"cebpf4jnsgd1na2vs0mg"},{"bike_id":"7ba6f249-78f5-4410-8a34-142a5b45f872","system_id":"levelo_inurba_marseille","lat":43.30534,"lon":5.3655,"is_reserved":false,"is_disabled":false,"rental_uris":{"android":"levelo://app?vid=7ba6f249-78f5-4410-8a34-142a5b45f872","ios":"levelo://app?vid=7ba6f249-78f5-4410-8a34-142a5b45f872"},"vehicle_type_id":"4","last_reported":1731100069,"current_range_meters":39200,"station_id":"ce4bgs12rcd13ifvqcag","pricing_plan_id":"cebpf4jnsgd1na2vs0mg"},{"bike_id":"51077039-f16f-40c8-b3a3-43f1d712330f","system_id":"levelo_inurba_marseille","lat":43.26791,"lon":5.39412,"is_reserved":false,"is_disabled":false,"rental_uris":{"android":"levelo://app?vid=51077039-f16f-40c8-b3a3-43f1d712330f","ios":"levelo://app?vid=51077039-f16f-40c8-b3a3-43f1d712330f"},"vehicle_type_id":"4","last_reported":1731100069,"current_range_meters":16800,"station_id":"ce4bhh12rcd13ifvqfg0","pricing_plan_id":"cebpf4jnsgd1na2vs0mg"},{"bike_id":"3255d714-f850-46bb-a908-5e84096398d8","system_id":"levelo_inurba_marseille","lat":43.27987,"lon":5.40004,"is_reserved":false,"is_disabled":false,"rental_uris":{"android":"levelo://app?vid=3255d714-f850-46bb-a908-5e84096398d8","ios":"levelo://app?vid=3255d714-f850-46bb-a908-5e84096398d8"},"vehicle_type_id":"4","last_reported":1731100069,"current_range_meters":16800,"station_id":"ce4bho92rcd13ifvqh4g","pricing_plan_id":"cebpf4jnsgd1na2vs0mg"},{"bike_id":"2fb19143-7a0c-42d0-947d-4cb86b880c17","system_id":"levelo_inurba_marseille","lat":43.29413,"lon":5.38636,"is_reserved":false,"is_disabled":false,"rental_uris":{"android":"levelo://app?vid=2fb19143-7a0c-42d0-947d-4cb86b880c17","ios":"levelo://app?vid=2fb19143-7a0c-42d0-947d-4cb86b880c17"},"vehicle_type_id":"4","last_reported":1731100069,"current_range_meters":36800,"station_id":"ce4bh2h2rcd13ifvqdh0","pricing_plan_id":"cebpf4jnsgd1na2vs0mg"},{"bike_id":"88f52a5f-4acb-44b2-87b8-d0fd0b2cb235","system_id":"levelo_inurba_marseille","lat":43.26806,"lon":5.40265,"is_reserved":false,"is_disabled":false,"rental_uris":{"android":"levelo://app?vid=88f52a5f-4acb-44b2-87b8-d0fd0b2cb235","ios":"levelo://app?vid=88f52a5f-4acb-44b2-87b8-d0fd0b2cb235"},"vehicle_type_id":"4","last_reported":1731100069,"current_range_meters":28000,"station_id":"ce501612rcd8frsf0b60","pricing_plan_id":"cebpf4jnsgd1na2vs0mg"},{"bike_id":"a8c819b5-d3b0-4188-bc0d-8b70cfff8135","system_id":"levelo_inurba_marseille","lat":43.26945,"lon":5.40246,"is_reserved":false,"is_disabled":false,"rental_uris":{"android":"levelo://app?vid=a8c819b5-d3b0-4188-bc0d-8b70cfff8135","ios":"levelo://app?vid=a8c819b5-d3b0-4188-bc0d-8b70cfff8135"},"vehicle_type_id":"4","last_reported":1731100069,"current_range_meters":38800,"station_id":"cjm6bp8fraef2m0cb0m0","pricing_plan_id":"cebpf4jnsgd1na2vs0mg"},{"bike_id":"422a7d56-d1d8-414b-9ffd-f4745e19e469","system_id":"levelo_inurba_marseille","lat":43.31235,"lon":5.36839,"is_reserved":false,"is_disabled":false,"rental_uris":{"android":"levelo://app?vid=422a7d56-d1d8-414b-9ffd-f4745e19e469","ios":"levelo://app?vid=422a7d56-d1d8-414b-9ffd-f4745e19e469"},"vehicle_type_id":"4","last_reported":1731100069,"current_range_meters":38400,"station_id":"ce4bgl92rcd13ifvqbq0","pricing_plan_id":"cebpf4jnsgd1na2vs0mg"},{"bike_id":"adac7352-002b-4a5a-8e03-dbcf7c907176","system_id":"levelo_inurba_marseille","lat":43.27988,"lon":5.40001,"is_reserved":false,"is_disabled":false,"rental_uris":{"android":"levelo://app?vid=adac7352-002b-4a5a-8e03-dbcf7c907176","ios":"levelo://app?vid=adac7352-002b-4a5a-8e03-dbcf7c907176"},"vehicle_type_id":"4","last_reported":1731100069,"current_range_meters":27600,"station_id":"ce4bho92rcd13ifvqh4g","pricing_plan_id":"cebpf4jnsgd1na2vs0mg"},{"bike_id":"98def573-8c80-4eb9-a72f-fe633260479b","system_id":"levelo_inurba_marseille","lat":43.29528,"lon":5.38547,"is_reserved":false,"is_disabled":false,"rental_uris":{"android":"levelo://app?vid=98def573-8c80-4eb9-a72f-fe633260479b","ios":"levelo://app?vid=98def573-8c80-4eb9-a72f-fe633260479b"},"vehicle_type_id":"4","last_reported":1731100069,"current_range_meters":39200,"station_id":"ce4bgih2rcd13ifvqba0","pricing_plan_id":"cebpf4jnsgd1na2vs0mg"},{"bike_id":"0b74ce83-e6b1-4485-8ca6-3897f29a426e","system_id":"levelo_inurba_marseille","lat":43.2396,"lon":5.36626,"is_reserved":false,"is_disabled":false,"rental_uris":{"android":"levelo://app?vid=0b74ce83-e6b1-4485-8ca6-3897f29a426e","ios":"levelo://app?vid=0b74ce83-e6b1-4485-8ca6-3897f29a426e"},"vehicle_type_id":"4","last_reported":1731100069,"current_range_meters":20800,"station_id":"ce4bhi12rcd13ifvqfp0","pricing_plan_id":"cebpf4jnsgd1na2vs0mg"},{"bike_id":"56c65ff9-b612-4c1b-8adf-cef8a76bf83a","system_id":"levelo_inurba_marseille","lat":43.29295,"lon":5.37442,"is_reserved":false,"is_disabled":false,"rental_uris":{"android":"levelo://app?vid=56c65ff9-b612-4c1b-8adf-cef8a76bf83a","ios":"levelo://app?vid=56c65ff9-b612-4c1b-8adf-cef8a76bf83a"},"vehicle_type_id":"4","last_reported":1731100069,"current_range_meters":39200,"station_id":"ce4bgi12rcd13ifvqb70","pricing_plan_id":"cebpf4jnsgd1na2vs0mg"},{"bike_id":"2bbcb9cc-f8b8-4b14-879a-f3df66920005","system_id":"levelo_inurba_marseille","lat":43.31222,"lon":5.36854,"is_reserved":false,"is_disabled":false,"rental_uris":{"android":"levelo://app?vid=2bbcb9cc-f8b8-4b14-879a-f3df66920005","ios":"levelo://app?vid=2bbcb9cc-f8b8-4b14-879a-f3df66920005"},"vehicle_type_id":"4","last_reported":1731100069,"current_range_meters":18800,"station_id":"ce4bgl92rcd13ifvqbq0","pricing_plan_id":"cebpf4jnsgd1na2vs0mg"},{"bike_id":"6c2fcc29-8b6f-4d58-bd20-0682624338b1","system_id":"levelo_inurba_marseille","lat":43.29438,"lon":5.39747,"is_reserved":false,"is_disabled":false,"rental_uris":{"android":"levelo://app?vid=6c2fcc29-8b6f-4d58-bd20-0682624338b1","ios":"levelo://app?vid=6c2fcc29-8b6f-4d58-bd20-0682624338b1"},"vehicle_type_id":"4","last_reported":1731100069,"current_range_meters":17600,"station_id":"ce4bh3h2rcd13ifvqdo0","pricing_plan_id":"cebpf4jnsgd1na2vs0mg"},{"bike_id":"bb1484af-50bc-4d33-b023-524a6830fe46","system_id":"levelo_inurba_marseille","lat":43.2953,"lon":5.38542,"is_reserved":false,"is_disabled":false,"rental_uris":{"android":"levelo://app?vid=bb1484af-50bc-4d33-b023-524a6830fe46","ios":"levelo://app?vid=bb1484af-50bc-4d33-b023-524a6830fe46"},"vehicle_type_id":"4","last_reported":1731100069,"current_range_meters":28000,"station_id":"ce4bgih2rcd13ifvqba0","pricing_plan_id":"cebpf4jnsgd1na2vs0mg"},{"bike_id":"f94bdcbe-9a46-4c5f-879c-d5fc8c43084c","system_id":"levelo_inurba_marseille","lat":43.33026,"lon":5.39039,"is_reserved":false,"is_disabled":false,"rental_uris":{"android":"levelo://app?vid=f94bdcbe-9a46-4c5f-879c-d5fc8c43084c","ios":"levelo://app?vid=f94bdcbe-9a46-4c5f-879c-d5fc8c43084c"},"vehicle_type_id":"4","last_reported":1731100069,"current_range_meters":38800,"station_id":"ce4bhr92rcd13ifvqhrg","pricing_plan_id":"cebpf4jnsgd1na2vs0mg"},{"bike_id":"f9d7e7b9-a5e5-445a-843b-c0e382f294aa","system_id":"levelo_inurba_marseille","lat":43.2926,"lon":5.38436,"is_reserved":false,"is_disabled":false,"rental_uris":{"android":"levelo://app?vid=f9d7e7b9-a5e5-445a-843b-c0e382f294aa","ios":"levelo://app?vid=f9d7e7b9-a5e5-445a-843b-c0e382f294aa"},"vehicle_type_id":"4","last_reported":1731100069,"current_range_meters":38800,"station_id":"ce4bh692rcd13ifvqea0","pricing_plan_id":"cebpf4jnsgd1na2vs0mg"},{"bike_id":"b958ce2e-0dd0-403d-acf6-4d94c4232a37","system_id":"levelo_inurba_marseille","lat":43.26805,"lon":5.40265,"is_reserved":false,"is_disabled":false,"rental_uris":{"android":"levelo://app?vid=b958ce2e-0dd0-403d-acf6-4d94c4232a37","ios":"levelo://app?vid=b958ce2e-0dd0-403d-acf6-4d94c4232a37"},"vehicle_type_id":"4","last_reported":1731100069,"current_range_meters":32000,"station_id":"ce501612rcd8frsf0b60","pricing_plan_id":"cebpf4jnsgd1na2vs0mg"},{"bike_id":"0c639484-b272-4ca1-a616-025f61ae686b","system_id":"levelo_inurba_marseille","lat":43.29257,"lon":5.38435,"is_reserved":false,"is_disabled":false,"rental_uris":{"android":"levelo://app?vid=0c639484-b272-4ca1-a616-025f61ae686b","ios":"levelo://app?vid=0c639484-b272-4ca1-a616-025f61ae686b"},"vehicle_type_id":"4","last_reported":1731100069,"current_range_meters":14000,"station_id":"ce4bh312rcd13ifvqdj0","pricing_plan_id":"cebpf4jnsgd1na2vs0mg"},{"bike_id":"ae9d8fef-154d-4809-99b6-c308924e7ae8","system_id":"levelo_inurba_marseille","lat":43.29422,"lon":5.38623,"is_reserved":false,"is_disabled":false,"rental_uris":{"android":"levelo://app?vid=ae9d8fef-154d-4809-99b6-c308924e7ae8","ios":"levelo://app?vid=ae9d8fef-154d-4809-99b6-c308924e7ae8"},"vehicle_type_id":"4","last_reported":1731100069,"current_range_meters":38800,"station_id":"ce4bh2h2rcd13ifvqdh0","pricing_plan_id":"cebpf4jnsgd1na2vs0mg"},{"bike_id":"ccaa7c8c-c9c2-4aa9-9620-c5f0cb69e0bb","system_id":"levelo_inurba_marseille","lat":43.31071,"lon":5.40116,"is_reserved":false,"is_disabled":false,"rental_uris":{"android":"levelo://app?vid=ccaa7c8c-c9c2-4aa9-9620-c5f0cb69e0bb","ios":"levelo://app?vid=ccaa7c8c-c9c2-4aa9-9620-c5f0cb69e0bb"},"vehicle_type_id":"4","last_reported":1731100069,"current_range_meters":18800,"station_id":"","pricing_plan_id":"cebpf4jnsgd1na2vs0mg"},{"bike_id":"ed6f3c26-e622-43c2-89b5-6c0c44b74126","system_id":"levelo_inurba_marseille","lat":43.29515,"lon":5.39036,"is_reserved":false,"is_disabled":false,"rental_uris":{"android":"levelo://app?vid=ed6f3c26-e622-43c2-89b5-6c0c44b74126","ios":"levelo://app?vid=ed6f3c26-e622-43c2-89b5-6c0c44b74126"},"vehicle_type_id":"4","last_reported":1731100069,"current_range_meters":36000,"station_id":"ce4bh3p2rcd13ifvqdp0","pricing_plan_id":"cebpf4jnsgd1na2vs0mg"},{"bike_id":"2a6caaf6-34f1-4e12-8c9d-153fd774cf91","system_id":"levelo_inurba_marseille","lat":43.24806,"lon":5.37453,"is_reserved":false,"is_disabled":false,"rental_uris":{"android":"levelo://app?vid=2a6caaf6-34f1-4e12-8c9d-153fd774cf91","ios":"levelo://app?vid=2a6caaf6-34f1-4e12-8c9d-153fd774cf91"},"vehicle_type_id":"4","last_reported":1731100069,"current_range_meters":29600,"station_id":"ce4bhgh2rcd13ifvqfb0","pricing_plan_id":"cebpf4jnsgd1na2vs0mg"},{"bike_id":"d8a48484-faab-44ba-996f-655ad518571f","system_id":"levelo_inurba_marseille","lat":43.28615,"lon":5.35107,"is_reserved":false,"is_disabled":false,"rental_uris":{"android":"levelo://app?vid=d8a48484-faab-44ba-996f-655ad518571f","ios":"levelo://app?vid=d8a48484-faab-44ba-996f-655ad518571f"},"vehicle_type_id":"4","last_reported":1731100069,"current_range_meters":28800,"station_id":"ce4bhch2rcd13ifvqeug","pricing_plan_id":"cebpf4jnsgd1na2vs0mg"},{"bike_id":"5ce8e61c-3342-4241-b80c-2e4895aa2f21","system_id":"levelo_inurba_marseille","lat":43.29528,"lon":5.38533,"is_reserved":false,"is_disabled":false,"rental_uris":{"android":"levelo://app?vid=5ce8e61c-3342-4241-b80c-2e4895aa2f21","ios":"levelo://app?vid=5ce8e61c-3342-4241-b80c-2e4895aa2f21"},"vehicle_type_id":"4","last_reported":1731100069,"current_range_meters":10000,"station_id":"ce4bgih2rcd13ifvqba0","pricing_plan_id":"cebpf4jnsgd1na2vs0mg"},{"bike_id":"6dff1885-15b3-4a8b-86f4-def77a197e46","system_id":"levelo_inurba_marseille","lat":43.29849,"lon":5.36286,"is_reserved":false,"is_disabled":false,"rental_uris":{"android":"levelo://app?vid=6dff1885-15b3-4a8b-86f4-def77a197e46","ios":"levelo://app?vid=6dff1885-15b3-4a8b-86f4-def77a197e46"},"vehicle_type_id":"4","last_reported":1731100069,"current_range_meters":38800,"station_id":"ce4bgpp2rcd13ifvqc3g","pricing_plan_id":"cebpf4jnsgd1na2vs0mg"},{"bike_id":"81d1e180-d523-4ef7-ae98-f9077f858825","system_id":"levelo_inurba_marseille","lat":43.24655,"lon":5.3816,"is_reserved":false,"is_disabled":false,"rental_uris":{"android":"levelo://app?vid=81d1e180-d523-4ef7-ae98-f9077f858825","ios":"levelo://app?vid=81d1e180-d523-4ef7-ae98-f9077f858825"},"vehicle_type_id":"4","last_reported":1731100069,"current_range_meters":14000,"station_id":"ce4bhih2rcd13ifvqfr0","pricing_plan_id":"cebpf4jnsgd1na2vs0mg"},{"bike_id":"35dde5e6-86e4-4508-8edb-ab7330bb801c","system_id":"levelo_inurba_marseille","lat":43.241685,"lon":5.363904,"is_reserved":false,"is_disabled":false,"rental_uris":{"android":"levelo://app?vid=35dde5e6-86e4-4508-8edb-ab7330bb801c","ios":"levelo://app?vid=35dde5e6-86e4-4508-8edb-ab7330bb801c"},"vehicle_type_id":"4","last_reported":1731100069,"current_range_meters":36400,"station_id":"cpo36qri1sfpv3e86is0","pricing_plan_id":"cebpf4jnsgd1na2vs0mg"},{"bike_id":"ff989801-f59b-46d1-867b-7c2b6eab1cca","system_id":"levelo_inurba_marseille","lat":43.337444,"lon":5.374475,"is_reserved":false,"is_disabled":false,"rental_uris":{"android":"levelo://app?vid=ff989801-f59b-46d1-867b-7c2b6eab1cca","ios":"levelo://app?vid=ff989801-f59b-46d1-867b-7c2b6eab1cca"},"vehicle_type_id":"4","last_reported":1731100069,"current_range_meters":36400,"station_id":"","pricing_plan_id":"cebpf4jnsgd1na2vs0mg"},{"bike_id":"0c90e92e-5f10-4c08-a7e2-08f6e9320dcc","system_id":"levelo_inurba_marseille","lat":43.28,"lon":5.40004,"is_reserved":false,"is_disabled":false,"rental_uris":{"android":"levelo://app?vid=0c90e92e-5f10-4c08-a7e2-08f6e9320dcc","ios":"levelo://app?vid=0c90e92e-5f10-4c08-a7e2-08f6e9320dcc"},"vehicle_type_id":"4","last_reported":1731100069,"current_range_meters":38000,"station_id":"ce4bho92rcd13ifvqh4g","pricing_plan_id":"cebpf4jnsgd1na2vs0mg"},{"bike_id":"7a111f95-0e6e-4864-809a-a23d3dc8fce5","system_id":"levelo_inurba_marseille","lat":43.28002,"lon":5.40006,"is_reserved":false,"is_disabled":false,"rental_uris":{"android":"levelo://app?vid=7a111f95-0e6e-4864-809a-a23d3dc8fce5","ios":"levelo://app?vid=7a111f95-0e6e-4864-809a-a23d3dc8fce5"},"vehicle_type_id":"4","last_reported":1731100069,"current_range_meters":38800,"station_id":"ce4bho92rcd13ifvqh4g","pricing_plan_id":"cebpf4jnsgd1na2vs0mg"},{"bike_id":"1facb7e4-8eda-4dfd-8015-4ba3d5b8c1b6","system_id":"levelo_inurba_marseille","lat":43.27967,"lon":5.38729,"is_reserved":false,"is_disabled":false,"rental_uris":{"android":"levelo://app?vid=1facb7e4-8eda-4dfd-8015-4ba3d5b8c1b6","ios":"levelo://app?vid=1facb7e4-8eda-4dfd-8015-4ba3d5b8c1b6"},"vehicle_type_id":"4","last_reported":1731100069,"current_range_meters":6000,"station_id":"ce4bhg12rcd13ifvqf80","pricing_plan_id":"cebpf4jnsgd1na2vs0mg"},{"bike_id":"cfe894de-4a81-4056-877f-ac9953747d71","system_id":"levelo_inurba_marseille","lat":43.27431,"lon":5.39405,"is_reserved":false,"is_disabled":false,"rental_uris":{"android":"levelo://app?vid=cfe894de-4a81-4056-877f-ac9953747d71","ios":"levelo://app?vid=cfe894de-4a81-4056-877f-ac9953747d71"},"vehicle_type_id":"4","last_reported":1731100069,"current_range_meters":34000,"station_id":"ce4bhdp2rcd13ifvqf20","pricing_plan_id":"cebpf4jnsgd1na2vs0mg"},{"bike_id":"40735bbd-103d-42a4-916d-ae8a20ff22f9","system_id":"levelo_inurba_marseille","lat":43.30593,"lon":5.37207,"is_reserved":false,"is_disabled":false,"rental_uris":{"android":"levelo://app?vid=40735bbd-103d-42a4-916d-ae8a20ff22f9","ios":"levelo://app?vid=40735bbd-103d-42a4-916d-ae8a20ff22f9"},"vehicle_type_id":"4","last_reported":1731100069,"current_range_meters":38800,"station_id":"ce4bgqh2rcd13ifvqc4g","pricing_plan_id":"cebpf4jnsgd1na2vs0mg"},{"bike_id":"69d38419-f915-4ada-a460-f28c05bf4ad2","system_id":"levelo_inurba_marseille","lat":43.2707,"lon":5.42277,"is_reserved":false,"is_disabled":false,"rental_uris":{"android":"levelo://app?vid=69d38419-f915-4ada-a460-f28c05bf4ad2","ios":"levelo://app?vid=69d38419-f915-4ada-a460-f28c05bf4ad2"},"vehicle_type_id":"4","last_reported":1731100069,"current_range_meters":34800,"station_id":"ce4bhk92rcd13ifvqgb0","pricing_plan_id":"cebpf4jnsgd1na2vs0mg"},{"bike_id":"d115c69c-dc61-4019-86ca-8f3ef1285cfb","system_id":"levelo_inurba_marseille","lat":43.22927,"lon":5.35378,"is_reserved":false,"is_disabled":false,"rental_uris":{"android":"levelo://app?vid=d115c69c-dc61-4019-86ca-8f3ef1285cfb","ios":"levelo://app?vid=d115c69c-dc61-4019-86ca-8f3ef1285cfb"},"vehicle_type_id":"4","last_reported":1731100069,"current_range_meters":35600,"station_id":"cpo3532slgdg3j2ikp40","pricing_plan_id":"cebpf4jnsgd1na2vs0mg"},{"bike_id":"0361b4f1-40e1-43b7-8a6f-c28564b4da09","system_id":"levelo_inurba_marseille","lat":43.29271,"lon":5.38438,"is_reserved":false,"is_disabled":false,"rental_uris":{"android":"levelo://app?vid=0361b4f1-40e1-43b7-8a6f-c28564b4da09","ios":"levelo://app?vid=0361b4f1-40e1-43b7-8a6f-c28564b4da09"},"vehicle_type_id":"4","last_reported":1731100069,"current_range_meters":20800,"station_id":"ce4bh692rcd13ifvqea0","pricing_plan_id":"cebpf4jnsgd1na2vs0mg"},{"bike_id":"64c9a0cc-de8b-4362-bb64-0b54eba171ca","system_id":"levelo_inurba_marseille","lat":43.30594,"lon":5.39352,"is_reserved":false,"is_disabled":false,"rental_uris":{"android":"levelo://app?vid=64c9a0cc-de8b-4362-bb64-0b54eba171ca","ios":"levelo://app?vid=64c9a0cc-de8b-4362-bb64-0b54eba171ca"},"vehicle_type_id":"4","last_reported":1731100069,"current_range_meters":38800,"station_id":"ce4bh0p2rcd13ifvqd80","pricing_plan_id":"cebpf4jnsgd1na2vs0mg"},{"bike_id":"2fb6d72a-2d16-40bd-99bf-1441548aab9d","system_id":"levelo_inurba_marseille","lat":43.29037,"lon":5.37562,"is_reserved":false,"is_disabled":false,"rental_uris":{"android":"levelo://app?vid=2fb6d72a-2d16-40bd-99bf-1441548aab9d","ios":"levelo://app?vid=2fb6d72a-2d16-40bd-99bf-1441548aab9d"},"vehicle_type_id":"4","last_reported":1731100069,"current_range_meters":38400,"station_id":"ce4bh692rcd13ifvqe90","pricing_plan_id":"cebpf4jnsgd1na2vs0mg"},{"bike_id":"be94c940-c56d-4132-af66-fedb762b3e0f","system_id":"levelo_inurba_marseille","lat":43.23193,"lon":5.35556,"is_reserved":false,"is_disabled":false,"rental_uris":{"android":"levelo://app?vid=be94c940-c56d-4132-af66-fedb762b3e0f","ios":"levelo://app?vid=be94c940-c56d-4132-af66-fedb762b3e0f"},"vehicle_type_id":"4","last_reported":1731100069,"current_range_meters":38800,"station_id":"ce4bhu92rcd13ifvqi70","pricing_plan_id":"cebpf4jnsgd1na2vs0mg"},{"bike_id":"aca338e1-414e-4613-a44d-ca0b5ab09924","system_id":"levelo_inurba_marseille","lat":43.2953,"lon":5.38537,"is_reserved":false,"is_disabled":false,"rental_uris":{"android":"levelo://app?vid=aca338e1-414e-4613-a44d-ca0b5ab09924","ios":"levelo://app?vid=aca338e1-414e-4613-a44d-ca0b5ab09924"},"vehicle_type_id":"4","last_reported":1731100069,"current_range_meters":26800,"station_id":"ce4bgih2rcd13ifvqba0","pricing_plan_id":"cebpf4jnsgd1na2vs0mg"},{"bike_id":"db097537-d025-461d-abc5-6132b9522325","system_id":"levelo_inurba_marseille","lat":43.28666,"lon":5.36341,"is_reserved":false,"is_disabled":false,"rental_uris":{"android":"levelo://app?vid=db097537-d025-461d-abc5-6132b9522325","ios":"levelo://app?vid=db097537-d025-461d-abc5-6132b9522325"},"vehicle_type_id":"4","last_reported":1731100069,"current_range_meters":20000,"station_id":"ce4bhah2rcd13ifvqej0","pricing_plan_id":"cebpf4jnsgd1na2vs0mg"},{"bike_id":"73a2fecc-8ffd-4864-a14b-7a5b0d425dbd","system_id":"levelo_inurba_marseille","lat":43.27051,"lon":5.40261,"is_reserved":false,"is_disabled":false,"rental_uris":{"android":"levelo://app?vid=73a2fecc-8ffd-4864-a14b-7a5b0d425dbd","ios":"levelo://app?vid=73a2fecc-8ffd-4864-a14b-7a5b0d425dbd"},"vehicle_type_id":"4","last_reported":1731100069,"current_range_meters":33600,"station_id":"ce4bhk92rcd13ifvqgc0","pricing_plan_id":"cebpf4jnsgd1na2vs0mg"},{"bike_id":"dc8b6b7f-5b62-41a6-b1f7-6ec941a004e3","system_id":"levelo_inurba_marseille","lat":43.27815,"lon":5.40711,"is_reserved":false,"is_disabled":false,"rental_uris":{"android":"levelo://app?vid=dc8b6b7f-5b62-41a6-b1f7-6ec941a004e3","ios":"levelo://app?vid=dc8b6b7f-5b62-41a6-b1f7-6ec941a004e3"},"vehicle_type_id":"4","last_reported":1731100069,"current_range_meters":38400,"station_id":"ce4bhnh2rcd13ifvqgtg","pricing_plan_id":"cebpf4jnsgd1na2vs0mg"},{"bike_id":"f5383d24-209d-422e-b873-55e2ad4e0361","system_id":"levelo_inurba_marseille","lat":43.2978,"lon":5.37091,"is_reserved":false,"is_disabled":false,"rental_uris":{"android":"levelo://app?vid=f5383d24-209d-422e-b873-55e2ad4e0361","ios":"levelo://app?vid=f5383d24-209d-422e-b873-55e2ad4e0361"},"vehicle_type_id":"4","last_reported":1731100069,"current_range_meters":38800,"station_id":"ce4bgop2rcd13ifvqc1g","pricing_plan_id":"cebpf4jnsgd1na2vs0mg"},{"bike_id":"a8a43fcd-5228-475f-9c3c-423a52b6106f","system_id":"levelo_inurba_marseille","lat":43.29444,"lon":5.39738,"is_reserved":false,"is_disabled":false,"rental_uris":{"android":"levelo://app?vid=a8a43fcd-5228-475f-9c3c-423a52b6106f","ios":"levelo://app?vid=a8a43fcd-5228-475f-9c3c-423a52b6106f"},"vehicle_type_id":"4","last_reported":1731100069,"current_range_meters":40000,"station_id":"ce4bh3h2rcd13ifvqdo0","pricing_plan_id":"cebpf4jnsgd1na2vs0mg"},{"bike_id":"8d9907b8-c5d9-4917-bc3a-078a23921f15","system_id":"levelo_inurba_marseille","lat":43.26944,"lon":5.40243,"is_reserved":false,"is_disabled":false,"rental_uris":{"android":"levelo://app?vid=8d9907b8-c5d9-4917-bc3a-078a23921f15","ios":"levelo://app?vid=8d9907b8-c5d9-4917-bc3a-078a23921f15"},"vehicle_type_id":"4","last_reported":1731100069,"current_range_meters":30800,"station_id":"cjm6bp8fraef2m0cb0m0","pricing_plan_id":"cebpf4jnsgd1na2vs0mg"},{"bike_id":"2391a952-ef22-4ee0-9fa7-8d7daece7f52","system_id":"levelo_inurba_marseille","lat":43.2941,"lon":5.38623,"is_reserved":false,"is_disabled":false,"rental_uris":{"android":"levelo://app?vid=2391a952-ef22-4ee0-9fa7-8d7daece7f52","ios":"levelo://app?vid=2391a952-ef22-4ee0-9fa7-8d7daece7f52"},"vehicle_type_id":"4","last_reported":1731100069,"current_range_meters":39200,"station_id":"ce4bh2h2rcd13ifvqdh0","pricing_plan_id":"cebpf4jnsgd1na2vs0mg"},{"bike_id":"bde45612-0627-4de7-bf59-8fb1b5ca6d74","system_id":"levelo_inurba_marseille","lat":43.305471,"lon":5.384139,"is_reserved":false,"is_disabled":false,"rental_uris":{"android":"levelo://app?vid=bde45612-0627-4de7-bf59-8fb1b5ca6d74","ios":"levelo://app?vid=bde45612-0627-4de7-bf59-8fb1b5ca6d74"},"vehicle_type_id":"4","last_reported":1731100069,"current_range_meters":35200,"station_id":"ce4bgg92rcd13ifvqb30","pricing_plan_id":"cebpf4jnsgd1na2vs0mg"},{"bike_id":"291b435c-05eb-4c9f-924b-0819bf1af894","system_id":"levelo_inurba_marseille","lat":43.30216,"lon":5.36912,"is_reserved":false,"is_disabled":false,"rental_uris":{"android":"levelo://app?vid=291b435c-05eb-4c9f-924b-0819bf1af894","ios":"levelo://app?vid=291b435c-05eb-4c9f-924b-0819bf1af894"},"vehicle_type_id":"4","last_reported":1731100069,"current_range_meters":28000,"station_id":"","pricing_plan_id":"cebpf4jnsgd1na2vs0mg"},{"bike_id":"4e26e80e-f591-4e90-93ef-57917af1f1ab","system_id":"levelo_inurba_marseille","lat":43.28699,"lon":5.39978,"is_reserved":false,"is_disabled":false,"rental_uris":{"android":"levelo://app?vid=4e26e80e-f591-4e90-93ef-57917af1f1ab","ios":"levelo://app?vid=4e26e80e-f591-4e90-93ef-57917af1f1ab"},"vehicle_type_id":"4","last_reported":1731100069,"current_range_meters":38800,"station_id":"ce4bho92rcd13ifvqh3g","pricing_plan_id":"cebpf4jnsgd1na2vs0mg"},{"bike_id":"07ccf251-f217-426f-86c8-b913c01b8988","system_id":"levelo_inurba_marseille","lat":43.3021,"lon":5.39469,"is_reserved":false,"is_disabled":false,"rental_uris":{"android":"levelo://app?vid=07ccf251-f217-426f-86c8-b913c01b8988","ios":"levelo://app?vid=07ccf251-f217-426f-86c8-b913c01b8988"},"vehicle_type_id":"4","last_reported":1731100069,"current_range_meters":29600,"station_id":"ce4bh0p2rcd13ifvqd70","pricing_plan_id":"cebpf4jnsgd1na2vs0mg"},{"bike_id":"b615b64d-1d64-486d-94bd-21e833cf1c0d","system_id":"levelo_inurba_marseille","lat":43.27213,"lon":5.39171,"is_reserved":false,"is_disabled":false,"rental_uris":{"android":"levelo://app?vid=b615b64d-1d64-486d-94bd-21e833cf1c0d","ios":"levelo://app?vid=b615b64d-1d64-486d-94bd-21e833cf1c0d"},"vehicle_type_id":"4","last_reported":1731100069,"current_range_meters":38800,"station_id":"ce4bhhp2rcd13ifvqfm0","pricing_plan_id":"cebpf4jnsgd1na2vs0mg"},{"bike_id":"24f9dea8-5ae5-470e-9912-32e1ae991119","system_id":"levelo_inurba_marseille","lat":43.28662,"lon":5.36357,"is_reserved":false,"is_disabled":false,"rental_uris":{"android":"levelo://app?vid=24f9dea8-5ae5-470e-9912-32e1ae991119","ios":"levelo://app?vid=24f9dea8-5ae5-470e-9912-32e1ae991119"},"vehicle_type_id":"4","last_reported":1731100069,"current_range_meters":39200,"station_id":"ce4bhah2rcd13ifvqej0","pricing_plan_id":"cebpf4jnsgd1na2vs0mg"},{"bike_id":"ec9282d1-72a3-450d-9fc7-70f2e917175a","system_id":"levelo_inurba_marseille","lat":43.2501,"lon":5.38912,"is_reserved":false,"is_disabled":false,"rental_uris":{"android":"levelo://app?vid=ec9282d1-72a3-450d-9fc7-70f2e917175a","ios":"levelo://app?vid=ec9282d1-72a3-450d-9fc7-70f2e917175a"},"vehicle_type_id":"4","last_reported":1731100069,"current_range_meters":34000,"station_id":"ce4bhgp2rcd13ifvqfd0","pricing_plan_id":"cebpf4jnsgd1na2vs0mg"},{"bike_id":"02f3bd69-c440-439f-96d2-1f56246cbb70","system_id":"levelo_inurba_marseille","lat":43.23064,"lon":5.35486,"is_reserved":false,"is_disabled":false,"rental_uris":{"android":"levelo://app?vid=02f3bd69-c440-439f-96d2-1f56246cbb70","ios":"levelo://app?vid=02f3bd69-c440-439f-96d2-1f56246cbb70"},"vehicle_type_id":"4","last_reported":1731100069,"current_range_meters":30400,"station_id":"cpo3342slgdg3j2ifvpg","pricing_plan_id":"cebpf4jnsgd1na2vs0mg"},