{"last_updated":1740596842,"ttl":60,"version":"2.2","data":{"bikes":[{"bike_id":"341395f7-47a7-4b6b-8a81-5df22de9f33b","system_id":"levelo_inurba_marseille","lat":43.299138,"lon":5.381686,"is_reserved":false,"is_disabled":false,"rental_uris":{"android":"levelo://app?vid=341395f7-47a7-4b6b-8a81-5df22de9f33b","ios":"levelo://app?vid=341395f7-47a7-4b6b-8a81-5df22de9f33b"},"vehicle_type_id":"4","last_reported":1740596843,"current_range_meters":1600,"station_id":"ce4bgj12rcd13ifvqbc0","pricing_plan_id":"cebpf4jnsgd1na2vs0mg"},{"bike_id":"8bc19daa-7cd7-4bcb-a199-feff52fa3d76","system_id":"levelo_inurba_marseille","lat":43.29564,"lon":5.39977,"is_reserved":false,"is_disabled":false,"rental_uris":{"android":"levelo://app?vid=8bc19daa-7cd7-4bcb-a199-feff52fa3d76","ios":"levelo://app?vid=8bc19daa-7cd7-4bcb-a199-feff52fa3d76"},"vehicle_type_id":"4","last_reported":1740596843,"current_range_meters":2800,"station_id":"ce4bh312rcd13ifvqdj0","pricing_plan_id":"cebpf4jnsgd1na2vs0mg"},{"bike_id":"b1390c52-917d-4eb2-9a5a-de5ed9ba5ddc","system_id":"levelo_inurba_marseille","lat":43.29889,"lon":5.43641,"is_reserved":false,"is_disabled":false,"rental_uris":{"android":"levelo://app?vid=b1390c52-917d-4eb2-9a5a-de5ed9ba5ddc","ios":"levelo://app?vid=b1390c52-917d-4eb2-9a5a-de5ed9ba5ddc"},"vehicle_type_id":"4","last_reported":1740596843,"current_range_meters":2800,"station_id":"ce4bhpp2rcd13ifvqhfg","pricing_plan_id":"cebpf4jnsgd1na2vs0mg"},{"bike_id":"607e4cc5-2f08-4ee3-8656-d5a09f1972f0","system_id":"levelo_inurba_marseille","lat":43.27618,"lon":5.36137,"is_reserved":false,"is_disabled":false,"rental_uris":{"android":"levelo://app?vid=607e4cc5-2f08-4ee3-8656-d5a09f1972f0","ios":"levelo://app?vid=607e4cc5-2f08-4ee3-8656-d5a09f1972f0"},"vehicle_type_id":"4","last_reported":1740596843,"current_range_meters":800,"station_id":"ce4bgj92rcd13ifvqbe0","pricing_plan_id":"cebpf4jnsgd1na2vs0mg"},{"bike_id":"2f7a2b95-ec48-47c7-a715-9e8914304437","system_id":"levelo_inurba_marseille","lat":43.28938,"lon":5.36402,"is_reserved":false,"is_disabled":false,"rental_uris":{"android":"levelo://app?vid=2f7a2b95-ec48-47c7-a715-9e8914304437","ios":"levelo://app?vid=2f7a2b95-ec48-47c7-a715-9e8914304437"},"vehicle_type_id":"4","last_reported":1740596843,"current_range_meters":2800,"station_id":"ce4bhc92rcd13ifvqetg","pricing_plan_id":"cebpf4jnsgd1na2vs0mg"},{"bike_id":"9105c81f-e422-4df2-8fe8-0dc7e7d7ff3b","system_id":"levelo_inurba_marseille","lat":43.28461,"lon":5.35893,"is_reserved":false,"is_disabled":false,"rental_uris":{"android":"levelo://app?vid=9105c81f-e422-4df2-8fe8-0dc7e7d7ff3b","ios":"levelo://app?vid=9105c81f-e422-4df2-8fe8-0dc7e7d7ff3b"},"vehicle_type_id":"4","last_reported":1740596843,"current_range_meters":2800,"station_id":"ce4bhah2rcd13ifvqei0","pricing_plan_id":"cebpf4jnsgd1na2vs0mg"},{"bike_id":"d8241dcb-1b5b-4fe6-aa5d-18612a4c32c1","system_id":"levelo_inurba_marseille","lat":43.29585,"lon":5.36744,"is_reserved":false,"is_disabled":false,"rental_uris":{"android":"levelo://app?vid=d8241dcb-1b5b-4fe6-aa5d-18612a4c32c1","ios":"levelo://app?vid=d8241dcb-1b5b-4fe6-aa5d-18612a4c32c1"},"vehicle_type_id":"4","last_reported":1740596843,"current_range_meters":3200,"station_id":"ce4bgph2rcd13ifvqc2g","pricing_plan_id":"cebpf4jnsgd1na2vs0mg"},{"bike_id":"2d9fd4d8-c93e-4482-ac9a-27e0eb1c2dfe","system_id":"levelo_inurba_marseille","lat":43.31441,"lon":5.38768,"is_reserved":false,"is_disabled":false,"rental_uris":{"android":"levelo://app?vid=2d9fd4d8-c93e-4482-ac9a-27e0eb1c2dfe","ios":"levelo://app?vid=2d9fd4d8-c93e-4482-ac9a-27e0eb1c2dfe"},"vehicle_type_id":"4","last_reported":1740596843,"current_range_meters":3200,"station_id":"","pricing_plan_id":"cebpf4jnsgd1na2vs0mg"},{"bike_id":"f7a500e1-81e0-4c94-8979-e283652f0a3a","system_id":"levelo_inurba_marseille","lat":43.313263,"lon":5.396977,"is_reserved":false,"is_disabled":false,"rental_uris":{"android":"levelo://app?vid=f7a500e1-81e0-4c94-8979-e283652f0a3a","ios":"levelo://app?vid=f7a500e1-81e0-4c94-8979-e283652f0a3a"},"vehicle_type_id":"4","last_reported":1740596843,"current_range_meters":3200,"station_id":"ce4bgvp2rcd13ifvqcu0","pricing_plan_id":"cebpf4jnsgd1na2vs0mg"},{"bike_id":"86846fb0-fd2c-4574-b0ce-1cb9169a9407","system_id":"levelo_inurba_marseille","lat":43.2586,"lon":5.39902,"is_reserved":false,"is_disabled":false,"rental_uris":{"android":"levelo://app?vid=86846fb0-fd2c-4574-b0ce-1cb9169a9407","ios":"levelo://app?vid=86846fb0-fd2c-4574-b0ce-1cb9169a9407"},"vehicle_type_id":"4","last_reported":1740596843,"current_range_meters":400,"station_id":"ce4bhl92rcd13ifvqghg","pricing_plan_id":"cebpf4jnsgd1na2vs0mg"},{"bike_id":"9944af48-b598-4d4e-868b-a92c542fdf0e","system_id":"levelo_inurba_marseille","lat":43.28935,"lon":5.36627,"is_reserved":false,"is_disabled":false,"rental_uris":{"android":"levelo://app?vid=9944af48-b598-4d4e-868b-a92c542fdf0e","ios":"levelo://app?vid=9944af48-b598-4d4e-868b-a92c542fdf0e"},"vehicle_type_id":"4","last_reported":1740596843,"current_range_meters":3600,"station_id":"ce4bhap2rcd13ifvqek0","pricing_plan_id":"cebpf4jnsgd1na2vs0mg"},{"bike_id":"4df591c0-6182-41eb-a252-dab3ecc79a22","system_id":"levelo_inurba_marseille","lat":43.29844,"lon":5.36256,"is_reserved":false,"is_disabled":false,"rental_uris":{"android":"levelo://app?vid=4df591c0-6182-41eb-a252-dab3ecc79a22","ios":"levelo://app?vid=4df591c0-6182-41eb-a252-dab3ecc79a22"},"vehicle_type_id":"4","last_reported":1740596843,"current_range_meters":3600,"station_id":"ce4bgpp2rcd13ifvqc3g","pricing_plan_id":"cebpf4jnsgd1na2vs0mg"},{"bike_id":"d781153a-e0bd-4f05-85a8-8589fd9aa21a","system_id":"levelo_inurba_marseille","lat":43.32126,"lon":5.36803,"is_reserved":false,"is_disabled":false,"rental_uris":{"android":"levelo://app?vid=d781153a-e0bd-4f05-85a8-8589fd9aa21a","ios":"levelo://app?vid=d781153a-e0bd-4f05-85a8-8589fd9aa21a"},"vehicle_type_id":"4","last_reported":1740596843,"current_range_meters":3600,"station_id":"ce4bhrh2rcd13ifvqhug","pricing_plan_id":"cebpf4jnsgd1na2vs0mg"},{"bike_id":"c52cb992-57cd-481f-9732-07bb7645a69a","system_id":"levelo_inurba_marseille","lat":43.30815,"lon":5.38165,"is_reserved":false,"is_disabled":false,"rental_uris":{"android":"levelo://app?vid=c52cb992-57cd-481f-9732-07bb7645a69a","ios":"levelo://app?vid=c52cb992-57cd-481f-9732-07bb7645a69a"},"vehicle_type_id":"4","last_reported":1740596843,"current_range_meters":1600,"station_id":"ce4bgt12rcd13ifvqce0","pricing_plan_id":"cebpf4jnsgd1na2vs0mg"},{"bike_id":"b99ec3be-2984-4ff0-ad0d-9d6a054c811c","system_id":"levelo_inurba_marseille","lat":43.30637,"lon":5.40096,"is_reserved":false,"is_disabled":false,"rental_uris":{"android":"levelo://app?vid=b99ec3be-2984-4ff0-ad0d-9d6a054c811c","ios":"levelo://app?vid=b99ec3be-2984-4ff0-ad0d-9d6a054c811c"},"vehicle_type_id":"4","last_reported":1740596843,"current_range_meters":4000,"station_id":"ce4bh112rcd13ifvqda0","pricing_plan_id":"cebpf4jnsgd1na2vs0mg"},{"bike_id":"4881e1e3-7369-4071-88db-b0de80e78a3a","system_id":"levelo_inurba_marseille","lat":43.287,"lon":5.37384,"is_reserved":false,"is_disabled":false,"rental_uris":{"android":"levelo://app?vid=4881e1e3-7369-4071-88db-b0de80e78a3a","ios":"levelo://app?vid=4881e1e3-7369-4071-88db-b0de80e78a3a"},"vehicle_type_id":"4","last_reported":1740596843,"current_range_meters":4000,"station_id":"ce4bh3p2rcd13ifvqdq0","pricing_plan_id":"cebpf4jnsgd1na2vs0mg"},{"bike_id":"d497d64c-1e73-4938-a508-345c8427a166","system_id":"levelo_inurba_marseille","lat":43.3127,"lon":5.40167,"is_reserved":false,"is_disabled":false,"rental_uris":{"android":"levelo://app?vid=d497d64c-1e73-4938-a508-345c8427a166","ios":"levelo://app?vid=d497d64c-1e73-4938-a508-345c8427a166"},"vehicle_type_id":"4","last_reported":1740596843,"current_range_meters":4400,"station_id":"ce4bh092rcd13ifvqd30","pricing_plan_id":"cebpf4jnsgd1na2vs0mg"},{"bike_id":"73983637-3b23-4182-a5ad-cbdaffe12c8d","system_id":"levelo_inurba_marseille","lat":43.23964,"lon":5.36627,"is_reserved":false,"is_disabled":false,"rental_uris":{"android":"levelo://app?vid=73983637-3b23-4182-a5ad-cbdaffe12c8d","ios":"levelo://app?vid=73983637-3b23-4182-a5ad-cbdaffe12c8d"},"vehicle_type_id":"4","last_reported":1740596843,"current_range_meters":3600,"station_id":"ce4bhi12rcd13ifvqfp0","pricing_plan_id":"cebpf4jnsgd1na2vs0mg"},{"bike_id":"66eb05c1-4bac-41fa-a8f7-9b270cf39e7c","system_id":"levelo_inurba_marseille","lat":43.31074,"lon":5.38353,"is_reserved":false,"is_disabled":false,"rental_uris":{"android":"levelo://app?vid=66eb05c1-4bac-41fa-a8f7-9b270cf39e7c","ios":"levelo://app?vid=66eb05c1-4bac-41fa-a8f7-9b270cf39e7c"},"vehicle_type_id":"4","last_reported":1740596843,"current_range_meters":4400,"station_id":"ce4bgv92rcd13ifvqcr0","pricing_plan_id":"cebpf4jnsgd1na2vs0mg"},{"bike_id":"349e0b42-9005-4524-ae81-70f682769f76","system_id":"levelo_inurba_marseille","lat":43.23967,"lon":5.36629,"is_reserved":false,"is_disabled":false,"rental_uris":{"android":"levelo://app?vid=349e0b42-9005-4524-ae81-70f682769f76","ios":"levelo://app?vid=349e0b42-9005-4524-ae81-70f682769f76"},"vehicle_type_id":"4","last_reported":1740596843,"current_range_meters":4400,"station_id":"ce4bhi12rcd13ifvqfp0","pricing_plan_id":"cebpf4jnsgd1na2vs0mg"},{"bike_id":"0bda6048-a099-4d2f-bb82-e44d13547c0d","system_id":"levelo_inurba_marseille","lat":43.29311,"lon":5.37178,"is_reserved":false,"is_disabled":false,"rental_uris":{"android":"levelo://app?vid=0bda6048-a099-4d2f-bb82-e44d13547c0d","ios":"levelo://app?vid=0bda6048-a099-4d2f-bb82-e44d13547c0d"},"vehicle_type_id":"4","last_reported":1740596843,"current_range_meters":4800,"station_id":"ce4bgh92rcd13ifvqb40","pricing_plan_id":"cebpf4jnsgd1na2vs0mg"},{"bike_id":"1f0dcaf3-20ff-45bc-b4ef-8f34cf36e226","system_id":"levelo_inurba_marseille","lat":43.27818,"lon":5.40723,"is_reserved":false,"is_disabled":true,"rental_uris":{"android":"levelo://app?vid=1f0dcaf3-20ff-45bc-b4ef-8f34cf36e226","ios":"levelo://app?vid=1f0dcaf3-20ff-45bc-b4ef-8f34cf36e226"},"vehicle_type_id":"4","last_reported":1740596843,"current_range_meters":4800,"station_id":"ce4bhnh2rcd13ifvqgtg","pricing_plan_id":"cebpf4jnsgd1na2vs0mg"},{"bike_id":"0d0f6b4f-d197-461b-9eaf-1d3222086e8e","system_id":"levelo_inurba_marseille","lat":43.28851,"lon":5.39314,"is_reserved":false,"is_disabled":false,"rental_uris":{"android":"levelo://app?vid=0d0f6b4f-d197-461b-9eaf-1d3222086e8e","ios":"levelo://app?vid=0d0f6b4f-d197-461b-9eaf-1d3222086e8e"},"vehicle_type_id":"4","last_reported":1740596843,"current_range_meters":4800,"station_id":"ce4bh2p2rcd13ifvqdi0","pricing_plan_id":"cebpf4jnsgd1na2vs0mg"},{"bike_id":"e5c275a2-a964-47d8-9489-ed1126cf4cef","system_id":"levelo_inurba_marseille","lat":43.29625,"lon":5.37915,"is_reserved":false,"is_disabled":false,"rental_uris":{"android":"levelo://app?vid=e5c275a2-a964-47d8-9489-ed1126cf4cef","ios":"levelo://app?vid=e5c275a2-a964-47d8-9489-ed1126cf4cef"},"vehicle_type_id":"4","last_reported":1740596843,"current_range_meters":6000,"station_id":"","pricing_plan_id":"cebpf4jnsgd1na2vs0mg"},{"bike_id":"e308fed7-018d-42b3-8eb8-b86f0590eb1c","system_id":"levelo_inurba_marseille","lat":43.287018,"lon":5.373857,"is_reserved":false,"is_disabled":false,"rental_uris":{"android":"levelo://app?vid=e308fed7-018d-42b3-8eb8-b86f0590eb1c","ios":"levelo://app?vid=e308fed7-018d-42b3-8eb8-b86f0590eb1c"},"vehicle_type_id":"4","last_reported":1740596843,"current_range_meters":5600,"station_id":"ce4bh3p2rcd13ifvqdq0","pricing_plan_id":"cebpf4jnsgd1na2vs0mg"},{"bike_id":"8c35d2f6-1214-4b92-b21e-5a6480a0f50b","system_id":"levelo_inurba_marseille","lat":43.28342,"lon":5.38118,"is_reserved":false,"is_disabled":false,"rental_uris":{"android":"levelo://app?vid=8c35d2f6-1214-4b92-b21e-5a6480a0f50b","ios":"levelo://app?vid=8c35d2f6-1214-4b92-b21e-5a6480a0f50b"},"vehicle_type_id":"4","last_reported":1740596843,"current_range_meters":6400,"station_id":"ce4bh412rcd13ifvqdr0","pricing_plan_id":"cebpf4jnsgd1na2vs0mg"},{"bike_id":"41195873-ab7b-4d4a-8101-82d9e60aa1cf","system_id":"levelo_inurba_marseille","lat":43.29664,"lon":5.378388,"is_reserved":false,"is_disabled":false,"rental_uris":{"android":"levelo://app?vid=41195873-ab7b-4d4a-8101-82d9e60aa1cf","ios":"levelo://app?vid=41195873-ab7b-4d4a-8101-82d9e60aa1cf"},"vehicle_type_id":"4","last_reported":1740596843,"current_range_meters":6000,"station_id":"ce4bgi92rcd13ifvqb90","pricing_plan_id":"cebpf4jnsgd1na2vs0mg"},{"bike_id":"e3e79ebb-62c2-458b-9cb1-beade98fb1f8","system_id":"levelo_inurba_marseille","lat":43.30131,"lon":5.39875,"is_reserved":false,"is_disabled":false,"rental_uris":{"android":"levelo://app?vid=e3e79ebb-62c2-458b-9cb1-beade98fb1f8","ios":"levelo://app?vid=e3e79ebb-62c2-458b-9cb1-beade98fb1f8"},"vehicle_type_id":"4","last_reported":1740596843,"current_range_meters":0,"station_id":"ce4bh0h2rcd13ifvqd40","pricing_plan_id":"cebpf4jnsgd1na2vs0mg"},{"bike_id":"babb6208-46f8-4cd2-8b48-d9227fbcf4a4","system_id":"levelo_inurba_marseille","lat":43.28487,"lon":5.38421,"is_reserved":false,"is_disabled":false,"rental_uris":{"android":"levelo://app?vid=babb6208-46f8-4cd2-8b48-d9227fbcf4a4","ios":"levelo://app?vid=babb6208-46f8-4cd2-8b48-d9227fbcf4a4"},"vehicle_type_id":"4","last_reported":1740596843,"current_range_meters":6000,"station_id":"ce4bh512rcd13ifvqe3g","pricing_plan_id":"cebpf4jnsgd1na2vs0mg"},{"bike_id":"1cf1ec02-40f9-4368-a950-dc33269bfa18","system_id":"levelo_inurba_marseille","lat":43.33027,"lon":5.39039,"is_reserved":false,"is_disabled":false,"rental_uris":{"android":"levelo://app?vid=1cf1ec02-40f9-4368-a950-dc33269bfa18","ios":"levelo://app?vid=1cf1ec02-40f9-4368-a950-dc33269bfa18"},"vehicle_type_id":"4","last_reported":1740596843,"current_range_meters":6000,"station_id":"ce4bhr92rcd13ifvqhrg","pricing_plan_id":"cebpf4jnsgd1na2vs0mg"},{"bike_id":"afd98e29-9e65-49b1-96e9-da6c0e62de76","system_id":"levelo_inurba_marseille","lat":43.29266,"lon":5.3821,"is_reserved":false,"is_disabled":false,"rental_uris":{"android":"levelo://app?vid=afd98e29-9e65-49b1-96e9-da6c0e62de76","ios":"levelo://app?vid=afd98e29-9e65-49b1-96e9-da6c0e62de76"},"vehicle_type_id":"4","last_reported":1740596843,"current_range_meters":16000,"station_id":"","pricing_plan_id":"cebpf4jnsgd1na2vs0mg"},{"bike_id":"805f4576-ccef-4640-96ce-86e8597c3281","system_id":"levelo_inurba_marseille","lat":43.28413,"lon":5.37517,"is_reserved":false,"is_disabled":false,"rental_uris":{"android":"levelo://app?vid=805f4576-ccef-4640-96ce-86e8597c3281","ios":"levelo://app?vid=805f4576-ccef-4640-96ce-86e8597c3281"},"vehicle_type_id":"4","last_reported":1740596843,"current_range_meters":6400,"station_id":"ce4bh412rcd13ifvqds0","pricing_plan_id":"cebpf4jnsgd1na2vs0mg"},{"bike_id":"1820ddbc-24da-4c28-b46f-1a96bd96d67c","system_id":"levelo_inurba_marseille","lat":43.29915,"lon":5.36495,"is_reserved":false,"is_disabled":false,"rental_uris":{"android":"levelo://app?vid=1820ddbc-24da-4c28-b46f-1a96bd96d67c","ios":"levelo://app?vid=1820ddbc-24da-4c28-b46f-1a96bd96d67c"},"vehicle_type_id":"4","last_reported":1740596843,"current_range_meters":6400,"station_id":"ce4bgm92rcd13ifvqbr0","pricing_plan_id":"cebpf4jnsgd1na2vs0mg"},{"bike_id":"adfb631b-f03b-40f9-af9e-5a7e98addae7","system_id":"levelo_inurba_marseille","lat":43.28854,"lon":5.3931,"is_reserved":false,"is_disabled":false,"rental_uris":{"android":"levelo://app?vid=adfb631b-f03b-40f9-af9e-5a7e98addae7","ios":"levelo://app?vid=adfb631b-f03b-40f9-af9e-5a7e98addae7"},"vehicle_type_id":"4","last_reported":1740596843,"current_range_meters":6400,"station_id":"ce4bh2p2rcd13ifvqdi0","pricing_plan_id":"cebpf4jnsgd1na2vs0mg"},{"bike_id":"77d72656-ec37-44f1-ab2b-c05ee9e3e3e9","system_id":"levelo_inurba_marseille","lat":43.29275,"lon":5.37565,"is_reserved":false,"is_disabled":false,"rental_uris":{"android":"levelo://app?vid=77d72656-ec37-44f1-ab2b-c05ee9e3e3e9","ios":"levelo://app?vid=77d72656-ec37-44f1-ab2b-c05ee9e3e3e9"},"vehicle_type_id":"4","last_reported":1740596843,"current_range_meters":6400,"station_id":"","pricing_plan_id":"cebpf4jnsgd1na2vs0mg"},{"bike_id":"cf3ab1f0-0123-4e26-8e4f-f65d17d40274","system_id":"levelo_inurba_marseille","lat":43.29315,"lon":5.37137,"is_reserved":false,"is_disabled":false,"rental_uris":{"android":"levelo://app?vid=cf3ab1f0-0123-4e26-8e4f-f65d17d40274","ios":"levelo://app?vid=cf3ab1f0-0123-4e26-8e4f-f65d17d40274"},"vehicle_type_id":"4","last_reported":1740596843,"current_range_meters":6400,"station_id":"ce4bgh92rcd13ifvqb40","pricing_plan_id":"cebpf4jnsgd1na2vs0mg"},{"bike_id":"411b5315-e03f-43f4-b5cd-9f0caf8d3081","system_id":"levelo_inurba_marseille","lat":43.23185,"lon":5.39985,"is_reserved":false,"is_disabled":false,"rental_uris":{"android":"levelo://app?vid=411b5315-e03f-43f4-b5cd-9f0caf8d3081","ios":"levelo://app?vid=411b5315-e03f-43f4-b5cd-9f0caf8d3081"},"vehicle_type_id":"4","last_reported":1740596843,"current_range_meters":6400,"station_id":"ce4bhn12rcd13ifvqgqg","pricing_plan_id":"cebpf4jnsgd1na2vs0mg"},{"bike_id":"39c490fa-7a92-47db-bc32-fe7f8b3890e2","system_id":"levelo_inurba_marseille","lat":43.29279,"lon":5.36837,"is_reserved":false,"is_disabled":true,"rental_uris":{"android":"levelo://app?vid=39c490fa-7a92-47db-bc32-fe7f8b3890e2","ios":"levelo://app?vid=39c490fa-7a92-47db-bc32-fe7f8b3890e2"},"vehicle_type_id":"4","last_reported":1740596843,"current_range_meters":6400,"station_id":"ce4bhbp2rcd13ifvqesg","pricing_plan_id":"cebpf4jnsgd1na2vs0mg"},{"bike_id":"3dcca461-48ca-413e-8285-f5274b29347b","system_id":"levelo_inurba_marseille","lat":43.29555,"lon":5.37542,"is_reserved":false,"is_disabled":false,"rental_uris":{"android":"levelo://app?vid=3dcca461-48ca-413e-8285-f5274b29347b","ios":"levelo://app?vid=3dcca461-48ca-413e-8285-f5274b29347b"},"vehicle_type_id":"4","last_reported":1740596843,"current_range_meters":6400,"station_id":"ce4bgh92rcd13ifvqb50","pricing_plan_id":"cebpf4jnsgd1na2vs0mg"},{"bike_id":"cd10686f-c971-4b3f-932b-0955ecbea819","system_id":"levelo_inurba_marseille","lat":43.2925,"lon":5.3845,"is_reserved":false,"is_disabled":false,"rental_uris":{"android":"levelo://app?vid=cd10686f-c971-4b3f-932b-0955ecbea819","ios":"levelo://app?vid=cd10686f-c971-4b3f-932b-0955ecbea819"},"vehicle_type_id":"4","last_reported":1740596843,"current_range_meters":6800,"station_id":"ce4bh692rcd13ifvqea0","pricing_plan_id":"cebpf4jnsgd1na2vs0mg"},{"bike_id":"7c95904b-ee6c-442a-a902-49c0c9d387e4","system_id":"levelo_inurba_marseille","lat":43.24392,"lon":5.37056,"is_reserved":false,"is_disabled":false,"rental_uris":{"android":"levelo://app?vid=7c95904b-ee6c-442a-a902-49c0c9d387e4","ios":"levelo://app?vid=7c95904b-ee6c-442a-a902-49c0c9d387e4"},"vehicle_type_id":"4","last_reported":1740596843,"current_range_meters":6800,"station_id":"ce4bhhh2rcd13ifvqfk0","pricing_plan_id":"cebpf4jnsgd1na2vs0mg"},{"bike_id":"8fb42d55-ce42-48d8-ae7f-5b20b0348403","system_id":"levelo_inurba_marseille","lat":43.27618,"lon":5.36122,"is_reserved":false,"is_disabled":false,"rental_uris":{"android":"levelo://app?vid=8fb42d55-ce42-48d8-ae7f-5b20b0348403","ios":"levelo://app?vid=8fb42d55-ce42-48d8-ae7f-5b20b0348403"},"vehicle_type_id":"4","last_reported":1740596843,"current_range_meters":6800,"station_id":"ce4bgj92rcd13ifvqbe0","pricing_plan_id":"cebpf4jnsgd1na2vs0mg"},{"bike_id":"274a0001-6316-4453-9c79-e95591e69152","system_id":"levelo_inurba_marseille","lat":43.31899,"lon":5.40736,"is_reserved":false,"is_disabled":false,"rental_uris":{"android":"levelo://app?vid=274a0001-6316-4453-9c79-e95591e69152","ios":"levelo://app?vid=274a0001-6316-4453-9c79-e95591e69152"},"vehicle_type_id":"4","last_reported":1740596843,"current_range_meters":7200,"station_id":"ce4bhq12rcd13ifvqhig","pricing_plan_id":"cebpf4jnsgd1na2vs0mg"},{"bike_id":"68db716c-6572-40ea-b079-987ee4623b4d","system_id":"levelo_inurba_marseille","lat":43.26854,"lon":5.40941,"is_reserved":false,"is_disabled":false,"rental_uris":{"android":"levelo://app?vid=68db716c-6572-40ea-b079-987ee4623b4d","ios":"levelo://app?vid=68db716c-6572-40ea-b079-987ee4623b4d"},"vehicle_type_id":"4","last_reported":1740596843,"current_range_meters":7200,"station_id":"","pricing_plan_id":"cebpf4jnsgd1na2vs0mg"},{"bike_id":"ae9e9ca0-46c1-4d44-8c89-9b22663cf71c","system_id":"levelo_inurba_marseille","lat":43.24384,"lon":5.37064,"is_reserved":false,"is_disabled":false,"rental_uris":{"android":"levelo://app?vid=ae9e9ca0-46c1-4d44-8c89-9b22663cf71c","ios":"levelo://app?vid=ae9e9ca0-46c1-4d44-8c89-9b22663cf71c"},"vehicle_type_id":"4","last_reported":1740596843,"current_range_meters":7200,"station_id":"ce4bhhh2rcd13ifvqfk0","pricing_plan_id":"cebpf4jnsgd1na2vs0mg"},{"bike_id":"496915c7-eb4d-4506-8286-11ac6afab698","system_id":"levelo_inurba_marseille","lat":43.28463,"lon":5.35865,"is_reserved":false,"is_disabled":false,"rental_uris":{"android":"levelo://app?vid=496915c7-eb4d-4506-8286-11ac6afab698","ios":"levelo://app?vid=496915c7-eb4d-4506-8286-11ac6afab698"},"vehicle_type_id":"4","last_reported":1740596843,"current_range_meters":8000,"station_id":"ce4bhah2rcd13ifvqei0","pricing_plan_id":"cebpf4jnsgd1na2vs0mg"},{"bike_id":"604986e0-3d2c-4bbe-b22b-a15d680522fc","system_id":"levelo_inurba_marseille","lat":43.29942,"lon":5.36556,"is_reserved":false,"is_disabled":false,"rental_uris":{"android":"levelo://app?vid=604986e0-3d2c-4bbe-b22b-a15d680522fc","ios":"levelo://app?vid=604986e0-3d2c-4bbe-b22b-a15d680522fc"},"vehicle_type_id":"4","last_reported":1740596843,"current_range_meters":8000,"station_id":"ce4bgm92rcd13ifvqbr0","pricing_plan_id":"cebpf4jnsgd1na2vs0mg"},{"bike_id":"89ec3e49-a26e-4c08-8881-c0b7c42561f5","system_id":"levelo_inurba_marseille","lat":43.32335,"lon":5.40623,"is_reserved":false,"is_disabled":false,"rental_uris":{"android":"levelo://app?vid=89ec3e49-a26e-4c08-8881-c0b7c42561f5","ios":"levelo://app?vid=89ec3e49-a26e-4c08-8881-c0b7c42561f5"},"vehicle_type_id":"4","last_reported":1740596843,"current_range_meters":8000,"station_id":"ce4bhq92rcd13ifvqhjg","pricing_plan_id":"cebpf4jnsgd1na2vs0mg"},{"bike_id":"e80aada6-8a51-4d84-89a9-f7834d4683b3","system_id":"levelo_inurba_marseille","lat":43.28161,"lon":5.42637,"is_reserved":false,"is_disabled":false,"rental_uris":{"android":"levelo://app?vid=e80aada6-8a51-4d84-89a9-f7834d4683b3","ios":"levelo://app?vid=e80aada6-8a51-4d84-89a9-f7834d4683b3"},"vehicle_type_id":"4","last_reported":1740596843,"current_range_meters":8000,"station_id":"ce4bhnh2rcd13ifvqgug","pricing_plan_id":"cebpf4jnsgd1na2vs0mg"},{"bike_id":"6f919063-e13f-432d-8c87-9b4ea48dcb4d","system_id":"levelo_inurba_marseille","lat":43.28927,"lon":5.36626,"is_reserved":false,"is_disabled":false,"rental_uris":{"android":"levelo://app?vid=6f919063-e13f-432d-8c87-9b4ea48dcb4d","ios":"levelo://app?vid=6f919063-e13f-432d-8c87-9b4ea48dcb4d"},"vehicle_type_id":"4","last_reported":1740596843,"current_range_meters":8000,"station_id":"ce4bhap2rcd13ifvqek0","pricing_plan_id":"cebpf4jnsgd1na2vs0mg"},{"bike_id":"12c5a27a-3320-4821-be2c-10f7b273b30a","system_id":"levelo_inurba_marseille","lat":43.31369,"lon":5.38493,"is_reserved":false,"is_disabled":false,"rental_uris":{"android":"levelo://app?vid=12c5a27a-3320-4821-be2c-10f7b273b30a","ios":"levelo://app?vid=12c5a27a-3320-4821-be2c-10f7b273b30a"},"vehicle_type_id":"4","last_reported":1740596843,"current_range_meters":8000,"station_id":"ce4bgt92rcd13ifvqcf0","pricing_plan_id":"cebpf4jnsgd1na2vs0mg"},{"bike_id":"07b52420-dc14-4435-a46d-7b54d4699f71","system_id":"levelo_inurba_marseille","lat":43.28457,"lon":5.38418,"is_reserved":false,"is_disabled":false,"rental_uris":{"android":"levelo://app?vid=07b52420-dc14-4435-a46d-7b54d4699f71","ios":"levelo://app?vid=07b52420-dc14-4435-a46d-7b54d4699f71"},"vehicle_type_id":"4","last_reported":1740596843,"current_range_meters":8000,"station_id":"ce4bh512rcd13ifvqe3g","pricing_plan_id":"cebpf4jnsgd1na2vs0mg"},{"bike_id":"26d1edd1-2a52-428c-b2a6-7dd75e71037c","system_id":"levelo_inurba_marseille","lat":43.286192,"lon":5.351073,"is_reserved":false,"is_disabled":false,"rental_uris":{"android":"levelo://app?vid=26d1edd1-2a52-428c-b2a6-7dd75e71037c","ios":"levelo://app?vid=26d1edd1-2a52-428c-b2a6-7dd75e71037c"},"vehicle_type_id":"4","last_reported":1740596843,"current_range_meters":8800,"station_id":"ce4bhch2rcd13ifvqeug","pricing_plan_id":"cebpf4jnsgd1na2vs0mg"},{"bike_id":"dac480e2-51ca-45aa-97d0-483a85b902f6","system_id":"levelo_inurba_marseille","lat":43.30201,"lon":5.39464,"is_reserved":false,"is_disabled":false,"rental_uris":{"android":"levelo://app?vid=dac480e2-51ca-45aa-97d0-483a85b902f6","ios":"levelo://app?vid=dac480e2-51ca-45aa-97d0-483a85b902f6"},"vehicle_type_id":"4","last_reported":1740596843,"current_range_meters":8400,"station_id":"ce4bh0p2rcd13ifvqd70","pricing_plan_id":"cebpf4jnsgd1na2vs0mg"},{"bike_id":"207b834e-74c4-40d8-84e8-78b49ba3e80c","system_id":"levelo_inurba_marseille","lat":43.29877,"lon":5.39751,"is_reserved":false,"is_disabled":false,"rental_uris":{"android":"levelo://app?vid=207b834e-74c4-40d8-84e8-78b49ba3e80c","ios":"levelo://app?vid=207b834e-74c4-40d8-84e8-78b49ba3e80c"},"vehicle_type_id":"4","last_reported":1740596843,"current_range_meters":8400,"station_id":"ce4bh0h2rcd13ifvqd50","pricing_plan_id":"cebpf4jnsgd1na2vs0mg"},{"bike_id":"485588f9-9839-4f23-a90a-4f1b979ed090","system_id":"levelo_inurba_marseille","lat":43.255,"lon":5.37646,"is_reserved":false,"is_disabled":false,"rental_uris":{"android":"levelo://app?vid=485588f9-9839-4f23-a90a-4f1b979ed090","ios":"levelo://app?vid=485588f9-9839-4f23-a90a-4f1b979ed090"},"vehicle_type_id":"4","last_reported":1740596843,"current_range_meters":8400,"station_id":"ce4bhh12rcd13ifvqff0","pricing_plan_id":"cebpf4jnsgd1na2vs0mg"},{"bike_id":"64d1dcdb-2974-4aea-a074-f7aa761c6db6","system_id":"levelo_inurba_marseille","lat":43.25096,"lon":5.41071,"is_reserved":false,"is_disabled":false,"rental_uris":{"android":"levelo://app?vid=64d1dcdb-2974-4aea-a074-f7aa761c6db6","ios":"levelo://app?vid=64d1dcdb-2974-4aea-a074-f7aa761c6db6"},"vehicle_type_id":"4","last_reported":1740596843,"current_range_meters":8400,"station_id":"","pricing_plan_id":"cebpf4jnsgd1na2vs0mg"},{"bike_id":"5c47d4c3-83ff-4b25-91fb-a87385c61f6a","system_id":"levelo_inurba_marseille","lat":43.31693,"lon":5.43729,"is_reserved":false,"is_disabled":false,"rental_uris":{"android":"levelo://app?vid=5c47d4c3-83ff-4b25-91fb-a87385c61f6a","ios":"levelo://app?vid=5c47d4c3-83ff-4b25-91fb-a87385c61f6a"},"vehicle_type_id":"4","last_reported":1740596843,"current_range_meters":8400,"station_id":"ce4bhp92rcd13ifvqhcg","pricing_plan_id":"cebpf4jnsgd1na2vs0mg"},{"bike_id":"eddb909d-bf4a-4d76-a25a-7ebf4e498d1f","system_id":"levelo_inurba_marseille","lat":43.24386,"lon":5.37061,"is_reserved":false,"is_disabled":false,"rental_uris":{"android":"levelo://app?vid=eddb909d-bf4a-4d76-a25a-7ebf4e498d1f","ios":"levelo://app?vid=eddb909d-bf4a-4d76-a25a-7ebf4e498d1f"},"vehicle_type_id":"4","last_reported":1740596843,"current_range_meters":8400,"station_id":"ce4bhhh2rcd13ifvqfk0","pricing_plan_id":"cebpf4jnsgd1na2vs0mg"},{"bike_id":"b3e62d70-5da9-4a62-bca1-32f5705dbcde","system_id":"levelo_inurba_marseille","lat":43.29519,"lon":5.3937,"is_reserved":false,"is_disabled":false,"rental_uris":{"android":"levelo://app?vid=b3e62d70-5da9-4a62-bca1-32f5705dbcde","ios":"levelo://app?vid=b3e62d70-5da9-4a62-bca1-32f5705dbcde"},"vehicle_type_id":"4","last_reported":1740596843,"current_range_meters":8400,"station_id":"ce4bh292rcd13ifvqdf0","pricing_plan_id":"cebpf4jnsgd1na2vs0mg"},{"bike_id":"2a2911b6-beb5-40e6-9657-48da7963b79f","system_id":"levelo_inurba_marseille","lat":43.27939,"lon":5.4103,"is_reserved":false,"is_disabled":false,"rental_uris":{"android":"levelo://app?vid=2a2911b6-beb5-40e6-9657-48da7963b79f","ios":"levelo://app?vid=2a2911b6-beb5-40e6-9657-48da7963b79f"},"vehicle_type_id":"4","last_reported":1740596843,"current_range_meters":8400,"station_id":"ce4bhnp2rcd13ifvqh0g","pricing_plan_id":"cebpf4jnsgd1na2vs0mg"},{"bike_id":"88f7688f-9c2c-4aa6-a209-6397d300b7b4","system_id":"levelo_inurba_marseille","lat":43.297272,"lon":5.377172,"is_reserved":false,"is_disabled":false,"rental_uris":{"android":"levelo://app?vid=88f7688f-9c2c-4aa6-a209-6397d300b7b4","ios":"levelo://app?vid=88f7688f-9c2c-4aa6-a209-6397d300b7b4"},"vehicle_type_id":"4","last_reported":1740596843,"current_range_meters":7200,"station_id":"ce4bgph2rcd13ifvqc2g","pricing_plan_id":"cebpf4jnsgd1na2vs0mg"},{"bike_id":"c3452fd9-2444-49ba-a35e-7f70e8715dbb","system_id":"levelo_inurba_marseille","lat":43.29776,"lon":5.38078,"is_reserved":false,"is_disabled":false,"rental_uris":{"android":"levelo://app?vid=c3452fd9-2444-49ba-a35e-7f70e8715dbb","ios":"levelo://app?vid=c3452fd9-2444-49ba-a35e-7f70e8715dbb"},"vehicle_type_id":"4","last_reported":1740596843,"current_range_meters":8000,"station_id":"ce4bgip2rcd13ifvqbb0","pricing_plan_id":"cebpf4jnsgd1na2vs0mg"},{"bike_id":"3301c6eb-534c-4d3b-a1de-d708d218aeca","system_id":"levelo_inurba_marseille","lat":43.29435,"lon":5.39762,"is_reserved":false,"is_disabled":false,"rental_uris":{"android":"levelo://app?vid=3301c6eb-534c-4d3b-a1de-d708d218aeca","ios":"levelo://app?vid=3301c6eb-534c-4d3b-a1de-d708d218aeca"},"vehicle_type_id":"4","last_reported":1740596843,"current_range_meters":8800,"station_id":"ce4bh3h2rcd13ifvqdo0","pricing_plan_id":"cebpf4jnsgd1na2vs0mg"},{"bike_id":"a18d2462-6430-4fa5-8ce7-637ac348b4cd","system_id":"levelo_inurba_marseille","lat":43.27952,"lon":5.4105,"is_reserved":false,"is_disabled":false,"rental_uris":{"android":"levelo://app?vid=a18d2462-6430-4fa5-8ce7-637ac348b4cd","ios":"levelo://app?vid=a18d2462-6430-4fa5-8ce7-637ac348b4cd"},"vehicle_type_id":"4","last_reported":1740596843,"current_range_meters":8400,"station_id":"ce4bhnp2rcd13ifvqh0g","pricing_plan_id":"cebpf4jnsgd1na2vs0mg"},{"bike_id":"8f4f5c61-91cc-4fd5-85ad-d5b23eff483d","system_id":"levelo_inurba_marseille","lat":43.29481,"lon":5.3623,"is_reserved":false,"is_disabled":false,"rental_uris":{"android":"levelo://app?vid=8f4f5c61-91cc-4fd5-85ad-d5b23eff483d","ios":"levelo://app?vid=8f4f5c61-91cc-4fd5-85ad-d5b23eff483d"},"vehicle_type_id":"4","last_reported":1740596843,"current_range_meters":8400,"station_id":"","pricing_plan_id":"cebpf4jnsgd1na2vs0mg"},{"bike_id":"2f6ddbdc-0fa4-4842-8baf-2e87ca9dfa42","system_id":"levelo_inurba_marseille","lat":43.29941,"lon":5.36552,"is_reserved":false,"is_disabled":false,"rental_uris":{"android":"levelo://app?vid=2f6ddbdc-0fa4-4842-8baf-2e87ca9dfa42","ios":"levelo://app?vid=2f6ddbdc-0fa4-4842-8baf-2e87ca9dfa42"},"vehicle_type_id":"4","last_reported":1740596843,"current_range_meters":6800,"station_id":"ce4bgm92rcd13ifvqbr0","pricing_plan_id":"cebpf4jnsgd1na2vs0mg"},{"bike_id":"b551e8e3-eb59-4697-8148-4eefa8bc2d6d","system_id":"levelo_inurba_marseille","lat":43.24811,"lon":5.37459,"is_reserved":false,"is_disabled":false,"rental_uris":{"android":"levelo://app?vid=b551e8e3-eb59-4697-8148-4eefa8bc2d6d","ios":"levelo://app?vid=b551e8e3-eb59-4697-8148-4eefa8bc2d6d"},"vehicle_type_id":"4","last_reported":1740596843,"current_range_meters":8800,"station_id":"ce4bhgh2rcd13ifvqfb0","pricing_plan_id":"cebpf4jnsgd1na2vs0mg"},{"bike_id":"b485c88b-5199-4312-8048-8fe938b50f44","system_id":"levelo_inurba_marseille","lat":43.29814,"lon":5.38083,"is_reserved":false,"is_disabled":false,"rental_uris":{"android":"levelo://app?vid=b485c88b-5199-4312-8048-8fe938b50f44","ios":"levelo://app?vid=b485c88b-5199-4312-8048-8fe938b50f44"},"vehicle_type_id":"4","last_reported":1740596843,"current_range_meters":8400,"station_id":"ce4bgip2rcd13ifvqbb0","pricing_plan_id":"cebpf4jnsgd1na2vs0mg"},{"bike_id":"6b286004-f086-4023-9675-02a95f8e917b","system_id":"levelo_inurba_marseille","lat":43.30951,"lon":5.39013,"is_reserved":false,"is_disabled":true,"rental_uris":{"android":"levelo://app?vid=6b286004-f086-4023-9675-02a95f8e917b","ios":"levelo://app?vid=6b286004-f086-4023-9675-02a95f8e917b"},"vehicle_type_id":"4","last_reported":1740596843,"current_range_meters":8800,"station_id":"ce4bgup2rcd13ifvqco0","pricing_plan_id":"cebpf4jnsgd1na2vs0mg"},{"bike_id":"b007f058-4163-4bbe-ba13-50835769bd43","system_id":"levelo_inurba_marseille","lat":43.31729,"lon":5.43705,"is_reserved":false,"is_disabled":false,"rental_uris":{"android":"levelo://app?vid=b007f058-4163-4bbe-ba13-50835769bd43","ios":"levelo://app?vid=b007f058-4163-4bbe-ba13-50835769bd43"},"vehicle_type_id":"4","last_reported":1740596843,"current_range_meters":8800,"station_id":"ce4bhp92rcd13ifvqhcg","pricing_plan_id":"cebpf4jnsgd1na2vs0mg"},{"bike_id":"103e7767-94a8-4717-abfe-0eb23dfc1d76","system_id":"levelo_inurba_marseille","lat":43.309437,"lon":5.390352,"is_reserved":false,"is_disabled":false,"rental_uris":{"android":"levelo://app?vid=103e7767-94a8-4717-abfe-0eb23dfc1d76","ios":"levelo://app?vid=103e7767-94a8-4717-abfe-0eb23dfc1d76"},"vehicle_type_id":"4","last_reported":1740596843,"current_range_meters":8800,"station_id":"ce4bgt12rcd13ifvqce0","pricing_plan_id":"cebpf4jnsgd1na2vs0mg"},{"bike_id":"0359693a-5827-4daf-873f-1afeeb73b690","system_id":"levelo_inurba_marseille","lat":43.31319,"lon":5.39691,"is_reserved":false,"is_disabled":false,"rental_uris":{"android":"levelo://app?vid=0359693a-5827-4daf-873f-1afeeb73b690","ios":"levelo://app?vid=0359693a-5827-4daf-873f-1afeeb73b690"},"vehicle_type_id":"4","last_reported":1740596843,"current_range_meters":8800,"station_id":"ce4bgvp2rcd13ifvqcu0","pricing_plan_id":"cebpf4jnsgd1na2vs0mg"},{"bike_id":"d0801915-0de0-4f9d-9726-750b42c06614","system_id":"levelo_inurba_marseille","lat":43.32106,"lon":5.36788,"is_reserved":false,"is_disabled":false,"rental_uris":{"android":"levelo://app?vid=d0801915-0de0-4f9d-9726-750b42c06614","ios":"levelo://app?vid=d0801915-0de0-4f9d-9726-750b42c06614"},"vehicle_type_id":"4","last_reported":1740596843,"current_range_meters":8800,"station_id":"ce4bhrh2rcd13ifvqhug","pricing_plan_id":"cebpf4jnsgd1na2vs0mg"},{"bike_id":"a30a6f95-ae4a-4a9d-a18c-076180543ef2","system_id":"levelo_inurba_marseille","lat":43.28939,"lon":5.36637,"is_reserved":false,"is_disabled":false,"rental_uris":{"android":"levelo://app?vid=a30a6f95-ae4a-4a9d-a18c-076180543ef2","ios":"levelo://app?vid=a30a6f95-ae4a-4a9d-a18c-076180543ef2"},"vehicle_type_id":"4","last_reported":1740596843,"current_range_meters":8800,"station_id":"ce4bhap2rcd13ifvqek0","pricing_plan_id":"cebpf4jnsgd1na2vs0mg"},{"bike_id":"77a08d2f-a885-42fc-a414-be9cd04ca846","system_id":"levelo_inurba_marseille","lat":43.3133,"lon":5.39691,"is_reserved":false,"is_disabled":false,"rental_uris":{"android":"levelo://app?vid=77a08d2f-a885-42fc-a414-be9cd04ca846","ios":"levelo://app?vid=77a08d2f-a885-42fc-a414-be9cd04ca846"},"vehicle_type_id":"4","last_reported":1740596843,"current_range_meters":8800,"station_id":"ce4bgvp2rcd13ifvqcu0","pricing_plan_id":"cebpf4jnsgd1na2vs0mg"},{"bike_id":"719baaea-c293-42a3-a0f8-1e9953de7b58","system_id":"levelo_inurba_marseille","lat":43.26547,"lon":5.38993,"is_reserved":false,"is_disabled":true,"rental_uris":{"android":"levelo://app?vid=719baaea-c293-42a3-a0f8-1e9953de7b58","ios":"levelo://app?vid=719baaea-c293-42a3-a0f8-1e9953de7b58"},"vehicle_type_id":"4","last_reported":1740596843,"current_range_meters":9200,"station_id":"ce4bhe12rcd13ifvqf30","pricing_plan_id":"cebpf4jnsgd1na2vs0mg"},{"bike_id":"57772caa-8ab8-4428-afea-3c045597a429","system_id":"levelo_inurba_marseille","lat":43.30554,"lon":5.38432,"is_reserved":false,"is_disabled":true,"rental_uris":{"android":"levelo://app?vid=57772caa-8ab8-4428-afea-3c045597a429","ios":"levelo://app?vid=57772caa-8ab8-4428-afea-3c045597a429"},"vehicle_type_id":"4","last_reported":1740596843,"current_range_meters":9200,"station_id":"ce4bgg92rcd13ifvqb30","pricing_plan_id":"cebpf4jnsgd1na2vs0mg"},{"bike_id":"65928b5c-d37b-4131-9d88-92a40f510ddb","system_id":"levelo_inurba_marseille","lat":43.28454,"lon":5.35884,"is_reserved":false,"is_disabled":false,"rental_uris":{"android":"levelo://app?vid=65928b5c-d37b-4131-9d88-92a40f510ddb","ios":"levelo://app?vid=65928b5c-d37b-4131-9d88-92a40f510ddb"},"vehicle_type_id":"4","last_reported":1740596843,"current_range_meters":9200,"station_id":"ce4bhah2rcd13ifvqei0","pricing_plan_id":"cebpf4jnsgd1na2vs0mg"},{"bike_id":"3cfd9f15-938e-4847-a1ff-4593aebb65fd","system_id":"levelo_inurba_marseille","lat":43.29032,"lon":5.38645,"is_reserved":false,"is_disabled":false,"rental_uris":{"android":"levelo://app?vid=3cfd9f15-938e-4847-a1ff-4593aebb65fd","ios":"levelo://app?vid=3cfd9f15-938e-4847-a1ff-4593aebb65fd"},"vehicle_type_id":"4","last_reported":1740596843,"current_range_meters":8800,"station_id":"ce4bh4p2rcd13ifvqe0g","pricing_plan_id":"cebpf4jnsgd1na2vs0mg"},{"bike_id":"a4bd1ddf-d844-4469-b770-6284bf059227","system_id":"levelo_inurba_marseille","lat":43.231782,"lon":5.399843,"is_reserved":false,"is_disabled":false,"rental_uris":{"android":"levelo://app?vid=a4bd1ddf-d844-4469-b770-6284bf059227","ios":"levelo://app?vid=a4bd1ddf-d844-4469-b770-6284bf059227"},"vehicle_type_id":"4","last_reported":1740596843,"current_range_meters":9200,"station_id":"ce4bhn12rcd13ifvqgqg","pricing_plan_id":"cebpf4jnsgd1na2vs0mg"},{"bike_id":"e7d4a5ba-3259-4868-80fd-096b5bf62833","system_id":"levelo_inurba_marseille","lat":43.29519,"lon":5.39038,"is_reserved":false,"is_disabled":false,"rental_uris":{"android":"levelo://app?vid=e7d4a5ba-3259-4868-80fd-096b5bf62833","ios":"levelo://app?vid=e7d4a5ba-3259-4868-80fd-096b5bf62833"},"vehicle_type_id":"4","last_reported":1740596843,"current_range_meters":14400,"station_id":"ce4bh3p2rcd13ifvqdp0","pricing_plan_id":"cebpf4jnsgd1na2vs0mg"},{"bike_id":"79aa4cfd-b83b-4f43-9943-1af62973472a","system_id":"levelo_inurba_marseille","lat":43.29966,"lon":5.37174,"is_reserved":false,"is_disabled":false,"rental_uris":{"android":"levelo://app?vid=79aa4cfd-b83b-4f43-9943-1af62973472a","ios":"levelo://app?vid=79aa4cfd-b83b-4f43-9943-1af62973472a"},"vehicle_type_id":"4","last_reported":1740596843,"current_range_meters":9600,"station_id":"ce4bgr92rcd13ifvqc7g","pricing_plan_id":"cebpf4jnsgd1na2vs0mg"},{"bike_id":"ae2472fe-6e33-4854-bf66-0d5772a0bc9a","system_id":"levelo_inurba_marseille","lat":43.30088,"lon":5.39071,"is_reserved":false,"is_disabled":false,"rental_uris":{"android":"levelo://app?vid=ae2472fe-6e33-4854-bf66-0d5772a0bc9a","ios":"levelo://app?vid=ae2472fe-6e33-4854-bf66-0d5772a0bc9a"},"vehicle_type_id":"4","last_reported":1740596843,"current_range_meters":9600,"station_id":"ce4bh192rcd13ifvqdb0","pricing_plan_id":"cebpf4jnsgd1na2vs0mg"},{"bike_id":"b983d621-06d1-4a23-a18d-766fc62bb8c7","system_id":"levelo_inurba_marseille","lat":43.28151,"lon":5.42654,"is_reserved":false,"is_disabled":false,"rental_uris":{"android":"levelo://app?vid=b983d621-06d1-4a23-a18d-766fc62bb8c7","ios":"levelo://app?vid=b983d621-06d1-4a23-a18d-766fc62bb8c7"},"vehicle_type_id":"4","last_reported":1740596843,"current_range_meters":9600,"station_id":"ce4bhnh2rcd13ifvqgug","pricing_plan_id":"cebpf4jnsgd1na2vs0mg"},{"bike_id":"a980f876-2ffa-4a6d-921f-a9246ec9da0c","system_id":"levelo_inurba_marseille","lat":43.29531,"lon":5.39025,"is_reserved":false,"is_disabled":false,"rental_uris":{"android":"levelo://app?vid=a980f876-2ffa-4a6d-921f-a9246ec9da0c","ios":"levelo://app?vid=a980f876-2ffa-4a6d-921f-a9246ec9da0c"},"vehicle_type_id":"4","last_reported":1740596843,"current_range_meters":9200,"station_id":"ce4bh3p2rcd13ifvqdp0","pricing_plan_id":"cebpf4jnsgd1na2vs0mg"},{"bike_id":"f9eed1e4-1895-44e2-8624-cc9551693ed5","system_id":"levelo_inurba_marseille","lat":43.298549,"lon":5.362902,"is_reserved":false,"is_disabled":false,"rental_uris":{"android":"levelo://app?vid=f9eed1e4-1895-44e2-8624-cc9551693ed5","ios":"levelo://app?vid=f9eed1e4-1895-44e2-8624-cc9551693ed5"},"vehicle_type_id":"4","last_reported":1740596843,"current_range_meters":10800,"station_id":"ce4bgpp2rcd13ifvqc3g","pricing_plan_id":"cebpf4jnsgd1na2vs0mg"},{"bike_id":"0b391b15-2c94-45df-907e-b8b814371922","system_id":"levelo_inurba_marseille","lat":43.30931,"lon":5.40147,"is_reserved":false,"is_disabled":false,"rental_uris":{"android":"levelo://app?vid=0b391b15-2c94-45df-907e-b8b814371922","ios":"levelo://app?vid=0b391b15-2c94-45df-907e-b8b814371922"},"vehicle_type_id":"4","last_reported":1740596843,"current_range_meters":10000,"station_id":"ce4bgvp2rcd13ifvqct0","pricing_plan_id":"cebpf4jnsgd1na2vs0mg"},{"bike_id":"1e37517c-7c13-497e-93a6-2c0209fd3d04","system_id":"levelo_inurba_marseille","lat":43.28609,"lon":5.35102,"is_reserved":false,"is_disabled":false,"rental_uris":{"android":"levelo://app?vid=1e37517c-7c13-497e-93a6-2c0209fd3d04","ios":"levelo://app?vid=1e37517c-7c13-497e-93a6-2c0209fd3d04"},"vehicle_type_id":"4","last_reported":1740596843,"current_range_meters":10000,"station_id":"ce4bhch2rcd13ifvqeug","pricing_plan_id":"cebpf4jnsgd1na2vs0mg"},{"bike_id":"8cce3aa1-a459-4f66-9502-e5174022385e","system_id":"levelo_inurba_marseille","lat":43.31066,"lon":5.38385,"is_reserved":false,"is_disabled":false,"rental_uris":{"android":"levelo://app?vid=8cce3aa1-a459-4f66-9502-e5174022385e","ios":"levelo://app?vid=8cce3aa1-a459-4f66-9502-e5174022385e"},"vehicle_type_id":"4","last_reported":1740596843,"current_range_meters":10000,"station_id":"ce4bgv92rcd13ifvqcr0","pricing_plan_id":"cebpf4jnsgd1na2vs0mg"},{"bike_id":"1d70c622-10e8-4a33-8612-a7dc67991c51","system_id":"levelo_inurba_marseille","lat":43.31684,"lon":5.3775,"is_reserved":false,"is_disabled":false,"rental_uris":{"android":"levelo://app?vid=1d70c622-10e8-4a33-8612-a7dc67991c51","ios":"levelo://app?vid=1d70c622-10e8-4a33-8612-a7dc67991c51"},"vehicle_type_id":"4","last_reported":1740596843,"current_range_meters":10000,"station_id":"ce4bgth2rcd13ifvqch0","pricing_plan_id":"cebpf4jnsgd1na2vs0mg"},{"bike_id":"8edd0b7d-13f4-465d-8f34-280de9ecafef","system_id":"levelo_inurba_marseille","lat":43.31062,"lon":5.38367,"is_reserved":false,"is_disabled":false,"rental_uris":{"android":"levelo://app?vid=8edd0b7d-13f4-465d-8f34-280de9ecafef","ios":"levelo://app?vid=8edd0b7d-13f4-465d-8f34-280de9ecafef"},"vehicle_type_id":"4","last_reported":1740596843,"current_range_meters":9600,"station_id":"ce4bgv92rcd13ifvqcr0","pricing_plan_id":"cebpf4jnsgd1na2vs0mg"},{"bike_id":"baa2c279-17fe-41d0-b66a-0bcc988303be","system_id":"levelo_inurba_marseille","lat":43.308424,"lon":5.368385,"is_reserved":false,"is_disabled":false,"rental_uris":{"android":"levelo://app?vid=baa2c279-17fe-41d0-b66a-0bcc988303be","ios":"levelo://app?vid=baa2c279-17fe-41d0-b66a-0bcc988303be"},"vehicle_type_id":"4","last_reported":1740596843,"current_range_meters":8400,"station_id":"ce4bgn92rcd13ifvqbvg","pricing_plan_id":"cebpf4jnsgd1na2vs0mg"},{"bike_id":"52a02ec7-8e0c-4781-ae9b-a63b7edaabaf","system_id":"levelo_inurba_marseille","lat":43.2828,"lon":5.35063,"is_reserved":false,"is_disabled":false,"rental_uris":{"android":"levelo://app?vid=52a02ec7-8e0c-4781-ae9b-a63b7edaabaf","ios":"levelo://app?vid=52a02ec7-8e0c-4781-ae9b-a63b7edaabaf"},"vehicle_type_id":"4","last_reported":1740596843,"current_range_meters":10000,"station_id":"ce4bhbp2rcd13ifvqerg","pricing_plan_id":"cebpf4jnsgd1na2vs0mg"},{"bike_id":"abca7d8c-3ea1-47f9-b791-a0deee4597a3","system_id":"levelo_inurba_marseille","lat":43.28673,"lon":5.38662,"is_reserved":false,"is_disabled":false,"rental_uris":{"android":"levelo://app?vid=abca7d8c-3ea1-47f9-b791-a0deee4597a3","ios":"levelo://app?vid=abca7d8c-3ea1-47f9-b791-a0deee4597a3"},"vehicle_type_id":"4","last_reported":1740596843,"current_range_meters":10000,"station_id":"ce4bh492rcd13ifvqdug","pricing_plan_id":"cebpf4jnsgd1na2vs0mg"},{"bike_id":"f1891932-ee72-4c3d-b59a-e2e00348afea","system_id":"levelo_inurba_marseille","lat":43.29805,"lon":5.38084,"is_reserved":false,"is_disabled":false,"rental_uris":{"android":"levelo://app?vid=f1891932-ee72-4c3d-b59a-e2e00348afea","ios":"levelo://app?vid=f1891932-ee72-4c3d-b59a-e2e00348afea"},"vehicle_type_id":"4","last_reported":1740596843,"current_range_meters":10000,"station_id":"ce4bgip2rcd13ifvqbb0","pricing_plan_id":"cebpf4jnsgd1na2vs0mg"},{"bike_id":"7adec233-a05c-4987-b429-306f302068e8","system_id":"levelo_inurba_marseille","lat":43.29525,"lon":5.39394,"is_reserved":false,"is_disabled":false,"rental_uris":{"android":"levelo://app?vid=7adec233-a05c-4987-b429-306f302068e8","ios":"levelo://app?vid=7adec233-a05c-4987-b429-306f302068e8"},"vehicle_type_id":"4","last_reported":1740596843,"current_range_meters":10800,"station_id":"ce4bh292rcd13ifvqdf0","pricing_plan_id":"cebpf4jnsgd1na2vs0mg"},{"bike_id":"128d9f19-560e-4907-b2b5-99db2fe70c71","system_id":"levelo_inurba_marseille","lat":43.30628,"lon":5.40074,"is_reserved":false,"is_disabled":false,"rental_uris":{"android":"levelo://app?vid=128d9f19-560e-4907-b2b5-99db2fe70c71","ios":"levelo://app?vid=128d9f19-560e-4907-b2b5-99db2fe70c71"},"vehicle_type_id":"4","last_reported":1740596843,"current_range_meters":11200,"station_id":"ce4bh112rcd13ifvqda0","pricing_plan_id":"cebpf4jnsgd1na2vs0mg"},{"bike_id":"3e0c8d38-ca09-486f-9f84-8409d9a9b6f2","system_id":"levelo_inurba_marseille","lat":43.3032,"lon":5.40431,"is_reserved":false,"is_disabled":false,"rental_uris":{"android":"levelo://app?vid=3e0c8d38-ca09-486f-9f84-8409d9a9b6f2","ios":"levelo://app?vid=3e0c8d38-ca09-486f-9f84-8409d9a9b6f2"},"vehicle_type_id":"4","last_reported":1740596843,"current_range_meters":10800,"station_id":"ce4bh012rcd13ifvqd10","pricing_plan_id":"cebpf4jnsgd1na2vs0mg"},{"bike_id":"586d8ac1-9e8d-4b0d-83a6-2887a87a33a2","system_id":"levelo_inurba_marseille","lat":43.28967,"lon":5.37837,"is_reserved":false,"is_disabled":false,"rental_uris":{"android":"levelo://app?vid=586d8ac1-9e8d-4b0d-83a6-2887a87a33a2","ios":"levelo://app?vid=586d8ac1-9e8d-4b0d-83a6-2887a87a33a2"},"vehicle_type_id":"4","last_reported":1740596843,"current_range_meters":10800,"station_id":"ce4bh9p2rcd13ifvqed0","pricing_plan_id":"cebpf4jnsgd1na2vs0mg"},{"bike_id":"a6a11da4-d6cb-4300-9c9e-25f413c63c03","system_id":"levelo_inurba_marseille","lat":43.2857,"lon":5.3949,"is_reserved":false,"is_disabled":false,"rental_uris":{"android":"levelo://app?vid=a6a11da4-d6cb-4300-9c9e-25f413c63c03","ios":"levelo://app?vid=a6a11da4-d6cb-4300-9c9e-25f413c63c03"},"vehicle_type_id":"4","last_reported":1740596843,"current_range_meters":10800,"station_id":"ce4bh292rcd13ifvqdg0","pricing_plan_id":"cebpf4jnsgd1na2vs0mg"},{"bike_id":"1abd4afe-1bf2-4b6f-bdf2-a37a15b66ad8","system_id":"levelo_inurba_marseille","lat":43.26482,"lon":5.3955,"is_reserved":false,"is_disabled":false,"rental_uris":{"android":"levelo://app?vid=1abd4afe-1bf2-4b6f-bdf2-a37a15b66ad8","ios":"levelo://app?vid=1abd4afe-1bf2-4b6f-bdf2-a37a15b66ad8"},"vehicle_type_id":"4","last_reported":1740596843,"current_range_meters":10000,"station_id":"ce4bhi12rcd13ifvqfq0","pricing_plan_id":"cebpf4jnsgd1na2vs0mg"},{"bike_id":"930e8c91-afc8-485c-88c1-5dd6f737e345","system_id":"levelo_inurba_marseille","lat":43.29207,"lon":5.36086,"is_reserved":false,"is_disabled":false,"rental_uris":{"android":"levelo://app?vid=930e8c91-afc8-485c-88c1-5dd6f737e345","ios":"levelo://app?vid=930e8c91-afc8-485c-88c1-5dd6f737e345"},"vehicle_type_id":"4","last_reported":1740596843,"current_range_meters":10800,"station_id":"ce4bhbh2rcd13ifvqeqg","pricing_plan_id":"cebpf4jnsgd1na2vs0mg"},{"bike_id":"cf3a2a66-694b-43ed-962e-05d52beade90","system_id":"levelo_inurba_marseille","lat":43.30539,"lon":5.38422,"is_reserved":false,"is_disabled":false,"rental_uris":{"android":"levelo://app?vid=cf3a2a66-694b-43ed-962e-05d52beade90","ios":"levelo://app?vid=cf3a2a66-694b-43ed-962e-05d52beade90"},"vehicle_type_id":"4","last_reported":1740596843,"current_range_meters":10000,"station_id":"ce4bgg92rcd13ifvqb30","pricing_plan_id":"cebpf4jnsgd1na2vs0mg"},{"bike_id":"6b4f55f7-04de-49c0-bd50-a3ecceed8b7d","system_id":"levelo_inurba_marseille","lat":43.29192,"lon":5.39333,"is_reserved":false,"is_disabled":false,"rental_uris":{"android":"levelo://app?vid=6b4f55f7-04de-49c0-bd50-a3ecceed8b7d","ios":"levelo://app?vid=6b4f55f7-04de-49c0-bd50-a3ecceed8b7d"},"vehicle_type_id":"4","last_reported":1740596843,"current_range_meters":10800,"station_id":"ce4bh192rcd13ifvqdd0","pricing_plan_id":"cebpf4jnsgd1na2vs0mg"},{"bike_id":"1690cf1f-489e-42fe-b2b4-7448c418d56d","system_id":"levelo_inurba_marseille","lat":43.31994,"lon":5.38158,"is_reserved":false,"is_disabled":false,"rental_uris":{"android":"levelo://app?vid=1690cf1f-489e-42fe-b2b4-7448c418d56d","ios":"levelo://app?vid=1690cf1f-489e-42fe-b2b4-7448c418d56d"},"vehicle_type_id":"4","last_reported":1740596843,"current_range_meters":11200,"station_id":"ce4bhr12rcd13ifvqhpg","pricing_plan_id":"cebpf4jnsgd1na2vs0mg"},{"bike_id":"53f6206c-2750-42e7-a8f3-9533b6f35c4a","system_id":"levelo_inurba_marseille","lat":43.28618,"lon":5.351,"is_reserved":false,"is_disabled":false,"rental_uris":{"android":"levelo://app?vid=53f6206c-2750-42e7-a8f3-9533b6f35c4a","ios":"levelo://app?vid=53f6206c-2750-42e7-a8f3-9533b6f35c4a"},"vehicle_type_id":"4","last_reported":1740596843,"current_range_meters":10800,"station_id":"ce4bhch2rcd13ifvqeug","pricing_plan_id":"cebpf4jnsgd1na2vs0mg"},{"bike_id":"7a456b4d-e0f7-46e8-8600-1845f9e1a876","system_id":"levelo_inurba_marseille","lat":43.300826,"lon":5.390845,"is_reserved":false,"is_disabled":false,"rental_uris":{"android":"levelo://app?vid=7a456b4d-e0f7-46e8-8600-1845f9e1a876","ios":"levelo://app?vid=7a456b4d-e0f7-46e8-8600-1845f9e1a876"},"vehicle_type_id":"4","last_reported":1740596843,"current_range_meters":11200,"station_id":"ce4bh0h2rcd13ifvqd60","pricing_plan_id":"cebpf4jnsgd1na2vs0mg"},{"bike_id":"9ee05a79-6ed0-471b-8dcb-b288b1c46214","system_id":"levelo_inurba_marseille","lat":43.29194,"lon":5.39323,"is_reserved":false,"is_disabled":false,"rental_uris":{"android":"levelo://app?vid=9ee05a79-6ed0-471b-8dcb-b288b1c46214","ios":"levelo://app?vid=9ee05a79-6ed0-471b-8dcb-b288b1c46214"},"vehicle_type_id":"4","last_reported":1740596843,"current_range_meters":10800,"station_id":"ce4bh192rcd13ifvqdd0","pricing_plan_id":"cebpf4jnsgd1na2vs0mg"},{"bike_id":"aa1c1254-8b09-4cc6-908c-bacac335dd0d","system_id":"levelo_inurba_marseille","lat":43.24065,"lon":5.37735,"is_reserved":false,"is_disabled":false,"rental_uris":{"android":"levelo://app?vid=aa1c1254-8b09-4cc6-908c-bacac335dd0d","ios":"levelo://app?vid=aa1c1254-8b09-4cc6-908c-bacac335dd0d"},"vehicle_type_id":"4","last_reported":1740596843,"current_range_meters":11600,"station_id":"ce4bhnp2rcd13ifvqgvg","pricing_plan_id":"cebpf4jnsgd1na2vs0mg"},{"bike_id":"b156e998-d6d4-4844-95a7-fdc37eed401c","system_id":"levelo_inurba_marseille","lat":43.28422,"lon":5.34985,"is_reserved":false,"is_disabled":false,"rental_uris":{"android":"levelo://app?vid=b156e998-d6d4-4844-95a7-fdc37eed401c","ios":"levelo://app?vid=b156e998-d6d4-4844-95a7-fdc37eed401c"},"vehicle_type_id":"4","last_reported":1740596843,"current_range_meters":11600,"station_id":"ce4bhbh2rcd13ifvqepg","pricing_plan_id":"cebpf4jnsgd1na2vs0mg"},{"bike_id":"ad3f0595-a3c5-4dd3-86fa-bd940d0dc018","system_id":"levelo_inurba_marseille","lat":43.28676,"lon":5.38668,"is_reserved":false,"is_disabled":false,"rental_uris":{"android":"levelo://app?vid=ad3f0595-a3c5-4dd3-86fa-bd940d0dc018","ios":"levelo://app?vid=ad3f0595-a3c5-4dd3-86fa-bd940d0dc018"},"vehicle_type_id":"4","last_reported":1740596843,"current_range_meters":11600,"station_id":"ce4bh492rcd13ifvqdug","pricing_plan_id":"cebpf4jnsgd1na2vs0mg"},{"bike_id":"05629728-4378-474b-b55c-c9744731a724","system_id":"levelo_inurba_marseille","lat":43.2918,"lon":5.37159,"is_reserved":false,"is_disabled":false,"rental_uris":{"android":"levelo://app?vid=05629728-4378-474b-b55c-c9744731a724","ios":"levelo://app?vid=05629728-4378-474b-b55c-c9744731a724"},"vehicle_type_id":"4","last_reported":1740596843,"current_range_meters":10800,"station_id":"ce4bha92rcd13ifvqeh0","pricing_plan_id":"cebpf4jnsgd1na2vs0mg"},{"bike_id":"0a64e61f-897c-4815-820c-abd46ad90ec9","system_id":"levelo_inurba_marseille","lat":43.29596,"lon":5.36744,"is_reserved":false,"is_disabled":false,"rental_uris":{"android":"levelo://app?vid=0a64e61f-897c-4815-820c-abd46ad90ec9","ios":"levelo://app?vid=0a64e61f-897c-4815-820c-abd46ad90ec9"},"vehicle_type_id":"4","last_reported":1740596843,"current_range_meters":11600,"station_id":"ce4bgph2rcd13ifvqc2g","pricing_plan_id":"cebpf4jnsgd1na2vs0mg"},{"bike_id":"7b33f413-8f08-43ef-9261-24eef4ff1549","system_id":"levelo_inurba_marseille","lat":43.23964,"lon":5.36635,"is_reserved":false,"is_disabled":false,"rental_uris":{"android":"levelo://app?vid=7b33f413-8f08-43ef-9261-24eef4ff1549","ios":"levelo://app?vid=7b33f413-8f08-43ef-9261-24eef4ff1549"},"vehicle_type_id":"4","last_reported":1740596843,"current_range_meters":11600,"station_id":"ce4bhi12rcd13ifvqfp0","pricing_plan_id":"cebpf4jnsgd1na2vs0mg"},{"bike_id":"917955dd-09f7-45db-84c4-787660184907","system_id":"levelo_inurba_marseille","lat":43.287052,"lon":5.399934,"is_reserved":false,"is_disabled":false,"rental_uris":{"android":"levelo://app?vid=917955dd-09f7-45db-84c4-787660184907","ios":"levelo://app?vid=917955dd-09f7-45db-84c4-787660184907"},"vehicle_type_id":"4","last_reported":1740596843,"current_range_meters":11600,"station_id":"ce4bh4p2rcd13ifvqe0g","pricing_plan_id":"cebpf4jnsgd1na2vs0mg"},{"bike_id":"240631fb-e1ef-49c9-bf78-176ba3465e14","system_id":"levelo_inurba_marseille","lat":43.28842,"lon":5.35833,"is_reserved":false,"is_disabled":false,"rental_uris":{"android":"levelo://app?vid=240631fb-e1ef-49c9-bf78-176ba3465e14","ios":"levelo://app?vid=240631fb-e1ef-49c9-bf78-176ba3465e14"},"vehicle_type_id":"4","last_reported":1740596843,"current_range_meters":12800,"station_id":"ce4bhb12rcd13ifvqem0","pricing_plan_id":"cebpf4jnsgd1na2vs0mg"},{"bike_id":"75767fb6-7cad-433e-8485-84379101068b","system_id":"levelo_inurba_marseille","lat":43.30432,"lon":5.39751,"is_reserved":false,"is_disabled":false,"rental_uris":{"android":"levelo://app?vid=75767fb6-7cad-433e-8485-84379101068b","ios":"levelo://app?vid=75767fb6-7cad-433e-8485-84379101068b"},"vehicle_type_id":"4","last_reported":1740596843,"current_range_meters":11600,"station_id":"ce4bh092rcd13ifvqd20","pricing_plan_id":"cebpf4jnsgd1na2vs0mg"},{"bike_id":"1d603e55-5939-499f-95ae-55d30c9c2364","system_id":"levelo_inurba_marseille","lat":43.28153,"lon":5.42648,"is_reserved":false,"is_disabled":false,"rental_uris":{"android":"levelo://app?vid=1d603e55-5939-499f-95ae-55d30c9c2364","ios":"levelo://app?vid=1d603e55-5939-499f-95ae-55d30c9c2364"},"vehicle_type_id":"4","last_reported":1740596843,"current_range_meters":12000,"station_id":"ce4bhnh2rcd13ifvqgug","pricing_plan_id":"cebpf4jnsgd1na2vs0mg"},{"bike_id":"ad9571bc-5194-4f71-90ef-f1cb0835f36e","system_id":"levelo_inurba_marseille","lat":43.25481,"lon":5.37671,"is_reserved":false,"is_disabled":false,"rental_uris":{"android":"levelo://app?vid=ad9571bc-5194-4f71-90ef-f1cb0835f36e","ios":"levelo://app?vid=ad9571bc-5194-4f71-90ef-f1cb0835f36e"},"vehicle_type_id":"4","last_reported":1740596843,"current_range_meters":12000,"station_id":"ce4bhh12rcd13ifvqff0","pricing_plan_id":"cebpf4jnsgd1na2vs0mg"},{"bike_id":"a7791d15-770e-4fea-a2f7-660eb501014c","system_id":"levelo_inurba_marseille","lat":43.283988,"lon":5.375203,"is_reserved":false,"is_disabled":false,"rental_uris":{"android":"levelo://app?vid=a7791d15-770e-4fea-a2f7-660eb501014c","ios":"levelo://app?vid=a7791d15-770e-4fea-a2f7-660eb501014c"},"vehicle_type_id":"4","last_reported":1740596843,"current_range_meters":12000,"station_id":"ce4bgup2rcd13ifvqcn0","pricing_plan_id":"cebpf4jnsgd1na2vs0mg"},{"bike_id":"4a55367e-93a4-4ad3-bcb1-42567a1393b2","system_id":"levelo_inurba_marseille","lat":43.29225,"lon":5.36069,"is_reserved":false,"is_disabled":false,"rental_uris":{"android":"levelo://app?vid=4a55367e-93a4-4ad3-bcb1-42567a1393b2","ios":"levelo://app?vid=4a55367e-93a4-4ad3-bcb1-42567a1393b2"},"vehicle_type_id":"4","last_reported":1740596843,"current_range_meters":12000,"station_id":"ce4bhbh2rcd13ifvqeqg","pricing_plan_id":"cebpf4jnsgd1na2vs0mg"},{"bike_id":"a37edf90-cb31-497f-8d6e-762511ef38f4","system_id":"levelo_inurba_marseille","lat":43.27994,"lon":5.41659,"is_reserved":false,"is_disabled":false,"rental_uris":{"android":"levelo://app?vid=a37edf90-cb31-497f-8d6e-762511ef38f4","ios":"levelo://app?vid=a37edf90-cb31-497f-8d6e-762511ef38f4"},"vehicle_type_id":"4","last_reported":1740596843,"current_range_meters":12400,"station_id":"ce4bho12rcd13ifvqh1g","pricing_plan_id":"cebpf4jnsgd1na2vs0mg"},{"bike_id":"f66913d8-adc8-4497-b81a-8613461ae8a9","system_id":"levelo_inurba_marseille","lat":43.28422,"lon":5.34999,"is_reserved":false,"is_disabled":false,"rental_uris":{"android":"levelo://app?vid=f66913d8-adc8-4497-b81a-8613461ae8a9","ios":"levelo://app?vid=f66913d8-adc8-4497-b81a-8613461ae8a9"},"vehicle_type_id":"4","last_reported":1740596843,"current_range_meters":12400,"station_id":"ce4bhbh2rcd13ifvqepg","pricing_plan_id":"cebpf4jnsgd1na2vs0mg"},{"bike_id":"10a65734-1504-4a2a-96f8-fdff708d2a5b","system_id":"levelo_inurba_marseille","lat":43.31074,"lon":5.38344,"is_reserved":false,"is_disabled":false,"rental_uris":{"android":"levelo://app?vid=10a65734-1504-4a2a-96f8-fdff708d2a5b","ios":"levelo://app?vid=10a65734-1504-4a2a-96f8-fdff708d2a5b"},"vehicle_type_id":"4","last_reported":1740596843,"current_range_meters":12400,"station_id":"ce4bgv92rcd13ifvqcr0","pricing_plan_id":"cebpf4jnsgd1na2vs0mg"},{"bike_id":"620faf8f-9860-4e84-b6cd-4559a0b9a89c","system_id":"levelo_inurba_marseille","lat":43.32461,"lon":5.36518,"is_reserved":false,"is_disabled":false,"rental_uris":{"android":"levelo://app?vid=620faf8f-9860-4e84-b6cd-4559a0b9a89c","ios":"levelo://app?vid=620faf8f-9860-4e84-b6cd-4559a0b9a89c"},"vehicle_type_id":"4","last_reported":1740596843,"current_range_meters":12800,"station_id":"ce4bhs12rcd13ifvqhvg","pricing_plan_id":"cebpf4jnsgd1na2vs0mg"},{"bike_id":"46dfa746-ce50-4000-8117-251275b614cc","system_id":"levelo_inurba_marseille","lat":43.24806,"lon":5.37452,"is_reserved":false,"is_disabled":false,"rental_uris":{"android":"levelo://app?vid=46dfa746-ce50-4000-8117-251275b614cc","ios":"levelo://app?vid=46dfa746-ce50-4000-8117-251275b614cc"},"vehicle_type_id":"4","last_reported":1740596843,"current_range_meters":12000,"station_id":"ce4bhgh2rcd13ifvqfb0","pricing_plan_id":"cebpf4jnsgd1na2vs0mg"},{"bike_id":"c78cf680-290d-4aff-8c35-9bb0c0d0f61d","system_id":"levelo_inurba_marseille","lat":43.302,"lon":5.39746,"is_reserved":false,"is_disabled":false,"rental_uris":{"android":"levelo://app?vid=c78cf680-290d-4aff-8c35-9bb0c0d0f61d","ios":"levelo://app?vid=c78cf680-290d-4aff-8c35-9bb0c0d0f61d"},"vehicle_type_id":"4","last_reported":1740596843,"current_range_meters":12800,"station_id":"","pricing_plan_id":"cebpf4jnsgd1na2vs0mg"},{"bike_id":"e2231c40-4e68-4e65-8d31-9d3b67df341a","system_id":"levelo_inurba_marseille","lat":43.25493,"lon":5.37644,"is_reserved":false,"is_disabled":false,"rental_uris":{"android":"levelo://app?vid=e2231c40-4e68-4e65-8d31-9d3b67df341a","ios":"levelo://app?vid=e2231c40-4e68-4e65-8d31-9d3b67df341a"},"vehicle_type_id":"4","last_reported":1740596843,"current_range_meters":12800,"station_id":"ce4bhh12rcd13ifvqff0","pricing_plan_id":"cebpf4jnsgd1na2vs0mg"},{"bike_id":"4b599a93-bde4-4061-a748-ffe922f168dd","system_id":"levelo_inurba_marseille","lat":43.248,"lon":5.37456,"is_reserved":false,"is_disabled":false,"rental_uris":{"android":"levelo://app?vid=4b599a93-bde4-4061-a748-ffe922f168dd","ios":"levelo://app?vid=4b599a93-bde4-4061-a748-ffe922f168dd"},"vehicle_type_id":"4","last_reported":1740596843,"current_range_meters":12400,"station_id":"ce4bhgh2rcd13ifvqfb0","pricing_plan_id":"cebpf4jnsgd1na2vs0mg"},{"bike_id":"f18c632a-d158-4155-9675-d3c5ff19ae33","system_id":"levelo_inurba_marseille","lat":43.25501,"lon":5.37652,"is_reserved":false,"is_disabled":false,"rental_uris":{"android":"levelo://app?vid=f18c632a-d158-4155-9675-d3c5ff19ae33","ios":"levelo://app?vid=f18c632a-d158-4155-9675-d3c5ff19ae33"},"vehicle_type_id":"4","last_reported":1740596843,"current_range_meters":13600,"station_id":"ce4bhh12rcd13ifvqff0","pricing_plan_id":"cebpf4jnsgd1na2vs0mg"},{"bike_id":"1e470ad4-a87b-455e-9d2e-cc2e43eacf64","system_id":"levelo_inurba_marseille","lat":43.3133,"lon":5.39693,"is_reserved":false,"is_disabled":false,"rental_uris":{"android":"levelo://app?vid=1e470ad4-a87b-455e-9d2e-cc2e43eacf64","ios":"levelo://app?vid=1e470ad4-a87b-455e-9d2e-cc2e43eacf64"},"vehicle_type_id":"4","last_reported":1740596843,"current_range_meters":13600,"station_id":"ce4bgvp2rcd13ifvqcu0","pricing_plan_id":"cebpf4jnsgd1na2vs0mg"},{"bike_id":"a174960f-e62f-4ca1-9f09-8ebe6163463e","system_id":"levelo_inurba_marseille","lat":43.31166,"lon":5.38727,"is_reserved":false,"is_disabled":false,"rental_uris":{"android":"levelo://app?vid=a174960f-e62f-4ca1-9f09-8ebe6163463e","ios":"levelo://app?vid=a174960f-e62f-4ca1-9f09-8ebe6163463e"},"vehicle_type_id":"4","last_reported":1740596843,"current_range_meters":14000,"station_id":"ce4bgv12rcd13ifvqcp0","pricing_plan_id":"cebpf4jnsgd1na2vs0mg"},{"bike_id":"e704f231-9b5e-4c8d-8da2-a51d08c16d62","system_id":"levelo_inurba_marseille","lat":43.27582,"lon":5.38418,"is_reserved":false,"is_disabled":false,"rental_uris":{"android":"levelo://app?vid=e704f231-9b5e-4c8d-8da2-a51d08c16d62","ios":"levelo://app?vid=e704f231-9b5e-4c8d-8da2-a51d08c16d62"},"vehicle_type_id":"4","last_reported":1740596843,"current_range_meters":12400,"station_id":"ce4bhh92rcd13ifvqfi0","pricing_plan_id":"cebpf4jnsgd1na2vs0mg"},{"bike_id":"aaa4647b-0ecd-446b-8a0c-03275736a0cb","system_id":"levelo_inurba_marseille","lat":43.25577,"lon":5.38242,"is_reserved":false,"is_disabled":false,"rental_uris":{"android":"levelo://app?vid=aaa4647b-0ecd-446b-8a0c-03275736a0cb","ios":"levelo://app?vid=aaa4647b-0ecd-446b-8a0c-03275736a0cb"},"vehicle_type_id":"4","last_reported":1740596843,"current_range_meters":12800,"station_id":"ce4bhih2rcd13ifvqfs0","pricing_plan_id":"cebpf4jnsgd1na2vs0mg"},{"bike_id":"19e4983d-b74d-4524-9c14-80fb6905f947","system_id":"levelo_inurba_marseille","lat":43.32088,"lon":5.36786,"is_reserved":false,"is_disabled":false,"rental_uris":{"android":"levelo://app?vid=19e4983d-b74d-4524-9c14-80fb6905f947","ios":"levelo://app?vid=19e4983d-b74d-4524-9c14-80fb6905f947"},"vehicle_type_id":"4","last_reported":1740596843,"current_range_meters":12800,"station_id":"ce4bhrh2rcd13ifvqhug","pricing_plan_id":"cebpf4jnsgd1na2vs0mg"},{"bike_id":"f880cf5f-afc1-4af6-bd0b-ad992535beb9","system_id":"levelo_inurba_marseille","lat":43.29258,"lon":5.38438,"is_reserved":false,"is_disabled":false,"rental_uris":{"android":"levelo://app?vid=f880cf5f-afc1-4af6-bd0b-ad992535beb9","ios":"levelo://app?vid=f880cf5f-afc1-4af6-bd0b-ad992535beb9"},"vehicle_type_id":"4","last_reported":1740596843,"current_range_meters":12800,"station_id":"ce4bh692rcd13ifvqea0","pricing_plan_id":"cebpf4jnsgd1na2vs0mg"},{"bike_id":"a29c9bb4-893c-4806-a38d-fe3bd2f5a3e1","system_id":"levelo_inurba_marseille","lat":43.30767,"lon":5.37656,"is_reserved":false,"is_disabled":false,"rental_uris":{"android":"levelo://app?vid=a29c9bb4-893c-4806-a38d-fe3bd2f5a3e1","ios":"levelo://app?vid=a29c9bb4-893c-4806-a38d-fe3bd2f5a3e1"},"vehicle_type_id":"4","last_reported":1740596843,"current_range_meters":13600,"station_id":"ce4bgv92rcd13ifvqcq0","pricing_plan_id":"cebpf4jnsgd1na2vs0mg"},{"bike_id":"0fe73288-2a9e-45dd-a7fd-796e3cdd5bff","system_id":"levelo_inurba_marseille","lat":43.28435,"lon":5.39201,"is_reserved":false,"is_disabled":false,"rental_uris":{"android":"levelo://app?vid=0fe73288-2a9e-45dd-a7fd-796e3cdd5bff","ios":"levelo://app?vid=0fe73288-2a9e-45dd-a7fd-796e3cdd5bff"},"vehicle_type_id":"4","last_reported":1740596843,"current_range_meters":14000,"station_id":"ce4bhoh2rcd13ifvqh5g","pricing_plan_id":"cebpf4jnsgd1na2vs0mg"},{"bike_id":"6dc88e73-97dc-4b15-8e32-e586f9e799e6","system_id":"levelo_inurba_marseille","lat":43.31119,"lon":5.37771,"is_reserved":false,"is_disabled":false,"rental_uris":{"android":"levelo://app?vid=6dc88e73-97dc-4b15-8e32-e586f9e799e6","ios":"levelo://app?vid=6dc88e73-97dc-4b15-8e32-e586f9e799e6"},"vehicle_type_id":"4","last_reported":1740596843,"current_range_meters":13600,"station_id":"ce4bgt92rcd13ifvqcg0","pricing_plan_id":"cebpf4jnsgd1na2vs0mg"},{"bike_id":"d905ca0c-c944-4730-94c6-4871cc7ae277","system_id":"levelo_inurba_marseille","lat":43.28412,"lon":5.3752,"is_reserved":false,"is_disabled":false,"rental_uris":{"android":"levelo://app?vid=d905ca0c-c944-4730-94c6-4871cc7ae277","ios":"levelo://app?vid=d905ca0c-c944-4730-94c6-4871cc7ae277"},"vehicle_type_id":"4","last_reported":1740596843,"current_range_meters":13600,"station_id":"ce4bh412rcd13ifvqds0","pricing_plan_id":"cebpf4jnsgd1na2vs0mg"},{"bike_id":"be9f4736-cfe5-4287-a414-82ada4503adf","system_id":"levelo_inurba_marseille","lat":43.28001,"lon":5.4166,"is_reserved":false,"is_disabled":false,"rental_uris":{"android":"levelo://app?vid=be9f4736-cfe5-4287-a414-82ada4503adf","ios":"levelo://app?vid=be9f4736-cfe5-4287-a414-82ada4503adf"},"vehicle_type_id":"4","last_reported":1740596843,"current_range_meters":12800,"station_id":"ce4bho12rcd13ifvqh1g","pricing_plan_id":"cebpf4jnsgd1na2vs0mg"},{"bike_id":"680b7a18-b853-470e-a2dd-866b442e7cdb","system_id":"levelo_inurba_marseille","lat":43.2809,"lon":5.39651,"is_reserved":false,"is_disabled":false,"rental_uris":{"android":"levelo://app?vid=680b7a18-b853-470e-a2dd-866b442e7cdb","ios":"levelo://app?vid=680b7a18-b853-470e-a2dd-866b442e7cdb"},"vehicle_type_id":"4","last_reported":1740596843,"current_range_meters":13600,"station_id":"ce4bho12rcd13ifvqh2g","pricing_plan_id":"cebpf4jnsgd1na2vs0mg"},{"bike_id":"17973595-0627-4cbe-be09-6d52168568c1","system_id":"levelo_inurba_marseille","lat":43.27797,"lon":5.40723,"is_reserved":false,"is_disabled":false,"rental_uris":{"android":"levelo://app?vid=17973595-0627-4cbe-be09-6d52168568c1","ios":"levelo://app?vid=17973595-0627-4cbe-be09-6d52168568c1"},"vehicle_type_id":"4","last_reported":1740596843,"current_range_meters":14000,"station_id":"ce4bhnh2rcd13ifvqgtg","pricing_plan_id":"cebpf4jnsgd1na2vs0mg"},{"bike_id":"e04a9f8f-606b-4134-9126-5302efad29d1","system_id":"levelo_inurba_marseille","lat":43.29177,"lon":5.35804,"is_reserved":false,"is_disabled":false,"rental_uris":{"android":"levelo://app?vid=e04a9f8f-606b-4134-9126-5302efad29d1","ios":"levelo://app?vid=e04a9f8f-606b-4134-9126-5302efad29d1"},"vehicle_type_id":"4","last_reported":1740596843,"current_range_meters":13600,"station_id":"ce4bhb12rcd13ifvqel0","pricing_plan_id":"cebpf4jnsgd1na2vs0mg"},{"bike_id":"0928dd8c-9aac-472c-9f91-5ac6b9941f43","system_id":"levelo_inurba_marseille","lat":43.31718,"lon":5.40495,"is_reserved":false,"is_disabled":false,"rental_uris":{"android":"levelo://app?vid=0928dd8c-9aac-472c-9f91-5ac6b9941f43","ios":"levelo://app?vid=0928dd8c-9aac-472c-9f91-5ac6b9941f43"},"vehicle_type_id":"4","last_reported":1740596843,"current_range_meters":13600,"station_id":"ce4bh012rcd13ifvqd00","pricing_plan_id":"cebpf4jnsgd1na2vs0mg"},{"bike_id":"7266af47-e9f0-4e43-bba1-095ebf3818bf","system_id":"levelo_inurba_marseille","lat":43.25083,"lon":5.39543,"is_reserved":false,"is_disabled":false,"rental_uris":{"android":"levelo://app?vid=7266af47-e9f0-4e43-bba1-095ebf3818bf","ios":"levelo://app?vid=7266af47-e9f0-4e43-bba1-095ebf3818bf"},"vehicle_type_id":"4","last_reported":1740596843,"current_range_meters":13600,"station_id":"ce4bhm12rcd13ifvqgkg","pricing_plan_id":"cebpf4jnsgd1na2vs0mg"},{"bike_id":"d2866b1f-1d60-4373-aa23-4e2dbf509e22","system_id":"levelo_inurba_marseille","lat":43.28933,"lon":5.3664,"is_reserved":false,"is_disabled":false,"rental_uris":{"android":"levelo://app?vid=d2866b1f-1d60-4373-aa23-4e2dbf509e22","ios":"levelo://app?vid=d2866b1f-1d60-4373-aa23-4e2dbf509e22"},"vehicle_type_id":"4","last_reported":1740596843,"current_range_meters":12000,"station_id":"ce4bhap2rcd13ifvqek0","pricing_plan_id":"cebpf4jnsgd1na2vs0mg"},{"bike_id":"9ea15ae9-9c11-486a-bb35-d4dcef991c05","system_id":"levelo_inurba_marseille","lat":43.28627,"lon":5.35133,"is_reserved":false,"is_disabled":false,"rental_uris":{"android":"levelo://app?vid=9ea15ae9-9c11-486a-bb35-d4dcef991c05","ios":"levelo://app?vid=9ea15ae9-9c11-486a-bb35-d4dcef991c05"},"vehicle_type_id":"4","last_reported":1740596843,"current_range_meters":14000,"station_id":"ce4bhch2rcd13ifvqeug","pricing_plan_id":"cebpf4jnsgd1na2vs0mg"},{"bike_id":"5a15810c-0011-4f4f-a987-c1620c46a0ec","system_id":"levelo_inurba_marseille","lat":43.255785,"lon":5.382385,"is_reserved":false,"is_disabled":false,"rental_uris":{"android":"levelo://app?vid=5a15810c-0011-4f4f-a987-c1620c46a0ec","ios":"levelo://app?vid=5a15810c-0011-4f4f-a987-c1620c46a0ec"},"vehicle_type_id":"4","last_reported":1740596843,"current_range_meters":12800,"station_id":"ce4bhih2rcd13ifvqfs0","pricing_plan_id":"cebpf4jnsgd1na2vs0mg"},{"bike_id":"311bbbec-2310-4fc7-b8e2-13aed7350868","system_id":"levelo_inurba_marseille","lat":43.31682,"lon":5.4048,"is_reserved":false,"is_disabled":false,"rental_uris":{"android":"levelo://app?vid=311bbbec-2310-4fc7-b8e2-13aed7350868","ios":"levelo://app?vid=311bbbec-2310-4fc7-b8e2-13aed7350868"},"vehicle_type_id":"4","last_reported":1740596843,"current_range_meters":10000,"station_id":"ce4bh012rcd13ifvqd00","pricing_plan_id":"cebpf4jnsgd1na2vs0mg"},{"bike_id":"3a521ef0-66dc-438e-9f1d-8efbfceb9336","system_id":"levelo_inurba_marseille","lat":43.29569,"lon":5.39972,"is_reserved":false,"is_disabled":false,"rental_uris":{"android":"levelo://app?vid=3a521ef0-66dc-438e-9f1d-8efbfceb9336","ios":"levelo://app?vid=3a521ef0-66dc-438e-9f1d-8efbfceb9336"},"vehicle_type_id":"4","last_reported":1740596843,"current_range_meters":14400,"station_id":"ce4bh312rcd13ifvqdj0","pricing_plan_id":"cebpf4jnsgd1na2vs0mg"},{"bike_id":"91f909e9-358e-43ed-a45f-822af931a978","system_id":"levelo_inurba_marseille","lat":43.23223,"lon":5.40377,"is_reserved":false,"is_disabled":false,"rental_uris":{"android":"levelo://app?vid=91f909e9-358e-43ed-a45f-822af931a978","ios":"levelo://app?vid=91f909e9-358e-43ed-a45f-822af931a978"},"vehicle_type_id":"4","last_reported":1740596843,"current_range_meters":14800,"station_id":"","pricing_plan_id":"cebpf4jnsgd1na2vs0mg"},{"bike_id":"456b8714-91fc-4615-8bc0-bd0a8393dbdd","system_id":"levelo_inurba_marseille","lat":43.28838,"lon":5.39316,"is_reserved":false,"is_disabled":false,"rental_uris":{"android":"levelo://app?vid=456b8714-91fc-4615-8bc0-bd0a8393dbdd","ios":"levelo://app?vid=456b8714-91fc-4615-8bc0-bd0a8393dbdd"},"vehicle_type_id":"4","last_reported":1740596843,"current_range_meters":14400,"station_id":"ce4bh2p2rcd13ifvqdi0","pricing_plan_id":"cebpf4jnsgd1na2vs0mg"},{"bike_id":"ad1b3e6c-337f-47ad-b2e2-f6f1229b68df","system_id":"levelo_inurba_marseille","lat":43.29529,"lon":5.37506,"is_reserved":false,"is_disabled":false,"rental_uris":{"android":"levelo://app?vid=ad1b3e6c-337f-47ad-b2e2-f6f1229b68df","ios":"levelo://app?vid=ad1b3e6c-337f-47ad-b2e2-f6f1229b68df"},"vehicle_type_id":"4","last_reported":1740596843,"current_range_meters":14000,"station_id":"ce4bgkp2rcd13ifvqbmg","pricing_plan_id":"cebpf4jnsgd1na2vs0mg"},{"bike_id":"17f4d80a-1474-40a7-8fb0-00bdaf513420","system_id":"levelo_inurba_marseille","lat":43.28109,"lon":5.37835,"is_reserved":false,"is_disabled":false,"rental_uris":{"android":"levelo://app?vid=17f4d80a-1474-40a7-8fb0-00bdaf513420","ios":"levelo://app?vid=17f4d80a-1474-40a7-8fb0-00bdaf513420"},"vehicle_type_id":"4","last_reported":1740596843,"current_range_meters":14400,"station_id":"ce4bha12rcd13ifvqee0","pricing_plan_id":"cebpf4jnsgd1na2vs0mg"},{"bike_id":"12233c19-4786-43c7-b87e-c054ec841669","system_id":"levelo_inurba_marseille","lat":43.28404,"lon":5.37511,"is_reserved":false,"is_disabled":false,"rental_uris":{"android":"levelo://app?vid=12233c19-4786-43c7-b87e-c054ec841669","ios":"levelo://app?vid=12233c19-4786-43c7-b87e-c054ec841669"},"vehicle_type_id":"4","last_reported":1740596843,"current_range_meters":13600,"station_id":"ce4bh412rcd13ifvqds0","pricing_plan_id":"cebpf4jnsgd1na2vs0mg"},{"bike_id":"9c572383-fe24-4145-9e18-e1a048098526","system_id":"levelo_inurba_marseille","lat":43.31321,"lon":5.39686,"is_reserved":false,"is_disabled":false,"rental_uris":{"android":"levelo://app?vid=9c572383-fe24-4145-9e18-e1a048098526","ios":"levelo://app?vid=9c572383-fe24-4145-9e18-e1a048098526"},"vehicle_type_id":"4","last_reported":1740596843,"current_range_meters":14000,"station_id":"ce4bgvp2rcd13ifvqcu0","pricing_plan_id":"cebpf4jnsgd1na2vs0mg"},{"bike_id":"2542ae8c-3486-484c-9849-2c11a9a59b73","system_id":"levelo_inurba_marseille","lat":43.29908,"lon":5.38143,"is_reserved":false,"is_disabled":false,"rental_uris":{"android":"levelo://app?vid=2542ae8c-3486-484c-9849-2c11a9a59b73","ios":"levelo://app?vid=2542ae8c-3486-484c-9849-2c11a9a59b73"},"vehicle_type_id":"4","last_reported":1740596843,"current_range_meters":14800,"station_id":"ce4bgj12rcd13ifvqbc0","pricing_plan_id":"cebpf4jnsgd1na2vs0mg"},{"bike_id":"3e43b8c3-6a9f-488d-b0d5-eeec4bd34a75","system_id":"levelo_inurba_marseille","lat":43.31074,"lon":5.38359,"is_reserved":false,"is_disabled":false,"rental_uris":{"android":"levelo://app?vid=3e43b8c3-6a9f-488d-b0d5-eeec4bd34a75","ios":"levelo://app?vid=3e43b8c3-6a9f-488d-b0d5-eeec4bd34a75"},"vehicle_type_id":"4","last_reported":1740596843,"current_range_meters":14800,"station_id":"ce4bgv92rcd13ifvqcr0","pricing_plan_id":"cebpf4jnsgd1na2vs0mg"},{"bike_id":"a86024fc-f8f0-4f09-bb6d-161bb4880ea4","system_id":"levelo_inurba_marseille","lat":43.28942,"lon":5.39644,"is_reserved":false,"is_disabled":false,"rental_uris":{"android":"levelo://app?vid=a86024fc-f8f0-4f09-bb6d-161bb4880ea4","ios":"levelo://app?vid=a86024fc-f8f0-4f09-bb6d-161bb4880ea4"},"vehicle_type_id":"4","last_reported":1740596843,"current_range_meters":14800,"station_id":"ce4bh3h2rcd13ifvqdn0","pricing_plan_id":"cebpf4jnsgd1na2vs0mg"},{"bike_id":"db30ffcd-fb6c-442b-809b-d08849c7c727","system_id":"levelo_inurba_marseille","lat":43.33026,"lon":5.39042,"is_reserved":false,"is_disabled":false,"rental_uris":{"android":"levelo://app?vid=db30ffcd-fb6c-442b-809b-d08849c7c727","ios":"levelo://app?vid=db30ffcd-fb6c-442b-809b-d08849c7c727"},"vehicle_type_id":"4","last_reported":1740596843,"current_range_meters":14800,"station_id":"ce4bhr92rcd13ifvqhrg","pricing_plan_id":"cebpf4jnsgd1na2vs0mg"},{"bike_id":"63aa0bd5-10fe-4bef-aa66-cd9b42ca7416","system_id":"levelo_inurba_marseille","lat":43.28936,"lon":5.36389,"is_reserved":false,"is_disabled":false,"rental_uris":{"android":"levelo://app?vid=63aa0bd5-10fe-4bef-aa66-cd9b42ca7416","ios":"levelo://app?vid=63aa0bd5-10fe-4bef-aa66-cd9b42ca7416"},"vehicle_type_id":"4","last_reported":1740596843,"current_range_meters":11200,"station_id":"ce4bhc92rcd13ifvqetg","pricing_plan_id":"cebpf4jnsgd1na2vs0mg"},{"bike_id":"fe2546e9-9200-4096-b336-515a11621879","system_id":"levelo_inurba_marseille","lat":43.30251,"lon":5.40077,"is_reserved":false,"is_disabled":false,"rental_uris":{"android":"levelo://app?vid=fe2546e9-9200-4096-b336-515a11621879","ios":"levelo://app?vid=fe2546e9-9200-4096-b336-515a11621879"},"vehicle_type_id":"4","last_reported":1740596843,"current_range_meters":14800,"station_id":"ce4bgvh2rcd13ifvqcs0","pricing_plan_id":"cebpf4jnsgd1na2vs0mg"},{"bike_id":"ad5127b9-953a-403c-9939-36a4f4283be8","system_id":"levelo_inurba_marseille","lat":43.31687,"lon":5.40477,"is_reserved":false,"is_disabled":false,"rental_uris":{"android":"levelo://app?vid=ad5127b9-953a-403c-9939-36a4f4283be8","ios":"levelo://app?vid=ad5127b9-953a-403c-9939-36a4f4283be8"},"vehicle_type_id":"4","last_reported":1740596843,"current_range_meters":14800,"station_id":"ce4bh012rcd13ifvqd00","pricing_plan_id":"cebpf4jnsgd1na2vs0mg"},{"bike_id":"985d16b2-8859-4895-bc32-7c0857320f09","system_id":"levelo_inurba_marseille","lat":43.29264,"lon":5.38459,"is_reserved":false,"is_disabled":false,"rental_uris":{"android":"levelo://app?vid=985d16b2-8859-4895-bc32-7c0857320f09","ios":"levelo://app?vid=985d16b2-8859-4895-bc32-7c0857320f09"},"vehicle_type_id":"4","last_reported":1740596843,"current_range_meters":16000,"station_id":"ce4bh692rcd13ifvqea0","pricing_plan_id":"cebpf4jnsgd1na2vs0mg"},{"bike_id":"2215d5e4-8798-4621-81ec-24430288d53b","system_id":"levelo_inurba_marseille","lat":43.32006,"lon":5.38148,"is_reserved":false,"is_disabled":false,"rental_uris":{"android":"levelo://app?vid=2215d5e4-8798-4621-81ec-24430288d53b","ios":"levelo://app?vid=2215d5e4-8798-4621-81ec-24430288d53b"},"vehicle_type_id":"4","last_reported":1740596843,"current_range_meters":16000,"station_id":"ce4bhr12rcd13ifvqhpg","pricing_plan_id":"cebpf4jnsgd1na2vs0mg"},{"bike_id":"2199a98d-0b01-413d-a5db-41d988d5115a","system_id":"levelo_inurba_marseille","lat":43.28936,"lon":5.36624,"is_reserved":false,"is_disabled":false,"rental_uris":{"android":"levelo://app?vid=2199a98d-0b01-413d-a5db-41d988d5115a","ios":"levelo://app?vid=2199a98d-0b01-413d-a5db-41d988d5115a"},"vehicle_type_id":"4","last_reported":1740596843,"current_range_meters":15200,"station_id":"ce4bhap2rcd13ifvqek0","pricing_plan_id":"cebpf4jnsgd1na2vs0mg"},{"bike_id":"98baf4e9-ad6f-46a7-8133-277a2a15aae2","system_id":"levelo_inurba_marseille","lat":43.31073,"lon":5.3835,"is_reserved":false,"is_disabled":false,"rental_uris":{"android":"levelo://app?vid=98baf4e9-ad6f-46a7-8133-277a2a15aae2","ios":"levelo://app?vid=98baf4e9-ad6f-46a7-8133-277a2a15aae2"},"vehicle_type_id":"4","last_reported":1740596843,"current_range_meters":15200,"station_id":"ce4bgv92rcd13ifvqcr0","pricing_plan_id":"cebpf4jnsgd1na2vs0mg"},{"bike_id":"660029fd-efb9-4845-aa91-b8f4e632f3f1","system_id":"levelo_inurba_marseille","lat":43.3071,"lon":5.37373,"is_reserved":false,"is_disabled":false,"rental_uris":{"android":"levelo://app?vid=660029fd-efb9-4845-aa91-b8f4e632f3f1","ios":"levelo://app?vid=660029fd-efb9-4845-aa91-b8f4e632f3f1"},"vehicle_type_id":"4","last_reported":1740596843,"current_range_meters":15200,"station_id":"","pricing_plan_id":"cebpf4jnsgd1na2vs0mg"},{"bike_id":"eccbcc79-6300-47b3-8907-f9c8d79d983b","system_id":"levelo_inurba_marseille","lat":43.2557,"lon":5.38245,"is_reserved":false,"is_disabled":false,"rental_uris":{"android":"levelo://app?vid=eccbcc79-6300-47b3-8907-f9c8d79d983b","ios":"levelo://app?vid=eccbcc79-6300-47b3-8907-f9c8d79d983b"},"vehicle_type_id":"4","last_reported":1740596843,"current_range_meters":14800,"station_id":"ce4bhih2rcd13ifvqfs0","pricing_plan_id":"cebpf4jnsgd1na2vs0mg"},{"bike_id":"dc1deb5f-be60-47dd-a397-2458bf714b12","system_id":"levelo_inurba_marseille","lat":43.23068,"lon":5.35487,"is_reserved":false,"is_disabled":false,"rental_uris":{"android":"levelo://app?vid=dc1deb5f-be60-47dd-a397-2458bf714b12","ios":"levelo://app?vid=dc1deb5f-be60-47dd-a397-2458bf714b12"},"vehicle_type_id":"4","last_reported":1740596843,"current_range_meters":15200,"station_id":"cpo3342slgdg3j2ifvpg","pricing_plan_id":"cebpf4jnsgd1na2vs0mg"},{"bike_id":"7eebcedb-18f4-4398-b9bd-d7d8a33415a2","system_id":"levelo_inurba_marseille","lat":43.29225,"lon":5.36055,"is_reserved":false,"is_disabled":false,"rental_uris":{"android":"levelo://app?vid=7eebcedb-18f4-4398-b9bd-d7d8a33415a2","ios":"levelo://app?vid=7eebcedb-18f4-4398-b9bd-d7d8a33415a2"},"vehicle_type_id":"4","last_reported":1740596843,"current_range_meters":15200,"station_id":"ce4bhbh2rcd13ifvqeqg","pricing_plan_id":"cebpf4jnsgd1na2vs0mg"},{"bike_id":"521d663b-15ff-4081-b55d-050096b7c9a0","system_id":"levelo_inurba_marseille","lat":43.27811,"lon":5.40716,"is_reserved":false,"is_disabled":false,"rental_uris":{"android":"levelo://app?vid=521d663b-15ff-4081-b55d-050096b7c9a0","ios":"levelo://app?vid=521d663b-15ff-4081-b55d-050096b7c9a0"},"vehicle_type_id":"4","last_reported":1740596843,"current_range_meters":14800,"station_id":"ce4bhnh2rcd13ifvqgtg","pricing_plan_id":"cebpf4jnsgd1na2vs0mg"},{"bike_id":"3b1ded5f-41ab-44c4-80ab-1f8f8bf6ca8e","system_id":"levelo_inurba_marseille","lat":43.29421,"lon":5.3862,"is_reserved":false,"is_disabled":false,"rental_uris":{"android":"levelo://app?vid=3b1ded5f-41ab-44c4-80ab-1f8f8bf6ca8e","ios":"levelo://app?vid=3b1ded5f-41ab-44c4-80ab-1f8f8bf6ca8e"},"vehicle_type_id":"4","last_reported":1740596843,"current_range_meters":15200,"station_id":"ce4bh2h2rcd13ifvqdh0","pricing_plan_id":"cebpf4jnsgd1na2vs0mg"},{"bike_id":"c442cadb-c835-4213-9069-16778046f8bc","system_id":"levelo_inurba_marseille","lat":43.25823,"lon":5.39436,"is_reserved":false,"is_disabled":false,"rental_uris":{"android":"levelo://app?vid=c442cadb-c835-4213-9069-16778046f8bc","ios":"levelo://app?vid=c442cadb-c835-4213-9069-16778046f8bc"},"vehicle_type_id":"4","last_reported":1740596843,"current_range_meters":16000,"station_id":"ce4bhip2rcd13ifvqft0","pricing_plan_id":"cebpf4jnsgd1na2vs0mg"},{"bike_id":"46cdf848-9f97-47d9-8049-65b2f2b50916","system_id":"levelo_inurba_marseille","lat":43.30929,"lon":5.40146,"is_reserved":false,"is_disabled":false,"rental_uris":{"android":"levelo://app?vid=46cdf848-9f97-47d9-8049-65b2f2b50916","ios":"levelo://app?vid=46cdf848-9f97-47d9-8049-65b2f2b50916"},"vehicle_type_id":"4","last_reported":1740596843,"current_range_meters":15200,"station_id":"ce4bgvp2rcd13ifvqct0","pricing_plan_id":"cebpf4jnsgd1na2vs0mg"},{"bike_id":"8ef81c1a-3d5e-401e-9c2c-c024f755ea23","system_id":"levelo_inurba_marseille","lat":43.29198,"lon":5.35815,"is_reserved":false,"is_disabled":false,"rental_uris":{"android":"levelo://app?vid=8ef81c1a-3d5e-401e-9c2c-c024f755ea23","ios":"levelo://app?vid=8ef81c1a-3d5e-401e-9c2c-c024f755ea23"},"vehicle_type_id":"4","last_reported":1740596843,"current_range_meters":16000,"station_id":"ce4bhb12rcd13ifvqel0","pricing_plan_id":"cebpf4jnsgd1na2vs0mg"},{"bike_id":"79a585c5-cf42-4150-9df4-5cf43862e690","system_id":"levelo_inurba_marseille","lat":43.24649,"lon":5.38907,"is_reserved":false,"is_disabled":false,"rental_uris":{"android":"levelo://app?vid=79a585c5-cf42-4150-9df4-5cf43862e690","ios":"levelo://app?vid=79a585c5-cf42-4150-9df4-5cf43862e690"},"vehicle_type_id":"4","last_reported":1740596843,"current_range_meters":16000,"station_id":"ce4bhg12rcd13ifvqf60","pricing_plan_id":"cebpf4jnsgd1na2vs0mg"},{"bike_id":"95dd95ee-bd82-455d-a1fb-1c34e93f4b7f","system_id":"levelo_inurba_marseille","lat":43.30795,"lon":5.37652,"is_reserved":false,"is_disabled":false,"rental_uris":{"android":"levelo://app?vid=95dd95ee-bd82-455d-a1fb-1c34e93f4b7f","ios":"levelo://app?vid=95dd95ee-bd82-455d-a1fb-1c34e93f4b7f"},"vehicle_type_id":"4","last_reported":1740596843,"current_range_meters":10800,"station_id":"ce4bgv92rcd13ifvqcq0","pricing_plan_id":"cebpf4jnsgd1na2vs0mg"},{"bike_id":"22d551b1-e5e0-4408-b51b-71ee2fa5f665","system_id":"levelo_inurba_marseille","lat":43.25582,"lon":5.38251,"is_reserved":false,"is_disabled":false,"rental_uris":{"android":"levelo://app?vid=22d551b1-e5e0-4408-b51b-71ee2fa5f665","ios":"levelo://app?vid=22d551b1-e5e0-4408-b51b-71ee2fa5f665"},"vehicle_type_id":"4","last_reported":1740596843,"current_range_meters":14800,"station_id":"ce4bhih2rcd13ifvqfs0","pricing_plan_id":"cebpf4jnsgd1na2vs0mg"},{"bike_id":"d8cd6d3b-0976-4fa6-b69a-5eba926a7561","system_id":"levelo_inurba_marseille","lat":43.29904,"lon":5.38145,"is_reserved":false,"is_disabled":false,"rental_uris":{"android":"levelo://app?vid=d8cd6d3b-0976-4fa6-b69a-5eba926a7561","ios":"levelo://app?vid=d8cd6d3b-0976-4fa6-b69a-5eba926a7561"},"vehicle_type_id":"4","last_reported":1740596843,"current_range_meters":16000,"station_id":"ce4bgj12rcd13ifvqbc0","pricing_plan_id":"cebpf4jnsgd1na2vs0mg"},{"bike_id":"a6e9a46d-241b-4404-839b-8a7f50d3bd90","system_id":"levelo_inurba_marseille","lat":43.26535,"lon":5.3954,"is_reserved":false,"is_disabled":false,"rental_uris":{"android":"levelo://app?vid=a6e9a46d-241b-4404-839b-8a7f50d3bd90","ios":"levelo://app?vid=a6e9a46d-241b-4404-839b-8a7f50d3bd90"},"vehicle_type_id":"4","last_reported":1740596843,"current_range_meters":16000,"station_id":"ce4bhi12rcd13ifvqfq0","pricing_plan_id":"cebpf4jnsgd1na2vs0mg"},{"bike_id":"32859657-8d4c-4447-85fb-5cd3891b4a04","system_id":"levelo_inurba_marseille","lat":43.30936,"lon":5.390508,"is_reserved":false,"is_disabled":false,"rental_uris":{"android":"levelo://app?vid=32859657-8d4c-4447-85fb-5cd3891b4a04","ios":"levelo://app?vid=32859657-8d4c-4447-85fb-5cd3891b4a04"},"vehicle_type_id":"4","last_reported":1740596843,"current_range_meters":16000,"station_id":"ce4bgup2rcd13ifvqco0","pricing_plan_id":"cebpf4jnsgd1na2vs0mg"},{"bike_id":"5ab74027-0266-42e6-903d-055b2632fc94","system_id":"levelo_inurba_marseille","lat":43.27606,"lon":5.36113,"is_reserved":false,"is_disabled":false,"rental_uris":{"android":"levelo://app?vid=5ab74027-0266-42e6-903d-055b2632fc94","ios":"levelo://app?vid=5ab74027-0266-42e6-903d-055b2632fc94"},"vehicle_type_id":"4","last_reported":1740596843,"current_range_meters":16400,"station_id":"ce4bgj92rcd13ifvqbe0","pricing_plan_id":"cebpf4jnsgd1na2vs0mg"},{"bike_id":"12088dd7-c6de-4cf0-839a-091d3222b947","system_id":"levelo_inurba_marseille","lat":43.29534,"lon":5.39395,"is_reserved":false,"is_disabled":false,"rental_uris":{"android":"levelo://app?vid=12088dd7-c6de-4cf0-839a-091d3222b947","ios":"levelo://app?vid=12088dd7-c6de-4cf0-839a-091d3222b947"},"vehicle_type_id":"4","last_reported":1740596843,"current_range_meters":16400,"station_id":"ce4bh292rcd13ifvqdf0","pricing_plan_id":"cebpf4jnsgd1na2vs0mg"},{"bike_id":"5cd1b8b3-20c0-4452-81fd-490ee225b382","system_id":"levelo_inurba_marseille","lat":43.30526,"lon":5.38421,"is_reserved":false,"is_disabled":false,"rental_uris":{"android":"levelo://app?vid=5cd1b8b3-20c0-4452-81fd-490ee225b382","ios":"levelo://app?vid=5cd1b8b3-20c0-4452-81fd-490ee225b382"},"vehicle_type_id":"4","last_reported":1740596843,"current_range_meters":16000,"station_id":"ce4bgg92rcd13ifvqb30","pricing_plan_id":"cebpf4jnsgd1na2vs0mg"},{"bike_id":"bc679af8-b2d8-495d-8f01-39de79e9748b","system_id":"levelo_inurba_marseille","lat":43.29584,"lon":5.36761,"is_reserved":false,"is_disabled":false,"rental_uris":{"android":"levelo://app?vid=bc679af8-b2d8-495d-8f01-39de79e9748b","ios":"levelo://app?vid=bc679af8-b2d8-495d-8f01-39de79e9748b"},"vehicle_type_id":"4","last_reported":1740596843,"current_range_meters":16400,"station_id":"ce4bgph2rcd13ifvqc2g","pricing_plan_id":"cebpf4jnsgd1na2vs0mg"},{"bike_id":"19e09a69-c57f-482a-b847-7f66783bd645","system_id":"levelo_inurba_marseille","lat":43.27807,"lon":5.40713,"is_reserved":false,"is_disabled":false,"rental_uris":{"android":"levelo://app?vid=19e09a69-c57f-482a-b847-7f66783bd645","ios":"levelo://app?vid=19e09a69-c57f-482a-b847-7f66783bd645"},"vehicle_type_id":"4","last_reported":1740596843,"current_range_meters":16400,"station_id":"ce4bhnh2rcd13ifvqgtg","pricing_plan_id":"cebpf4jnsgd1na2vs0mg"},{"bike_id":"bd05900e-5ebd-4836-a630-1cd83cfa46e3","system_id":"levelo_inurba_marseille","lat":43.3065,"lon":5.40103,"is_reserved":false,"is_disabled":false,"rental_uris":{"android":"levelo://app?vid=bd05900e-5ebd-4836-a630-1cd83cfa46e3","ios":"levelo://app?vid=bd05900e-5ebd-4836-a630-1cd83cfa46e3"},"vehicle_type_id":"4","last_reported":1740596843,"current_range_meters":16000,"station_id":"ce4bh112rcd13ifvqda0","pricing_plan_id":"cebpf4jnsgd1na2vs0mg"},{"bike_id":"d9edb359-99e6-43de-99dd-b9b1164fad3d","system_id":"levelo_inurba_marseille","lat":43.28474,"lon":5.38432,"is_reserved":false,"is_disabled":true,"rental_uris":{"android":"levelo://app?vid=d9edb359-99e6-43de-99dd-b9b1164fad3d","ios":"levelo://app?vid=d9edb359-99e6-43de-99dd-b9b1164fad3d"},"vehicle_type_id":"4","last_reported":1740596843,"current_range_meters":16400,"station_id":"ce4bh512rcd13ifvqe3g","pricing_plan_id":"cebpf4jnsgd1na2vs0mg"},{"bike_id":"75475b23-bdba-4263-99fe-cc8f1aa13e0a","system_id":"levelo_inurba_marseille","lat":43.29041,"lon":5.39961,"is_reserved":false,"is_disabled":false,"rental_uris":{"android":"levelo://app?vid=75475b23-bdba-4263-99fe-cc8f1aa13e0a","ios":"levelo://app?vid=75475b23-bdba-4263-99fe-cc8f1aa13e0a"},"vehicle_type_id":"4","last_reported":1740596843,"current_range_meters":12000,"station_id":"ce4bh392rcd13ifvqdm0","pricing_plan_id":"cebpf4jnsgd1na2vs0mg"},{"bike_id":"6f5e6b2b-b94b-4eea-910a-3764064b3c05","system_id":"levelo_inurba_marseille","lat":43.27992,"lon":5.40033,"is_reserved":false,"is_disabled":false,"rental_uris":{"android":"levelo://app?vid=6f5e6b2b-b94b-4eea-910a-3764064b3c05","ios":"levelo://app?vid=6f5e6b2b-b94b-4eea-910a-3764064b3c05"},"vehicle_type_id":"4","last_reported":1740596843,"current_range_meters":16800,"station_id":"ce4bho92rcd13ifvqh4g","pricing_plan_id":"cebpf4jnsgd1na2vs0mg"},{"bike_id":"3ef4a283-1278-481d-a678-2032504e228a","system_id":"levelo_inurba_marseille","lat":43.28973,"lon":5.35625,"is_reserved":false,"is_disabled":true,"rental_uris":{"android":"levelo://app?vid=3ef4a283-1278-481d-a678-2032504e228a","ios":"levelo://app?vid=3ef4a283-1278-481d-a678-2032504e228a"},"vehicle_type_id":"4","last_reported":1740596843,"current_range_meters":16800,"station_id":"ce4bhb92rcd13ifvqen0","pricing_plan_id":"cebpf4jnsgd1na2vs0mg"},{"bike_id":"3648d549-1aa7-44d1-bde4-30bac4ece65c","system_id":"levelo_inurba_marseille","lat":43.25577,"lon":5.38247,"is_reserved":false,"is_disabled":false,"rental_uris":{"android":"levelo://app?vid=3648d549-1aa7-44d1-bde4-30bac4ece65c","ios":"levelo://app?vid=3648d549-1aa7-44d1-bde4-30bac4ece65c"},"vehicle_type_id":"4","last_reported":1740596843,"current_range_meters":16800,"station_id":"ce4bhih2rcd13ifvqfs0","pricing_plan_id":"cebpf4jnsgd1na2vs0mg"},{"bike_id":"c8cf8366-0c44-45bd-9143-3b5fae02e2ac","system_id":"levelo_inurba_marseille","lat":43.28149,"lon":5.4264,"is_reserved":false,"is_disabled":false,"rental_uris":{"android":"levelo://app?vid=c8cf8366-0c44-45bd-9143-3b5fae02e2ac","ios":"levelo://app?vid=c8cf8366-0c44-45bd-9143-3b5fae02e2ac"},"vehicle_type_id":"4","last_reported":1740596843,"current_range_meters":16800,"station_id":"ce4bhnh2rcd13ifvqgug","pricing_plan_id":"cebpf4jnsgd1na2vs0mg"},{"bike_id":"63569115-3240-4df6-ada0-ada3d9c2e5bc","system_id":"levelo_inurba_marseille","lat":43.23965,"lon":5.36631,"is_reserved":false,"is_disabled":false,"rental_uris":{"android":"levelo://app?vid=63569115-3240-4df6-ada0-ada3d9c2e5bc","ios":"levelo://app?vid=63569115-3240-4df6-ada0-ada3d9c2e5bc"},"vehicle_type_id":"4","last_reported":1740596843,"current_range_meters":16800,"station_id":"ce4bhi12rcd13ifvqfp0","pricing_plan_id":"cebpf4jnsgd1na2vs0mg"},{"bike_id":"31c58e5d-9342-432b-b32a-4dfcdf1667fa","system_id":"levelo_inurba_marseille","lat":43.24394,"lon":5.37068,"is_reserved":false,"is_disabled":false,"rental_uris":{"android":"levelo://app?vid=31c58e5d-9342-432b-b32a-4dfcdf1667fa","ios":"levelo://app?vid=31c58e5d-9342-432b-b32a-4dfcdf1667fa"},"vehicle_type_id":"4","last_reported":1740596843,"current_range_meters":16800,"station_id":"ce4bhhh2rcd13ifvqfk0","pricing_plan_id":"cebpf4jnsgd1na2vs0mg"},{"bike_id":"f3a30e9b-47fe-47d5-ac2e-267d81f68680","system_id":"levelo_inurba_marseille","lat":43.30913,"lon":5.40173,"is_reserved":false,"is_disabled":false,"rental_uris":{"android":"levelo://app?vid=f3a30e9b-47fe-47d5-ac2e-267d81f68680","ios":"levelo://app?vid=f3a30e9b-47fe-47d5-ac2e-267d81f68680"},"vehicle_type_id":"4","last_reported":1740596843,"current_range_meters":17200,"station_id":"ce4bgvp2rcd13ifvqct0","pricing_plan_id":"cebpf4jnsgd1na2vs0mg"},{"bike_id":"8a339686-9723-415b-8f3c-02f3810e4035","system_id":"levelo_inurba_marseille","lat":43.29927,"lon":5.39759,"is_reserved":false,"is_disabled":false,"rental_uris":{"android":"levelo://app?vid=8a339686-9723-415b-8f3c-02f3810e4035","ios":"levelo://app?vid=8a339686-9723-415b-8f3c-02f3810e4035"},"vehicle_type_id":"4","last_reported":1740596843,"current_range_meters":17200,"station_id":"ce4bh0h2rcd13ifvqd50","pricing_plan_id":"cebpf4jnsgd1na2vs0mg"},{"bike_id":"7f7cc99d-4ce7-4009-91d2-73969ba982b5","system_id":"levelo_inurba_marseille","lat":43.29891,"lon":5.38925,"is_reserved":false,"is_disabled":false,"rental_uris":{"android":"levelo://app?vid=7f7cc99d-4ce7-4009-91d2-73969ba982b5","ios":"levelo://app?vid=7f7cc99d-4ce7-4009-91d2-73969ba982b5"},"vehicle_type_id":"4","last_reported":1740596843,"current_range_meters":17600,"station_id":"ce4bh392rcd13ifvqdl0","pricing_plan_id":"cebpf4jnsgd1na2vs0mg"},{"bike_id":"0b844502-bbd8-4b67-804d-959347992fa0","system_id":"levelo_inurba_marseille","lat":43.29866,"lon":5.38907,"is_reserved":false,"is_disabled":false,"rental_uris":{"android":"levelo://app?vid=0b844502-bbd8-4b67-804d-959347992fa0","ios":"levelo://app?vid=0b844502-bbd8-4b67-804d-959347992fa0"},"vehicle_type_id":"4","last_reported":1740596843,"current_range_meters":24800,"station_id":"ce4bh392rcd13ifvqdl0","pricing_plan_id":"cebpf4jnsgd1na2vs0mg"},{"bike_id":"3de9aeda-1f9a-4bbc-8b90-e02a49e56ca9","system_id":"levelo_inurba_marseille","lat":43.232,"lon":5.35547,"is_reserved":false,"is_disabled":false,"rental_uris":{"android":"levelo://app?vid=3de9aeda-1f9a-4bbc-8b90-e02a49e56ca9","ios":"levelo://app?vid=3de9aeda-1f9a-4bbc-8b90-e02a49e56ca9"},"vehicle_type_id":"4","last_reported":1740596843,"current_range_meters":17600,"station_id":"ce4bhu92rcd13ifvqi70","pricing_plan_id":"cebpf4jnsgd1na2vs0mg"},{"bike_id":"589b185f-3ce5-4620-89c9-616898e31eb0","system_id":"levelo_inurba_marseille","lat":43.30263,"lon":5.40074,"is_reserved":false,"is_disabled":false,"rental_uris":{"android":"levelo://app?vid=589b185f-3ce5-4620-89c9-616898e31eb0","ios":"levelo://app?vid=589b185f-3ce5-4620-89c9-616898e31eb0"},"vehicle_type_id":"4","last_reported":1740596843,"current_range_meters":16800,"station_id":"ce4bgvh2rcd13ifvqcs0","pricing_plan_id":"cebpf4jnsgd1na2vs0mg"},{"bike_id":"7f319ef0-f091-49a0-b3bf-1dc7a7a815a3","system_id":"levelo_inurba_marseille","lat":43.28856,"lon":5.39304,"is_reserved":false,"is_disabled":false,"rental_uris":{"android":"levelo://app?vid=7f319ef0-f091-49a0-b3bf-1dc7a7a815a3","ios":"levelo://app?vid=7f319ef0-f091-49a0-b3bf-1dc7a7a815a3"},"vehicle_type_id":"4","last_reported":1740596843,"current_range_meters":17600,"station_id":"ce4bh2p2rcd13ifvqdi0","pricing_plan_id":"cebpf4jnsgd1na2vs0mg"},{"bike_id":"96cfc3d0-9c93-40ee-9d58-814aa78a6526","system_id":"levelo_inurba_marseille","lat":43.26565,"lon":5.39015,"is_reserved":false,"is_disabled":false,"rental_uris":{"android":"levelo://app?vid=96cfc3d0-9c93-40ee-9d58-814aa78a6526","ios":"levelo://app?vid=96cfc3d0-9c93-40ee-9d58-814aa78a6526"},"vehicle_type_id":"4","last_reported":1740596843,"current_range_meters":17600,"station_id":"ce4bhe12rcd13ifvqf30","pricing_plan_id":"cebpf4jnsgd1na2vs0mg"},{"bike_id":"9bb9c93d-6152-4604-9c7f-343f6040c93a","system_id":"levelo_inurba_marseille","lat":43.29228,"lon":5.36072,"is_reserved":false,"is_disabled":false,"rental_uris":{"android":"levelo://app?vid=9bb9c93d-6152-4604-9c7f-343f6040c93a","ios":"levelo://app?vid=9bb9c93d-6152-4604-9c7f-343f6040c93a"},"vehicle_type_id":"4","last_reported":1740596843,"current_range_meters":17600,"station_id":"ce4bhbh2rcd13ifvqeqg","pricing_plan_id":"cebpf4jnsgd1na2vs0mg"},{"bike_id":"8e7ca1de-f2e1-45da-a0a6-c0442942ed30","system_id":"levelo_inurba_marseille","lat":43.2549,"lon":5.37659,"is_reserved":false,"is_disabled":false,"rental_uris":{"android":"levelo://app?vid=8e7ca1de-f2e1-45da-a0a6-c0442942ed30","ios":"levelo://app?vid=8e7ca1de-f2e1-45da-a0a6-c0442942ed30"},"vehicle_type_id":"4","last_reported":1740596843,"current_range_meters":17600,"station_id":"ce4bhh12rcd13ifvqff0","pricing_plan_id":"cebpf4jnsgd1na2vs0mg"},{"bike_id":"1563a178-e4b8-4550-a591-b2f98d2f4873","system_id":"levelo_inurba_marseille","lat":43.26485,"lon":5.3955,"is_reserved":false,"is_disabled":false,"rental_uris":{"android":"levelo://app?vid=1563a178-e4b8-4550-a591-b2f98d2f4873","ios":"levelo://app?vid=1563a178-e4b8-4550-a591-b2f98d2f4873"},"vehicle_type_id":"4","last_reported":1740596843,"current_range_meters":17200,"station_id":"ce4bhi12rcd13ifvqfq0","pricing_plan_id":"cebpf4jnsgd1na2vs0mg"},{"bike_id":"589fcb18-1a1a-4048-8ca0-53a507693c6a","system_id":"levelo_inurba_marseille","lat":43.26801,"lon":5.40268,"is_reserved":false,"is_disabled":false,"rental_uris":{"android":"levelo://app?vid=589fcb18-1a1a-4048-8ca0-53a507693c6a","ios":"levelo://app?vid=589fcb18-1a1a-4048-8ca0-53a507693c6a"},"vehicle_type_id":"4","last_reported":1740596843,"current_range_meters":17600,"station_id":"ce501612rcd8frsf0b60","pricing_plan_id":"cebpf4jnsgd1na2vs0mg"},{"bike_id":"40617187-8eba-418d-9999-90d2f7ba5169","system_id":"levelo_inurba_marseille","lat":43.29043,"lon":5.37575,"is_reserved":false,"is_disabled":false,"rental_uris":{"android":"levelo://app?vid=40617187-8eba-418d-9999-90d2f7ba5169","ios":"levelo://app?vid=40617187-8eba-418d-9999-90d2f7ba5169"},"vehicle_type_id":"4","last_reported":1740596843,"current_range_meters":17200,"station_id":"ce4bh692rcd13ifvqe90","pricing_plan_id":"cebpf4jnsgd1na2vs0mg"},{"bike_id":"fe228773-b013-4929-9f61-b4530080ffe0","system_id":"levelo_inurba_marseille","lat":43.28091,"lon":5.39632,"is_reserved":false,"is_disabled":false,"rental_uris":{"android":"levelo://app?vid=fe228773-b013-4929-9f61-b4530080ffe0","ios":"levelo://app?vid=fe228773-b013-4929-9f61-b4530080ffe0"},"vehicle_type_id":"4","last_reported":1740596843,"current_range_meters":17600,"station_id":"ce4bho12rcd13ifvqh2g","pricing_plan_id":"cebpf4jnsgd1na2vs0mg"},{"bike_id":"45ccc4de-b562-4e0c-9fdc-5941b316e4bd","system_id":"levelo_inurba_marseille","lat":43.256473,"lon":5.375873,"is_reserved":false,"is_disabled":false,"rental_uris":{"android":"levelo://app?vid=45ccc4de-b562-4e0c-9fdc-5941b316e4bd","ios":"levelo://app?vid=45ccc4de-b562-4e0c-9fdc-5941b316e4bd"},"vehicle_type_id":"4","last_reported":1740596843,"current_range_meters":17600,"station_id":"ce4bhip2rcd13ifvqft0","pricing_plan_id":"cebpf4jnsgd1na2vs0mg"},{"bike_id":"a2d5e0e2-9526-4581-b4c8-fa0ff594db4b","system_id":"levelo_inurba_marseille","lat":43.30887,"lon":5.3965,"is_reserved":false,"is_disabled":false,"rental_uris":{"android":"levelo://app?vid=a2d5e0e2-9526-4581-b4c8-fa0ff594db4b","ios":"levelo://app?vid=a2d5e0e2-9526-4581-b4c8-fa0ff594db4b"},"vehicle_type_id":"4","last_reported":1740596843,"current_range_meters":17600,"station_id":"ce4bh012rcd13ifvqcv0","pricing_plan_id":"cebpf4jnsgd1na2vs0mg"},{"bike_id":"7c6f2e19-e14e-482e-81a7-645fe762ee86","system_id":"levelo_inurba_marseille","lat":43.29585,"lon":5.36742,"is_reserved":false,"is_disabled":false,"rental_uris":{"android":"levelo://app?vid=7c6f2e19-e14e-482e-81a7-645fe762ee86","ios":"levelo://app?vid=7c6f2e19-e14e-482e-81a7-645fe762ee86"},"vehicle_type_id":"4","last_reported":1740596843,"current_range_meters":18000,"station_id":"ce4bgph2rcd13ifvqc2g","pricing_plan_id":"cebpf4jnsgd1na2vs0mg"},{"bike_id":"40e25f70-02b5-4811-add6-6e8dbc26a035","system_id":"levelo_inurba_marseille","lat":43.28428,"lon":5.34981,"is_reserved":false,"is_disabled":false,"rental_uris":{"android":"levelo://app?vid=40e25f70-02b5-4811-add6-6e8dbc26a035","ios":"levelo://app?vid=40e25f70-02b5-4811-add6-6e8dbc26a035"},"vehicle_type_id":"4","last_reported":1740596843,"current_range_meters":18000,"station_id":"ce4bhbh2rcd13ifvqepg","pricing_plan_id":"cebpf4jnsgd1na2vs0mg"},{"bike_id":"201b43e1-9166-4b93-9ecb-211bb1985890","system_id":"levelo_inurba_marseille","lat":43.32352,"lon":5.36746,"is_reserved":false,"is_disabled":false,"rental_uris":{"android":"levelo://app?vid=201b43e1-9166-4b93-9ecb-211bb1985890","ios":"levelo://app?vid=201b43e1-9166-4b93-9ecb-211bb1985890"},"vehicle_type_id":"4","last_reported":1740596843,"current_range_meters":18000,"station_id":"ce4bhsh2rcd13ifvqi2g","pricing_plan_id":"cebpf4jnsgd1na2vs0mg"},{"bike_id":"65d8420b-015e-4098-985c-035e76551666","system_id":"levelo_inurba_marseille","lat":43.2558,"lon":5.38236,"is_reserved":false,"is_disabled":false,"rental_uris":{"android":"levelo://app?vid=65d8420b-015e-4098-985c-035e76551666","ios":"levelo://app?vid=65d8420b-015e-4098-985c-035e76551666"},"vehicle_type_id":"4","last_reported":1740596843,"current_range_meters":18000,"station_id":"ce4bhih2rcd13ifvqfs0","pricing_plan_id":"cebpf4jnsgd1na2vs0mg"},{"bike_id":"a05f0b98-a92c-4bff-8a2e-dc25e96a6b19","system_id":"levelo_inurba_marseille","lat":43.28621,"lon":5.35094,"is_reserved":false,"is_disabled":false,"rental_uris":{"android":"levelo://app?vid=a05f0b98-a92c-4bff-8a2e-dc25e96a6b19","ios":"levelo://app?vid=a05f0b98-a92c-4bff-8a2e-dc25e96a6b19"},"vehicle_type_id":"4","last_reported":1740596843,"current_range_meters":18000,"station_id":"ce4bhch2rcd13ifvqeug","pricing_plan_id":"cebpf4jnsgd1na2vs0mg"},