{"last_updated":1707066413,"ttl":30,"version":"2.2","data":{"bikes":[{"bike_id":"730a66a5-f9b1-4fc9-b4da-725565703eb3","system_id":"levelo_inurba_marseille","lat":43.31481,"lon":5.37311,"is_reserved":false,"is_disabled":false,"rental_uris":{"android":"levelo://app?vid=730a66a5-f9b1-4fc9-b4da-725565703eb3","ios":"levelo://app?vid=730a66a5-f9b1-4fc9-b4da-725565703eb3"},"vehicle_type_id":"4","last_reported":1707066413,"current_range_meters":10800,"station_id":"ce4bgt12rcd13ifvqcd0","pricing_plan_id":"free"},{"bike_id":"3a2412bb-739b-4f4a-9e45-d3e584381306","system_id":"levelo_inurba_marseille","lat":43.306978,"lon":5.373008,"is_reserved":false,"is_disabled":false,"rental_uris":{"android":"levelo://app?vid=3a2412bb-739b-4f4a-9e45-d3e584381306","ios":"levelo://app?vid=3a2412bb-739b-4f4a-9e45-d3e584381306"},"vehicle_type_id":"4","last_reported":1707066413,"current_range_meters":0,"station_id":"","pricing_plan_id":"free"},{"bike_id":"afa30679-09c8-4f6b-b7a2-2d146bad845b","system_id":"levelo_inurba_marseille","lat":43.305368,"lon":5.367343,"is_reserved":false,"is_disabled":false,"rental_uris":{"android":"levelo://app?vid=afa30679-09c8-4f6b-b7a2-2d146bad845b","ios":"levelo://app?vid=afa30679-09c8-4f6b-b7a2-2d146bad845b"},"vehicle_type_id":"4","last_reported":1707066413,"current_range_meters":17600,"station_id":"ce4bgrp2rcd13ifvqc9g","pricing_plan_id":"free"},{"bike_id":"65812deb-4cb7-4293-a537-92f34ea4d49f","system_id":"levelo_inurba_marseille","lat":43.311125,"lon":5.377624,"is_reserved":false,"is_disabled":false,"rental_uris":{"android":"levelo://app?vid=65812deb-4cb7-4293-a537-92f34ea4d49f","ios":"levelo://app?vid=65812deb-4cb7-4293-a537-92f34ea4d49f"},"vehicle_type_id":"4","last_reported":1707066413,"current_range_meters":26400,"station_id":"ce4bgt92rcd13ifvqcg0","pricing_plan_id":"free"},{"bike_id":"c60e7252-bcc2-4201-a624-aec62d3d6b5d","system_id":"levelo_inurba_marseille","lat":43.316473,"lon":5.376847,"is_reserved":false,"is_disabled":false,"rental_uris":{"android":"levelo://app?vid=c60e7252-bcc2-4201-a624-aec62d3d6b5d","ios":"levelo://app?vid=c60e7252-bcc2-4201-a624-aec62d3d6b5d"},"vehicle_type_id":"4","last_reported":1707066413,"current_range_meters":1200,"station_id":"","pricing_plan_id":"free"},{"bike_id":"a4e585d3-c42d-4138-9c71-caae1b7d7983","system_id":"levelo_inurba_marseille","lat":43.307945,"lon":5.376487,"is_reserved":false,"is_disabled":false,"rental_uris":{"android":"levelo://app?vid=a4e585d3-c42d-4138-9c71-caae1b7d7983","ios":"levelo://app?vid=a4e585d3-c42d-4138-9c71-caae1b7d7983"},"vehicle_type_id":"4","last_reported":1707066413,"current_range_meters":0,"station_id":"ce4bgv92rcd13ifvqcq0","pricing_plan_id":"free"},{"bike_id":"481e547a-96e3-403a-a376-e43994032a97","system_id":"levelo_inurba_marseille","lat":43.317075,"lon":5.377367,"is_reserved":false,"is_disabled":false,"rental_uris":{"android":"levelo://app?vid=481e547a-96e3-403a-a376-e43994032a97","ios":"levelo://app?vid=481e547a-96e3-403a-a376-e43994032a97"},"vehicle_type_id":"4","last_reported":1707066413,"current_range_meters":31200,"station_id":"ce4bgth2rcd13ifvqch0","pricing_plan_id":"free"},{"bike_id":"5cc8c3af-6de3-41ce-bdd9-6af5aaa140c7","system_id":"levelo_inurba_marseille","lat":43.30304,"lon":5.368987,"is_reserved":false,"is_disabled":false,"rental_uris":{"android":"levelo://app?vid=5cc8c3af-6de3-41ce-bdd9-6af5aaa140c7","ios":"levelo://app?vid=5cc8c3af-6de3-41ce-bdd9-6af5aaa140c7"},"vehicle_type_id":"4","last_reported":1707066413,"current_range_meters":19600,"station_id":"ce4bgqh2rcd13ifvqc5g","pricing_plan_id":"free"},{"bike_id":"9ea0c420-980f-4553-97b9-d69f4d4aceae","system_id":"levelo_inurba_marseille","lat":43.301939,"lon":5.366286,"is_reserved":false,"is_disabled":false,"rental_uris":{"android":"levelo://app?vid=9ea0c420-980f-4553-97b9-d69f4d4aceae","ios":"levelo://app?vid=9ea0c420-980f-4553-97b9-d69f4d4aceae"},"vehicle_type_id":"4","last_reported":1707066413,"current_range_meters":5600,"station_id":"ce4bgrh2rcd13ifvqc8g","pricing_plan_id":"free"},{"bike_id":"d4b3da39-30ed-4d05-9b08-ef1d16a06cd5","system_id":"levelo_inurba_marseille","lat":43.304606,"lon":5.379026,"is_reserved":false,"is_disabled":false,"rental_uris":{"android":"levelo://app?vid=d4b3da39-30ed-4d05-9b08-ef1d16a06cd5","ios":"levelo://app?vid=d4b3da39-30ed-4d05-9b08-ef1d16a06cd5"},"vehicle_type_id":"4","last_reported":1707066413,"current_range_meters":3600,"station_id":"ce4bgup2rcd13ifvqcn0","pricing_plan_id":"free"},{"bike_id":"027d3d1a-a54d-4af6-9f3c-7971307bada8","system_id":"levelo_inurba_marseille","lat":43.304606,"lon":5.379026,"is_reserved":false,"is_disabled":false,"rental_uris":{"android":"levelo://app?vid=027d3d1a-a54d-4af6-9f3c-7971307bada8","ios":"levelo://app?vid=027d3d1a-a54d-4af6-9f3c-7971307bada8"},"vehicle_type_id":"4","last_reported":1707066413,"current_range_meters":2000,"station_id":"ce4bgup2rcd13ifvqcn0","pricing_plan_id":"free"},{"bike_id":"76920791-10f6-4a66-9419-e726fb189715","system_id":"levelo_inurba_marseille","lat":43.304606,"lon":5.379026,"is_reserved":false,"is_disabled":false,"rental_uris":{"android":"levelo://app?vid=76920791-10f6-4a66-9419-e726fb189715","ios":"levelo://app?vid=76920791-10f6-4a66-9419-e726fb189715"},"vehicle_type_id":"4","last_reported":1707066413,"current_range_meters":12000,"station_id":"ce4bgup2rcd13ifvqcn0","pricing_plan_id":"free"},{"bike_id":"bc974708-dcbd-4a8a-ac0d-164e8d7c65dc","system_id":"levelo_inurba_marseille","lat":43.32489,"lon":5.36572,"is_reserved":false,"is_disabled":false,"rental_uris":{"android":"levelo://app?vid=bc974708-dcbd-4a8a-ac0d-164e8d7c65dc","ios":"levelo://app?vid=bc974708-dcbd-4a8a-ac0d-164e8d7c65dc"},"vehicle_type_id":"4","last_reported":1707066413,"current_range_meters":21200,"station_id":"ce4bhs12rcd13ifvqhvg","pricing_plan_id":"free"},{"bike_id":"cc1f1f55-cfe9-4d66-88ed-570dd139ade7","system_id":"levelo_inurba_marseille","lat":43.32493,"lon":5.3657,"is_reserved":false,"is_disabled":false,"rental_uris":{"android":"levelo://app?vid=cc1f1f55-cfe9-4d66-88ed-570dd139ade7","ios":"levelo://app?vid=cc1f1f55-cfe9-4d66-88ed-570dd139ade7"},"vehicle_type_id":"4","last_reported":1707066413,"current_range_meters":4000,"station_id":"ce4bhs12rcd13ifvqhvg","pricing_plan_id":"free"},{"bike_id":"c54b973e-23d1-4b27-979e-a16046bf07bc","system_id":"levelo_inurba_marseille","lat":43.31071,"lon":5.38368,"is_reserved":false,"is_disabled":false,"rental_uris":{"android":"levelo://app?vid=c54b973e-23d1-4b27-979e-a16046bf07bc","ios":"levelo://app?vid=c54b973e-23d1-4b27-979e-a16046bf07bc"},"vehicle_type_id":"4","last_reported":1707066413,"current_range_meters":28800,"station_id":"ce4bgv92rcd13ifvqcr0","pricing_plan_id":"free"},{"bike_id":"914e5205-02f2-4daf-ac48-212693f8854a","system_id":"levelo_inurba_marseille","lat":43.30135,"lon":5.37423,"is_reserved":false,"is_disabled":false,"rental_uris":{"android":"levelo://app?vid=914e5205-02f2-4daf-ac48-212693f8854a","ios":"levelo://app?vid=914e5205-02f2-4daf-ac48-212693f8854a"},"vehicle_type_id":"4","last_reported":1707066413,"current_range_meters":19600,"station_id":"ce4bgs92rcd13ifvqcc0","pricing_plan_id":"free"},{"bike_id":"f4722360-683c-4330-a41f-ae15de548a95","system_id":"levelo_inurba_marseille","lat":43.319935,"lon":5.381699,"is_reserved":false,"is_disabled":false,"rental_uris":{"android":"levelo://app?vid=f4722360-683c-4330-a41f-ae15de548a95","ios":"levelo://app?vid=f4722360-683c-4330-a41f-ae15de548a95"},"vehicle_type_id":"4","last_reported":1707066413,"current_range_meters":29200,"station_id":"ce4bhr12rcd13ifvqhpg","pricing_plan_id":"free"},{"bike_id":"52d9c161-dd1d-46c1-a20b-66edd1865eeb","system_id":"levelo_inurba_marseille","lat":43.313633,"lon":5.38502,"is_reserved":false,"is_disabled":false,"rental_uris":{"android":"levelo://app?vid=52d9c161-dd1d-46c1-a20b-66edd1865eeb","ios":"levelo://app?vid=52d9c161-dd1d-46c1-a20b-66edd1865eeb"},"vehicle_type_id":"4","last_reported":1707066413,"current_range_meters":1200,"station_id":"ce4bgt92rcd13ifvqcf0","pricing_plan_id":"free"},{"bike_id":"8c72d926-3cc7-471a-a232-91c210a26ded","system_id":"levelo_inurba_marseille","lat":43.313571,"lon":5.384829,"is_reserved":false,"is_disabled":false,"rental_uris":{"android":"levelo://app?vid=8c72d926-3cc7-471a-a232-91c210a26ded","ios":"levelo://app?vid=8c72d926-3cc7-471a-a232-91c210a26ded"},"vehicle_type_id":"4","last_reported":1707066413,"current_range_meters":25600,"station_id":"ce4bgt92rcd13ifvqcf0","pricing_plan_id":"free"},{"bike_id":"b4043861-a6d4-4058-9f0f-183550ab2b0d","system_id":"levelo_inurba_marseille","lat":43.299222,"lon":5.365554,"is_reserved":false,"is_disabled":false,"rental_uris":{"android":"levelo://app?vid=b4043861-a6d4-4058-9f0f-183550ab2b0d","ios":"levelo://app?vid=b4043861-a6d4-4058-9f0f-183550ab2b0d"},"vehicle_type_id":"4","last_reported":1707066413,"current_range_meters":4400,"station_id":"ce4bgm92rcd13ifvqbr0","pricing_plan_id":"free"},{"bike_id":"9124664e-4f18-4016-85f3-8fba14e54223","system_id":"levelo_inurba_marseille","lat":43.298433,"lon":5.362774,"is_reserved":false,"is_disabled":false,"rental_uris":{"android":"levelo://app?vid=9124664e-4f18-4016-85f3-8fba14e54223","ios":"levelo://app?vid=9124664e-4f18-4016-85f3-8fba14e54223"},"vehicle_type_id":"4","last_reported":1707066413,"current_range_meters":800,"station_id":"ce4bgpp2rcd13ifvqc3g","pricing_plan_id":"free"},{"bike_id":"bdd7670c-11b8-4dd5-abd7-9484b90c5ec4","system_id":"levelo_inurba_marseille","lat":43.305364,"lon":5.384119,"is_reserved":false,"is_disabled":false,"rental_uris":{"android":"levelo://app?vid=bdd7670c-11b8-4dd5-abd7-9484b90c5ec4","ios":"levelo://app?vid=bdd7670c-11b8-4dd5-abd7-9484b90c5ec4"},"vehicle_type_id":"4","last_reported":1707066413,"current_range_meters":28000,"station_id":"ce4bgg92rcd13ifvqb30","pricing_plan_id":"free"},{"bike_id":"e88448bd-f1bf-48e2-a5b8-47647accb95e","system_id":"levelo_inurba_marseille","lat":43.305364,"lon":5.384119,"is_reserved":false,"is_disabled":false,"rental_uris":{"android":"levelo://app?vid=e88448bd-f1bf-48e2-a5b8-47647accb95e","ios":"levelo://app?vid=e88448bd-f1bf-48e2-a5b8-47647accb95e"},"vehicle_type_id":"4","last_reported":1707066413,"current_range_meters":16000,"station_id":"ce4bgg92rcd13ifvqb30","pricing_plan_id":"free"},{"bike_id":"e442cf19-6928-4e63-99cc-de3ee424f330","system_id":"levelo_inurba_marseille","lat":43.305364,"lon":5.384119,"is_reserved":false,"is_disabled":false,"rental_uris":{"android":"levelo://app?vid=e442cf19-6928-4e63-99cc-de3ee424f330","ios":"levelo://app?vid=e442cf19-6928-4e63-99cc-de3ee424f330"},"vehicle_type_id":"4","last_reported":1707066413,"current_range_meters":17600,"station_id":"ce4bgg92rcd13ifvqb30","pricing_plan_id":"free"},{"bike_id":"1be75762-11b6-4b34-8e7c-2e14919944ea","system_id":"levelo_inurba_marseille","lat":43.311722,"lon":5.387247,"is_reserved":false,"is_disabled":false,"rental_uris":{"android":"levelo://app?vid=1be75762-11b6-4b34-8e7c-2e14919944ea","ios":"levelo://app?vid=1be75762-11b6-4b34-8e7c-2e14919944ea"},"vehicle_type_id":"4","last_reported":1707066413,"current_range_meters":800,"station_id":"ce4bgv12rcd13ifvqcp0","pricing_plan_id":"free"},{"bike_id":"8b023912-5267-4e1c-a403-4d70b425cebe","system_id":"levelo_inurba_marseille","lat":43.32287,"lon":5.38275,"is_reserved":false,"is_disabled":false,"rental_uris":{"android":"levelo://app?vid=8b023912-5267-4e1c-a403-4d70b425cebe","ios":"levelo://app?vid=8b023912-5267-4e1c-a403-4d70b425cebe"},"vehicle_type_id":"4","last_reported":1707066413,"current_range_meters":28800,"station_id":"ce4bhr12rcd13ifvqhqg","pricing_plan_id":"free"},{"bike_id":"1900e2ea-9239-49b1-933e-57903fa99707","system_id":"levelo_inurba_marseille","lat":43.32826,"lon":5.36695,"is_reserved":false,"is_disabled":false,"rental_uris":{"android":"levelo://app?vid=1900e2ea-9239-49b1-933e-57903fa99707","ios":"levelo://app?vid=1900e2ea-9239-49b1-933e-57903fa99707"},"vehicle_type_id":"4","last_reported":1707066413,"current_range_meters":10400,"station_id":"ce4bhs92rcd13ifvqi0g","pricing_plan_id":"free"},{"bike_id":"81d6c55c-5ab6-4964-9500-181a7b78889c","system_id":"levelo_inurba_marseille","lat":43.328316,"lon":5.366812,"is_reserved":false,"is_disabled":false,"rental_uris":{"android":"levelo://app?vid=81d6c55c-5ab6-4964-9500-181a7b78889c","ios":"levelo://app?vid=81d6c55c-5ab6-4964-9500-181a7b78889c"},"vehicle_type_id":"4","last_reported":1707066413,"current_range_meters":10800,"station_id":"ce4bhs92rcd13ifvqi0g","pricing_plan_id":"free"},{"bike_id":"d73908e2-2bfd-489b-804e-d4e95fac72d2","system_id":"levelo_inurba_marseille","lat":43.328329,"lon":5.366791,"is_reserved":false,"is_disabled":false,"rental_uris":{"android":"levelo://app?vid=d73908e2-2bfd-489b-804e-d4e95fac72d2","ios":"levelo://app?vid=d73908e2-2bfd-489b-804e-d4e95fac72d2"},"vehicle_type_id":"4","last_reported":1707066413,"current_range_meters":21600,"station_id":"ce4bhs92rcd13ifvqi0g","pricing_plan_id":"free"},{"bike_id":"38db1ec3-7b83-4351-af1a-094b2aae337d","system_id":"levelo_inurba_marseille","lat":43.297163,"lon":5.365866,"is_reserved":false,"is_disabled":false,"rental_uris":{"android":"levelo://app?vid=38db1ec3-7b83-4351-af1a-094b2aae337d","ios":"levelo://app?vid=38db1ec3-7b83-4351-af1a-094b2aae337d"},"vehicle_type_id":"4","last_reported":1707066413,"current_range_meters":7200,"station_id":"ce4bgn12rcd13ifvqbt0","pricing_plan_id":"free"},{"bike_id":"8bea6ee2-bb12-4611-84ff-9527b54da0c8","system_id":"levelo_inurba_marseille","lat":43.296617,"lon":5.368037,"is_reserved":false,"is_disabled":false,"rental_uris":{"android":"levelo://app?vid=8bea6ee2-bb12-4611-84ff-9527b54da0c8","ios":"levelo://app?vid=8bea6ee2-bb12-4611-84ff-9527b54da0c8"},"vehicle_type_id":"4","last_reported":1707066413,"current_range_meters":28000,"station_id":"","pricing_plan_id":"free"},{"bike_id":"d44f7491-bfca-4afa-bca5-28e2ecf884fa","system_id":"levelo_inurba_marseille","lat":43.29573,"lon":5.367355,"is_reserved":false,"is_disabled":false,"rental_uris":{"android":"levelo://app?vid=d44f7491-bfca-4afa-bca5-28e2ecf884fa","ios":"levelo://app?vid=d44f7491-bfca-4afa-bca5-28e2ecf884fa"},"vehicle_type_id":"4","last_reported":1707066413,"current_range_meters":0,"station_id":"ce4bgph2rcd13ifvqc2g","pricing_plan_id":"free"},{"bike_id":"35fbfe4c-ce5d-4572-a793-95141f3d12ac","system_id":"levelo_inurba_marseille","lat":43.297794,"lon":5.370888,"is_reserved":false,"is_disabled":false,"rental_uris":{"android":"levelo://app?vid=35fbfe4c-ce5d-4572-a793-95141f3d12ac","ios":"levelo://app?vid=35fbfe4c-ce5d-4572-a793-95141f3d12ac"},"vehicle_type_id":"4","last_reported":1707066413,"current_range_meters":5600,"station_id":"ce4bgop2rcd13ifvqc1g","pricing_plan_id":"free"},{"bike_id":"cb08d6bd-411a-4fec-8c27-cacb2776b293","system_id":"levelo_inurba_marseille","lat":43.299028,"lon":5.381509,"is_reserved":false,"is_disabled":false,"rental_uris":{"android":"levelo://app?vid=cb08d6bd-411a-4fec-8c27-cacb2776b293","ios":"levelo://app?vid=cb08d6bd-411a-4fec-8c27-cacb2776b293"},"vehicle_type_id":"4","last_reported":1707066413,"current_range_meters":3600,"station_id":"ce4bgj12rcd13ifvqbc0","pricing_plan_id":"free"},{"bike_id":"e71dbeb2-bdcd-41a9-9e92-b0477debf34d","system_id":"levelo_inurba_marseille","lat":43.296426,"lon":5.374496,"is_reserved":false,"is_disabled":false,"rental_uris":{"android":"levelo://app?vid=e71dbeb2-bdcd-41a9-9e92-b0477debf34d","ios":"levelo://app?vid=e71dbeb2-bdcd-41a9-9e92-b0477debf34d"},"vehicle_type_id":"4","last_reported":1707066413,"current_range_meters":12000,"station_id":"","pricing_plan_id":"free"},{"bike_id":"ff4cf944-b629-4e32-8017-c505b0279170","system_id":"levelo_inurba_marseille","lat":43.30953,"lon":5.39026,"is_reserved":false,"is_disabled":false,"rental_uris":{"android":"levelo://app?vid=ff4cf944-b629-4e32-8017-c505b0279170","ios":"levelo://app?vid=ff4cf944-b629-4e32-8017-c505b0279170"},"vehicle_type_id":"4","last_reported":1707066413,"current_range_meters":0,"station_id":"ce4bgup2rcd13ifvqco0","pricing_plan_id":"free"},{"bike_id":"dbec503a-3bad-4f73-854c-86c476801dda","system_id":"levelo_inurba_marseille","lat":43.299028,"lon":5.381509,"is_reserved":false,"is_disabled":false,"rental_uris":{"android":"levelo://app?vid=dbec503a-3bad-4f73-854c-86c476801dda","ios":"levelo://app?vid=dbec503a-3bad-4f73-854c-86c476801dda"},"vehicle_type_id":"4","last_reported":1707066413,"current_range_meters":29600,"station_id":"ce4bgj12rcd13ifvqbc0","pricing_plan_id":"free"},{"bike_id":"d26c9609-10e9-48af-a8c9-93cfb44d0fdb","system_id":"levelo_inurba_marseille","lat":43.309589,"lon":5.390258,"is_reserved":false,"is_disabled":false,"rental_uris":{"android":"levelo://app?vid=d26c9609-10e9-48af-a8c9-93cfb44d0fdb","ios":"levelo://app?vid=d26c9609-10e9-48af-a8c9-93cfb44d0fdb"},"vehicle_type_id":"4","last_reported":1707066413,"current_range_meters":24000,"station_id":"ce4bgup2rcd13ifvqco0","pricing_plan_id":"free"},{"bike_id":"9a6ee9e7-2bbc-41fa-b59b-01b5ef62ab1c","system_id":"levelo_inurba_marseille","lat":43.317557,"lon":5.390173,"is_reserved":false,"is_disabled":false,"rental_uris":{"android":"levelo://app?vid=9a6ee9e7-2bbc-41fa-b59b-01b5ef62ab1c","ios":"levelo://app?vid=9a6ee9e7-2bbc-41fa-b59b-01b5ef62ab1c"},"vehicle_type_id":"4","last_reported":1707066413,"current_range_meters":29600,"station_id":"ce4bhqp2rcd13ifvqhng","pricing_plan_id":"free"},{"bike_id":"8b3233ae-1481-484d-83f6-61767410ce55","system_id":"levelo_inurba_marseille","lat":43.317557,"lon":5.390173,"is_reserved":false,"is_disabled":false,"rental_uris":{"android":"levelo://app?vid=8b3233ae-1481-484d-83f6-61767410ce55","ios":"levelo://app?vid=8b3233ae-1481-484d-83f6-61767410ce55"},"vehicle_type_id":"4","last_reported":1707066413,"current_range_meters":17200,"station_id":"ce4bhqp2rcd13ifvqhng","pricing_plan_id":"free"},{"bike_id":"1033b78d-f901-4cfa-8cae-54cb1e173be4","system_id":"levelo_inurba_marseille","lat":43.317557,"lon":5.390173,"is_reserved":false,"is_disabled":false,"rental_uris":{"android":"levelo://app?vid=1033b78d-f901-4cfa-8cae-54cb1e173be4","ios":"levelo://app?vid=1033b78d-f901-4cfa-8cae-54cb1e173be4"},"vehicle_type_id":"4","last_reported":1707066413,"current_range_meters":30400,"station_id":"ce4bhqp2rcd13ifvqhng","pricing_plan_id":"free"},{"bike_id":"40a85205-af79-43c2-bdc9-257280312aae","system_id":"levelo_inurba_marseille","lat":43.317551,"lon":5.39026,"is_reserved":false,"is_disabled":false,"rental_uris":{"android":"levelo://app?vid=40a85205-af79-43c2-bdc9-257280312aae","ios":"levelo://app?vid=40a85205-af79-43c2-bdc9-257280312aae"},"vehicle_type_id":"4","last_reported":1707066413,"current_range_meters":29600,"station_id":"ce4bhqp2rcd13ifvqhng","pricing_plan_id":"free"},{"bike_id":"86eba5ee-3f3e-465e-879d-a26eca611b6f","system_id":"levelo_inurba_marseille","lat":43.31829,"lon":5.390294,"is_reserved":false,"is_disabled":false,"rental_uris":{"android":"levelo://app?vid=86eba5ee-3f3e-465e-879d-a26eca611b6f","ios":"levelo://app?vid=86eba5ee-3f3e-465e-879d-a26eca611b6f"},"vehicle_type_id":"4","last_reported":1707066413,"current_range_meters":16400,"station_id":"","pricing_plan_id":"free"},{"bike_id":"0ca5a10f-b782-4d46-a2a3-58502cac73d1","system_id":"levelo_inurba_marseille","lat":43.29793,"lon":5.38123,"is_reserved":false,"is_disabled":false,"rental_uris":{"android":"levelo://app?vid=0ca5a10f-b782-4d46-a2a3-58502cac73d1","ios":"levelo://app?vid=0ca5a10f-b782-4d46-a2a3-58502cac73d1"},"vehicle_type_id":"4","last_reported":1707066413,"current_range_meters":0,"station_id":"ce4bgip2rcd13ifvqbb0","pricing_plan_id":"free"},{"bike_id":"b07ba493-c72c-4e94-985f-e53c083d08c1","system_id":"levelo_inurba_marseille","lat":43.299707,"lon":5.384859,"is_reserved":false,"is_disabled":false,"rental_uris":{"android":"levelo://app?vid=b07ba493-c72c-4e94-985f-e53c083d08c1","ios":"levelo://app?vid=b07ba493-c72c-4e94-985f-e53c083d08c1"},"vehicle_type_id":"4","last_reported":1707066413,"current_range_meters":0,"station_id":"ce4bgj92rcd13ifvqbd0","pricing_plan_id":"free"},{"bike_id":"cf2f2173-ea51-4d1b-b8b9-fc9ca1eaca3c","system_id":"levelo_inurba_marseille","lat":43.299724,"lon":5.384848,"is_reserved":false,"is_disabled":false,"rental_uris":{"android":"levelo://app?vid=cf2f2173-ea51-4d1b-b8b9-fc9ca1eaca3c","ios":"levelo://app?vid=cf2f2173-ea51-4d1b-b8b9-fc9ca1eaca3c"},"vehicle_type_id":"4","last_reported":1707066413,"current_range_meters":0,"station_id":"ce4bgj92rcd13ifvqbd0","pricing_plan_id":"free"},{"bike_id":"e7e2aa4f-246a-446c-a9c2-ca451fd45e8e","system_id":"levelo_inurba_marseille","lat":43.299724,"lon":5.384848,"is_reserved":false,"is_disabled":false,"rental_uris":{"android":"levelo://app?vid=e7e2aa4f-246a-446c-a9c2-ca451fd45e8e","ios":"levelo://app?vid=e7e2aa4f-246a-446c-a9c2-ca451fd45e8e"},"vehicle_type_id":"4","last_reported":1707066413,"current_range_meters":0,"station_id":"ce4bgj92rcd13ifvqbd0","pricing_plan_id":"free"},{"bike_id":"f459bcc8-96d9-431d-bb45-ce1f50e6d398","system_id":"levelo_inurba_marseille","lat":43.32359,"lon":5.3888,"is_reserved":false,"is_disabled":false,"rental_uris":{"android":"levelo://app?vid=f459bcc8-96d9-431d-bb45-ce1f50e6d398","ios":"levelo://app?vid=f459bcc8-96d9-431d-bb45-ce1f50e6d398"},"vehicle_type_id":"4","last_reported":1707066413,"current_range_meters":1600,"station_id":"ce4bhqp2rcd13ifvqhog","pricing_plan_id":"free"},{"bike_id":"e7a95a5a-7d13-48ff-a856-827ce0771044","system_id":"levelo_inurba_marseille","lat":43.32362,"lon":5.3888,"is_reserved":false,"is_disabled":false,"rental_uris":{"android":"levelo://app?vid=e7a95a5a-7d13-48ff-a856-827ce0771044","ios":"levelo://app?vid=e7a95a5a-7d13-48ff-a856-827ce0771044"},"vehicle_type_id":"4","last_reported":1707066413,"current_range_meters":26000,"station_id":"ce4bhqp2rcd13ifvqhog","pricing_plan_id":"free"},{"bike_id":"999af2fa-7743-40b1-ad5a-09d74cc1efed","system_id":"levelo_inurba_marseille","lat":43.32364,"lon":5.38881,"is_reserved":false,"is_disabled":false,"rental_uris":{"android":"levelo://app?vid=999af2fa-7743-40b1-ad5a-09d74cc1efed","ios":"levelo://app?vid=999af2fa-7743-40b1-ad5a-09d74cc1efed"},"vehicle_type_id":"4","last_reported":1707066413,"current_range_meters":22400,"station_id":"ce4bhqp2rcd13ifvqhog","pricing_plan_id":"free"},{"bike_id":"958c8f24-e06e-46fe-bde6-66e99a40b736","system_id":"levelo_inurba_marseille","lat":43.29601,"lon":5.381084,"is_reserved":false,"is_disabled":false,"rental_uris":{"android":"levelo://app?vid=958c8f24-e06e-46fe-bde6-66e99a40b736","ios":"levelo://app?vid=958c8f24-e06e-46fe-bde6-66e99a40b736"},"vehicle_type_id":"4","last_reported":1707066413,"current_range_meters":9200,"station_id":"ce4bgl12rcd13ifvqbo0","pricing_plan_id":"free"},{"bike_id":"181ad485-0123-4248-8ee8-dc9be000fef3","system_id":"levelo_inurba_marseille","lat":43.29601,"lon":5.381084,"is_reserved":false,"is_disabled":false,"rental_uris":{"android":"levelo://app?vid=181ad485-0123-4248-8ee8-dc9be000fef3","ios":"levelo://app?vid=181ad485-0123-4248-8ee8-dc9be000fef3"},"vehicle_type_id":"4","last_reported":1707066413,"current_range_meters":28000,"station_id":"ce4bgl12rcd13ifvqbo0","pricing_plan_id":"free"},{"bike_id":"75456717-8097-49fc-9a29-f400d4bb3d31","system_id":"levelo_inurba_marseille","lat":43.29601,"lon":5.381084,"is_reserved":false,"is_disabled":false,"rental_uris":{"android":"levelo://app?vid=75456717-8097-49fc-9a29-f400d4bb3d31","ios":"levelo://app?vid=75456717-8097-49fc-9a29-f400d4bb3d31"},"vehicle_type_id":"4","last_reported":1707066413,"current_range_meters":14000,"station_id":"ce4bgl12rcd13ifvqbo0","pricing_plan_id":"free"},{"bike_id":"d39e2195-56ac-43d1-abca-416c6a6d61fe","system_id":"levelo_inurba_marseille","lat":43.29601,"lon":5.381084,"is_reserved":false,"is_disabled":false,"rental_uris":{"android":"levelo://app?vid=d39e2195-56ac-43d1-abca-416c6a6d61fe","ios":"levelo://app?vid=d39e2195-56ac-43d1-abca-416c6a6d61fe"},"vehicle_type_id":"4","last_reported":1707066413,"current_range_meters":28800,"station_id":"ce4bgl12rcd13ifvqbo0","pricing_plan_id":"free"},{"bike_id":"7c40d7c7-0c8d-4c9a-9b09-aa18661d43f6","system_id":"levelo_inurba_marseille","lat":43.29316,"lon":5.37168,"is_reserved":false,"is_disabled":false,"rental_uris":{"android":"levelo://app?vid=7c40d7c7-0c8d-4c9a-9b09-aa18661d43f6","ios":"levelo://app?vid=7c40d7c7-0c8d-4c9a-9b09-aa18661d43f6"},"vehicle_type_id":"4","last_reported":1707066413,"current_range_meters":0,"station_id":"ce4bgh92rcd13ifvqb40","pricing_plan_id":"free"},{"bike_id":"84cc605e-cfc8-4738-9181-126681178658","system_id":"levelo_inurba_marseille","lat":43.292749,"lon":5.368402,"is_reserved":false,"is_disabled":false,"rental_uris":{"android":"levelo://app?vid=84cc605e-cfc8-4738-9181-126681178658","ios":"levelo://app?vid=84cc605e-cfc8-4738-9181-126681178658"},"vehicle_type_id":"4","last_reported":1707066413,"current_range_meters":17200,"station_id":"ce4bhbp2rcd13ifvqesg","pricing_plan_id":"free"},{"bike_id":"9e787c08-3470-4744-9bcc-ffb9a4ab75f6","system_id":"levelo_inurba_marseille","lat":43.29305,"lon":5.3718,"is_reserved":false,"is_disabled":false,"rental_uris":{"android":"levelo://app?vid=9e787c08-3470-4744-9bcc-ffb9a4ab75f6","ios":"levelo://app?vid=9e787c08-3470-4744-9bcc-ffb9a4ab75f6"},"vehicle_type_id":"4","last_reported":1707066413,"current_range_meters":14400,"station_id":"ce4bgh92rcd13ifvqb40","pricing_plan_id":"free"},{"bike_id":"f2c87920-0f6e-40f8-8ef6-e36e3d30437a","system_id":"levelo_inurba_marseille","lat":43.292749,"lon":5.368402,"is_reserved":false,"is_disabled":false,"rental_uris":{"android":"levelo://app?vid=f2c87920-0f6e-40f8-8ef6-e36e3d30437a","ios":"levelo://app?vid=f2c87920-0f6e-40f8-8ef6-e36e3d30437a"},"vehicle_type_id":"4","last_reported":1707066413,"current_range_meters":1200,"station_id":"ce4bhbp2rcd13ifvqesg","pricing_plan_id":"free"},{"bike_id":"0f90d953-2b5d-4548-9aee-1fb6d84320c1","system_id":"levelo_inurba_marseille","lat":43.29272,"lon":5.3684,"is_reserved":false,"is_disabled":false,"rental_uris":{"android":"levelo://app?vid=0f90d953-2b5d-4548-9aee-1fb6d84320c1","ios":"levelo://app?vid=0f90d953-2b5d-4548-9aee-1fb6d84320c1"},"vehicle_type_id":"4","last_reported":1707066413,"current_range_meters":0,"station_id":"ce4bhbp2rcd13ifvqesg","pricing_plan_id":"free"},{"bike_id":"65c69f9a-1687-46d8-af45-a21b0d13d41b","system_id":"levelo_inurba_marseille","lat":43.293009,"lon":5.374584,"is_reserved":false,"is_disabled":false,"rental_uris":{"android":"levelo://app?vid=65c69f9a-1687-46d8-af45-a21b0d13d41b","ios":"levelo://app?vid=65c69f9a-1687-46d8-af45-a21b0d13d41b"},"vehicle_type_id":"4","last_reported":1707066413,"current_range_meters":4000,"station_id":"ce4bgi12rcd13ifvqb70","pricing_plan_id":"free"},{"bike_id":"9ae61289-e0b5-4282-a0bb-f8d7f2c694cb","system_id":"levelo_inurba_marseille","lat":43.29302,"lon":5.37449,"is_reserved":false,"is_disabled":false,"rental_uris":{"android":"levelo://app?vid=9ae61289-e0b5-4282-a0bb-f8d7f2c694cb","ios":"levelo://app?vid=9ae61289-e0b5-4282-a0bb-f8d7f2c694cb"},"vehicle_type_id":"4","last_reported":1707066413,"current_range_meters":0,"station_id":"ce4bgi12rcd13ifvqb70","pricing_plan_id":"free"},{"bike_id":"29650de5-98a6-4591-9a10-49de5b828dba","system_id":"levelo_inurba_marseille","lat":43.305994,"lon":5.393687,"is_reserved":false,"is_disabled":false,"rental_uris":{"android":"levelo://app?vid=29650de5-98a6-4591-9a10-49de5b828dba","ios":"levelo://app?vid=29650de5-98a6-4591-9a10-49de5b828dba"},"vehicle_type_id":"4","last_reported":1707066413,"current_range_meters":2800,"station_id":"ce4bh0p2rcd13ifvqd80","pricing_plan_id":"free"},{"bike_id":"7ec3614f-7c66-496a-bcaa-70d03c8d040c","system_id":"levelo_inurba_marseille","lat":43.30319,"lon":5.39216,"is_reserved":false,"is_disabled":false,"rental_uris":{"android":"levelo://app?vid=7ec3614f-7c66-496a-bcaa-70d03c8d040c","ios":"levelo://app?vid=7ec3614f-7c66-496a-bcaa-70d03c8d040c"},"vehicle_type_id":"4","last_reported":1707066413,"current_range_meters":4400,"station_id":"ce4bgkh2rcd13ifvqbk0","pricing_plan_id":"free"},{"bike_id":"12bc9e97-8292-4986-ac9e-9f756fb29d80","system_id":"levelo_inurba_marseille","lat":43.302833,"lon":5.39236,"is_reserved":false,"is_disabled":false,"rental_uris":{"android":"levelo://app?vid=12bc9e97-8292-4986-ac9e-9f756fb29d80","ios":"levelo://app?vid=12bc9e97-8292-4986-ac9e-9f756fb29d80"},"vehicle_type_id":"4","last_reported":1707066413,"current_range_meters":6000,"station_id":"ce4bgh92rcd13ifvqb40","pricing_plan_id":"free"},{"bike_id":"20d18c43-d258-427b-a133-16c311750057","system_id":"levelo_inurba_marseille","lat":43.298764,"lon":5.388973,"is_reserved":false,"is_disabled":false,"rental_uris":{"android":"levelo://app?vid=20d18c43-d258-427b-a133-16c311750057","ios":"levelo://app?vid=20d18c43-d258-427b-a133-16c311750057"},"vehicle_type_id":"4","last_reported":1707066413,"current_range_meters":27600,"station_id":"ce4bh392rcd13ifvqdl0","pricing_plan_id":"free"},{"bike_id":"bdae254e-8019-4d36-bf5b-7d16d5f5937f","system_id":"levelo_inurba_marseille","lat":43.29265,"lon":5.37619,"is_reserved":false,"is_disabled":false,"rental_uris":{"android":"levelo://app?vid=bdae254e-8019-4d36-bf5b-7d16d5f5937f","ios":"levelo://app?vid=bdae254e-8019-4d36-bf5b-7d16d5f5937f"},"vehicle_type_id":"4","last_reported":1707066413,"current_range_meters":26800,"station_id":"","pricing_plan_id":"free"},{"bike_id":"16c8dc9e-c4a1-43cf-b6b8-191fb2a51c52","system_id":"levelo_inurba_marseille","lat":43.298764,"lon":5.388973,"is_reserved":false,"is_disabled":false,"rental_uris":{"android":"levelo://app?vid=16c8dc9e-c4a1-43cf-b6b8-191fb2a51c52","ios":"levelo://app?vid=16c8dc9e-c4a1-43cf-b6b8-191fb2a51c52"},"vehicle_type_id":"4","last_reported":1707066413,"current_range_meters":22400,"station_id":"ce4bh392rcd13ifvqdl0","pricing_plan_id":"free"},{"bike_id":"10568b26-6f22-4b3a-9206-441946018fdb","system_id":"levelo_inurba_marseille","lat":43.298764,"lon":5.388973,"is_reserved":false,"is_disabled":false,"rental_uris":{"android":"levelo://app?vid=10568b26-6f22-4b3a-9206-441946018fdb","ios":"levelo://app?vid=10568b26-6f22-4b3a-9206-441946018fdb"},"vehicle_type_id":"4","last_reported":1707066413,"current_range_meters":4000,"station_id":"ce4bh392rcd13ifvqdl0","pricing_plan_id":"free"},{"bike_id":"17a7e02e-7b79-4418-a75b-1e9b2d1271ba","system_id":"levelo_inurba_marseille","lat":43.298764,"lon":5.388973,"is_reserved":false,"is_disabled":false,"rental_uris":{"android":"levelo://app?vid=17a7e02e-7b79-4418-a75b-1e9b2d1271ba","ios":"levelo://app?vid=17a7e02e-7b79-4418-a75b-1e9b2d1271ba"},"vehicle_type_id":"4","last_reported":1707066413,"current_range_meters":8800,"station_id":"ce4bh392rcd13ifvqdl0","pricing_plan_id":"free"},{"bike_id":"79c776c9-4cdc-4661-801e-894f075a5034","system_id":"levelo_inurba_marseille","lat":43.298764,"lon":5.388973,"is_reserved":false,"is_disabled":false,"rental_uris":{"android":"levelo://app?vid=79c776c9-4cdc-4661-801e-894f075a5034","ios":"levelo://app?vid=79c776c9-4cdc-4661-801e-894f075a5034"},"vehicle_type_id":"4","last_reported":1707066413,"current_range_meters":400,"station_id":"ce4bh392rcd13ifvqdl0","pricing_plan_id":"free"},{"bike_id":"2d45e3cd-6f45-4c74-b04f-0769da455530","system_id":"levelo_inurba_marseille","lat":43.29877,"lon":5.38913,"is_reserved":false,"is_disabled":false,"rental_uris":{"android":"levelo://app?vid=2d45e3cd-6f45-4c74-b04f-0769da455530","ios":"levelo://app?vid=2d45e3cd-6f45-4c74-b04f-0769da455530"},"vehicle_type_id":"4","last_reported":1707066413,"current_range_meters":0,"station_id":"ce4bh392rcd13ifvqdl0","pricing_plan_id":"free"},{"bike_id":"39bfb21b-d352-4c6c-b8b8-b6f64e4aca3b","system_id":"levelo_inurba_marseille","lat":43.291994,"lon":5.357886,"is_reserved":false,"is_disabled":false,"rental_uris":{"android":"levelo://app?vid=39bfb21b-d352-4c6c-b8b8-b6f64e4aca3b","ios":"levelo://app?vid=39bfb21b-d352-4c6c-b8b8-b6f64e4aca3b"},"vehicle_type_id":"4","last_reported":1707066413,"current_range_meters":0,"station_id":"ce4bhb12rcd13ifvqel0","pricing_plan_id":"free"},{"bike_id":"00f8a0ec-df47-4331-a524-1a99e8520257","system_id":"levelo_inurba_marseille","lat":43.309038,"lon":5.396546,"is_reserved":false,"is_disabled":false,"rental_uris":{"android":"levelo://app?vid=00f8a0ec-df47-4331-a524-1a99e8520257","ios":"levelo://app?vid=00f8a0ec-df47-4331-a524-1a99e8520257"},"vehicle_type_id":"4","last_reported":1707066413,"current_range_meters":6400,"station_id":"ce4bh012rcd13ifvqcv0","pricing_plan_id":"free"},{"bike_id":"4419a724-5255-4916-9ab6-08c2c5ae2fc3","system_id":"levelo_inurba_marseille","lat":43.316321,"lon":5.39674,"is_reserved":false,"is_disabled":false,"rental_uris":{"android":"levelo://app?vid=4419a724-5255-4916-9ab6-08c2c5ae2fc3","ios":"levelo://app?vid=4419a724-5255-4916-9ab6-08c2c5ae2fc3"},"vehicle_type_id":"4","last_reported":1707066413,"current_range_meters":28000,"station_id":"","pricing_plan_id":"free"},{"bike_id":"d9baaf7a-bc33-4f9d-9c41-963acff6bfa4","system_id":"levelo_inurba_marseille","lat":43.289184,"lon":5.366408,"is_reserved":false,"is_disabled":false,"rental_uris":{"android":"levelo://app?vid=d9baaf7a-bc33-4f9d-9c41-963acff6bfa4","ios":"levelo://app?vid=d9baaf7a-bc33-4f9d-9c41-963acff6bfa4"},"vehicle_type_id":"4","last_reported":1707066413,"current_range_meters":16000,"station_id":"ce4bhap2rcd13ifvqek0","pricing_plan_id":"free"},{"bike_id":"b2b42238-a92c-4af5-9d9a-a3182aea3e7f","system_id":"levelo_inurba_marseille","lat":43.29529,"lon":5.385581,"is_reserved":false,"is_disabled":false,"rental_uris":{"android":"levelo://app?vid=b2b42238-a92c-4af5-9d9a-a3182aea3e7f","ios":"levelo://app?vid=b2b42238-a92c-4af5-9d9a-a3182aea3e7f"},"vehicle_type_id":"4","last_reported":1707066413,"current_range_meters":15600,"station_id":"ce4bgih2rcd13ifvqba0","pricing_plan_id":"free"},{"bike_id":"1e801fb9-6d39-474b-bd22-9d00b797d780","system_id":"levelo_inurba_marseille","lat":43.29529,"lon":5.385581,"is_reserved":false,"is_disabled":false,"rental_uris":{"android":"levelo://app?vid=1e801fb9-6d39-474b-bd22-9d00b797d780","ios":"levelo://app?vid=1e801fb9-6d39-474b-bd22-9d00b797d780"},"vehicle_type_id":"4","last_reported":1707066413,"current_range_meters":10800,"station_id":"ce4bgih2rcd13ifvqba0","pricing_plan_id":"free"},{"bike_id":"6d535f2f-ec33-41b2-8793-da938a92106c","system_id":"levelo_inurba_marseille","lat":43.29529,"lon":5.385581,"is_reserved":false,"is_disabled":false,"rental_uris":{"android":"levelo://app?vid=6d535f2f-ec33-41b2-8793-da938a92106c","ios":"levelo://app?vid=6d535f2f-ec33-41b2-8793-da938a92106c"},"vehicle_type_id":"4","last_reported":1707066413,"current_range_meters":25600,"station_id":"ce4bgih2rcd13ifvqba0","pricing_plan_id":"free"},{"bike_id":"b3062008-830f-43b5-8561-53a54a153128","system_id":"levelo_inurba_marseille","lat":43.29529,"lon":5.385581,"is_reserved":false,"is_disabled":false,"rental_uris":{"android":"levelo://app?vid=b3062008-830f-43b5-8561-53a54a153128","ios":"levelo://app?vid=b3062008-830f-43b5-8561-53a54a153128"},"vehicle_type_id":"4","last_reported":1707066413,"current_range_meters":3200,"station_id":"ce4bgih2rcd13ifvqba0","pricing_plan_id":"free"},{"bike_id":"e26c4937-aab4-4969-bff1-8a288adffec4","system_id":"levelo_inurba_marseille","lat":43.29531,"lon":5.38549,"is_reserved":false,"is_disabled":false,"rental_uris":{"android":"levelo://app?vid=e26c4937-aab4-4969-bff1-8a288adffec4","ios":"levelo://app?vid=e26c4937-aab4-4969-bff1-8a288adffec4"},"vehicle_type_id":"4","last_reported":1707066413,"current_range_meters":8400,"station_id":"ce4bgih2rcd13ifvqba0","pricing_plan_id":"free"},{"bike_id":"8490be8c-c11f-470f-b708-04d6a49a8ffd","system_id":"levelo_inurba_marseille","lat":43.29529,"lon":5.385581,"is_reserved":false,"is_disabled":false,"rental_uris":{"android":"levelo://app?vid=8490be8c-c11f-470f-b708-04d6a49a8ffd","ios":"levelo://app?vid=8490be8c-c11f-470f-b708-04d6a49a8ffd"},"vehicle_type_id":"4","last_reported":1707066413,"current_range_meters":12400,"station_id":"ce4bgih2rcd13ifvqba0","pricing_plan_id":"free"},{"bike_id":"10a85491-a992-4e8e-9c6f-bc8cd6cba8c5","system_id":"levelo_inurba_marseille","lat":43.29529,"lon":5.385581,"is_reserved":false,"is_disabled":false,"rental_uris":{"android":"levelo://app?vid=10a85491-a992-4e8e-9c6f-bc8cd6cba8c5","ios":"levelo://app?vid=10a85491-a992-4e8e-9c6f-bc8cd6cba8c5"},"vehicle_type_id":"4","last_reported":1707066413,"current_range_meters":24400,"station_id":"ce4bgih2rcd13ifvqba0","pricing_plan_id":"free"},{"bike_id":"f014faf8-c66b-44c4-b7cd-721f89b4c2ba","system_id":"levelo_inurba_marseille","lat":43.29084,"lon":5.37168,"is_reserved":false,"is_disabled":false,"rental_uris":{"android":"levelo://app?vid=f014faf8-c66b-44c4-b7cd-721f89b4c2ba","ios":"levelo://app?vid=f014faf8-c66b-44c4-b7cd-721f89b4c2ba"},"vehicle_type_id":"4","last_reported":1707066413,"current_range_meters":0,"station_id":"ce4bh5p2rcd13ifvqe4g","pricing_plan_id":"free"},{"bike_id":"d3d76317-98cf-4dd7-a40c-67be82f002e4","system_id":"levelo_inurba_marseille","lat":43.29566,"lon":5.38676,"is_reserved":false,"is_disabled":false,"rental_uris":{"android":"levelo://app?vid=d3d76317-98cf-4dd7-a40c-67be82f002e4","ios":"levelo://app?vid=d3d76317-98cf-4dd7-a40c-67be82f002e4"},"vehicle_type_id":"4","last_reported":1707066413,"current_range_meters":20000,"station_id":"","pricing_plan_id":"free"},{"bike_id":"ba37b12a-de11-45a1-bc7f-93c5953190a1","system_id":"levelo_inurba_marseille","lat":43.290603,"lon":5.371545,"is_reserved":false,"is_disabled":false,"rental_uris":{"android":"levelo://app?vid=ba37b12a-de11-45a1-bc7f-93c5953190a1","ios":"levelo://app?vid=ba37b12a-de11-45a1-bc7f-93c5953190a1"},"vehicle_type_id":"4","last_reported":1707066413,"current_range_meters":10400,"station_id":"ce4bh5p2rcd13ifvqe4g","pricing_plan_id":"free"},{"bike_id":"e18832bb-a05d-45d3-99a9-f7b4d32b3a52","system_id":"levelo_inurba_marseille","lat":43.290631,"lon":5.359244,"is_reserved":false,"is_disabled":false,"rental_uris":{"android":"levelo://app?vid=e18832bb-a05d-45d3-99a9-f7b4d32b3a52","ios":"levelo://app?vid=e18832bb-a05d-45d3-99a9-f7b4d32b3a52"},"vehicle_type_id":"4","last_reported":1707066413,"current_range_meters":10000,"station_id":"ce4bha92rcd13ifvqeg0","pricing_plan_id":"free"},{"bike_id":"1e96bbef-91fe-4831-bd2e-9c832670f93a","system_id":"levelo_inurba_marseille","lat":43.294153,"lon":5.386305,"is_reserved":false,"is_disabled":false,"rental_uris":{"android":"levelo://app?vid=1e96bbef-91fe-4831-bd2e-9c832670f93a","ios":"levelo://app?vid=1e96bbef-91fe-4831-bd2e-9c832670f93a"},"vehicle_type_id":"4","last_reported":1707066413,"current_range_meters":1600,"station_id":"ce4bh2h2rcd13ifvqdh0","pricing_plan_id":"free"},{"bike_id":"cba890d8-b5ce-4e2d-8abe-5b737c0460ba","system_id":"levelo_inurba_marseille","lat":43.294153,"lon":5.386305,"is_reserved":false,"is_disabled":false,"rental_uris":{"android":"levelo://app?vid=cba890d8-b5ce-4e2d-8abe-5b737c0460ba","ios":"levelo://app?vid=cba890d8-b5ce-4e2d-8abe-5b737c0460ba"},"vehicle_type_id":"4","last_reported":1707066413,"current_range_meters":3200,"station_id":"ce4bh2h2rcd13ifvqdh0","pricing_plan_id":"free"},{"bike_id":"b1eeb16e-0267-448d-acb6-3906f2b8c7a7","system_id":"levelo_inurba_marseille","lat":43.289184,"lon":5.366408,"is_reserved":false,"is_disabled":false,"rental_uris":{"android":"levelo://app?vid=b1eeb16e-0267-448d-acb6-3906f2b8c7a7","ios":"levelo://app?vid=b1eeb16e-0267-448d-acb6-3906f2b8c7a7"},"vehicle_type_id":"4","last_reported":1707066413,"current_range_meters":28400,"station_id":"ce4bhap2rcd13ifvqek0","pricing_plan_id":"free"},{"bike_id":"43b3998f-b0ee-4450-854b-59c8d8cf8ef0","system_id":"levelo_inurba_marseille","lat":43.294153,"lon":5.386305,"is_reserved":false,"is_disabled":false,"rental_uris":{"android":"levelo://app?vid=43b3998f-b0ee-4450-854b-59c8d8cf8ef0","ios":"levelo://app?vid=43b3998f-b0ee-4450-854b-59c8d8cf8ef0"},"vehicle_type_id":"4","last_reported":1707066413,"current_range_meters":2400,"station_id":"ce4bh2h2rcd13ifvqdh0","pricing_plan_id":"free"},{"bike_id":"54195cb8-bf95-4e90-a8fd-cd15ccb9c557","system_id":"levelo_inurba_marseille","lat":43.29417,"lon":5.38626,"is_reserved":false,"is_disabled":false,"rental_uris":{"android":"levelo://app?vid=54195cb8-bf95-4e90-a8fd-cd15ccb9c557","ios":"levelo://app?vid=54195cb8-bf95-4e90-a8fd-cd15ccb9c557"},"vehicle_type_id":"4","last_reported":1707066413,"current_range_meters":0,"station_id":"ce4bh2h2rcd13ifvqdh0","pricing_plan_id":"free"},{"bike_id":"73e69312-0db8-45db-8e90-8dec842c5943","system_id":"levelo_inurba_marseille","lat":43.28944,"lon":5.36645,"is_reserved":false,"is_disabled":false,"rental_uris":{"android":"levelo://app?vid=73e69312-0db8-45db-8e90-8dec842c5943","ios":"levelo://app?vid=73e69312-0db8-45db-8e90-8dec842c5943"},"vehicle_type_id":"4","last_reported":1707066413,"current_range_meters":3600,"station_id":"ce4bhap2rcd13ifvqek0","pricing_plan_id":"free"},{"bike_id":"2f7ddf02-dfa5-4079-8331-905742166301","system_id":"levelo_inurba_marseille","lat":43.294162,"lon":5.386292,"is_reserved":false,"is_disabled":false,"rental_uris":{"android":"levelo://app?vid=2f7ddf02-dfa5-4079-8331-905742166301","ios":"levelo://app?vid=2f7ddf02-dfa5-4079-8331-905742166301"},"vehicle_type_id":"4","last_reported":1707066413,"current_range_meters":0,"station_id":"ce4bh2h2rcd13ifvqdh0","pricing_plan_id":"free"},{"bike_id":"cb95b478-baf0-4412-a1a6-f04e8590fd9f","system_id":"levelo_inurba_marseille","lat":43.294162,"lon":5.386292,"is_reserved":false,"is_disabled":false,"rental_uris":{"android":"levelo://app?vid=cb95b478-baf0-4412-a1a6-f04e8590fd9f","ios":"levelo://app?vid=cb95b478-baf0-4412-a1a6-f04e8590fd9f"},"vehicle_type_id":"4","last_reported":1707066413,"current_range_meters":1200,"station_id":"ce4bh2h2rcd13ifvqdh0","pricing_plan_id":"free"},{"bike_id":"cfeafb10-7211-442f-a29d-bfd62bd8b766","system_id":"levelo_inurba_marseille","lat":43.289184,"lon":5.366408,"is_reserved":false,"is_disabled":false,"rental_uris":{"android":"levelo://app?vid=cfeafb10-7211-442f-a29d-bfd62bd8b766","ios":"levelo://app?vid=cfeafb10-7211-442f-a29d-bfd62bd8b766"},"vehicle_type_id":"4","last_reported":1707066413,"current_range_meters":30800,"station_id":"ce4bhap2rcd13ifvqek0","pricing_plan_id":"free"},{"bike_id":"b6b9d3ac-a7d8-431b-80b6-003d050fec93","system_id":"levelo_inurba_marseille","lat":43.29267,"lon":5.38443,"is_reserved":false,"is_disabled":false,"rental_uris":{"android":"levelo://app?vid=b6b9d3ac-a7d8-431b-80b6-003d050fec93","ios":"levelo://app?vid=b6b9d3ac-a7d8-431b-80b6-003d050fec93"},"vehicle_type_id":"4","last_reported":1707066413,"current_range_meters":10000,"station_id":"ce4bh692rcd13ifvqea0","pricing_plan_id":"free"},{"bike_id":"fe51f2c5-dfb3-40af-8d55-0af2bfc85026","system_id":"levelo_inurba_marseille","lat":43.292644,"lon":5.384257,"is_reserved":false,"is_disabled":false,"rental_uris":{"android":"levelo://app?vid=fe51f2c5-dfb3-40af-8d55-0af2bfc85026","ios":"levelo://app?vid=fe51f2c5-dfb3-40af-8d55-0af2bfc85026"},"vehicle_type_id":"4","last_reported":1707066413,"current_range_meters":4000,"station_id":"ce4bh692rcd13ifvqea0","pricing_plan_id":"free"},{"bike_id":"baf64049-7bd8-468c-9e9d-fa22c66f54d1","system_id":"levelo_inurba_marseille","lat":43.292644,"lon":5.384257,"is_reserved":false,"is_disabled":false,"rental_uris":{"android":"levelo://app?vid=baf64049-7bd8-468c-9e9d-fa22c66f54d1","ios":"levelo://app?vid=baf64049-7bd8-468c-9e9d-fa22c66f54d1"},"vehicle_type_id":"4","last_reported":1707066413,"current_range_meters":0,"station_id":"ce4bh692rcd13ifvqea0","pricing_plan_id":"free"},{"bike_id":"8344e761-73e9-4d51-acae-da749ddcbc14","system_id":"levelo_inurba_marseille","lat":43.29254,"lon":5.384455,"is_reserved":false,"is_disabled":false,"rental_uris":{"android":"levelo://app?vid=8344e761-73e9-4d51-acae-da749ddcbc14","ios":"levelo://app?vid=8344e761-73e9-4d51-acae-da749ddcbc14"},"vehicle_type_id":"4","last_reported":1707066413,"current_range_meters":0,"station_id":"ce4bh692rcd13ifvqea0","pricing_plan_id":"free"},{"bike_id":"47e20dbf-56aa-41bf-9081-a0c54824c1d6","system_id":"levelo_inurba_marseille","lat":43.292644,"lon":5.384257,"is_reserved":false,"is_disabled":false,"rental_uris":{"android":"levelo://app?vid=47e20dbf-56aa-41bf-9081-a0c54824c1d6","ios":"levelo://app?vid=47e20dbf-56aa-41bf-9081-a0c54824c1d6"},"vehicle_type_id":"4","last_reported":1707066413,"current_range_meters":0,"station_id":"ce4bh692rcd13ifvqea0","pricing_plan_id":"free"},{"bike_id":"8064bc82-4a4e-420b-b2a8-881831011521","system_id":"levelo_inurba_marseille","lat":43.292644,"lon":5.384257,"is_reserved":false,"is_disabled":false,"rental_uris":{"android":"levelo://app?vid=8064bc82-4a4e-420b-b2a8-881831011521","ios":"levelo://app?vid=8064bc82-4a4e-420b-b2a8-881831011521"},"vehicle_type_id":"4","last_reported":1707066413,"current_range_meters":13200,"station_id":"ce4bh692rcd13ifvqea0","pricing_plan_id":"free"},{"bike_id":"8d25324e-1492-40d9-994a-72c0d6def8a8","system_id":"levelo_inurba_marseille","lat":43.29004,"lon":5.35613,"is_reserved":false,"is_disabled":false,"rental_uris":{"android":"levelo://app?vid=8d25324e-1492-40d9-994a-72c0d6def8a8","ios":"levelo://app?vid=8d25324e-1492-40d9-994a-72c0d6def8a8"},"vehicle_type_id":"4","last_reported":1707066413,"current_range_meters":0,"station_id":"ce4bhb92rcd13ifvqen0","pricing_plan_id":"free"},{"bike_id":"a3ebb253-0735-468a-957a-b010e12195ff","system_id":"levelo_inurba_marseille","lat":43.297168,"lon":5.392315,"is_reserved":false,"is_disabled":false,"rental_uris":{"android":"levelo://app?vid=a3ebb253-0735-468a-957a-b010e12195ff","ios":"levelo://app?vid=a3ebb253-0735-468a-957a-b010e12195ff"},"vehicle_type_id":"4","last_reported":1707066413,"current_range_meters":7200,"station_id":"chh1huq6cuj3fo74tm60","pricing_plan_id":"free"},{"bike_id":"1f0208fa-2b14-47d4-bb8b-a9b8483639c3","system_id":"levelo_inurba_marseille","lat":43.295169,"lon":5.390426,"is_reserved":false,"is_disabled":false,"rental_uris":{"android":"levelo://app?vid=1f0208fa-2b14-47d4-bb8b-a9b8483639c3","ios":"levelo://app?vid=1f0208fa-2b14-47d4-bb8b-a9b8483639c3"},"vehicle_type_id":"4","last_reported":1707066413,"current_range_meters":5200,"station_id":"ce4bh3p2rcd13ifvqdp0","pricing_plan_id":"free"},{"bike_id":"1b9bdda8-f2ef-43d9-a7e8-36fc1531048e","system_id":"levelo_inurba_marseille","lat":43.29784,"lon":5.39348,"is_reserved":false,"is_disabled":false,"rental_uris":{"android":"levelo://app?vid=1b9bdda8-f2ef-43d9-a7e8-36fc1531048e","ios":"levelo://app?vid=1b9bdda8-f2ef-43d9-a7e8-36fc1531048e"},"vehicle_type_id":"4","last_reported":1707066413,"current_range_meters":0,"station_id":"chh1huq6cuj3fo74tm60","pricing_plan_id":"free"},{"bike_id":"36dcf795-21eb-42cc-a480-af859cb90eab","system_id":"levelo_inurba_marseille","lat":43.330442,"lon":5.389148,"is_reserved":false,"is_disabled":false,"rental_uris":{"android":"levelo://app?vid=36dcf795-21eb-42cc-a480-af859cb90eab","ios":"levelo://app?vid=36dcf795-21eb-42cc-a480-af859cb90eab"},"vehicle_type_id":"4","last_reported":1707066413,"current_range_meters":31200,"station_id":"ce4bhr92rcd13ifvqhrg","pricing_plan_id":"free"},{"bike_id":"4270893e-7646-43e8-9278-a14d6af412e0","system_id":"levelo_inurba_marseille","lat":43.3302,"lon":5.39047,"is_reserved":false,"is_disabled":false,"rental_uris":{"android":"levelo://app?vid=4270893e-7646-43e8-9278-a14d6af412e0","ios":"levelo://app?vid=4270893e-7646-43e8-9278-a14d6af412e0"},"vehicle_type_id":"4","last_reported":1707066413,"current_range_meters":28400,"station_id":"ce4bhr92rcd13ifvqhrg","pricing_plan_id":"free"},{"bike_id":"84ac4dc3-c2f9-4ae0-bf58-9c14e10a514e","system_id":"levelo_inurba_marseille","lat":43.330442,"lon":5.389148,"is_reserved":false,"is_disabled":false,"rental_uris":{"android":"levelo://app?vid=84ac4dc3-c2f9-4ae0-bf58-9c14e10a514e","ios":"levelo://app?vid=84ac4dc3-c2f9-4ae0-bf58-9c14e10a514e"},"vehicle_type_id":"4","last_reported":1707066413,"current_range_meters":31200,"station_id":"ce4bhr92rcd13ifvqhrg","pricing_plan_id":"free"},{"bike_id":"291aaf63-a488-43b5-8680-f0c35b710160","system_id":"levelo_inurba_marseille","lat":43.33025,"lon":5.39045,"is_reserved":false,"is_disabled":false,"rental_uris":{"android":"levelo://app?vid=291aaf63-a488-43b5-8680-f0c35b710160","ios":"levelo://app?vid=291aaf63-a488-43b5-8680-f0c35b710160"},"vehicle_type_id":"4","last_reported":1707066413,"current_range_meters":25600,"station_id":"ce4bhr92rcd13ifvqhrg","pricing_plan_id":"free"},{"bike_id":"85e6a602-00c2-4897-b04e-3f61b0beed05","system_id":"levelo_inurba_marseille","lat":43.289741,"lon":5.378306,"is_reserved":false,"is_disabled":false,"rental_uris":{"android":"levelo://app?vid=85e6a602-00c2-4897-b04e-3f61b0beed05","ios":"levelo://app?vid=85e6a602-00c2-4897-b04e-3f61b0beed05"},"vehicle_type_id":"4","last_reported":1707066413,"current_range_meters":1200,"station_id":"ce4bh9p2rcd13ifvqed0","pricing_plan_id":"free"},{"bike_id":"02fefdd2-c91a-46fc-9501-4543c3c10a56","system_id":"levelo_inurba_marseille","lat":43.330442,"lon":5.389148,"is_reserved":false,"is_disabled":false,"rental_uris":{"android":"levelo://app?vid=02fefdd2-c91a-46fc-9501-4543c3c10a56","ios":"levelo://app?vid=02fefdd2-c91a-46fc-9501-4543c3c10a56"},"vehicle_type_id":"4","last_reported":1707066413,"current_range_meters":9200,"station_id":"ce4bhr92rcd13ifvqhrg","pricing_plan_id":"free"},{"bike_id":"d0796fa0-bf5b-4b1c-9cef-294fce4798b4","system_id":"levelo_inurba_marseille","lat":43.2901,"lon":5.381269,"is_reserved":false,"is_disabled":false,"rental_uris":{"android":"levelo://app?vid=d0796fa0-bf5b-4b1c-9cef-294fce4798b4","ios":"levelo://app?vid=d0796fa0-bf5b-4b1c-9cef-294fce4798b4"},"vehicle_type_id":"4","last_reported":1707066413,"current_range_meters":8800,"station_id":"ce4bh4p2rcd13ifvqe1g","pricing_plan_id":"free"},{"bike_id":"dd004911-8180-4d4b-9310-c4a2a1911eaa","system_id":"levelo_inurba_marseille","lat":43.2901,"lon":5.381269,"is_reserved":false,"is_disabled":false,"rental_uris":{"android":"levelo://app?vid=dd004911-8180-4d4b-9310-c4a2a1911eaa","ios":"levelo://app?vid=dd004911-8180-4d4b-9310-c4a2a1911eaa"},"vehicle_type_id":"4","last_reported":1707066413,"current_range_meters":4000,"station_id":"ce4bh4p2rcd13ifvqe1g","pricing_plan_id":"free"},{"bike_id":"998dd78e-80c7-4b8d-9be4-1c932f53ebb9","system_id":"levelo_inurba_marseille","lat":43.28856,"lon":5.358371,"is_reserved":false,"is_disabled":false,"rental_uris":{"android":"levelo://app?vid=998dd78e-80c7-4b8d-9be4-1c932f53ebb9","ios":"levelo://app?vid=998dd78e-80c7-4b8d-9be4-1c932f53ebb9"},"vehicle_type_id":"4","last_reported":1707066413,"current_range_meters":20400,"station_id":"ce4bhb12rcd13ifvqem0","pricing_plan_id":"free"},{"bike_id":"46791404-fd65-4024-912f-f65d8a5fc5af","system_id":"levelo_inurba_marseille","lat":43.312609,"lon":5.401662,"is_reserved":false,"is_disabled":false,"rental_uris":{"android":"levelo://app?vid=46791404-fd65-4024-912f-f65d8a5fc5af","ios":"levelo://app?vid=46791404-fd65-4024-912f-f65d8a5fc5af"},"vehicle_type_id":"4","last_reported":1707066413,"current_range_meters":26800,"station_id":"ce4bh092rcd13ifvqd30","pricing_plan_id":"free"},{"bike_id":"0af38d84-b449-4fe9-8d3a-bb549e971224","system_id":"levelo_inurba_marseille","lat":43.309371,"lon":5.401449,"is_reserved":false,"is_disabled":false,"rental_uris":{"android":"levelo://app?vid=0af38d84-b449-4fe9-8d3a-bb549e971224","ios":"levelo://app?vid=0af38d84-b449-4fe9-8d3a-bb549e971224"},"vehicle_type_id":"4","last_reported":1707066413,"current_range_meters":5200,"station_id":"ce4bgvp2rcd13ifvqct0","pricing_plan_id":"free"},{"bike_id":"57c02de3-8b2c-4d19-b3a5-df1dfd72ca95","system_id":"levelo_inurba_marseille","lat":43.309322,"lon":5.40141,"is_reserved":false,"is_disabled":false,"rental_uris":{"android":"levelo://app?vid=57c02de3-8b2c-4d19-b3a5-df1dfd72ca95","ios":"levelo://app?vid=57c02de3-8b2c-4d19-b3a5-df1dfd72ca95"},"vehicle_type_id":"4","last_reported":1707066413,"current_range_meters":31200,"station_id":"ce4bgvp2rcd13ifvqct0","pricing_plan_id":"free"},{"bike_id":"c88b544a-7d5f-44cd-9e90-26ffcf31651a","system_id":"levelo_inurba_marseille","lat":43.32686,"lon":5.39586,"is_reserved":false,"is_disabled":false,"rental_uris":{"android":"levelo://app?vid=c88b544a-7d5f-44cd-9e90-26ffcf31651a","ios":"levelo://app?vid=c88b544a-7d5f-44cd-9e90-26ffcf31651a"},"vehicle_type_id":"4","last_reported":1707066413,"current_range_meters":13200,"station_id":"","pricing_plan_id":"free"},{"bike_id":"32258fa7-13e8-4e66-875e-93e46fd28aed","system_id":"levelo_inurba_marseille","lat":43.30928,"lon":5.40145,"is_reserved":false,"is_disabled":false,"rental_uris":{"android":"levelo://app?vid=32258fa7-13e8-4e66-875e-93e46fd28aed","ios":"levelo://app?vid=32258fa7-13e8-4e66-875e-93e46fd28aed"},"vehicle_type_id":"4","last_reported":1707066413,"current_range_meters":30400,"station_id":"ce4bgvp2rcd13ifvqct0","pricing_plan_id":"free"},{"bike_id":"77808c9a-b998-4658-aedb-b25e3472d80a","system_id":"levelo_inurba_marseille","lat":43.309371,"lon":5.401449,"is_reserved":false,"is_disabled":false,"rental_uris":{"android":"levelo://app?vid=77808c9a-b998-4658-aedb-b25e3472d80a","ios":"levelo://app?vid=77808c9a-b998-4658-aedb-b25e3472d80a"},"vehicle_type_id":"4","last_reported":1707066413,"current_range_meters":29600,"station_id":"ce4bgvp2rcd13ifvqct0","pricing_plan_id":"free"},{"bike_id":"c4c5e2e5-6a67-478e-98a9-b7ee3cad8c01","system_id":"levelo_inurba_marseille","lat":43.30642,"lon":5.401031,"is_reserved":false,"is_disabled":false,"rental_uris":{"android":"levelo://app?vid=c4c5e2e5-6a67-478e-98a9-b7ee3cad8c01","ios":"levelo://app?vid=c4c5e2e5-6a67-478e-98a9-b7ee3cad8c01"},"vehicle_type_id":"4","last_reported":1707066413,"current_range_meters":16400,"station_id":"ce4bh112rcd13ifvqda0","pricing_plan_id":"free"},{"bike_id":"b5c8cd35-34dd-45ee-b3e7-3050ef3cbe6a","system_id":"levelo_inurba_marseille","lat":43.337673,"lon":5.374918,"is_reserved":false,"is_disabled":false,"rental_uris":{"android":"levelo://app?vid=b5c8cd35-34dd-45ee-b3e7-3050ef3cbe6a","ios":"levelo://app?vid=b5c8cd35-34dd-45ee-b3e7-3050ef3cbe6a"},"vehicle_type_id":"4","last_reported":1707066413,"current_range_meters":11600,"station_id":"","pricing_plan_id":"free"},{"bike_id":"3934696f-6b71-4110-889e-5902105843d9","system_id":"levelo_inurba_marseille","lat":43.286591,"lon":5.363346,"is_reserved":false,"is_disabled":false,"rental_uris":{"android":"levelo://app?vid=3934696f-6b71-4110-889e-5902105843d9","ios":"levelo://app?vid=3934696f-6b71-4110-889e-5902105843d9"},"vehicle_type_id":"4","last_reported":1707066413,"current_range_meters":22000,"station_id":"ce4bhah2rcd13ifvqej0","pricing_plan_id":"free"},{"bike_id":"d3c77141-db99-4e33-9afb-da595021ea08","system_id":"levelo_inurba_marseille","lat":43.286961,"lon":5.373785,"is_reserved":false,"is_disabled":false,"rental_uris":{"android":"levelo://app?vid=d3c77141-db99-4e33-9afb-da595021ea08","ios":"levelo://app?vid=d3c77141-db99-4e33-9afb-da595021ea08"},"vehicle_type_id":"4","last_reported":1707066413,"current_range_meters":0,"station_id":"ce4bh3p2rcd13ifvqdq0","pricing_plan_id":"free"},{"bike_id":"3c41b1a9-4ce5-49a0-924e-5c3f1fbe2229","system_id":"levelo_inurba_marseille","lat":43.298681,"lon":5.397225,"is_reserved":false,"is_disabled":false,"rental_uris":{"android":"levelo://app?vid=3c41b1a9-4ce5-49a0-924e-5c3f1fbe2229","ios":"levelo://app?vid=3c41b1a9-4ce5-49a0-924e-5c3f1fbe2229"},"vehicle_type_id":"4","last_reported":1707066413,"current_range_meters":5200,"station_id":"ce4bh0h2rcd13ifvqd50","pricing_plan_id":"free"},{"bike_id":"660ba623-f7b6-4138-bb02-922f7c1c1e86","system_id":"levelo_inurba_marseille","lat":43.298681,"lon":5.397225,"is_reserved":false,"is_disabled":false,"rental_uris":{"android":"levelo://app?vid=660ba623-f7b6-4138-bb02-922f7c1c1e86","ios":"levelo://app?vid=660ba623-f7b6-4138-bb02-922f7c1c1e86"},"vehicle_type_id":"4","last_reported":1707066413,"current_range_meters":14000,"station_id":"ce4bh0h2rcd13ifvqd50","pricing_plan_id":"free"},{"bike_id":"471ee9fa-b44d-4b1e-80e2-e03f0b63d9cb","system_id":"levelo_inurba_marseille","lat":43.298681,"lon":5.397225,"is_reserved":false,"is_disabled":false,"rental_uris":{"android":"levelo://app?vid=471ee9fa-b44d-4b1e-80e2-e03f0b63d9cb","ios":"levelo://app?vid=471ee9fa-b44d-4b1e-80e2-e03f0b63d9cb"},"vehicle_type_id":"4","last_reported":1707066413,"current_range_meters":2400,"station_id":"ce4bh0h2rcd13ifvqd50","pricing_plan_id":"free"},{"bike_id":"a409a350-c4c6-49d8-af92-98f847538709","system_id":"levelo_inurba_marseille","lat":43.286961,"lon":5.373785,"is_reserved":false,"is_disabled":false,"rental_uris":{"android":"levelo://app?vid=a409a350-c4c6-49d8-af92-98f847538709","ios":"levelo://app?vid=a409a350-c4c6-49d8-af92-98f847538709"},"vehicle_type_id":"4","last_reported":1707066413,"current_range_meters":800,"station_id":"ce4bh3p2rcd13ifvqdq0","pricing_plan_id":"free"},{"bike_id":"31cc79a1-1dae-4152-9663-a67650e3c156","system_id":"levelo_inurba_marseille","lat":43.298681,"lon":5.397225,"is_reserved":false,"is_disabled":false,"rental_uris":{"android":"levelo://app?vid=31cc79a1-1dae-4152-9663-a67650e3c156","ios":"levelo://app?vid=31cc79a1-1dae-4152-9663-a67650e3c156"},"vehicle_type_id":"4","last_reported":1707066413,"current_range_meters":28000,"station_id":"ce4bh0h2rcd13ifvqd50","pricing_plan_id":"free"},{"bike_id":"2f1ca3b7-c65f-461a-8afb-89f13fe7c321","system_id":"levelo_inurba_marseille","lat":43.286592,"lon":5.363544,"is_reserved":false,"is_disabled":false,"rental_uris":{"android":"levelo://app?vid=2f1ca3b7-c65f-461a-8afb-89f13fe7c321","ios":"levelo://app?vid=2f1ca3b7-c65f-461a-8afb-89f13fe7c321"},"vehicle_type_id":"4","last_reported":1707066413,"current_range_meters":0,"station_id":"ce4bhah2rcd13ifvqej0","pricing_plan_id":"free"},{"bike_id":"fef51a80-1255-481b-b432-d4b2ca6def1f","system_id":"levelo_inurba_marseille","lat":43.286593,"lon":5.363346,"is_reserved":false,"is_disabled":false,"rental_uris":{"android":"levelo://app?vid=fef51a80-1255-481b-b432-d4b2ca6def1f","ios":"levelo://app?vid=fef51a80-1255-481b-b432-d4b2ca6def1f"},"vehicle_type_id":"4","last_reported":1707066413,"current_range_meters":2400,"station_id":"ce4bhah2rcd13ifvqej0","pricing_plan_id":"free"},{"bike_id":"2ac72b52-61cf-4e70-88de-907666bfd5e1","system_id":"levelo_inurba_marseille","lat":43.295196,"lon":5.39397,"is_reserved":false,"is_disabled":false,"rental_uris":{"android":"levelo://app?vid=2ac72b52-61cf-4e70-88de-907666bfd5e1","ios":"levelo://app?vid=2ac72b52-61cf-4e70-88de-907666bfd5e1"},"vehicle_type_id":"4","last_reported":1707066413,"current_range_meters":12800,"station_id":"ce4bh292rcd13ifvqdf0","pricing_plan_id":"free"},{"bike_id":"0b04a74c-47d6-4a48-9343-687dce9802a7","system_id":"levelo_inurba_marseille","lat":43.289307,"lon":5.38406,"is_reserved":false,"is_disabled":false,"rental_uris":{"android":"levelo://app?vid=0b04a74c-47d6-4a48-9343-687dce9802a7","ios":"levelo://app?vid=0b04a74c-47d6-4a48-9343-687dce9802a7"},"vehicle_type_id":"4","last_reported":1707066413,"current_range_meters":2000,"station_id":"ce4bh612rcd13ifvqe6g","pricing_plan_id":"free"},{"bike_id":"3fddcf7c-82b8-456f-9145-e6c2cdf28f67","system_id":"levelo_inurba_marseille","lat":43.286039,"lon":5.370679,"is_reserved":false,"is_disabled":false,"rental_uris":{"android":"levelo://app?vid=3fddcf7c-82b8-456f-9145-e6c2cdf28f67","ios":"levelo://app?vid=3fddcf7c-82b8-456f-9145-e6c2cdf28f67"},"vehicle_type_id":"4","last_reported":1707066413,"current_range_meters":16000,"station_id":"ce4bht12rcd13ifvqi60","pricing_plan_id":"free"},{"bike_id":"83263344-73a1-424e-a2bb-5bca6394723a","system_id":"levelo_inurba_marseille","lat":43.28614,"lon":5.37066,"is_reserved":false,"is_disabled":false,"rental_uris":{"android":"levelo://app?vid=83263344-73a1-424e-a2bb-5bca6394723a","ios":"levelo://app?vid=83263344-73a1-424e-a2bb-5bca6394723a"},"vehicle_type_id":"4","last_reported":1707066413,"current_range_meters":400,"station_id":"ce4bht12rcd13ifvqi60","pricing_plan_id":"free"},{"bike_id":"9b2b4185-0622-4ec6-8492-29a8f0b8d7a1","system_id":"levelo_inurba_marseille","lat":43.286039,"lon":5.370679,"is_reserved":false,"is_disabled":false,"rental_uris":{"android":"levelo://app?vid=9b2b4185-0622-4ec6-8492-29a8f0b8d7a1","ios":"levelo://app?vid=9b2b4185-0622-4ec6-8492-29a8f0b8d7a1"},"vehicle_type_id":"4","last_reported":1707066413,"current_range_meters":2000,"station_id":"ce4bht12rcd13ifvqi60","pricing_plan_id":"free"},{"bike_id":"143190a1-8648-497c-abab-13d19e7e54e2","system_id":"levelo_inurba_marseille","lat":43.28734,"lon":5.37953,"is_reserved":false,"is_disabled":false,"rental_uris":{"android":"levelo://app?vid=143190a1-8648-497c-abab-13d19e7e54e2","ios":"levelo://app?vid=143190a1-8648-497c-abab-13d19e7e54e2"},"vehicle_type_id":"4","last_reported":1707066413,"current_range_meters":3600,"station_id":"ce4bh9p2rcd13ifvqec0","pricing_plan_id":"free"},{"bike_id":"d8292c72-cc83-4aec-8c53-cc77dcdbf130","system_id":"levelo_inurba_marseille","lat":43.287184,"lon":5.37937,"is_reserved":false,"is_disabled":false,"rental_uris":{"android":"levelo://app?vid=d8292c72-cc83-4aec-8c53-cc77dcdbf130","ios":"levelo://app?vid=d8292c72-cc83-4aec-8c53-cc77dcdbf130"},"vehicle_type_id":"4","last_reported":1707066413,"current_range_meters":23600,"station_id":"ce4bh9p2rcd13ifvqec0","pricing_plan_id":"free"},{"bike_id":"bd5a5421-f173-4d91-ae9f-de9bcbe4d2a6","system_id":"levelo_inurba_marseille","lat":43.287184,"lon":5.37937,"is_reserved":false,"is_disabled":false,"rental_uris":{"android":"levelo://app?vid=bd5a5421-f173-4d91-ae9f-de9bcbe4d2a6","ios":"levelo://app?vid=bd5a5421-f173-4d91-ae9f-de9bcbe4d2a6"},"vehicle_type_id":"4","last_reported":1707066413,"current_range_meters":30800,"station_id":"ce4bh9p2rcd13ifvqec0","pricing_plan_id":"free"},{"bike_id":"d48526f7-15bd-49c4-b537-c1d755007dae","system_id":"levelo_inurba_marseille","lat":43.316828,"lon":5.404723,"is_reserved":false,"is_disabled":false,"rental_uris":{"android":"levelo://app?vid=d48526f7-15bd-49c4-b537-c1d755007dae","ios":"levelo://app?vid=d48526f7-15bd-49c4-b537-c1d755007dae"},"vehicle_type_id":"4","last_reported":1707066413,"current_range_meters":26400,"station_id":"ce4bh012rcd13ifvqd00","pricing_plan_id":"free"},{"bike_id":"5aef156f-8458-4147-b6e3-a8a6387946f7","system_id":"levelo_inurba_marseille","lat":43.316828,"lon":5.404723,"is_reserved":false,"is_disabled":false,"rental_uris":{"android":"levelo://app?vid=5aef156f-8458-4147-b6e3-a8a6387946f7","ios":"levelo://app?vid=5aef156f-8458-4147-b6e3-a8a6387946f7"},"vehicle_type_id":"4","last_reported":1707066413,"current_range_meters":31200,"station_id":"ce4bh012rcd13ifvqd00","pricing_plan_id":"free"},{"bike_id":"b1252978-b2d4-410e-815f-b83cd02c402b","system_id":"levelo_inurba_marseille","lat":43.317082,"lon":5.404702,"is_reserved":false,"is_disabled":false,"rental_uris":{"android":"levelo://app?vid=b1252978-b2d4-410e-815f-b83cd02c402b","ios":"levelo://app?vid=b1252978-b2d4-410e-815f-b83cd02c402b"},"vehicle_type_id":"4","last_reported":1707066413,"current_range_meters":31200,"station_id":"ce4bh012rcd13ifvqd00","pricing_plan_id":"free"},{"bike_id":"1969bb26-478a-4761-95f2-78ad1d0202e7","system_id":"levelo_inurba_marseille","lat":43.316828,"lon":5.404723,"is_reserved":false,"is_disabled":false,"rental_uris":{"android":"levelo://app?vid=1969bb26-478a-4761-95f2-78ad1d0202e7","ios":"levelo://app?vid=1969bb26-478a-4761-95f2-78ad1d0202e7"},"vehicle_type_id":"4","last_reported":1707066413,"current_range_meters":30800,"station_id":"ce4bh012rcd13ifvqd00","pricing_plan_id":"free"},{"bike_id":"94c7298d-9e44-4060-8868-1341a9cdc644","system_id":"levelo_inurba_marseille","lat":43.283998,"lon":5.375062,"is_reserved":false,"is_disabled":false,"rental_uris":{"android":"levelo://app?vid=94c7298d-9e44-4060-8868-1341a9cdc644","ios":"levelo://app?vid=94c7298d-9e44-4060-8868-1341a9cdc644"},"vehicle_type_id":"4","last_reported":1707066413,"current_range_meters":4400,"station_id":"ce4bh412rcd13ifvqds0","pricing_plan_id":"free"},{"bike_id":"dedec121-7ead-47e2-a1e4-839d56304e5b","system_id":"levelo_inurba_marseille","lat":43.284534,"lon":5.358662,"is_reserved":false,"is_disabled":false,"rental_uris":{"android":"levelo://app?vid=dedec121-7ead-47e2-a1e4-839d56304e5b","ios":"levelo://app?vid=dedec121-7ead-47e2-a1e4-839d56304e5b"},"vehicle_type_id":"4","last_reported":1707066413,"current_range_meters":19600,"station_id":"ce4bhah2rcd13ifvqei0","pricing_plan_id":"free"},{"bike_id":"959ddf3a-b927-4500-9bac-6857bd30b5d5","system_id":"levelo_inurba_marseille","lat":43.286594,"lon":5.383336,"is_reserved":false,"is_disabled":false,"rental_uris":{"android":"levelo://app?vid=959ddf3a-b927-4500-9bac-6857bd30b5d5","ios":"levelo://app?vid=959ddf3a-b927-4500-9bac-6857bd30b5d5"},"vehicle_type_id":"4","last_reported":1707066413,"current_range_meters":11200,"station_id":"","pricing_plan_id":"free"},{"bike_id":"5e6870fd-c6a1-4809-89ef-d76ada8bbd4a","system_id":"levelo_inurba_marseille","lat":43.284534,"lon":5.358662,"is_reserved":false,"is_disabled":false,"rental_uris":{"android":"levelo://app?vid=5e6870fd-c6a1-4809-89ef-d76ada8bbd4a","ios":"levelo://app?vid=5e6870fd-c6a1-4809-89ef-d76ada8bbd4a"},"vehicle_type_id":"4","last_reported":1707066413,"current_range_meters":25200,"station_id":"ce4bhah2rcd13ifvqei0","pricing_plan_id":"free"},{"bike_id":"b9514bea-8479-4af7-a76b-6e5502a36411","system_id":"levelo_inurba_marseille","lat":43.284534,"lon":5.358662,"is_reserved":false,"is_disabled":false,"rental_uris":{"android":"levelo://app?vid=b9514bea-8479-4af7-a76b-6e5502a36411","ios":"levelo://app?vid=b9514bea-8479-4af7-a76b-6e5502a36411"},"vehicle_type_id":"4","last_reported":1707066413,"current_range_meters":1600,"station_id":"ce4bhah2rcd13ifvqei0","pricing_plan_id":"free"},{"bike_id":"a31cff61-5139-48c9-851c-8c867d464681","system_id":"levelo_inurba_marseille","lat":43.284534,"lon":5.358662,"is_reserved":false,"is_disabled":false,"rental_uris":{"android":"levelo://app?vid=a31cff61-5139-48c9-851c-8c867d464681","ios":"levelo://app?vid=a31cff61-5139-48c9-851c-8c867d464681"},"vehicle_type_id":"4","last_reported":1707066413,"current_range_meters":24000,"station_id":"ce4bhah2rcd13ifvqei0","pricing_plan_id":"free"},{"bike_id":"e461185f-74a2-4a0b-ba2d-e0c6a1ee9f37","system_id":"levelo_inurba_marseille","lat":43.294314,"lon":5.397498,"is_reserved":false,"is_disabled":false,"rental_uris":{"android":"levelo://app?vid=e461185f-74a2-4a0b-ba2d-e0c6a1ee9f37","ios":"levelo://app?vid=e461185f-74a2-4a0b-ba2d-e0c6a1ee9f37"},"vehicle_type_id":"4","last_reported":1707066413,"current_range_meters":2400,"station_id":"ce4bh3h2rcd13ifvqdo0","pricing_plan_id":"free"},{"bike_id":"fab5601e-bc5e-4072-a44e-3a2de9509a16","system_id":"levelo_inurba_marseille","lat":43.294314,"lon":5.397498,"is_reserved":false,"is_disabled":false,"rental_uris":{"android":"levelo://app?vid=fab5601e-bc5e-4072-a44e-3a2de9509a16","ios":"levelo://app?vid=fab5601e-bc5e-4072-a44e-3a2de9509a16"},"vehicle_type_id":"4","last_reported":1707066413,"current_range_meters":12400,"station_id":"ce4bh3h2rcd13ifvqdo0","pricing_plan_id":"free"},{"bike_id":"9f26cd74-ec68-4d4a-a170-8fe6529613b3","system_id":"levelo_inurba_marseille","lat":43.28617,"lon":5.35102,"is_reserved":false,"is_disabled":false,"rental_uris":{"android":"levelo://app?vid=9f26cd74-ec68-4d4a-a170-8fe6529613b3","ios":"levelo://app?vid=9f26cd74-ec68-4d4a-a170-8fe6529613b3"},"vehicle_type_id":"4","last_reported":1707066413,"current_range_meters":0,"station_id":"ce4bhch2rcd13ifvqeug","pricing_plan_id":"free"},{"bike_id":"d3bf97c9-1e9a-4246-b44d-7aa4054e39e7","system_id":"levelo_inurba_marseille","lat":43.283998,"lon":5.375062,"is_reserved":false,"is_disabled":false,"rental_uris":{"android":"levelo://app?vid=d3bf97c9-1e9a-4246-b44d-7aa4054e39e7","ios":"levelo://app?vid=d3bf97c9-1e9a-4246-b44d-7aa4054e39e7"},"vehicle_type_id":"4","last_reported":1707066413,"current_range_meters":0,"station_id":"ce4bh412rcd13ifvqds0","pricing_plan_id":"free"},{"bike_id":"8c328bf8-526e-4446-b362-af0d191d4027","system_id":"levelo_inurba_marseille","lat":43.284069,"lon":5.375063,"is_reserved":false,"is_disabled":false,"rental_uris":{"android":"levelo://app?vid=8c328bf8-526e-4446-b362-af0d191d4027","ios":"levelo://app?vid=8c328bf8-526e-4446-b362-af0d191d4027"},"vehicle_type_id":"4","last_reported":1707066413,"current_range_meters":2000,"station_id":"ce4bh412rcd13ifvqds0","pricing_plan_id":"free"},{"bike_id":"ed55e961-e33d-4e96-863a-a02568b59b0a","system_id":"levelo_inurba_marseille","lat":43.337168,"lon":5.391825,"is_reserved":false,"is_disabled":false,"rental_uris":{"android":"levelo://app?vid=ed55e961-e33d-4e96-863a-a02568b59b0a","ios":"levelo://app?vid=ed55e961-e33d-4e96-863a-a02568b59b0a"},"vehicle_type_id":"4","last_reported":1707066413,"current_range_meters":31600,"station_id":"ce4bhr92rcd13ifvqhsg","pricing_plan_id":"free"},{"bike_id":"b935769b-4c17-406c-b721-5f48fabb8281","system_id":"levelo_inurba_marseille","lat":43.323464,"lon":5.406297,"is_reserved":false,"is_disabled":false,"rental_uris":{"android":"levelo://app?vid=b935769b-4c17-406c-b721-5f48fabb8281","ios":"levelo://app?vid=b935769b-4c17-406c-b721-5f48fabb8281"},"vehicle_type_id":"4","last_reported":1707066413,"current_range_meters":16400,"station_id":"ce4bhq92rcd13ifvqhjg","pricing_plan_id":"free"},{"bike_id":"843db0e0-593c-4dbd-adf3-4f67f432e08e","system_id":"levelo_inurba_marseille","lat":43.337168,"lon":5.391825,"is_reserved":false,"is_disabled":false,"rental_uris":{"android":"levelo://app?vid=843db0e0-593c-4dbd-adf3-4f67f432e08e","ios":"levelo://app?vid=843db0e0-593c-4dbd-adf3-4f67f432e08e"},"vehicle_type_id":"4","last_reported":1707066413,"current_range_meters":13200,"station_id":"ce4bhr92rcd13ifvqhsg","pricing_plan_id":"free"},{"bike_id":"44e6577f-438a-4aad-bd1e-14888fd1d564","system_id":"levelo_inurba_marseille","lat":43.337168,"lon":5.391825,"is_reserved":false,"is_disabled":false,"rental_uris":{"android":"levelo://app?vid=44e6577f-438a-4aad-bd1e-14888fd1d564","ios":"levelo://app?vid=44e6577f-438a-4aad-bd1e-14888fd1d564"},"vehicle_type_id":"4","last_reported":1707066413,"current_range_meters":24800,"station_id":"ce4bhr92rcd13ifvqhsg","pricing_plan_id":"free"},{"bike_id":"ef130d21-7e9b-4fc6-bf5b-198b4d92afc8","system_id":"levelo_inurba_marseille","lat":43.284793,"lon":5.384113,"is_reserved":false,"is_disabled":false,"rental_uris":{"android":"levelo://app?vid=ef130d21-7e9b-4fc6-bf5b-198b4d92afc8","ios":"levelo://app?vid=ef130d21-7e9b-4fc6-bf5b-198b4d92afc8"},"vehicle_type_id":"4","last_reported":1707066413,"current_range_meters":16800,"station_id":"ce4bh512rcd13ifvqe3g","pricing_plan_id":"free"},{"bike_id":"594e377a-acaf-491f-86a4-c2c4453788eb","system_id":"levelo_inurba_marseille","lat":43.283498,"lon":5.380948,"is_reserved":false,"is_disabled":false,"rental_uris":{"android":"levelo://app?vid=594e377a-acaf-491f-86a4-c2c4453788eb","ios":"levelo://app?vid=594e377a-acaf-491f-86a4-c2c4453788eb"},"vehicle_type_id":"4","last_reported":1707066413,"current_range_meters":30400,"station_id":"ce4bh412rcd13ifvqdr0","pricing_plan_id":"free"},{"bike_id":"30617369-dee0-4d55-aa7d-a2f541b0b943","system_id":"levelo_inurba_marseille","lat":43.284315,"lon":5.349832,"is_reserved":false,"is_disabled":false,"rental_uris":{"android":"levelo://app?vid=30617369-dee0-4d55-aa7d-a2f541b0b943","ios":"levelo://app?vid=30617369-dee0-4d55-aa7d-a2f541b0b943"},"vehicle_type_id":"4","last_reported":1707066413,"current_range_meters":5200,"station_id":"ce4bhbh2rcd13ifvqepg","pricing_plan_id":"free"},{"bike_id":"8b244a50-db4c-4fe7-aabd-ded9686fa0e5","system_id":"levelo_inurba_marseille","lat":43.28424,"lon":5.34984,"is_reserved":false,"is_disabled":false,"rental_uris":{"android":"levelo://app?vid=8b244a50-db4c-4fe7-aabd-ded9686fa0e5","ios":"levelo://app?vid=8b244a50-db4c-4fe7-aabd-ded9686fa0e5"},"vehicle_type_id":"4","last_reported":1707066413,"current_range_meters":0,"station_id":"ce4bhbh2rcd13ifvqepg","pricing_plan_id":"free"},{"bike_id":"656bdd3f-61c0-4241-8514-99c05c2332ec","system_id":"levelo_inurba_marseille","lat":43.289363,"lon":5.396322,"is_reserved":false,"is_disabled":false,"rental_uris":{"android":"levelo://app?vid=656bdd3f-61c0-4241-8514-99c05c2332ec","ios":"levelo://app?vid=656bdd3f-61c0-4241-8514-99c05c2332ec"},"vehicle_type_id":"4","last_reported":1707066413,"current_range_meters":4000,"station_id":"ce4bh3h2rcd13ifvqdn0","pricing_plan_id":"free"},{"bike_id":"89df9775-eb93-4cc0-bf9a-33125a925a81","system_id":"levelo_inurba_marseille","lat":43.289363,"lon":5.396322,"is_reserved":false,"is_disabled":false,"rental_uris":{"android":"levelo://app?vid=89df9775-eb93-4cc0-bf9a-33125a925a81","ios":"levelo://app?vid=89df9775-eb93-4cc0-bf9a-33125a925a81"},"vehicle_type_id":"4","last_reported":1707066413,"current_range_meters":10000,"station_id":"ce4bh3h2rcd13ifvqdn0","pricing_plan_id":"free"},{"bike_id":"6bbc6a3d-ea4f-4022-94d9-29c16a8953c1","system_id":"levelo_inurba_marseille","lat":43.292571,"lon":5.409107,"is_reserved":false,"is_disabled":false,"rental_uris":{"android":"levelo://app?vid=6bbc6a3d-ea4f-4022-94d9-29c16a8953c1","ios":"levelo://app?vid=6bbc6a3d-ea4f-4022-94d9-29c16a8953c1"},"vehicle_type_id":"4","last_reported":1707066413,"current_range_meters":12800,"station_id":"ce4bh192rcd13ifvqdc0","pricing_plan_id":"free"},{"bike_id":"0e48a345-930e-4cdd-add6-c3c834f908d3","system_id":"levelo_inurba_marseille","lat":43.28277,"lon":5.35086,"is_reserved":false,"is_disabled":false,"rental_uris":{"android":"levelo://app?vid=0e48a345-930e-4cdd-add6-c3c834f908d3","ios":"levelo://app?vid=0e48a345-930e-4cdd-add6-c3c834f908d3"},"vehicle_type_id":"4","last_reported":1707066413,"current_range_meters":0,"station_id":"ce4bhbp2rcd13ifvqerg","pricing_plan_id":"free"},{"bike_id":"16f96369-bd3f-4871-bb6b-e7bc05dc13eb","system_id":"levelo_inurba_marseille","lat":43.28277,"lon":5.35075,"is_reserved":false,"is_disabled":false,"rental_uris":{"android":"levelo://app?vid=16f96369-bd3f-4871-bb6b-e7bc05dc13eb","ios":"levelo://app?vid=16f96369-bd3f-4871-bb6b-e7bc05dc13eb"},"vehicle_type_id":"4","last_reported":1707066413,"current_range_meters":0,"station_id":"ce4bhbp2rcd13ifvqerg","pricing_plan_id":"free"},{"bike_id":"e6120240-2b3c-46e5-a9e5-8e3953bc8ac8","system_id":"levelo_inurba_marseille","lat":43.28273,"lon":5.35082,"is_reserved":false,"is_disabled":false,"rental_uris":{"android":"levelo://app?vid=e6120240-2b3c-46e5-a9e5-8e3953bc8ac8","ios":"levelo://app?vid=e6120240-2b3c-46e5-a9e5-8e3953bc8ac8"},"vehicle_type_id":"4","last_reported":1707066413,"current_range_meters":0,"station_id":"ce4bhbp2rcd13ifvqerg","pricing_plan_id":"free"},{"bike_id":"2159546c-dcbe-4fe3-a281-f943bdd0c3b5","system_id":"levelo_inurba_marseille","lat":43.28275,"lon":5.35071,"is_reserved":false,"is_disabled":false,"rental_uris":{"android":"levelo://app?vid=2159546c-dcbe-4fe3-a281-f943bdd0c3b5","ios":"levelo://app?vid=2159546c-dcbe-4fe3-a281-f943bdd0c3b5"},"vehicle_type_id":"4","last_reported":1707066413,"current_range_meters":0,"station_id":"ce4bhbp2rcd13ifvqerg","pricing_plan_id":"free"},{"bike_id":"f0a959ba-3b27-4e11-b72c-8e381b1f975b","system_id":"levelo_inurba_marseille","lat":43.282754,"lon":5.350519,"is_reserved":false,"is_disabled":false,"rental_uris":{"android":"levelo://app?vid=f0a959ba-3b27-4e11-b72c-8e381b1f975b","ios":"levelo://app?vid=f0a959ba-3b27-4e11-b72c-8e381b1f975b"},"vehicle_type_id":"4","last_reported":1707066413,"current_range_meters":0,"station_id":"ce4bhbp2rcd13ifvqerg","pricing_plan_id":"free"},{"bike_id":"720efa77-e91d-44dc-bea1-5d9ea66faf76","system_id":"levelo_inurba_marseille","lat":43.28268,"lon":5.35076,"is_reserved":false,"is_disabled":false,"rental_uris":{"android":"levelo://app?vid=720efa77-e91d-44dc-bea1-5d9ea66faf76","ios":"levelo://app?vid=720efa77-e91d-44dc-bea1-5d9ea66faf76"},"vehicle_type_id":"4","last_reported":1707066413,"current_range_meters":0,"station_id":"ce4bhbp2rcd13ifvqerg","pricing_plan_id":"free"},{"bike_id":"189abeba-e6b1-4422-8197-f677f651a88c","system_id":"levelo_inurba_marseille","lat":43.283502,"lon":5.386471,"is_reserved":false,"is_disabled":false,"rental_uris":{"android":"levelo://app?vid=189abeba-e6b1-4422-8197-f677f651a88c","ios":"levelo://app?vid=189abeba-e6b1-4422-8197-f677f651a88c"},"vehicle_type_id":"4","last_reported":1707066413,"current_range_meters":27200,"station_id":"ce4bh492rcd13ifvqdvg","pricing_plan_id":"free"},{"bike_id":"11afdaae-82b7-4c52-9da4-38332a5aa7d5","system_id":"levelo_inurba_marseille","lat":43.296263,"lon":5.40601,"is_reserved":false,"is_disabled":false,"rental_uris":{"android":"levelo://app?vid=11afdaae-82b7-4c52-9da4-38332a5aa7d5","ios":"levelo://app?vid=11afdaae-82b7-4c52-9da4-38332a5aa7d5"},"vehicle_type_id":"4","last_reported":1707066413,"current_range_meters":0,"station_id":"ce4bh0h2rcd13ifvqd60","pricing_plan_id":"free"},{"bike_id":"71d58b92-edec-48ac-a338-0c7404e39a67","system_id":"levelo_inurba_marseille","lat":43.282519,"lon":5.35004,"is_reserved":false,"is_disabled":false,"rental_uris":{"android":"levelo://app?vid=71d58b92-edec-48ac-a338-0c7404e39a67","ios":"levelo://app?vid=71d58b92-edec-48ac-a338-0c7404e39a67"},"vehicle_type_id":"4","last_reported":1707066413,"current_range_meters":1600,"station_id":"ce4bhbp2rcd13ifvqerg","pricing_plan_id":"free"},{"bike_id":"5cc1964c-a554-4d04-b2f8-724a0c2c5378","system_id":"levelo_inurba_marseille","lat":43.281044,"lon":5.378308,"is_reserved":false,"is_disabled":false,"rental_uris":{"android":"levelo://app?vid=5cc1964c-a554-4d04-b2f8-724a0c2c5378","ios":"levelo://app?vid=5cc1964c-a554-4d04-b2f8-724a0c2c5378"},"vehicle_type_id":"4","last_reported":1707066413,"current_range_meters":0,"station_id":"ce4bha12rcd13ifvqee0","pricing_plan_id":"free"},{"bike_id":"e19d659f-cd3a-47e5-9a57-0d2fc72f8c60","system_id":"levelo_inurba_marseille","lat":43.296263,"lon":5.40601,"is_reserved":false,"is_disabled":false,"rental_uris":{"android":"levelo://app?vid=e19d659f-cd3a-47e5-9a57-0d2fc72f8c60","ios":"levelo://app?vid=e19d659f-cd3a-47e5-9a57-0d2fc72f8c60"},"vehicle_type_id":"4","last_reported":1707066413,"current_range_meters":5600,"station_id":"ce4bh0h2rcd13ifvqd60","pricing_plan_id":"free"},{"bike_id":"06ad3c43-198b-4a7a-8b63-9e70de4a71ba","system_id":"levelo_inurba_marseille","lat":43.296263,"lon":5.40601,"is_reserved":false,"is_disabled":false,"rental_uris":{"android":"levelo://app?vid=06ad3c43-198b-4a7a-8b63-9e70de4a71ba","ios":"levelo://app?vid=06ad3c43-198b-4a7a-8b63-9e70de4a71ba"},"vehicle_type_id":"4","last_reported":1707066413,"current_range_meters":4800,"station_id":"ce4bh0h2rcd13ifvqd60","pricing_plan_id":"free"},{"bike_id":"3a3f57a7-da92-4979-a322-66153e3f1e2f","system_id":"levelo_inurba_marseille","lat":43.296263,"lon":5.40601,"is_reserved":false,"is_disabled":false,"rental_uris":{"android":"levelo://app?vid=3a3f57a7-da92-4979-a322-66153e3f1e2f","ios":"levelo://app?vid=3a3f57a7-da92-4979-a322-66153e3f1e2f"},"vehicle_type_id":"4","last_reported":1707066413,"current_range_meters":14800,"station_id":"ce4bh0h2rcd13ifvqd60","pricing_plan_id":"free"},{"bike_id":"0d2021c9-81d5-424b-b308-bc6622142d7d","system_id":"levelo_inurba_marseille","lat":43.28039,"lon":5.369297,"is_reserved":false,"is_disabled":false,"rental_uris":{"android":"levelo://app?vid=0d2021c9-81d5-424b-b308-bc6622142d7d","ios":"levelo://app?vid=0d2021c9-81d5-424b-b308-bc6622142d7d"},"vehicle_type_id":"4","last_reported":1707066413,"current_range_meters":16400,"station_id":"ce4bha12rcd13ifvqef0","pricing_plan_id":"free"},{"bike_id":"523c8b62-a394-427c-83ac-1e8f246890d3","system_id":"levelo_inurba_marseille","lat":43.281754,"lon":5.383015,"is_reserved":false,"is_disabled":false,"rental_uris":{"android":"levelo://app?vid=523c8b62-a394-427c-83ac-1e8f246890d3","ios":"levelo://app?vid=523c8b62-a394-427c-83ac-1e8f246890d3"},"vehicle_type_id":"4","last_reported":1707066413,"current_range_meters":2000,"station_id":"","pricing_plan_id":"free"},{"bike_id":"7c44b85c-a095-461f-a681-5e945a48831a","system_id":"levelo_inurba_marseille","lat":43.284462,"lon":5.392121,"is_reserved":false,"is_disabled":false,"rental_uris":{"android":"levelo://app?vid=7c44b85c-a095-461f-a681-5e945a48831a","ios":"levelo://app?vid=7c44b85c-a095-461f-a681-5e945a48831a"},"vehicle_type_id":"4","last_reported":1707066413,"current_range_meters":18800,"station_id":"ce4bhoh2rcd13ifvqh5g","pricing_plan_id":"free"},{"bike_id":"155fdbc3-be8b-4153-bc2b-23835064ee91","system_id":"levelo_inurba_marseille","lat":43.28573,"lon":5.394992,"is_reserved":false,"is_disabled":false,"rental_uris":{"android":"levelo://app?vid=155fdbc3-be8b-4153-bc2b-23835064ee91","ios":"levelo://app?vid=155fdbc3-be8b-4153-bc2b-23835064ee91"},"vehicle_type_id":"4","last_reported":1707066413,"current_range_meters":4800,"station_id":"ce4bh292rcd13ifvqdg0","pricing_plan_id":"free"},{"bike_id":"561ff3cc-6632-4a90-b47d-0c5ea8bb7609","system_id":"levelo_inurba_marseille","lat":43.285742,"lon":5.395004,"is_reserved":false,"is_disabled":false,"rental_uris":{"android":"levelo://app?vid=561ff3cc-6632-4a90-b47d-0c5ea8bb7609","ios":"levelo://app?vid=561ff3cc-6632-4a90-b47d-0c5ea8bb7609"},"vehicle_type_id":"4","last_reported":1707066413,"current_range_meters":26000,"station_id":"ce4bh292rcd13ifvqdg0","pricing_plan_id":"free"},{"bike_id":"0e81b4be-448c-4ed3-8f50-7cd68d566c71","system_id":"levelo_inurba_marseille","lat":43.285742,"lon":5.395004,"is_reserved":false,"is_disabled":false,"rental_uris":{"android":"levelo://app?vid=0e81b4be-448c-4ed3-8f50-7cd68d566c71","ios":"levelo://app?vid=0e81b4be-448c-4ed3-8f50-7cd68d566c71"},"vehicle_type_id":"4","last_reported":1707066413,"current_range_meters":18400,"station_id":"ce4bh292rcd13ifvqdg0","pricing_plan_id":"free"},{"bike_id":"5035c792-005e-48d3-a327-6f17bdce5cd3","system_id":"levelo_inurba_marseille","lat":43.326605,"lon":5.409903,"is_reserved":false,"is_disabled":false,"rental_uris":{"android":"levelo://app?vid=5035c792-005e-48d3-a327-6f17bdce5cd3","ios":"levelo://app?vid=5035c792-005e-48d3-a327-6f17bdce5cd3"},"vehicle_type_id":"4","last_reported":1707066413,"current_range_meters":14400,"station_id":"ce4bhpp2rcd13ifvqhgg","pricing_plan_id":"free"},{"bike_id":"bde9b0fd-1386-4c55-b02a-bed604238378","system_id":"levelo_inurba_marseille","lat":43.326605,"lon":5.409903,"is_reserved":false,"is_disabled":false,"rental_uris":{"android":"levelo://app?vid=bde9b0fd-1386-4c55-b02a-bed604238378","ios":"levelo://app?vid=bde9b0fd-1386-4c55-b02a-bed604238378"},"vehicle_type_id":"4","last_reported":1707066413,"current_range_meters":4000,"station_id":"ce4bhpp2rcd13ifvqhgg","pricing_plan_id":"free"},{"bike_id":"c510c81b-2709-4138-9fa6-9df94953f5e8","system_id":"levelo_inurba_marseille","lat":43.326605,"lon":5.409903,"is_reserved":false,"is_disabled":false,"rental_uris":{"android":"levelo://app?vid=c510c81b-2709-4138-9fa6-9df94953f5e8","ios":"levelo://app?vid=c510c81b-2709-4138-9fa6-9df94953f5e8"},"vehicle_type_id":"4","last_reported":1707066413,"current_range_meters":11600,"station_id":"ce4bhpp2rcd13ifvqhgg","pricing_plan_id":"free"},{"bike_id":"07216e57-a816-454b-873f-20995f8dc841","system_id":"levelo_inurba_marseille","lat":43.304188,"lon":5.412904,"is_reserved":false,"is_disabled":false,"rental_uris":{"android":"levelo://app?vid=07216e57-a816-454b-873f-20995f8dc841","ios":"levelo://app?vid=07216e57-a816-454b-873f-20995f8dc841"},"vehicle_type_id":"4","last_reported":1707066413,"current_range_meters":31200,"station_id":"ce4bhop2rcd13ifvqh8g","pricing_plan_id":"free"},{"bike_id":"b49358eb-eeed-46a8-9d64-4fe2d5e4a057","system_id":"levelo_inurba_marseille","lat":43.304188,"lon":5.412904,"is_reserved":false,"is_disabled":false,"rental_uris":{"android":"levelo://app?vid=b49358eb-eeed-46a8-9d64-4fe2d5e4a057","ios":"levelo://app?vid=b49358eb-eeed-46a8-9d64-4fe2d5e4a057"},"vehicle_type_id":"4","last_reported":1707066413,"current_range_meters":23200,"station_id":"ce4bhop2rcd13ifvqh8g","pricing_plan_id":"free"},{"bike_id":"81b6b15c-108b-4472-8f5b-700ef68d0d99","system_id":"levelo_inurba_marseille","lat":43.30419,"lon":5.41287,"is_reserved":false,"is_disabled":false,"rental_uris":{"android":"levelo://app?vid=81b6b15c-108b-4472-8f5b-700ef68d0d99","ios":"levelo://app?vid=81b6b15c-108b-4472-8f5b-700ef68d0d99"},"vehicle_type_id":"4","last_reported":1707066413,"current_range_meters":15600,"station_id":"ce4bhop2rcd13ifvqh8g","pricing_plan_id":"free"},{"bike_id":"23b73421-d808-4476-ac59-c6a0d11ce32d","system_id":"levelo_inurba_marseille","lat":43.284462,"lon":5.392121,"is_reserved":false,"is_disabled":false,"rental_uris":{"android":"levelo://app?vid=23b73421-d808-4476-ac59-c6a0d11ce32d","ios":"levelo://app?vid=23b73421-d808-4476-ac59-c6a0d11ce32d"},"vehicle_type_id":"4","last_reported":1707066413,"current_range_meters":20800,"station_id":"ce4bhoh2rcd13ifvqh5g","pricing_plan_id":"free"},{"bike_id":"2f656fe5-09d8-4115-815f-2f87caff8abc","system_id":"levelo_inurba_marseille","lat":43.30419,"lon":5.4129,"is_reserved":false,"is_disabled":false,"rental_uris":{"android":"levelo://app?vid=2f656fe5-09d8-4115-815f-2f87caff8abc","ios":"levelo://app?vid=2f656fe5-09d8-4115-815f-2f87caff8abc"},"vehicle_type_id":"4","last_reported":1707066413,"current_range_meters":4400,"station_id":"ce4bhop2rcd13ifvqh8g","pricing_plan_id":"free"},{"bike_id":"a52e967f-be84-43b0-812c-dcbe01820dcd","system_id":"levelo_inurba_marseille","lat":43.28573,"lon":5.394992,"is_reserved":false,"is_disabled":false,"rental_uris":{"android":"levelo://app?vid=a52e967f-be84-43b0-812c-dcbe01820dcd","ios":"levelo://app?vid=a52e967f-be84-43b0-812c-dcbe01820dcd"},"vehicle_type_id":"4","last_reported":1707066413,"current_range_meters":12800,"station_id":"ce4bh292rcd13ifvqdg0","pricing_plan_id":"free"},{"bike_id":"555eee5e-a42a-4d47-b9be-ce3da52b1f65","system_id":"levelo_inurba_marseille","lat":43.287154,"lon":5.399979,"is_reserved":false,"is_disabled":false,"rental_uris":{"android":"levelo://app?vid=555eee5e-a42a-4d47-b9be-ce3da52b1f65","ios":"levelo://app?vid=555eee5e-a42a-4d47-b9be-ce3da52b1f65"},"vehicle_type_id":"4","last_reported":1707066413,"current_range_meters":17200,"station_id":"ce4bho92rcd13ifvqh3g","pricing_plan_id":"free"},{"bike_id":"8054ed49-d5c2-41ab-b125-c4cccc79c11e","system_id":"levelo_inurba_marseille","lat":43.287154,"lon":5.399979,"is_reserved":false,"is_disabled":false,"rental_uris":{"android":"levelo://app?vid=8054ed49-d5c2-41ab-b125-c4cccc79c11e","ios":"levelo://app?vid=8054ed49-d5c2-41ab-b125-c4cccc79c11e"},"vehicle_type_id":"4","last_reported":1707066413,"current_range_meters":0,"station_id":"ce4bho92rcd13ifvqh3g","pricing_plan_id":"free"},{"bike_id":"04027f60-5ea8-4087-ae74-e8e2fd8c18ff","system_id":"levelo_inurba_marseille","lat":43.287154,"lon":5.399979,"is_reserved":false,"is_disabled":false,"rental_uris":{"android":"levelo://app?vid=04027f60-5ea8-4087-ae74-e8e2fd8c18ff","ios":"levelo://app?vid=04027f60-5ea8-4087-ae74-e8e2fd8c18ff"},"vehicle_type_id":"4","last_reported":1707066413,"current_range_meters":0,"station_id":"ce4bho92rcd13ifvqh3g","pricing_plan_id":"free"},{"bike_id":"ced9dab6-0803-418b-9860-777a245c0b3d","system_id":"levelo_inurba_marseille","lat":43.28692,"lon":5.39984,"is_reserved":false,"is_disabled":false,"rental_uris":{"android":"levelo://app?vid=ced9dab6-0803-418b-9860-777a245c0b3d","ios":"levelo://app?vid=ced9dab6-0803-418b-9860-777a245c0b3d"},"vehicle_type_id":"4","last_reported":1707066413,"current_range_meters":20400,"station_id":"ce4bho92rcd13ifvqh3g","pricing_plan_id":"free"},{"bike_id":"0e2c086e-c94f-45ec-baab-489be3a60f9d","system_id":"levelo_inurba_marseille","lat":43.287154,"lon":5.399979,"is_reserved":false,"is_disabled":false,"rental_uris":{"android":"levelo://app?vid=0e2c086e-c94f-45ec-baab-489be3a60f9d","ios":"levelo://app?vid=0e2c086e-c94f-45ec-baab-489be3a60f9d"},"vehicle_type_id":"4","last_reported":1707066413,"current_range_meters":12800,"station_id":"ce4bho92rcd13ifvqh3g","pricing_plan_id":"free"},{"bike_id":"3079767e-6b89-4c32-9f97-be4b634d28bb","system_id":"levelo_inurba_marseille","lat":43.320045,"lon":5.415046,"is_reserved":false,"is_disabled":false,"rental_uris":{"android":"levelo://app?vid=3079767e-6b89-4c32-9f97-be4b634d28bb","ios":"levelo://app?vid=3079767e-6b89-4c32-9f97-be4b634d28bb"},"vehicle_type_id":"4","last_reported":1707066413,"current_range_meters":8800,"station_id":"ce4bhq92rcd13ifvqhkg","pricing_plan_id":"free"},{"bike_id":"38381c6b-0cc9-4893-977e-5ecc253d2df3","system_id":"levelo_inurba_marseille","lat":43.320045,"lon":5.415046,"is_reserved":false,"is_disabled":false,"rental_uris":{"android":"levelo://app?vid=38381c6b-0cc9-4893-977e-5ecc253d2df3","ios":"levelo://app?vid=38381c6b-0cc9-4893-977e-5ecc253d2df3"},"vehicle_type_id":"4","last_reported":1707066413,"current_range_meters":30400,"station_id":"ce4bhq92rcd13ifvqhkg","pricing_plan_id":"free"},{"bike_id":"5506a8b0-7777-41e6-98e7-11f014c92775","system_id":"levelo_inurba_marseille","lat":43.320045,"lon":5.415048,"is_reserved":false,"is_disabled":false,"rental_uris":{"android":"levelo://app?vid=5506a8b0-7777-41e6-98e7-11f014c92775","ios":"levelo://app?vid=5506a8b0-7777-41e6-98e7-11f014c92775"},"vehicle_type_id":"4","last_reported":1707066413,"current_range_meters":25600,"station_id":"ce4bhq92rcd13ifvqhkg","pricing_plan_id":"free"},{"bike_id":"4a214b83-99d9-4192-8e9c-021f20e06552","system_id":"levelo_inurba_marseille","lat":43.27973,"lon":5.38748,"is_reserved":false,"is_disabled":false,"rental_uris":{"android":"levelo://app?vid=4a214b83-99d9-4192-8e9c-021f20e06552","ios":"levelo://app?vid=4a214b83-99d9-4192-8e9c-021f20e06552"},"vehicle_type_id":"4","last_reported":1707066413,"current_range_meters":9600,"station_id":"ce4bhg12rcd13ifvqf80","pricing_plan_id":"free"},{"bike_id":"03ef7a33-ea73-4158-99e1-4cc5c8b0c664","system_id":"levelo_inurba_marseille","lat":43.292569,"lon":5.409107,"is_reserved":false,"is_disabled":false,"rental_uris":{"android":"levelo://app?vid=03ef7a33-ea73-4158-99e1-4cc5c8b0c664","ios":"levelo://app?vid=03ef7a33-ea73-4158-99e1-4cc5c8b0c664"},"vehicle_type_id":"4","last_reported":1707066413,"current_range_meters":3600,"station_id":"ce4bh192rcd13ifvqdc0","pricing_plan_id":"free"},{"bike_id":"5c75e9ac-71e5-4312-ac50-adde0aca7f19","system_id":"levelo_inurba_marseille","lat":43.2762,"lon":5.36108,"is_reserved":false,"is_disabled":false,"rental_uris":{"android":"levelo://app?vid=5c75e9ac-71e5-4312-ac50-adde0aca7f19","ios":"levelo://app?vid=5c75e9ac-71e5-4312-ac50-adde0aca7f19"},"vehicle_type_id":"4","last_reported":1707066413,"current_range_meters":30000,"station_id":"ce4bgj92rcd13ifvqbe0","pricing_plan_id":"free"},{"bike_id":"538d6b68-3205-4bca-b5c3-b1be93ef1e6f","system_id":"levelo_inurba_marseille","lat":43.292569,"lon":5.409107,"is_reserved":false,"is_disabled":false,"rental_uris":{"android":"levelo://app?vid=538d6b68-3205-4bca-b5c3-b1be93ef1e6f","ios":"levelo://app?vid=538d6b68-3205-4bca-b5c3-b1be93ef1e6f"},"vehicle_type_id":"4","last_reported":1707066413,"current_range_meters":4800,"station_id":"ce4bh192rcd13ifvqdc0","pricing_plan_id":"free"},{"bike_id":"76ade569-783a-46ba-b1c9-48989bc5b880","system_id":"levelo_inurba_marseille","lat":43.276179,"lon":5.361009,"is_reserved":false,"is_disabled":false,"rental_uris":{"android":"levelo://app?vid=76ade569-783a-46ba-b1c9-48989bc5b880","ios":"levelo://app?vid=76ade569-783a-46ba-b1c9-48989bc5b880"},"vehicle_type_id":"4","last_reported":1707066413,"current_range_meters":9600,"station_id":"ce4bgj92rcd13ifvqbe0","pricing_plan_id":"free"},{"bike_id":"e6974f13-3986-42b3-b3d0-087e0a996175","system_id":"levelo_inurba_marseille","lat":43.276179,"lon":5.361009,"is_reserved":false,"is_disabled":false,"rental_uris":{"android":"levelo://app?vid=e6974f13-3986-42b3-b3d0-087e0a996175","ios":"levelo://app?vid=e6974f13-3986-42b3-b3d0-087e0a996175"},"vehicle_type_id":"4","last_reported":1707066413,"current_range_meters":15200,"station_id":"ce4bgj92rcd13ifvqbe0","pricing_plan_id":"free"},{"bike_id":"594bd6ab-0cb5-427c-ace6-e979e1da04a2","system_id":"levelo_inurba_marseille","lat":43.278399,"lon":5.392139,"is_reserved":false,"is_disabled":false,"rental_uris":{"android":"levelo://app?vid=594bd6ab-0cb5-427c-ace6-e979e1da04a2","ios":"levelo://app?vid=594bd6ab-0cb5-427c-ace6-e979e1da04a2"},"vehicle_type_id":"4","last_reported":1707066413,"current_range_meters":16800,"station_id":"ce4bhjp2rcd13ifvqga0","pricing_plan_id":"free"},{"bike_id":"cb7f95f4-f56d-4273-acbe-16014f8ba6dc","system_id":"levelo_inurba_marseille","lat":43.27378,"lon":5.36257,"is_reserved":false,"is_disabled":false,"rental_uris":{"android":"levelo://app?vid=cb7f95f4-f56d-4273-acbe-16014f8ba6dc","ios":"levelo://app?vid=cb7f95f4-f56d-4273-acbe-16014f8ba6dc"},"vehicle_type_id":"4","last_reported":1707066413,"current_range_meters":400,"station_id":"ce4bhbh2rcd13ifvqeo0","pricing_plan_id":"free"},{"bike_id":"7e0c501b-5035-4916-ad1d-4ad566c7a3a8","system_id":"levelo_inurba_marseille","lat":43.27378,"lon":5.36253,"is_reserved":false,"is_disabled":false,"rental_uris":{"android":"levelo://app?vid=7e0c501b-5035-4916-ad1d-4ad566c7a3a8","ios":"levelo://app?vid=7e0c501b-5035-4916-ad1d-4ad566c7a3a8"},"vehicle_type_id":"4","last_reported":1707066413,"current_range_meters":11600,"station_id":"ce4bhbh2rcd13ifvqeo0","pricing_plan_id":"free"},{"bike_id":"b4af7827-4503-45ff-a39c-adda12fdc027","system_id":"levelo_inurba_marseille","lat":43.27376,"lon":5.3626,"is_reserved":false,"is_disabled":false,"rental_uris":{"android":"levelo://app?vid=b4af7827-4503-45ff-a39c-adda12fdc027","ios":"levelo://app?vid=b4af7827-4503-45ff-a39c-adda12fdc027"},"vehicle_type_id":"4","last_reported":1707066413,"current_range_meters":400,"station_id":"ce4bhbh2rcd13ifvqeo0","pricing_plan_id":"free"},{"bike_id":"ad6fdb8e-ba9f-4c41-bbdb-d8a913f8f1c8","system_id":"levelo_inurba_marseille","lat":43.27377,"lon":5.36242,"is_reserved":false,"is_disabled":false,"rental_uris":{"android":"levelo://app?vid=ad6fdb8e-ba9f-4c41-bbdb-d8a913f8f1c8","ios":"levelo://app?vid=ad6fdb8e-ba9f-4c41-bbdb-d8a913f8f1c8"},"vehicle_type_id":"4","last_reported":1707066413,"current_range_meters":15200,"station_id":"ce4bhbh2rcd13ifvqeo0","pricing_plan_id":"free"},{"bike_id":"dca07654-ef30-4793-b615-b1d5a701cb1a","system_id":"levelo_inurba_marseille","lat":43.27375,"lon":5.36247,"is_reserved":false,"is_disabled":false,"rental_uris":{"android":"levelo://app?vid=dca07654-ef30-4793-b615-b1d5a701cb1a","ios":"levelo://app?vid=dca07654-ef30-4793-b615-b1d5a701cb1a"},"vehicle_type_id":"4","last_reported":1707066413,"current_range_meters":15600,"station_id":"ce4bhbh2rcd13ifvqeo0","pricing_plan_id":"free"},{"bike_id":"d5a567a8-05c7-4bda-b605-84bd9f8f0510","system_id":"levelo_inurba_marseille","lat":43.273609,"lon":5.362708,"is_reserved":false,"is_disabled":false,"rental_uris":{"android":"levelo://app?vid=d5a567a8-05c7-4bda-b605-84bd9f8f0510","ios":"levelo://app?vid=d5a567a8-05c7-4bda-b605-84bd9f8f0510"},"vehicle_type_id":"4","last_reported":1707066413,"current_range_meters":0,"station_id":"ce4bhbh2rcd13ifvqeo0","pricing_plan_id":"free"},{"bike_id":"05d9375b-3745-4483-b01d-56d2bf113adb","system_id":"levelo_inurba_marseille","lat":43.27369,"lon":5.36257,"is_reserved":false,"is_disabled":false,"rental_uris":{"android":"levelo://app?vid=05d9375b-3745-4483-b01d-56d2bf113adb","ios":"levelo://app?vid=05d9375b-3745-4483-b01d-56d2bf113adb"},"vehicle_type_id":"4","last_reported":1707066413,"current_range_meters":0,"station_id":"ce4bhbh2rcd13ifvqeo0","pricing_plan_id":"free"},{"bike_id":"866c14c5-ddcd-43f9-baee-61ff4e876bd1","system_id":"levelo_inurba_marseille","lat":43.276769,"lon":5.388787,"is_reserved":false,"is_disabled":false,"rental_uris":{"android":"levelo://app?vid=866c14c5-ddcd-43f9-baee-61ff4e876bd1","ios":"levelo://app?vid=866c14c5-ddcd-43f9-baee-61ff4e876bd1"},"vehicle_type_id":"4","last_reported":1707066413,"current_range_meters":4800,"station_id":"ce4bhi12rcd13ifvqfo0","pricing_plan_id":"free"},{"bike_id":"4ebbf8cc-4590-4601-bc74-e8a9ede3d560","system_id":"levelo_inurba_marseille","lat":43.276734,"lon":5.388899,"is_reserved":false,"is_disabled":false,"rental_uris":{"android":"levelo://app?vid=4ebbf8cc-4590-4601-bc74-e8a9ede3d560","ios":"levelo://app?vid=4ebbf8cc-4590-4601-bc74-e8a9ede3d560"},"vehicle_type_id":"4","last_reported":1707066413,"current_range_meters":24000,"station_id":"ce4bhi12rcd13ifvqfo0","pricing_plan_id":"free"},{"bike_id":"d1b848c6-98e6-4134-9daf-6ce2b1eb5dad","system_id":"levelo_inurba_marseille","lat":43.279975,"lon":5.40009,"is_reserved":false,"is_disabled":false,"rental_uris":{"android":"levelo://app?vid=d1b848c6-98e6-4134-9daf-6ce2b1eb5dad","ios":"levelo://app?vid=d1b848c6-98e6-4134-9daf-6ce2b1eb5dad"},"vehicle_type_id":"4","last_reported":1707066413,"current_range_meters":14000,"station_id":"ce4bho92rcd13ifvqh4g","pricing_plan_id":"free"},{"bike_id":"d6631a1e-95e1-4d14-9455-b37f6a32279d","system_id":"levelo_inurba_marseille","lat":43.31729,"lon":5.42396,"is_reserved":false,"is_disabled":false,"rental_uris":{"android":"levelo://app?vid=d6631a1e-95e1-4d14-9455-b37f6a32279d","ios":"levelo://app?vid=d6631a1e-95e1-4d14-9455-b37f6a32279d"},"vehicle_type_id":"4","last_reported":1707066413,"current_range_meters":2000,"station_id":"ce4bhp92rcd13ifvqhbg","pricing_plan_id":"free"},{"bike_id":"12e2b105-dcb5-40b2-9315-97c4f28fa71b","system_id":"levelo_inurba_marseille","lat":43.31081,"lon":5.42432,"is_reserved":false,"is_disabled":false,"rental_uris":{"android":"levelo://app?vid=12e2b105-dcb5-40b2-9315-97c4f28fa71b","ios":"levelo://app?vid=12e2b105-dcb5-40b2-9315-97c4f28fa71b"},"vehicle_type_id":"4","last_reported":1707066413,"current_range_meters":0,"station_id":"ce4bhp92rcd13ifvqhag","pricing_plan_id":"free"},{"bike_id":"841b2d8a-f660-42f2-82b4-91f6623aaad3","system_id":"levelo_inurba_marseille","lat":43.340804,"lon":5.410219,"is_reserved":false,"is_disabled":false,"rental_uris":{"android":"levelo://app?vid=841b2d8a-f660-42f2-82b4-91f6623aaad3","ios":"levelo://app?vid=841b2d8a-f660-42f2-82b4-91f6623aaad3"},"vehicle_type_id":"4","last_reported":1707066413,"current_range_meters":26800,"station_id":"ce4bhqh2rcd13ifvqhlg","pricing_plan_id":"free"},{"bike_id":"86ee5fed-fabe-4bad-acc4-a136d27b2ba0","system_id":"levelo_inurba_marseille","lat":43.34139,"lon":5.40903,"is_reserved":false,"is_disabled":false,"rental_uris":{"android":"levelo://app?vid=86ee5fed-fabe-4bad-acc4-a136d27b2ba0","ios":"levelo://app?vid=86ee5fed-fabe-4bad-acc4-a136d27b2ba0"},"vehicle_type_id":"4","last_reported":1707066413,"current_range_meters":27200,"station_id":"ce4bhqh2rcd13ifvqhlg","pricing_plan_id":"free"},{"bike_id":"311f3923-504a-4477-82f9-d481d0645476","system_id":"levelo_inurba_marseille","lat":43.27324,"lon":5.39076,"is_reserved":false,"is_disabled":false,"rental_uris":{"android":"levelo://app?vid=311f3923-504a-4477-82f9-d481d0645476","ios":"levelo://app?vid=311f3923-504a-4477-82f9-d481d0645476"},"vehicle_type_id":"4","last_reported":1707066413,"current_range_meters":0,"station_id":"ce4bhgp2rcd13ifvqfe0","pricing_plan_id":"free"},{"bike_id":"0576aee6-9152-48ba-b7d0-f77321a58632","system_id":"levelo_inurba_marseille","lat":43.273125,"lon":5.390731,"is_reserved":false,"is_disabled":false,"rental_uris":{"android":"levelo://app?vid=0576aee6-9152-48ba-b7d0-f77321a58632","ios":"levelo://app?vid=0576aee6-9152-48ba-b7d0-f77321a58632"},"vehicle_type_id":"4","last_reported":1707066413,"current_range_meters":26000,"station_id":"ce4bhgp2rcd13ifvqfe0","pricing_plan_id":"free"},{"bike_id":"4a9af4f6-08bf-424d-a4ba-c59b7ef1b314","system_id":"levelo_inurba_marseille","lat":43.304096,"lon":5.425385,"is_reserved":false,"is_disabled":false,"rental_uris":{"android":"levelo://app?vid=4a9af4f6-08bf-424d-a4ba-c59b7ef1b314","ios":"levelo://app?vid=4a9af4f6-08bf-424d-a4ba-c59b7ef1b314"},"vehicle_type_id":"4","last_reported":1707066413,"current_range_meters":11200,"station_id":"ce4bhoh2rcd13ifvqh6g","pricing_plan_id":"free"},{"bike_id":"523aa8b8-3201-4b0c-bf8b-49519962ecf9","system_id":"levelo_inurba_marseille","lat":43.269467,"lon":5.386439,"is_reserved":false,"is_disabled":false,"rental_uris":{"android":"levelo://app?vid=523aa8b8-3201-4b0c-bf8b-49519962ecf9","ios":"levelo://app?vid=523aa8b8-3201-4b0c-bf8b-49519962ecf9"},"vehicle_type_id":"4","last_reported":1707066413,"current_range_meters":0,"station_id":"ce4bhh92rcd13ifvqfh0","pricing_plan_id":"free"},{"bike_id":"7701aca6-1bbb-4744-aadf-033cdf1a893c","system_id":"levelo_inurba_marseille","lat":43.272116,"lon":5.391763,"is_reserved":false,"is_disabled":false,"rental_uris":{"android":"levelo://app?vid=7701aca6-1bbb-4744-aadf-033cdf1a893c","ios":"levelo://app?vid=7701aca6-1bbb-4744-aadf-033cdf1a893c"},"vehicle_type_id":"4","last_reported":1707066413,"current_range_meters":20800,"station_id":"ce4bhhp2rcd13ifvqfm0","pricing_plan_id":"free"},