{"last_updated":1723395980,"ttl":30,"version":"2.2","data":{"bikes":[{"bike_id":"de4b45c0-6298-4fae-8465-d4f994aab4b5","system_id":"levelo_inurba_marseille","lat":43.314811,"lon":5.373103,"is_reserved":false,"is_disabled":false,"rental_uris":{"android":"levelo://app?vid=de4b45c0-6298-4fae-8465-d4f994aab4b5","ios":"levelo://app?vid=de4b45c0-6298-4fae-8465-d4f994aab4b5"},"vehicle_type_id":"4","last_reported":1723395980,"current_range_meters":17600,"station_id":"ce4bgt12rcd13ifvqcd0","pricing_plan_id":"cebpf4jnsgd1na2vs0mg"},{"bike_id":"2b498075-91f7-4d37-afcc-d78f122f5af5","system_id":"levelo_inurba_marseille","lat":43.309039,"lon":5.371797,"is_reserved":false,"is_disabled":false,"rental_uris":{"android":"levelo://app?vid=2b498075-91f7-4d37-afcc-d78f122f5af5","ios":"levelo://app?vid=2b498075-91f7-4d37-afcc-d78f122f5af5"},"vehicle_type_id":"4","last_reported":1723395980,"current_range_meters":4000,"station_id":"ce4bguh2rcd13ifvqckg","pricing_plan_id":"cebpf4jnsgd1na2vs0mg"},{"bike_id":"5877ea76-7758-4cfb-a2ec-fc9305f55371","system_id":"levelo_inurba_marseille","lat":43.314811,"lon":5.373103,"is_reserved":false,"is_disabled":false,"rental_uris":{"android":"levelo://app?vid=5877ea76-7758-4cfb-a2ec-fc9305f55371","ios":"levelo://app?vid=5877ea76-7758-4cfb-a2ec-fc9305f55371"},"vehicle_type_id":"4","last_reported":1723395980,"current_range_meters":0,"station_id":"ce4bgt12rcd13ifvqcd0","pricing_plan_id":"cebpf4jnsgd1na2vs0mg"},{"bike_id":"0a0d1504-0816-45d1-a14b-7aedf3610e22","system_id":"levelo_inurba_marseille","lat":43.31458,"lon":5.37369,"is_reserved":false,"is_disabled":false,"rental_uris":{"android":"levelo://app?vid=0a0d1504-0816-45d1-a14b-7aedf3610e22","ios":"levelo://app?vid=0a0d1504-0816-45d1-a14b-7aedf3610e22"},"vehicle_type_id":"4","last_reported":1723395980,"current_range_meters":5600,"station_id":"","pricing_plan_id":"cebpf4jnsgd1na2vs0mg"},{"bike_id":"80f9f110-4ffc-4297-bf57-2bf2a710da39","system_id":"levelo_inurba_marseille","lat":43.317987,"lon":5.368107,"is_reserved":false,"is_disabled":false,"rental_uris":{"android":"levelo://app?vid=80f9f110-4ffc-4297-bf57-2bf2a710da39","ios":"levelo://app?vid=80f9f110-4ffc-4297-bf57-2bf2a710da39"},"vehicle_type_id":"4","last_reported":1723395980,"current_range_meters":12400,"station_id":"","pricing_plan_id":"cebpf4jnsgd1na2vs0mg"},{"bike_id":"be1e3106-dc97-4f6f-92fc-6b8a962e8134","system_id":"levelo_inurba_marseille","lat":43.305714,"lon":5.365633,"is_reserved":false,"is_disabled":false,"rental_uris":{"android":"levelo://app?vid=be1e3106-dc97-4f6f-92fc-6b8a962e8134","ios":"levelo://app?vid=be1e3106-dc97-4f6f-92fc-6b8a962e8134"},"vehicle_type_id":"4","last_reported":1723395980,"current_range_meters":8800,"station_id":"ce4bgs12rcd13ifvqcag","pricing_plan_id":"cebpf4jnsgd1na2vs0mg"},{"bike_id":"d9c0a78a-4233-4ce1-831c-7da628aefa45","system_id":"levelo_inurba_marseille","lat":43.305706,"lon":5.365654,"is_reserved":false,"is_disabled":false,"rental_uris":{"android":"levelo://app?vid=d9c0a78a-4233-4ce1-831c-7da628aefa45","ios":"levelo://app?vid=d9c0a78a-4233-4ce1-831c-7da628aefa45"},"vehicle_type_id":"4","last_reported":1723395980,"current_range_meters":5200,"station_id":"ce4bgs12rcd13ifvqcag","pricing_plan_id":"cebpf4jnsgd1na2vs0mg"},{"bike_id":"b2e69fd1-5515-487d-aa9b-d7e25de5fd43","system_id":"levelo_inurba_marseille","lat":43.305989,"lon":5.37225,"is_reserved":false,"is_disabled":false,"rental_uris":{"android":"levelo://app?vid=b2e69fd1-5515-487d-aa9b-d7e25de5fd43","ios":"levelo://app?vid=b2e69fd1-5515-487d-aa9b-d7e25de5fd43"},"vehicle_type_id":"4","last_reported":1723395980,"current_range_meters":22800,"station_id":"ce4bgqh2rcd13ifvqc4g","pricing_plan_id":"cebpf4jnsgd1na2vs0mg"},{"bike_id":"84a727a6-5179-4e15-b760-2adcd4c6337c","system_id":"levelo_inurba_marseille","lat":43.307945,"lon":5.376487,"is_reserved":false,"is_disabled":false,"rental_uris":{"android":"levelo://app?vid=84a727a6-5179-4e15-b760-2adcd4c6337c","ios":"levelo://app?vid=84a727a6-5179-4e15-b760-2adcd4c6337c"},"vehicle_type_id":"4","last_reported":1723395980,"current_range_meters":15200,"station_id":"ce4bgv92rcd13ifvqcq0","pricing_plan_id":"cebpf4jnsgd1na2vs0mg"},{"bike_id":"ebf3ef59-34f6-4a92-b05c-3a62ff2f5ac3","system_id":"levelo_inurba_marseille","lat":43.30316,"lon":5.36906,"is_reserved":false,"is_disabled":false,"rental_uris":{"android":"levelo://app?vid=ebf3ef59-34f6-4a92-b05c-3a62ff2f5ac3","ios":"levelo://app?vid=ebf3ef59-34f6-4a92-b05c-3a62ff2f5ac3"},"vehicle_type_id":"4","last_reported":1723395980,"current_range_meters":0,"station_id":"ce4bgqh2rcd13ifvqc5g","pricing_plan_id":"cebpf4jnsgd1na2vs0mg"},{"bike_id":"b94ec1c6-5b53-44d7-a833-611788da25e8","system_id":"levelo_inurba_marseille","lat":43.308012,"lon":5.381511,"is_reserved":false,"is_disabled":false,"rental_uris":{"android":"levelo://app?vid=b94ec1c6-5b53-44d7-a833-611788da25e8","ios":"levelo://app?vid=b94ec1c6-5b53-44d7-a833-611788da25e8"},"vehicle_type_id":"4","last_reported":1723395980,"current_range_meters":16800,"station_id":"ce4bgt12rcd13ifvqce0","pricing_plan_id":"cebpf4jnsgd1na2vs0mg"},{"bike_id":"f9a3f664-b769-478e-b730-5d08dba85af3","system_id":"levelo_inurba_marseille","lat":43.308012,"lon":5.381511,"is_reserved":false,"is_disabled":false,"rental_uris":{"android":"levelo://app?vid=f9a3f664-b769-478e-b730-5d08dba85af3","ios":"levelo://app?vid=f9a3f664-b769-478e-b730-5d08dba85af3"},"vehicle_type_id":"4","last_reported":1723395980,"current_range_meters":4000,"station_id":"ce4bgt12rcd13ifvqce0","pricing_plan_id":"cebpf4jnsgd1na2vs0mg"},{"bike_id":"bed03ff3-0f5b-4fc0-9086-278155c9b8ea","system_id":"levelo_inurba_marseille","lat":43.30464,"lon":5.37897,"is_reserved":false,"is_disabled":false,"rental_uris":{"android":"levelo://app?vid=bed03ff3-0f5b-4fc0-9086-278155c9b8ea","ios":"levelo://app?vid=bed03ff3-0f5b-4fc0-9086-278155c9b8ea"},"vehicle_type_id":"4","last_reported":1723395980,"current_range_meters":30000,"station_id":"ce4bgup2rcd13ifvqcn0","pricing_plan_id":"cebpf4jnsgd1na2vs0mg"},{"bike_id":"e808a47c-f1ab-49c8-9868-162ce164be9e","system_id":"levelo_inurba_marseille","lat":43.324771,"lon":5.36557,"is_reserved":false,"is_disabled":false,"rental_uris":{"android":"levelo://app?vid=e808a47c-f1ab-49c8-9868-162ce164be9e","ios":"levelo://app?vid=e808a47c-f1ab-49c8-9868-162ce164be9e"},"vehicle_type_id":"4","last_reported":1723395980,"current_range_meters":31200,"station_id":"ce4bhs12rcd13ifvqhvg","pricing_plan_id":"cebpf4jnsgd1na2vs0mg"},{"bike_id":"19361ee9-48d5-412d-ac99-d0c97d7bccb4","system_id":"levelo_inurba_marseille","lat":43.32486,"lon":5.36581,"is_reserved":false,"is_disabled":false,"rental_uris":{"android":"levelo://app?vid=19361ee9-48d5-412d-ac99-d0c97d7bccb4","ios":"levelo://app?vid=19361ee9-48d5-412d-ac99-d0c97d7bccb4"},"vehicle_type_id":"4","last_reported":1723395980,"current_range_meters":24000,"station_id":"ce4bhs12rcd13ifvqhvg","pricing_plan_id":"cebpf4jnsgd1na2vs0mg"},{"bike_id":"4ca70298-b035-4275-ab83-3baaf2981e6c","system_id":"levelo_inurba_marseille","lat":43.32487,"lon":5.36575,"is_reserved":false,"is_disabled":false,"rental_uris":{"android":"levelo://app?vid=4ca70298-b035-4275-ab83-3baaf2981e6c","ios":"levelo://app?vid=4ca70298-b035-4275-ab83-3baaf2981e6c"},"vehicle_type_id":"4","last_reported":1723395980,"current_range_meters":9200,"station_id":"ce4bhs12rcd13ifvqhvg","pricing_plan_id":"cebpf4jnsgd1na2vs0mg"},{"bike_id":"6274f13f-6fa8-4269-aefd-7938f85eec7d","system_id":"levelo_inurba_marseille","lat":43.324903,"lon":5.36583,"is_reserved":false,"is_disabled":false,"rental_uris":{"android":"levelo://app?vid=6274f13f-6fa8-4269-aefd-7938f85eec7d","ios":"levelo://app?vid=6274f13f-6fa8-4269-aefd-7938f85eec7d"},"vehicle_type_id":"4","last_reported":1723395980,"current_range_meters":10400,"station_id":"ce4bhs12rcd13ifvqhvg","pricing_plan_id":"cebpf4jnsgd1na2vs0mg"},{"bike_id":"d4f37844-7401-4369-99b1-f3490375802b","system_id":"levelo_inurba_marseille","lat":43.310804,"lon":5.38359,"is_reserved":false,"is_disabled":false,"rental_uris":{"android":"levelo://app?vid=d4f37844-7401-4369-99b1-f3490375802b","ios":"levelo://app?vid=d4f37844-7401-4369-99b1-f3490375802b"},"vehicle_type_id":"4","last_reported":1723395980,"current_range_meters":18800,"station_id":"ce4bgv92rcd13ifvqcr0","pricing_plan_id":"cebpf4jnsgd1na2vs0mg"},{"bike_id":"057ccf9f-39fa-445b-aa8c-1553727eb8e1","system_id":"levelo_inurba_marseille","lat":43.31994,"lon":5.38152,"is_reserved":false,"is_disabled":false,"rental_uris":{"android":"levelo://app?vid=057ccf9f-39fa-445b-aa8c-1553727eb8e1","ios":"levelo://app?vid=057ccf9f-39fa-445b-aa8c-1553727eb8e1"},"vehicle_type_id":"4","last_reported":1723395980,"current_range_meters":30000,"station_id":"ce4bhr12rcd13ifvqhpg","pricing_plan_id":"cebpf4jnsgd1na2vs0mg"},{"bike_id":"ff39d0c8-ba61-4ae1-abef-c721ee1fd9c8","system_id":"levelo_inurba_marseille","lat":43.31406,"lon":5.38448,"is_reserved":false,"is_disabled":false,"rental_uris":{"android":"levelo://app?vid=ff39d0c8-ba61-4ae1-abef-c721ee1fd9c8","ios":"levelo://app?vid=ff39d0c8-ba61-4ae1-abef-c721ee1fd9c8"},"vehicle_type_id":"4","last_reported":1723395980,"current_range_meters":8000,"station_id":"","pricing_plan_id":"cebpf4jnsgd1na2vs0mg"},{"bike_id":"5cb9e66d-22fa-40fb-bbec-15529310012f","system_id":"levelo_inurba_marseille","lat":43.313571,"lon":5.384829,"is_reserved":false,"is_disabled":false,"rental_uris":{"android":"levelo://app?vid=5cb9e66d-22fa-40fb-bbec-15529310012f","ios":"levelo://app?vid=5cb9e66d-22fa-40fb-bbec-15529310012f"},"vehicle_type_id":"4","last_reported":1723395980,"current_range_meters":28800,"station_id":"ce4bgt92rcd13ifvqcf0","pricing_plan_id":"cebpf4jnsgd1na2vs0mg"},{"bike_id":"e899ca4d-481a-4485-a8fd-ad5d270a10ff","system_id":"levelo_inurba_marseille","lat":43.313571,"lon":5.384829,"is_reserved":false,"is_disabled":false,"rental_uris":{"android":"levelo://app?vid=e899ca4d-481a-4485-a8fd-ad5d270a10ff","ios":"levelo://app?vid=e899ca4d-481a-4485-a8fd-ad5d270a10ff"},"vehicle_type_id":"4","last_reported":1723395980,"current_range_meters":21600,"station_id":"ce4bgt92rcd13ifvqcf0","pricing_plan_id":"cebpf4jnsgd1na2vs0mg"},{"bike_id":"0c8b2a59-b393-4974-ad9a-e075a7be7bd9","system_id":"levelo_inurba_marseille","lat":43.305364,"lon":5.384119,"is_reserved":false,"is_disabled":false,"rental_uris":{"android":"levelo://app?vid=0c8b2a59-b393-4974-ad9a-e075a7be7bd9","ios":"levelo://app?vid=0c8b2a59-b393-4974-ad9a-e075a7be7bd9"},"vehicle_type_id":"4","last_reported":1723395980,"current_range_meters":2800,"station_id":"ce4bgg92rcd13ifvqb30","pricing_plan_id":"cebpf4jnsgd1na2vs0mg"},{"bike_id":"1a2a718b-141c-4990-8134-3a21f30ea7ce","system_id":"levelo_inurba_marseille","lat":43.311722,"lon":5.387247,"is_reserved":false,"is_disabled":false,"rental_uris":{"android":"levelo://app?vid=1a2a718b-141c-4990-8134-3a21f30ea7ce","ios":"levelo://app?vid=1a2a718b-141c-4990-8134-3a21f30ea7ce"},"vehicle_type_id":"4","last_reported":1723395980,"current_range_meters":5600,"station_id":"ce4bgv12rcd13ifvqcp0","pricing_plan_id":"cebpf4jnsgd1na2vs0mg"},{"bike_id":"35912371-f4f6-4f6a-a323-83ced8627fce","system_id":"levelo_inurba_marseille","lat":43.311722,"lon":5.387247,"is_reserved":false,"is_disabled":false,"rental_uris":{"android":"levelo://app?vid=35912371-f4f6-4f6a-a323-83ced8627fce","ios":"levelo://app?vid=35912371-f4f6-4f6a-a323-83ced8627fce"},"vehicle_type_id":"4","last_reported":1723395980,"current_range_meters":2000,"station_id":"ce4bgv12rcd13ifvqcp0","pricing_plan_id":"cebpf4jnsgd1na2vs0mg"},{"bike_id":"2c8335e3-1aa5-4c59-9224-500c68dc6b28","system_id":"levelo_inurba_marseille","lat":43.311722,"lon":5.387247,"is_reserved":false,"is_disabled":false,"rental_uris":{"android":"levelo://app?vid=2c8335e3-1aa5-4c59-9224-500c68dc6b28","ios":"levelo://app?vid=2c8335e3-1aa5-4c59-9224-500c68dc6b28"},"vehicle_type_id":"4","last_reported":1723395980,"current_range_meters":7200,"station_id":"ce4bgv12rcd13ifvqcp0","pricing_plan_id":"cebpf4jnsgd1na2vs0mg"},{"bike_id":"6dcc8045-d07b-4946-948a-690a9625c92f","system_id":"levelo_inurba_marseille","lat":43.311722,"lon":5.387247,"is_reserved":false,"is_disabled":false,"rental_uris":{"android":"levelo://app?vid=6dcc8045-d07b-4946-948a-690a9625c92f","ios":"levelo://app?vid=6dcc8045-d07b-4946-948a-690a9625c92f"},"vehicle_type_id":"4","last_reported":1723395980,"current_range_meters":21600,"station_id":"ce4bgv12rcd13ifvqcp0","pricing_plan_id":"cebpf4jnsgd1na2vs0mg"},{"bike_id":"77fa85f0-d993-4301-b7ed-38b06370819a","system_id":"levelo_inurba_marseille","lat":43.32263,"lon":5.38278,"is_reserved":false,"is_disabled":false,"rental_uris":{"android":"levelo://app?vid=77fa85f0-d993-4301-b7ed-38b06370819a","ios":"levelo://app?vid=77fa85f0-d993-4301-b7ed-38b06370819a"},"vehicle_type_id":"4","last_reported":1723395980,"current_range_meters":4800,"station_id":"ce4bhr12rcd13ifvqhqg","pricing_plan_id":"cebpf4jnsgd1na2vs0mg"},{"bike_id":"c568f253-f437-40d7-91e0-8a0c20115011","system_id":"levelo_inurba_marseille","lat":43.32265,"lon":5.38278,"is_reserved":false,"is_disabled":false,"rental_uris":{"android":"levelo://app?vid=c568f253-f437-40d7-91e0-8a0c20115011","ios":"levelo://app?vid=c568f253-f437-40d7-91e0-8a0c20115011"},"vehicle_type_id":"4","last_reported":1723395980,"current_range_meters":13200,"station_id":"ce4bhr12rcd13ifvqhqg","pricing_plan_id":"cebpf4jnsgd1na2vs0mg"},{"bike_id":"ce1ce9e5-fc18-45cb-ab21-864f03a9328c","system_id":"levelo_inurba_marseille","lat":43.297794,"lon":5.370888,"is_reserved":false,"is_disabled":false,"rental_uris":{"android":"levelo://app?vid=ce1ce9e5-fc18-45cb-ab21-864f03a9328c","ios":"levelo://app?vid=ce1ce9e5-fc18-45cb-ab21-864f03a9328c"},"vehicle_type_id":"4","last_reported":1723395980,"current_range_meters":20400,"station_id":"ce4bgop2rcd13ifvqc1g","pricing_plan_id":"cebpf4jnsgd1na2vs0mg"},{"bike_id":"1a308fda-724f-4330-ba27-ac1c82a8acbc","system_id":"levelo_inurba_marseille","lat":43.32375,"lon":5.3818,"is_reserved":false,"is_disabled":false,"rental_uris":{"android":"levelo://app?vid=1a308fda-724f-4330-ba27-ac1c82a8acbc","ios":"levelo://app?vid=1a308fda-724f-4330-ba27-ac1c82a8acbc"},"vehicle_type_id":"4","last_reported":1723395980,"current_range_meters":3600,"station_id":"","pricing_plan_id":"cebpf4jnsgd1na2vs0mg"},{"bike_id":"44e66433-0970-470c-9a23-acdc8634e8f5","system_id":"levelo_inurba_marseille","lat":43.297163,"lon":5.365866,"is_reserved":false,"is_disabled":false,"rental_uris":{"android":"levelo://app?vid=44e66433-0970-470c-9a23-acdc8634e8f5","ios":"levelo://app?vid=44e66433-0970-470c-9a23-acdc8634e8f5"},"vehicle_type_id":"4","last_reported":1723395980,"current_range_meters":0,"station_id":"ce4bgn12rcd13ifvqbt0","pricing_plan_id":"cebpf4jnsgd1na2vs0mg"},{"bike_id":"8aeb345e-69df-4b1f-9019-1499cb9598f9","system_id":"levelo_inurba_marseille","lat":43.297163,"lon":5.365866,"is_reserved":false,"is_disabled":false,"rental_uris":{"android":"levelo://app?vid=8aeb345e-69df-4b1f-9019-1499cb9598f9","ios":"levelo://app?vid=8aeb345e-69df-4b1f-9019-1499cb9598f9"},"vehicle_type_id":"4","last_reported":1723395980,"current_range_meters":15200,"station_id":"ce4bgn12rcd13ifvqbt0","pricing_plan_id":"cebpf4jnsgd1na2vs0mg"},{"bike_id":"ef4de1f9-3dad-4809-b2a7-f86fc745bf4a","system_id":"levelo_inurba_marseille","lat":43.297163,"lon":5.365866,"is_reserved":false,"is_disabled":false,"rental_uris":{"android":"levelo://app?vid=ef4de1f9-3dad-4809-b2a7-f86fc745bf4a","ios":"levelo://app?vid=ef4de1f9-3dad-4809-b2a7-f86fc745bf4a"},"vehicle_type_id":"4","last_reported":1723395980,"current_range_meters":3600,"station_id":"ce4bgn12rcd13ifvqbt0","pricing_plan_id":"cebpf4jnsgd1na2vs0mg"},{"bike_id":"1e73330a-fec5-4791-b5a7-769adf77c49a","system_id":"levelo_inurba_marseille","lat":43.297163,"lon":5.365866,"is_reserved":false,"is_disabled":false,"rental_uris":{"android":"levelo://app?vid=1e73330a-fec5-4791-b5a7-769adf77c49a","ios":"levelo://app?vid=1e73330a-fec5-4791-b5a7-769adf77c49a"},"vehicle_type_id":"4","last_reported":1723395980,"current_range_meters":1600,"station_id":"ce4bgn12rcd13ifvqbt0","pricing_plan_id":"cebpf4jnsgd1na2vs0mg"},{"bike_id":"772b5d73-9993-427c-895b-71f3534efe20","system_id":"levelo_inurba_marseille","lat":43.29573,"lon":5.367355,"is_reserved":false,"is_disabled":false,"rental_uris":{"android":"levelo://app?vid=772b5d73-9993-427c-895b-71f3534efe20","ios":"levelo://app?vid=772b5d73-9993-427c-895b-71f3534efe20"},"vehicle_type_id":"4","last_reported":1723395980,"current_range_meters":0,"station_id":"ce4bgph2rcd13ifvqc2g","pricing_plan_id":"cebpf4jnsgd1na2vs0mg"},{"bike_id":"b4de7d56-d1ba-419a-814c-f6e8b2f47467","system_id":"levelo_inurba_marseille","lat":43.296921,"lon":5.376579,"is_reserved":false,"is_disabled":false,"rental_uris":{"android":"levelo://app?vid=b4de7d56-d1ba-419a-814c-f6e8b2f47467","ios":"levelo://app?vid=b4de7d56-d1ba-419a-814c-f6e8b2f47467"},"vehicle_type_id":"4","last_reported":1723395980,"current_range_meters":18000,"station_id":"ce4bgkh2rcd13ifvqbl0","pricing_plan_id":"cebpf4jnsgd1na2vs0mg"},{"bike_id":"ed788100-5403-4e53-b131-ed76e6e22485","system_id":"levelo_inurba_marseille","lat":43.32262,"lon":5.386723,"is_reserved":false,"is_disabled":false,"rental_uris":{"android":"levelo://app?vid=ed788100-5403-4e53-b131-ed76e6e22485","ios":"levelo://app?vid=ed788100-5403-4e53-b131-ed76e6e22485"},"vehicle_type_id":"4","last_reported":1723395980,"current_range_meters":0,"station_id":"","pricing_plan_id":"cebpf4jnsgd1na2vs0mg"},{"bike_id":"7c1cf45d-e658-43f0-adbd-2b7276a9f1dd","system_id":"levelo_inurba_marseille","lat":43.296277,"lon":5.377108,"is_reserved":false,"is_disabled":false,"rental_uris":{"android":"levelo://app?vid=7c1cf45d-e658-43f0-adbd-2b7276a9f1dd","ios":"levelo://app?vid=7c1cf45d-e658-43f0-adbd-2b7276a9f1dd"},"vehicle_type_id":"4","last_reported":1723395980,"current_range_meters":23200,"station_id":"ce4bgi92rcd13ifvqb90","pricing_plan_id":"cebpf4jnsgd1na2vs0mg"},{"bike_id":"29f67dda-3a5a-4c8e-8211-54455247608c","system_id":"levelo_inurba_marseille","lat":43.296277,"lon":5.377108,"is_reserved":false,"is_disabled":false,"rental_uris":{"android":"levelo://app?vid=29f67dda-3a5a-4c8e-8211-54455247608c","ios":"levelo://app?vid=29f67dda-3a5a-4c8e-8211-54455247608c"},"vehicle_type_id":"4","last_reported":1723395980,"current_range_meters":0,"station_id":"ce4bgi92rcd13ifvqb90","pricing_plan_id":"cebpf4jnsgd1na2vs0mg"},{"bike_id":"d570398b-1f5d-4784-8af0-7b6605886013","system_id":"levelo_inurba_marseille","lat":43.299212,"lon":5.383128,"is_reserved":false,"is_disabled":false,"rental_uris":{"android":"levelo://app?vid=d570398b-1f5d-4784-8af0-7b6605886013","ios":"levelo://app?vid=d570398b-1f5d-4784-8af0-7b6605886013"},"vehicle_type_id":"4","last_reported":1723395980,"current_range_meters":23200,"station_id":"","pricing_plan_id":"cebpf4jnsgd1na2vs0mg"},{"bike_id":"1c10fee6-8e9c-44a1-93ee-ca6b57a498f3","system_id":"levelo_inurba_marseille","lat":43.295748,"lon":5.37522,"is_reserved":false,"is_disabled":false,"rental_uris":{"android":"levelo://app?vid=1c10fee6-8e9c-44a1-93ee-ca6b57a498f3","ios":"levelo://app?vid=1c10fee6-8e9c-44a1-93ee-ca6b57a498f3"},"vehicle_type_id":"4","last_reported":1723395980,"current_range_meters":30800,"station_id":"ce4bgh92rcd13ifvqb50","pricing_plan_id":"cebpf4jnsgd1na2vs0mg"},{"bike_id":"35deeb40-075d-459b-b842-2788471b1be8","system_id":"levelo_inurba_marseille","lat":43.296277,"lon":5.377108,"is_reserved":false,"is_disabled":false,"rental_uris":{"android":"levelo://app?vid=35deeb40-075d-459b-b842-2788471b1be8","ios":"levelo://app?vid=35deeb40-075d-459b-b842-2788471b1be8"},"vehicle_type_id":"4","last_reported":1723395980,"current_range_meters":2400,"station_id":"ce4bgi92rcd13ifvqb90","pricing_plan_id":"cebpf4jnsgd1na2vs0mg"},{"bike_id":"84320170-6ac6-4215-9e46-40380c3babb8","system_id":"levelo_inurba_marseille","lat":43.295748,"lon":5.37522,"is_reserved":false,"is_disabled":false,"rental_uris":{"android":"levelo://app?vid=84320170-6ac6-4215-9e46-40380c3babb8","ios":"levelo://app?vid=84320170-6ac6-4215-9e46-40380c3babb8"},"vehicle_type_id":"4","last_reported":1723395980,"current_range_meters":31200,"station_id":"ce4bgh92rcd13ifvqb50","pricing_plan_id":"cebpf4jnsgd1na2vs0mg"},{"bike_id":"da23b7ab-7f45-44c4-ae90-261c73aa7248","system_id":"levelo_inurba_marseille","lat":43.295748,"lon":5.37522,"is_reserved":false,"is_disabled":false,"rental_uris":{"android":"levelo://app?vid=da23b7ab-7f45-44c4-ae90-261c73aa7248","ios":"levelo://app?vid=da23b7ab-7f45-44c4-ae90-261c73aa7248"},"vehicle_type_id":"4","last_reported":1723395980,"current_range_meters":22400,"station_id":"ce4bgh92rcd13ifvqb50","pricing_plan_id":"cebpf4jnsgd1na2vs0mg"},{"bike_id":"3b14e02f-9ed1-45be-afa8-c7d53fadc2a9","system_id":"levelo_inurba_marseille","lat":43.296263,"lon":5.377094,"is_reserved":false,"is_disabled":false,"rental_uris":{"android":"levelo://app?vid=3b14e02f-9ed1-45be-afa8-c7d53fadc2a9","ios":"levelo://app?vid=3b14e02f-9ed1-45be-afa8-c7d53fadc2a9"},"vehicle_type_id":"4","last_reported":1723395980,"current_range_meters":21600,"station_id":"ce4bgi92rcd13ifvqb90","pricing_plan_id":"cebpf4jnsgd1na2vs0mg"},{"bike_id":"ee2bc155-a291-4139-85e3-2df9fdbe6c22","system_id":"levelo_inurba_marseille","lat":43.29618,"lon":5.37713,"is_reserved":false,"is_disabled":false,"rental_uris":{"android":"levelo://app?vid=ee2bc155-a291-4139-85e3-2df9fdbe6c22","ios":"levelo://app?vid=ee2bc155-a291-4139-85e3-2df9fdbe6c22"},"vehicle_type_id":"4","last_reported":1723395980,"current_range_meters":19600,"station_id":"ce4bgi92rcd13ifvqb90","pricing_plan_id":"cebpf4jnsgd1na2vs0mg"},{"bike_id":"8b2e814c-66de-4808-b7bd-466e075aa498","system_id":"levelo_inurba_marseille","lat":43.299724,"lon":5.384848,"is_reserved":false,"is_disabled":false,"rental_uris":{"android":"levelo://app?vid=8b2e814c-66de-4808-b7bd-466e075aa498","ios":"levelo://app?vid=8b2e814c-66de-4808-b7bd-466e075aa498"},"vehicle_type_id":"4","last_reported":1723395980,"current_range_meters":0,"station_id":"ce4bgj92rcd13ifvqbd0","pricing_plan_id":"cebpf4jnsgd1na2vs0mg"},{"bike_id":"da42b9d6-8ca2-496e-9fe4-cbc260483739","system_id":"levelo_inurba_marseille","lat":43.298764,"lon":5.388973,"is_reserved":false,"is_disabled":false,"rental_uris":{"android":"levelo://app?vid=da42b9d6-8ca2-496e-9fe4-cbc260483739","ios":"levelo://app?vid=da42b9d6-8ca2-496e-9fe4-cbc260483739"},"vehicle_type_id":"4","last_reported":1723395980,"current_range_meters":4800,"station_id":"ce4bh392rcd13ifvqdl0","pricing_plan_id":"cebpf4jnsgd1na2vs0mg"},{"bike_id":"77192461-172c-4d40-8ca2-f5aa19dcb034","system_id":"levelo_inurba_marseille","lat":43.33055,"lon":5.35875,"is_reserved":false,"is_disabled":false,"rental_uris":{"android":"levelo://app?vid=77192461-172c-4d40-8ca2-f5aa19dcb034","ios":"levelo://app?vid=77192461-172c-4d40-8ca2-f5aa19dcb034"},"vehicle_type_id":"4","last_reported":1723395980,"current_range_meters":10400,"station_id":"","pricing_plan_id":"cebpf4jnsgd1na2vs0mg"},{"bike_id":"fdbfbe74-8f9c-4dc3-a97e-901bc0bab6ae","system_id":"levelo_inurba_marseille","lat":43.301396,"lon":5.387812,"is_reserved":false,"is_disabled":false,"rental_uris":{"android":"levelo://app?vid=fdbfbe74-8f9c-4dc3-a97e-901bc0bab6ae","ios":"levelo://app?vid=fdbfbe74-8f9c-4dc3-a97e-901bc0bab6ae"},"vehicle_type_id":"4","last_reported":1723395980,"current_range_meters":3200,"station_id":"ce4bghh2rcd13ifvqb60","pricing_plan_id":"cebpf4jnsgd1na2vs0mg"},{"bike_id":"9662bda7-c98b-482c-acb6-5f2d4a6281ec","system_id":"levelo_inurba_marseille","lat":43.304606,"lon":5.379026,"is_reserved":false,"is_disabled":false,"rental_uris":{"android":"levelo://app?vid=9662bda7-c98b-482c-acb6-5f2d4a6281ec","ios":"levelo://app?vid=9662bda7-c98b-482c-acb6-5f2d4a6281ec"},"vehicle_type_id":"4","last_reported":1723395980,"current_range_meters":27200,"station_id":"ce4bgup2rcd13ifvqcn0","pricing_plan_id":"cebpf4jnsgd1na2vs0mg"},{"bike_id":"66dfaeaf-6d30-433d-86c4-70d42ddd75d7","system_id":"levelo_inurba_marseille","lat":43.32367,"lon":5.388836,"is_reserved":false,"is_disabled":false,"rental_uris":{"android":"levelo://app?vid=66dfaeaf-6d30-433d-86c4-70d42ddd75d7","ios":"levelo://app?vid=66dfaeaf-6d30-433d-86c4-70d42ddd75d7"},"vehicle_type_id":"4","last_reported":1723395980,"current_range_meters":2000,"station_id":"ce4bhqp2rcd13ifvqhog","pricing_plan_id":"cebpf4jnsgd1na2vs0mg"},{"bike_id":"08db0afc-b9d5-416f-afef-3b7f504f8cf3","system_id":"levelo_inurba_marseille","lat":43.32367,"lon":5.388836,"is_reserved":false,"is_disabled":false,"rental_uris":{"android":"levelo://app?vid=08db0afc-b9d5-416f-afef-3b7f504f8cf3","ios":"levelo://app?vid=08db0afc-b9d5-416f-afef-3b7f504f8cf3"},"vehicle_type_id":"4","last_reported":1723395980,"current_range_meters":1200,"station_id":"ce4bhqp2rcd13ifvqhog","pricing_plan_id":"cebpf4jnsgd1na2vs0mg"},{"bike_id":"e03a8b47-9b40-4cfe-a336-db2a39e79ac9","system_id":"levelo_inurba_marseille","lat":43.29602,"lon":5.381084,"is_reserved":false,"is_disabled":false,"rental_uris":{"android":"levelo://app?vid=e03a8b47-9b40-4cfe-a336-db2a39e79ac9","ios":"levelo://app?vid=e03a8b47-9b40-4cfe-a336-db2a39e79ac9"},"vehicle_type_id":"4","last_reported":1723395980,"current_range_meters":21600,"station_id":"ce4bgl12rcd13ifvqbo0","pricing_plan_id":"cebpf4jnsgd1na2vs0mg"},{"bike_id":"3051f754-be7d-4d86-9ee2-0b13f78962c7","system_id":"levelo_inurba_marseille","lat":43.29602,"lon":5.381084,"is_reserved":false,"is_disabled":false,"rental_uris":{"android":"levelo://app?vid=3051f754-be7d-4d86-9ee2-0b13f78962c7","ios":"levelo://app?vid=3051f754-be7d-4d86-9ee2-0b13f78962c7"},"vehicle_type_id":"4","last_reported":1723395980,"current_range_meters":400,"station_id":"ce4bgl12rcd13ifvqbo0","pricing_plan_id":"cebpf4jnsgd1na2vs0mg"},{"bike_id":"a4e6d708-667d-488d-ac98-dd2b2a234211","system_id":"levelo_inurba_marseille","lat":43.293249,"lon":5.371578,"is_reserved":false,"is_disabled":false,"rental_uris":{"android":"levelo://app?vid=a4e6d708-667d-488d-ac98-dd2b2a234211","ios":"levelo://app?vid=a4e6d708-667d-488d-ac98-dd2b2a234211"},"vehicle_type_id":"4","last_reported":1723395980,"current_range_meters":13200,"station_id":"ce4bgh92rcd13ifvqb40","pricing_plan_id":"cebpf4jnsgd1na2vs0mg"},{"bike_id":"04e6bffc-3db0-44a1-a49d-809536c008be","system_id":"levelo_inurba_marseille","lat":43.293259,"lon":5.371586,"is_reserved":false,"is_disabled":false,"rental_uris":{"android":"levelo://app?vid=04e6bffc-3db0-44a1-a49d-809536c008be","ios":"levelo://app?vid=04e6bffc-3db0-44a1-a49d-809536c008be"},"vehicle_type_id":"4","last_reported":1723395980,"current_range_meters":19600,"station_id":"ce4bgh92rcd13ifvqb40","pricing_plan_id":"cebpf4jnsgd1na2vs0mg"},{"bike_id":"7291ddd3-4802-4293-9fcd-e9185e2b39bc","system_id":"levelo_inurba_marseille","lat":43.293259,"lon":5.371586,"is_reserved":false,"is_disabled":false,"rental_uris":{"android":"levelo://app?vid=7291ddd3-4802-4293-9fcd-e9185e2b39bc","ios":"levelo://app?vid=7291ddd3-4802-4293-9fcd-e9185e2b39bc"},"vehicle_type_id":"4","last_reported":1723395980,"current_range_meters":14800,"station_id":"ce4bgh92rcd13ifvqb40","pricing_plan_id":"cebpf4jnsgd1na2vs0mg"},{"bike_id":"fbe554c1-7463-4881-b9d0-195c0ed9542f","system_id":"levelo_inurba_marseille","lat":43.292311,"lon":5.360731,"is_reserved":false,"is_disabled":false,"rental_uris":{"android":"levelo://app?vid=fbe554c1-7463-4881-b9d0-195c0ed9542f","ios":"levelo://app?vid=fbe554c1-7463-4881-b9d0-195c0ed9542f"},"vehicle_type_id":"4","last_reported":1723395980,"current_range_meters":0,"station_id":"ce4bhbh2rcd13ifvqeqg","pricing_plan_id":"cebpf4jnsgd1na2vs0mg"},{"bike_id":"8d37495d-9961-45f8-ba67-ee81725ae3ae","system_id":"levelo_inurba_marseille","lat":43.29228,"lon":5.36363,"is_reserved":false,"is_disabled":false,"rental_uris":{"android":"levelo://app?vid=8d37495d-9961-45f8-ba67-ee81725ae3ae","ios":"levelo://app?vid=8d37495d-9961-45f8-ba67-ee81725ae3ae"},"vehicle_type_id":"4","last_reported":1723395980,"current_range_meters":4400,"station_id":"","pricing_plan_id":"cebpf4jnsgd1na2vs0mg"},{"bike_id":"8040ebb0-be62-4260-a3d6-73588379488c","system_id":"levelo_inurba_marseille","lat":43.303002,"lon":5.392142,"is_reserved":false,"is_disabled":false,"rental_uris":{"android":"levelo://app?vid=8040ebb0-be62-4260-a3d6-73588379488c","ios":"levelo://app?vid=8040ebb0-be62-4260-a3d6-73588379488c"},"vehicle_type_id":"4","last_reported":1723395980,"current_range_meters":16800,"station_id":"ce4bgkh2rcd13ifvqbk0","pricing_plan_id":"cebpf4jnsgd1na2vs0mg"},{"bike_id":"eee87f39-28eb-4384-a9fa-caa190baf0ff","system_id":"levelo_inurba_marseille","lat":43.2936,"lon":5.37835,"is_reserved":false,"is_disabled":false,"rental_uris":{"android":"levelo://app?vid=eee87f39-28eb-4384-a9fa-caa190baf0ff","ios":"levelo://app?vid=eee87f39-28eb-4384-a9fa-caa190baf0ff"},"vehicle_type_id":"4","last_reported":1723395980,"current_range_meters":0,"station_id":"ce4bgjh2rcd13ifvqbf0","pricing_plan_id":"cebpf4jnsgd1na2vs0mg"},{"bike_id":"9e6fbd59-fa60-4ace-8b89-cff5ca133b40","system_id":"levelo_inurba_marseille","lat":43.292311,"lon":5.360731,"is_reserved":false,"is_disabled":false,"rental_uris":{"android":"levelo://app?vid=9e6fbd59-fa60-4ace-8b89-cff5ca133b40","ios":"levelo://app?vid=9e6fbd59-fa60-4ace-8b89-cff5ca133b40"},"vehicle_type_id":"4","last_reported":1723395980,"current_range_meters":0,"station_id":"ce4bhbh2rcd13ifvqeqg","pricing_plan_id":"cebpf4jnsgd1na2vs0mg"},{"bike_id":"5e73ed43-021f-4f96-a9bb-d574b8dfde8b","system_id":"levelo_inurba_marseille","lat":43.30085,"lon":5.390856,"is_reserved":false,"is_disabled":false,"rental_uris":{"android":"levelo://app?vid=5e73ed43-021f-4f96-a9bb-d574b8dfde8b","ios":"levelo://app?vid=5e73ed43-021f-4f96-a9bb-d574b8dfde8b"},"vehicle_type_id":"4","last_reported":1723395980,"current_range_meters":0,"station_id":"ce4bh192rcd13ifvqdb0","pricing_plan_id":"cebpf4jnsgd1na2vs0mg"},{"bike_id":"41847fb0-0343-4f9d-945f-b06ba160ed68","system_id":"levelo_inurba_marseille","lat":43.30085,"lon":5.390856,"is_reserved":false,"is_disabled":false,"rental_uris":{"android":"levelo://app?vid=41847fb0-0343-4f9d-945f-b06ba160ed68","ios":"levelo://app?vid=41847fb0-0343-4f9d-945f-b06ba160ed68"},"vehicle_type_id":"4","last_reported":1723395980,"current_range_meters":5600,"station_id":"ce4bh192rcd13ifvqdb0","pricing_plan_id":"cebpf4jnsgd1na2vs0mg"},{"bike_id":"575c8f27-1337-4c33-9540-0bf9af1568b1","system_id":"levelo_inurba_marseille","lat":43.29224,"lon":5.360624,"is_reserved":false,"is_disabled":false,"rental_uris":{"android":"levelo://app?vid=575c8f27-1337-4c33-9540-0bf9af1568b1","ios":"levelo://app?vid=575c8f27-1337-4c33-9540-0bf9af1568b1"},"vehicle_type_id":"4","last_reported":1723395980,"current_range_meters":27200,"station_id":"ce4bhbh2rcd13ifvqeqg","pricing_plan_id":"cebpf4jnsgd1na2vs0mg"},{"bike_id":"8669c215-f64f-4991-918a-38e605b47e3d","system_id":"levelo_inurba_marseille","lat":43.29291,"lon":5.35553,"is_reserved":false,"is_disabled":false,"rental_uris":{"android":"levelo://app?vid=8669c215-f64f-4991-918a-38e605b47e3d","ios":"levelo://app?vid=8669c215-f64f-4991-918a-38e605b47e3d"},"vehicle_type_id":"4","last_reported":1723395980,"current_range_meters":2000,"station_id":"","pricing_plan_id":"cebpf4jnsgd1na2vs0mg"},{"bike_id":"9d4b68a5-c93f-4844-a235-5ff4a055b660","system_id":"levelo_inurba_marseille","lat":43.292385,"lon":5.37767,"is_reserved":false,"is_disabled":false,"rental_uris":{"android":"levelo://app?vid=9d4b68a5-c93f-4844-a235-5ff4a055b660","ios":"levelo://app?vid=9d4b68a5-c93f-4844-a235-5ff4a055b660"},"vehicle_type_id":"4","last_reported":1723395980,"current_range_meters":7200,"station_id":"","pricing_plan_id":"cebpf4jnsgd1na2vs0mg"},{"bike_id":"f5eb76d6-22f1-4e19-88f2-a79e9e863eac","system_id":"levelo_inurba_marseille","lat":43.29529,"lon":5.385581,"is_reserved":false,"is_disabled":false,"rental_uris":{"android":"levelo://app?vid=f5eb76d6-22f1-4e19-88f2-a79e9e863eac","ios":"levelo://app?vid=f5eb76d6-22f1-4e19-88f2-a79e9e863eac"},"vehicle_type_id":"4","last_reported":1723395980,"current_range_meters":0,"station_id":"ce4bgih2rcd13ifvqba0","pricing_plan_id":"cebpf4jnsgd1na2vs0mg"},{"bike_id":"fff5d7dd-e4c4-4e1e-9927-6f294caea2c9","system_id":"levelo_inurba_marseille","lat":43.29529,"lon":5.385581,"is_reserved":false,"is_disabled":false,"rental_uris":{"android":"levelo://app?vid=fff5d7dd-e4c4-4e1e-9927-6f294caea2c9","ios":"levelo://app?vid=fff5d7dd-e4c4-4e1e-9927-6f294caea2c9"},"vehicle_type_id":"4","last_reported":1723395980,"current_range_meters":4000,"station_id":"ce4bgih2rcd13ifvqba0","pricing_plan_id":"cebpf4jnsgd1na2vs0mg"},{"bike_id":"76edd492-aca0-42a1-bf6f-81527babb890","system_id":"levelo_inurba_marseille","lat":43.290779,"lon":5.371482,"is_reserved":false,"is_disabled":false,"rental_uris":{"android":"levelo://app?vid=76edd492-aca0-42a1-bf6f-81527babb890","ios":"levelo://app?vid=76edd492-aca0-42a1-bf6f-81527babb890"},"vehicle_type_id":"4","last_reported":1723395980,"current_range_meters":2000,"station_id":"ce4bh5p2rcd13ifvqe4g","pricing_plan_id":"cebpf4jnsgd1na2vs0mg"},{"bike_id":"a3a89da6-ce52-4f59-a0f0-0535beda7219","system_id":"levelo_inurba_marseille","lat":43.290779,"lon":5.371482,"is_reserved":false,"is_disabled":false,"rental_uris":{"android":"levelo://app?vid=a3a89da6-ce52-4f59-a0f0-0535beda7219","ios":"levelo://app?vid=a3a89da6-ce52-4f59-a0f0-0535beda7219"},"vehicle_type_id":"4","last_reported":1723395980,"current_range_meters":7200,"station_id":"ce4bh5p2rcd13ifvqe4g","pricing_plan_id":"cebpf4jnsgd1na2vs0mg"},{"bike_id":"89888224-b0e5-44e8-8ef4-4f3c01623c01","system_id":"levelo_inurba_marseille","lat":43.29069,"lon":5.371766,"is_reserved":false,"is_disabled":false,"rental_uris":{"android":"levelo://app?vid=89888224-b0e5-44e8-8ef4-4f3c01623c01","ios":"levelo://app?vid=89888224-b0e5-44e8-8ef4-4f3c01623c01"},"vehicle_type_id":"4","last_reported":1723395980,"current_range_meters":0,"station_id":"ce4bh5p2rcd13ifvqe4g","pricing_plan_id":"cebpf4jnsgd1na2vs0mg"},{"bike_id":"e6aa58bc-55ed-4823-b57e-371cb4a07b68","system_id":"levelo_inurba_marseille","lat":43.302008,"lon":5.394694,"is_reserved":false,"is_disabled":false,"rental_uris":{"android":"levelo://app?vid=e6aa58bc-55ed-4823-b57e-371cb4a07b68","ios":"levelo://app?vid=e6aa58bc-55ed-4823-b57e-371cb4a07b68"},"vehicle_type_id":"4","last_reported":1723395980,"current_range_meters":11200,"station_id":"ce4bh0p2rcd13ifvqd70","pricing_plan_id":"cebpf4jnsgd1na2vs0mg"},{"bike_id":"f487b378-cf2d-4387-b118-1081f1938911","system_id":"levelo_inurba_marseille","lat":43.2929,"lon":5.38248,"is_reserved":false,"is_disabled":false,"rental_uris":{"android":"levelo://app?vid=f487b378-cf2d-4387-b118-1081f1938911","ios":"levelo://app?vid=f487b378-cf2d-4387-b118-1081f1938911"},"vehicle_type_id":"4","last_reported":1723395980,"current_range_meters":400,"station_id":"","pricing_plan_id":"cebpf4jnsgd1na2vs0mg"},{"bike_id":"c40a3834-a580-4c00-8d0d-1b492fb13b59","system_id":"levelo_inurba_marseille","lat":43.29419,"lon":5.3862,"is_reserved":false,"is_disabled":false,"rental_uris":{"android":"levelo://app?vid=c40a3834-a580-4c00-8d0d-1b492fb13b59","ios":"levelo://app?vid=c40a3834-a580-4c00-8d0d-1b492fb13b59"},"vehicle_type_id":"4","last_reported":1723395980,"current_range_meters":0,"station_id":"ce4bh2h2rcd13ifvqdh0","pricing_plan_id":"cebpf4jnsgd1na2vs0mg"},{"bike_id":"4bf00928-8884-432c-8494-c809e04440ff","system_id":"levelo_inurba_marseille","lat":43.289468,"lon":5.363719,"is_reserved":false,"is_disabled":false,"rental_uris":{"android":"levelo://app?vid=4bf00928-8884-432c-8494-c809e04440ff","ios":"levelo://app?vid=4bf00928-8884-432c-8494-c809e04440ff"},"vehicle_type_id":"4","last_reported":1723395980,"current_range_meters":0,"station_id":"ce4bhc92rcd13ifvqetg","pricing_plan_id":"cebpf4jnsgd1na2vs0mg"},{"bike_id":"bc6ec712-3c40-4fca-ac67-0796d8188269","system_id":"levelo_inurba_marseille","lat":43.289468,"lon":5.363719,"is_reserved":false,"is_disabled":false,"rental_uris":{"android":"levelo://app?vid=bc6ec712-3c40-4fca-ac67-0796d8188269","ios":"levelo://app?vid=bc6ec712-3c40-4fca-ac67-0796d8188269"},"vehicle_type_id":"4","last_reported":1723395980,"current_range_meters":20000,"station_id":"ce4bhc92rcd13ifvqetg","pricing_plan_id":"cebpf4jnsgd1na2vs0mg"},{"bike_id":"d8e3dcc2-495d-4562-9108-3fe90f638bbb","system_id":"levelo_inurba_marseille","lat":43.292644,"lon":5.384257,"is_reserved":false,"is_disabled":false,"rental_uris":{"android":"levelo://app?vid=d8e3dcc2-495d-4562-9108-3fe90f638bbb","ios":"levelo://app?vid=d8e3dcc2-495d-4562-9108-3fe90f638bbb"},"vehicle_type_id":"4","last_reported":1723395980,"current_range_meters":0,"station_id":"ce4bh692rcd13ifvqea0","pricing_plan_id":"cebpf4jnsgd1na2vs0mg"},{"bike_id":"e9234af2-43e3-4919-aac5-90add2bf7032","system_id":"levelo_inurba_marseille","lat":43.290995,"lon":5.381361,"is_reserved":false,"is_disabled":false,"rental_uris":{"android":"levelo://app?vid=e9234af2-43e3-4919-aac5-90add2bf7032","ios":"levelo://app?vid=e9234af2-43e3-4919-aac5-90add2bf7032"},"vehicle_type_id":"4","last_reported":1723395980,"current_range_meters":20000,"station_id":"ce4bh512rcd13ifvqe2g","pricing_plan_id":"cebpf4jnsgd1na2vs0mg"},{"bike_id":"4c988644-8061-4178-b2c5-56bd1e7ca379","system_id":"levelo_inurba_marseille","lat":43.290995,"lon":5.381361,"is_reserved":false,"is_disabled":false,"rental_uris":{"android":"levelo://app?vid=4c988644-8061-4178-b2c5-56bd1e7ca379","ios":"levelo://app?vid=4c988644-8061-4178-b2c5-56bd1e7ca379"},"vehicle_type_id":"4","last_reported":1723395980,"current_range_meters":18000,"station_id":"ce4bh512rcd13ifvqe2g","pricing_plan_id":"cebpf4jnsgd1na2vs0mg"},{"bike_id":"e0ff0324-193b-4b48-b5f6-9ad36fca9257","system_id":"levelo_inurba_marseille","lat":43.290995,"lon":5.381361,"is_reserved":false,"is_disabled":false,"rental_uris":{"android":"levelo://app?vid=e0ff0324-193b-4b48-b5f6-9ad36fca9257","ios":"levelo://app?vid=e0ff0324-193b-4b48-b5f6-9ad36fca9257"},"vehicle_type_id":"4","last_reported":1723395980,"current_range_meters":25200,"station_id":"ce4bh512rcd13ifvqe2g","pricing_plan_id":"cebpf4jnsgd1na2vs0mg"},{"bike_id":"559f5bea-e52e-47b3-b17a-1eb1e74b3d1c","system_id":"levelo_inurba_marseille","lat":43.297815,"lon":5.393548,"is_reserved":false,"is_disabled":false,"rental_uris":{"android":"levelo://app?vid=559f5bea-e52e-47b3-b17a-1eb1e74b3d1c","ios":"levelo://app?vid=559f5bea-e52e-47b3-b17a-1eb1e74b3d1c"},"vehicle_type_id":"4","last_reported":1723395980,"current_range_meters":0,"station_id":"chh1huq6cuj3fo74tm60","pricing_plan_id":"cebpf4jnsgd1na2vs0mg"},{"bike_id":"743d1aeb-28f9-42d4-a7a4-30d3b11fa42e","system_id":"levelo_inurba_marseille","lat":43.33024,"lon":5.39046,"is_reserved":false,"is_disabled":false,"rental_uris":{"android":"levelo://app?vid=743d1aeb-28f9-42d4-a7a4-30d3b11fa42e","ios":"levelo://app?vid=743d1aeb-28f9-42d4-a7a4-30d3b11fa42e"},"vehicle_type_id":"4","last_reported":1723395980,"current_range_meters":5600,"station_id":"ce4bhr92rcd13ifvqhrg","pricing_plan_id":"cebpf4jnsgd1na2vs0mg"},{"bike_id":"5cf3e908-23ff-47dd-bbf6-6838aba2a9f3","system_id":"levelo_inurba_marseille","lat":43.330442,"lon":5.389148,"is_reserved":false,"is_disabled":false,"rental_uris":{"android":"levelo://app?vid=5cf3e908-23ff-47dd-bbf6-6838aba2a9f3","ios":"levelo://app?vid=5cf3e908-23ff-47dd-bbf6-6838aba2a9f3"},"vehicle_type_id":"4","last_reported":1723395980,"current_range_meters":14000,"station_id":"ce4bhr92rcd13ifvqhrg","pricing_plan_id":"cebpf4jnsgd1na2vs0mg"},{"bike_id":"4dd3df97-f042-4ef0-9fba-47ec4b401346","system_id":"levelo_inurba_marseille","lat":43.2883,"lon":5.37357,"is_reserved":false,"is_disabled":false,"rental_uris":{"android":"levelo://app?vid=4dd3df97-f042-4ef0-9fba-47ec4b401346","ios":"levelo://app?vid=4dd3df97-f042-4ef0-9fba-47ec4b401346"},"vehicle_type_id":"4","last_reported":1723395980,"current_range_meters":20000,"station_id":"","pricing_plan_id":"cebpf4jnsgd1na2vs0mg"},{"bike_id":"05173600-8328-4178-bf9f-f893f1351c1c","system_id":"levelo_inurba_marseille","lat":43.28856,"lon":5.358371,"is_reserved":false,"is_disabled":false,"rental_uris":{"android":"levelo://app?vid=05173600-8328-4178-bf9f-f893f1351c1c","ios":"levelo://app?vid=05173600-8328-4178-bf9f-f893f1351c1c"},"vehicle_type_id":"4","last_reported":1723395980,"current_range_meters":18400,"station_id":"ce4bhb12rcd13ifvqem0","pricing_plan_id":"cebpf4jnsgd1na2vs0mg"},{"bike_id":"7553d7c6-8eef-4b21-9dca-534ec43256a6","system_id":"levelo_inurba_marseille","lat":43.33738,"lon":5.37458,"is_reserved":false,"is_disabled":false,"rental_uris":{"android":"levelo://app?vid=7553d7c6-8eef-4b21-9dca-534ec43256a6","ios":"levelo://app?vid=7553d7c6-8eef-4b21-9dca-534ec43256a6"},"vehicle_type_id":"4","last_reported":1723395980,"current_range_meters":9200,"station_id":"","pricing_plan_id":"cebpf4jnsgd1na2vs0mg"},{"bike_id":"db58ee8d-491e-48e1-a14b-aa0df3fa3549","system_id":"levelo_inurba_marseille","lat":43.312609,"lon":5.401662,"is_reserved":false,"is_disabled":false,"rental_uris":{"android":"levelo://app?vid=db58ee8d-491e-48e1-a14b-aa0df3fa3549","ios":"levelo://app?vid=db58ee8d-491e-48e1-a14b-aa0df3fa3549"},"vehicle_type_id":"4","last_reported":1723395980,"current_range_meters":3600,"station_id":"ce4bh092rcd13ifvqd30","pricing_plan_id":"cebpf4jnsgd1na2vs0mg"},{"bike_id":"e4d61cbb-fd6f-439d-9561-c57290014a0a","system_id":"levelo_inurba_marseille","lat":43.31268,"lon":5.40168,"is_reserved":false,"is_disabled":false,"rental_uris":{"android":"levelo://app?vid=e4d61cbb-fd6f-439d-9561-c57290014a0a","ios":"levelo://app?vid=e4d61cbb-fd6f-439d-9561-c57290014a0a"},"vehicle_type_id":"4","last_reported":1723395980,"current_range_meters":0,"station_id":"ce4bh092rcd13ifvqd30","pricing_plan_id":"cebpf4jnsgd1na2vs0mg"},{"bike_id":"c3cf305c-692c-41ed-b07c-7ebbc13f240d","system_id":"levelo_inurba_marseille","lat":43.337405,"lon":5.374624,"is_reserved":false,"is_disabled":false,"rental_uris":{"android":"levelo://app?vid=c3cf305c-692c-41ed-b07c-7ebbc13f240d","ios":"levelo://app?vid=c3cf305c-692c-41ed-b07c-7ebbc13f240d"},"vehicle_type_id":"4","last_reported":1723395980,"current_range_meters":14000,"station_id":"","pricing_plan_id":"cebpf4jnsgd1na2vs0mg"},{"bike_id":"ac75d8e5-5139-4e43-a64e-51e7994c2517","system_id":"levelo_inurba_marseille","lat":43.337444,"lon":5.374475,"is_reserved":false,"is_disabled":false,"rental_uris":{"android":"levelo://app?vid=ac75d8e5-5139-4e43-a64e-51e7994c2517","ios":"levelo://app?vid=ac75d8e5-5139-4e43-a64e-51e7994c2517"},"vehicle_type_id":"3","last_reported":1723395980,"current_range_meters":24800,"station_id":"","pricing_plan_id":"cebpf4jnsgd1na2vs0mg"},{"bike_id":"8b5f6228-3582-497c-9919-c849c8ef0c9b","system_id":"levelo_inurba_marseille","lat":43.337436,"lon":5.374589,"is_reserved":false,"is_disabled":false,"rental_uris":{"android":"levelo://app?vid=8b5f6228-3582-497c-9919-c849c8ef0c9b","ios":"levelo://app?vid=8b5f6228-3582-497c-9919-c849c8ef0c9b"},"vehicle_type_id":"4","last_reported":1723395980,"current_range_meters":0,"station_id":"","pricing_plan_id":"cebpf4jnsgd1na2vs0mg"},{"bike_id":"43f21911-683d-4ba4-93d3-8a7e20e1c78c","system_id":"levelo_inurba_marseille","lat":43.337443,"lon":5.374595,"is_reserved":false,"is_disabled":false,"rental_uris":{"android":"levelo://app?vid=43f21911-683d-4ba4-93d3-8a7e20e1c78c","ios":"levelo://app?vid=43f21911-683d-4ba4-93d3-8a7e20e1c78c"},"vehicle_type_id":"4","last_reported":1723395980,"current_range_meters":26400,"station_id":"","pricing_plan_id":"cebpf4jnsgd1na2vs0mg"},{"bike_id":"a99690a8-3e4f-41a1-9b6a-5b43249a269f","system_id":"levelo_inurba_marseille","lat":43.33746,"lon":5.37457,"is_reserved":false,"is_disabled":false,"rental_uris":{"android":"levelo://app?vid=a99690a8-3e4f-41a1-9b6a-5b43249a269f","ios":"levelo://app?vid=a99690a8-3e4f-41a1-9b6a-5b43249a269f"},"vehicle_type_id":"4","last_reported":1723395980,"current_range_meters":400,"station_id":"","pricing_plan_id":"cebpf4jnsgd1na2vs0mg"},{"bike_id":"c4c606dd-5554-4916-a36e-53036a0baaf1","system_id":"levelo_inurba_marseille","lat":43.30935,"lon":5.40146,"is_reserved":false,"is_disabled":false,"rental_uris":{"android":"levelo://app?vid=c4c606dd-5554-4916-a36e-53036a0baaf1","ios":"levelo://app?vid=c4c606dd-5554-4916-a36e-53036a0baaf1"},"vehicle_type_id":"4","last_reported":1723395980,"current_range_meters":0,"station_id":"ce4bgvp2rcd13ifvqct0","pricing_plan_id":"cebpf4jnsgd1na2vs0mg"},{"bike_id":"6f8a75ef-cfde-4da5-99c7-85f9ae9b026b","system_id":"levelo_inurba_marseille","lat":43.33756,"lon":5.37416,"is_reserved":false,"is_disabled":false,"rental_uris":{"android":"levelo://app?vid=6f8a75ef-cfde-4da5-99c7-85f9ae9b026b","ios":"levelo://app?vid=6f8a75ef-cfde-4da5-99c7-85f9ae9b026b"},"vehicle_type_id":"4","last_reported":1723395980,"current_range_meters":20800,"station_id":"","pricing_plan_id":"cebpf4jnsgd1na2vs0mg"},{"bike_id":"6137b86e-8de9-4c4f-94ef-bfa372175031","system_id":"levelo_inurba_marseille","lat":43.337513,"lon":5.37454,"is_reserved":false,"is_disabled":false,"rental_uris":{"android":"levelo://app?vid=6137b86e-8de9-4c4f-94ef-bfa372175031","ios":"levelo://app?vid=6137b86e-8de9-4c4f-94ef-bfa372175031"},"vehicle_type_id":"4","last_reported":1723395980,"current_range_meters":11600,"station_id":"","pricing_plan_id":"cebpf4jnsgd1na2vs0mg"},{"bike_id":"1ece39e8-5ec5-465b-b0d5-bdea3554c74d","system_id":"levelo_inurba_marseille","lat":43.337621,"lon":5.374495,"is_reserved":false,"is_disabled":false,"rental_uris":{"android":"levelo://app?vid=1ece39e8-5ec5-465b-b0d5-bdea3554c74d","ios":"levelo://app?vid=1ece39e8-5ec5-465b-b0d5-bdea3554c74d"},"vehicle_type_id":"4","last_reported":1723395980,"current_range_meters":20400,"station_id":"","pricing_plan_id":"cebpf4jnsgd1na2vs0mg"},{"bike_id":"ea1cc1bc-b3f0-4093-8f5f-6dfff1fa63d9","system_id":"levelo_inurba_marseille","lat":43.337575,"lon":5.37485,"is_reserved":false,"is_disabled":false,"rental_uris":{"android":"levelo://app?vid=ea1cc1bc-b3f0-4093-8f5f-6dfff1fa63d9","ios":"levelo://app?vid=ea1cc1bc-b3f0-4093-8f5f-6dfff1fa63d9"},"vehicle_type_id":"4","last_reported":1723395980,"current_range_meters":30800,"station_id":"","pricing_plan_id":"cebpf4jnsgd1na2vs0mg"},{"bike_id":"e0da458e-1309-458b-956b-aab617b2ea05","system_id":"levelo_inurba_marseille","lat":43.3376,"lon":5.37473,"is_reserved":false,"is_disabled":false,"rental_uris":{"android":"levelo://app?vid=e0da458e-1309-458b-956b-aab617b2ea05","ios":"levelo://app?vid=e0da458e-1309-458b-956b-aab617b2ea05"},"vehicle_type_id":"4","last_reported":1723395980,"current_range_meters":23200,"station_id":"","pricing_plan_id":"cebpf4jnsgd1na2vs0mg"},{"bike_id":"a7e71684-8757-4c0e-98c0-cd5b05cd0ba7","system_id":"levelo_inurba_marseille","lat":43.337583,"lon":5.374932,"is_reserved":false,"is_disabled":false,"rental_uris":{"android":"levelo://app?vid=a7e71684-8757-4c0e-98c0-cd5b05cd0ba7","ios":"levelo://app?vid=a7e71684-8757-4c0e-98c0-cd5b05cd0ba7"},"vehicle_type_id":"4","last_reported":1723395980,"current_range_meters":28800,"station_id":"","pricing_plan_id":"cebpf4jnsgd1na2vs0mg"},{"bike_id":"5cb0d0f3-eacc-40eb-a46e-542fc59e15f6","system_id":"levelo_inurba_marseille","lat":43.337582,"lon":5.374941,"is_reserved":false,"is_disabled":false,"rental_uris":{"android":"levelo://app?vid=5cb0d0f3-eacc-40eb-a46e-542fc59e15f6","ios":"levelo://app?vid=5cb0d0f3-eacc-40eb-a46e-542fc59e15f6"},"vehicle_type_id":"4","last_reported":1723395980,"current_range_meters":28800,"station_id":"","pricing_plan_id":"cebpf4jnsgd1na2vs0mg"},{"bike_id":"475ed14f-5d86-4ce1-9e44-9d4d1bef7035","system_id":"levelo_inurba_marseille","lat":43.33765,"lon":5.37486,"is_reserved":false,"is_disabled":false,"rental_uris":{"android":"levelo://app?vid=475ed14f-5d86-4ce1-9e44-9d4d1bef7035","ios":"levelo://app?vid=475ed14f-5d86-4ce1-9e44-9d4d1bef7035"},"vehicle_type_id":"4","last_reported":1723395980,"current_range_meters":21200,"station_id":"","pricing_plan_id":"cebpf4jnsgd1na2vs0mg"},{"bike_id":"57da0337-159a-4148-be4f-fc6e9aca3c31","system_id":"levelo_inurba_marseille","lat":43.337054,"lon":5.355832,"is_reserved":false,"is_disabled":false,"rental_uris":{"android":"levelo://app?vid=57da0337-159a-4148-be4f-fc6e9aca3c31","ios":"levelo://app?vid=57da0337-159a-4148-be4f-fc6e9aca3c31"},"vehicle_type_id":"4","last_reported":1723395980,"current_range_meters":4400,"station_id":"","pricing_plan_id":"cebpf4jnsgd1na2vs0mg"},{"bike_id":"33d42ff9-3265-47ac-be46-938e270731ab","system_id":"levelo_inurba_marseille","lat":43.301117,"lon":5.398795,"is_reserved":false,"is_disabled":false,"rental_uris":{"android":"levelo://app?vid=33d42ff9-3265-47ac-be46-938e270731ab","ios":"levelo://app?vid=33d42ff9-3265-47ac-be46-938e270731ab"},"vehicle_type_id":"4","last_reported":1723395980,"current_range_meters":31200,"station_id":"ce4bh0h2rcd13ifvqd40","pricing_plan_id":"cebpf4jnsgd1na2vs0mg"},{"bike_id":"a7cf9975-2c98-4619-8dad-d55aef5b880e","system_id":"levelo_inurba_marseille","lat":43.301117,"lon":5.398795,"is_reserved":false,"is_disabled":false,"rental_uris":{"android":"levelo://app?vid=a7cf9975-2c98-4619-8dad-d55aef5b880e","ios":"levelo://app?vid=a7cf9975-2c98-4619-8dad-d55aef5b880e"},"vehicle_type_id":"4","last_reported":1723395980,"current_range_meters":19200,"station_id":"ce4bh0h2rcd13ifvqd40","pricing_plan_id":"cebpf4jnsgd1na2vs0mg"},{"bike_id":"976d0109-9de7-4d45-bd81-5491eb52ebe8","system_id":"levelo_inurba_marseille","lat":43.33029,"lon":5.39344,"is_reserved":false,"is_disabled":false,"rental_uris":{"android":"levelo://app?vid=976d0109-9de7-4d45-bd81-5491eb52ebe8","ios":"levelo://app?vid=976d0109-9de7-4d45-bd81-5491eb52ebe8"},"vehicle_type_id":"4","last_reported":1723395980,"current_range_meters":6000,"station_id":"","pricing_plan_id":"cebpf4jnsgd1na2vs0mg"},{"bike_id":"12ea5828-c17e-4e57-b3e8-cf08c4ae5fa6","system_id":"levelo_inurba_marseille","lat":43.290336,"lon":5.386425,"is_reserved":false,"is_disabled":false,"rental_uris":{"android":"levelo://app?vid=12ea5828-c17e-4e57-b3e8-cf08c4ae5fa6","ios":"levelo://app?vid=12ea5828-c17e-4e57-b3e8-cf08c4ae5fa6"},"vehicle_type_id":"4","last_reported":1723395980,"current_range_meters":2000,"station_id":"ce4bh4p2rcd13ifvqe0g","pricing_plan_id":"cebpf4jnsgd1na2vs0mg"},{"bike_id":"ca2f5734-05e4-4022-a592-ce34f5283a6e","system_id":"levelo_inurba_marseille","lat":43.289307,"lon":5.38406,"is_reserved":false,"is_disabled":false,"rental_uris":{"android":"levelo://app?vid=ca2f5734-05e4-4022-a592-ce34f5283a6e","ios":"levelo://app?vid=ca2f5734-05e4-4022-a592-ce34f5283a6e"},"vehicle_type_id":"4","last_reported":1723395980,"current_range_meters":800,"station_id":"ce4bh612rcd13ifvqe6g","pricing_plan_id":"cebpf4jnsgd1na2vs0mg"},{"bike_id":"a86fdd68-3e70-4bed-b5bf-638f28a34633","system_id":"levelo_inurba_marseille","lat":43.302759,"lon":5.400793,"is_reserved":false,"is_disabled":false,"rental_uris":{"android":"levelo://app?vid=a86fdd68-3e70-4bed-b5bf-638f28a34633","ios":"levelo://app?vid=a86fdd68-3e70-4bed-b5bf-638f28a34633"},"vehicle_type_id":"4","last_reported":1723395980,"current_range_meters":9200,"station_id":"ce4bgvh2rcd13ifvqcs0","pricing_plan_id":"cebpf4jnsgd1na2vs0mg"},{"bike_id":"0d820e10-e650-490b-9aea-c79288cfd92a","system_id":"levelo_inurba_marseille","lat":43.286039,"lon":5.370679,"is_reserved":false,"is_disabled":false,"rental_uris":{"android":"levelo://app?vid=0d820e10-e650-490b-9aea-c79288cfd92a","ios":"levelo://app?vid=0d820e10-e650-490b-9aea-c79288cfd92a"},"vehicle_type_id":"4","last_reported":1723395980,"current_range_meters":22800,"station_id":"ce4bht12rcd13ifvqi60","pricing_plan_id":"cebpf4jnsgd1na2vs0mg"},{"bike_id":"36451034-4051-4fad-817c-26abe99794d9","system_id":"levelo_inurba_marseille","lat":43.28615,"lon":5.37064,"is_reserved":false,"is_disabled":false,"rental_uris":{"android":"levelo://app?vid=36451034-4051-4fad-817c-26abe99794d9","ios":"levelo://app?vid=36451034-4051-4fad-817c-26abe99794d9"},"vehicle_type_id":"4","last_reported":1723395980,"current_range_meters":0,"station_id":"ce4bht12rcd13ifvqi60","pricing_plan_id":"cebpf4jnsgd1na2vs0mg"},{"bike_id":"300f9e41-d4c6-46a0-b9e6-a49fc51356a4","system_id":"levelo_inurba_marseille","lat":43.286039,"lon":5.370679,"is_reserved":false,"is_disabled":false,"rental_uris":{"android":"levelo://app?vid=300f9e41-d4c6-46a0-b9e6-a49fc51356a4","ios":"levelo://app?vid=300f9e41-d4c6-46a0-b9e6-a49fc51356a4"},"vehicle_type_id":"4","last_reported":1723395980,"current_range_meters":25600,"station_id":"ce4bht12rcd13ifvqi60","pricing_plan_id":"cebpf4jnsgd1na2vs0mg"},{"bike_id":"78fff369-2e49-416e-ba84-f7088578ccdf","system_id":"levelo_inurba_marseille","lat":43.28612,"lon":5.37061,"is_reserved":false,"is_disabled":false,"rental_uris":{"android":"levelo://app?vid=78fff369-2e49-416e-ba84-f7088578ccdf","ios":"levelo://app?vid=78fff369-2e49-416e-ba84-f7088578ccdf"},"vehicle_type_id":"4","last_reported":1723395980,"current_range_meters":3600,"station_id":"ce4bht12rcd13ifvqi60","pricing_plan_id":"cebpf4jnsgd1na2vs0mg"},{"bike_id":"858b0abf-4820-4283-925d-44c7c9d22901","system_id":"levelo_inurba_marseille","lat":43.28611,"lon":5.37064,"is_reserved":false,"is_disabled":false,"rental_uris":{"android":"levelo://app?vid=858b0abf-4820-4283-925d-44c7c9d22901","ios":"levelo://app?vid=858b0abf-4820-4283-925d-44c7c9d22901"},"vehicle_type_id":"4","last_reported":1723395980,"current_range_meters":8000,"station_id":"ce4bht12rcd13ifvqi60","pricing_plan_id":"cebpf4jnsgd1na2vs0mg"},{"bike_id":"c1afa930-983c-4721-af8f-eb21fc10d9e9","system_id":"levelo_inurba_marseille","lat":43.286039,"lon":5.370681,"is_reserved":false,"is_disabled":false,"rental_uris":{"android":"levelo://app?vid=c1afa930-983c-4721-af8f-eb21fc10d9e9","ios":"levelo://app?vid=c1afa930-983c-4721-af8f-eb21fc10d9e9"},"vehicle_type_id":"4","last_reported":1723395980,"current_range_meters":0,"station_id":"ce4bht12rcd13ifvqi60","pricing_plan_id":"cebpf4jnsgd1na2vs0mg"},{"bike_id":"c93c699f-cef1-4137-a61a-60053c373756","system_id":"levelo_inurba_marseille","lat":43.286039,"lon":5.370681,"is_reserved":false,"is_disabled":false,"rental_uris":{"android":"levelo://app?vid=c93c699f-cef1-4137-a61a-60053c373756","ios":"levelo://app?vid=c93c699f-cef1-4137-a61a-60053c373756"},"vehicle_type_id":"4","last_reported":1723395980,"current_range_meters":18400,"station_id":"ce4bht12rcd13ifvqi60","pricing_plan_id":"cebpf4jnsgd1na2vs0mg"},{"bike_id":"085291cf-a5e0-403c-8749-5b7c0f29dffd","system_id":"levelo_inurba_marseille","lat":43.287184,"lon":5.37937,"is_reserved":false,"is_disabled":false,"rental_uris":{"android":"levelo://app?vid=085291cf-a5e0-403c-8749-5b7c0f29dffd","ios":"levelo://app?vid=085291cf-a5e0-403c-8749-5b7c0f29dffd"},"vehicle_type_id":"4","last_reported":1723395980,"current_range_meters":3600,"station_id":"ce4bh9p2rcd13ifvqec0","pricing_plan_id":"cebpf4jnsgd1na2vs0mg"},{"bike_id":"996d9335-1178-45af-90fc-d6d4c239eba1","system_id":"levelo_inurba_marseille","lat":43.28718,"lon":5.37928,"is_reserved":false,"is_disabled":false,"rental_uris":{"android":"levelo://app?vid=996d9335-1178-45af-90fc-d6d4c239eba1","ios":"levelo://app?vid=996d9335-1178-45af-90fc-d6d4c239eba1"},"vehicle_type_id":"4","last_reported":1723395980,"current_range_meters":0,"station_id":"ce4bh9p2rcd13ifvqec0","pricing_plan_id":"cebpf4jnsgd1na2vs0mg"},{"bike_id":"8513c28d-3fe4-4cbd-a27b-a86d97e486eb","system_id":"levelo_inurba_marseille","lat":43.31688,"lon":5.40472,"is_reserved":false,"is_disabled":false,"rental_uris":{"android":"levelo://app?vid=8513c28d-3fe4-4cbd-a27b-a86d97e486eb","ios":"levelo://app?vid=8513c28d-3fe4-4cbd-a27b-a86d97e486eb"},"vehicle_type_id":"4","last_reported":1723395980,"current_range_meters":2000,"station_id":"ce4bh012rcd13ifvqd00","pricing_plan_id":"cebpf4jnsgd1na2vs0mg"},{"bike_id":"c4883fbf-e344-4616-a12b-f432c6a22ada","system_id":"levelo_inurba_marseille","lat":43.291994,"lon":5.392907,"is_reserved":false,"is_disabled":false,"rental_uris":{"android":"levelo://app?vid=c4883fbf-e344-4616-a12b-f432c6a22ada","ios":"levelo://app?vid=c4883fbf-e344-4616-a12b-f432c6a22ada"},"vehicle_type_id":"4","last_reported":1723395980,"current_range_meters":6000,"station_id":"ce4bh192rcd13ifvqdd0","pricing_plan_id":"cebpf4jnsgd1na2vs0mg"},{"bike_id":"f6c7bb6e-2f1c-4f53-a818-802ccd563ce3","system_id":"levelo_inurba_marseille","lat":43.284538,"lon":5.358657,"is_reserved":false,"is_disabled":false,"rental_uris":{"android":"levelo://app?vid=f6c7bb6e-2f1c-4f53-a818-802ccd563ce3","ios":"levelo://app?vid=f6c7bb6e-2f1c-4f53-a818-802ccd563ce3"},"vehicle_type_id":"4","last_reported":1723395980,"current_range_meters":0,"station_id":"ce4bhah2rcd13ifvqei0","pricing_plan_id":"cebpf4jnsgd1na2vs0mg"},{"bike_id":"f06f6f0f-af3e-4397-9591-9ef0b50b5d15","system_id":"levelo_inurba_marseille","lat":43.28619,"lon":5.35104,"is_reserved":false,"is_disabled":false,"rental_uris":{"android":"levelo://app?vid=f06f6f0f-af3e-4397-9591-9ef0b50b5d15","ios":"levelo://app?vid=f06f6f0f-af3e-4397-9591-9ef0b50b5d15"},"vehicle_type_id":"4","last_reported":1723395980,"current_range_meters":0,"station_id":"ce4bhch2rcd13ifvqeug","pricing_plan_id":"cebpf4jnsgd1na2vs0mg"},{"bike_id":"0d943be9-2e14-44a1-9c2b-7bae87c9cfb0","system_id":"levelo_inurba_marseille","lat":43.28619,"lon":5.35102,"is_reserved":false,"is_disabled":false,"rental_uris":{"android":"levelo://app?vid=0d943be9-2e14-44a1-9c2b-7bae87c9cfb0","ios":"levelo://app?vid=0d943be9-2e14-44a1-9c2b-7bae87c9cfb0"},"vehicle_type_id":"4","last_reported":1723395980,"current_range_meters":0,"station_id":"ce4bhch2rcd13ifvqeug","pricing_plan_id":"cebpf4jnsgd1na2vs0mg"},{"bike_id":"8e63a55f-a5d8-4225-8a9a-ef7e58623617","system_id":"levelo_inurba_marseille","lat":43.286174,"lon":5.351023,"is_reserved":false,"is_disabled":false,"rental_uris":{"android":"levelo://app?vid=8e63a55f-a5d8-4225-8a9a-ef7e58623617","ios":"levelo://app?vid=8e63a55f-a5d8-4225-8a9a-ef7e58623617"},"vehicle_type_id":"4","last_reported":1723395980,"current_range_meters":0,"station_id":"ce4bhch2rcd13ifvqeug","pricing_plan_id":"cebpf4jnsgd1na2vs0mg"},{"bike_id":"25a13ac4-4953-45ab-a8e6-6f2102a11c2c","system_id":"levelo_inurba_marseille","lat":43.28617,"lon":5.351027,"is_reserved":false,"is_disabled":false,"rental_uris":{"android":"levelo://app?vid=25a13ac4-4953-45ab-a8e6-6f2102a11c2c","ios":"levelo://app?vid=25a13ac4-4953-45ab-a8e6-6f2102a11c2c"},"vehicle_type_id":"4","last_reported":1723395980,"current_range_meters":0,"station_id":"ce4bhch2rcd13ifvqeug","pricing_plan_id":"cebpf4jnsgd1na2vs0mg"},{"bike_id":"b38cbba7-9fbd-4265-90d7-fc59bfe99a0b","system_id":"levelo_inurba_marseille","lat":43.28613,"lon":5.35108,"is_reserved":false,"is_disabled":false,"rental_uris":{"android":"levelo://app?vid=b38cbba7-9fbd-4265-90d7-fc59bfe99a0b","ios":"levelo://app?vid=b38cbba7-9fbd-4265-90d7-fc59bfe99a0b"},"vehicle_type_id":"4","last_reported":1723395980,"current_range_meters":2000,"station_id":"ce4bhch2rcd13ifvqeug","pricing_plan_id":"cebpf4jnsgd1na2vs0mg"},{"bike_id":"641e62cd-82fd-4860-a9c8-75ee5927afcf","system_id":"levelo_inurba_marseille","lat":43.28612,"lon":5.35099,"is_reserved":false,"is_disabled":false,"rental_uris":{"android":"levelo://app?vid=641e62cd-82fd-4860-a9c8-75ee5927afcf","ios":"levelo://app?vid=641e62cd-82fd-4860-a9c8-75ee5927afcf"},"vehicle_type_id":"4","last_reported":1723395980,"current_range_meters":2800,"station_id":"ce4bhch2rcd13ifvqeug","pricing_plan_id":"cebpf4jnsgd1na2vs0mg"},{"bike_id":"656aaf4c-3afb-43e4-92af-8ba99bd629dd","system_id":"levelo_inurba_marseille","lat":43.283998,"lon":5.375062,"is_reserved":false,"is_disabled":false,"rental_uris":{"android":"levelo://app?vid=656aaf4c-3afb-43e4-92af-8ba99bd629dd","ios":"levelo://app?vid=656aaf4c-3afb-43e4-92af-8ba99bd629dd"},"vehicle_type_id":"4","last_reported":1723395980,"current_range_meters":0,"station_id":"ce4bh412rcd13ifvqds0","pricing_plan_id":"cebpf4jnsgd1na2vs0mg"},{"bike_id":"68ec5af1-4aaa-4bb5-aa54-416ce7a5e848","system_id":"levelo_inurba_marseille","lat":43.283998,"lon":5.375062,"is_reserved":false,"is_disabled":false,"rental_uris":{"android":"levelo://app?vid=68ec5af1-4aaa-4bb5-aa54-416ce7a5e848","ios":"levelo://app?vid=68ec5af1-4aaa-4bb5-aa54-416ce7a5e848"},"vehicle_type_id":"4","last_reported":1723395980,"current_range_meters":10400,"station_id":"ce4bh412rcd13ifvqds0","pricing_plan_id":"cebpf4jnsgd1na2vs0mg"},{"bike_id":"ad5fcd4d-a696-4aa1-9402-0efc19246bd5","system_id":"levelo_inurba_marseille","lat":43.283998,"lon":5.375062,"is_reserved":false,"is_disabled":false,"rental_uris":{"android":"levelo://app?vid=ad5fcd4d-a696-4aa1-9402-0efc19246bd5","ios":"levelo://app?vid=ad5fcd4d-a696-4aa1-9402-0efc19246bd5"},"vehicle_type_id":"4","last_reported":1723395980,"current_range_meters":9200,"station_id":"ce4bh412rcd13ifvqds0","pricing_plan_id":"cebpf4jnsgd1na2vs0mg"},{"bike_id":"7df26b89-4616-4520-9a75-844db5f10e4e","system_id":"levelo_inurba_marseille","lat":43.283998,"lon":5.375062,"is_reserved":false,"is_disabled":false,"rental_uris":{"android":"levelo://app?vid=7df26b89-4616-4520-9a75-844db5f10e4e","ios":"levelo://app?vid=7df26b89-4616-4520-9a75-844db5f10e4e"},"vehicle_type_id":"4","last_reported":1723395980,"current_range_meters":7600,"station_id":"ce4bh412rcd13ifvqds0","pricing_plan_id":"cebpf4jnsgd1na2vs0mg"},{"bike_id":"05216500-1b0f-4b42-8423-18daacd8dcf9","system_id":"levelo_inurba_marseille","lat":43.295713,"lon":5.399639,"is_reserved":false,"is_disabled":false,"rental_uris":{"android":"levelo://app?vid=05216500-1b0f-4b42-8423-18daacd8dcf9","ios":"levelo://app?vid=05216500-1b0f-4b42-8423-18daacd8dcf9"},"vehicle_type_id":"4","last_reported":1723395980,"current_range_meters":400,"station_id":"ce4bh312rcd13ifvqdj0","pricing_plan_id":"cebpf4jnsgd1na2vs0mg"},{"bike_id":"f46827d7-a6ff-49b2-b2b9-e2602d6b278a","system_id":"levelo_inurba_marseille","lat":43.28635,"lon":5.3848,"is_reserved":false,"is_disabled":false,"rental_uris":{"android":"levelo://app?vid=f46827d7-a6ff-49b2-b2b9-e2602d6b278a","ios":"levelo://app?vid=f46827d7-a6ff-49b2-b2b9-e2602d6b278a"},"vehicle_type_id":"4","last_reported":1723395980,"current_range_meters":12000,"station_id":"","pricing_plan_id":"cebpf4jnsgd1na2vs0mg"},{"bike_id":"3e0f29d3-3005-454c-8167-4221c30c4b47","system_id":"levelo_inurba_marseille","lat":43.286595,"lon":5.386795,"is_reserved":false,"is_disabled":false,"rental_uris":{"android":"levelo://app?vid=3e0f29d3-3005-454c-8167-4221c30c4b47","ios":"levelo://app?vid=3e0f29d3-3005-454c-8167-4221c30c4b47"},"vehicle_type_id":"4","last_reported":1723395980,"current_range_meters":0,"station_id":"ce4bh492rcd13ifvqdug","pricing_plan_id":"cebpf4jnsgd1na2vs0mg"},{"bike_id":"c9be59cf-8b40-4882-8e60-edba55fbc434","system_id":"levelo_inurba_marseille","lat":43.283998,"lon":5.375062,"is_reserved":false,"is_disabled":false,"rental_uris":{"android":"levelo://app?vid=c9be59cf-8b40-4882-8e60-edba55fbc434","ios":"levelo://app?vid=c9be59cf-8b40-4882-8e60-edba55fbc434"},"vehicle_type_id":"4","last_reported":1723395980,"current_range_meters":20000,"station_id":"ce4bh412rcd13ifvqds0","pricing_plan_id":"cebpf4jnsgd1na2vs0mg"},{"bike_id":"a36c6c42-0fec-49c9-94a9-e0aea70e5a6b","system_id":"levelo_inurba_marseille","lat":43.284793,"lon":5.384113,"is_reserved":false,"is_disabled":false,"rental_uris":{"android":"levelo://app?vid=a36c6c42-0fec-49c9-94a9-e0aea70e5a6b","ios":"levelo://app?vid=a36c6c42-0fec-49c9-94a9-e0aea70e5a6b"},"vehicle_type_id":"4","last_reported":1723395980,"current_range_meters":26000,"station_id":"ce4bh512rcd13ifvqe3g","pricing_plan_id":"cebpf4jnsgd1na2vs0mg"},{"bike_id":"6a90f48b-c6a2-433f-873e-8a880fd26149","system_id":"levelo_inurba_marseille","lat":43.283494,"lon":5.380945,"is_reserved":false,"is_disabled":false,"rental_uris":{"android":"levelo://app?vid=6a90f48b-c6a2-433f-873e-8a880fd26149","ios":"levelo://app?vid=6a90f48b-c6a2-433f-873e-8a880fd26149"},"vehicle_type_id":"4","last_reported":1723395980,"current_range_meters":400,"station_id":"ce4bh412rcd13ifvqdr0","pricing_plan_id":"cebpf4jnsgd1na2vs0mg"},{"bike_id":"3ccc5582-bc34-4685-87d2-5d07b3fe28d8","system_id":"levelo_inurba_marseille","lat":43.284787,"lon":5.384116,"is_reserved":false,"is_disabled":false,"rental_uris":{"android":"levelo://app?vid=3ccc5582-bc34-4685-87d2-5d07b3fe28d8","ios":"levelo://app?vid=3ccc5582-bc34-4685-87d2-5d07b3fe28d8"},"vehicle_type_id":"4","last_reported":1723395980,"current_range_meters":6000,"station_id":"ce4bh512rcd13ifvqe3g","pricing_plan_id":"cebpf4jnsgd1na2vs0mg"},{"bike_id":"4159cafc-4ce6-4648-a465-4cd543c120b8","system_id":"levelo_inurba_marseille","lat":43.284793,"lon":5.384113,"is_reserved":false,"is_disabled":false,"rental_uris":{"android":"levelo://app?vid=4159cafc-4ce6-4648-a465-4cd543c120b8","ios":"levelo://app?vid=4159cafc-4ce6-4648-a465-4cd543c120b8"},"vehicle_type_id":"4","last_reported":1723395980,"current_range_meters":30800,"station_id":"ce4bh512rcd13ifvqe3g","pricing_plan_id":"cebpf4jnsgd1na2vs0mg"},{"bike_id":"cbe4512c-3d54-4c10-901e-8418fdc3c511","system_id":"levelo_inurba_marseille","lat":43.284787,"lon":5.384116,"is_reserved":false,"is_disabled":false,"rental_uris":{"android":"levelo://app?vid=cbe4512c-3d54-4c10-901e-8418fdc3c511","ios":"levelo://app?vid=cbe4512c-3d54-4c10-901e-8418fdc3c511"},"vehicle_type_id":"4","last_reported":1723395980,"current_range_meters":24400,"station_id":"ce4bh512rcd13ifvqe3g","pricing_plan_id":"cebpf4jnsgd1na2vs0mg"},{"bike_id":"b2dfd3d7-c223-4a7e-8936-90c1aa03c4b1","system_id":"levelo_inurba_marseille","lat":43.284787,"lon":5.384116,"is_reserved":false,"is_disabled":false,"rental_uris":{"android":"levelo://app?vid=b2dfd3d7-c223-4a7e-8936-90c1aa03c4b1","ios":"levelo://app?vid=b2dfd3d7-c223-4a7e-8936-90c1aa03c4b1"},"vehicle_type_id":"4","last_reported":1723395980,"current_range_meters":22400,"station_id":"ce4bh512rcd13ifvqe3g","pricing_plan_id":"cebpf4jnsgd1na2vs0mg"},{"bike_id":"e21f9832-bc13-4354-8091-665bff095dc6","system_id":"levelo_inurba_marseille","lat":43.284787,"lon":5.384116,"is_reserved":false,"is_disabled":false,"rental_uris":{"android":"levelo://app?vid=e21f9832-bc13-4354-8091-665bff095dc6","ios":"levelo://app?vid=e21f9832-bc13-4354-8091-665bff095dc6"},"vehicle_type_id":"4","last_reported":1723395980,"current_range_meters":0,"station_id":"ce4bh512rcd13ifvqe3g","pricing_plan_id":"cebpf4jnsgd1na2vs0mg"},{"bike_id":"94efc256-ccc0-4c66-a561-9d25f757b249","system_id":"levelo_inurba_marseille","lat":43.29795,"lon":5.404086,"is_reserved":false,"is_disabled":false,"rental_uris":{"android":"levelo://app?vid=94efc256-ccc0-4c66-a561-9d25f757b249","ios":"levelo://app?vid=94efc256-ccc0-4c66-a561-9d25f757b249"},"vehicle_type_id":"4","last_reported":1723395980,"current_range_meters":10400,"station_id":"ce4bh112rcd13ifvqd90","pricing_plan_id":"cebpf4jnsgd1na2vs0mg"},{"bike_id":"ddf95f7b-5eaa-46d5-b4b3-db65e8a30e62","system_id":"levelo_inurba_marseille","lat":43.28454,"lon":5.34957,"is_reserved":false,"is_disabled":false,"rental_uris":{"android":"levelo://app?vid=ddf95f7b-5eaa-46d5-b4b3-db65e8a30e62","ios":"levelo://app?vid=ddf95f7b-5eaa-46d5-b4b3-db65e8a30e62"},"vehicle_type_id":"4","last_reported":1723395980,"current_range_meters":23200,"station_id":"ce4bhbh2rcd13ifvqepg","pricing_plan_id":"cebpf4jnsgd1na2vs0mg"},{"bike_id":"d30dff41-7911-43ee-a226-3ac383a0119b","system_id":"levelo_inurba_marseille","lat":43.288759,"lon":5.393799,"is_reserved":false,"is_disabled":false,"rental_uris":{"android":"levelo://app?vid=d30dff41-7911-43ee-a226-3ac383a0119b","ios":"levelo://app?vid=d30dff41-7911-43ee-a226-3ac383a0119b"},"vehicle_type_id":"4","last_reported":1723395980,"current_range_meters":0,"station_id":"","pricing_plan_id":"cebpf4jnsgd1na2vs0mg"},{"bike_id":"e156145d-6b74-4835-9c33-6b17b6abd287","system_id":"levelo_inurba_marseille","lat":43.283494,"lon":5.380945,"is_reserved":false,"is_disabled":false,"rental_uris":{"android":"levelo://app?vid=e156145d-6b74-4835-9c33-6b17b6abd287","ios":"levelo://app?vid=e156145d-6b74-4835-9c33-6b17b6abd287"},"vehicle_type_id":"4","last_reported":1723395980,"current_range_meters":800,"station_id":"ce4bh412rcd13ifvqdr0","pricing_plan_id":"cebpf4jnsgd1na2vs0mg"},{"bike_id":"b18de3a0-bae5-402b-9f35-fa459e572cf1","system_id":"levelo_inurba_marseille","lat":43.283494,"lon":5.380945,"is_reserved":false,"is_disabled":false,"rental_uris":{"android":"levelo://app?vid=b18de3a0-bae5-402b-9f35-fa459e572cf1","ios":"levelo://app?vid=b18de3a0-bae5-402b-9f35-fa459e572cf1"},"vehicle_type_id":"4","last_reported":1723395980,"current_range_meters":2800,"station_id":"ce4bh412rcd13ifvqdr0","pricing_plan_id":"cebpf4jnsgd1na2vs0mg"},{"bike_id":"c6a74d65-8ff4-4903-b4d5-74ebb2e54f7b","system_id":"levelo_inurba_marseille","lat":43.283494,"lon":5.380945,"is_reserved":false,"is_disabled":false,"rental_uris":{"android":"levelo://app?vid=c6a74d65-8ff4-4903-b4d5-74ebb2e54f7b","ios":"levelo://app?vid=c6a74d65-8ff4-4903-b4d5-74ebb2e54f7b"},"vehicle_type_id":"4","last_reported":1723395980,"current_range_meters":15600,"station_id":"ce4bh412rcd13ifvqdr0","pricing_plan_id":"cebpf4jnsgd1na2vs0mg"},{"bike_id":"4a67b68b-083c-420c-92e5-1a3e8e0fd680","system_id":"levelo_inurba_marseille","lat":43.288501,"lon":5.393087,"is_reserved":false,"is_disabled":false,"rental_uris":{"android":"levelo://app?vid=4a67b68b-083c-420c-92e5-1a3e8e0fd680","ios":"levelo://app?vid=4a67b68b-083c-420c-92e5-1a3e8e0fd680"},"vehicle_type_id":"4","last_reported":1723395980,"current_range_meters":12000,"station_id":"ce4bh2p2rcd13ifvqdi0","pricing_plan_id":"cebpf4jnsgd1na2vs0mg"},{"bike_id":"d3705b1a-5c3f-4c68-bd7b-e07d4d77ecfa","system_id":"levelo_inurba_marseille","lat":43.28477,"lon":5.38541,"is_reserved":false,"is_disabled":false,"rental_uris":{"android":"levelo://app?vid=d3705b1a-5c3f-4c68-bd7b-e07d4d77ecfa","ios":"levelo://app?vid=d3705b1a-5c3f-4c68-bd7b-e07d4d77ecfa"},"vehicle_type_id":"4","last_reported":1723395980,"current_range_meters":0,"station_id":"ce4bh8p2rcd13ifvqeb0","pricing_plan_id":"cebpf4jnsgd1na2vs0mg"},{"bike_id":"88a869aa-9c8c-4862-adc5-f50729dc8f01","system_id":"levelo_inurba_marseille","lat":43.28421,"lon":5.349803,"is_reserved":false,"is_disabled":false,"rental_uris":{"android":"levelo://app?vid=88a869aa-9c8c-4862-adc5-f50729dc8f01","ios":"levelo://app?vid=88a869aa-9c8c-4862-adc5-f50729dc8f01"},"vehicle_type_id":"4","last_reported":1723395980,"current_range_meters":0,"station_id":"ce4bhbh2rcd13ifvqepg","pricing_plan_id":"cebpf4jnsgd1na2vs0mg"},{"bike_id":"97e1adf9-e8fa-44f5-a75a-d1046f1ce2d2","system_id":"levelo_inurba_marseille","lat":43.284219,"lon":5.3497,"is_reserved":false,"is_disabled":false,"rental_uris":{"android":"levelo://app?vid=97e1adf9-e8fa-44f5-a75a-d1046f1ce2d2","ios":"levelo://app?vid=97e1adf9-e8fa-44f5-a75a-d1046f1ce2d2"},"vehicle_type_id":"4","last_reported":1723395980,"current_range_meters":8800,"station_id":"ce4bhbh2rcd13ifvqepg","pricing_plan_id":"cebpf4jnsgd1na2vs0mg"},{"bike_id":"299ef922-e7ce-478d-acbf-95d92d05b53a","system_id":"levelo_inurba_marseille","lat":43.284219,"lon":5.3497,"is_reserved":false,"is_disabled":false,"rental_uris":{"android":"levelo://app?vid=299ef922-e7ce-478d-acbf-95d92d05b53a","ios":"levelo://app?vid=299ef922-e7ce-478d-acbf-95d92d05b53a"},"vehicle_type_id":"4","last_reported":1723395980,"current_range_meters":0,"station_id":"ce4bhbh2rcd13ifvqepg","pricing_plan_id":"cebpf4jnsgd1na2vs0mg"},{"bike_id":"3aa4d10e-3581-422b-9c81-2d343a137bc6","system_id":"levelo_inurba_marseille","lat":43.284214,"lon":5.349706,"is_reserved":false,"is_disabled":false,"rental_uris":{"android":"levelo://app?vid=3aa4d10e-3581-422b-9c81-2d343a137bc6","ios":"levelo://app?vid=3aa4d10e-3581-422b-9c81-2d343a137bc6"},"vehicle_type_id":"4","last_reported":1723395980,"current_range_meters":4000,"station_id":"ce4bhbh2rcd13ifvqepg","pricing_plan_id":"cebpf4jnsgd1na2vs0mg"},{"bike_id":"92c1194e-d6ff-4d75-af01-ba7c509863da","system_id":"levelo_inurba_marseille","lat":43.283498,"lon":5.380948,"is_reserved":false,"is_disabled":false,"rental_uris":{"android":"levelo://app?vid=92c1194e-d6ff-4d75-af01-ba7c509863da","ios":"levelo://app?vid=92c1194e-d6ff-4d75-af01-ba7c509863da"},"vehicle_type_id":"4","last_reported":1723395980,"current_range_meters":0,"station_id":"ce4bh412rcd13ifvqdr0","pricing_plan_id":"cebpf4jnsgd1na2vs0mg"},{"bike_id":"47464471-31c5-4e07-8001-93db80ae76be","system_id":"levelo_inurba_marseille","lat":43.292724,"lon":5.401131,"is_reserved":false,"is_disabled":false,"rental_uris":{"android":"levelo://app?vid=47464471-31c5-4e07-8001-93db80ae76be","ios":"levelo://app?vid=47464471-31c5-4e07-8001-93db80ae76be"},"vehicle_type_id":"4","last_reported":1723395980,"current_range_meters":9600,"station_id":"ce4bh312rcd13ifvqdk0","pricing_plan_id":"cebpf4jnsgd1na2vs0mg"},{"bike_id":"970020d1-7b3c-44b2-af4d-9a24fac1f237","system_id":"levelo_inurba_marseille","lat":43.28267,"lon":5.35064,"is_reserved":false,"is_disabled":false,"rental_uris":{"android":"levelo://app?vid=970020d1-7b3c-44b2-af4d-9a24fac1f237","ios":"levelo://app?vid=970020d1-7b3c-44b2-af4d-9a24fac1f237"},"vehicle_type_id":"4","last_reported":1723395980,"current_range_meters":0,"station_id":"ce4bhbp2rcd13ifvqerg","pricing_plan_id":"cebpf4jnsgd1na2vs0mg"},{"bike_id":"a9bda689-de60-4920-963a-a661e1952161","system_id":"levelo_inurba_marseille","lat":43.28269,"lon":5.35056,"is_reserved":false,"is_disabled":false,"rental_uris":{"android":"levelo://app?vid=a9bda689-de60-4920-963a-a661e1952161","ios":"levelo://app?vid=a9bda689-de60-4920-963a-a661e1952161"},"vehicle_type_id":"4","last_reported":1723395980,"current_range_meters":0,"station_id":"ce4bhbp2rcd13ifvqerg","pricing_plan_id":"cebpf4jnsgd1na2vs0mg"},{"bike_id":"72ef3dae-e785-49ff-bc1b-1b9a1547b8bb","system_id":"levelo_inurba_marseille","lat":43.283502,"lon":5.386471,"is_reserved":false,"is_disabled":false,"rental_uris":{"android":"levelo://app?vid=72ef3dae-e785-49ff-bc1b-1b9a1547b8bb","ios":"levelo://app?vid=72ef3dae-e785-49ff-bc1b-1b9a1547b8bb"},"vehicle_type_id":"4","last_reported":1723395980,"current_range_meters":11200,"station_id":"ce4bh492rcd13ifvqdvg","pricing_plan_id":"cebpf4jnsgd1na2vs0mg"},{"bike_id":"da540faf-ed4b-4eca-8445-e597542defcd","system_id":"levelo_inurba_marseille","lat":43.282754,"lon":5.350519,"is_reserved":false,"is_disabled":false,"rental_uris":{"android":"levelo://app?vid=da540faf-ed4b-4eca-8445-e597542defcd","ios":"levelo://app?vid=da540faf-ed4b-4eca-8445-e597542defcd"},"vehicle_type_id":"4","last_reported":1723395980,"current_range_meters":0,"station_id":"ce4bhbp2rcd13ifvqerg","pricing_plan_id":"cebpf4jnsgd1na2vs0mg"},{"bike_id":"cc543faf-f608-4555-9b8a-8ccefc7e2a77","system_id":"levelo_inurba_marseille","lat":43.282744,"lon":5.350533,"is_reserved":false,"is_disabled":false,"rental_uris":{"android":"levelo://app?vid=cc543faf-f608-4555-9b8a-8ccefc7e2a77","ios":"levelo://app?vid=cc543faf-f608-4555-9b8a-8ccefc7e2a77"},"vehicle_type_id":"4","last_reported":1723395980,"current_range_meters":0,"station_id":"ce4bhbp2rcd13ifvqerg","pricing_plan_id":"cebpf4jnsgd1na2vs0mg"},{"bike_id":"22621c84-3453-4ee1-9444-0a2e8f39e884","system_id":"levelo_inurba_marseille","lat":43.282754,"lon":5.350519,"is_reserved":false,"is_disabled":false,"rental_uris":{"android":"levelo://app?vid=22621c84-3453-4ee1-9444-0a2e8f39e884","ios":"levelo://app?vid=22621c84-3453-4ee1-9444-0a2e8f39e884"},"vehicle_type_id":"4","last_reported":1723395980,"current_range_meters":17600,"station_id":"ce4bhbp2rcd13ifvqerg","pricing_plan_id":"cebpf4jnsgd1na2vs0mg"},{"bike_id":"d5f3779e-debc-4428-8e61-42859addfd6c","system_id":"levelo_inurba_marseille","lat":43.28039,"lon":5.369297,"is_reserved":false,"is_disabled":false,"rental_uris":{"android":"levelo://app?vid=d5f3779e-debc-4428-8e61-42859addfd6c","ios":"levelo://app?vid=d5f3779e-debc-4428-8e61-42859addfd6c"},"vehicle_type_id":"4","last_reported":1723395980,"current_range_meters":1600,"station_id":"ce4bha12rcd13ifvqef0","pricing_plan_id":"cebpf4jnsgd1na2vs0mg"},{"bike_id":"32b6b757-6368-454c-ba04-a6356cd79a87","system_id":"levelo_inurba_marseille","lat":43.280382,"lon":5.369291,"is_reserved":false,"is_disabled":false,"rental_uris":{"android":"levelo://app?vid=32b6b757-6368-454c-ba04-a6356cd79a87","ios":"levelo://app?vid=32b6b757-6368-454c-ba04-a6356cd79a87"},"vehicle_type_id":"4","last_reported":1723395980,"current_range_meters":14400,"station_id":"ce4bha12rcd13ifvqef0","pricing_plan_id":"cebpf4jnsgd1na2vs0mg"},{"bike_id":"eaf08411-d795-4ae6-b9b2-88d14df18ad4","system_id":"levelo_inurba_marseille","lat":43.28039,"lon":5.36933,"is_reserved":false,"is_disabled":false,"rental_uris":{"android":"levelo://app?vid=eaf08411-d795-4ae6-b9b2-88d14df18ad4","ios":"levelo://app?vid=eaf08411-d795-4ae6-b9b2-88d14df18ad4"},"vehicle_type_id":"4","last_reported":1723395980,"current_range_meters":20400,"station_id":"ce4bha12rcd13ifvqef0","pricing_plan_id":"cebpf4jnsgd1na2vs0mg"},{"bike_id":"1f5a8b04-deac-42ad-8abe-3e87d3c061f5","system_id":"levelo_inurba_marseille","lat":43.29041,"lon":5.399634,"is_reserved":false,"is_disabled":false,"rental_uris":{"android":"levelo://app?vid=1f5a8b04-deac-42ad-8abe-3e87d3c061f5","ios":"levelo://app?vid=1f5a8b04-deac-42ad-8abe-3e87d3c061f5"},"vehicle_type_id":"4","last_reported":1723395980,"current_range_meters":0,"station_id":"ce4bh392rcd13ifvqdm0","pricing_plan_id":"cebpf4jnsgd1na2vs0mg"},{"bike_id":"b0eeb6ff-5aa3-49a5-b47a-af4db07f2184","system_id":"levelo_inurba_marseille","lat":43.284462,"lon":5.392121,"is_reserved":false,"is_disabled":false,"rental_uris":{"android":"levelo://app?vid=b0eeb6ff-5aa3-49a5-b47a-af4db07f2184","ios":"levelo://app?vid=b0eeb6ff-5aa3-49a5-b47a-af4db07f2184"},"vehicle_type_id":"4","last_reported":1723395980,"current_range_meters":6400,"station_id":"ce4bhoh2rcd13ifvqh5g","pricing_plan_id":"cebpf4jnsgd1na2vs0mg"},{"bike_id":"f81a1333-c56a-4d0b-a0a2-bb9674ad95d7","system_id":"levelo_inurba_marseille","lat":43.3042,"lon":5.41277,"is_reserved":false,"is_disabled":false,"rental_uris":{"android":"levelo://app?vid=f81a1333-c56a-4d0b-a0a2-bb9674ad95d7","ios":"levelo://app?vid=f81a1333-c56a-4d0b-a0a2-bb9674ad95d7"},"vehicle_type_id":"4","last_reported":1723395980,"current_range_meters":0,"station_id":"ce4bhop2rcd13ifvqh8g","pricing_plan_id":"cebpf4jnsgd1na2vs0mg"},{"bike_id":"8b0303e3-e556-4bc6-9f60-c9ffb928fcdc","system_id":"levelo_inurba_marseille","lat":43.279087,"lon":5.380114,"is_reserved":false,"is_disabled":false,"rental_uris":{"android":"levelo://app?vid=8b0303e3-e556-4bc6-9f60-c9ffb928fcdc","ios":"levelo://app?vid=8b0303e3-e556-4bc6-9f60-c9ffb928fcdc"},"vehicle_type_id":"4","last_reported":1723395980,"current_range_meters":22000,"station_id":"ce4bhf92rcd13ifvqf50","pricing_plan_id":"cebpf4jnsgd1na2vs0mg"},{"bike_id":"d3286d14-0abc-4118-9759-8430db0d579c","system_id":"levelo_inurba_marseille","lat":43.280789,"lon":5.347581,"is_reserved":false,"is_disabled":false,"rental_uris":{"android":"levelo://app?vid=d3286d14-0abc-4118-9759-8430db0d579c","ios":"levelo://app?vid=d3286d14-0abc-4118-9759-8430db0d579c"},"vehicle_type_id":"4","last_reported":1723395980,"current_range_meters":18000,"station_id":"","pricing_plan_id":"cebpf4jnsgd1na2vs0mg"},{"bike_id":"1cf4a72a-f4dd-4431-8cc0-2f5ffe76340f","system_id":"levelo_inurba_marseille","lat":43.27903,"lon":5.37996,"is_reserved":false,"is_disabled":false,"rental_uris":{"android":"levelo://app?vid=1cf4a72a-f4dd-4431-8cc0-2f5ffe76340f","ios":"levelo://app?vid=1cf4a72a-f4dd-4431-8cc0-2f5ffe76340f"},"vehicle_type_id":"4","last_reported":1723395980,"current_range_meters":0,"station_id":"ce4bhf92rcd13ifvqf50","pricing_plan_id":"cebpf4jnsgd1na2vs0mg"},{"bike_id":"8948e793-f35d-4a69-a72e-8059cb74c05d","system_id":"levelo_inurba_marseille","lat":43.28063,"lon":5.34766,"is_reserved":false,"is_disabled":false,"rental_uris":{"android":"levelo://app?vid=8948e793-f35d-4a69-a72e-8059cb74c05d","ios":"levelo://app?vid=8948e793-f35d-4a69-a72e-8059cb74c05d"},"vehicle_type_id":"4","last_reported":1723395980,"current_range_meters":16000,"station_id":"","pricing_plan_id":"cebpf4jnsgd1na2vs0mg"},{"bike_id":"8e352609-29fe-4938-9279-18e47c8bfea8","system_id":"levelo_inurba_marseille","lat":43.279087,"lon":5.380114,"is_reserved":false,"is_disabled":false,"rental_uris":{"android":"levelo://app?vid=8e352609-29fe-4938-9279-18e47c8bfea8","ios":"levelo://app?vid=8e352609-29fe-4938-9279-18e47c8bfea8"},"vehicle_type_id":"4","last_reported":1723395980,"current_range_meters":0,"station_id":"ce4bhf92rcd13ifvqf50","pricing_plan_id":"cebpf4jnsgd1na2vs0mg"},{"bike_id":"c03f5479-06a6-4111-bab7-397b17e9a0d7","system_id":"levelo_inurba_marseille","lat":43.29258,"lon":5.40913,"is_reserved":false,"is_disabled":false,"rental_uris":{"android":"levelo://app?vid=c03f5479-06a6-4111-bab7-397b17e9a0d7","ios":"levelo://app?vid=c03f5479-06a6-4111-bab7-397b17e9a0d7"},"vehicle_type_id":"4","last_reported":1723395980,"current_range_meters":0,"station_id":"ce4bh192rcd13ifvqdc0","pricing_plan_id":"cebpf4jnsgd1na2vs0mg"},{"bike_id":"756f54e0-1509-4c0e-9bd2-5be67a7ed522","system_id":"levelo_inurba_marseille","lat":43.292569,"lon":5.409107,"is_reserved":false,"is_disabled":false,"rental_uris":{"android":"levelo://app?vid=756f54e0-1509-4c0e-9bd2-5be67a7ed522","ios":"levelo://app?vid=756f54e0-1509-4c0e-9bd2-5be67a7ed522"},"vehicle_type_id":"4","last_reported":1723395980,"current_range_meters":21200,"station_id":"ce4bh192rcd13ifvqdc0","pricing_plan_id":"cebpf4jnsgd1na2vs0mg"},{"bike_id":"c383734b-e7b1-4daa-9c5f-6ee40343fe67","system_id":"levelo_inurba_marseille","lat":43.29254,"lon":5.4091,"is_reserved":false,"is_disabled":false,"rental_uris":{"android":"levelo://app?vid=c383734b-e7b1-4daa-9c5f-6ee40343fe67","ios":"levelo://app?vid=c383734b-e7b1-4daa-9c5f-6ee40343fe67"},"vehicle_type_id":"4","last_reported":1723395980,"current_range_meters":21600,"station_id":"ce4bh192rcd13ifvqdc0","pricing_plan_id":"cebpf4jnsgd1na2vs0mg"},{"bike_id":"3ea444ea-8543-42bb-b29e-d2c35069e110","system_id":"levelo_inurba_marseille","lat":43.27619,"lon":5.36117,"is_reserved":false,"is_disabled":false,"rental_uris":{"android":"levelo://app?vid=3ea444ea-8543-42bb-b29e-d2c35069e110","ios":"levelo://app?vid=3ea444ea-8543-42bb-b29e-d2c35069e110"},"vehicle_type_id":"4","last_reported":1723395980,"current_range_meters":9200,"station_id":"ce4bgj92rcd13ifvqbe0","pricing_plan_id":"cebpf4jnsgd1na2vs0mg"},{"bike_id":"fad9f05f-1f9d-4cf4-812a-0916095eff90","system_id":"levelo_inurba_marseille","lat":43.276177,"lon":5.361041,"is_reserved":false,"is_disabled":false,"rental_uris":{"android":"levelo://app?vid=fad9f05f-1f9d-4cf4-812a-0916095eff90","ios":"levelo://app?vid=fad9f05f-1f9d-4cf4-812a-0916095eff90"},"vehicle_type_id":"4","last_reported":1723395980,"current_range_meters":29600,"station_id":"ce4bgj92rcd13ifvqbe0","pricing_plan_id":"cebpf4jnsgd1na2vs0mg"},{"bike_id":"c9a0ff08-2d4e-4d49-900c-845e0f844301","system_id":"levelo_inurba_marseille","lat":43.280784,"lon":5.396622,"is_reserved":false,"is_disabled":false,"rental_uris":{"android":"levelo://app?vid=c9a0ff08-2d4e-4d49-900c-845e0f844301","ios":"levelo://app?vid=c9a0ff08-2d4e-4d49-900c-845e0f844301"},"vehicle_type_id":"4","last_reported":1723395980,"current_range_meters":1200,"station_id":"ce4bho12rcd13ifvqh2g","pricing_plan_id":"cebpf4jnsgd1na2vs0mg"},{"bike_id":"a4809b46-f74d-4f4e-a4fd-35821f4fc456","system_id":"levelo_inurba_marseille","lat":43.273613,"lon":5.362705,"is_reserved":false,"is_disabled":false,"rental_uris":{"android":"levelo://app?vid=a4809b46-f74d-4f4e-a4fd-35821f4fc456","ios":"levelo://app?vid=a4809b46-f74d-4f4e-a4fd-35821f4fc456"},"vehicle_type_id":"4","last_reported":1723395980,"current_range_meters":31200,"station_id":"ce4bhbh2rcd13ifvqeo0","pricing_plan_id":"cebpf4jnsgd1na2vs0mg"},{"bike_id":"2872d650-1f2d-4dc9-ac6d-dd720561dfb4","system_id":"levelo_inurba_marseille","lat":43.273613,"lon":5.362705,"is_reserved":false,"is_disabled":false,"rental_uris":{"android":"levelo://app?vid=2872d650-1f2d-4dc9-ac6d-dd720561dfb4","ios":"levelo://app?vid=2872d650-1f2d-4dc9-ac6d-dd720561dfb4"},"vehicle_type_id":"4","last_reported":1723395980,"current_range_meters":28000,"station_id":"ce4bhbh2rcd13ifvqeo0","pricing_plan_id":"cebpf4jnsgd1na2vs0mg"},{"bike_id":"899b346f-f63c-4d4b-a231-646b29eaf32e","system_id":"levelo_inurba_marseille","lat":43.293009,"lon":5.374584,"is_reserved":false,"is_disabled":false,"rental_uris":{"android":"levelo://app?vid=899b346f-f63c-4d4b-a231-646b29eaf32e","ios":"levelo://app?vid=899b346f-f63c-4d4b-a231-646b29eaf32e"},"vehicle_type_id":"4","last_reported":1723395980,"current_range_meters":0,"station_id":"ce4bgi12rcd13ifvqb70","pricing_plan_id":"cebpf4jnsgd1na2vs0mg"},{"bike_id":"837da155-264e-4ee6-8b8a-48ae386cce6f","system_id":"levelo_inurba_marseille","lat":43.27377,"lon":5.36254,"is_reserved":false,"is_disabled":false,"rental_uris":{"android":"levelo://app?vid=837da155-264e-4ee6-8b8a-48ae386cce6f","ios":"levelo://app?vid=837da155-264e-4ee6-8b8a-48ae386cce6f"},"vehicle_type_id":"4","last_reported":1723395980,"current_range_meters":15200,"station_id":"ce4bhbh2rcd13ifvqeo0","pricing_plan_id":"cebpf4jnsgd1na2vs0mg"},{"bike_id":"6a1b27c8-f9e6-434a-b705-e35d96af6711","system_id":"levelo_inurba_marseille","lat":43.273609,"lon":5.362708,"is_reserved":false,"is_disabled":false,"rental_uris":{"android":"levelo://app?vid=6a1b27c8-f9e6-434a-b705-e35d96af6711","ios":"levelo://app?vid=6a1b27c8-f9e6-434a-b705-e35d96af6711"},"vehicle_type_id":"4","last_reported":1723395980,"current_range_meters":4800,"station_id":"ce4bhbh2rcd13ifvqeo0","pricing_plan_id":"cebpf4jnsgd1na2vs0mg"},{"bike_id":"2c00f1d0-2788-4127-98b4-0ff8e3ccc256","system_id":"levelo_inurba_marseille","lat":43.273724,"lon":5.362635,"is_reserved":false,"is_disabled":false,"rental_uris":{"android":"levelo://app?vid=2c00f1d0-2788-4127-98b4-0ff8e3ccc256","ios":"levelo://app?vid=2c00f1d0-2788-4127-98b4-0ff8e3ccc256"},"vehicle_type_id":"4","last_reported":1723395980,"current_range_meters":0,"station_id":"ce4bhbh2rcd13ifvqeo0","pricing_plan_id":"cebpf4jnsgd1na2vs0mg"},{"bike_id":"11bbdaa9-dfc8-4e82-bf22-5b7f92d4c20b","system_id":"levelo_inurba_marseille","lat":43.27373,"lon":5.3625,"is_reserved":false,"is_disabled":false,"rental_uris":{"android":"levelo://app?vid=11bbdaa9-dfc8-4e82-bf22-5b7f92d4c20b","ios":"levelo://app?vid=11bbdaa9-dfc8-4e82-bf22-5b7f92d4c20b"},"vehicle_type_id":"4","last_reported":1723395980,"current_range_meters":16800,"station_id":"ce4bhbh2rcd13ifvqeo0","pricing_plan_id":"cebpf4jnsgd1na2vs0mg"},{"bike_id":"1d9eb6e8-8622-4e13-b4b6-e02a0ee770f4","system_id":"levelo_inurba_marseille","lat":43.27373,"lon":5.36248,"is_reserved":false,"is_disabled":false,"rental_uris":{"android":"levelo://app?vid=1d9eb6e8-8622-4e13-b4b6-e02a0ee770f4","ios":"levelo://app?vid=1d9eb6e8-8622-4e13-b4b6-e02a0ee770f4"},"vehicle_type_id":"4","last_reported":1723395980,"current_range_meters":0,"station_id":"ce4bhbh2rcd13ifvqeo0","pricing_plan_id":"cebpf4jnsgd1na2vs0mg"},{"bike_id":"175e24fb-dff6-43cb-90a7-b09cf89cdcb0","system_id":"levelo_inurba_marseille","lat":43.273609,"lon":5.362708,"is_reserved":false,"is_disabled":false,"rental_uris":{"android":"levelo://app?vid=175e24fb-dff6-43cb-90a7-b09cf89cdcb0","ios":"levelo://app?vid=175e24fb-dff6-43cb-90a7-b09cf89cdcb0"},"vehicle_type_id":"4","last_reported":1723395980,"current_range_meters":30400,"station_id":"ce4bhbh2rcd13ifvqeo0","pricing_plan_id":"cebpf4jnsgd1na2vs0mg"},{"bike_id":"fdca8299-4602-4f14-b955-e39235a1f488","system_id":"levelo_inurba_marseille","lat":43.336134,"lon":5.410341,"is_reserved":false,"is_disabled":false,"rental_uris":{"android":"levelo://app?vid=fdca8299-4602-4f14-b955-e39235a1f488","ios":"levelo://app?vid=fdca8299-4602-4f14-b955-e39235a1f488"},"vehicle_type_id":"4","last_reported":1723395980,"current_range_meters":27200,"station_id":"ce4bhqh2rcd13ifvqhmg","pricing_plan_id":"cebpf4jnsgd1na2vs0mg"},{"bike_id":"f2449319-fd27-42cf-b231-84507061f58f","system_id":"levelo_inurba_marseille","lat":43.33612,"lon":5.410321,"is_reserved":false,"is_disabled":false,"rental_uris":{"android":"levelo://app?vid=f2449319-fd27-42cf-b231-84507061f58f","ios":"levelo://app?vid=f2449319-fd27-42cf-b231-84507061f58f"},"vehicle_type_id":"4","last_reported":1723395980,"current_range_meters":20800,"station_id":"ce4bhqh2rcd13ifvqhmg","pricing_plan_id":"cebpf4jnsgd1na2vs0mg"},{"bike_id":"b2087f5c-eb2a-46e5-80d0-f234012860df","system_id":"levelo_inurba_marseille","lat":43.279952,"lon":5.400085,"is_reserved":false,"is_disabled":false,"rental_uris":{"android":"levelo://app?vid=b2087f5c-eb2a-46e5-80d0-f234012860df","ios":"levelo://app?vid=b2087f5c-eb2a-46e5-80d0-f234012860df"},"vehicle_type_id":"4","last_reported":1723395980,"current_range_meters":10000,"station_id":"ce4bho92rcd13ifvqh4g","pricing_plan_id":"cebpf4jnsgd1na2vs0mg"},{"bike_id":"a38b30e7-6572-4be7-a32a-447b02500df9","system_id":"levelo_inurba_marseille","lat":43.279952,"lon":5.400085,"is_reserved":false,"is_disabled":false,"rental_uris":{"android":"levelo://app?vid=a38b30e7-6572-4be7-a32a-447b02500df9","ios":"levelo://app?vid=a38b30e7-6572-4be7-a32a-447b02500df9"},"vehicle_type_id":"4","last_reported":1723395980,"current_range_meters":10800,"station_id":"ce4bho92rcd13ifvqh4g","pricing_plan_id":"cebpf4jnsgd1na2vs0mg"},{"bike_id":"abd86009-9905-4fe6-ac33-93b720710f55","system_id":"levelo_inurba_marseille","lat":43.279952,"lon":5.400085,"is_reserved":false,"is_disabled":false,"rental_uris":{"android":"levelo://app?vid=abd86009-9905-4fe6-ac33-93b720710f55","ios":"levelo://app?vid=abd86009-9905-4fe6-ac33-93b720710f55"},"vehicle_type_id":"4","last_reported":1723395980,"current_range_meters":0,"station_id":"ce4bho92rcd13ifvqh4g","pricing_plan_id":"cebpf4jnsgd1na2vs0mg"},{"bike_id":"3cb0a2f6-b6a9-4746-8c52-fc939242702a","system_id":"levelo_inurba_marseille","lat":43.29829,"lon":5.42,"is_reserved":false,"is_disabled":false,"rental_uris":{"android":"levelo://app?vid=3cb0a2f6-b6a9-4746-8c52-fc939242702a","ios":"levelo://app?vid=3cb0a2f6-b6a9-4746-8c52-fc939242702a"},"vehicle_type_id":"4","last_reported":1723395980,"current_range_meters":7200,"station_id":"","pricing_plan_id":"cebpf4jnsgd1na2vs0mg"},{"bike_id":"6396528a-d774-42a8-9d20-eb3e6f88c5a4","system_id":"levelo_inurba_marseille","lat":43.317121,"lon":5.423936,"is_reserved":false,"is_disabled":false,"rental_uris":{"android":"levelo://app?vid=6396528a-d774-42a8-9d20-eb3e6f88c5a4","ios":"levelo://app?vid=6396528a-d774-42a8-9d20-eb3e6f88c5a4"},"vehicle_type_id":"4","last_reported":1723395980,"current_range_meters":9200,"station_id":"ce4bhp92rcd13ifvqhbg","pricing_plan_id":"cebpf4jnsgd1na2vs0mg"},{"bike_id":"b4a52e09-2a89-48bf-9939-22b905479969","system_id":"levelo_inurba_marseille","lat":43.317121,"lon":5.423936,"is_reserved":false,"is_disabled":false,"rental_uris":{"android":"levelo://app?vid=b4a52e09-2a89-48bf-9939-22b905479969","ios":"levelo://app?vid=b4a52e09-2a89-48bf-9939-22b905479969"},"vehicle_type_id":"4","last_reported":1723395980,"current_range_meters":31200,"station_id":"ce4bhp92rcd13ifvqhbg","pricing_plan_id":"cebpf4jnsgd1na2vs0mg"},{"bike_id":"2ea5a0ff-f8b9-411b-8d89-e81f5fb23743","system_id":"levelo_inurba_marseille","lat":43.310785,"lon":5.424305,"is_reserved":false,"is_disabled":false,"rental_uris":{"android":"levelo://app?vid=2ea5a0ff-f8b9-411b-8d89-e81f5fb23743","ios":"levelo://app?vid=2ea5a0ff-f8b9-411b-8d89-e81f5fb23743"},"vehicle_type_id":"4","last_reported":1723395980,"current_range_meters":1200,"station_id":"ce4bhp92rcd13ifvqhag","pricing_plan_id":"cebpf4jnsgd1na2vs0mg"},{"bike_id":"f328fd77-7438-4e44-95c3-93c8084bf8b8","system_id":"levelo_inurba_marseille","lat":43.317104,"lon":5.436818,"is_reserved":false,"is_disabled":false,"rental_uris":{"android":"levelo://app?vid=f328fd77-7438-4e44-95c3-93c8084bf8b8","ios":"levelo://app?vid=f328fd77-7438-4e44-95c3-93c8084bf8b8"},"vehicle_type_id":"4","last_reported":1723395980,"current_range_meters":10800,"station_id":"ce4bhp92rcd13ifvqhcg","pricing_plan_id":"cebpf4jnsgd1na2vs0mg"},{"bike_id":"a94f643b-95f4-4ec7-bbb1-65d6ae8e316d","system_id":"levelo_inurba_marseille","lat":43.274103,"lon":5.394016,"is_reserved":false,"is_disabled":false,"rental_uris":{"android":"levelo://app?vid=a94f643b-95f4-4ec7-bbb1-65d6ae8e316d","ios":"levelo://app?vid=a94f643b-95f4-4ec7-bbb1-65d6ae8e316d"},"vehicle_type_id":"4","last_reported":1723395980,"current_range_meters":20800,"station_id":"ce4bhdp2rcd13ifvqf20","pricing_plan_id":"cebpf4jnsgd1na2vs0mg"},{"bike_id":"7ba2c908-1b91-4a33-9650-df85daf0f3bd","system_id":"levelo_inurba_marseille","lat":43.29553,"lon":5.42281,"is_reserved":false,"is_disabled":false,"rental_uris":{"android":"levelo://app?vid=7ba2c908-1b91-4a33-9650-df85daf0f3bd","ios":"levelo://app?vid=7ba2c908-1b91-4a33-9650-df85daf0f3bd"},"vehicle_type_id":"4","last_reported":1723395980,"current_range_meters":18800,"station_id":"ce4bhph2rcd13ifvqhdg","pricing_plan_id":"cebpf4jnsgd1na2vs0mg"},{"bike_id":"25fcb529-2309-4135-b6d8-98172a3eae7d","system_id":"levelo_inurba_marseille","lat":43.295523,"lon":5.422926,"is_reserved":false,"is_disabled":false,"rental_uris":{"android":"levelo://app?vid=25fcb529-2309-4135-b6d8-98172a3eae7d","ios":"levelo://app?vid=25fcb529-2309-4135-b6d8-98172a3eae7d"},"vehicle_type_id":"4","last_reported":1723395980,"current_range_meters":14800,"station_id":"ce4bhph2rcd13ifvqhdg","pricing_plan_id":"cebpf4jnsgd1na2vs0mg"},{"bike_id":"e7fd0ed3-4673-437b-ad47-e8048fa989dd","system_id":"levelo_inurba_marseille","lat":43.295511,"lon":5.422926,"is_reserved":false,"is_disabled":false,"rental_uris":{"android":"levelo://app?vid=e7fd0ed3-4673-437b-ad47-e8048fa989dd","ios":"levelo://app?vid=e7fd0ed3-4673-437b-ad47-e8048fa989dd"},"vehicle_type_id":"4","last_reported":1723395980,"current_range_meters":1200,"station_id":"ce4bhph2rcd13ifvqhdg","pricing_plan_id":"cebpf4jnsgd1na2vs0mg"},{"bike_id":"48f97002-72ad-42f6-b66a-0b4e8f203c30","system_id":"levelo_inurba_marseille","lat":43.295226,"lon":5.423037,"is_reserved":false,"is_disabled":false,"rental_uris":{"android":"levelo://app?vid=48f97002-72ad-42f6-b66a-0b4e8f203c30","ios":"levelo://app?vid=48f97002-72ad-42f6-b66a-0b4e8f203c30"},"vehicle_type_id":"4","last_reported":1723395980,"current_range_meters":16000,"station_id":"","pricing_plan_id":"cebpf4jnsgd1na2vs0mg"},{"bike_id":"f767a9c6-773e-4243-83f2-23516b3097f9","system_id":"levelo_inurba_marseille","lat":43.272118,"lon":5.391758,"is_reserved":false,"is_disabled":false,"rental_uris":{"android":"levelo://app?vid=f767a9c6-773e-4243-83f2-23516b3097f9","ios":"levelo://app?vid=f767a9c6-773e-4243-83f2-23516b3097f9"},"vehicle_type_id":"4","last_reported":1723395980,"current_range_meters":0,"station_id":"ce4bhhp2rcd13ifvqfm0","pricing_plan_id":"cebpf4jnsgd1na2vs0mg"},{"bike_id":"f9ef8dc2-c9bb-4793-ae18-3aa4aff85bb8","system_id":"levelo_inurba_marseille","lat":43.27206,"lon":5.39169,"is_reserved":false,"is_disabled":false,"rental_uris":{"android":"levelo://app?vid=f9ef8dc2-c9bb-4793-ae18-3aa4aff85bb8","ios":"levelo://app?vid=f9ef8dc2-c9bb-4793-ae18-3aa4aff85bb8"},"vehicle_type_id":"4","last_reported":1723395980,"current_range_meters":0,"station_id":"ce4bhhp2rcd13ifvqfm0","pricing_plan_id":"cebpf4jnsgd1na2vs0mg"},{"bike_id":"c58392a9-83b7-4936-8512-386f86d4e967","system_id":"levelo_inurba_marseille","lat":43.278128,"lon":5.407195,"is_reserved":false,"is_disabled":false,"rental_uris":{"android":"levelo://app?vid=c58392a9-83b7-4936-8512-386f86d4e967","ios":"levelo://app?vid=c58392a9-83b7-4936-8512-386f86d4e967"},"vehicle_type_id":"4","last_reported":1723395980,"current_range_meters":17600,"station_id":"ce4bhnh2rcd13ifvqgtg","pricing_plan_id":"cebpf4jnsgd1na2vs0mg"},{"bike_id":"525caf3d-5de2-42cf-9047-551650510888","system_id":"levelo_inurba_marseille","lat":43.278128,"lon":5.407195,"is_reserved":false,"is_disabled":false,"rental_uris":{"android":"levelo://app?vid=525caf3d-5de2-42cf-9047-551650510888","ios":"levelo://app?vid=525caf3d-5de2-42cf-9047-551650510888"},"vehicle_type_id":"4","last_reported":1723395980,"current_range_meters":24400,"station_id":"ce4bhnh2rcd13ifvqgtg","pricing_plan_id":"cebpf4jnsgd1na2vs0mg"},{"bike_id":"abcefb5a-f433-4a5b-b359-271aaf8fc5a4","system_id":"levelo_inurba_marseille","lat":43.269467,"lon":5.386439,"is_reserved":false,"is_disabled":false,"rental_uris":{"android":"levelo://app?vid=abcefb5a-f433-4a5b-b359-271aaf8fc5a4","ios":"levelo://app?vid=abcefb5a-f433-4a5b-b359-271aaf8fc5a4"},"vehicle_type_id":"4","last_reported":1723395980,"current_range_meters":12800,"station_id":"ce4bhh92rcd13ifvqfh0","pricing_plan_id":"cebpf4jnsgd1na2vs0mg"},{"bike_id":"2c83e774-5f30-4c4d-b469-cadc088eae9e","system_id":"levelo_inurba_marseille","lat":43.279465,"lon":5.410561,"is_reserved":false,"is_disabled":false,"rental_uris":{"android":"levelo://app?vid=2c83e774-5f30-4c4d-b469-cadc088eae9e","ios":"levelo://app?vid=2c83e774-5f30-4c4d-b469-cadc088eae9e"},"vehicle_type_id":"4","last_reported":1723395980,"current_range_meters":8800,"station_id":"ce4bhnp2rcd13ifvqh0g","pricing_plan_id":"cebpf4jnsgd1na2vs0mg"},{"bike_id":"9f83b015-32c2-41a9-aa00-cbc47d7531b5","system_id":"levelo_inurba_marseille","lat":43.258658,"lon":5.398935,"is_reserved":false,"is_disabled":false,"rental_uris":{"android":"levelo://app?vid=9f83b015-32c2-41a9-aa00-cbc47d7531b5","ios":"levelo://app?vid=9f83b015-32c2-41a9-aa00-cbc47d7531b5"},"vehicle_type_id":"4","last_reported":1723395980,"current_range_meters":7600,"station_id":"ce4bhl92rcd13ifvqghg","pricing_plan_id":"cebpf4jnsgd1na2vs0mg"},{"bike_id":"8fd4463a-96ac-45ab-a457-0d6d681b49b2","system_id":"levelo_inurba_marseille","lat":43.26681,"lon":5.382694,"is_reserved":false,"is_disabled":false,"rental_uris":{"android":"levelo://app?vid=8fd4463a-96ac-45ab-a457-0d6d681b49b2","ios":"levelo://app?vid=8fd4463a-96ac-45ab-a457-0d6d681b49b2"},"vehicle_type_id":"4","last_reported":1723395980,"current_range_meters":18400,"station_id":"ce4bhg92rcd13ifvqf90","pricing_plan_id":"cebpf4jnsgd1na2vs0mg"},{"bike_id":"3b2282b7-a702-4e90-904c-10e00b21d7ac","system_id":"levelo_inurba_marseille","lat":43.26681,"lon":5.382694,"is_reserved":false,"is_disabled":false,"rental_uris":{"android":"levelo://app?vid=3b2282b7-a702-4e90-904c-10e00b21d7ac","ios":"levelo://app?vid=3b2282b7-a702-4e90-904c-10e00b21d7ac"},"vehicle_type_id":"4","last_reported":1723395980,"current_range_meters":14400,"station_id":"ce4bhg92rcd13ifvqf90","pricing_plan_id":"cebpf4jnsgd1na2vs0mg"},{"bike_id":"2884ec53-ca3f-4113-ab52-2049062e2a5c","system_id":"levelo_inurba_marseille","lat":43.267966,"lon":5.393976,"is_reserved":false,"is_disabled":false,"rental_uris":{"android":"levelo://app?vid=2884ec53-ca3f-4113-ab52-2049062e2a5c","ios":"levelo://app?vid=2884ec53-ca3f-4113-ab52-2049062e2a5c"},"vehicle_type_id":"4","last_reported":1723395980,"current_range_meters":5200,"station_id":"ce4bhh12rcd13ifvqfg0","pricing_plan_id":"cebpf4jnsgd1na2vs0mg"},{"bike_id":"4986ae26-8966-409e-9ef5-58d7aa8c041e","system_id":"levelo_inurba_marseille","lat":43.267966,"lon":5.393976,"is_reserved":false,"is_disabled":false,"rental_uris":{"android":"levelo://app?vid=4986ae26-8966-409e-9ef5-58d7aa8c041e","ios":"levelo://app?vid=4986ae26-8966-409e-9ef5-58d7aa8c041e"},"vehicle_type_id":"4","last_reported":1723395980,"current_range_meters":25200,"station_id":"ce4bhh12rcd13ifvqfg0","pricing_plan_id":"cebpf4jnsgd1na2vs0mg"},{"bike_id":"d6a53c57-d55a-4ffa-9deb-7ec2a8279b59","system_id":"levelo_inurba_marseille","lat":43.307937,"lon":5.435247,"is_reserved":false,"is_disabled":false,"rental_uris":{"android":"levelo://app?vid=d6a53c57-d55a-4ffa-9deb-7ec2a8279b59","ios":"levelo://app?vid=d6a53c57-d55a-4ffa-9deb-7ec2a8279b59"},"vehicle_type_id":"4","last_reported":1723395980,"current_range_meters":31200,"station_id":"ce4bhph2rcd13ifvqheg","pricing_plan_id":"cebpf4jnsgd1na2vs0mg"},{"bike_id":"bc797801-01f8-4b2e-97ad-e174b84a8b24","system_id":"levelo_inurba_marseille","lat":43.265569,"lon":5.390047,"is_reserved":false,"is_disabled":false,"rental_uris":{"android":"levelo://app?vid=bc797801-01f8-4b2e-97ad-e174b84a8b24","ios":"levelo://app?vid=bc797801-01f8-4b2e-97ad-e174b84a8b24"},"vehicle_type_id":"4","last_reported":1723395980,"current_range_meters":3200,"station_id":"ce4bhe12rcd13ifvqf30","pricing_plan_id":"cebpf4jnsgd1na2vs0mg"},{"bike_id":"4f44ef52-9580-4324-830a-6b730d8f49d4","system_id":"levelo_inurba_marseille","lat":43.265571,"lon":5.390032,"is_reserved":false,"is_disabled":false,"rental_uris":{"android":"levelo://app?vid=4f44ef52-9580-4324-830a-6b730d8f49d4","ios":"levelo://app?vid=4f44ef52-9580-4324-830a-6b730d8f49d4"},"vehicle_type_id":"4","last_reported":1723395980,"current_range_meters":23200,"station_id":"ce4bhe12rcd13ifvqf30","pricing_plan_id":"cebpf4jnsgd1na2vs0mg"},