{"last_updated":1728785799,"ttl":60,"version":"2.2","data":{"bikes":[{"bike_id":"18ab750d-3ab0-435f-b6bb-cd6add02f5f6","system_id":"levelo_inurba_marseille","lat":43.28019,"lon":5.36932,"is_reserved":false,"is_disabled":false,"rental_uris":{"android":"levelo://app?vid=18ab750d-3ab0-435f-b6bb-cd6add02f5f6","ios":"levelo://app?vid=18ab750d-3ab0-435f-b6bb-cd6add02f5f6"},"vehicle_type_id":"4","last_reported":1728785800,"current_range_meters":38000,"station_id":"ce4bha12rcd13ifvqef0","pricing_plan_id":"cebpf4jnsgd1na2vs0mg"},{"bike_id":"a88cc3d5-4214-4799-a463-c01d33dbb23e","system_id":"levelo_inurba_marseille","lat":43.25014,"lon":5.38916,"is_reserved":false,"is_disabled":false,"rental_uris":{"android":"levelo://app?vid=a88cc3d5-4214-4799-a463-c01d33dbb23e","ios":"levelo://app?vid=a88cc3d5-4214-4799-a463-c01d33dbb23e"},"vehicle_type_id":"4","last_reported":1728785800,"current_range_meters":18000,"station_id":"ce4bhgp2rcd13ifvqfd0","pricing_plan_id":"cebpf4jnsgd1na2vs0mg"},{"bike_id":"8a36bb65-dd05-437f-adaf-66c35c91f8ff","system_id":"levelo_inurba_marseille","lat":43.24168,"lon":5.364,"is_reserved":false,"is_disabled":false,"rental_uris":{"android":"levelo://app?vid=8a36bb65-dd05-437f-adaf-66c35c91f8ff","ios":"levelo://app?vid=8a36bb65-dd05-437f-adaf-66c35c91f8ff"},"vehicle_type_id":"4","last_reported":1728785800,"current_range_meters":36800,"station_id":"cpo36qri1sfpv3e86is0","pricing_plan_id":"cebpf4jnsgd1na2vs0mg"},{"bike_id":"13dc15c1-9623-456b-9663-fb3b190c5280","system_id":"levelo_inurba_marseille","lat":43.31536,"lon":5.38025,"is_reserved":false,"is_disabled":false,"rental_uris":{"android":"levelo://app?vid=13dc15c1-9623-456b-9663-fb3b190c5280","ios":"levelo://app?vid=13dc15c1-9623-456b-9663-fb3b190c5280"},"vehicle_type_id":"4","last_reported":1728785800,"current_range_meters":32800,"station_id":"ce4bhsp2rcd13ifvqi50","pricing_plan_id":"cebpf4jnsgd1na2vs0mg"},{"bike_id":"be49e04f-56dd-4b61-b13c-bf6a68f1f153","system_id":"levelo_inurba_marseille","lat":43.2869,"lon":5.39974,"is_reserved":false,"is_disabled":false,"rental_uris":{"android":"levelo://app?vid=be49e04f-56dd-4b61-b13c-bf6a68f1f153","ios":"levelo://app?vid=be49e04f-56dd-4b61-b13c-bf6a68f1f153"},"vehicle_type_id":"4","last_reported":1728785800,"current_range_meters":31200,"station_id":"ce4bho92rcd13ifvqh3g","pricing_plan_id":"cebpf4jnsgd1na2vs0mg"},{"bike_id":"480c36bc-dd66-41df-b09a-76735c76211b","system_id":"levelo_inurba_marseille","lat":43.27993,"lon":5.41668,"is_reserved":false,"is_disabled":false,"rental_uris":{"android":"levelo://app?vid=480c36bc-dd66-41df-b09a-76735c76211b","ios":"levelo://app?vid=480c36bc-dd66-41df-b09a-76735c76211b"},"vehicle_type_id":"4","last_reported":1728785800,"current_range_meters":37600,"station_id":"ce4bho12rcd13ifvqh1g","pricing_plan_id":"cebpf4jnsgd1na2vs0mg"},{"bike_id":"4b535c61-fb6f-4b85-8290-d37a5e9d2e4b","system_id":"levelo_inurba_marseille","lat":43.27897,"lon":5.37998,"is_reserved":false,"is_disabled":false,"rental_uris":{"android":"levelo://app?vid=4b535c61-fb6f-4b85-8290-d37a5e9d2e4b","ios":"levelo://app?vid=4b535c61-fb6f-4b85-8290-d37a5e9d2e4b"},"vehicle_type_id":"4","last_reported":1728785800,"current_range_meters":36800,"station_id":"ce4bhf92rcd13ifvqf50","pricing_plan_id":"cebpf4jnsgd1na2vs0mg"},{"bike_id":"102471ee-d485-4122-8a0e-2f43e101d172","system_id":"levelo_inurba_marseille","lat":43.28715,"lon":5.36093,"is_reserved":false,"is_disabled":false,"rental_uris":{"android":"levelo://app?vid=102471ee-d485-4122-8a0e-2f43e101d172","ios":"levelo://app?vid=102471ee-d485-4122-8a0e-2f43e101d172"},"vehicle_type_id":"4","last_reported":1728785800,"current_range_meters":38000,"station_id":"cki0cbj6b192h4jlfktg","pricing_plan_id":"cebpf4jnsgd1na2vs0mg"},{"bike_id":"5eed5274-8a1f-4d73-bcad-e2fdf847a1da","system_id":"levelo_inurba_marseille","lat":43.30799,"lon":5.43527,"is_reserved":false,"is_disabled":false,"rental_uris":{"android":"levelo://app?vid=5eed5274-8a1f-4d73-bcad-e2fdf847a1da","ios":"levelo://app?vid=5eed5274-8a1f-4d73-bcad-e2fdf847a1da"},"vehicle_type_id":"4","last_reported":1728785800,"current_range_meters":39200,"station_id":"ce4bhph2rcd13ifvqheg","pricing_plan_id":"cebpf4jnsgd1na2vs0mg"},{"bike_id":"a2f60892-90a8-437a-a8aa-bdb16f23fcc3","system_id":"levelo_inurba_marseille","lat":43.30461,"lon":5.37895,"is_reserved":false,"is_disabled":false,"rental_uris":{"android":"levelo://app?vid=a2f60892-90a8-437a-a8aa-bdb16f23fcc3","ios":"levelo://app?vid=a2f60892-90a8-437a-a8aa-bdb16f23fcc3"},"vehicle_type_id":"4","last_reported":1728785800,"current_range_meters":38000,"station_id":"ce4bgup2rcd13ifvqcn0","pricing_plan_id":"cebpf4jnsgd1na2vs0mg"},{"bike_id":"0cd993dc-190c-4d56-bce5-0c30cce473ad","system_id":"levelo_inurba_marseille","lat":43.33015,"lon":5.39044,"is_reserved":false,"is_disabled":false,"rental_uris":{"android":"levelo://app?vid=0cd993dc-190c-4d56-bce5-0c30cce473ad","ios":"levelo://app?vid=0cd993dc-190c-4d56-bce5-0c30cce473ad"},"vehicle_type_id":"4","last_reported":1728785800,"current_range_meters":39200,"station_id":"ce4bhr92rcd13ifvqhrg","pricing_plan_id":"cebpf4jnsgd1na2vs0mg"},{"bike_id":"e49be7dd-1e95-4af1-8431-31f4173ce85d","system_id":"levelo_inurba_marseille","lat":43.32103,"lon":5.36765,"is_reserved":false,"is_disabled":false,"rental_uris":{"android":"levelo://app?vid=e49be7dd-1e95-4af1-8431-31f4173ce85d","ios":"levelo://app?vid=e49be7dd-1e95-4af1-8431-31f4173ce85d"},"vehicle_type_id":"4","last_reported":1728785800,"current_range_meters":38400,"station_id":"ce4bhrh2rcd13ifvqhug","pricing_plan_id":"cebpf4jnsgd1na2vs0mg"},{"bike_id":"6143dcf9-c681-4212-af02-af18735f4829","system_id":"levelo_inurba_marseille","lat":43.28422,"lon":5.37528,"is_reserved":false,"is_disabled":false,"rental_uris":{"android":"levelo://app?vid=6143dcf9-c681-4212-af02-af18735f4829","ios":"levelo://app?vid=6143dcf9-c681-4212-af02-af18735f4829"},"vehicle_type_id":"4","last_reported":1728785800,"current_range_meters":38000,"station_id":"ce4bh412rcd13ifvqds0","pricing_plan_id":"cebpf4jnsgd1na2vs0mg"},{"bike_id":"61432fa4-e69a-43e1-a752-60da459a1e2e","system_id":"levelo_inurba_marseille","lat":43.33729,"lon":5.39193,"is_reserved":false,"is_disabled":false,"rental_uris":{"android":"levelo://app?vid=61432fa4-e69a-43e1-a752-60da459a1e2e","ios":"levelo://app?vid=61432fa4-e69a-43e1-a752-60da459a1e2e"},"vehicle_type_id":"4","last_reported":1728785800,"current_range_meters":35200,"station_id":"ce4bhr92rcd13ifvqhsg","pricing_plan_id":"cebpf4jnsgd1na2vs0mg"},{"bike_id":"6dfa1c15-62e5-4156-9ffa-4e5064dfd4c4","system_id":"levelo_inurba_marseille","lat":43.25107,"lon":5.40335,"is_reserved":false,"is_disabled":false,"rental_uris":{"android":"levelo://app?vid=6dfa1c15-62e5-4156-9ffa-4e5064dfd4c4","ios":"levelo://app?vid=6dfa1c15-62e5-4156-9ffa-4e5064dfd4c4"},"vehicle_type_id":"4","last_reported":1728785800,"current_range_meters":38800,"station_id":"ce4bhlh2rcd13ifvqgig","pricing_plan_id":"cebpf4jnsgd1na2vs0mg"},{"bike_id":"0c63c1bc-9327-445f-80ab-9d459abee4b1","system_id":"levelo_inurba_marseille","lat":43.31704,"lon":5.43687,"is_reserved":false,"is_disabled":false,"rental_uris":{"android":"levelo://app?vid=0c63c1bc-9327-445f-80ab-9d459abee4b1","ios":"levelo://app?vid=0c63c1bc-9327-445f-80ab-9d459abee4b1"},"vehicle_type_id":"4","last_reported":1728785800,"current_range_meters":38800,"station_id":"ce4bhp92rcd13ifvqhcg","pricing_plan_id":"cebpf4jnsgd1na2vs0mg"},{"bike_id":"2bbefd26-2c7c-4782-8855-de09b398c1d5","system_id":"levelo_inurba_marseille","lat":43.27903,"lon":5.3801,"is_reserved":false,"is_disabled":false,"rental_uris":{"android":"levelo://app?vid=2bbefd26-2c7c-4782-8855-de09b398c1d5","ios":"levelo://app?vid=2bbefd26-2c7c-4782-8855-de09b398c1d5"},"vehicle_type_id":"4","last_reported":1728785800,"current_range_meters":16800,"station_id":"ce4bhf92rcd13ifvqf50","pricing_plan_id":"cebpf4jnsgd1na2vs0mg"},{"bike_id":"77bc0e44-4de9-46a0-9fc9-ecdc80eeec62","system_id":"levelo_inurba_marseille","lat":43.27173,"lon":5.41001,"is_reserved":false,"is_disabled":false,"rental_uris":{"android":"levelo://app?vid=77bc0e44-4de9-46a0-9fc9-ecdc80eeec62","ios":"levelo://app?vid=77bc0e44-4de9-46a0-9fc9-ecdc80eeec62"},"vehicle_type_id":"4","last_reported":1728785800,"current_range_meters":28400,"station_id":"ce4bhl12rcd13ifvqgf0","pricing_plan_id":"cebpf4jnsgd1na2vs0mg"},{"bike_id":"c63fd399-d51e-41cd-9fee-2b7fdccc7392","system_id":"levelo_inurba_marseille","lat":43.28947,"lon":5.36394,"is_reserved":false,"is_disabled":false,"rental_uris":{"android":"levelo://app?vid=c63fd399-d51e-41cd-9fee-2b7fdccc7392","ios":"levelo://app?vid=c63fd399-d51e-41cd-9fee-2b7fdccc7392"},"vehicle_type_id":"4","last_reported":1728785800,"current_range_meters":39200,"station_id":"ce4bhc92rcd13ifvqetg","pricing_plan_id":"cebpf4jnsgd1na2vs0mg"},{"bike_id":"a77400de-760c-4351-a0b4-e8d54db19d3a","system_id":"levelo_inurba_marseille","lat":43.27373,"lon":5.36246,"is_reserved":false,"is_disabled":false,"rental_uris":{"android":"levelo://app?vid=a77400de-760c-4351-a0b4-e8d54db19d3a","ios":"levelo://app?vid=a77400de-760c-4351-a0b4-e8d54db19d3a"},"vehicle_type_id":"4","last_reported":1728785800,"current_range_meters":38000,"station_id":"ce4bhbh2rcd13ifvqeo0","pricing_plan_id":"cebpf4jnsgd1na2vs0mg"},{"bike_id":"c5c33660-077d-4f97-b2f0-40691ac09116","system_id":"levelo_inurba_marseille","lat":43.2439,"lon":5.37066,"is_reserved":false,"is_disabled":false,"rental_uris":{"android":"levelo://app?vid=c5c33660-077d-4f97-b2f0-40691ac09116","ios":"levelo://app?vid=c5c33660-077d-4f97-b2f0-40691ac09116"},"vehicle_type_id":"4","last_reported":1728785800,"current_range_meters":36000,"station_id":"ce4bhhh2rcd13ifvqfk0","pricing_plan_id":"cebpf4jnsgd1na2vs0mg"},{"bike_id":"931d1f9c-4cb2-40a2-a856-914a1c55fcf3","system_id":"levelo_inurba_marseille","lat":43.24575,"lon":5.41661,"is_reserved":false,"is_disabled":false,"rental_uris":{"android":"levelo://app?vid=931d1f9c-4cb2-40a2-a856-914a1c55fcf3","ios":"levelo://app?vid=931d1f9c-4cb2-40a2-a856-914a1c55fcf3"},"vehicle_type_id":"4","last_reported":1728785800,"current_range_meters":8800,"station_id":"","pricing_plan_id":"cebpf4jnsgd1na2vs0mg"},{"bike_id":"7ae8277d-142e-4a38-8954-9d74bf3121f9","system_id":"levelo_inurba_marseille","lat":43.29265,"lon":5.4013,"is_reserved":false,"is_disabled":false,"rental_uris":{"android":"levelo://app?vid=7ae8277d-142e-4a38-8954-9d74bf3121f9","ios":"levelo://app?vid=7ae8277d-142e-4a38-8954-9d74bf3121f9"},"vehicle_type_id":"4","last_reported":1728785800,"current_range_meters":38000,"station_id":"ce4bh312rcd13ifvqdk0","pricing_plan_id":"cebpf4jnsgd1na2vs0mg"},{"bike_id":"36ca0ca8-90a4-490c-8d77-4000acac3807","system_id":"levelo_inurba_marseille","lat":43.28442,"lon":5.3921,"is_reserved":false,"is_disabled":false,"rental_uris":{"android":"levelo://app?vid=36ca0ca8-90a4-490c-8d77-4000acac3807","ios":"levelo://app?vid=36ca0ca8-90a4-490c-8d77-4000acac3807"},"vehicle_type_id":"4","last_reported":1728785800,"current_range_meters":6800,"station_id":"ce4bhoh2rcd13ifvqh5g","pricing_plan_id":"cebpf4jnsgd1na2vs0mg"},{"bike_id":"28998050-e10b-4c7d-b90a-abff49d21fa5","system_id":"levelo_inurba_marseille","lat":43.30356,"lon":5.41887,"is_reserved":false,"is_disabled":false,"rental_uris":{"android":"levelo://app?vid=28998050-e10b-4c7d-b90a-abff49d21fa5","ios":"levelo://app?vid=28998050-e10b-4c7d-b90a-abff49d21fa5"},"vehicle_type_id":"4","last_reported":1728785800,"current_range_meters":17600,"station_id":"ce4bhop2rcd13ifvqh7g","pricing_plan_id":"cebpf4jnsgd1na2vs0mg"},{"bike_id":"eb69c496-fd74-4e0a-badd-9b02b5c683c7","system_id":"levelo_inurba_marseille","lat":43.28477,"lon":5.38421,"is_reserved":false,"is_disabled":false,"rental_uris":{"android":"levelo://app?vid=eb69c496-fd74-4e0a-badd-9b02b5c683c7","ios":"levelo://app?vid=eb69c496-fd74-4e0a-badd-9b02b5c683c7"},"vehicle_type_id":"4","last_reported":1728785800,"current_range_meters":11200,"station_id":"ce4bh512rcd13ifvqe3g","pricing_plan_id":"cebpf4jnsgd1na2vs0mg"},{"bike_id":"74b50dd3-0843-4c7b-a5ab-d32b751e3d96","system_id":"levelo_inurba_marseille","lat":43.31317,"lon":5.39695,"is_reserved":false,"is_disabled":false,"rental_uris":{"android":"levelo://app?vid=74b50dd3-0843-4c7b-a5ab-d32b751e3d96","ios":"levelo://app?vid=74b50dd3-0843-4c7b-a5ab-d32b751e3d96"},"vehicle_type_id":"4","last_reported":1728785800,"current_range_meters":38400,"station_id":"ce4bgvp2rcd13ifvqcu0","pricing_plan_id":"cebpf4jnsgd1na2vs0mg"},{"bike_id":"926360cb-427c-43f3-8311-96475c2329be","system_id":"levelo_inurba_marseille","lat":43.27421,"lon":5.39419,"is_reserved":false,"is_disabled":false,"rental_uris":{"android":"levelo://app?vid=926360cb-427c-43f3-8311-96475c2329be","ios":"levelo://app?vid=926360cb-427c-43f3-8311-96475c2329be"},"vehicle_type_id":"4","last_reported":1728785800,"current_range_meters":29600,"station_id":"ce4bhdp2rcd13ifvqf20","pricing_plan_id":"cebpf4jnsgd1na2vs0mg"},{"bike_id":"605fb24e-2807-4c08-854f-1b2eb0039a3a","system_id":"levelo_inurba_marseille","lat":43.27824,"lon":5.39209,"is_reserved":false,"is_disabled":false,"rental_uris":{"android":"levelo://app?vid=605fb24e-2807-4c08-854f-1b2eb0039a3a","ios":"levelo://app?vid=605fb24e-2807-4c08-854f-1b2eb0039a3a"},"vehicle_type_id":"4","last_reported":1728785800,"current_range_meters":38800,"station_id":"ce4bhjp2rcd13ifvqga0","pricing_plan_id":"cebpf4jnsgd1na2vs0mg"},{"bike_id":"2eb02b12-1d96-4017-bdb7-e0bbe121dd5e","system_id":"levelo_inurba_marseille","lat":43.29033,"lon":5.35926,"is_reserved":false,"is_disabled":false,"rental_uris":{"android":"levelo://app?vid=2eb02b12-1d96-4017-bdb7-e0bbe121dd5e","ios":"levelo://app?vid=2eb02b12-1d96-4017-bdb7-e0bbe121dd5e"},"vehicle_type_id":"4","last_reported":1728785800,"current_range_meters":38000,"station_id":"ce4bha92rcd13ifvqeg0","pricing_plan_id":"cebpf4jnsgd1na2vs0mg"},{"bike_id":"0efb5f8a-ae8c-4665-8d55-4d630707f077","system_id":"levelo_inurba_marseille","lat":43.28451,"lon":5.3588,"is_reserved":false,"is_disabled":false,"rental_uris":{"android":"levelo://app?vid=0efb5f8a-ae8c-4665-8d55-4d630707f077","ios":"levelo://app?vid=0efb5f8a-ae8c-4665-8d55-4d630707f077"},"vehicle_type_id":"4","last_reported":1728785800,"current_range_meters":33600,"station_id":"ce4bhah2rcd13ifvqei0","pricing_plan_id":"cebpf4jnsgd1na2vs0mg"},{"bike_id":"eae54fd6-2e60-488f-af19-a06b4732bf10","system_id":"levelo_inurba_marseille","lat":43.290391,"lon":5.375643,"is_reserved":false,"is_disabled":false,"rental_uris":{"android":"levelo://app?vid=eae54fd6-2e60-488f-af19-a06b4732bf10","ios":"levelo://app?vid=eae54fd6-2e60-488f-af19-a06b4732bf10"},"vehicle_type_id":"4","last_reported":1728785800,"current_range_meters":25200,"station_id":"ce4bguh2rcd13ifvqckg","pricing_plan_id":"cebpf4jnsgd1na2vs0mg"},{"bike_id":"f0d02166-6936-4e58-ac35-f5a54df6c97a","system_id":"levelo_inurba_marseille","lat":43.30294,"lon":5.39218,"is_reserved":false,"is_disabled":false,"rental_uris":{"android":"levelo://app?vid=f0d02166-6936-4e58-ac35-f5a54df6c97a","ios":"levelo://app?vid=f0d02166-6936-4e58-ac35-f5a54df6c97a"},"vehicle_type_id":"4","last_reported":1728785800,"current_range_meters":36400,"station_id":"ce4bgkh2rcd13ifvqbk0","pricing_plan_id":"cebpf4jnsgd1na2vs0mg"},{"bike_id":"b931e51e-e774-4113-82e5-f8b1d492d8b7","system_id":"levelo_inurba_marseille","lat":43.26041,"lon":5.39396,"is_reserved":false,"is_disabled":false,"rental_uris":{"android":"levelo://app?vid=b931e51e-e774-4113-82e5-f8b1d492d8b7","ios":"levelo://app?vid=b931e51e-e774-4113-82e5-f8b1d492d8b7"},"vehicle_type_id":"4","last_reported":1728785800,"current_range_meters":14800,"station_id":"ce4bhh92rcd13ifvqfj0","pricing_plan_id":"cebpf4jnsgd1na2vs0mg"},{"bike_id":"372c80c0-e97f-485d-bdfa-e40c2384a065","system_id":"levelo_inurba_marseille","lat":43.31698,"lon":5.37746,"is_reserved":false,"is_disabled":false,"rental_uris":{"android":"levelo://app?vid=372c80c0-e97f-485d-bdfa-e40c2384a065","ios":"levelo://app?vid=372c80c0-e97f-485d-bdfa-e40c2384a065"},"vehicle_type_id":"4","last_reported":1728785800,"current_range_meters":39200,"station_id":"ce4bgth2rcd13ifvqch0","pricing_plan_id":"cebpf4jnsgd1na2vs0mg"},{"bike_id":"6b2daff3-9851-4dff-9081-e0ec010599e4","system_id":"levelo_inurba_marseille","lat":43.314515,"lon":5.37384,"is_reserved":false,"is_disabled":false,"rental_uris":{"android":"levelo://app?vid=6b2daff3-9851-4dff-9081-e0ec010599e4","ios":"levelo://app?vid=6b2daff3-9851-4dff-9081-e0ec010599e4"},"vehicle_type_id":"4","last_reported":1728785800,"current_range_meters":34800,"station_id":"","pricing_plan_id":"cebpf4jnsgd1na2vs0mg"},{"bike_id":"6f68d79b-bdbe-417d-a066-1075381457a2","system_id":"levelo_inurba_marseille","lat":43.24672,"lon":5.38157,"is_reserved":false,"is_disabled":false,"rental_uris":{"android":"levelo://app?vid=6f68d79b-bdbe-417d-a066-1075381457a2","ios":"levelo://app?vid=6f68d79b-bdbe-417d-a066-1075381457a2"},"vehicle_type_id":"4","last_reported":1728785800,"current_range_meters":14800,"station_id":"ce4bhih2rcd13ifvqfr0","pricing_plan_id":"cebpf4jnsgd1na2vs0mg"},{"bike_id":"f8fd929e-ef12-4998-8e1d-12522bd05de2","system_id":"levelo_inurba_marseille","lat":43.3302,"lon":5.39046,"is_reserved":false,"is_disabled":false,"rental_uris":{"android":"levelo://app?vid=f8fd929e-ef12-4998-8e1d-12522bd05de2","ios":"levelo://app?vid=f8fd929e-ef12-4998-8e1d-12522bd05de2"},"vehicle_type_id":"4","last_reported":1728785800,"current_range_meters":39200,"station_id":"ce4bhr92rcd13ifvqhrg","pricing_plan_id":"cebpf4jnsgd1na2vs0mg"},{"bike_id":"3f1dd7c8-c311-4677-86c9-2e2b18d970fa","system_id":"levelo_inurba_marseille","lat":43.3088,"lon":5.37199,"is_reserved":false,"is_disabled":false,"rental_uris":{"android":"levelo://app?vid=3f1dd7c8-c311-4677-86c9-2e2b18d970fa","ios":"levelo://app?vid=3f1dd7c8-c311-4677-86c9-2e2b18d970fa"},"vehicle_type_id":"4","last_reported":1728785800,"current_range_meters":38000,"station_id":"ce4bguh2rcd13ifvqckg","pricing_plan_id":"cebpf4jnsgd1na2vs0mg"},{"bike_id":"cf1a99e8-f338-4f78-be72-57686d6d4b7f","system_id":"levelo_inurba_marseille","lat":43.30804,"lon":5.38157,"is_reserved":false,"is_disabled":false,"rental_uris":{"android":"levelo://app?vid=cf1a99e8-f338-4f78-be72-57686d6d4b7f","ios":"levelo://app?vid=cf1a99e8-f338-4f78-be72-57686d6d4b7f"},"vehicle_type_id":"4","last_reported":1728785800,"current_range_meters":18800,"station_id":"ce4bgt12rcd13ifvqce0","pricing_plan_id":"cebpf4jnsgd1na2vs0mg"},{"bike_id":"340dd3c9-69a8-41e9-94f7-2c1660b4f6cd","system_id":"levelo_inurba_marseille","lat":43.28435,"lon":5.39187,"is_reserved":false,"is_disabled":false,"rental_uris":{"android":"levelo://app?vid=340dd3c9-69a8-41e9-94f7-2c1660b4f6cd","ios":"levelo://app?vid=340dd3c9-69a8-41e9-94f7-2c1660b4f6cd"},"vehicle_type_id":"4","last_reported":1728785800,"current_range_meters":37600,"station_id":"ce4bhoh2rcd13ifvqh5g","pricing_plan_id":"cebpf4jnsgd1na2vs0mg"},{"bike_id":"fa08456f-0316-46ca-b497-6c7d63a7f841","system_id":"levelo_inurba_marseille","lat":43.23189,"lon":5.35548,"is_reserved":false,"is_disabled":false,"rental_uris":{"android":"levelo://app?vid=fa08456f-0316-46ca-b497-6c7d63a7f841","ios":"levelo://app?vid=fa08456f-0316-46ca-b497-6c7d63a7f841"},"vehicle_type_id":"4","last_reported":1728785800,"current_range_meters":36400,"station_id":"ce4bhu92rcd13ifvqi70","pricing_plan_id":"cebpf4jnsgd1na2vs0mg"},{"bike_id":"7042fcd7-d053-43e8-aa8f-e9acc729f925","system_id":"levelo_inurba_marseille","lat":43.30652,"lon":5.4006,"is_reserved":false,"is_disabled":false,"rental_uris":{"android":"levelo://app?vid=7042fcd7-d053-43e8-aa8f-e9acc729f925","ios":"levelo://app?vid=7042fcd7-d053-43e8-aa8f-e9acc729f925"},"vehicle_type_id":"4","last_reported":1728785800,"current_range_meters":39200,"station_id":"ce4bh112rcd13ifvqda0","pricing_plan_id":"cebpf4jnsgd1na2vs0mg"},{"bike_id":"af72dc5b-e02f-4efa-8cbd-41822bfef337","system_id":"levelo_inurba_marseille","lat":43.2799,"lon":5.40005,"is_reserved":false,"is_disabled":false,"rental_uris":{"android":"levelo://app?vid=af72dc5b-e02f-4efa-8cbd-41822bfef337","ios":"levelo://app?vid=af72dc5b-e02f-4efa-8cbd-41822bfef337"},"vehicle_type_id":"4","last_reported":1728785800,"current_range_meters":39200,"station_id":"ce4bho92rcd13ifvqh4g","pricing_plan_id":"cebpf4jnsgd1na2vs0mg"},{"bike_id":"cb1ea2b7-a6ef-43d5-a9c8-7cfc8b55f804","system_id":"levelo_inurba_marseille","lat":43.26204,"lon":5.37442,"is_reserved":false,"is_disabled":false,"rental_uris":{"android":"levelo://app?vid=cb1ea2b7-a6ef-43d5-a9c8-7cfc8b55f804","ios":"levelo://app?vid=cb1ea2b7-a6ef-43d5-a9c8-7cfc8b55f804"},"vehicle_type_id":"4","last_reported":1728785800,"current_range_meters":16800,"station_id":"ce4bhgp2rcd13ifvqfc0","pricing_plan_id":"cebpf4jnsgd1na2vs0mg"},{"bike_id":"86851483-6460-4f2a-8d92-b3b47e5c55aa","system_id":"levelo_inurba_marseille","lat":43.23955,"lon":5.36623,"is_reserved":false,"is_disabled":false,"rental_uris":{"android":"levelo://app?vid=86851483-6460-4f2a-8d92-b3b47e5c55aa","ios":"levelo://app?vid=86851483-6460-4f2a-8d92-b3b47e5c55aa"},"vehicle_type_id":"4","last_reported":1728785800,"current_range_meters":39200,"station_id":"ce4bhi12rcd13ifvqfp0","pricing_plan_id":"cebpf4jnsgd1na2vs0mg"},{"bike_id":"969f0c9f-e24e-4c9e-a033-6bb183585ce3","system_id":"levelo_inurba_marseille","lat":43.30083,"lon":5.37833,"is_reserved":false,"is_disabled":false,"rental_uris":{"android":"levelo://app?vid=969f0c9f-e24e-4c9e-a033-6bb183585ce3","ios":"levelo://app?vid=969f0c9f-e24e-4c9e-a033-6bb183585ce3"},"vehicle_type_id":"4","last_reported":1728785800,"current_range_meters":8400,"station_id":"","pricing_plan_id":"cebpf4jnsgd1na2vs0mg"},{"bike_id":"65327969-ae9f-4b7e-ae87-4332ee19acd6","system_id":"levelo_inurba_marseille","lat":43.28456,"lon":5.35894,"is_reserved":false,"is_disabled":false,"rental_uris":{"android":"levelo://app?vid=65327969-ae9f-4b7e-ae87-4332ee19acd6","ios":"levelo://app?vid=65327969-ae9f-4b7e-ae87-4332ee19acd6"},"vehicle_type_id":"4","last_reported":1728785800,"current_range_meters":34000,"station_id":"ce4bhah2rcd13ifvqei0","pricing_plan_id":"cebpf4jnsgd1na2vs0mg"},{"bike_id":"900d410e-a263-4441-80a1-af67345a66d2","system_id":"levelo_inurba_marseille","lat":43.24389,"lon":5.37081,"is_reserved":false,"is_disabled":false,"rental_uris":{"android":"levelo://app?vid=900d410e-a263-4441-80a1-af67345a66d2","ios":"levelo://app?vid=900d410e-a263-4441-80a1-af67345a66d2"},"vehicle_type_id":"4","last_reported":1728785800,"current_range_meters":17200,"station_id":"ce4bhhh2rcd13ifvqfk0","pricing_plan_id":"cebpf4jnsgd1na2vs0mg"},{"bike_id":"17484043-4344-41a9-8192-117ae71fadc8","system_id":"levelo_inurba_marseille","lat":43.27995,"lon":5.41667,"is_reserved":false,"is_disabled":false,"rental_uris":{"android":"levelo://app?vid=17484043-4344-41a9-8192-117ae71fadc8","ios":"levelo://app?vid=17484043-4344-41a9-8192-117ae71fadc8"},"vehicle_type_id":"4","last_reported":1728785800,"current_range_meters":38800,"station_id":"ce4bho12rcd13ifvqh1g","pricing_plan_id":"cebpf4jnsgd1na2vs0mg"},{"bike_id":"81fb7ce7-98c0-43d2-b671-284e1d008179","system_id":"levelo_inurba_marseille","lat":43.30777,"lon":5.37654,"is_reserved":false,"is_disabled":false,"rental_uris":{"android":"levelo://app?vid=81fb7ce7-98c0-43d2-b671-284e1d008179","ios":"levelo://app?vid=81fb7ce7-98c0-43d2-b671-284e1d008179"},"vehicle_type_id":"4","last_reported":1728785800,"current_range_meters":6000,"station_id":"ce4bgv92rcd13ifvqcq0","pricing_plan_id":"cebpf4jnsgd1na2vs0mg"},{"bike_id":"50deecc9-6fe4-48a3-9ee7-031626dd77eb","system_id":"levelo_inurba_marseille","lat":43.30436,"lon":5.39756,"is_reserved":false,"is_disabled":false,"rental_uris":{"android":"levelo://app?vid=50deecc9-6fe4-48a3-9ee7-031626dd77eb","ios":"levelo://app?vid=50deecc9-6fe4-48a3-9ee7-031626dd77eb"},"vehicle_type_id":"4","last_reported":1728785800,"current_range_meters":39200,"station_id":"ce4bh092rcd13ifvqd20","pricing_plan_id":"cebpf4jnsgd1na2vs0mg"},{"bike_id":"2c08b66a-f2f6-4a1d-b2e0-65007aea605a","system_id":"levelo_inurba_marseille","lat":43.3014,"lon":5.39895,"is_reserved":false,"is_disabled":false,"rental_uris":{"android":"levelo://app?vid=2c08b66a-f2f6-4a1d-b2e0-65007aea605a","ios":"levelo://app?vid=2c08b66a-f2f6-4a1d-b2e0-65007aea605a"},"vehicle_type_id":"4","last_reported":1728785800,"current_range_meters":17200,"station_id":"ce4bh0h2rcd13ifvqd40","pricing_plan_id":"cebpf4jnsgd1na2vs0mg"},{"bike_id":"1d88376c-6674-4e5c-a3c5-0340c59f28ab","system_id":"levelo_inurba_marseille","lat":43.33604,"lon":5.41014,"is_reserved":false,"is_disabled":false,"rental_uris":{"android":"levelo://app?vid=1d88376c-6674-4e5c-a3c5-0340c59f28ab","ios":"levelo://app?vid=1d88376c-6674-4e5c-a3c5-0340c59f28ab"},"vehicle_type_id":"4","last_reported":1728785800,"current_range_meters":39200,"station_id":"ce4bhqh2rcd13ifvqhmg","pricing_plan_id":"cebpf4jnsgd1na2vs0mg"},{"bike_id":"334eb7c5-e537-4478-984a-f14151edc3e5","system_id":"levelo_inurba_marseille","lat":43.31266,"lon":5.40162,"is_reserved":false,"is_disabled":false,"rental_uris":{"android":"levelo://app?vid=334eb7c5-e537-4478-984a-f14151edc3e5","ios":"levelo://app?vid=334eb7c5-e537-4478-984a-f14151edc3e5"},"vehicle_type_id":"4","last_reported":1728785800,"current_range_meters":38400,"station_id":"ce4bh092rcd13ifvqd30","pricing_plan_id":"cebpf4jnsgd1na2vs0mg"},{"bike_id":"ee3d77b2-c4c3-417a-8170-d8edb7edeab8","system_id":"levelo_inurba_marseille","lat":43.22939,"lon":5.35362,"is_reserved":false,"is_disabled":false,"rental_uris":{"android":"levelo://app?vid=ee3d77b2-c4c3-417a-8170-d8edb7edeab8","ios":"levelo://app?vid=ee3d77b2-c4c3-417a-8170-d8edb7edeab8"},"vehicle_type_id":"4","last_reported":1728785800,"current_range_meters":9200,"station_id":"cpo3532slgdg3j2ikp40","pricing_plan_id":"cebpf4jnsgd1na2vs0mg"},{"bike_id":"8234ab9c-eaf8-496c-9d31-b89544d3eb77","system_id":"levelo_inurba_marseille","lat":43.3093,"lon":5.40148,"is_reserved":false,"is_disabled":false,"rental_uris":{"android":"levelo://app?vid=8234ab9c-eaf8-496c-9d31-b89544d3eb77","ios":"levelo://app?vid=8234ab9c-eaf8-496c-9d31-b89544d3eb77"},"vehicle_type_id":"4","last_reported":1728785800,"current_range_meters":38800,"station_id":"ce4bgvp2rcd13ifvqct0","pricing_plan_id":"cebpf4jnsgd1na2vs0mg"},{"bike_id":"b9be809a-d267-49aa-8c7f-d37dd3388355","system_id":"levelo_inurba_marseille","lat":43.33601,"lon":5.4101,"is_reserved":false,"is_disabled":false,"rental_uris":{"android":"levelo://app?vid=b9be809a-d267-49aa-8c7f-d37dd3388355","ios":"levelo://app?vid=b9be809a-d267-49aa-8c7f-d37dd3388355"},"vehicle_type_id":"4","last_reported":1728785800,"current_range_meters":25200,"station_id":"ce4bhqh2rcd13ifvqhmg","pricing_plan_id":"cebpf4jnsgd1na2vs0mg"},{"bike_id":"ae16ce3a-1428-440a-af8b-55b55a1441ed","system_id":"levelo_inurba_marseille","lat":43.27999,"lon":5.40001,"is_reserved":false,"is_disabled":false,"rental_uris":{"android":"levelo://app?vid=ae16ce3a-1428-440a-af8b-55b55a1441ed","ios":"levelo://app?vid=ae16ce3a-1428-440a-af8b-55b55a1441ed"},"vehicle_type_id":"4","last_reported":1728785800,"current_range_meters":14800,"station_id":"ce4bho92rcd13ifvqh4g","pricing_plan_id":"cebpf4jnsgd1na2vs0mg"},{"bike_id":"0cccb78c-f269-44ea-a0a2-ad5edf76bfcb","system_id":"levelo_inurba_marseille","lat":43.28412,"lon":5.37537,"is_reserved":false,"is_disabled":false,"rental_uris":{"android":"levelo://app?vid=0cccb78c-f269-44ea-a0a2-ad5edf76bfcb","ios":"levelo://app?vid=0cccb78c-f269-44ea-a0a2-ad5edf76bfcb"},"vehicle_type_id":"4","last_reported":1728785800,"current_range_meters":36400,"station_id":"ce4bh412rcd13ifvqds0","pricing_plan_id":"cebpf4jnsgd1na2vs0mg"},{"bike_id":"f6581013-d91f-4a90-9ef7-674f4e86e30d","system_id":"levelo_inurba_marseille","lat":43.26053,"lon":5.39383,"is_reserved":false,"is_disabled":false,"rental_uris":{"android":"levelo://app?vid=f6581013-d91f-4a90-9ef7-674f4e86e30d","ios":"levelo://app?vid=f6581013-d91f-4a90-9ef7-674f4e86e30d"},"vehicle_type_id":"4","last_reported":1728785800,"current_range_meters":39200,"station_id":"ce4bhh92rcd13ifvqfj0","pricing_plan_id":"cebpf4jnsgd1na2vs0mg"},{"bike_id":"a854baa8-4497-4ebb-ad0a-8e93bd11aa9c","system_id":"levelo_inurba_marseille","lat":43.28415,"lon":5.37523,"is_reserved":false,"is_disabled":false,"rental_uris":{"android":"levelo://app?vid=a854baa8-4497-4ebb-ad0a-8e93bd11aa9c","ios":"levelo://app?vid=a854baa8-4497-4ebb-ad0a-8e93bd11aa9c"},"vehicle_type_id":"4","last_reported":1728785800,"current_range_meters":36000,"station_id":"ce4bh412rcd13ifvqds0","pricing_plan_id":"cebpf4jnsgd1na2vs0mg"},{"bike_id":"61e92425-4545-4dce-90a5-3fc12bfeda74","system_id":"levelo_inurba_marseille","lat":43.30296,"lon":5.39216,"is_reserved":false,"is_disabled":false,"rental_uris":{"android":"levelo://app?vid=61e92425-4545-4dce-90a5-3fc12bfeda74","ios":"levelo://app?vid=61e92425-4545-4dce-90a5-3fc12bfeda74"},"vehicle_type_id":"4","last_reported":1728785800,"current_range_meters":20400,"station_id":"ce4bgkh2rcd13ifvqbk0","pricing_plan_id":"cebpf4jnsgd1na2vs0mg"},{"bike_id":"7ed8bd30-01ef-4a79-9d96-188ec6d810e0","system_id":"levelo_inurba_marseille","lat":43.26579,"lon":5.39051,"is_reserved":false,"is_disabled":false,"rental_uris":{"android":"levelo://app?vid=7ed8bd30-01ef-4a79-9d96-188ec6d810e0","ios":"levelo://app?vid=7ed8bd30-01ef-4a79-9d96-188ec6d810e0"},"vehicle_type_id":"4","last_reported":1728785800,"current_range_meters":10800,"station_id":"ce4bhe12rcd13ifvqf30","pricing_plan_id":"cebpf4jnsgd1na2vs0mg"},{"bike_id":"11d2acba-9213-43b7-bee9-c635a3c3b21c","system_id":"levelo_inurba_marseille","lat":43.26543,"lon":5.37315,"is_reserved":false,"is_disabled":false,"rental_uris":{"android":"levelo://app?vid=11d2acba-9213-43b7-bee9-c635a3c3b21c","ios":"levelo://app?vid=11d2acba-9213-43b7-bee9-c635a3c3b21c"},"vehicle_type_id":"4","last_reported":1728785800,"current_range_meters":37600,"station_id":"ce4bhg12rcd13ifvqf70","pricing_plan_id":"cebpf4jnsgd1na2vs0mg"},{"bike_id":"683f70bb-8ede-4516-a8a4-3219da6c61b4","system_id":"levelo_inurba_marseille","lat":43.31113,"lon":5.37768,"is_reserved":false,"is_disabled":false,"rental_uris":{"android":"levelo://app?vid=683f70bb-8ede-4516-a8a4-3219da6c61b4","ios":"levelo://app?vid=683f70bb-8ede-4516-a8a4-3219da6c61b4"},"vehicle_type_id":"4","last_reported":1728785800,"current_range_meters":39200,"station_id":"ce4bgt92rcd13ifvqcg0","pricing_plan_id":"cebpf4jnsgd1na2vs0mg"},{"bike_id":"fcd26497-a6f9-4ddb-bc0e-91ddd4f7c0a0","system_id":"levelo_inurba_marseille","lat":43.30119,"lon":5.39846,"is_reserved":false,"is_disabled":false,"rental_uris":{"android":"levelo://app?vid=fcd26497-a6f9-4ddb-bc0e-91ddd4f7c0a0","ios":"levelo://app?vid=fcd26497-a6f9-4ddb-bc0e-91ddd4f7c0a0"},"vehicle_type_id":"4","last_reported":1728785800,"current_range_meters":40000,"station_id":"ce4bh0h2rcd13ifvqd40","pricing_plan_id":"cebpf4jnsgd1na2vs0mg"},{"bike_id":"4ca0598f-fe28-40a0-9e39-8c40cc330a5d","system_id":"levelo_inurba_marseille","lat":43.28713,"lon":5.36097,"is_reserved":false,"is_disabled":false,"rental_uris":{"android":"levelo://app?vid=4ca0598f-fe28-40a0-9e39-8c40cc330a5d","ios":"levelo://app?vid=4ca0598f-fe28-40a0-9e39-8c40cc330a5d"},"vehicle_type_id":"4","last_reported":1728785800,"current_range_meters":24000,"station_id":"cki0cbj6b192h4jlfktg","pricing_plan_id":"cebpf4jnsgd1na2vs0mg"},{"bike_id":"be46f476-765f-412c-b01b-c17d3d8d1bd3","system_id":"levelo_inurba_marseille","lat":43.27832,"lon":5.39212,"is_reserved":false,"is_disabled":false,"rental_uris":{"android":"levelo://app?vid=be46f476-765f-412c-b01b-c17d3d8d1bd3","ios":"levelo://app?vid=be46f476-765f-412c-b01b-c17d3d8d1bd3"},"vehicle_type_id":"4","last_reported":1728785800,"current_range_meters":38400,"station_id":"ce4bhjp2rcd13ifvqga0","pricing_plan_id":"cebpf4jnsgd1na2vs0mg"},{"bike_id":"e0b3540a-442b-46a1-adb6-86b982b4e3c8","system_id":"levelo_inurba_marseille","lat":43.29365,"lon":5.37848,"is_reserved":false,"is_disabled":false,"rental_uris":{"android":"levelo://app?vid=e0b3540a-442b-46a1-adb6-86b982b4e3c8","ios":"levelo://app?vid=e0b3540a-442b-46a1-adb6-86b982b4e3c8"},"vehicle_type_id":"4","last_reported":1728785800,"current_range_meters":39200,"station_id":"ce4bgjh2rcd13ifvqbf0","pricing_plan_id":"cebpf4jnsgd1na2vs0mg"},{"bike_id":"cec1e807-225d-4073-b5be-e6b643c96f31","system_id":"levelo_inurba_marseille","lat":43.24985,"lon":5.38916,"is_reserved":false,"is_disabled":false,"rental_uris":{"android":"levelo://app?vid=cec1e807-225d-4073-b5be-e6b643c96f31","ios":"levelo://app?vid=cec1e807-225d-4073-b5be-e6b643c96f31"},"vehicle_type_id":"4","last_reported":1728785800,"current_range_meters":17200,"station_id":"ce4bhgp2rcd13ifvqfd0","pricing_plan_id":"cebpf4jnsgd1na2vs0mg"},{"bike_id":"0c5a1e5b-223f-4823-b9d2-d0b796dd3e79","system_id":"levelo_inurba_marseille","lat":43.28006,"lon":5.40017,"is_reserved":false,"is_disabled":false,"rental_uris":{"android":"levelo://app?vid=0c5a1e5b-223f-4823-b9d2-d0b796dd3e79","ios":"levelo://app?vid=0c5a1e5b-223f-4823-b9d2-d0b796dd3e79"},"vehicle_type_id":"4","last_reported":1728785800,"current_range_meters":39200,"station_id":"ce4bho92rcd13ifvqh4g","pricing_plan_id":"cebpf4jnsgd1na2vs0mg"},{"bike_id":"528f4478-dfd3-41b8-b0a8-7a1492a25f77","system_id":"levelo_inurba_marseille","lat":43.24814,"lon":5.3745,"is_reserved":false,"is_disabled":false,"rental_uris":{"android":"levelo://app?vid=528f4478-dfd3-41b8-b0a8-7a1492a25f77","ios":"levelo://app?vid=528f4478-dfd3-41b8-b0a8-7a1492a25f77"},"vehicle_type_id":"4","last_reported":1728785800,"current_range_meters":30000,"station_id":"ce4bhgh2rcd13ifvqfb0","pricing_plan_id":"cebpf4jnsgd1na2vs0mg"},{"bike_id":"b550d9a5-6d28-4849-919d-9ff3eacbcff1","system_id":"levelo_inurba_marseille","lat":43.31679,"lon":5.37793,"is_reserved":false,"is_disabled":false,"rental_uris":{"android":"levelo://app?vid=b550d9a5-6d28-4849-919d-9ff3eacbcff1","ios":"levelo://app?vid=b550d9a5-6d28-4849-919d-9ff3eacbcff1"},"vehicle_type_id":"4","last_reported":1728785800,"current_range_meters":26000,"station_id":"ce4bgth2rcd13ifvqch0","pricing_plan_id":"cebpf4jnsgd1na2vs0mg"},{"bike_id":"fce64ce7-88b3-471b-aac0-f30f3e66d244","system_id":"levelo_inurba_marseille","lat":43.25087,"lon":5.39517,"is_reserved":false,"is_disabled":false,"rental_uris":{"android":"levelo://app?vid=fce64ce7-88b3-471b-aac0-f30f3e66d244","ios":"levelo://app?vid=fce64ce7-88b3-471b-aac0-f30f3e66d244"},"vehicle_type_id":"4","last_reported":1728785800,"current_range_meters":33200,"station_id":"ce4bhm12rcd13ifvqgkg","pricing_plan_id":"cebpf4jnsgd1na2vs0mg"},{"bike_id":"14000b6a-5895-423e-892b-dab3a82bdc59","system_id":"levelo_inurba_marseille","lat":43.30943,"lon":5.40128,"is_reserved":false,"is_disabled":false,"rental_uris":{"android":"levelo://app?vid=14000b6a-5895-423e-892b-dab3a82bdc59","ios":"levelo://app?vid=14000b6a-5895-423e-892b-dab3a82bdc59"},"vehicle_type_id":"4","last_reported":1728785800,"current_range_meters":5600,"station_id":"ce4bgvp2rcd13ifvqct0","pricing_plan_id":"cebpf4jnsgd1na2vs0mg"},{"bike_id":"83a4174b-629d-4bc4-836e-304b13210d85","system_id":"levelo_inurba_marseille","lat":43.27975,"lon":5.41664,"is_reserved":false,"is_disabled":false,"rental_uris":{"android":"levelo://app?vid=83a4174b-629d-4bc4-836e-304b13210d85","ios":"levelo://app?vid=83a4174b-629d-4bc4-836e-304b13210d85"},"vehicle_type_id":"4","last_reported":1728785800,"current_range_meters":38400,"station_id":"ce4bho12rcd13ifvqh1g","pricing_plan_id":"cebpf4jnsgd1na2vs0mg"},{"bike_id":"76355937-c5fd-447b-8a3a-c1321aacfcef","system_id":"levelo_inurba_marseille","lat":43.28408,"lon":5.37519,"is_reserved":false,"is_disabled":false,"rental_uris":{"android":"levelo://app?vid=76355937-c5fd-447b-8a3a-c1321aacfcef","ios":"levelo://app?vid=76355937-c5fd-447b-8a3a-c1321aacfcef"},"vehicle_type_id":"4","last_reported":1728785800,"current_range_meters":12400,"station_id":"ce4bh412rcd13ifvqds0","pricing_plan_id":"cebpf4jnsgd1na2vs0mg"},{"bike_id":"584bee64-0da2-4704-bddf-9fe42be26e6a","system_id":"levelo_inurba_marseille","lat":43.23965,"lon":5.36632,"is_reserved":false,"is_disabled":false,"rental_uris":{"android":"levelo://app?vid=584bee64-0da2-4704-bddf-9fe42be26e6a","ios":"levelo://app?vid=584bee64-0da2-4704-bddf-9fe42be26e6a"},"vehicle_type_id":"4","last_reported":1728785800,"current_range_meters":6000,"station_id":"ce4bhi12rcd13ifvqfp0","pricing_plan_id":"cebpf4jnsgd1na2vs0mg"},{"bike_id":"baf8ed53-e2c2-4ad3-aaa7-cc53b8bdc41d","system_id":"levelo_inurba_marseille","lat":43.30922,"lon":5.40161,"is_reserved":false,"is_disabled":false,"rental_uris":{"android":"levelo://app?vid=baf8ed53-e2c2-4ad3-aaa7-cc53b8bdc41d","ios":"levelo://app?vid=baf8ed53-e2c2-4ad3-aaa7-cc53b8bdc41d"},"vehicle_type_id":"4","last_reported":1728785800,"current_range_meters":28400,"station_id":"ce4bgvp2rcd13ifvqct0","pricing_plan_id":"cebpf4jnsgd1na2vs0mg"},{"bike_id":"3545951b-894d-4495-afdf-84cb7b3b25b3","system_id":"levelo_inurba_marseille","lat":43.23194,"lon":5.35557,"is_reserved":false,"is_disabled":false,"rental_uris":{"android":"levelo://app?vid=3545951b-894d-4495-afdf-84cb7b3b25b3","ios":"levelo://app?vid=3545951b-894d-4495-afdf-84cb7b3b25b3"},"vehicle_type_id":"4","last_reported":1728785800,"current_range_meters":32000,"station_id":"ce4bhu92rcd13ifvqi70","pricing_plan_id":"cebpf4jnsgd1na2vs0mg"},{"bike_id":"94b5b3e5-1466-4cd8-b5b3-d5cbebabce80","system_id":"levelo_inurba_marseille","lat":43.23966,"lon":5.36629,"is_reserved":false,"is_disabled":false,"rental_uris":{"android":"levelo://app?vid=94b5b3e5-1466-4cd8-b5b3-d5cbebabce80","ios":"levelo://app?vid=94b5b3e5-1466-4cd8-b5b3-d5cbebabce80"},"vehicle_type_id":"4","last_reported":1728785800,"current_range_meters":8800,"station_id":"ce4bhi12rcd13ifvqfp0","pricing_plan_id":"cebpf4jnsgd1na2vs0mg"},{"bike_id":"1e0ba4c2-c2b3-495c-b6a3-283edf3c2c86","system_id":"levelo_inurba_marseille","lat":43.31061,"lon":5.38349,"is_reserved":false,"is_disabled":false,"rental_uris":{"android":"levelo://app?vid=1e0ba4c2-c2b3-495c-b6a3-283edf3c2c86","ios":"levelo://app?vid=1e0ba4c2-c2b3-495c-b6a3-283edf3c2c86"},"vehicle_type_id":"4","last_reported":1728785800,"current_range_meters":23200,"station_id":"ce4bgv92rcd13ifvqcr0","pricing_plan_id":"cebpf4jnsgd1na2vs0mg"},{"bike_id":"4566c200-8b97-4c3f-a93f-87eb55628c93","system_id":"levelo_inurba_marseille","lat":43.28665,"lon":5.36361,"is_reserved":false,"is_disabled":false,"rental_uris":{"android":"levelo://app?vid=4566c200-8b97-4c3f-a93f-87eb55628c93","ios":"levelo://app?vid=4566c200-8b97-4c3f-a93f-87eb55628c93"},"vehicle_type_id":"4","last_reported":1728785800,"current_range_meters":39200,"station_id":"ce4bhah2rcd13ifvqej0","pricing_plan_id":"cebpf4jnsgd1na2vs0mg"},{"bike_id":"f78f0412-ee71-4a24-82a9-83d0770be959","system_id":"levelo_inurba_marseille","lat":43.28374,"lon":5.38652,"is_reserved":false,"is_disabled":false,"rental_uris":{"android":"levelo://app?vid=f78f0412-ee71-4a24-82a9-83d0770be959","ios":"levelo://app?vid=f78f0412-ee71-4a24-82a9-83d0770be959"},"vehicle_type_id":"4","last_reported":1728785800,"current_range_meters":26800,"station_id":"ce4bh492rcd13ifvqdvg","pricing_plan_id":"cebpf4jnsgd1na2vs0mg"},{"bike_id":"c2e8a4ab-7069-4127-8aeb-68769d60ca60","system_id":"levelo_inurba_marseille","lat":43.31276,"lon":5.40149,"is_reserved":false,"is_disabled":false,"rental_uris":{"android":"levelo://app?vid=c2e8a4ab-7069-4127-8aeb-68769d60ca60","ios":"levelo://app?vid=c2e8a4ab-7069-4127-8aeb-68769d60ca60"},"vehicle_type_id":"4","last_reported":1728785800,"current_range_meters":9600,"station_id":"ce4bh092rcd13ifvqd30","pricing_plan_id":"cebpf4jnsgd1na2vs0mg"},{"bike_id":"ff3b7cf7-5831-4a80-b738-cee43e98a743","system_id":"levelo_inurba_marseille","lat":43.29582,"lon":5.39963,"is_reserved":false,"is_disabled":false,"rental_uris":{"android":"levelo://app?vid=ff3b7cf7-5831-4a80-b738-cee43e98a743","ios":"levelo://app?vid=ff3b7cf7-5831-4a80-b738-cee43e98a743"},"vehicle_type_id":"4","last_reported":1728785800,"current_range_meters":39200,"station_id":"ce4bh312rcd13ifvqdj0","pricing_plan_id":"cebpf4jnsgd1na2vs0mg"},{"bike_id":"691f04d9-e613-478c-a444-a861e98bc744","system_id":"levelo_inurba_marseille","lat":43.28724,"lon":5.37373,"is_reserved":false,"is_disabled":false,"rental_uris":{"android":"levelo://app?vid=691f04d9-e613-478c-a444-a861e98bc744","ios":"levelo://app?vid=691f04d9-e613-478c-a444-a861e98bc744"},"vehicle_type_id":"4","last_reported":1728785800,"current_range_meters":18000,"station_id":"ce4bh3p2rcd13ifvqdq0","pricing_plan_id":"cebpf4jnsgd1na2vs0mg"},{"bike_id":"cb4468aa-037b-40bc-8cba-4e10dd12ad2e","system_id":"levelo_inurba_marseille","lat":43.30763,"lon":5.37643,"is_reserved":false,"is_disabled":false,"rental_uris":{"android":"levelo://app?vid=cb4468aa-037b-40bc-8cba-4e10dd12ad2e","ios":"levelo://app?vid=cb4468aa-037b-40bc-8cba-4e10dd12ad2e"},"vehicle_type_id":"4","last_reported":1728785800,"current_range_meters":27600,"station_id":"ce4bgv92rcd13ifvqcq0","pricing_plan_id":"cebpf4jnsgd1na2vs0mg"},{"bike_id":"7a1ab491-d22b-4c8b-9da1-8d381008927f","system_id":"levelo_inurba_marseille","lat":43.25083,"lon":5.39509,"is_reserved":false,"is_disabled":false,"rental_uris":{"android":"levelo://app?vid=7a1ab491-d22b-4c8b-9da1-8d381008927f","ios":"levelo://app?vid=7a1ab491-d22b-4c8b-9da1-8d381008927f"},"vehicle_type_id":"4","last_reported":1728785800,"current_range_meters":39200,"station_id":"ce4bhm12rcd13ifvqgkg","pricing_plan_id":"cebpf4jnsgd1na2vs0mg"},{"bike_id":"25ed2710-8c35-44e6-81fd-8fc7cf6b54a8","system_id":"levelo_inurba_marseille","lat":43.274948,"lon":5.424466,"is_reserved":false,"is_disabled":false,"rental_uris":{"android":"levelo://app?vid=25ed2710-8c35-44e6-81fd-8fc7cf6b54a8","ios":"levelo://app?vid=25ed2710-8c35-44e6-81fd-8fc7cf6b54a8"},"vehicle_type_id":"4","last_reported":1728785800,"current_range_meters":23200,"station_id":"ce4bhn92rcd13ifvqgrg","pricing_plan_id":"cebpf4jnsgd1na2vs0mg"},{"bike_id":"701a46cd-56e8-4593-9151-18ac094e52f4","system_id":"levelo_inurba_marseille","lat":43.28725,"lon":5.36089,"is_reserved":false,"is_disabled":false,"rental_uris":{"android":"levelo://app?vid=701a46cd-56e8-4593-9151-18ac094e52f4","ios":"levelo://app?vid=701a46cd-56e8-4593-9151-18ac094e52f4"},"vehicle_type_id":"4","last_reported":1728785800,"current_range_meters":36000,"station_id":"cki0cbj6b192h4jlfktg","pricing_plan_id":"cebpf4jnsgd1na2vs0mg"},{"bike_id":"896f586c-d833-41e0-b675-3853bd2268ba","system_id":"levelo_inurba_marseille","lat":43.26813,"lon":5.40259,"is_reserved":false,"is_disabled":false,"rental_uris":{"android":"levelo://app?vid=896f586c-d833-41e0-b675-3853bd2268ba","ios":"levelo://app?vid=896f586c-d833-41e0-b675-3853bd2268ba"},"vehicle_type_id":"4","last_reported":1728785800,"current_range_meters":38800,"station_id":"ce501612rcd8frsf0b60","pricing_plan_id":"cebpf4jnsgd1na2vs0mg"},{"bike_id":"fda02240-df65-4d65-bbda-6f7e5d08eaf0","system_id":"levelo_inurba_marseille","lat":43.30415,"lon":5.41282,"is_reserved":false,"is_disabled":false,"rental_uris":{"android":"levelo://app?vid=fda02240-df65-4d65-bbda-6f7e5d08eaf0","ios":"levelo://app?vid=fda02240-df65-4d65-bbda-6f7e5d08eaf0"},"vehicle_type_id":"4","last_reported":1728785800,"current_range_meters":30000,"station_id":"ce4bhop2rcd13ifvqh8g","pricing_plan_id":"cebpf4jnsgd1na2vs0mg"},{"bike_id":"719b0a25-64dc-4191-b079-850d13a26630","system_id":"levelo_inurba_marseille","lat":43.27187,"lon":5.40987,"is_reserved":false,"is_disabled":false,"rental_uris":{"android":"levelo://app?vid=719b0a25-64dc-4191-b079-850d13a26630","ios":"levelo://app?vid=719b0a25-64dc-4191-b079-850d13a26630"},"vehicle_type_id":"4","last_reported":1728785800,"current_range_meters":32000,"station_id":"ce4bhl12rcd13ifvqgf0","pricing_plan_id":"cebpf4jnsgd1na2vs0mg"},{"bike_id":"fe82d686-3f2b-40b2-8e0c-9d663410e554","system_id":"levelo_inurba_marseille","lat":43.28706,"lon":5.39985,"is_reserved":false,"is_disabled":false,"rental_uris":{"android":"levelo://app?vid=fe82d686-3f2b-40b2-8e0c-9d663410e554","ios":"levelo://app?vid=fe82d686-3f2b-40b2-8e0c-9d663410e554"},"vehicle_type_id":"4","last_reported":1728785800,"current_range_meters":38400,"station_id":"ce4bho92rcd13ifvqh3g","pricing_plan_id":"cebpf4jnsgd1na2vs0mg"},{"bike_id":"25bd05f6-08ff-4b06-8248-ba7283397e95","system_id":"levelo_inurba_marseille","lat":43.27054,"lon":5.40268,"is_reserved":false,"is_disabled":false,"rental_uris":{"android":"levelo://app?vid=25bd05f6-08ff-4b06-8248-ba7283397e95","ios":"levelo://app?vid=25bd05f6-08ff-4b06-8248-ba7283397e95"},"vehicle_type_id":"4","last_reported":1728785800,"current_range_meters":32000,"station_id":"ce4bhk92rcd13ifvqgc0","pricing_plan_id":"cebpf4jnsgd1na2vs0mg"},{"bike_id":"5fcd241a-2ee4-49ed-a963-5e66485d4fea","system_id":"levelo_inurba_marseille","lat":43.24795,"lon":5.37449,"is_reserved":false,"is_disabled":false,"rental_uris":{"android":"levelo://app?vid=5fcd241a-2ee4-49ed-a963-5e66485d4fea","ios":"levelo://app?vid=5fcd241a-2ee4-49ed-a963-5e66485d4fea"},"vehicle_type_id":"4","last_reported":1728785800,"current_range_meters":16800,"station_id":"ce4bhgh2rcd13ifvqfb0","pricing_plan_id":"cebpf4jnsgd1na2vs0mg"},{"bike_id":"0773638a-4c32-4c69-ba2f-fd7b2ceae4a0","system_id":"levelo_inurba_marseille","lat":43.27612,"lon":5.36132,"is_reserved":false,"is_disabled":false,"rental_uris":{"android":"levelo://app?vid=0773638a-4c32-4c69-ba2f-fd7b2ceae4a0","ios":"levelo://app?vid=0773638a-4c32-4c69-ba2f-fd7b2ceae4a0"},"vehicle_type_id":"4","last_reported":1728785800,"current_range_meters":3200,"station_id":"ce4bgj92rcd13ifvqbe0","pricing_plan_id":"cebpf4jnsgd1na2vs0mg"},{"bike_id":"5ee10e32-f517-43ca-90c3-669e43f3ba43","system_id":"levelo_inurba_marseille","lat":43.24652,"lon":5.38898,"is_reserved":false,"is_disabled":false,"rental_uris":{"android":"levelo://app?vid=5ee10e32-f517-43ca-90c3-669e43f3ba43","ios":"levelo://app?vid=5ee10e32-f517-43ca-90c3-669e43f3ba43"},"vehicle_type_id":"4","last_reported":1728785800,"current_range_meters":17600,"station_id":"ce4bhg12rcd13ifvqf60","pricing_plan_id":"cebpf4jnsgd1na2vs0mg"},{"bike_id":"0e93c01b-9e71-4227-9295-5a4a2f7a0689","system_id":"levelo_inurba_marseille","lat":43.32659,"lon":5.40994,"is_reserved":false,"is_disabled":false,"rental_uris":{"android":"levelo://app?vid=0e93c01b-9e71-4227-9295-5a4a2f7a0689","ios":"levelo://app?vid=0e93c01b-9e71-4227-9295-5a4a2f7a0689"},"vehicle_type_id":"4","last_reported":1728785800,"current_range_meters":28000,"station_id":"ce4bhpp2rcd13ifvqhgg","pricing_plan_id":"cebpf4jnsgd1na2vs0mg"},{"bike_id":"19ed5c03-0e03-4011-aac5-3c05b288be88","system_id":"levelo_inurba_marseille","lat":43.30933,"lon":5.40144,"is_reserved":false,"is_disabled":false,"rental_uris":{"android":"levelo://app?vid=19ed5c03-0e03-4011-aac5-3c05b288be88","ios":"levelo://app?vid=19ed5c03-0e03-4011-aac5-3c05b288be88"},"vehicle_type_id":"4","last_reported":1728785800,"current_range_meters":32400,"station_id":"ce4bgvp2rcd13ifvqct0","pricing_plan_id":"cebpf4jnsgd1na2vs0mg"},{"bike_id":"12c16baa-fd96-4fd7-b545-6dd516b485e8","system_id":"levelo_inurba_marseille","lat":43.23192,"lon":5.39985,"is_reserved":false,"is_disabled":false,"rental_uris":{"android":"levelo://app?vid=12c16baa-fd96-4fd7-b545-6dd516b485e8","ios":"levelo://app?vid=12c16baa-fd96-4fd7-b545-6dd516b485e8"},"vehicle_type_id":"4","last_reported":1728785800,"current_range_meters":13600,"station_id":"ce4bhn12rcd13ifvqgqg","pricing_plan_id":"cebpf4jnsgd1na2vs0mg"},{"bike_id":"5f48668b-ea01-481e-99ee-35bc36a67628","system_id":"levelo_inurba_marseille","lat":43.2989,"lon":5.3974,"is_reserved":false,"is_disabled":false,"rental_uris":{"android":"levelo://app?vid=5f48668b-ea01-481e-99ee-35bc36a67628","ios":"levelo://app?vid=5f48668b-ea01-481e-99ee-35bc36a67628"},"vehicle_type_id":"4","last_reported":1728785800,"current_range_meters":8000,"station_id":"ce4bh0h2rcd13ifvqd50","pricing_plan_id":"cebpf4jnsgd1na2vs0mg"},{"bike_id":"fe754396-afc6-404d-a048-78535858a111","system_id":"levelo_inurba_marseille","lat":43.29195,"lon":5.3932,"is_reserved":false,"is_disabled":false,"rental_uris":{"android":"levelo://app?vid=fe754396-afc6-404d-a048-78535858a111","ios":"levelo://app?vid=fe754396-afc6-404d-a048-78535858a111"},"vehicle_type_id":"4","last_reported":1728785800,"current_range_meters":38000,"station_id":"ce4bh192rcd13ifvqdd0","pricing_plan_id":"cebpf4jnsgd1na2vs0mg"},{"bike_id":"5b60400f-1b06-4672-a005-6d0e007e96b6","system_id":"levelo_inurba_marseille","lat":43.25088,"lon":5.39519,"is_reserved":false,"is_disabled":false,"rental_uris":{"android":"levelo://app?vid=5b60400f-1b06-4672-a005-6d0e007e96b6","ios":"levelo://app?vid=5b60400f-1b06-4672-a005-6d0e007e96b6"},"vehicle_type_id":"4","last_reported":1728785800,"current_range_meters":38400,"station_id":"ce4bhm12rcd13ifvqgkg","pricing_plan_id":"cebpf4jnsgd1na2vs0mg"},{"bike_id":"e3cd8953-9e5a-44ad-a5cd-debf49a539ae","system_id":"levelo_inurba_marseille","lat":43.21242,"lon":5.35439,"is_reserved":false,"is_disabled":false,"rental_uris":{"android":"levelo://app?vid=e3cd8953-9e5a-44ad-a5cd-debf49a539ae","ios":"levelo://app?vid=e3cd8953-9e5a-44ad-a5cd-debf49a539ae"},"vehicle_type_id":"4","last_reported":1728785800,"current_range_meters":23200,"station_id":"","pricing_plan_id":"cebpf4jnsgd1na2vs0mg"},{"bike_id":"47d3d04e-9827-45c2-be83-981d774d4732","system_id":"levelo_inurba_marseille","lat":43.281,"lon":5.37866,"is_reserved":false,"is_disabled":false,"rental_uris":{"android":"levelo://app?vid=47d3d04e-9827-45c2-be83-981d774d4732","ios":"levelo://app?vid=47d3d04e-9827-45c2-be83-981d774d4732"},"vehicle_type_id":"4","last_reported":1728785800,"current_range_meters":32800,"station_id":"ce4bha12rcd13ifvqee0","pricing_plan_id":"cebpf4jnsgd1na2vs0mg"},{"bike_id":"de0f21a5-08fa-44c7-aeae-1fc9d6ad962e","system_id":"levelo_inurba_marseille","lat":43.26783,"lon":5.39416,"is_reserved":false,"is_disabled":false,"rental_uris":{"android":"levelo://app?vid=de0f21a5-08fa-44c7-aeae-1fc9d6ad962e","ios":"levelo://app?vid=de0f21a5-08fa-44c7-aeae-1fc9d6ad962e"},"vehicle_type_id":"4","last_reported":1728785800,"current_range_meters":39200,"station_id":"ce4bhh12rcd13ifvqfg0","pricing_plan_id":"cebpf4jnsgd1na2vs0mg"},{"bike_id":"53481144-5f5c-4acf-9f73-e042e6bba806","system_id":"levelo_inurba_marseille","lat":43.27926,"lon":5.41033,"is_reserved":false,"is_disabled":false,"rental_uris":{"android":"levelo://app?vid=53481144-5f5c-4acf-9f73-e042e6bba806","ios":"levelo://app?vid=53481144-5f5c-4acf-9f73-e042e6bba806"},"vehicle_type_id":"4","last_reported":1728785800,"current_range_meters":38800,"station_id":"ce4bhnp2rcd13ifvqh0g","pricing_plan_id":"cebpf4jnsgd1na2vs0mg"},{"bike_id":"f6103c57-3750-4486-9811-6430a6ccacba","system_id":"levelo_inurba_marseille","lat":43.30422,"lon":5.39755,"is_reserved":false,"is_disabled":false,"rental_uris":{"android":"levelo://app?vid=f6103c57-3750-4486-9811-6430a6ccacba","ios":"levelo://app?vid=f6103c57-3750-4486-9811-6430a6ccacba"},"vehicle_type_id":"4","last_reported":1728785800,"current_range_meters":38800,"station_id":"ce4bh092rcd13ifvqd20","pricing_plan_id":"cebpf4jnsgd1na2vs0mg"},{"bike_id":"744d7d46-a030-452d-827a-600610e2a098","system_id":"levelo_inurba_marseille","lat":43.23198,"lon":5.39998,"is_reserved":false,"is_disabled":false,"rental_uris":{"android":"levelo://app?vid=744d7d46-a030-452d-827a-600610e2a098","ios":"levelo://app?vid=744d7d46-a030-452d-827a-600610e2a098"},"vehicle_type_id":"4","last_reported":1728785800,"current_range_meters":36000,"station_id":"ce4bhn12rcd13ifvqgqg","pricing_plan_id":"cebpf4jnsgd1na2vs0mg"},{"bike_id":"c07591cb-630f-4a71-a82f-ad2dc6224f9e","system_id":"levelo_inurba_marseille","lat":43.29248,"lon":5.40898,"is_reserved":false,"is_disabled":false,"rental_uris":{"android":"levelo://app?vid=c07591cb-630f-4a71-a82f-ad2dc6224f9e","ios":"levelo://app?vid=c07591cb-630f-4a71-a82f-ad2dc6224f9e"},"vehicle_type_id":"4","last_reported":1728785800,"current_range_meters":18800,"station_id":"ce4bh192rcd13ifvqdc0","pricing_plan_id":"cebpf4jnsgd1na2vs0mg"},{"bike_id":"e6a8aec1-d448-48fb-b2d3-480453e7edf3","system_id":"levelo_inurba_marseille","lat":43.31693,"lon":5.39814,"is_reserved":false,"is_disabled":false,"rental_uris":{"android":"levelo://app?vid=e6a8aec1-d448-48fb-b2d3-480453e7edf3","ios":"levelo://app?vid=e6a8aec1-d448-48fb-b2d3-480453e7edf3"},"vehicle_type_id":"4","last_reported":1728785800,"current_range_meters":6800,"station_id":"","pricing_plan_id":"cebpf4jnsgd1na2vs0mg"},{"bike_id":"2209de58-94e1-4ae6-a8e8-e329b280a333","system_id":"levelo_inurba_marseille","lat":43.29779,"lon":5.3935,"is_reserved":false,"is_disabled":false,"rental_uris":{"android":"levelo://app?vid=2209de58-94e1-4ae6-a8e8-e329b280a333","ios":"levelo://app?vid=2209de58-94e1-4ae6-a8e8-e329b280a333"},"vehicle_type_id":"4","last_reported":1728785800,"current_range_meters":37600,"station_id":"chh1huq6cuj3fo74tm60","pricing_plan_id":"cebpf4jnsgd1na2vs0mg"},{"bike_id":"89793279-1700-4cb1-b883-7aa598b6d464","system_id":"levelo_inurba_marseille","lat":43.3078,"lon":5.4352,"is_reserved":false,"is_disabled":false,"rental_uris":{"android":"levelo://app?vid=89793279-1700-4cb1-b883-7aa598b6d464","ios":"levelo://app?vid=89793279-1700-4cb1-b883-7aa598b6d464"},"vehicle_type_id":"4","last_reported":1728785800,"current_range_meters":38800,"station_id":"ce4bhph2rcd13ifvqheg","pricing_plan_id":"cebpf4jnsgd1na2vs0mg"},{"bike_id":"b78daff3-5199-4e93-9072-ea07b6c356c4","system_id":"levelo_inurba_marseille","lat":43.29791,"lon":5.39358,"is_reserved":false,"is_disabled":false,"rental_uris":{"android":"levelo://app?vid=b78daff3-5199-4e93-9072-ea07b6c356c4","ios":"levelo://app?vid=b78daff3-5199-4e93-9072-ea07b6c356c4"},"vehicle_type_id":"4","last_reported":1728785800,"current_range_meters":12800,"station_id":"chh1huq6cuj3fo74tm60","pricing_plan_id":"cebpf4jnsgd1na2vs0mg"},{"bike_id":"6c88fd04-8064-4b69-af89-437a91515c00","system_id":"levelo_inurba_marseille","lat":43.28447,"lon":5.35894,"is_reserved":false,"is_disabled":false,"rental_uris":{"android":"levelo://app?vid=6c88fd04-8064-4b69-af89-437a91515c00","ios":"levelo://app?vid=6c88fd04-8064-4b69-af89-437a91515c00"},"vehicle_type_id":"4","last_reported":1728785800,"current_range_meters":30000,"station_id":"ce4bhah2rcd13ifvqei0","pricing_plan_id":"cebpf4jnsgd1na2vs0mg"},{"bike_id":"b660b1de-33ae-4c98-8e3b-5ed7431ea87f","system_id":"levelo_inurba_marseille","lat":43.2857,"lon":5.39477,"is_reserved":false,"is_disabled":false,"rental_uris":{"android":"levelo://app?vid=b660b1de-33ae-4c98-8e3b-5ed7431ea87f","ios":"levelo://app?vid=b660b1de-33ae-4c98-8e3b-5ed7431ea87f"},"vehicle_type_id":"4","last_reported":1728785800,"current_range_meters":24400,"station_id":"ce4bh292rcd13ifvqdg0","pricing_plan_id":"cebpf4jnsgd1na2vs0mg"},{"bike_id":"92c1af36-5649-40f5-84ed-a7b062884571","system_id":"levelo_inurba_marseille","lat":43.23968,"lon":5.36636,"is_reserved":false,"is_disabled":false,"rental_uris":{"android":"levelo://app?vid=92c1af36-5649-40f5-84ed-a7b062884571","ios":"levelo://app?vid=92c1af36-5649-40f5-84ed-a7b062884571"},"vehicle_type_id":"4","last_reported":1728785800,"current_range_meters":31200,"station_id":"ce4bhi12rcd13ifvqfp0","pricing_plan_id":"cebpf4jnsgd1na2vs0mg"},{"bike_id":"3b75fe99-810f-40ef-9f84-d5b1cf667dc9","system_id":"levelo_inurba_marseille","lat":43.23146,"lon":5.43695,"is_reserved":false,"is_disabled":false,"rental_uris":{"android":"levelo://app?vid=3b75fe99-810f-40ef-9f84-d5b1cf667dc9","ios":"levelo://app?vid=3b75fe99-810f-40ef-9f84-d5b1cf667dc9"},"vehicle_type_id":"4","last_reported":1728785800,"current_range_meters":27200,"station_id":"ce4bhmp2rcd13ifvqgog","pricing_plan_id":"cebpf4jnsgd1na2vs0mg"},{"bike_id":"6cb5b02c-2401-484a-8b7d-b4d2106d6b08","system_id":"levelo_inurba_marseille","lat":43.23192,"lon":5.35574,"is_reserved":false,"is_disabled":false,"rental_uris":{"android":"levelo://app?vid=6cb5b02c-2401-484a-8b7d-b4d2106d6b08","ios":"levelo://app?vid=6cb5b02c-2401-484a-8b7d-b4d2106d6b08"},"vehicle_type_id":"4","last_reported":1728785800,"current_range_meters":27600,"station_id":"ce4bhu92rcd13ifvqi70","pricing_plan_id":"cebpf4jnsgd1na2vs0mg"},{"bike_id":"ea203679-8246-41bb-bc64-80edd7e095b0","system_id":"levelo_inurba_marseille","lat":43.33029,"lon":5.39044,"is_reserved":false,"is_disabled":false,"rental_uris":{"android":"levelo://app?vid=ea203679-8246-41bb-bc64-80edd7e095b0","ios":"levelo://app?vid=ea203679-8246-41bb-bc64-80edd7e095b0"},"vehicle_type_id":"4","last_reported":1728785800,"current_range_meters":19200,"station_id":"ce4bhr92rcd13ifvqhrg","pricing_plan_id":"cebpf4jnsgd1na2vs0mg"},{"bike_id":"f7dd1dc7-fa4b-4758-aac5-4419d54d56ad","system_id":"levelo_inurba_marseille","lat":43.31765,"lon":5.39021,"is_reserved":false,"is_disabled":false,"rental_uris":{"android":"levelo://app?vid=f7dd1dc7-fa4b-4758-aac5-4419d54d56ad","ios":"levelo://app?vid=f7dd1dc7-fa4b-4758-aac5-4419d54d56ad"},"vehicle_type_id":"4","last_reported":1728785800,"current_range_meters":39200,"station_id":"ce4bhqp2rcd13ifvqhng","pricing_plan_id":"cebpf4jnsgd1na2vs0mg"},{"bike_id":"5342387b-13bf-4ecc-b703-417c00eeeeae","system_id":"levelo_inurba_marseille","lat":43.24667,"lon":5.38171,"is_reserved":false,"is_disabled":false,"rental_uris":{"android":"levelo://app?vid=5342387b-13bf-4ecc-b703-417c00eeeeae","ios":"levelo://app?vid=5342387b-13bf-4ecc-b703-417c00eeeeae"},"vehicle_type_id":"4","last_reported":1728785800,"current_range_meters":39200,"station_id":"ce4bhih2rcd13ifvqfr0","pricing_plan_id":"cebpf4jnsgd1na2vs0mg"},{"bike_id":"85d40a0b-6e41-423e-b8a4-abfc7ba5bddd","system_id":"levelo_inurba_marseille","lat":43.29786,"lon":5.39348,"is_reserved":false,"is_disabled":false,"rental_uris":{"android":"levelo://app?vid=85d40a0b-6e41-423e-b8a4-abfc7ba5bddd","ios":"levelo://app?vid=85d40a0b-6e41-423e-b8a4-abfc7ba5bddd"},"vehicle_type_id":"4","last_reported":1728785800,"current_range_meters":13600,"station_id":"chh1huq6cuj3fo74tm60","pricing_plan_id":"cebpf4jnsgd1na2vs0mg"},{"bike_id":"cb2c6844-d14b-4d2c-aaea-c9da9a7efe9c","system_id":"levelo_inurba_marseille","lat":43.2928,"lon":5.40113,"is_reserved":false,"is_disabled":false,"rental_uris":{"android":"levelo://app?vid=cb2c6844-d14b-4d2c-aaea-c9da9a7efe9c","ios":"levelo://app?vid=cb2c6844-d14b-4d2c-aaea-c9da9a7efe9c"},"vehicle_type_id":"4","last_reported":1728785800,"current_range_meters":22400,"station_id":"ce4bh312rcd13ifvqdk0","pricing_plan_id":"cebpf4jnsgd1na2vs0mg"},{"bike_id":"dcfc6243-ecbd-4ed9-8080-b4ca7e333c28","system_id":"levelo_inurba_marseille","lat":43.30365,"lon":5.419019,"is_reserved":false,"is_disabled":false,"rental_uris":{"android":"levelo://app?vid=dcfc6243-ecbd-4ed9-8080-b4ca7e333c28","ios":"levelo://app?vid=dcfc6243-ecbd-4ed9-8080-b4ca7e333c28"},"vehicle_type_id":"4","last_reported":1728785800,"current_range_meters":28800,"station_id":"ce4bhop2rcd13ifvqh7g","pricing_plan_id":"cebpf4jnsgd1na2vs0mg"},{"bike_id":"be4313f1-e696-46c8-a409-1f501df0671e","system_id":"levelo_inurba_marseille","lat":43.29556,"lon":5.42283,"is_reserved":false,"is_disabled":false,"rental_uris":{"android":"levelo://app?vid=be4313f1-e696-46c8-a409-1f501df0671e","ios":"levelo://app?vid=be4313f1-e696-46c8-a409-1f501df0671e"},"vehicle_type_id":"4","last_reported":1728785800,"current_range_meters":5600,"station_id":"ce4bhph2rcd13ifvqhdg","pricing_plan_id":"cebpf4jnsgd1na2vs0mg"},{"bike_id":"9918290f-2b14-46fa-b63a-39827b599a5a","system_id":"levelo_inurba_marseille","lat":43.28728,"lon":5.37943,"is_reserved":false,"is_disabled":false,"rental_uris":{"android":"levelo://app?vid=9918290f-2b14-46fa-b63a-39827b599a5a","ios":"levelo://app?vid=9918290f-2b14-46fa-b63a-39827b599a5a"},"vehicle_type_id":"4","last_reported":1728785800,"current_range_meters":39200,"station_id":"ce4bh9p2rcd13ifvqec0","pricing_plan_id":"cebpf4jnsgd1na2vs0mg"},{"bike_id":"9f83e5ce-da23-425f-a4a3-58fab8fd16c2","system_id":"levelo_inurba_marseille","lat":43.28917,"lon":5.384,"is_reserved":false,"is_disabled":false,"rental_uris":{"android":"levelo://app?vid=9f83e5ce-da23-425f-a4a3-58fab8fd16c2","ios":"levelo://app?vid=9f83e5ce-da23-425f-a4a3-58fab8fd16c2"},"vehicle_type_id":"4","last_reported":1728785800,"current_range_meters":18000,"station_id":"ce4bh612rcd13ifvqe6g","pricing_plan_id":"cebpf4jnsgd1na2vs0mg"},{"bike_id":"dec436c1-d01a-4e4e-a66d-a687a7901d68","system_id":"levelo_inurba_marseille","lat":43.25096,"lon":5.40305,"is_reserved":false,"is_disabled":false,"rental_uris":{"android":"levelo://app?vid=dec436c1-d01a-4e4e-a66d-a687a7901d68","ios":"levelo://app?vid=dec436c1-d01a-4e4e-a66d-a687a7901d68"},"vehicle_type_id":"4","last_reported":1728785800,"current_range_meters":37600,"station_id":"ce4bhlh2rcd13ifvqgig","pricing_plan_id":"cebpf4jnsgd1na2vs0mg"},{"bike_id":"24174b17-9a1a-42fc-b28d-ccdf79ae4c31","system_id":"levelo_inurba_marseille","lat":43.28151,"lon":5.42639,"is_reserved":false,"is_disabled":false,"rental_uris":{"android":"levelo://app?vid=24174b17-9a1a-42fc-b28d-ccdf79ae4c31","ios":"levelo://app?vid=24174b17-9a1a-42fc-b28d-ccdf79ae4c31"},"vehicle_type_id":"4","last_reported":1728785800,"current_range_meters":14400,"station_id":"ce4bhnh2rcd13ifvqgug","pricing_plan_id":"cebpf4jnsgd1na2vs0mg"},{"bike_id":"accb871e-a6d6-4416-b0e7-cca548384eeb","system_id":"levelo_inurba_marseille","lat":43.26549,"lon":5.37283,"is_reserved":false,"is_disabled":false,"rental_uris":{"android":"levelo://app?vid=accb871e-a6d6-4416-b0e7-cca548384eeb","ios":"levelo://app?vid=accb871e-a6d6-4416-b0e7-cca548384eeb"},"vehicle_type_id":"4","last_reported":1728785800,"current_range_meters":35200,"station_id":"ce4bhg12rcd13ifvqf70","pricing_plan_id":"cebpf4jnsgd1na2vs0mg"},{"bike_id":"b73a330a-d417-463b-93f0-d89461813f6e","system_id":"levelo_inurba_marseille","lat":43.25501,"lon":5.37647,"is_reserved":false,"is_disabled":false,"rental_uris":{"android":"levelo://app?vid=b73a330a-d417-463b-93f0-d89461813f6e","ios":"levelo://app?vid=b73a330a-d417-463b-93f0-d89461813f6e"},"vehicle_type_id":"4","last_reported":1728785800,"current_range_meters":26000,"station_id":"ce4bhh12rcd13ifvqff0","pricing_plan_id":"cebpf4jnsgd1na2vs0mg"},{"bike_id":"360bf9d4-7a7a-4363-a459-888c749281e7","system_id":"levelo_inurba_marseille","lat":43.30296,"lon":5.37693,"is_reserved":false,"is_disabled":false,"rental_uris":{"android":"levelo://app?vid=360bf9d4-7a7a-4363-a459-888c749281e7","ios":"levelo://app?vid=360bf9d4-7a7a-4363-a459-888c749281e7"},"vehicle_type_id":"4","last_reported":1728785800,"current_range_meters":39200,"station_id":"ce4bguh2rcd13ifvqcj0","pricing_plan_id":"cebpf4jnsgd1na2vs0mg"},{"bike_id":"3007dc77-68fe-48f0-9c9f-7319b5e9fc9b","system_id":"levelo_inurba_marseille","lat":43.2828,"lon":5.35081,"is_reserved":false,"is_disabled":false,"rental_uris":{"android":"levelo://app?vid=3007dc77-68fe-48f0-9c9f-7319b5e9fc9b","ios":"levelo://app?vid=3007dc77-68fe-48f0-9c9f-7319b5e9fc9b"},"vehicle_type_id":"4","last_reported":1728785800,"current_range_meters":17600,"station_id":"ce4bhbp2rcd13ifvqerg","pricing_plan_id":"cebpf4jnsgd1na2vs0mg"},{"bike_id":"5bcb25d4-03ca-4ec9-8291-a3375ad99d18","system_id":"levelo_inurba_marseille","lat":43.34141,"lon":5.40904,"is_reserved":false,"is_disabled":false,"rental_uris":{"android":"levelo://app?vid=5bcb25d4-03ca-4ec9-8291-a3375ad99d18","ios":"levelo://app?vid=5bcb25d4-03ca-4ec9-8291-a3375ad99d18"},"vehicle_type_id":"4","last_reported":1728785800,"current_range_meters":38000,"station_id":"ce4bhqh2rcd13ifvqhlg","pricing_plan_id":"cebpf4jnsgd1na2vs0mg"},{"bike_id":"f463bffd-395b-45c4-87b1-620a763388ae","system_id":"levelo_inurba_marseille","lat":43.25862,"lon":5.3991,"is_reserved":false,"is_disabled":false,"rental_uris":{"android":"levelo://app?vid=f463bffd-395b-45c4-87b1-620a763388ae","ios":"levelo://app?vid=f463bffd-395b-45c4-87b1-620a763388ae"},"vehicle_type_id":"4","last_reported":1728785800,"current_range_meters":34000,"station_id":"ce4bhl92rcd13ifvqghg","pricing_plan_id":"cebpf4jnsgd1na2vs0mg"},{"bike_id":"9de88846-ec06-446f-b2e6-b28d79b5db8f","system_id":"levelo_inurba_marseille","lat":43.29551,"lon":5.42289,"is_reserved":false,"is_disabled":false,"rental_uris":{"android":"levelo://app?vid=9de88846-ec06-446f-b2e6-b28d79b5db8f","ios":"levelo://app?vid=9de88846-ec06-446f-b2e6-b28d79b5db8f"},"vehicle_type_id":"4","last_reported":1728785800,"current_range_meters":34800,"station_id":"ce4bhph2rcd13ifvqhdg","pricing_plan_id":"cebpf4jnsgd1na2vs0mg"},{"bike_id":"b08fa96b-eb8d-4c39-b650-c88eaf1c64b5","system_id":"levelo_inurba_marseille","lat":43.29717,"lon":5.36606,"is_reserved":false,"is_disabled":false,"rental_uris":{"android":"levelo://app?vid=b08fa96b-eb8d-4c39-b650-c88eaf1c64b5","ios":"levelo://app?vid=b08fa96b-eb8d-4c39-b650-c88eaf1c64b5"},"vehicle_type_id":"4","last_reported":1728785800,"current_range_meters":38000,"station_id":"ce4bgn12rcd13ifvqbt0","pricing_plan_id":"cebpf4jnsgd1na2vs0mg"},{"bike_id":"480ba30a-4ada-425e-af97-b5973d3180cb","system_id":"levelo_inurba_marseille","lat":43.28661,"lon":5.36362,"is_reserved":false,"is_disabled":false,"rental_uris":{"android":"levelo://app?vid=480ba30a-4ada-425e-af97-b5973d3180cb","ios":"levelo://app?vid=480ba30a-4ada-425e-af97-b5973d3180cb"},"vehicle_type_id":"4","last_reported":1728785800,"current_range_meters":28400,"station_id":"ce4bhah2rcd13ifvqej0","pricing_plan_id":"cebpf4jnsgd1na2vs0mg"},{"bike_id":"25e59862-8a09-482d-b3a5-7138deb4afc5","system_id":"levelo_inurba_marseille","lat":43.2306,"lon":5.35493,"is_reserved":false,"is_disabled":false,"rental_uris":{"android":"levelo://app?vid=25e59862-8a09-482d-b3a5-7138deb4afc5","ios":"levelo://app?vid=25e59862-8a09-482d-b3a5-7138deb4afc5"},"vehicle_type_id":"4","last_reported":1728785800,"current_range_meters":8000,"station_id":"cpo3342slgdg3j2ifvpg","pricing_plan_id":"cebpf4jnsgd1na2vs0mg"},{"bike_id":"3113907b-5542-4c19-a74e-85ae1b131d1a","system_id":"levelo_inurba_marseille","lat":43.26928,"lon":5.38929,"is_reserved":false,"is_disabled":false,"rental_uris":{"android":"levelo://app?vid=3113907b-5542-4c19-a74e-85ae1b131d1a","ios":"levelo://app?vid=3113907b-5542-4c19-a74e-85ae1b131d1a"},"vehicle_type_id":"4","last_reported":1728785800,"current_range_meters":14800,"station_id":"ce4bhhh2rcd13ifvqfl0","pricing_plan_id":"cebpf4jnsgd1na2vs0mg"},{"bike_id":"81e6a043-ed21-48b2-b5f1-f14f165151cc","system_id":"levelo_inurba_marseille","lat":43.27989,"lon":5.41654,"is_reserved":false,"is_disabled":false,"rental_uris":{"android":"levelo://app?vid=81e6a043-ed21-48b2-b5f1-f14f165151cc","ios":"levelo://app?vid=81e6a043-ed21-48b2-b5f1-f14f165151cc"},"vehicle_type_id":"4","last_reported":1728785800,"current_range_meters":37600,"station_id":"ce4bho12rcd13ifvqh1g","pricing_plan_id":"cebpf4jnsgd1na2vs0mg"},{"bike_id":"b933402b-d1ca-49a8-bbf7-fb19281d941c","system_id":"levelo_inurba_marseille","lat":43.23188,"lon":5.35562,"is_reserved":false,"is_disabled":false,"rental_uris":{"android":"levelo://app?vid=b933402b-d1ca-49a8-bbf7-fb19281d941c","ios":"levelo://app?vid=b933402b-d1ca-49a8-bbf7-fb19281d941c"},"vehicle_type_id":"4","last_reported":1728785800,"current_range_meters":17200,"station_id":"ce4bhu92rcd13ifvqi70","pricing_plan_id":"cebpf4jnsgd1na2vs0mg"},{"bike_id":"e2e70154-1a45-4078-9872-304a786fca1e","system_id":"levelo_inurba_marseille","lat":43.25575,"lon":5.38235,"is_reserved":false,"is_disabled":false,"rental_uris":{"android":"levelo://app?vid=e2e70154-1a45-4078-9872-304a786fca1e","ios":"levelo://app?vid=e2e70154-1a45-4078-9872-304a786fca1e"},"vehicle_type_id":"4","last_reported":1728785800,"current_range_meters":36400,"station_id":"ce4bhih2rcd13ifvqfs0","pricing_plan_id":"cebpf4jnsgd1na2vs0mg"},{"bike_id":"9e702e73-81cb-4a09-96d1-bfe75db728a2","system_id":"levelo_inurba_marseille","lat":43.28568,"lon":5.39494,"is_reserved":false,"is_disabled":false,"rental_uris":{"android":"levelo://app?vid=9e702e73-81cb-4a09-96d1-bfe75db728a2","ios":"levelo://app?vid=9e702e73-81cb-4a09-96d1-bfe75db728a2"},"vehicle_type_id":"4","last_reported":1728785800,"current_range_meters":39200,"station_id":"ce4bh292rcd13ifvqdg0","pricing_plan_id":"cebpf4jnsgd1na2vs0mg"},{"bike_id":"e65d2ca6-a0f5-4f5c-abac-545d677d9b92","system_id":"levelo_inurba_marseille","lat":43.29892,"lon":5.39717,"is_reserved":false,"is_disabled":false,"rental_uris":{"android":"levelo://app?vid=e65d2ca6-a0f5-4f5c-abac-545d677d9b92","ios":"levelo://app?vid=e65d2ca6-a0f5-4f5c-abac-545d677d9b92"},"vehicle_type_id":"4","last_reported":1728785800,"current_range_meters":38800,"station_id":"ce4bh0h2rcd13ifvqd50","pricing_plan_id":"cebpf4jnsgd1na2vs0mg"},{"bike_id":"19aa7608-a69a-45f5-929e-9e41f8fa104a","system_id":"levelo_inurba_marseille","lat":43.29581,"lon":5.39963,"is_reserved":false,"is_disabled":false,"rental_uris":{"android":"levelo://app?vid=19aa7608-a69a-45f5-929e-9e41f8fa104a","ios":"levelo://app?vid=19aa7608-a69a-45f5-929e-9e41f8fa104a"},"vehicle_type_id":"4","last_reported":1728785800,"current_range_meters":37600,"station_id":"ce4bh312rcd13ifvqdj0","pricing_plan_id":"cebpf4jnsgd1na2vs0mg"},{"bike_id":"122cd6bd-53e9-4444-b678-5bc0a2fcf757","system_id":"levelo_inurba_marseille","lat":43.29778,"lon":5.39353,"is_reserved":false,"is_disabled":false,"rental_uris":{"android":"levelo://app?vid=122cd6bd-53e9-4444-b678-5bc0a2fcf757","ios":"levelo://app?vid=122cd6bd-53e9-4444-b678-5bc0a2fcf757"},"vehicle_type_id":"4","last_reported":1728785800,"current_range_meters":38000,"station_id":"chh1huq6cuj3fo74tm60","pricing_plan_id":"cebpf4jnsgd1na2vs0mg"},{"bike_id":"1dbb835e-7e76-477d-a73e-0f6fdca4b106","system_id":"levelo_inurba_marseille","lat":43.23182,"lon":5.39971,"is_reserved":false,"is_disabled":false,"rental_uris":{"android":"levelo://app?vid=1dbb835e-7e76-477d-a73e-0f6fdca4b106","ios":"levelo://app?vid=1dbb835e-7e76-477d-a73e-0f6fdca4b106"},"vehicle_type_id":"4","last_reported":1728785800,"current_range_meters":14000,"station_id":"ce4bhn12rcd13ifvqgqg","pricing_plan_id":"cebpf4jnsgd1na2vs0mg"},{"bike_id":"d751b74f-afbb-4075-ac46-9547555eee0f","system_id":"levelo_inurba_marseille","lat":43.32365,"lon":5.38889,"is_reserved":false,"is_disabled":false,"rental_uris":{"android":"levelo://app?vid=d751b74f-afbb-4075-ac46-9547555eee0f","ios":"levelo://app?vid=d751b74f-afbb-4075-ac46-9547555eee0f"},"vehicle_type_id":"4","last_reported":1728785800,"current_range_meters":17600,"station_id":"ce4bhqp2rcd13ifvqhog","pricing_plan_id":"cebpf4jnsgd1na2vs0mg"},{"bike_id":"3357dbf0-06e3-4a05-8c7c-9717c6b97eba","system_id":"levelo_inurba_marseille","lat":43.31875,"lon":5.40734,"is_reserved":false,"is_disabled":false,"rental_uris":{"android":"levelo://app?vid=3357dbf0-06e3-4a05-8c7c-9717c6b97eba","ios":"levelo://app?vid=3357dbf0-06e3-4a05-8c7c-9717c6b97eba"},"vehicle_type_id":"4","last_reported":1728785800,"current_range_meters":38800,"station_id":"ce4bhq12rcd13ifvqhig","pricing_plan_id":"cebpf4jnsgd1na2vs0mg"},{"bike_id":"262ad37d-8ad8-447a-9929-14549db2fbc3","system_id":"levelo_inurba_marseille","lat":43.3054,"lon":5.38428,"is_reserved":false,"is_disabled":false,"rental_uris":{"android":"levelo://app?vid=262ad37d-8ad8-447a-9929-14549db2fbc3","ios":"levelo://app?vid=262ad37d-8ad8-447a-9929-14549db2fbc3"},"vehicle_type_id":"4","last_reported":1728785800,"current_range_meters":36800,"station_id":"ce4bgg92rcd13ifvqb30","pricing_plan_id":"cebpf4jnsgd1na2vs0mg"},{"bike_id":"d4844357-2af5-420a-8b37-e0d284076ab6","system_id":"levelo_inurba_marseille","lat":43.28732,"lon":5.36089,"is_reserved":false,"is_disabled":false,"rental_uris":{"android":"levelo://app?vid=d4844357-2af5-420a-8b37-e0d284076ab6","ios":"levelo://app?vid=d4844357-2af5-420a-8b37-e0d284076ab6"},"vehicle_type_id":"4","last_reported":1728785800,"current_range_meters":11600,"station_id":"cki0cbj6b192h4jlfktg","pricing_plan_id":"cebpf4jnsgd1na2vs0mg"},{"bike_id":"b8bbef47-5bf5-4faf-90a0-8d9d05e147b1","system_id":"levelo_inurba_marseille","lat":43.29548,"lon":5.42275,"is_reserved":false,"is_disabled":false,"rental_uris":{"android":"levelo://app?vid=b8bbef47-5bf5-4faf-90a0-8d9d05e147b1","ios":"levelo://app?vid=b8bbef47-5bf5-4faf-90a0-8d9d05e147b1"},"vehicle_type_id":"4","last_reported":1728785800,"current_range_meters":8800,"station_id":"ce4bhph2rcd13ifvqhdg","pricing_plan_id":"cebpf4jnsgd1na2vs0mg"},{"bike_id":"dd488bb6-2002-40e1-9ea4-29c41547f763","system_id":"levelo_inurba_marseille","lat":43.28343,"lon":5.38677,"is_reserved":false,"is_disabled":false,"rental_uris":{"android":"levelo://app?vid=dd488bb6-2002-40e1-9ea4-29c41547f763","ios":"levelo://app?vid=dd488bb6-2002-40e1-9ea4-29c41547f763"},"vehicle_type_id":"4","last_reported":1728785800,"current_range_meters":38000,"station_id":"ce4bh492rcd13ifvqdvg","pricing_plan_id":"cebpf4jnsgd1na2vs0mg"},{"bike_id":"acbe997b-a9be-49ac-ad5e-d0e8fdd650d9","system_id":"levelo_inurba_marseille","lat":43.27826,"lon":5.39205,"is_reserved":false,"is_disabled":false,"rental_uris":{"android":"levelo://app?vid=acbe997b-a9be-49ac-ad5e-d0e8fdd650d9","ios":"levelo://app?vid=acbe997b-a9be-49ac-ad5e-d0e8fdd650d9"},"vehicle_type_id":"4","last_reported":1728785800,"current_range_meters":38800,"station_id":"ce4bhjp2rcd13ifvqga0","pricing_plan_id":"cebpf4jnsgd1na2vs0mg"},{"bike_id":"736f3d1f-39a5-4752-90b4-6b334b5fd0b7","system_id":"levelo_inurba_marseille","lat":43.27835,"lon":5.3921,"is_reserved":false,"is_disabled":false,"rental_uris":{"android":"levelo://app?vid=736f3d1f-39a5-4752-90b4-6b334b5fd0b7","ios":"levelo://app?vid=736f3d1f-39a5-4752-90b4-6b334b5fd0b7"},"vehicle_type_id":"4","last_reported":1728785800,"current_range_meters":30400,"station_id":"ce4bhjp2rcd13ifvqga0","pricing_plan_id":"cebpf4jnsgd1na2vs0mg"},{"bike_id":"df347eec-7bcf-4f56-8684-7275a87904b5","system_id":"levelo_inurba_marseille","lat":43.31275,"lon":5.40166,"is_reserved":false,"is_disabled":false,"rental_uris":{"android":"levelo://app?vid=df347eec-7bcf-4f56-8684-7275a87904b5","ios":"levelo://app?vid=df347eec-7bcf-4f56-8684-7275a87904b5"},"vehicle_type_id":"4","last_reported":1728785800,"current_range_meters":25600,"station_id":"ce4bh092rcd13ifvqd30","pricing_plan_id":"cebpf4jnsgd1na2vs0mg"},{"bike_id":"922be445-130b-423a-97a6-dbeed6eb1c41","system_id":"levelo_inurba_marseille","lat":43.31712,"lon":5.37686,"is_reserved":false,"is_disabled":false,"rental_uris":{"android":"levelo://app?vid=922be445-130b-423a-97a6-dbeed6eb1c41","ios":"levelo://app?vid=922be445-130b-423a-97a6-dbeed6eb1c41"},"vehicle_type_id":"4","last_reported":1728785800,"current_range_meters":39200,"station_id":"ce4bgth2rcd13ifvqch0","pricing_plan_id":"cebpf4jnsgd1na2vs0mg"},{"bike_id":"6ff31e22-dbdf-494f-8326-d5712a233c5a","system_id":"levelo_inurba_marseille","lat":43.25823,"lon":5.39444,"is_reserved":false,"is_disabled":false,"rental_uris":{"android":"levelo://app?vid=6ff31e22-dbdf-494f-8326-d5712a233c5a","ios":"levelo://app?vid=6ff31e22-dbdf-494f-8326-d5712a233c5a"},"vehicle_type_id":"4","last_reported":1728785800,"current_range_meters":38800,"station_id":"ce4bhip2rcd13ifvqft0","pricing_plan_id":"cebpf4jnsgd1na2vs0mg"},{"bike_id":"4e18dddc-2684-4cf8-8c31-345dd1f8f224","system_id":"levelo_inurba_marseille","lat":43.2793,"lon":5.41035,"is_reserved":false,"is_disabled":false,"rental_uris":{"android":"levelo://app?vid=4e18dddc-2684-4cf8-8c31-345dd1f8f224","ios":"levelo://app?vid=4e18dddc-2684-4cf8-8c31-345dd1f8f224"},"vehicle_type_id":"4","last_reported":1728785800,"current_range_meters":36800,"station_id":"ce4bhnp2rcd13ifvqh0g","pricing_plan_id":"cebpf4jnsgd1na2vs0mg"},{"bike_id":"af1a61bb-7795-450f-9b3c-d036a05bd030","system_id":"levelo_inurba_marseille","lat":43.23184,"lon":5.39982,"is_reserved":false,"is_disabled":false,"rental_uris":{"android":"levelo://app?vid=af1a61bb-7795-450f-9b3c-d036a05bd030","ios":"levelo://app?vid=af1a61bb-7795-450f-9b3c-d036a05bd030"},"vehicle_type_id":"4","last_reported":1728785800,"current_range_meters":2800,"station_id":"ce4bhn12rcd13ifvqgqg","pricing_plan_id":"cebpf4jnsgd1na2vs0mg"},{"bike_id":"7515fbf5-8461-4ad0-926b-30f3d74dd813","system_id":"levelo_inurba_marseille","lat":43.27835,"lon":5.39209,"is_reserved":false,"is_disabled":false,"rental_uris":{"android":"levelo://app?vid=7515fbf5-8461-4ad0-926b-30f3d74dd813","ios":"levelo://app?vid=7515fbf5-8461-4ad0-926b-30f3d74dd813"},"vehicle_type_id":"4","last_reported":1728785800,"current_range_meters":19600,"station_id":"ce4bhjp2rcd13ifvqga0","pricing_plan_id":"cebpf4jnsgd1na2vs0mg"},{"bike_id":"3acd2b91-164c-407e-b94a-edd233958129","system_id":"levelo_inurba_marseille","lat":43.29633,"lon":5.40595,"is_reserved":false,"is_disabled":false,"rental_uris":{"android":"levelo://app?vid=3acd2b91-164c-407e-b94a-edd233958129","ios":"levelo://app?vid=3acd2b91-164c-407e-b94a-edd233958129"},"vehicle_type_id":"4","last_reported":1728785800,"current_range_meters":33200,"station_id":"ce4bh0h2rcd13ifvqd60","pricing_plan_id":"cebpf4jnsgd1na2vs0mg"},{"bike_id":"e4f0f21e-0c3d-4d74-b01c-3addb8ce8acf","system_id":"levelo_inurba_marseille","lat":43.2835,"lon":5.38098,"is_reserved":false,"is_disabled":false,"rental_uris":{"android":"levelo://app?vid=e4f0f21e-0c3d-4d74-b01c-3addb8ce8acf","ios":"levelo://app?vid=e4f0f21e-0c3d-4d74-b01c-3addb8ce8acf"},"vehicle_type_id":"4","last_reported":1728785800,"current_range_meters":3600,"station_id":"ce4bh412rcd13ifvqdr0","pricing_plan_id":"cebpf4jnsgd1na2vs0mg"},{"bike_id":"e6336660-e5d0-4336-aab6-9e2081b4b551","system_id":"levelo_inurba_marseille","lat":43.33728,"lon":5.39199,"is_reserved":false,"is_disabled":false,"rental_uris":{"android":"levelo://app?vid=e6336660-e5d0-4336-aab6-9e2081b4b551","ios":"levelo://app?vid=e6336660-e5d0-4336-aab6-9e2081b4b551"},"vehicle_type_id":"4","last_reported":1728785800,"current_range_meters":19600,"station_id":"ce4bhr92rcd13ifvqhsg","pricing_plan_id":"cebpf4jnsgd1na2vs0mg"},{"bike_id":"c40a2ff4-f3a0-440e-9dc0-13231ecdc1c7","system_id":"levelo_inurba_marseille","lat":43.28412,"lon":5.35002,"is_reserved":false,"is_disabled":false,"rental_uris":{"android":"levelo://app?vid=c40a2ff4-f3a0-440e-9dc0-13231ecdc1c7","ios":"levelo://app?vid=c40a2ff4-f3a0-440e-9dc0-13231ecdc1c7"},"vehicle_type_id":"4","last_reported":1728785800,"current_range_meters":20400,"station_id":"ce4bhbh2rcd13ifvqepg","pricing_plan_id":"cebpf4jnsgd1na2vs0mg"},{"bike_id":"73dd85c9-f526-4350-b659-634165490578","system_id":"levelo_inurba_marseille","lat":43.24807,"lon":5.37456,"is_reserved":false,"is_disabled":false,"rental_uris":{"android":"levelo://app?vid=73dd85c9-f526-4350-b659-634165490578","ios":"levelo://app?vid=73dd85c9-f526-4350-b659-634165490578"},"vehicle_type_id":"4","last_reported":1728785800,"current_range_meters":39200,"station_id":"ce4bhgh2rcd13ifvqfb0","pricing_plan_id":"cebpf4jnsgd1na2vs0mg"},{"bike_id":"044266cd-4193-4e68-b41a-09213cc4d7a1","system_id":"levelo_inurba_marseille","lat":43.31321,"lon":5.39682,"is_reserved":false,"is_disabled":false,"rental_uris":{"android":"levelo://app?vid=044266cd-4193-4e68-b41a-09213cc4d7a1","ios":"levelo://app?vid=044266cd-4193-4e68-b41a-09213cc4d7a1"},"vehicle_type_id":"4","last_reported":1728785800,"current_range_meters":28000,"station_id":"ce4bgvp2rcd13ifvqcu0","pricing_plan_id":"cebpf4jnsgd1na2vs0mg"},{"bike_id":"b2e9e370-9210-49f2-a2bc-03587913b57f","system_id":"levelo_inurba_marseille","lat":43.32457,"lon":5.3654,"is_reserved":false,"is_disabled":false,"rental_uris":{"android":"levelo://app?vid=b2e9e370-9210-49f2-a2bc-03587913b57f","ios":"levelo://app?vid=b2e9e370-9210-49f2-a2bc-03587913b57f"},"vehicle_type_id":"4","last_reported":1728785800,"current_range_meters":38800,"station_id":"ce4bhs12rcd13ifvqhvg","pricing_plan_id":"cebpf4jnsgd1na2vs0mg"},{"bike_id":"481d4a64-c13e-4b1a-96fa-dd57bb8f6c30","system_id":"levelo_inurba_marseille","lat":43.30348,"lon":5.40432,"is_reserved":false,"is_disabled":false,"rental_uris":{"android":"levelo://app?vid=481d4a64-c13e-4b1a-96fa-dd57bb8f6c30","ios":"levelo://app?vid=481d4a64-c13e-4b1a-96fa-dd57bb8f6c30"},"vehicle_type_id":"4","last_reported":1728785800,"current_range_meters":30800,"station_id":"ce4bh012rcd13ifvqd10","pricing_plan_id":"cebpf4jnsgd1na2vs0mg"},{"bike_id":"55582e1e-1cd8-4e96-933c-025471d1c473","system_id":"levelo_inurba_marseille","lat":43.26936,"lon":5.38925,"is_reserved":false,"is_disabled":false,"rental_uris":{"android":"levelo://app?vid=55582e1e-1cd8-4e96-933c-025471d1c473","ios":"levelo://app?vid=55582e1e-1cd8-4e96-933c-025471d1c473"},"vehicle_type_id":"4","last_reported":1728785800,"current_range_meters":8400,"station_id":"ce4bhhh2rcd13ifvqfl0","pricing_plan_id":"cebpf4jnsgd1na2vs0mg"},{"bike_id":"3281a0ec-58fb-4380-9d49-ea93cb621c0c","system_id":"levelo_inurba_marseille","lat":43.30256,"lon":5.40068,"is_reserved":false,"is_disabled":false,"rental_uris":{"android":"levelo://app?vid=3281a0ec-58fb-4380-9d49-ea93cb621c0c","ios":"levelo://app?vid=3281a0ec-58fb-4380-9d49-ea93cb621c0c"},"vehicle_type_id":"4","last_reported":1728785800,"current_range_meters":32400,"station_id":"ce4bgvh2rcd13ifvqcs0","pricing_plan_id":"cebpf4jnsgd1na2vs0mg"},{"bike_id":"d436aba9-cd69-47a3-8be1-18efe961d690","system_id":"levelo_inurba_marseille","lat":43.28661,"lon":5.36354,"is_reserved":false,"is_disabled":false,"rental_uris":{"android":"levelo://app?vid=d436aba9-cd69-47a3-8be1-18efe961d690","ios":"levelo://app?vid=d436aba9-cd69-47a3-8be1-18efe961d690"},"vehicle_type_id":"4","last_reported":1728785800,"current_range_meters":38800,"station_id":"ce4bhah2rcd13ifvqej0","pricing_plan_id":"cebpf4jnsgd1na2vs0mg"},{"bike_id":"98ee9e6c-a436-48c3-aa6d-74d566a0ee14","system_id":"levelo_inurba_marseille","lat":43.25818,"lon":5.39433,"is_reserved":false,"is_disabled":false,"rental_uris":{"android":"levelo://app?vid=98ee9e6c-a436-48c3-aa6d-74d566a0ee14","ios":"levelo://app?vid=98ee9e6c-a436-48c3-aa6d-74d566a0ee14"},"vehicle_type_id":"4","last_reported":1728785800,"current_range_meters":38800,"station_id":"ce4bhip2rcd13ifvqft0","pricing_plan_id":"cebpf4jnsgd1na2vs0mg"},{"bike_id":"e1f9486c-3843-42a6-aacd-4c828c67520a","system_id":"levelo_inurba_marseille","lat":43.23047,"lon":5.35506,"is_reserved":false,"is_disabled":false,"rental_uris":{"android":"levelo://app?vid=e1f9486c-3843-42a6-aacd-4c828c67520a","ios":"levelo://app?vid=e1f9486c-3843-42a6-aacd-4c828c67520a"},"vehicle_type_id":"4","last_reported":1728785800,"current_range_meters":32800,"station_id":"cpo3342slgdg3j2ifvpg","pricing_plan_id":"cebpf4jnsgd1na2vs0mg"},{"bike_id":"a3479177-b457-47ec-b52c-e5f9f3b8a8ca","system_id":"levelo_inurba_marseille","lat":43.27841,"lon":5.39204,"is_reserved":false,"is_disabled":false,"rental_uris":{"android":"levelo://app?vid=a3479177-b457-47ec-b52c-e5f9f3b8a8ca","ios":"levelo://app?vid=a3479177-b457-47ec-b52c-e5f9f3b8a8ca"},"vehicle_type_id":"4","last_reported":1728785800,"current_range_meters":36800,"station_id":"ce4bhjp2rcd13ifvqga0","pricing_plan_id":"cebpf4jnsgd1na2vs0mg"},{"bike_id":"17f0a58b-fa96-470d-a1b0-89c2a0c2bfbe","system_id":"levelo_inurba_marseille","lat":43.23191,"lon":5.35551,"is_reserved":false,"is_disabled":false,"rental_uris":{"android":"levelo://app?vid=17f0a58b-fa96-470d-a1b0-89c2a0c2bfbe","ios":"levelo://app?vid=17f0a58b-fa96-470d-a1b0-89c2a0c2bfbe"},"vehicle_type_id":"4","last_reported":1728785800,"current_range_meters":19600,"station_id":"ce4bhu92rcd13ifvqi70","pricing_plan_id":"cebpf4jnsgd1na2vs0mg"},{"bike_id":"9ef63fcd-347c-41b6-ae8c-e5889881fb6b","system_id":"levelo_inurba_marseille","lat":43.28566,"lon":5.39509,"is_reserved":false,"is_disabled":false,"rental_uris":{"android":"levelo://app?vid=9ef63fcd-347c-41b6-ae8c-e5889881fb6b","ios":"levelo://app?vid=9ef63fcd-347c-41b6-ae8c-e5889881fb6b"},"vehicle_type_id":"4","last_reported":1728785800,"current_range_meters":38000,"station_id":"ce4bh292rcd13ifvqdg0","pricing_plan_id":"cebpf4jnsgd1na2vs0mg"},{"bike_id":"529b30fd-dd8e-4438-bbea-8a2515b235d5","system_id":"levelo_inurba_marseille","lat":43.28445,"lon":5.35893,"is_reserved":false,"is_disabled":false,"rental_uris":{"android":"levelo://app?vid=529b30fd-dd8e-4438-bbea-8a2515b235d5","ios":"levelo://app?vid=529b30fd-dd8e-4438-bbea-8a2515b235d5"},"vehicle_type_id":"4","last_reported":1728785800,"current_range_meters":39200,"station_id":"ce4bhah2rcd13ifvqei0","pricing_plan_id":"cebpf4jnsgd1na2vs0mg"},{"bike_id":"9767619a-3281-47be-939c-b6e115d5bcf9","system_id":"levelo_inurba_marseille","lat":43.27999,"lon":5.40008,"is_reserved":false,"is_disabled":false,"rental_uris":{"android":"levelo://app?vid=9767619a-3281-47be-939c-b6e115d5bcf9","ios":"levelo://app?vid=9767619a-3281-47be-939c-b6e115d5bcf9"},"vehicle_type_id":"4","last_reported":1728785800,"current_range_meters":38000,"station_id":"ce4bho92rcd13ifvqh4g","pricing_plan_id":"cebpf4jnsgd1na2vs0mg"},{"bike_id":"a6346a84-eb58-4259-8f5c-834589e4bcec","system_id":"levelo_inurba_marseille","lat":43.32543,"lon":5.41423,"is_reserved":false,"is_disabled":false,"rental_uris":{"android":"levelo://app?vid=a6346a84-eb58-4259-8f5c-834589e4bcec","ios":"levelo://app?vid=a6346a84-eb58-4259-8f5c-834589e4bcec"},"vehicle_type_id":"4","last_reported":1728785800,"current_range_meters":39200,"station_id":"ce4bhq12rcd13ifvqhhg","pricing_plan_id":"cebpf4jnsgd1na2vs0mg"},{"bike_id":"0383fd16-e9b8-4410-b536-493a9708d1c6","system_id":"levelo_inurba_marseille","lat":43.33017,"lon":5.39045,"is_reserved":false,"is_disabled":false,"rental_uris":{"android":"levelo://app?vid=0383fd16-e9b8-4410-b536-493a9708d1c6","ios":"levelo://app?vid=0383fd16-e9b8-4410-b536-493a9708d1c6"},"vehicle_type_id":"4","last_reported":1728785800,"current_range_meters":39200,"station_id":"ce4bhr92rcd13ifvqhrg","pricing_plan_id":"cebpf4jnsgd1na2vs0mg"},{"bike_id":"b25409bc-df4d-476a-893e-c6a5838692b2","system_id":"levelo_inurba_marseille","lat":43.23192,"lon":5.35561,"is_reserved":false,"is_disabled":false,"rental_uris":{"android":"levelo://app?vid=b25409bc-df4d-476a-893e-c6a5838692b2","ios":"levelo://app?vid=b25409bc-df4d-476a-893e-c6a5838692b2"},"vehicle_type_id":"4","last_reported":1728785800,"current_range_meters":39200,"station_id":"ce4bhu92rcd13ifvqi70","pricing_plan_id":"cebpf4jnsgd1na2vs0mg"},{"bike_id":"887fedf8-944b-42a2-ab80-88181529dcf8","system_id":"levelo_inurba_marseille","lat":43.2806,"lon":5.40985,"is_reserved":false,"is_disabled":false,"rental_uris":{"android":"levelo://app?vid=887fedf8-944b-42a2-ab80-88181529dcf8","ios":"levelo://app?vid=887fedf8-944b-42a2-ab80-88181529dcf8"},"vehicle_type_id":"4","last_reported":1728785800,"current_range_meters":35200,"station_id":"","pricing_plan_id":"cebpf4jnsgd1na2vs0mg"},{"bike_id":"26c930a6-2b08-4dc9-b241-c60fbe1820fa","system_id":"levelo_inurba_marseille","lat":43.3237,"lon":5.38885,"is_reserved":false,"is_disabled":false,"rental_uris":{"android":"levelo://app?vid=26c930a6-2b08-4dc9-b241-c60fbe1820fa","ios":"levelo://app?vid=26c930a6-2b08-4dc9-b241-c60fbe1820fa"},"vehicle_type_id":"4","last_reported":1728785800,"current_range_meters":38800,"station_id":"ce4bhqp2rcd13ifvqhog","pricing_plan_id":"cebpf4jnsgd1na2vs0mg"},{"bike_id":"8fb2b431-bcb9-46ba-80fb-e26e84592fc5","system_id":"levelo_inurba_marseille","lat":43.23193,"lon":5.35553,"is_reserved":false,"is_disabled":false,"rental_uris":{"android":"levelo://app?vid=8fb2b431-bcb9-46ba-80fb-e26e84592fc5","ios":"levelo://app?vid=8fb2b431-bcb9-46ba-80fb-e26e84592fc5"},"vehicle_type_id":"4","last_reported":1728785800,"current_range_meters":28400,"station_id":"ce4bhu92rcd13ifvqi70","pricing_plan_id":"cebpf4jnsgd1na2vs0mg"},{"bike_id":"4b2e8f9e-ecd0-4291-9fee-2fd269b3180c","system_id":"levelo_inurba_marseille","lat":43.32493,"lon":5.3655,"is_reserved":false,"is_disabled":false,"rental_uris":{"android":"levelo://app?vid=4b2e8f9e-ecd0-4291-9fee-2fd269b3180c","ios":"levelo://app?vid=4b2e8f9e-ecd0-4291-9fee-2fd269b3180c"},"vehicle_type_id":"4","last_reported":1728785800,"current_range_meters":37600,"station_id":"ce4bhs12rcd13ifvqhvg","pricing_plan_id":"cebpf4jnsgd1na2vs0mg"},{"bike_id":"05b7de8e-0432-4ca6-9443-88c3e42ebb31","system_id":"levelo_inurba_marseille","lat":43.30634,"lon":5.40068,"is_reserved":false,"is_disabled":false,"rental_uris":{"android":"levelo://app?vid=05b7de8e-0432-4ca6-9443-88c3e42ebb31","ios":"levelo://app?vid=05b7de8e-0432-4ca6-9443-88c3e42ebb31"},"vehicle_type_id":"4","last_reported":1728785800,"current_range_meters":28000,"station_id":"ce4bh112rcd13ifvqda0","pricing_plan_id":"cebpf4jnsgd1na2vs0mg"},{"bike_id":"0a349fec-db0d-4802-be55-64ab3ca00c3d","system_id":"levelo_inurba_marseille","lat":43.28826,"lon":5.35859,"is_reserved":false,"is_disabled":false,"rental_uris":{"android":"levelo://app?vid=0a349fec-db0d-4802-be55-64ab3ca00c3d","ios":"levelo://app?vid=0a349fec-db0d-4802-be55-64ab3ca00c3d"},"vehicle_type_id":"4","last_reported":1728785800,"current_range_meters":38800,"station_id":"ce4bhb12rcd13ifvqem0","pricing_plan_id":"cebpf4jnsgd1na2vs0mg"},{"bike_id":"e2f25126-29b7-4581-a4fe-9e458716fb1d","system_id":"levelo_inurba_marseille","lat":43.2396,"lon":5.36624,"is_reserved":false,"is_disabled":false,"rental_uris":{"android":"levelo://app?vid=e2f25126-29b7-4581-a4fe-9e458716fb1d","ios":"levelo://app?vid=e2f25126-29b7-4581-a4fe-9e458716fb1d"},"vehicle_type_id":"4","last_reported":1728785800,"current_range_meters":26000,"station_id":"ce4bhi12rcd13ifvqfp0","pricing_plan_id":"cebpf4jnsgd1na2vs0mg"},{"bike_id":"4ec08f3e-201a-4bcf-846f-57279c6ce76f","system_id":"levelo_inurba_marseille","lat":43.29252,"lon":5.40902,"is_reserved":false,"is_disabled":false,"rental_uris":{"android":"levelo://app?vid=4ec08f3e-201a-4bcf-846f-57279c6ce76f","ios":"levelo://app?vid=4ec08f3e-201a-4bcf-846f-57279c6ce76f"},"vehicle_type_id":"4","last_reported":1728785800,"current_range_meters":39200,"station_id":"ce4bh192rcd13ifvqdc0","pricing_plan_id":"cebpf4jnsgd1na2vs0mg"},{"bike_id":"1d9529da-ac84-4dac-abfe-a990f86899c0","system_id":"levelo_inurba_marseille","lat":43.24694,"lon":5.38147,"is_reserved":false,"is_disabled":false,"rental_uris":{"android":"levelo://app?vid=1d9529da-ac84-4dac-abfe-a990f86899c0","ios":"levelo://app?vid=1d9529da-ac84-4dac-abfe-a990f86899c0"},"vehicle_type_id":"4","last_reported":1728785800,"current_range_meters":28400,"station_id":"ce4bhih2rcd13ifvqfr0","pricing_plan_id":"cebpf4jnsgd1na2vs0mg"},{"bike_id":"f79e89d1-d707-4b12-93c0-a8b2cba42263","system_id":"levelo_inurba_marseille","lat":43.2658,"lon":5.38994,"is_reserved":false,"is_disabled":false,"rental_uris":{"android":"levelo://app?vid=f79e89d1-d707-4b12-93c0-a8b2cba42263","ios":"levelo://app?vid=f79e89d1-d707-4b12-93c0-a8b2cba42263"},"vehicle_type_id":"4","last_reported":1728785800,"current_range_meters":38800,"station_id":"ce4bhe12rcd13ifvqf30","pricing_plan_id":"cebpf4jnsgd1na2vs0mg"},{"bike_id":"972e1e50-2e1e-454f-8635-5ea35f00e6a7","system_id":"levelo_inurba_marseille","lat":43.30474,"lon":5.40168,"is_reserved":false,"is_disabled":false,"rental_uris":{"android":"levelo://app?vid=972e1e50-2e1e-454f-8635-5ea35f00e6a7","ios":"levelo://app?vid=972e1e50-2e1e-454f-8635-5ea35f00e6a7"},"vehicle_type_id":"4","last_reported":1728785800,"current_range_meters":35200,"station_id":"","pricing_plan_id":"cebpf4jnsgd1na2vs0mg"},{"bike_id":"509c75f1-6dee-4835-b593-0a35aaec2b07","system_id":"levelo_inurba_marseille","lat":43.30879,"lon":5.39641,"is_reserved":false,"is_disabled":false,"rental_uris":{"android":"levelo://app?vid=509c75f1-6dee-4835-b593-0a35aaec2b07","ios":"levelo://app?vid=509c75f1-6dee-4835-b593-0a35aaec2b07"},"vehicle_type_id":"4","last_reported":1728785800,"current_range_meters":39200,"station_id":"ce4bh012rcd13ifvqcv0","pricing_plan_id":"cebpf4jnsgd1na2vs0mg"},{"bike_id":"a00de00a-905c-4db5-a610-907d6a3631fb","system_id":"levelo_inurba_marseille","lat":43.31711,"lon":5.42413,"is_reserved":false,"is_disabled":false,"rental_uris":{"android":"levelo://app?vid=a00de00a-905c-4db5-a610-907d6a3631fb","ios":"levelo://app?vid=a00de00a-905c-4db5-a610-907d6a3631fb"},"vehicle_type_id":"4","last_reported":1728785800,"current_range_meters":32800,"station_id":"ce4bhp92rcd13ifvqhbg","pricing_plan_id":"cebpf4jnsgd1na2vs0mg"},{"bike_id":"c1bdab01-61f4-4686-be86-51c60a19e08d","system_id":"levelo_inurba_marseille","lat":43.29035,"lon":5.37559,"is_reserved":false,"is_disabled":false,"rental_uris":{"android":"levelo://app?vid=c1bdab01-61f4-4686-be86-51c60a19e08d","ios":"levelo://app?vid=c1bdab01-61f4-4686-be86-51c60a19e08d"},"vehicle_type_id":"4","last_reported":1728785800,"current_range_meters":38800,"station_id":"ce4bh692rcd13ifvqe90","pricing_plan_id":"cebpf4jnsgd1na2vs0mg"},{"bike_id":"6f6aa75e-2312-4bd3-bf06-df20614f1ef1","system_id":"levelo_inurba_marseille","lat":43.23196,"lon":5.39998,"is_reserved":false,"is_disabled":false,"rental_uris":{"android":"levelo://app?vid=6f6aa75e-2312-4bd3-bf06-df20614f1ef1","ios":"levelo://app?vid=6f6aa75e-2312-4bd3-bf06-df20614f1ef1"},"vehicle_type_id":"4","last_reported":1728785800,"current_range_meters":6400,"station_id":"ce4bhn12rcd13ifvqgqg","pricing_plan_id":"cebpf4jnsgd1na2vs0mg"},{"bike_id":"e6049eb7-a913-4c30-b891-92576278de4c","system_id":"levelo_inurba_marseille","lat":43.248,"lon":5.37456,"is_reserved":false,"is_disabled":false,"rental_uris":{"android":"levelo://app?vid=e6049eb7-a913-4c30-b891-92576278de4c","ios":"levelo://app?vid=e6049eb7-a913-4c30-b891-92576278de4c"},"vehicle_type_id":"4","last_reported":1728785800,"current_range_meters":30400,"station_id":"ce4bhgh2rcd13ifvqfb0","pricing_plan_id":"cebpf4jnsgd1na2vs0mg"},{"bike_id":"4a51eeb1-90bb-4b6a-8bb1-d54eccd9376f","system_id":"levelo_inurba_marseille","lat":43.28286,"lon":5.35086,"is_reserved":false,"is_disabled":false,"rental_uris":{"android":"levelo://app?vid=4a51eeb1-90bb-4b6a-8bb1-d54eccd9376f","ios":"levelo://app?vid=4a51eeb1-90bb-4b6a-8bb1-d54eccd9376f"},"vehicle_type_id":"4","last_reported":1728785800,"current_range_meters":25600,"station_id":"ce4bhbp2rcd13ifvqerg","pricing_plan_id":"cebpf4jnsgd1na2vs0mg"},{"bike_id":"1f6da07d-6221-4aec-a348-09aa636acfd5","system_id":"levelo_inurba_marseille","lat":43.27157,"lon":5.41,"is_reserved":false,"is_disabled":false,"rental_uris":{"android":"levelo://app?vid=1f6da07d-6221-4aec-a348-09aa636acfd5","ios":"levelo://app?vid=1f6da07d-6221-4aec-a348-09aa636acfd5"},"vehicle_type_id":"4","last_reported":1728785800,"current_range_meters":39200,"station_id":"ce4bhl12rcd13ifvqgf0","pricing_plan_id":"cebpf4jnsgd1na2vs0mg"},{"bike_id":"5a94b4b9-d430-47fb-9ca8-ac46a3d24520","system_id":"levelo_inurba_marseille","lat":43.2843,"lon":5.39191,"is_reserved":false,"is_disabled":false,"rental_uris":{"android":"levelo://app?vid=5a94b4b9-d430-47fb-9ca8-ac46a3d24520","ios":"levelo://app?vid=5a94b4b9-d430-47fb-9ca8-ac46a3d24520"},"vehicle_type_id":"4","last_reported":1728785800,"current_range_meters":16400,"station_id":"ce4bhoh2rcd13ifvqh5g","pricing_plan_id":"cebpf4jnsgd1na2vs0mg"},{"bike_id":"0e715dda-ad8c-4db5-ab6f-a2f571af8c87","system_id":"levelo_inurba_marseille","lat":43.31154,"lon":5.38724,"is_reserved":false,"is_disabled":false,"rental_uris":{"android":"levelo://app?vid=0e715dda-ad8c-4db5-ab6f-a2f571af8c87","ios":"levelo://app?vid=0e715dda-ad8c-4db5-ab6f-a2f571af8c87"},"vehicle_type_id":"4","last_reported":1728785800,"current_range_meters":9200,"station_id":"ce4bgv12rcd13ifvqcp0","pricing_plan_id":"cebpf4jnsgd1na2vs0mg"},{"bike_id":"f3ee8275-4858-4a5d-98ed-6e1feaa66473","system_id":"levelo_inurba_marseille","lat":43.26805,"lon":5.40256,"is_reserved":false,"is_disabled":false,"rental_uris":{"android":"levelo://app?vid=f3ee8275-4858-4a5d-98ed-6e1feaa66473","ios":"levelo://app?vid=f3ee8275-4858-4a5d-98ed-6e1feaa66473"},"vehicle_type_id":"4","last_reported":1728785800,"current_range_meters":37600,"station_id":"ce501612rcd8frsf0b60","pricing_plan_id":"cebpf4jnsgd1na2vs0mg"},{"bike_id":"bb81938b-b4b4-4c07-9ecc-2be73736f0b6","system_id":"levelo_inurba_marseille","lat":43.27066,"lon":5.42278,"is_reserved":false,"is_disabled":false,"rental_uris":{"android":"levelo://app?vid=bb81938b-b4b4-4c07-9ecc-2be73736f0b6","ios":"levelo://app?vid=bb81938b-b4b4-4c07-9ecc-2be73736f0b6"},"vehicle_type_id":"4","last_reported":1728785800,"current_range_meters":11600,"station_id":"ce4bhk92rcd13ifvqgb0","pricing_plan_id":"cebpf4jnsgd1na2vs0mg"},{"bike_id":"6a065387-3877-465d-86e0-9e6d72903917","system_id":"levelo_inurba_marseille","lat":43.32038,"lon":5.41563,"is_reserved":false,"is_disabled":false,"rental_uris":{"android":"levelo://app?vid=6a065387-3877-465d-86e0-9e6d72903917","ios":"levelo://app?vid=6a065387-3877-465d-86e0-9e6d72903917"},"vehicle_type_id":"4","last_reported":1728785800,"current_range_meters":28800,"station_id":"ce4bhq92rcd13ifvqhkg","pricing_plan_id":"cebpf4jnsgd1na2vs0mg"},{"bike_id":"42c511ee-8603-4850-bfb8-63bad3f3359a","system_id":"levelo_inurba_marseille","lat":43.30112,"lon":5.39855,"is_reserved":false,"is_disabled":false,"rental_uris":{"android":"levelo://app?vid=42c511ee-8603-4850-bfb8-63bad3f3359a","ios":"levelo://app?vid=42c511ee-8603-4850-bfb8-63bad3f3359a"},"vehicle_type_id":"4","last_reported":1728785800,"current_range_meters":18800,"station_id":"ce4bh0h2rcd13ifvqd40","pricing_plan_id":"cebpf4jnsgd1na2vs0mg"},{"bike_id":"ed46c01a-e808-497e-bab0-4e396bdc551c","system_id":"levelo_inurba_marseille","lat":43.2846,"lon":5.38431,"is_reserved":false,"is_disabled":false,"rental_uris":{"android":"levelo://app?vid=ed46c01a-e808-497e-bab0-4e396bdc551c","ios":"levelo://app?vid=ed46c01a-e808-497e-bab0-4e396bdc551c"},"vehicle_type_id":"4","last_reported":1728785800,"current_range_meters":28000,"station_id":"ce4bh512rcd13ifvqe3g","pricing_plan_id":"cebpf4jnsgd1na2vs0mg"},{"bike_id":"d0bd3e91-81ba-405f-b7e3-a682fce6aab6","system_id":"levelo_inurba_marseille","lat":43.23193,"lon":5.40001,"is_reserved":false,"is_disabled":false,"rental_uris":{"android":"levelo://app?vid=d0bd3e91-81ba-405f-b7e3-a682fce6aab6","ios":"levelo://app?vid=d0bd3e91-81ba-405f-b7e3-a682fce6aab6"},"vehicle_type_id":"4","last_reported":1728785800,"current_range_meters":30800,"station_id":"ce4bhn12rcd13ifvqgqg","pricing_plan_id":"cebpf4jnsgd1na2vs0mg"},{"bike_id":"1dd63510-d3dc-49a0-9b34-4150d50fbc89","system_id":"levelo_inurba_marseille","lat":43.30889,"lon":5.39663,"is_reserved":false,"is_disabled":false,"rental_uris":{"android":"levelo://app?vid=1dd63510-d3dc-49a0-9b34-4150d50fbc89","ios":"levelo://app?vid=1dd63510-d3dc-49a0-9b34-4150d50fbc89"},"vehicle_type_id":"4","last_reported":1728785800,"current_range_meters":8400,"station_id":"ce4bh012rcd13ifvqcv0","pricing_plan_id":"cebpf4jnsgd1na2vs0mg"},{"bike_id":"e53d9dac-6d16-4334-ad56-d0d38fcf4eb7","system_id":"levelo_inurba_marseille","lat":43.28001,"lon":5.41807,"is_reserved":false,"is_disabled":false,"rental_uris":{"android":"levelo://app?vid=e53d9dac-6d16-4334-ad56-d0d38fcf4eb7","ios":"levelo://app?vid=e53d9dac-6d16-4334-ad56-d0d38fcf4eb7"},"vehicle_type_id":"4","last_reported":1728785800,"current_range_meters":26800,"station_id":"","pricing_plan_id":"cebpf4jnsgd1na2vs0mg"},{"bike_id":"d65efb3b-2afa-45d2-bcce-b806ada453bd","system_id":"levelo_inurba_marseille","lat":43.28449,"lon":5.35888,"is_reserved":false,"is_disabled":false,"rental_uris":{"android":"levelo://app?vid=d65efb3b-2afa-45d2-bcce-b806ada453bd","ios":"levelo://app?vid=d65efb3b-2afa-45d2-bcce-b806ada453bd"},"vehicle_type_id":"4","last_reported":1728785800,"current_range_meters":38800,"station_id":"ce4bhah2rcd13ifvqei0","pricing_plan_id":"cebpf4jnsgd1na2vs0mg"},{"bike_id":"1e0da37a-f9be-40aa-9824-1c023094493f","system_id":"levelo_inurba_marseille","lat":43.2655,"lon":5.37294,"is_reserved":false,"is_disabled":false,"rental_uris":{"android":"levelo://app?vid=1e0da37a-f9be-40aa-9824-1c023094493f","ios":"levelo://app?vid=1e0da37a-f9be-40aa-9824-1c023094493f"},"vehicle_type_id":"4","last_reported":1728785800,"current_range_meters":6000,"station_id":"ce4bhg12rcd13ifvqf70","pricing_plan_id":"cebpf4jnsgd1na2vs0mg"},{"bike_id":"5ab70f1b-3f2c-4f8b-a0cc-cdba02fd83d4","system_id":"levelo_inurba_marseille","lat":43.32482,"lon":5.36543,"is_reserved":false,"is_disabled":false,"rental_uris":{"android":"levelo://app?vid=5ab70f1b-3f2c-4f8b-a0cc-cdba02fd83d4","ios":"levelo://app?vid=5ab70f1b-3f2c-4f8b-a0cc-cdba02fd83d4"},"vehicle_type_id":"4","last_reported":1728785800,"current_range_meters":33600,"station_id":"ce4bhs12rcd13ifvqhvg","pricing_plan_id":"cebpf4jnsgd1na2vs0mg"},{"bike_id":"954c95c0-ca16-4d6f-b3f0-1eed6830e4f0","system_id":"levelo_inurba_marseille","lat":43.29284,"lon":5.40118,"is_reserved":false,"is_disabled":false,"rental_uris":{"android":"levelo://app?vid=954c95c0-ca16-4d6f-b3f0-1eed6830e4f0","ios":"levelo://app?vid=954c95c0-ca16-4d6f-b3f0-1eed6830e4f0"},"vehicle_type_id":"4","last_reported":1728785800,"current_range_meters":37600,"station_id":"ce4bh312rcd13ifvqdk0","pricing_plan_id":"cebpf4jnsgd1na2vs0mg"},