{"last_updated":1784736796,"ttl":60,"version":"2.2","data":{"bikes":[{"bike_id":"7ef36254-6bb3-448c-8d77-979d957d54b6","system_id":"levelo_inurba_marseille","lat":43.337444,"lon":5.374475,"is_reserved":false,"is_disabled":false,"rental_uris":{"android":"levelo://app?vid=7ef36254-6bb3-448c-8d77-979d957d54b6","ios":"levelo://app?vid=7ef36254-6bb3-448c-8d77-979d957d54b6"},"vehicle_type_id":"4","last_reported":1784736797,"current_range_meters":0,"station_id":"","pricing_plan_id":"cebpf4jnsgd1na2vs0mg"},{"bike_id":"21fe2e98-0432-4b40-a81f-10dd00b0f57d","system_id":"levelo_inurba_marseille","lat":43.337444,"lon":5.374475,"is_reserved":false,"is_disabled":false,"rental_uris":{"android":"levelo://app?vid=21fe2e98-0432-4b40-a81f-10dd00b0f57d","ios":"levelo://app?vid=21fe2e98-0432-4b40-a81f-10dd00b0f57d"},"vehicle_type_id":"4","last_reported":1784736797,"current_range_meters":0,"station_id":"","pricing_plan_id":"cebpf4jnsgd1na2vs0mg"},{"bike_id":"a005102a-45c6-430f-8cd7-a0a69490bbf0","system_id":"levelo_inurba_marseille","lat":43.33541,"lon":5.37466,"is_reserved":false,"is_disabled":false,"rental_uris":{"android":"levelo://app?vid=a005102a-45c6-430f-8cd7-a0a69490bbf0","ios":"levelo://app?vid=a005102a-45c6-430f-8cd7-a0a69490bbf0"},"vehicle_type_id":"4","last_reported":1784736797,"current_range_meters":34800,"station_id":"st_d46tts09ee8s73dlu43g","pricing_plan_id":"cebpf4jnsgd1na2vs0mg"},{"bike_id":"e35a7b3d-d6be-4e45-8bf8-f140e099eb23","system_id":"levelo_inurba_marseille","lat":43.27062,"lon":5.40248,"is_reserved":false,"is_disabled":false,"rental_uris":{"android":"levelo://app?vid=e35a7b3d-d6be-4e45-8bf8-f140e099eb23","ios":"levelo://app?vid=e35a7b3d-d6be-4e45-8bf8-f140e099eb23"},"vehicle_type_id":"4","last_reported":1784736797,"current_range_meters":39200,"station_id":"ce4bhk92rcd13ifvqgc0","pricing_plan_id":"cebpf4jnsgd1na2vs0mg"},{"bike_id":"a664db7f-6820-4a41-b297-acf7f3f36f7d","system_id":"levelo_inurba_marseille","lat":43.305459,"lon":5.365596,"is_reserved":false,"is_disabled":true,"rental_uris":{"android":"levelo://app?vid=a664db7f-6820-4a41-b297-acf7f3f36f7d","ios":"levelo://app?vid=a664db7f-6820-4a41-b297-acf7f3f36f7d"},"vehicle_type_id":"4","last_reported":1784736797,"current_range_meters":0,"station_id":"","pricing_plan_id":"cebpf4jnsgd1na2vs0mg"},{"bike_id":"910edd9b-3f88-46ff-af53-0deba1c167b6","system_id":"levelo_inurba_marseille","lat":43.23956,"lon":5.36628,"is_reserved":false,"is_disabled":false,"rental_uris":{"android":"levelo://app?vid=910edd9b-3f88-46ff-af53-0deba1c167b6","ios":"levelo://app?vid=910edd9b-3f88-46ff-af53-0deba1c167b6"},"vehicle_type_id":"4","last_reported":1784736797,"current_range_meters":38800,"station_id":"ce4bhi12rcd13ifvqfp0","pricing_plan_id":"cebpf4jnsgd1na2vs0mg"},{"bike_id":"62718dab-79ef-4c4e-bb69-8f4eb7b59fe8","system_id":"levelo_inurba_marseille","lat":43.27816,"lon":5.40707,"is_reserved":false,"is_disabled":false,"rental_uris":{"android":"levelo://app?vid=62718dab-79ef-4c4e-bb69-8f4eb7b59fe8","ios":"levelo://app?vid=62718dab-79ef-4c4e-bb69-8f4eb7b59fe8"},"vehicle_type_id":"4","last_reported":1784736797,"current_range_meters":32400,"station_id":"ce4bhnh2rcd13ifvqgtg","pricing_plan_id":"cebpf4jnsgd1na2vs0mg"},{"bike_id":"3fb4c08b-8264-41d7-8f9e-7f102379bfdc","system_id":"levelo_inurba_marseille","lat":43.250873,"lon":5.395271,"is_reserved":false,"is_disabled":false,"rental_uris":{"android":"levelo://app?vid=3fb4c08b-8264-41d7-8f9e-7f102379bfdc","ios":"levelo://app?vid=3fb4c08b-8264-41d7-8f9e-7f102379bfdc"},"vehicle_type_id":"4","last_reported":1784736797,"current_range_meters":30000,"station_id":"ce4bhm12rcd13ifvqgkg","pricing_plan_id":"cebpf4jnsgd1na2vs0mg"},{"bike_id":"f2c26268-2002-48c9-a2f8-8f76ed8a8540","system_id":"levelo_inurba_marseille","lat":43.23912,"lon":5.37435,"is_reserved":false,"is_disabled":false,"rental_uris":{"android":"levelo://app?vid=f2c26268-2002-48c9-a2f8-8f76ed8a8540","ios":"levelo://app?vid=f2c26268-2002-48c9-a2f8-8f76ed8a8540"},"vehicle_type_id":"4","last_reported":1784736797,"current_range_meters":40000,"station_id":"st_d6sm7csbq4hs73f8fpjg","pricing_plan_id":"cebpf4jnsgd1na2vs0mg"},{"bike_id":"72706276-fb69-4388-946e-2b4fb06a5929","system_id":"levelo_inurba_marseille","lat":43.33095,"lon":5.39053,"is_reserved":false,"is_disabled":false,"rental_uris":{"android":"levelo://app?vid=72706276-fb69-4388-946e-2b4fb06a5929","ios":"levelo://app?vid=72706276-fb69-4388-946e-2b4fb06a5929"},"vehicle_type_id":"4","last_reported":1784736797,"current_range_meters":6400,"station_id":"","pricing_plan_id":"cebpf4jnsgd1na2vs0mg"},{"bike_id":"d2d76f64-ed2a-42f7-a991-3f986d128400","system_id":"levelo_inurba_marseille","lat":43.28477,"lon":5.35875,"is_reserved":false,"is_disabled":false,"rental_uris":{"android":"levelo://app?vid=d2d76f64-ed2a-42f7-a991-3f986d128400","ios":"levelo://app?vid=d2d76f64-ed2a-42f7-a991-3f986d128400"},"vehicle_type_id":"4","last_reported":1784736797,"current_range_meters":29600,"station_id":"ce4bhah2rcd13ifvqei0","pricing_plan_id":"cebpf4jnsgd1na2vs0mg"},{"bike_id":"10ad0a9f-3c3b-45c2-8514-d34f29e37fe1","system_id":"levelo_inurba_marseille","lat":43.24389,"lon":5.37046,"is_reserved":false,"is_disabled":false,"rental_uris":{"android":"levelo://app?vid=10ad0a9f-3c3b-45c2-8514-d34f29e37fe1","ios":"levelo://app?vid=10ad0a9f-3c3b-45c2-8514-d34f29e37fe1"},"vehicle_type_id":"4","last_reported":1784736797,"current_range_meters":34800,"station_id":"ce4bhhh2rcd13ifvqfk0","pricing_plan_id":"cebpf4jnsgd1na2vs0mg"},{"bike_id":"e7dcaf7b-9751-4df8-97c8-58c10a250eef","system_id":"levelo_inurba_marseille","lat":43.30758,"lon":5.42466,"is_reserved":false,"is_disabled":false,"rental_uris":{"android":"levelo://app?vid=e7dcaf7b-9751-4df8-97c8-58c10a250eef","ios":"levelo://app?vid=e7dcaf7b-9751-4df8-97c8-58c10a250eef"},"vehicle_type_id":"4","last_reported":1784736797,"current_range_meters":39200,"station_id":"st_cvj6ca6bvosntc0bfgr0","pricing_plan_id":"cebpf4jnsgd1na2vs0mg"},{"bike_id":"4aa30d2f-d710-4786-a7a6-fdc6e379a564","system_id":"levelo_inurba_marseille","lat":43.24808,"lon":5.37449,"is_reserved":false,"is_disabled":false,"rental_uris":{"android":"levelo://app?vid=4aa30d2f-d710-4786-a7a6-fdc6e379a564","ios":"levelo://app?vid=4aa30d2f-d710-4786-a7a6-fdc6e379a564"},"vehicle_type_id":"4","last_reported":1784736797,"current_range_meters":32400,"station_id":"ce4bhgh2rcd13ifvqfb0","pricing_plan_id":"cebpf4jnsgd1na2vs0mg"},{"bike_id":"3101f7ce-d802-418d-8fba-8e517979d361","system_id":"levelo_inurba_marseille","lat":43.24163,"lon":5.364,"is_reserved":false,"is_disabled":false,"rental_uris":{"android":"levelo://app?vid=3101f7ce-d802-418d-8fba-8e517979d361","ios":"levelo://app?vid=3101f7ce-d802-418d-8fba-8e517979d361"},"vehicle_type_id":"4","last_reported":1784736797,"current_range_meters":14800,"station_id":"cpo36qri1sfpv3e86is0","pricing_plan_id":"cebpf4jnsgd1na2vs0mg"},{"bike_id":"45c49d7a-ce5a-4cef-92b3-a6a99f7ffcbc","system_id":"levelo_inurba_marseille","lat":43.3177,"lon":5.3901,"is_reserved":false,"is_disabled":false,"rental_uris":{"android":"levelo://app?vid=45c49d7a-ce5a-4cef-92b3-a6a99f7ffcbc","ios":"levelo://app?vid=45c49d7a-ce5a-4cef-92b3-a6a99f7ffcbc"},"vehicle_type_id":"4","last_reported":1784736797,"current_range_meters":38800,"station_id":"ce4bhqp2rcd13ifvqhng","pricing_plan_id":"cebpf4jnsgd1na2vs0mg"},{"bike_id":"da1fc86f-614f-4a13-add0-641b48a070a1","system_id":"levelo_inurba_marseille","lat":43.28472,"lon":5.35861,"is_reserved":false,"is_disabled":false,"rental_uris":{"android":"levelo://app?vid=da1fc86f-614f-4a13-add0-641b48a070a1","ios":"levelo://app?vid=da1fc86f-614f-4a13-add0-641b48a070a1"},"vehicle_type_id":"4","last_reported":1784736797,"current_range_meters":8800,"station_id":"ce4bhah2rcd13ifvqei0","pricing_plan_id":"cebpf4jnsgd1na2vs0mg"},{"bike_id":"0334278a-f526-4865-9991-40008fe349be","system_id":"levelo_inurba_marseille","lat":43.28124,"lon":5.39618,"is_reserved":false,"is_disabled":true,"rental_uris":{"android":"levelo://app?vid=0334278a-f526-4865-9991-40008fe349be","ios":"levelo://app?vid=0334278a-f526-4865-9991-40008fe349be"},"vehicle_type_id":"4","last_reported":1784736797,"current_range_meters":38000,"station_id":"","pricing_plan_id":"cebpf4jnsgd1na2vs0mg"},{"bike_id":"827fd45e-e61b-4072-9a09-0311dc286aba","system_id":"levelo_inurba_marseille","lat":43.30775,"lon":5.37654,"is_reserved":false,"is_disabled":false,"rental_uris":{"android":"levelo://app?vid=827fd45e-e61b-4072-9a09-0311dc286aba","ios":"levelo://app?vid=827fd45e-e61b-4072-9a09-0311dc286aba"},"vehicle_type_id":"4","last_reported":1784736797,"current_range_meters":39200,"station_id":"ce4bgv92rcd13ifvqcq0","pricing_plan_id":"cebpf4jnsgd1na2vs0mg"},{"bike_id":"bf720be3-207c-41aa-bdb2-2d086f76cbcd","system_id":"levelo_inurba_marseille","lat":43.26564,"lon":5.4032,"is_reserved":false,"is_disabled":false,"rental_uris":{"android":"levelo://app?vid=bf720be3-207c-41aa-bdb2-2d086f76cbcd","ios":"levelo://app?vid=bf720be3-207c-41aa-bdb2-2d086f76cbcd"},"vehicle_type_id":"4","last_reported":1784736797,"current_range_meters":6800,"station_id":"ce4bhmp2rcd13ifvqgng","pricing_plan_id":"cebpf4jnsgd1na2vs0mg"},{"bike_id":"7b893c3a-f50d-4ab1-b4e5-684f550fde57","system_id":"levelo_inurba_marseille","lat":43.31485,"lon":5.37294,"is_reserved":false,"is_disabled":true,"rental_uris":{"android":"levelo://app?vid=7b893c3a-f50d-4ab1-b4e5-684f550fde57","ios":"levelo://app?vid=7b893c3a-f50d-4ab1-b4e5-684f550fde57"},"vehicle_type_id":"4","last_reported":1784736797,"current_range_meters":8000,"station_id":"ce4bgt12rcd13ifvqcd0","pricing_plan_id":"cebpf4jnsgd1na2vs0mg"},{"bike_id":"18e1dcfd-328c-49d1-aa7a-bd2ed4b17f5e","system_id":"levelo_inurba_marseille","lat":43.24387,"lon":5.37056,"is_reserved":false,"is_disabled":false,"rental_uris":{"android":"levelo://app?vid=18e1dcfd-328c-49d1-aa7a-bd2ed4b17f5e","ios":"levelo://app?vid=18e1dcfd-328c-49d1-aa7a-bd2ed4b17f5e"},"vehicle_type_id":"4","last_reported":1784736797,"current_range_meters":16400,"station_id":"ce4bhhh2rcd13ifvqfk0","pricing_plan_id":"cebpf4jnsgd1na2vs0mg"},{"bike_id":"1b6631e4-156f-48cb-b746-60b07cd04812","system_id":"levelo_inurba_marseille","lat":43.29002,"lon":5.3562,"is_reserved":false,"is_disabled":false,"rental_uris":{"android":"levelo://app?vid=1b6631e4-156f-48cb-b746-60b07cd04812","ios":"levelo://app?vid=1b6631e4-156f-48cb-b746-60b07cd04812"},"vehicle_type_id":"4","last_reported":1784736797,"current_range_meters":39200,"station_id":"ce4bhb92rcd13ifvqen0","pricing_plan_id":"cebpf4jnsgd1na2vs0mg"},{"bike_id":"51c9d168-94e4-41e0-90a4-bc83f1a86ce9","system_id":"levelo_inurba_marseille","lat":43.27365,"lon":5.36235,"is_reserved":false,"is_disabled":false,"rental_uris":{"android":"levelo://app?vid=51c9d168-94e4-41e0-90a4-bc83f1a86ce9","ios":"levelo://app?vid=51c9d168-94e4-41e0-90a4-bc83f1a86ce9"},"vehicle_type_id":"4","last_reported":1784736797,"current_range_meters":10800,"station_id":"ce4bhbh2rcd13ifvqeo0","pricing_plan_id":"cebpf4jnsgd1na2vs0mg"},{"bike_id":"842af5f5-c32e-455f-98a8-80e0b82d9aee","system_id":"levelo_inurba_marseille","lat":43.3055,"lon":5.36523,"is_reserved":false,"is_disabled":false,"rental_uris":{"android":"levelo://app?vid=842af5f5-c32e-455f-98a8-80e0b82d9aee","ios":"levelo://app?vid=842af5f5-c32e-455f-98a8-80e0b82d9aee"},"vehicle_type_id":"4","last_reported":1784736797,"current_range_meters":16400,"station_id":"ce4bgs12rcd13ifvqcag","pricing_plan_id":"cebpf4jnsgd1na2vs0mg"},{"bike_id":"f9c65922-483e-4914-92f4-f7524b9a110d","system_id":"levelo_inurba_marseille","lat":43.32371,"lon":5.36714,"is_reserved":false,"is_disabled":false,"rental_uris":{"android":"levelo://app?vid=f9c65922-483e-4914-92f4-f7524b9a110d","ios":"levelo://app?vid=f9c65922-483e-4914-92f4-f7524b9a110d"},"vehicle_type_id":"4","last_reported":1784736797,"current_range_meters":38000,"station_id":"","pricing_plan_id":"cebpf4jnsgd1na2vs0mg"},{"bike_id":"6cefe3be-cfba-4bad-be7a-7cb29ce913f9","system_id":"levelo_inurba_marseille","lat":43.28282,"lon":5.35071,"is_reserved":false,"is_disabled":false,"rental_uris":{"android":"levelo://app?vid=6cefe3be-cfba-4bad-be7a-7cb29ce913f9","ios":"levelo://app?vid=6cefe3be-cfba-4bad-be7a-7cb29ce913f9"},"vehicle_type_id":"4","last_reported":1784736797,"current_range_meters":4800,"station_id":"ce4bhbp2rcd13ifvqerg","pricing_plan_id":"cebpf4jnsgd1na2vs0mg"},{"bike_id":"e28e8428-aee3-41aa-8d54-985aca6c735f","system_id":"levelo_inurba_marseille","lat":43.25515,"lon":5.37647,"is_reserved":false,"is_disabled":false,"rental_uris":{"android":"levelo://app?vid=e28e8428-aee3-41aa-8d54-985aca6c735f","ios":"levelo://app?vid=e28e8428-aee3-41aa-8d54-985aca6c735f"},"vehicle_type_id":"4","last_reported":1784736797,"current_range_meters":30400,"station_id":"ce4bhh12rcd13ifvqff0","pricing_plan_id":"cebpf4jnsgd1na2vs0mg"},{"bike_id":"cb1e526e-f628-4b5a-a541-85f8824cc039","system_id":"levelo_inurba_marseille","lat":43.28424,"lon":5.34984,"is_reserved":false,"is_disabled":false,"rental_uris":{"android":"levelo://app?vid=cb1e526e-f628-4b5a-a541-85f8824cc039","ios":"levelo://app?vid=cb1e526e-f628-4b5a-a541-85f8824cc039"},"vehicle_type_id":"4","last_reported":1784736797,"current_range_meters":16800,"station_id":"ce4bhbh2rcd13ifvqepg","pricing_plan_id":"cebpf4jnsgd1na2vs0mg"},{"bike_id":"86173552-7af4-4aa7-9419-1d75363083f7","system_id":"levelo_inurba_marseille","lat":43.28274,"lon":5.35076,"is_reserved":false,"is_disabled":false,"rental_uris":{"android":"levelo://app?vid=86173552-7af4-4aa7-9419-1d75363083f7","ios":"levelo://app?vid=86173552-7af4-4aa7-9419-1d75363083f7"},"vehicle_type_id":"4","last_reported":1784736797,"current_range_meters":39200,"station_id":"ce4bhbp2rcd13ifvqerg","pricing_plan_id":"cebpf4jnsgd1na2vs0mg"},{"bike_id":"48ec8f90-1104-4b2b-a4c3-bec2a8b6fd20","system_id":"levelo_inurba_marseille","lat":43.28456,"lon":5.35884,"is_reserved":false,"is_disabled":false,"rental_uris":{"android":"levelo://app?vid=48ec8f90-1104-4b2b-a4c3-bec2a8b6fd20","ios":"levelo://app?vid=48ec8f90-1104-4b2b-a4c3-bec2a8b6fd20"},"vehicle_type_id":"4","last_reported":1784736797,"current_range_meters":32400,"station_id":"ce4bhah2rcd13ifvqei0","pricing_plan_id":"cebpf4jnsgd1na2vs0mg"},{"bike_id":"0666263b-4018-4bcf-8b9b-1611b045feb4","system_id":"levelo_inurba_marseille","lat":43.28862,"lon":5.35831,"is_reserved":false,"is_disabled":false,"rental_uris":{"android":"levelo://app?vid=0666263b-4018-4bcf-8b9b-1611b045feb4","ios":"levelo://app?vid=0666263b-4018-4bcf-8b9b-1611b045feb4"},"vehicle_type_id":"4","last_reported":1784736797,"current_range_meters":39200,"station_id":"ce4bhb12rcd13ifvqem0","pricing_plan_id":"cebpf4jnsgd1na2vs0mg"},{"bike_id":"a338cea5-f797-4d31-b718-3121663ee29c","system_id":"levelo_inurba_marseille","lat":43.30404,"lon":5.37926,"is_reserved":false,"is_disabled":false,"rental_uris":{"android":"levelo://app?vid=a338cea5-f797-4d31-b718-3121663ee29c","ios":"levelo://app?vid=a338cea5-f797-4d31-b718-3121663ee29c"},"vehicle_type_id":"4","last_reported":1784736797,"current_range_meters":33600,"station_id":"","pricing_plan_id":"cebpf4jnsgd1na2vs0mg"},{"bike_id":"e0eb47dd-f5b0-411b-8be6-eea57dab5fc5","system_id":"levelo_inurba_marseille","lat":43.2903,"lon":5.35606,"is_reserved":false,"is_disabled":false,"rental_uris":{"android":"levelo://app?vid=e0eb47dd-f5b0-411b-8be6-eea57dab5fc5","ios":"levelo://app?vid=e0eb47dd-f5b0-411b-8be6-eea57dab5fc5"},"vehicle_type_id":"4","last_reported":1784736797,"current_range_meters":38800,"station_id":"ce4bhb92rcd13ifvqen0","pricing_plan_id":"cebpf4jnsgd1na2vs0mg"},{"bike_id":"68f9759d-31b0-4c35-bc93-d18e666e6d46","system_id":"levelo_inurba_marseille","lat":43.30905,"lon":5.36847,"is_reserved":false,"is_disabled":false,"rental_uris":{"android":"levelo://app?vid=68f9759d-31b0-4c35-bc93-d18e666e6d46","ios":"levelo://app?vid=68f9759d-31b0-4c35-bc93-d18e666e6d46"},"vehicle_type_id":"4","last_reported":1784736797,"current_range_meters":36000,"station_id":"ce4bgn92rcd13ifvqbvg","pricing_plan_id":"cebpf4jnsgd1na2vs0mg"},{"bike_id":"a7c9489a-3c37-4218-bc38-92c335aa3a8a","system_id":"levelo_inurba_marseille","lat":43.28469,"lon":5.48383,"is_reserved":false,"is_disabled":false,"rental_uris":{"android":"levelo://app?vid=a7c9489a-3c37-4218-bc38-92c335aa3a8a","ios":"levelo://app?vid=a7c9489a-3c37-4218-bc38-92c335aa3a8a"},"vehicle_type_id":"4","last_reported":1784736797,"current_range_meters":4800,"station_id":"st_d3svhcjqgbts73a3dn0g","pricing_plan_id":"cebpf4jnsgd1na2vs0mg"},{"bike_id":"d28f9f58-f537-4a0b-b58c-597705ace143","system_id":"levelo_inurba_marseille","lat":43.29006,"lon":5.35616,"is_reserved":false,"is_disabled":false,"rental_uris":{"android":"levelo://app?vid=d28f9f58-f537-4a0b-b58c-597705ace143","ios":"levelo://app?vid=d28f9f58-f537-4a0b-b58c-597705ace143"},"vehicle_type_id":"4","last_reported":1784736797,"current_range_meters":28800,"station_id":"ce4bhb92rcd13ifvqen0","pricing_plan_id":"cebpf4jnsgd1na2vs0mg"},{"bike_id":"b4a84a03-8380-4ead-838e-21f3cf0d177c","system_id":"levelo_inurba_marseille","lat":43.32306,"lon":5.38237,"is_reserved":false,"is_disabled":false,"rental_uris":{"android":"levelo://app?vid=b4a84a03-8380-4ead-838e-21f3cf0d177c","ios":"levelo://app?vid=b4a84a03-8380-4ead-838e-21f3cf0d177c"},"vehicle_type_id":"4","last_reported":1784736797,"current_range_meters":20800,"station_id":"ce4bhr12rcd13ifvqhqg","pricing_plan_id":"cebpf4jnsgd1na2vs0mg"},{"bike_id":"7a24ccd2-d621-4ae8-aa79-54db9405a1b6","system_id":"levelo_inurba_marseille","lat":43.29523,"lon":5.39401,"is_reserved":false,"is_disabled":false,"rental_uris":{"android":"levelo://app?vid=7a24ccd2-d621-4ae8-aa79-54db9405a1b6","ios":"levelo://app?vid=7a24ccd2-d621-4ae8-aa79-54db9405a1b6"},"vehicle_type_id":"4","last_reported":1784736797,"current_range_meters":31200,"station_id":"ce4bh292rcd13ifvqdf0","pricing_plan_id":"cebpf4jnsgd1na2vs0mg"},{"bike_id":"5aa3ca14-34f8-4cf6-bf98-84664ad40ed9","system_id":"levelo_inurba_marseille","lat":43.32366,"lon":5.3888,"is_reserved":false,"is_disabled":false,"rental_uris":{"android":"levelo://app?vid=5aa3ca14-34f8-4cf6-bf98-84664ad40ed9","ios":"levelo://app?vid=5aa3ca14-34f8-4cf6-bf98-84664ad40ed9"},"vehicle_type_id":"4","last_reported":1784736797,"current_range_meters":36800,"station_id":"ce4bhqp2rcd13ifvqhog","pricing_plan_id":"cebpf4jnsgd1na2vs0mg"},{"bike_id":"deb1e6e6-8358-4bdc-8635-b96ff7eda115","system_id":"levelo_inurba_marseille","lat":43.25862,"lon":5.38781,"is_reserved":false,"is_disabled":false,"rental_uris":{"android":"levelo://app?vid=deb1e6e6-8358-4bdc-8635-b96ff7eda115","ios":"levelo://app?vid=deb1e6e6-8358-4bdc-8635-b96ff7eda115"},"vehicle_type_id":"4","last_reported":1784736797,"current_range_meters":5600,"station_id":"","pricing_plan_id":"cebpf4jnsgd1na2vs0mg"},{"bike_id":"0547f557-b090-4345-9140-124bc0c4fa4e","system_id":"levelo_inurba_marseille","lat":43.33162,"lon":5.37684,"is_reserved":false,"is_disabled":false,"rental_uris":{"android":"levelo://app?vid=0547f557-b090-4345-9140-124bc0c4fa4e","ios":"levelo://app?vid=0547f557-b090-4345-9140-124bc0c4fa4e"},"vehicle_type_id":"4","last_reported":1784736797,"current_range_meters":32400,"station_id":"st_d46cu089ee8s73dldbu0","pricing_plan_id":"cebpf4jnsgd1na2vs0mg"},{"bike_id":"a4e34098-8c0f-4326-9772-a08c7f6b76fa","system_id":"levelo_inurba_marseille","lat":43.27069,"lon":5.42271,"is_reserved":false,"is_disabled":false,"rental_uris":{"android":"levelo://app?vid=a4e34098-8c0f-4326-9772-a08c7f6b76fa","ios":"levelo://app?vid=a4e34098-8c0f-4326-9772-a08c7f6b76fa"},"vehicle_type_id":"4","last_reported":1784736797,"current_range_meters":12000,"station_id":"ce4bhk92rcd13ifvqgb0","pricing_plan_id":"cebpf4jnsgd1na2vs0mg"},{"bike_id":"8b48f329-937d-4f33-bc8e-cc3992c67190","system_id":"levelo_inurba_marseille","lat":43.29631,"lon":5.37164,"is_reserved":false,"is_disabled":true,"rental_uris":{"android":"levelo://app?vid=8b48f329-937d-4f33-bc8e-cc3992c67190","ios":"levelo://app?vid=8b48f329-937d-4f33-bc8e-cc3992c67190"},"vehicle_type_id":"4","last_reported":1784736797,"current_range_meters":35600,"station_id":"","pricing_plan_id":"cebpf4jnsgd1na2vs0mg"},{"bike_id":"262b3eb6-2d30-40b2-9c53-31baed5f9863","system_id":"levelo_inurba_marseille","lat":43.27078,"lon":5.40248,"is_reserved":false,"is_disabled":false,"rental_uris":{"android":"levelo://app?vid=262b3eb6-2d30-40b2-9c53-31baed5f9863","ios":"levelo://app?vid=262b3eb6-2d30-40b2-9c53-31baed5f9863"},"vehicle_type_id":"4","last_reported":1784736797,"current_range_meters":20000,"station_id":"ce4bhk92rcd13ifvqgc0","pricing_plan_id":"cebpf4jnsgd1na2vs0mg"},{"bike_id":"ca7eafcb-f442-414a-9e36-3bd18ba10ca8","system_id":"levelo_inurba_marseille","lat":43.28715,"lon":5.37928,"is_reserved":false,"is_disabled":false,"rental_uris":{"android":"levelo://app?vid=ca7eafcb-f442-414a-9e36-3bd18ba10ca8","ios":"levelo://app?vid=ca7eafcb-f442-414a-9e36-3bd18ba10ca8"},"vehicle_type_id":"4","last_reported":1784736797,"current_range_meters":20800,"station_id":"ce4bh9p2rcd13ifvqec0","pricing_plan_id":"cebpf4jnsgd1na2vs0mg"},{"bike_id":"b4ac26d0-963a-4a25-bf7e-8083e1294ae5","system_id":"levelo_inurba_marseille","lat":43.23959,"lon":5.36624,"is_reserved":false,"is_disabled":false,"rental_uris":{"android":"levelo://app?vid=b4ac26d0-963a-4a25-bf7e-8083e1294ae5","ios":"levelo://app?vid=b4ac26d0-963a-4a25-bf7e-8083e1294ae5"},"vehicle_type_id":"4","last_reported":1784736797,"current_range_meters":32400,"station_id":"ce4bhi12rcd13ifvqfp0","pricing_plan_id":"cebpf4jnsgd1na2vs0mg"},{"bike_id":"06195112-6882-4fb6-b232-8620d1008b12","system_id":"levelo_inurba_marseille","lat":43.29264,"lon":5.36837,"is_reserved":false,"is_disabled":false,"rental_uris":{"android":"levelo://app?vid=06195112-6882-4fb6-b232-8620d1008b12","ios":"levelo://app?vid=06195112-6882-4fb6-b232-8620d1008b12"},"vehicle_type_id":"4","last_reported":1784736797,"current_range_meters":36800,"station_id":"","pricing_plan_id":"cebpf4jnsgd1na2vs0mg"},{"bike_id":"3a295aff-6816-4af7-ac5a-87a5bd41c1cd","system_id":"levelo_inurba_marseille","lat":43.28481,"lon":5.48382,"is_reserved":false,"is_disabled":false,"rental_uris":{"android":"levelo://app?vid=3a295aff-6816-4af7-ac5a-87a5bd41c1cd","ios":"levelo://app?vid=3a295aff-6816-4af7-ac5a-87a5bd41c1cd"},"vehicle_type_id":"4","last_reported":1784736797,"current_range_meters":26800,"station_id":"st_d3svhcjqgbts73a3dn0g","pricing_plan_id":"cebpf4jnsgd1na2vs0mg"},{"bike_id":"fe579110-87e9-443d-bd8d-a786532663a3","system_id":"levelo_inurba_marseille","lat":43.30306,"lon":5.392,"is_reserved":false,"is_disabled":false,"rental_uris":{"android":"levelo://app?vid=fe579110-87e9-443d-bd8d-a786532663a3","ios":"levelo://app?vid=fe579110-87e9-443d-bd8d-a786532663a3"},"vehicle_type_id":"4","last_reported":1784736797,"current_range_meters":4400,"station_id":"ce4bgkh2rcd13ifvqbk0","pricing_plan_id":"cebpf4jnsgd1na2vs0mg"},{"bike_id":"7b1a34a9-9772-429a-ac81-dbcf3805788e","system_id":"levelo_inurba_marseille","lat":43.27885,"lon":5.35505,"is_reserved":false,"is_disabled":false,"rental_uris":{"android":"levelo://app?vid=7b1a34a9-9772-429a-ac81-dbcf3805788e","ios":"levelo://app?vid=7b1a34a9-9772-429a-ac81-dbcf3805788e"},"vehicle_type_id":"4","last_reported":1784736797,"current_range_meters":17200,"station_id":"","pricing_plan_id":"cebpf4jnsgd1na2vs0mg"},{"bike_id":"a5dcedab-9b7b-4543-8b01-75946e58bf75","system_id":"levelo_inurba_marseille","lat":43.27624,"lon":5.36114,"is_reserved":false,"is_disabled":false,"rental_uris":{"android":"levelo://app?vid=a5dcedab-9b7b-4543-8b01-75946e58bf75","ios":"levelo://app?vid=a5dcedab-9b7b-4543-8b01-75946e58bf75"},"vehicle_type_id":"4","last_reported":1784736797,"current_range_meters":16400,"station_id":"ce4bgj92rcd13ifvqbe0","pricing_plan_id":"cebpf4jnsgd1na2vs0mg"},{"bike_id":"cb88721a-24f8-4631-843e-4eb44c2b5393","system_id":"levelo_inurba_marseille","lat":43.290356,"lon":5.386524,"is_reserved":false,"is_disabled":false,"rental_uris":{"android":"levelo://app?vid=cb88721a-24f8-4631-843e-4eb44c2b5393","ios":"levelo://app?vid=cb88721a-24f8-4631-843e-4eb44c2b5393"},"vehicle_type_id":"4","last_reported":1784736797,"current_range_meters":39200,"station_id":"ce4bh4p2rcd13ifvqe0g","pricing_plan_id":"cebpf4jnsgd1na2vs0mg"},{"bike_id":"b3615f38-9ae4-47b3-be0f-27da959fb130","system_id":"levelo_inurba_marseille","lat":43.26573,"lon":5.39618,"is_reserved":false,"is_disabled":false,"rental_uris":{"android":"levelo://app?vid=b3615f38-9ae4-47b3-be0f-27da959fb130","ios":"levelo://app?vid=b3615f38-9ae4-47b3-be0f-27da959fb130"},"vehicle_type_id":"4","last_reported":1784736797,"current_range_meters":14400,"station_id":"","pricing_plan_id":"cebpf4jnsgd1na2vs0mg"},{"bike_id":"8e7e72db-a18f-4746-8066-f4ca084e9a9a","system_id":"levelo_inurba_marseille","lat":43.28487,"lon":5.38425,"is_reserved":false,"is_disabled":false,"rental_uris":{"android":"levelo://app?vid=8e7e72db-a18f-4746-8066-f4ca084e9a9a","ios":"levelo://app?vid=8e7e72db-a18f-4746-8066-f4ca084e9a9a"},"vehicle_type_id":"4","last_reported":1784736797,"current_range_meters":39200,"station_id":"ce4bh512rcd13ifvqe3g","pricing_plan_id":"cebpf4jnsgd1na2vs0mg"},{"bike_id":"01d9a676-01f3-4b98-beb9-e0a1a490c722","system_id":"levelo_inurba_marseille","lat":43.2816,"lon":5.42633,"is_reserved":false,"is_disabled":false,"rental_uris":{"android":"levelo://app?vid=01d9a676-01f3-4b98-beb9-e0a1a490c722","ios":"levelo://app?vid=01d9a676-01f3-4b98-beb9-e0a1a490c722"},"vehicle_type_id":"4","last_reported":1784736797,"current_range_meters":28400,"station_id":"ce4bhnh2rcd13ifvqgug","pricing_plan_id":"cebpf4jnsgd1na2vs0mg"},{"bike_id":"f765bc46-853b-4f5f-a0cf-13f9a2c85881","system_id":"levelo_inurba_marseille","lat":43.32103,"lon":5.36799,"is_reserved":false,"is_disabled":false,"rental_uris":{"android":"levelo://app?vid=f765bc46-853b-4f5f-a0cf-13f9a2c85881","ios":"levelo://app?vid=f765bc46-853b-4f5f-a0cf-13f9a2c85881"},"vehicle_type_id":"4","last_reported":1784736797,"current_range_meters":32800,"station_id":"ce4bhrh2rcd13ifvqhug","pricing_plan_id":"cebpf4jnsgd1na2vs0mg"},{"bike_id":"091b09c4-2057-4ee5-baf9-ea2bb0338192","system_id":"levelo_inurba_marseille","lat":43.24805,"lon":5.37456,"is_reserved":false,"is_disabled":false,"rental_uris":{"android":"levelo://app?vid=091b09c4-2057-4ee5-baf9-ea2bb0338192","ios":"levelo://app?vid=091b09c4-2057-4ee5-baf9-ea2bb0338192"},"vehicle_type_id":"4","last_reported":1784736797,"current_range_meters":38000,"station_id":"ce4bhgh2rcd13ifvqfb0","pricing_plan_id":"cebpf4jnsgd1na2vs0mg"},{"bike_id":"3ab46e4a-b9d6-458c-8f1a-3060296f87a3","system_id":"levelo_inurba_marseille","lat":43.25865,"lon":5.39906,"is_reserved":false,"is_disabled":false,"rental_uris":{"android":"levelo://app?vid=3ab46e4a-b9d6-458c-8f1a-3060296f87a3","ios":"levelo://app?vid=3ab46e4a-b9d6-458c-8f1a-3060296f87a3"},"vehicle_type_id":"4","last_reported":1784736797,"current_range_meters":26800,"station_id":"ce4bhl92rcd13ifvqghg","pricing_plan_id":"cebpf4jnsgd1na2vs0mg"},{"bike_id":"098f5ce5-a7ae-4b55-89bb-20f2530505aa","system_id":"levelo_inurba_marseille","lat":43.28732,"lon":5.36065,"is_reserved":false,"is_disabled":false,"rental_uris":{"android":"levelo://app?vid=098f5ce5-a7ae-4b55-89bb-20f2530505aa","ios":"levelo://app?vid=098f5ce5-a7ae-4b55-89bb-20f2530505aa"},"vehicle_type_id":"4","last_reported":1784736797,"current_range_meters":22000,"station_id":"cki0cbj6b192h4jlfktg","pricing_plan_id":"cebpf4jnsgd1na2vs0mg"},{"bike_id":"a13e16e4-e177-431d-8bef-33b38f696e96","system_id":"levelo_inurba_marseille","lat":43.26772,"lon":5.39971,"is_reserved":false,"is_disabled":false,"rental_uris":{"android":"levelo://app?vid=a13e16e4-e177-431d-8bef-33b38f696e96","ios":"levelo://app?vid=a13e16e4-e177-431d-8bef-33b38f696e96"},"vehicle_type_id":"4","last_reported":1784736797,"current_range_meters":25200,"station_id":"","pricing_plan_id":"cebpf4jnsgd1na2vs0mg"},{"bike_id":"4bef9509-2311-442a-8939-c142b150ab3a","system_id":"levelo_inurba_marseille","lat":43.23192,"lon":5.35551,"is_reserved":false,"is_disabled":false,"rental_uris":{"android":"levelo://app?vid=4bef9509-2311-442a-8939-c142b150ab3a","ios":"levelo://app?vid=4bef9509-2311-442a-8939-c142b150ab3a"},"vehicle_type_id":"4","last_reported":1784736797,"current_range_meters":35600,"station_id":"ce4bhu92rcd13ifvqi70","pricing_plan_id":"cebpf4jnsgd1na2vs0mg"},{"bike_id":"6f30f7ac-da72-4d29-9288-d6b4b3da7411","system_id":"levelo_inurba_marseille","lat":43.24389,"lon":5.37049,"is_reserved":false,"is_disabled":false,"rental_uris":{"android":"levelo://app?vid=6f30f7ac-da72-4d29-9288-d6b4b3da7411","ios":"levelo://app?vid=6f30f7ac-da72-4d29-9288-d6b4b3da7411"},"vehicle_type_id":"4","last_reported":1784736797,"current_range_meters":26000,"station_id":"ce4bhhh2rcd13ifvqfk0","pricing_plan_id":"cebpf4jnsgd1na2vs0mg"},{"bike_id":"01804220-cb37-490c-ab32-259aab12cc74","system_id":"levelo_inurba_marseille","lat":43.24659,"lon":5.38881,"is_reserved":false,"is_disabled":false,"rental_uris":{"android":"levelo://app?vid=01804220-cb37-490c-ab32-259aab12cc74","ios":"levelo://app?vid=01804220-cb37-490c-ab32-259aab12cc74"},"vehicle_type_id":"4","last_reported":1784736797,"current_range_meters":35600,"station_id":"ce4bhg12rcd13ifvqf60","pricing_plan_id":"cebpf4jnsgd1na2vs0mg"},{"bike_id":"1332067d-5be1-4df7-9e57-c94423ef5d6d","system_id":"levelo_inurba_marseille","lat":43.23183,"lon":5.39987,"is_reserved":false,"is_disabled":false,"rental_uris":{"android":"levelo://app?vid=1332067d-5be1-4df7-9e57-c94423ef5d6d","ios":"levelo://app?vid=1332067d-5be1-4df7-9e57-c94423ef5d6d"},"vehicle_type_id":"4","last_reported":1784736797,"current_range_meters":25200,"station_id":"ce4bhn12rcd13ifvqgqg","pricing_plan_id":"cebpf4jnsgd1na2vs0mg"},{"bike_id":"491ed4d5-c7b9-418d-a1f5-3167fe1acfde","system_id":"levelo_inurba_marseille","lat":43.24534,"lon":5.39494,"is_reserved":false,"is_disabled":false,"rental_uris":{"android":"levelo://app?vid=491ed4d5-c7b9-418d-a1f5-3167fe1acfde","ios":"levelo://app?vid=491ed4d5-c7b9-418d-a1f5-3167fe1acfde"},"vehicle_type_id":"4","last_reported":1784736797,"current_range_meters":14400,"station_id":"ce4bhlp2rcd13ifvqgjg","pricing_plan_id":"cebpf4jnsgd1na2vs0mg"},{"bike_id":"06a47a70-c4aa-4b09-8775-c059e958d2f4","system_id":"levelo_inurba_marseille","lat":43.28433,"lon":5.37516,"is_reserved":false,"is_disabled":false,"rental_uris":{"android":"levelo://app?vid=06a47a70-c4aa-4b09-8775-c059e958d2f4","ios":"levelo://app?vid=06a47a70-c4aa-4b09-8775-c059e958d2f4"},"vehicle_type_id":"4","last_reported":1784736797,"current_range_meters":25200,"station_id":"ce4bh412rcd13ifvqds0","pricing_plan_id":"cebpf4jnsgd1na2vs0mg"},{"bike_id":"8b980fe2-831a-474f-9257-aac80a862f21","system_id":"levelo_inurba_marseille","lat":43.32361,"lon":5.36742,"is_reserved":false,"is_disabled":false,"rental_uris":{"android":"levelo://app?vid=8b980fe2-831a-474f-9257-aac80a862f21","ios":"levelo://app?vid=8b980fe2-831a-474f-9257-aac80a862f21"},"vehicle_type_id":"4","last_reported":1784736797,"current_range_meters":38800,"station_id":"ce4bhsh2rcd13ifvqi2g","pricing_plan_id":"cebpf4jnsgd1na2vs0mg"},{"bike_id":"9c24dfc9-a9f6-48fe-9987-84002be90209","system_id":"levelo_inurba_marseille","lat":43.277,"lon":5.38915,"is_reserved":false,"is_disabled":false,"rental_uris":{"android":"levelo://app?vid=9c24dfc9-a9f6-48fe-9987-84002be90209","ios":"levelo://app?vid=9c24dfc9-a9f6-48fe-9987-84002be90209"},"vehicle_type_id":"4","last_reported":1784736797,"current_range_meters":35600,"station_id":"ce4bhi12rcd13ifvqfo0","pricing_plan_id":"cebpf4jnsgd1na2vs0mg"},{"bike_id":"0d85248b-d296-43eb-9fb8-12abdf9396c5","system_id":"levelo_inurba_marseille","lat":43.29378,"lon":5.37856,"is_reserved":false,"is_disabled":false,"rental_uris":{"android":"levelo://app?vid=0d85248b-d296-43eb-9fb8-12abdf9396c5","ios":"levelo://app?vid=0d85248b-d296-43eb-9fb8-12abdf9396c5"},"vehicle_type_id":"4","last_reported":1784736797,"current_range_meters":22800,"station_id":"ce4bgjh2rcd13ifvqbf0","pricing_plan_id":"cebpf4jnsgd1na2vs0mg"},{"bike_id":"3cff31ea-c3fd-4a9e-aa7d-f699c19fe715","system_id":"levelo_inurba_marseille","lat":43.2854,"lon":5.44125,"is_reserved":false,"is_disabled":false,"rental_uris":{"android":"levelo://app?vid=3cff31ea-c3fd-4a9e-aa7d-f699c19fe715","ios":"levelo://app?vid=3cff31ea-c3fd-4a9e-aa7d-f699c19fe715"},"vehicle_type_id":"4","last_reported":1784736797,"current_range_meters":30400,"station_id":"st_d3j3df2ikq2c7380ej80","pricing_plan_id":"cebpf4jnsgd1na2vs0mg"},{"bike_id":"1ffd6e8d-c4af-44c4-b5ee-8153d663260f","system_id":"levelo_inurba_marseille","lat":43.29203,"lon":5.39329,"is_reserved":false,"is_disabled":true,"rental_uris":{"android":"levelo://app?vid=1ffd6e8d-c4af-44c4-b5ee-8153d663260f","ios":"levelo://app?vid=1ffd6e8d-c4af-44c4-b5ee-8153d663260f"},"vehicle_type_id":"4","last_reported":1784736797,"current_range_meters":22800,"station_id":"ce4bh192rcd13ifvqdd0","pricing_plan_id":"cebpf4jnsgd1na2vs0mg"},{"bike_id":"1e99efe8-5a96-48dd-977a-856215117710","system_id":"levelo_inurba_marseille","lat":43.3047,"lon":5.37913,"is_reserved":false,"is_disabled":false,"rental_uris":{"android":"levelo://app?vid=1e99efe8-5a96-48dd-977a-856215117710","ios":"levelo://app?vid=1e99efe8-5a96-48dd-977a-856215117710"},"vehicle_type_id":"4","last_reported":1784736797,"current_range_meters":14000,"station_id":"ce4bgup2rcd13ifvqcn0","pricing_plan_id":"cebpf4jnsgd1na2vs0mg"},{"bike_id":"ea65f945-5804-4f4c-a343-1c5b9664c0e2","system_id":"levelo_inurba_marseille","lat":43.30959,"lon":5.39031,"is_reserved":false,"is_disabled":false,"rental_uris":{"android":"levelo://app?vid=ea65f945-5804-4f4c-a343-1c5b9664c0e2","ios":"levelo://app?vid=ea65f945-5804-4f4c-a343-1c5b9664c0e2"},"vehicle_type_id":"4","last_reported":1784736797,"current_range_meters":36400,"station_id":"ce4bgup2rcd13ifvqco0","pricing_plan_id":"cebpf4jnsgd1na2vs0mg"},{"bike_id":"0a224f33-c38a-42a0-95b4-ca0c9028e711","system_id":"levelo_inurba_marseille","lat":43.29622,"lon":5.37161,"is_reserved":false,"is_disabled":false,"rental_uris":{"android":"levelo://app?vid=0a224f33-c38a-42a0-95b4-ca0c9028e711","ios":"levelo://app?vid=0a224f33-c38a-42a0-95b4-ca0c9028e711"},"vehicle_type_id":"4","last_reported":1784736797,"current_range_meters":4000,"station_id":"","pricing_plan_id":"cebpf4jnsgd1na2vs0mg"},{"bike_id":"f2e59bdd-2f17-49ca-bf4a-49bc8429832d","system_id":"levelo_inurba_marseille","lat":43.31231,"lon":5.39006,"is_reserved":false,"is_disabled":false,"rental_uris":{"android":"levelo://app?vid=f2e59bdd-2f17-49ca-bf4a-49bc8429832d","ios":"levelo://app?vid=f2e59bdd-2f17-49ca-bf4a-49bc8429832d"},"vehicle_type_id":"4","last_reported":1784736797,"current_range_meters":14000,"station_id":"","pricing_plan_id":"cebpf4jnsgd1na2vs0mg"},{"bike_id":"78e7e967-a8d7-4345-8d31-93c9d317e74b","system_id":"levelo_inurba_marseille","lat":43.30451,"lon":5.40904,"is_reserved":false,"is_disabled":false,"rental_uris":{"android":"levelo://app?vid=78e7e967-a8d7-4345-8d31-93c9d317e74b","ios":"levelo://app?vid=78e7e967-a8d7-4345-8d31-93c9d317e74b"},"vehicle_type_id":"4","last_reported":1784736797,"current_range_meters":25200,"station_id":"","pricing_plan_id":"cebpf4jnsgd1na2vs0mg"},{"bike_id":"f1288106-a8c3-4624-ad2a-44299213b3e2","system_id":"levelo_inurba_marseille","lat":43.29578,"lon":5.36713,"is_reserved":false,"is_disabled":true,"rental_uris":{"android":"levelo://app?vid=f1288106-a8c3-4624-ad2a-44299213b3e2","ios":"levelo://app?vid=f1288106-a8c3-4624-ad2a-44299213b3e2"},"vehicle_type_id":"4","last_reported":1784736797,"current_range_meters":3200,"station_id":"","pricing_plan_id":"cebpf4jnsgd1na2vs0mg"},{"bike_id":"ab907c16-2123-44c2-912f-95e0f2737c03","system_id":"levelo_inurba_marseille","lat":43.30376,"lon":5.42742,"is_reserved":false,"is_disabled":true,"rental_uris":{"android":"levelo://app?vid=ab907c16-2123-44c2-912f-95e0f2737c03","ios":"levelo://app?vid=ab907c16-2123-44c2-912f-95e0f2737c03"},"vehicle_type_id":"4","last_reported":1784736797,"current_range_meters":23200,"station_id":"","pricing_plan_id":"cebpf4jnsgd1na2vs0mg"},{"bike_id":"9958bf3e-9f9b-4b76-97c7-d14660691215","system_id":"levelo_inurba_marseille","lat":43.27994,"lon":5.38696,"is_reserved":false,"is_disabled":false,"rental_uris":{"android":"levelo://app?vid=9958bf3e-9f9b-4b76-97c7-d14660691215","ios":"levelo://app?vid=9958bf3e-9f9b-4b76-97c7-d14660691215"},"vehicle_type_id":"4","last_reported":1784736797,"current_range_meters":19200,"station_id":"ce4bhg12rcd13ifvqf80","pricing_plan_id":"cebpf4jnsgd1na2vs0mg"},{"bike_id":"a8ff2f94-9e16-4d39-bd20-c7f39723c491","system_id":"levelo_inurba_marseille","lat":43.29638,"lon":5.37738,"is_reserved":false,"is_disabled":true,"rental_uris":{"android":"levelo://app?vid=a8ff2f94-9e16-4d39-bd20-c7f39723c491","ios":"levelo://app?vid=a8ff2f94-9e16-4d39-bd20-c7f39723c491"},"vehicle_type_id":"4","last_reported":1784736797,"current_range_meters":800,"station_id":"ce4bgi92rcd13ifvqb90","pricing_plan_id":"cebpf4jnsgd1na2vs0mg"},{"bike_id":"c5c647c0-7273-4814-bada-bb1488e36941","system_id":"levelo_inurba_marseille","lat":43.28418,"lon":5.34989,"is_reserved":false,"is_disabled":false,"rental_uris":{"android":"levelo://app?vid=c5c647c0-7273-4814-bada-bb1488e36941","ios":"levelo://app?vid=c5c647c0-7273-4814-bada-bb1488e36941"},"vehicle_type_id":"4","last_reported":1784736797,"current_range_meters":39200,"station_id":"ce4bhbh2rcd13ifvqepg","pricing_plan_id":"cebpf4jnsgd1na2vs0mg"},{"bike_id":"c520161e-c250-4161-a55a-6b287776d8da","system_id":"levelo_inurba_marseille","lat":43.28495,"lon":5.48377,"is_reserved":false,"is_disabled":false,"rental_uris":{"android":"levelo://app?vid=c520161e-c250-4161-a55a-6b287776d8da","ios":"levelo://app?vid=c520161e-c250-4161-a55a-6b287776d8da"},"vehicle_type_id":"4","last_reported":1784736797,"current_range_meters":27600,"station_id":"st_d3svhcjqgbts73a3dn0g","pricing_plan_id":"cebpf4jnsgd1na2vs0mg"},{"bike_id":"5326a61d-4052-4baf-bbd3-97dda62fe6d7","system_id":"levelo_inurba_marseille","lat":43.2854,"lon":5.44091,"is_reserved":false,"is_disabled":false,"rental_uris":{"android":"levelo://app?vid=5326a61d-4052-4baf-bbd3-97dda62fe6d7","ios":"levelo://app?vid=5326a61d-4052-4baf-bbd3-97dda62fe6d7"},"vehicle_type_id":"4","last_reported":1784736797,"current_range_meters":25200,"station_id":"st_d3j3df2ikq2c7380ej80","pricing_plan_id":"cebpf4jnsgd1na2vs0mg"},{"bike_id":"d5878d1e-782c-4c26-aa75-af712dc5a0dd","system_id":"levelo_inurba_marseille","lat":43.24796,"lon":5.37445,"is_reserved":false,"is_disabled":false,"rental_uris":{"android":"levelo://app?vid=d5878d1e-782c-4c26-aa75-af712dc5a0dd","ios":"levelo://app?vid=d5878d1e-782c-4c26-aa75-af712dc5a0dd"},"vehicle_type_id":"4","last_reported":1784736797,"current_range_meters":13600,"station_id":"ce4bhgh2rcd13ifvqfb0","pricing_plan_id":"cebpf4jnsgd1na2vs0mg"},{"bike_id":"be854a7b-2aed-4889-88e7-8bfd2e8e443a","system_id":"levelo_inurba_marseille","lat":43.29015,"lon":5.35596,"is_reserved":false,"is_disabled":false,"rental_uris":{"android":"levelo://app?vid=be854a7b-2aed-4889-88e7-8bfd2e8e443a","ios":"levelo://app?vid=be854a7b-2aed-4889-88e7-8bfd2e8e443a"},"vehicle_type_id":"4","last_reported":1784736797,"current_range_meters":32800,"station_id":"ce4bhb92rcd13ifvqen0","pricing_plan_id":"cebpf4jnsgd1na2vs0mg"},{"bike_id":"bf9b6b66-5288-4ad2-9f8b-8b478eaf85b2","system_id":"levelo_inurba_marseille","lat":43.31488,"lon":5.373,"is_reserved":false,"is_disabled":false,"rental_uris":{"android":"levelo://app?vid=bf9b6b66-5288-4ad2-9f8b-8b478eaf85b2","ios":"levelo://app?vid=bf9b6b66-5288-4ad2-9f8b-8b478eaf85b2"},"vehicle_type_id":"4","last_reported":1784736797,"current_range_meters":38800,"station_id":"ce4bgt12rcd13ifvqcd0","pricing_plan_id":"cebpf4jnsgd1na2vs0mg"},{"bike_id":"3c152ce7-b1e3-46b6-9481-1d5804cf459e","system_id":"levelo_inurba_marseille","lat":43.26206,"lon":5.37443,"is_reserved":false,"is_disabled":false,"rental_uris":{"android":"levelo://app?vid=3c152ce7-b1e3-46b6-9481-1d5804cf459e","ios":"levelo://app?vid=3c152ce7-b1e3-46b6-9481-1d5804cf459e"},"vehicle_type_id":"4","last_reported":1784736797,"current_range_meters":34800,"station_id":"ce4bhgp2rcd13ifvqfc0","pricing_plan_id":"cebpf4jnsgd1na2vs0mg"},{"bike_id":"e6f28fed-2e2d-4610-9cbe-6e0c0bfdc579","system_id":"levelo_inurba_marseille","lat":43.25458,"lon":5.37598,"is_reserved":false,"is_disabled":false,"rental_uris":{"android":"levelo://app?vid=e6f28fed-2e2d-4610-9cbe-6e0c0bfdc579","ios":"levelo://app?vid=e6f28fed-2e2d-4610-9cbe-6e0c0bfdc579"},"vehicle_type_id":"4","last_reported":1784736797,"current_range_meters":40000,"station_id":"ce4bhh12rcd13ifvqff0","pricing_plan_id":"cebpf4jnsgd1na2vs0mg"},{"bike_id":"d48a3567-dcc1-43e8-99b8-e6b8d94ef6b8","system_id":"levelo_inurba_marseille","lat":43.25002,"lon":5.38929,"is_reserved":false,"is_disabled":false,"rental_uris":{"android":"levelo://app?vid=d48a3567-dcc1-43e8-99b8-e6b8d94ef6b8","ios":"levelo://app?vid=d48a3567-dcc1-43e8-99b8-e6b8d94ef6b8"},"vehicle_type_id":"4","last_reported":1784736797,"current_range_meters":32400,"station_id":"ce4bhgp2rcd13ifvqfd0","pricing_plan_id":"cebpf4jnsgd1na2vs0mg"},{"bike_id":"560eabcd-e28f-4611-9bd4-bc099a04baff","system_id":"levelo_inurba_marseille","lat":43.29323,"lon":5.36315,"is_reserved":false,"is_disabled":false,"rental_uris":{"android":"levelo://app?vid=560eabcd-e28f-4611-9bd4-bc099a04baff","ios":"levelo://app?vid=560eabcd-e28f-4611-9bd4-bc099a04baff"},"vehicle_type_id":"4","last_reported":1784736797,"current_range_meters":15200,"station_id":"","pricing_plan_id":"cebpf4jnsgd1na2vs0mg"},{"bike_id":"3a34f52e-1e5b-45cf-b1c8-7a76d3f0220c","system_id":"levelo_inurba_marseille","lat":43.29262,"lon":5.41706,"is_reserved":false,"is_disabled":false,"rental_uris":{"android":"levelo://app?vid=3a34f52e-1e5b-45cf-b1c8-7a76d3f0220c","ios":"levelo://app?vid=3a34f52e-1e5b-45cf-b1c8-7a76d3f0220c"},"vehicle_type_id":"4","last_reported":1784736797,"current_range_meters":30800,"station_id":"","pricing_plan_id":"cebpf4jnsgd1na2vs0mg"},{"bike_id":"6b8dee63-ddc9-4430-9d81-f18128859f10","system_id":"levelo_inurba_marseille","lat":43.27371,"lon":5.36255,"is_reserved":false,"is_disabled":false,"rental_uris":{"android":"levelo://app?vid=6b8dee63-ddc9-4430-9d81-f18128859f10","ios":"levelo://app?vid=6b8dee63-ddc9-4430-9d81-f18128859f10"},"vehicle_type_id":"4","last_reported":1784736797,"current_range_meters":8400,"station_id":"ce4bhbh2rcd13ifvqeo0","pricing_plan_id":"cebpf4jnsgd1na2vs0mg"},{"bike_id":"b8e43a89-3bb1-4279-9cee-f7b093c9b703","system_id":"levelo_inurba_marseille","lat":43.33718,"lon":5.37415,"is_reserved":false,"is_disabled":false,"rental_uris":{"android":"levelo://app?vid=b8e43a89-3bb1-4279-9cee-f7b093c9b703","ios":"levelo://app?vid=b8e43a89-3bb1-4279-9cee-f7b093c9b703"},"vehicle_type_id":"4","last_reported":1784736797,"current_range_meters":14400,"station_id":"","pricing_plan_id":"cebpf4jnsgd1na2vs0mg"},{"bike_id":"8c54902d-27c7-4cf7-82fe-89d69f7802ea","system_id":"levelo_inurba_marseille","lat":43.27435,"lon":5.39272,"is_reserved":false,"is_disabled":false,"rental_uris":{"android":"levelo://app?vid=8c54902d-27c7-4cf7-82fe-89d69f7802ea","ios":"levelo://app?vid=8c54902d-27c7-4cf7-82fe-89d69f7802ea"},"vehicle_type_id":"4","last_reported":1784736797,"current_range_meters":35200,"station_id":"","pricing_plan_id":"cebpf4jnsgd1na2vs0mg"},{"bike_id":"17ec69e9-f82e-42b7-8fd3-de92d2bea59d","system_id":"levelo_inurba_marseille","lat":43.25365,"lon":5.42182,"is_reserved":false,"is_disabled":false,"rental_uris":{"android":"levelo://app?vid=17ec69e9-f82e-42b7-8fd3-de92d2bea59d","ios":"levelo://app?vid=17ec69e9-f82e-42b7-8fd3-de92d2bea59d"},"vehicle_type_id":"4","last_reported":1784736797,"current_range_meters":23200,"station_id":"st_d2m65c5bi1j21697t3ng","pricing_plan_id":"cebpf4jnsgd1na2vs0mg"},{"bike_id":"7bde1630-495c-4e0c-96f7-f169fe169cdb","system_id":"levelo_inurba_marseille","lat":43.2619,"lon":5.3744,"is_reserved":false,"is_disabled":false,"rental_uris":{"android":"levelo://app?vid=7bde1630-495c-4e0c-96f7-f169fe169cdb","ios":"levelo://app?vid=7bde1630-495c-4e0c-96f7-f169fe169cdb"},"vehicle_type_id":"4","last_reported":1784736797,"current_range_meters":38000,"station_id":"ce4bhgp2rcd13ifvqfc0","pricing_plan_id":"cebpf4jnsgd1na2vs0mg"},{"bike_id":"5783761d-f3a8-46b4-8c26-9812d8d66703","system_id":"levelo_inurba_marseille","lat":43.22542,"lon":5.34823,"is_reserved":false,"is_disabled":false,"rental_uris":{"android":"levelo://app?vid=5783761d-f3a8-46b4-8c26-9812d8d66703","ios":"levelo://app?vid=5783761d-f3a8-46b4-8c26-9812d8d66703"},"vehicle_type_id":"4","last_reported":1784736797,"current_range_meters":22400,"station_id":"st_cvj5dfep6f1abm77gieg","pricing_plan_id":"cebpf4jnsgd1na2vs0mg"},{"bike_id":"c78c43ea-877a-4ac2-9b75-5faaed3966d3","system_id":"levelo_inurba_marseille","lat":43.28618,"lon":5.35094,"is_reserved":false,"is_disabled":false,"rental_uris":{"android":"levelo://app?vid=c78c43ea-877a-4ac2-9b75-5faaed3966d3","ios":"levelo://app?vid=c78c43ea-877a-4ac2-9b75-5faaed3966d3"},"vehicle_type_id":"4","last_reported":1784736797,"current_range_meters":38000,"station_id":"ce4bhch2rcd13ifvqeug","pricing_plan_id":"cebpf4jnsgd1na2vs0mg"},{"bike_id":"05e21021-a1a7-4684-80d2-33c024e6b791","system_id":"levelo_inurba_marseille","lat":43.28406,"lon":5.34977,"is_reserved":false,"is_disabled":true,"rental_uris":{"android":"levelo://app?vid=05e21021-a1a7-4684-80d2-33c024e6b791","ios":"levelo://app?vid=05e21021-a1a7-4684-80d2-33c024e6b791"},"vehicle_type_id":"4","last_reported":1784736797,"current_range_meters":800,"station_id":"ce4bhbh2rcd13ifvqepg","pricing_plan_id":"cebpf4jnsgd1na2vs0mg"},{"bike_id":"13bbfe3b-874b-44d7-9abb-922c8de23c11","system_id":"levelo_inurba_marseille","lat":43.23267,"lon":5.35387,"is_reserved":false,"is_disabled":false,"rental_uris":{"android":"levelo://app?vid=13bbfe3b-874b-44d7-9abb-922c8de23c11","ios":"levelo://app?vid=13bbfe3b-874b-44d7-9abb-922c8de23c11"},"vehicle_type_id":"4","last_reported":1784736797,"current_range_meters":22000,"station_id":"","pricing_plan_id":"cebpf4jnsgd1na2vs0mg"},{"bike_id":"d7f5e790-34f0-4ef1-94d0-50b661d4939b","system_id":"levelo_inurba_marseille","lat":43.27372,"lon":5.36228,"is_reserved":false,"is_disabled":false,"rental_uris":{"android":"levelo://app?vid=d7f5e790-34f0-4ef1-94d0-50b661d4939b","ios":"levelo://app?vid=d7f5e790-34f0-4ef1-94d0-50b661d4939b"},"vehicle_type_id":"4","last_reported":1784736797,"current_range_meters":9200,"station_id":"ce4bhbh2rcd13ifvqeo0","pricing_plan_id":"cebpf4jnsgd1na2vs0mg"},{"bike_id":"2674d213-0471-4441-80ac-a07b933d0282","system_id":"levelo_inurba_marseille","lat":43.21649,"lon":5.34335,"is_reserved":false,"is_disabled":false,"rental_uris":{"android":"levelo://app?vid=2674d213-0471-4441-80ac-a07b933d0282","ios":"levelo://app?vid=2674d213-0471-4441-80ac-a07b933d0282"},"vehicle_type_id":"4","last_reported":1784736797,"current_range_meters":19200,"station_id":"","pricing_plan_id":"cebpf4jnsgd1na2vs0mg"},{"bike_id":"6ed5f8c3-6da8-4cec-bfad-13253a432d70","system_id":"levelo_inurba_marseille","lat":43.29426,"lon":5.38577,"is_reserved":false,"is_disabled":true,"rental_uris":{"android":"levelo://app?vid=6ed5f8c3-6da8-4cec-bfad-13253a432d70","ios":"levelo://app?vid=6ed5f8c3-6da8-4cec-bfad-13253a432d70"},"vehicle_type_id":"4","last_reported":1784736797,"current_range_meters":32000,"station_id":"","pricing_plan_id":"cebpf4jnsgd1na2vs0mg"},{"bike_id":"2abfcdfb-2eb0-4480-932d-1071dc8638d6","system_id":"levelo_inurba_marseille","lat":43.33539,"lon":5.37462,"is_reserved":false,"is_disabled":false,"rental_uris":{"android":"levelo://app?vid=2abfcdfb-2eb0-4480-932d-1071dc8638d6","ios":"levelo://app?vid=2abfcdfb-2eb0-4480-932d-1071dc8638d6"},"vehicle_type_id":"4","last_reported":1784736797,"current_range_meters":27200,"station_id":"st_d46tts09ee8s73dlu43g","pricing_plan_id":"cebpf4jnsgd1na2vs0mg"},{"bike_id":"0dee0085-d5a5-4c48-b3f1-a323bb744f3d","system_id":"levelo_inurba_marseille","lat":43.22562,"lon":5.41624,"is_reserved":false,"is_disabled":false,"rental_uris":{"android":"levelo://app?vid=0dee0085-d5a5-4c48-b3f1-a323bb744f3d","ios":"levelo://app?vid=0dee0085-d5a5-4c48-b3f1-a323bb744f3d"},"vehicle_type_id":"4","last_reported":1784736797,"current_range_meters":30800,"station_id":"st_d2o4gvlbi1j2169b742g","pricing_plan_id":"cebpf4jnsgd1na2vs0mg"},{"bike_id":"d5434ec1-747e-4483-8f3d-062e70835086","system_id":"levelo_inurba_marseille","lat":43.31358,"lon":5.38483,"is_reserved":false,"is_disabled":false,"rental_uris":{"android":"levelo://app?vid=d5434ec1-747e-4483-8f3d-062e70835086","ios":"levelo://app?vid=d5434ec1-747e-4483-8f3d-062e70835086"},"vehicle_type_id":"4","last_reported":1784736797,"current_range_meters":26800,"station_id":"ce4bgt92rcd13ifvqcf0","pricing_plan_id":"cebpf4jnsgd1na2vs0mg"},{"bike_id":"0b2c45f2-fdaa-45fe-9511-e6426cab85f6","system_id":"levelo_inurba_marseille","lat":43.27492,"lon":5.42441,"is_reserved":false,"is_disabled":false,"rental_uris":{"android":"levelo://app?vid=0b2c45f2-fdaa-45fe-9511-e6426cab85f6","ios":"levelo://app?vid=0b2c45f2-fdaa-45fe-9511-e6426cab85f6"},"vehicle_type_id":"4","last_reported":1784736797,"current_range_meters":18800,"station_id":"ce4bhn92rcd13ifvqgrg","pricing_plan_id":"cebpf4jnsgd1na2vs0mg"},{"bike_id":"f20fcdc5-f0b9-4328-be94-61548e2c19cd","system_id":"levelo_inurba_marseille","lat":43.2496,"lon":5.40492,"is_reserved":false,"is_disabled":false,"rental_uris":{"android":"levelo://app?vid=f20fcdc5-f0b9-4328-be94-61548e2c19cd","ios":"levelo://app?vid=f20fcdc5-f0b9-4328-be94-61548e2c19cd"},"vehicle_type_id":"4","last_reported":1784736797,"current_range_meters":3600,"station_id":"st_d2ngiaodas8pm72gd1h0","pricing_plan_id":"cebpf4jnsgd1na2vs0mg"},{"bike_id":"e4826f89-a06f-4156-a49c-fc79e096f1c1","system_id":"levelo_inurba_marseille","lat":43.30394,"lon":5.41824,"is_reserved":false,"is_disabled":false,"rental_uris":{"android":"levelo://app?vid=e4826f89-a06f-4156-a49c-fc79e096f1c1","ios":"levelo://app?vid=e4826f89-a06f-4156-a49c-fc79e096f1c1"},"vehicle_type_id":"4","last_reported":1784736797,"current_range_meters":9600,"station_id":"","pricing_plan_id":"cebpf4jnsgd1na2vs0mg"},{"bike_id":"dad5eff3-cb3a-4459-ba39-741abe4a6c6c","system_id":"levelo_inurba_marseille","lat":43.32106,"lon":5.36783,"is_reserved":false,"is_disabled":false,"rental_uris":{"android":"levelo://app?vid=dad5eff3-cb3a-4459-ba39-741abe4a6c6c","ios":"levelo://app?vid=dad5eff3-cb3a-4459-ba39-741abe4a6c6c"},"vehicle_type_id":"4","last_reported":1784736797,"current_range_meters":8000,"station_id":"ce4bhrh2rcd13ifvqhug","pricing_plan_id":"cebpf4jnsgd1na2vs0mg"},{"bike_id":"c3bc0131-0aef-4c3c-8d7d-d01b67ec31c3","system_id":"levelo_inurba_marseille","lat":43.26501,"lon":5.39542,"is_reserved":false,"is_disabled":false,"rental_uris":{"android":"levelo://app?vid=c3bc0131-0aef-4c3c-8d7d-d01b67ec31c3","ios":"levelo://app?vid=c3bc0131-0aef-4c3c-8d7d-d01b67ec31c3"},"vehicle_type_id":"4","last_reported":1784736797,"current_range_meters":39200,"station_id":"ce4bhi12rcd13ifvqfq0","pricing_plan_id":"cebpf4jnsgd1na2vs0mg"},{"bike_id":"a5551c5d-bed7-49e5-a83a-8da2b64da0c4","system_id":"levelo_inurba_marseille","lat":43.30902,"lon":5.36821,"is_reserved":false,"is_disabled":false,"rental_uris":{"android":"levelo://app?vid=a5551c5d-bed7-49e5-a83a-8da2b64da0c4","ios":"levelo://app?vid=a5551c5d-bed7-49e5-a83a-8da2b64da0c4"},"vehicle_type_id":"4","last_reported":1784736797,"current_range_meters":39200,"station_id":"ce4bgn92rcd13ifvqbvg","pricing_plan_id":"cebpf4jnsgd1na2vs0mg"},{"bike_id":"85ec3c3b-f789-44fa-ad71-381f35dd9246","system_id":"levelo_inurba_marseille","lat":43.28461,"lon":5.3842,"is_reserved":false,"is_disabled":true,"rental_uris":{"android":"levelo://app?vid=85ec3c3b-f789-44fa-ad71-381f35dd9246","ios":"levelo://app?vid=85ec3c3b-f789-44fa-ad71-381f35dd9246"},"vehicle_type_id":"4","last_reported":1784736797,"current_range_meters":2000,"station_id":"ce4bh512rcd13ifvqe3g","pricing_plan_id":"cebpf4jnsgd1na2vs0mg"},{"bike_id":"8d8673aa-a69c-4d74-931d-06b8f35221f4","system_id":"levelo_inurba_marseille","lat":43.26697,"lon":5.41989,"is_reserved":false,"is_disabled":false,"rental_uris":{"android":"levelo://app?vid=8d8673aa-a69c-4d74-931d-06b8f35221f4","ios":"levelo://app?vid=8d8673aa-a69c-4d74-931d-06b8f35221f4"},"vehicle_type_id":"4","last_reported":1784736797,"current_range_meters":26000,"station_id":"","pricing_plan_id":"cebpf4jnsgd1na2vs0mg"},{"bike_id":"bb6c1d94-b8a1-4d7e-8e26-2628675f7e1d","system_id":"levelo_inurba_marseille","lat":43.29614,"lon":5.37718,"is_reserved":false,"is_disabled":true,"rental_uris":{"android":"levelo://app?vid=bb6c1d94-b8a1-4d7e-8e26-2628675f7e1d","ios":"levelo://app?vid=bb6c1d94-b8a1-4d7e-8e26-2628675f7e1d"},"vehicle_type_id":"4","last_reported":1784736797,"current_range_meters":20800,"station_id":"ce4bgi92rcd13ifvqb90","pricing_plan_id":"cebpf4jnsgd1na2vs0mg"},{"bike_id":"b4d7c551-5126-4abd-9ca5-5b3e2ee7483d","system_id":"levelo_inurba_marseille","lat":43.27375,"lon":5.36242,"is_reserved":false,"is_disabled":false,"rental_uris":{"android":"levelo://app?vid=b4d7c551-5126-4abd-9ca5-5b3e2ee7483d","ios":"levelo://app?vid=b4d7c551-5126-4abd-9ca5-5b3e2ee7483d"},"vehicle_type_id":"4","last_reported":1784736797,"current_range_meters":6000,"station_id":"ce4bhbh2rcd13ifvqeo0","pricing_plan_id":"cebpf4jnsgd1na2vs0mg"},{"bike_id":"a8d558f7-f6c9-460e-8c57-eb92c7ff4ad2","system_id":"levelo_inurba_marseille","lat":43.31247,"lon":5.36887,"is_reserved":false,"is_disabled":false,"rental_uris":{"android":"levelo://app?vid=a8d558f7-f6c9-460e-8c57-eb92c7ff4ad2","ios":"levelo://app?vid=a8d558f7-f6c9-460e-8c57-eb92c7ff4ad2"},"vehicle_type_id":"4","last_reported":1784736797,"current_range_meters":32000,"station_id":"ce4bgl92rcd13ifvqbq0","pricing_plan_id":"cebpf4jnsgd1na2vs0mg"},{"bike_id":"1f5d690e-ec61-49f6-987c-1b19bb5fd774","system_id":"levelo_inurba_marseille","lat":43.32355,"lon":5.38892,"is_reserved":false,"is_disabled":false,"rental_uris":{"android":"levelo://app?vid=1f5d690e-ec61-49f6-987c-1b19bb5fd774","ios":"levelo://app?vid=1f5d690e-ec61-49f6-987c-1b19bb5fd774"},"vehicle_type_id":"4","last_reported":1784736797,"current_range_meters":38000,"station_id":"ce4bhqp2rcd13ifvqhog","pricing_plan_id":"cebpf4jnsgd1na2vs0mg"},{"bike_id":"1fade11d-8e73-4748-8586-d9741ca55ced","system_id":"levelo_inurba_marseille","lat":43.317152,"lon":5.437034,"is_reserved":false,"is_disabled":false,"rental_uris":{"android":"levelo://app?vid=1fade11d-8e73-4748-8586-d9741ca55ced","ios":"levelo://app?vid=1fade11d-8e73-4748-8586-d9741ca55ced"},"vehicle_type_id":"4","last_reported":1784736797,"current_range_meters":30800,"station_id":"ce4bhp92rcd13ifvqhcg","pricing_plan_id":"cebpf4jnsgd1na2vs0mg"},{"bike_id":"1d231300-ac38-4730-a7f3-534818a34dcf","system_id":"levelo_inurba_marseille","lat":43.2828,"lon":5.35055,"is_reserved":false,"is_disabled":false,"rental_uris":{"android":"levelo://app?vid=1d231300-ac38-4730-a7f3-534818a34dcf","ios":"levelo://app?vid=1d231300-ac38-4730-a7f3-534818a34dcf"},"vehicle_type_id":"4","last_reported":1784736797,"current_range_meters":30800,"station_id":"ce4bhbp2rcd13ifvqerg","pricing_plan_id":"cebpf4jnsgd1na2vs0mg"},{"bike_id":"647b1b80-7a84-4c19-adf0-0b9340791b69","system_id":"levelo_inurba_marseille","lat":43.28104,"lon":5.37841,"is_reserved":false,"is_disabled":false,"rental_uris":{"android":"levelo://app?vid=647b1b80-7a84-4c19-adf0-0b9340791b69","ios":"levelo://app?vid=647b1b80-7a84-4c19-adf0-0b9340791b69"},"vehicle_type_id":"4","last_reported":1784736797,"current_range_meters":39200,"station_id":"ce4bha12rcd13ifvqee0","pricing_plan_id":"cebpf4jnsgd1na2vs0mg"},{"bike_id":"fb51eaaf-ccd1-426a-93ee-d06143092e13","system_id":"levelo_inurba_marseille","lat":43.30466,"lon":5.37912,"is_reserved":false,"is_disabled":false,"rental_uris":{"android":"levelo://app?vid=fb51eaaf-ccd1-426a-93ee-d06143092e13","ios":"levelo://app?vid=fb51eaaf-ccd1-426a-93ee-d06143092e13"},"vehicle_type_id":"4","last_reported":1784736797,"current_range_meters":28400,"station_id":"ce4bgup2rcd13ifvqcn0","pricing_plan_id":"cebpf4jnsgd1na2vs0mg"},{"bike_id":"9ebb7ae0-141a-43ea-a5bc-61b70816efce","system_id":"levelo_inurba_marseille","lat":43.260309,"lon":5.375524,"is_reserved":false,"is_disabled":false,"rental_uris":{"android":"levelo://app?vid=9ebb7ae0-141a-43ea-a5bc-61b70816efce","ios":"levelo://app?vid=9ebb7ae0-141a-43ea-a5bc-61b70816efce"},"vehicle_type_id":"4","last_reported":1784736797,"current_range_meters":39200,"station_id":"","pricing_plan_id":"cebpf4jnsgd1na2vs0mg"},{"bike_id":"1c2352d3-3810-4529-b252-583943f31c2a","system_id":"levelo_inurba_marseille","lat":43.24163,"lon":5.36402,"is_reserved":false,"is_disabled":false,"rental_uris":{"android":"levelo://app?vid=1c2352d3-3810-4529-b252-583943f31c2a","ios":"levelo://app?vid=1c2352d3-3810-4529-b252-583943f31c2a"},"vehicle_type_id":"4","last_reported":1784736797,"current_range_meters":30800,"station_id":"cpo36qri1sfpv3e86is0","pricing_plan_id":"cebpf4jnsgd1na2vs0mg"},{"bike_id":"3be294b1-97e6-483e-8bca-94ae9cfe3ae9","system_id":"levelo_inurba_marseille","lat":43.25053,"lon":5.38865,"is_reserved":false,"is_disabled":false,"rental_uris":{"android":"levelo://app?vid=3be294b1-97e6-483e-8bca-94ae9cfe3ae9","ios":"levelo://app?vid=3be294b1-97e6-483e-8bca-94ae9cfe3ae9"},"vehicle_type_id":"4","last_reported":1784736797,"current_range_meters":26000,"station_id":"","pricing_plan_id":"cebpf4jnsgd1na2vs0mg"},{"bike_id":"36f797d9-5b95-4843-b50e-7f80ed979ebf","system_id":"levelo_inurba_marseille","lat":43.25598,"lon":5.38231,"is_reserved":false,"is_disabled":false,"rental_uris":{"android":"levelo://app?vid=36f797d9-5b95-4843-b50e-7f80ed979ebf","ios":"levelo://app?vid=36f797d9-5b95-4843-b50e-7f80ed979ebf"},"vehicle_type_id":"4","last_reported":1784736797,"current_range_meters":25600,"station_id":"ce4bhih2rcd13ifvqfs0","pricing_plan_id":"cebpf4jnsgd1na2vs0mg"},{"bike_id":"a31cea0c-4cff-4f6d-8f93-36842670158b","system_id":"levelo_inurba_marseille","lat":43.29681,"lon":5.36583,"is_reserved":false,"is_disabled":true,"rental_uris":{"android":"levelo://app?vid=a31cea0c-4cff-4f6d-8f93-36842670158b","ios":"levelo://app?vid=a31cea0c-4cff-4f6d-8f93-36842670158b"},"vehicle_type_id":"4","last_reported":1784736797,"current_range_meters":39200,"station_id":"ce4bgn12rcd13ifvqbt0","pricing_plan_id":"cebpf4jnsgd1na2vs0mg"},{"bike_id":"4a7529a1-fd80-491a-b4fd-887bd4ff6c99","system_id":"levelo_inurba_marseille","lat":43.24989,"lon":5.38934,"is_reserved":false,"is_disabled":false,"rental_uris":{"android":"levelo://app?vid=4a7529a1-fd80-491a-b4fd-887bd4ff6c99","ios":"levelo://app?vid=4a7529a1-fd80-491a-b4fd-887bd4ff6c99"},"vehicle_type_id":"4","last_reported":1784736797,"current_range_meters":39200,"station_id":"ce4bhgp2rcd13ifvqfd0","pricing_plan_id":"cebpf4jnsgd1na2vs0mg"},{"bike_id":"e8e76fdb-2435-48b2-aa84-a6718b0c1249","system_id":"levelo_inurba_marseille","lat":43.26537,"lon":5.37209,"is_reserved":false,"is_disabled":false,"rental_uris":{"android":"levelo://app?vid=e8e76fdb-2435-48b2-aa84-a6718b0c1249","ios":"levelo://app?vid=e8e76fdb-2435-48b2-aa84-a6718b0c1249"},"vehicle_type_id":"4","last_reported":1784736797,"current_range_meters":38400,"station_id":"","pricing_plan_id":"cebpf4jnsgd1na2vs0mg"},{"bike_id":"3dcd452f-570f-43d5-97a7-8ea89caf620e","system_id":"levelo_inurba_marseille","lat":43.24818,"lon":5.37454,"is_reserved":false,"is_disabled":false,"rental_uris":{"android":"levelo://app?vid=3dcd452f-570f-43d5-97a7-8ea89caf620e","ios":"levelo://app?vid=3dcd452f-570f-43d5-97a7-8ea89caf620e"},"vehicle_type_id":"4","last_reported":1784736797,"current_range_meters":36400,"station_id":"ce4bhgh2rcd13ifvqfb0","pricing_plan_id":"cebpf4jnsgd1na2vs0mg"},{"bike_id":"747d888c-b833-4d91-8098-768070d4079e","system_id":"levelo_inurba_marseille","lat":43.30558,"lon":5.382,"is_reserved":false,"is_disabled":false,"rental_uris":{"android":"levelo://app?vid=747d888c-b833-4d91-8098-768070d4079e","ios":"levelo://app?vid=747d888c-b833-4d91-8098-768070d4079e"},"vehicle_type_id":"4","last_reported":1784736797,"current_range_meters":36800,"station_id":"","pricing_plan_id":"cebpf4jnsgd1na2vs0mg"},{"bike_id":"425cee52-7ff4-408d-b63f-f1bb20a33257","system_id":"levelo_inurba_marseille","lat":43.27486,"lon":5.42553,"is_reserved":false,"is_disabled":false,"rental_uris":{"android":"levelo://app?vid=425cee52-7ff4-408d-b63f-f1bb20a33257","ios":"levelo://app?vid=425cee52-7ff4-408d-b63f-f1bb20a33257"},"vehicle_type_id":"4","last_reported":1784736797,"current_range_meters":37600,"station_id":"st_d8t4bh7nbrqs73arha60","pricing_plan_id":"cebpf4jnsgd1na2vs0mg"},{"bike_id":"acb6c310-64e8-4ffb-9d0e-3645b38213aa","system_id":"levelo_inurba_marseille","lat":43.22566,"lon":5.41638,"is_reserved":false,"is_disabled":false,"rental_uris":{"android":"levelo://app?vid=acb6c310-64e8-4ffb-9d0e-3645b38213aa","ios":"levelo://app?vid=acb6c310-64e8-4ffb-9d0e-3645b38213aa"},"vehicle_type_id":"4","last_reported":1784736797,"current_range_meters":8800,"station_id":"st_d2o4gvlbi1j2169b742g","pricing_plan_id":"cebpf4jnsgd1na2vs0mg"},{"bike_id":"3c8596e2-1d5e-49b5-9ff7-ae897a69659c","system_id":"levelo_inurba_marseille","lat":43.28411,"lon":5.3496,"is_reserved":false,"is_disabled":false,"rental_uris":{"android":"levelo://app?vid=3c8596e2-1d5e-49b5-9ff7-ae897a69659c","ios":"levelo://app?vid=3c8596e2-1d5e-49b5-9ff7-ae897a69659c"},"vehicle_type_id":"4","last_reported":1784736797,"current_range_meters":32000,"station_id":"ce4bhbh2rcd13ifvqepg","pricing_plan_id":"cebpf4jnsgd1na2vs0mg"},{"bike_id":"2b2d5806-a98a-4b6d-8666-219c96826a65","system_id":"levelo_inurba_marseille","lat":43.33022,"lon":5.39027,"is_reserved":false,"is_disabled":false,"rental_uris":{"android":"levelo://app?vid=2b2d5806-a98a-4b6d-8666-219c96826a65","ios":"levelo://app?vid=2b2d5806-a98a-4b6d-8666-219c96826a65"},"vehicle_type_id":"4","last_reported":1784736797,"current_range_meters":9200,"station_id":"ce4bhr92rcd13ifvqhrg","pricing_plan_id":"cebpf4jnsgd1na2vs0mg"},{"bike_id":"9d4b8430-c687-4ce9-b117-2b375d0afc9f","system_id":"levelo_inurba_marseille","lat":43.24169,"lon":5.36395,"is_reserved":false,"is_disabled":true,"rental_uris":{"android":"levelo://app?vid=9d4b8430-c687-4ce9-b117-2b375d0afc9f","ios":"levelo://app?vid=9d4b8430-c687-4ce9-b117-2b375d0afc9f"},"vehicle_type_id":"4","last_reported":1784736797,"current_range_meters":35200,"station_id":"cpo36qri1sfpv3e86is0","pricing_plan_id":"cebpf4jnsgd1na2vs0mg"},{"bike_id":"3b9dd2d6-9183-4a87-8a8b-17bcfd30b365","system_id":"levelo_inurba_marseille","lat":43.295287,"lon":5.385442,"is_reserved":false,"is_disabled":true,"rental_uris":{"android":"levelo://app?vid=3b9dd2d6-9183-4a87-8a8b-17bcfd30b365","ios":"levelo://app?vid=3b9dd2d6-9183-4a87-8a8b-17bcfd30b365"},"vehicle_type_id":"4","last_reported":1784736797,"current_range_meters":1600,"station_id":"ce4bgih2rcd13ifvqba0","pricing_plan_id":"cebpf4jnsgd1na2vs0mg"},{"bike_id":"550d52cf-f2da-49d7-9241-7e04a849abf7","system_id":"levelo_inurba_marseille","lat":43.26563,"lon":5.40323,"is_reserved":false,"is_disabled":false,"rental_uris":{"android":"levelo://app?vid=550d52cf-f2da-49d7-9241-7e04a849abf7","ios":"levelo://app?vid=550d52cf-f2da-49d7-9241-7e04a849abf7"},"vehicle_type_id":"4","last_reported":1784736797,"current_range_meters":39200,"station_id":"ce4bhmp2rcd13ifvqgng","pricing_plan_id":"cebpf4jnsgd1na2vs0mg"},{"bike_id":"c847f537-1bc6-4bb8-b70e-fb2d6ce4a7f4","system_id":"levelo_inurba_marseille","lat":43.23794,"lon":5.36632,"is_reserved":false,"is_disabled":false,"rental_uris":{"android":"levelo://app?vid=c847f537-1bc6-4bb8-b70e-fb2d6ce4a7f4","ios":"levelo://app?vid=c847f537-1bc6-4bb8-b70e-fb2d6ce4a7f4"},"vehicle_type_id":"4","last_reported":1784736797,"current_range_meters":35600,"station_id":"st_d3nk18o9ro0c73en2l3g","pricing_plan_id":"cebpf4jnsgd1na2vs0mg"},{"bike_id":"5c6f8bea-55d6-43cf-af30-f331e50832dc","system_id":"levelo_inurba_marseille","lat":43.28682,"lon":5.38665,"is_reserved":false,"is_disabled":false,"rental_uris":{"android":"levelo://app?vid=5c6f8bea-55d6-43cf-af30-f331e50832dc","ios":"levelo://app?vid=5c6f8bea-55d6-43cf-af30-f331e50832dc"},"vehicle_type_id":"4","last_reported":1784736797,"current_range_meters":30400,"station_id":"ce4bh492rcd13ifvqdug","pricing_plan_id":"cebpf4jnsgd1na2vs0mg"},{"bike_id":"852376dd-f04f-4afc-82a9-1351bd20ef1f","system_id":"levelo_inurba_marseille","lat":43.23072,"lon":5.35488,"is_reserved":false,"is_disabled":false,"rental_uris":{"android":"levelo://app?vid=852376dd-f04f-4afc-82a9-1351bd20ef1f","ios":"levelo://app?vid=852376dd-f04f-4afc-82a9-1351bd20ef1f"},"vehicle_type_id":"4","last_reported":1784736797,"current_range_meters":39200,"station_id":"cpo3342slgdg3j2ifvpg","pricing_plan_id":"cebpf4jnsgd1na2vs0mg"},{"bike_id":"47ff0f9f-308b-4144-bd8b-574e9767fcd6","system_id":"levelo_inurba_marseille","lat":43.23072,"lon":5.35502,"is_reserved":false,"is_disabled":false,"rental_uris":{"android":"levelo://app?vid=47ff0f9f-308b-4144-bd8b-574e9767fcd6","ios":"levelo://app?vid=47ff0f9f-308b-4144-bd8b-574e9767fcd6"},"vehicle_type_id":"4","last_reported":1784736797,"current_range_meters":31200,"station_id":"cpo3342slgdg3j2ifvpg","pricing_plan_id":"cebpf4jnsgd1na2vs0mg"},{"bike_id":"bace381c-6258-4d80-80f1-070c343af026","system_id":"levelo_inurba_marseille","lat":43.33163,"lon":5.37693,"is_reserved":false,"is_disabled":false,"rental_uris":{"android":"levelo://app?vid=bace381c-6258-4d80-80f1-070c343af026","ios":"levelo://app?vid=bace381c-6258-4d80-80f1-070c343af026"},"vehicle_type_id":"4","last_reported":1784736797,"current_range_meters":9600,"station_id":"st_d46cu089ee8s73dldbu0","pricing_plan_id":"cebpf4jnsgd1na2vs0mg"},{"bike_id":"d7cd559b-011e-4f7a-8875-35e324f90bda","system_id":"levelo_inurba_marseille","lat":43.29201,"lon":5.36327,"is_reserved":false,"is_disabled":false,"rental_uris":{"android":"levelo://app?vid=d7cd559b-011e-4f7a-8875-35e324f90bda","ios":"levelo://app?vid=d7cd559b-011e-4f7a-8875-35e324f90bda"},"vehicle_type_id":"4","last_reported":1784736797,"current_range_meters":28800,"station_id":"","pricing_plan_id":"cebpf4jnsgd1na2vs0mg"},{"bike_id":"66ee66ee-af5d-4d9d-b9ff-6af9fc025992","system_id":"levelo_inurba_marseille","lat":43.2795,"lon":5.41048,"is_reserved":false,"is_disabled":false,"rental_uris":{"android":"levelo://app?vid=66ee66ee-af5d-4d9d-b9ff-6af9fc025992","ios":"levelo://app?vid=66ee66ee-af5d-4d9d-b9ff-6af9fc025992"},"vehicle_type_id":"4","last_reported":1784736797,"current_range_meters":39200,"station_id":"ce4bhnp2rcd13ifvqh0g","pricing_plan_id":"cebpf4jnsgd1na2vs0mg"},{"bike_id":"e9e543b0-8ca5-47a6-998c-4902ea53cdd4","system_id":"levelo_inurba_marseille","lat":43.25195,"lon":5.3732,"is_reserved":false,"is_disabled":true,"rental_uris":{"android":"levelo://app?vid=e9e543b0-8ca5-47a6-998c-4902ea53cdd4","ios":"levelo://app?vid=e9e543b0-8ca5-47a6-998c-4902ea53cdd4"},"vehicle_type_id":"4","last_reported":1784736797,"current_range_meters":11600,"station_id":"","pricing_plan_id":"cebpf4jnsgd1na2vs0mg"},{"bike_id":"7b994b50-d1d9-4795-96d3-24bdfc1e5a92","system_id":"levelo_inurba_marseille","lat":43.231574,"lon":5.437026,"is_reserved":false,"is_disabled":false,"rental_uris":{"android":"levelo://app?vid=7b994b50-d1d9-4795-96d3-24bdfc1e5a92","ios":"levelo://app?vid=7b994b50-d1d9-4795-96d3-24bdfc1e5a92"},"vehicle_type_id":"4","last_reported":1784736797,"current_range_meters":21600,"station_id":"","pricing_plan_id":"cebpf4jnsgd1na2vs0mg"},{"bike_id":"3ca835a2-f6fd-48f7-b2d8-9c4bf8c198f9","system_id":"levelo_inurba_marseille","lat":43.274914,"lon":5.416171,"is_reserved":false,"is_disabled":false,"rental_uris":{"android":"levelo://app?vid=3ca835a2-f6fd-48f7-b2d8-9c4bf8c198f9","ios":"levelo://app?vid=3ca835a2-f6fd-48f7-b2d8-9c4bf8c198f9"},"vehicle_type_id":"4","last_reported":1784736797,"current_range_meters":20400,"station_id":"st_d6im8g6chgec73a5pndg","pricing_plan_id":"cebpf4jnsgd1na2vs0mg"},{"bike_id":"61afb904-aa3f-415c-92e0-cb71c3c800fd","system_id":"levelo_inurba_marseille","lat":43.292908,"lon":5.36842,"is_reserved":false,"is_disabled":false,"rental_uris":{"android":"levelo://app?vid=61afb904-aa3f-415c-92e0-cb71c3c800fd","ios":"levelo://app?vid=61afb904-aa3f-415c-92e0-cb71c3c800fd"},"vehicle_type_id":"4","last_reported":1784736797,"current_range_meters":21600,"station_id":"ce4bhbp2rcd13ifvqesg","pricing_plan_id":"cebpf4jnsgd1na2vs0mg"},{"bike_id":"0a2a9cec-7ac9-45d2-a3df-11ec4681fd29","system_id":"levelo_inurba_marseille","lat":43.24817,"lon":5.37441,"is_reserved":false,"is_disabled":false,"rental_uris":{"android":"levelo://app?vid=0a2a9cec-7ac9-45d2-a3df-11ec4681fd29","ios":"levelo://app?vid=0a2a9cec-7ac9-45d2-a3df-11ec4681fd29"},"vehicle_type_id":"4","last_reported":1784736797,"current_range_meters":30400,"station_id":"ce4bhgh2rcd13ifvqfb0","pricing_plan_id":"cebpf4jnsgd1na2vs0mg"},{"bike_id":"8f31f3af-0aa6-4421-8e2c-a77a880bef79","system_id":"levelo_inurba_marseille","lat":43.273726,"lon":5.398294,"is_reserved":false,"is_disabled":true,"rental_uris":{"android":"levelo://app?vid=8f31f3af-0aa6-4421-8e2c-a77a880bef79","ios":"levelo://app?vid=8f31f3af-0aa6-4421-8e2c-a77a880bef79"},"vehicle_type_id":"4","last_reported":1784736797,"current_range_meters":6800,"station_id":"","pricing_plan_id":"cebpf4jnsgd1na2vs0mg"},{"bike_id":"1be0d048-dbff-4dd0-804a-ad729be59f8f","system_id":"levelo_inurba_marseille","lat":43.28007,"lon":5.4167,"is_reserved":false,"is_disabled":false,"rental_uris":{"android":"levelo://app?vid=1be0d048-dbff-4dd0-804a-ad729be59f8f","ios":"levelo://app?vid=1be0d048-dbff-4dd0-804a-ad729be59f8f"},"vehicle_type_id":"4","last_reported":1784736797,"current_range_meters":18000,"station_id":"ce4bho12rcd13ifvqh1g","pricing_plan_id":"cebpf4jnsgd1na2vs0mg"},{"bike_id":"c66eefa3-cffb-42f8-80b9-8c74bc23692e","system_id":"levelo_inurba_marseille","lat":43.28267,"lon":5.35054,"is_reserved":false,"is_disabled":false,"rental_uris":{"android":"levelo://app?vid=c66eefa3-cffb-42f8-80b9-8c74bc23692e","ios":"levelo://app?vid=c66eefa3-cffb-42f8-80b9-8c74bc23692e"},"vehicle_type_id":"4","last_reported":1784736797,"current_range_meters":35200,"station_id":"ce4bhbp2rcd13ifvqerg","pricing_plan_id":"cebpf4jnsgd1na2vs0mg"},{"bike_id":"1a8f7e32-5d47-4694-89a5-a9089b244299","system_id":"levelo_inurba_marseille","lat":43.28069,"lon":5.38484,"is_reserved":false,"is_disabled":false,"rental_uris":{"android":"levelo://app?vid=1a8f7e32-5d47-4694-89a5-a9089b244299","ios":"levelo://app?vid=1a8f7e32-5d47-4694-89a5-a9089b244299"},"vehicle_type_id":"4","last_reported":1784736797,"current_range_meters":4400,"station_id":"","pricing_plan_id":"cebpf4jnsgd1na2vs0mg"},{"bike_id":"0b09f199-f023-48c6-9819-12d271dca1ff","system_id":"levelo_inurba_marseille","lat":43.3093,"lon":5.40147,"is_reserved":false,"is_disabled":false,"rental_uris":{"android":"levelo://app?vid=0b09f199-f023-48c6-9819-12d271dca1ff","ios":"levelo://app?vid=0b09f199-f023-48c6-9819-12d271dca1ff"},"vehicle_type_id":"4","last_reported":1784736797,"current_range_meters":32000,"station_id":"ce4bgvp2rcd13ifvqct0","pricing_plan_id":"cebpf4jnsgd1na2vs0mg"},{"bike_id":"a2c9fd6e-925c-4795-ba3f-b9c641931695","system_id":"levelo_inurba_marseille","lat":43.2961,"lon":5.37712,"is_reserved":false,"is_disabled":true,"rental_uris":{"android":"levelo://app?vid=a2c9fd6e-925c-4795-ba3f-b9c641931695","ios":"levelo://app?vid=a2c9fd6e-925c-4795-ba3f-b9c641931695"},"vehicle_type_id":"4","last_reported":1784736797,"current_range_meters":24800,"station_id":"ce4bgi92rcd13ifvqb90","pricing_plan_id":"cebpf4jnsgd1na2vs0mg"},{"bike_id":"9f25de1a-9695-405a-865d-3dab4f30af40","system_id":"levelo_inurba_marseille","lat":43.298053,"lon":5.380955,"is_reserved":false,"is_disabled":false,"rental_uris":{"android":"levelo://app?vid=9f25de1a-9695-405a-865d-3dab4f30af40","ios":"levelo://app?vid=9f25de1a-9695-405a-865d-3dab4f30af40"},"vehicle_type_id":"4","last_reported":1784736797,"current_range_meters":12400,"station_id":"ce4bgip2rcd13ifvqbb0","pricing_plan_id":"cebpf4jnsgd1na2vs0mg"},{"bike_id":"c0e80456-3887-4241-8586-1e9235c365bf","system_id":"levelo_inurba_marseille","lat":43.3015,"lon":5.38081,"is_reserved":false,"is_disabled":false,"rental_uris":{"android":"levelo://app?vid=c0e80456-3887-4241-8586-1e9235c365bf","ios":"levelo://app?vid=c0e80456-3887-4241-8586-1e9235c365bf"},"vehicle_type_id":"4","last_reported":1784736797,"current_range_meters":29600,"station_id":"","pricing_plan_id":"cebpf4jnsgd1na2vs0mg"},{"bike_id":"7b7c350c-7fa0-4260-b6c2-812c00fe7727","system_id":"levelo_inurba_marseille","lat":43.32109,"lon":5.36778,"is_reserved":false,"is_disabled":false,"rental_uris":{"android":"levelo://app?vid=7b7c350c-7fa0-4260-b6c2-812c00fe7727","ios":"levelo://app?vid=7b7c350c-7fa0-4260-b6c2-812c00fe7727"},"vehicle_type_id":"4","last_reported":1784736797,"current_range_meters":27200,"station_id":"ce4bhrh2rcd13ifvqhug","pricing_plan_id":"cebpf4jnsgd1na2vs0mg"},{"bike_id":"002b6de9-4906-4900-bd53-a26437451aab","system_id":"levelo_inurba_marseille","lat":43.33267,"lon":5.35884,"is_reserved":false,"is_disabled":false,"rental_uris":{"android":"levelo://app?vid=002b6de9-4906-4900-bd53-a26437451aab","ios":"levelo://app?vid=002b6de9-4906-4900-bd53-a26437451aab"},"vehicle_type_id":"4","last_reported":1784736797,"current_range_meters":12000,"station_id":"","pricing_plan_id":"cebpf4jnsgd1na2vs0mg"},{"bike_id":"94f1b0ad-aaa9-4b51-806c-9eae39355e9b","system_id":"levelo_inurba_marseille","lat":43.27381,"lon":5.3623,"is_reserved":false,"is_disabled":true,"rental_uris":{"android":"levelo://app?vid=94f1b0ad-aaa9-4b51-806c-9eae39355e9b","ios":"levelo://app?vid=94f1b0ad-aaa9-4b51-806c-9eae39355e9b"},"vehicle_type_id":"4","last_reported":1784736797,"current_range_meters":28400,"station_id":"ce4bhbh2rcd13ifvqeo0","pricing_plan_id":"cebpf4jnsgd1na2vs0mg"},{"bike_id":"1d7032c9-ef92-473d-bdab-01820d26699c","system_id":"levelo_inurba_marseille","lat":43.23509,"lon":5.35994,"is_reserved":false,"is_disabled":false,"rental_uris":{"android":"levelo://app?vid=1d7032c9-ef92-473d-bdab-01820d26699c","ios":"levelo://app?vid=1d7032c9-ef92-473d-bdab-01820d26699c"},"vehicle_type_id":"4","last_reported":1784736797,"current_range_meters":8400,"station_id":"","pricing_plan_id":"cebpf4jnsgd1na2vs0mg"},{"bike_id":"3d185dea-3134-4b35-9cee-49aed1f0c978","system_id":"levelo_inurba_marseille","lat":43.24692,"lon":5.38133,"is_reserved":false,"is_disabled":true,"rental_uris":{"android":"levelo://app?vid=3d185dea-3134-4b35-9cee-49aed1f0c978","ios":"levelo://app?vid=3d185dea-3134-4b35-9cee-49aed1f0c978"},"vehicle_type_id":"4","last_reported":1784736797,"current_range_meters":36400,"station_id":"ce4bhih2rcd13ifvqfr0","pricing_plan_id":"cebpf4jnsgd1na2vs0mg"},{"bike_id":"d59836fa-cc94-4caa-8c24-e346fea64424","system_id":"levelo_inurba_marseille","lat":43.29975,"lon":5.3844,"is_reserved":false,"is_disabled":true,"rental_uris":{"android":"levelo://app?vid=d59836fa-cc94-4caa-8c24-e346fea64424","ios":"levelo://app?vid=d59836fa-cc94-4caa-8c24-e346fea64424"},"vehicle_type_id":"4","last_reported":1784736797,"current_range_meters":10800,"station_id":"ce4bgj92rcd13ifvqbd0","pricing_plan_id":"cebpf4jnsgd1na2vs0mg"},{"bike_id":"ba8332a1-4488-4cf4-9483-e0497d9712ec","system_id":"levelo_inurba_marseille","lat":43.28932,"lon":5.36396,"is_reserved":false,"is_disabled":true,"rental_uris":{"android":"levelo://app?vid=ba8332a1-4488-4cf4-9483-e0497d9712ec","ios":"levelo://app?vid=ba8332a1-4488-4cf4-9483-e0497d9712ec"},"vehicle_type_id":"4","last_reported":1784736797,"current_range_meters":0,"station_id":"ce4bhc92rcd13ifvqetg","pricing_plan_id":"cebpf4jnsgd1na2vs0mg"},{"bike_id":"c1923bef-d0b3-44d9-9a00-ca5ec0311fc3","system_id":"levelo_inurba_marseille","lat":43.2553,"lon":5.3763,"is_reserved":false,"is_disabled":false,"rental_uris":{"android":"levelo://app?vid=c1923bef-d0b3-44d9-9a00-ca5ec0311fc3","ios":"levelo://app?vid=c1923bef-d0b3-44d9-9a00-ca5ec0311fc3"},"vehicle_type_id":"4","last_reported":1784736797,"current_range_meters":40000,"station_id":"ce4bhh12rcd13ifvqff0","pricing_plan_id":"cebpf4jnsgd1na2vs0mg"},{"bike_id":"16c1f100-ded8-41c5-85ce-060e556d650d","system_id":"levelo_inurba_marseille","lat":43.25016,"lon":5.38929,"is_reserved":false,"is_disabled":false,"rental_uris":{"android":"levelo://app?vid=16c1f100-ded8-41c5-85ce-060e556d650d","ios":"levelo://app?vid=16c1f100-ded8-41c5-85ce-060e556d650d"},"vehicle_type_id":"4","last_reported":1784736797,"current_range_meters":39200,"station_id":"ce4bhgp2rcd13ifvqfd0","pricing_plan_id":"cebpf4jnsgd1na2vs0mg"},{"bike_id":"1981d3ef-d7ae-460e-a247-e2f1120f8322","system_id":"levelo_inurba_marseille","lat":43.24573,"lon":5.41987,"is_reserved":false,"is_disabled":false,"rental_uris":{"android":"levelo://app?vid=1981d3ef-d7ae-460e-a247-e2f1120f8322","ios":"levelo://app?vid=1981d3ef-d7ae-460e-a247-e2f1120f8322"},"vehicle_type_id":"4","last_reported":1784736797,"current_range_meters":17200,"station_id":"","pricing_plan_id":"cebpf4jnsgd1na2vs0mg"},{"bike_id":"165f17ce-60d5-4c1f-b561-f2a05656aed3","system_id":"levelo_inurba_marseille","lat":43.24178,"lon":5.36397,"is_reserved":false,"is_disabled":false,"rental_uris":{"android":"levelo://app?vid=165f17ce-60d5-4c1f-b561-f2a05656aed3","ios":"levelo://app?vid=165f17ce-60d5-4c1f-b561-f2a05656aed3"},"vehicle_type_id":"4","last_reported":1784736797,"current_range_meters":4000,"station_id":"cpo36qri1sfpv3e86is0","pricing_plan_id":"cebpf4jnsgd1na2vs0mg"},{"bike_id":"bbb6d84d-52b2-4523-b78b-60cb354411ef","system_id":"levelo_inurba_marseille","lat":43.32114,"lon":5.3677,"is_reserved":false,"is_disabled":false,"rental_uris":{"android":"levelo://app?vid=bbb6d84d-52b2-4523-b78b-60cb354411ef","ios":"levelo://app?vid=bbb6d84d-52b2-4523-b78b-60cb354411ef"},"vehicle_type_id":"4","last_reported":1784736797,"current_range_meters":36000,"station_id":"ce4bhrh2rcd13ifvqhug","pricing_plan_id":"cebpf4jnsgd1na2vs0mg"},{"bike_id":"95d5ebda-6e4d-4fc7-b24b-f2569fe631e9","system_id":"levelo_inurba_marseille","lat":43.256907,"lon":5.411009,"is_reserved":false,"is_disabled":true,"rental_uris":{"android":"levelo://app?vid=95d5ebda-6e4d-4fc7-b24b-f2569fe631e9","ios":"levelo://app?vid=95d5ebda-6e4d-4fc7-b24b-f2569fe631e9"},"vehicle_type_id":"4","last_reported":1784736797,"current_range_meters":0,"station_id":"ce4bhkp2rcd13ifvqgd0","pricing_plan_id":"cebpf4jnsgd1na2vs0mg"},{"bike_id":"16332643-4459-4f19-814e-47b6b5ca06b7","system_id":"levelo_inurba_marseille","lat":43.27838,"lon":5.40746,"is_reserved":false,"is_disabled":false,"rental_uris":{"android":"levelo://app?vid=16332643-4459-4f19-814e-47b6b5ca06b7","ios":"levelo://app?vid=16332643-4459-4f19-814e-47b6b5ca06b7"},"vehicle_type_id":"4","last_reported":1784736797,"current_range_meters":39200,"station_id":"ce4bhnh2rcd13ifvqgtg","pricing_plan_id":"cebpf4jnsgd1na2vs0mg"},{"bike_id":"a9863fcb-8ca0-4220-b083-cb27e96475fe","system_id":"levelo_inurba_marseille","lat":43.23194,"lon":5.35545,"is_reserved":false,"is_disabled":false,"rental_uris":{"android":"levelo://app?vid=a9863fcb-8ca0-4220-b083-cb27e96475fe","ios":"levelo://app?vid=a9863fcb-8ca0-4220-b083-cb27e96475fe"},"vehicle_type_id":"4","last_reported":1784736797,"current_range_meters":8400,"station_id":"ce4bhu92rcd13ifvqi70","pricing_plan_id":"cebpf4jnsgd1na2vs0mg"},{"bike_id":"497040b1-a999-4fce-aba0-7e94bbf2a204","system_id":"levelo_inurba_marseille","lat":43.24402,"lon":5.37053,"is_reserved":false,"is_disabled":false,"rental_uris":{"android":"levelo://app?vid=497040b1-a999-4fce-aba0-7e94bbf2a204","ios":"levelo://app?vid=497040b1-a999-4fce-aba0-7e94bbf2a204"},"vehicle_type_id":"4","last_reported":1784736797,"current_range_meters":22800,"station_id":"ce4bhhh2rcd13ifvqfk0","pricing_plan_id":"cebpf4jnsgd1na2vs0mg"},{"bike_id":"73b51324-8ede-477c-9246-677db17915cb","system_id":"levelo_inurba_marseille","lat":43.2893,"lon":5.36408,"is_reserved":false,"is_disabled":false,"rental_uris":{"android":"levelo://app?vid=73b51324-8ede-477c-9246-677db17915cb","ios":"levelo://app?vid=73b51324-8ede-477c-9246-677db17915cb"},"vehicle_type_id":"4","last_reported":1784736797,"current_range_meters":36000,"station_id":"ce4bhc92rcd13ifvqetg","pricing_plan_id":"cebpf4jnsgd1na2vs0mg"},{"bike_id":"a8da38aa-f94e-4c2e-80f0-e41e78a1c855","system_id":"levelo_inurba_marseille","lat":43.29817,"lon":5.38121,"is_reserved":false,"is_disabled":true,"rental_uris":{"android":"levelo://app?vid=a8da38aa-f94e-4c2e-80f0-e41e78a1c855","ios":"levelo://app?vid=a8da38aa-f94e-4c2e-80f0-e41e78a1c855"},"vehicle_type_id":"4","last_reported":1784736797,"current_range_meters":38000,"station_id":"ce4bgip2rcd13ifvqbb0","pricing_plan_id":"cebpf4jnsgd1na2vs0mg"},{"bike_id":"e194fbb0-bc81-4444-b407-bf005b5be095","system_id":"levelo_inurba_marseille","lat":43.31211,"lon":5.36889,"is_reserved":false,"is_disabled":false,"rental_uris":{"android":"levelo://app?vid=e194fbb0-bc81-4444-b407-bf005b5be095","ios":"levelo://app?vid=e194fbb0-bc81-4444-b407-bf005b5be095"},"vehicle_type_id":"4","last_reported":1784736797,"current_range_meters":27600,"station_id":"ce4bgl92rcd13ifvqbq0","pricing_plan_id":"cebpf4jnsgd1na2vs0mg"},{"bike_id":"b5a9d944-9eb1-434c-931a-e7a13d8c2c58","system_id":"levelo_inurba_marseille","lat":43.27449,"lon":5.39399,"is_reserved":false,"is_disabled":true,"rental_uris":{"android":"levelo://app?vid=b5a9d944-9eb1-434c-931a-e7a13d8c2c58","ios":"levelo://app?vid=b5a9d944-9eb1-434c-931a-e7a13d8c2c58"},"vehicle_type_id":"4","last_reported":1784736797,"current_range_meters":39200,"station_id":"ce4bhdp2rcd13ifvqf20","pricing_plan_id":"cebpf4jnsgd1na2vs0mg"},{"bike_id":"354a079f-ed28-41a7-a06b-85ab194fda38","system_id":"levelo_inurba_marseille","lat":43.29451,"lon":5.39756,"is_reserved":false,"is_disabled":true,"rental_uris":{"android":"levelo://app?vid=354a079f-ed28-41a7-a06b-85ab194fda38","ios":"levelo://app?vid=354a079f-ed28-41a7-a06b-85ab194fda38"},"vehicle_type_id":"4","last_reported":1784736797,"current_range_meters":4000,"station_id":"ce4bh3h2rcd13ifvqdo0","pricing_plan_id":"cebpf4jnsgd1na2vs0mg"},{"bike_id":"19dc2830-c912-4360-86ca-5525ad96ecbc","system_id":"levelo_inurba_marseille","lat":43.29628,"lon":5.37164,"is_reserved":false,"is_disabled":false,"rental_uris":{"android":"levelo://app?vid=19dc2830-c912-4360-86ca-5525ad96ecbc","ios":"levelo://app?vid=19dc2830-c912-4360-86ca-5525ad96ecbc"},"vehicle_type_id":"4","last_reported":1784736797,"current_range_meters":17600,"station_id":"ce4bgnh2rcd13ifvqc0g","pricing_plan_id":"cebpf4jnsgd1na2vs0mg"},{"bike_id":"490c5d9c-d53d-4ba9-aad9-6533bccec48f","system_id":"levelo_inurba_marseille","lat":43.30289,"lon":5.37686,"is_reserved":false,"is_disabled":false,"rental_uris":{"android":"levelo://app?vid=490c5d9c-d53d-4ba9-aad9-6533bccec48f","ios":"levelo://app?vid=490c5d9c-d53d-4ba9-aad9-6533bccec48f"},"vehicle_type_id":"4","last_reported":1784736797,"current_range_meters":8800,"station_id":"ce4bguh2rcd13ifvqcj0","pricing_plan_id":"cebpf4jnsgd1na2vs0mg"},{"bike_id":"68d24db2-8be9-4033-a723-22841554027e","system_id":"levelo_inurba_marseille","lat":43.28279,"lon":5.35068,"is_reserved":false,"is_disabled":false,"rental_uris":{"android":"levelo://app?vid=68d24db2-8be9-4033-a723-22841554027e","ios":"levelo://app?vid=68d24db2-8be9-4033-a723-22841554027e"},"vehicle_type_id":"4","last_reported":1784736797,"current_range_meters":39200,"station_id":"ce4bhbp2rcd13ifvqerg","pricing_plan_id":"cebpf4jnsgd1na2vs0mg"},{"bike_id":"f8d90c4e-4908-4f03-845e-3c10c53cb1f4","system_id":"levelo_inurba_marseille","lat":43.30053,"lon":5.40926,"is_reserved":false,"is_disabled":false,"rental_uris":{"android":"levelo://app?vid=f8d90c4e-4908-4f03-845e-3c10c53cb1f4","ios":"levelo://app?vid=f8d90c4e-4908-4f03-845e-3c10c53cb1f4"},"vehicle_type_id":"4","last_reported":1784736797,"current_range_meters":24000,"station_id":"","pricing_plan_id":"cebpf4jnsgd1na2vs0mg"},{"bike_id":"1a1d9431-3dfb-4b7d-8ace-bbcd7ccbd833","system_id":"levelo_inurba_marseille","lat":43.29447,"lon":5.39745,"is_reserved":false,"is_disabled":false,"rental_uris":{"android":"levelo://app?vid=1a1d9431-3dfb-4b7d-8ace-bbcd7ccbd833","ios":"levelo://app?vid=1a1d9431-3dfb-4b7d-8ace-bbcd7ccbd833"},"vehicle_type_id":"4","last_reported":1784736797,"current_range_meters":4000,"station_id":"ce4bh3h2rcd13ifvqdo0","pricing_plan_id":"cebpf4jnsgd1na2vs0mg"},{"bike_id":"65d6656f-ecee-4f25-9237-02f3ee9b2162","system_id":"levelo_inurba_marseille","lat":43.29923,"lon":5.37466,"is_reserved":false,"is_disabled":true,"rental_uris":{"android":"levelo://app?vid=65d6656f-ecee-4f25-9237-02f3ee9b2162","ios":"levelo://app?vid=65d6656f-ecee-4f25-9237-02f3ee9b2162"},"vehicle_type_id":"4","last_reported":1784736797,"current_range_meters":39200,"station_id":"ce4bgjh2rcd13ifvqbg0","pricing_plan_id":"cebpf4jnsgd1na2vs0mg"},{"bike_id":"27e1e4c5-a07c-4ba9-9e46-007cc925fb39","system_id":"levelo_inurba_marseille","lat":43.25461,"lon":5.41582,"is_reserved":false,"is_disabled":false,"rental_uris":{"android":"levelo://app?vid=27e1e4c5-a07c-4ba9-9e46-007cc925fb39","ios":"levelo://app?vid=27e1e4c5-a07c-4ba9-9e46-007cc925fb39"},"vehicle_type_id":"4","last_reported":1784736797,"current_range_meters":10000,"station_id":"","pricing_plan_id":"cebpf4jnsgd1na2vs0mg"},{"bike_id":"05ed3933-b7bc-4024-bfd2-ae535f990045","system_id":"levelo_inurba_marseille","lat":43.27904,"lon":5.37999,"is_reserved":false,"is_disabled":false,"rental_uris":{"android":"levelo://app?vid=05ed3933-b7bc-4024-bfd2-ae535f990045","ios":"levelo://app?vid=05ed3933-b7bc-4024-bfd2-ae535f990045"},"vehicle_type_id":"4","last_reported":1784736797,"current_range_meters":17600,"station_id":"ce4bhf92rcd13ifvqf50","pricing_plan_id":"cebpf4jnsgd1na2vs0mg"},{"bike_id":"a974c95a-e187-446f-bde1-d6b31aa556a5","system_id":"levelo_inurba_marseille","lat":43.265733,"lon":5.390373,"is_reserved":false,"is_disabled":false,"rental_uris":{"android":"levelo://app?vid=a974c95a-e187-446f-bde1-d6b31aa556a5","ios":"levelo://app?vid=a974c95a-e187-446f-bde1-d6b31aa556a5"},"vehicle_type_id":"4","last_reported":1784736797,"current_range_meters":38000,"station_id":"cpo3532slgdg3j2ikp40","pricing_plan_id":"cebpf4jnsgd1na2vs0mg"},{"bike_id":"5a87d78f-bce0-4026-a623-b63371d564c6","system_id":"levelo_inurba_marseille","lat":43.29172,"lon":5.35784,"is_reserved":false,"is_disabled":true,"rental_uris":{"android":"levelo://app?vid=5a87d78f-bce0-4026-a623-b63371d564c6","ios":"levelo://app?vid=5a87d78f-bce0-4026-a623-b63371d564c6"},"vehicle_type_id":"4","last_reported":1784736797,"current_range_meters":36000,"station_id":"ce4bhb12rcd13ifvqel0","pricing_plan_id":"cebpf4jnsgd1na2vs0mg"},{"bike_id":"28dafd1e-b352-4536-b972-96ddffcb9c40","system_id":"levelo_inurba_marseille","lat":43.30744,"lon":5.42443,"is_reserved":false,"is_disabled":false,"rental_uris":{"android":"levelo://app?vid=28dafd1e-b352-4536-b972-96ddffcb9c40","ios":"levelo://app?vid=28dafd1e-b352-4536-b972-96ddffcb9c40"},"vehicle_type_id":"4","last_reported":1784736797,"current_range_meters":37600,"station_id":"st_cvj6ca6bvosntc0bfgr0","pricing_plan_id":"cebpf4jnsgd1na2vs0mg"},{"bike_id":"ef24d998-bca0-4808-9b6c-fd732db4e89b","system_id":"levelo_inurba_marseille","lat":43.30656,"lon":5.401,"is_reserved":false,"is_disabled":false,"rental_uris":{"android":"levelo://app?vid=ef24d998-bca0-4808-9b6c-fd732db4e89b","ios":"levelo://app?vid=ef24d998-bca0-4808-9b6c-fd732db4e89b"},"vehicle_type_id":"4","last_reported":1784736797,"current_range_meters":24800,"station_id":"ce4bh112rcd13ifvqda0","pricing_plan_id":"cebpf4jnsgd1na2vs0mg"},{"bike_id":"c5032ade-04c2-4ad9-acd6-0c757f219d04","system_id":"levelo_inurba_marseille","lat":43.31899,"lon":5.36788,"is_reserved":false,"is_disabled":false,"rental_uris":{"android":"levelo://app?vid=c5032ade-04c2-4ad9-acd6-0c757f219d04","ios":"levelo://app?vid=c5032ade-04c2-4ad9-acd6-0c757f219d04"},"vehicle_type_id":"4","last_reported":1784736797,"current_range_meters":11200,"station_id":"st_d6o2h0d0559c73evc1b0","pricing_plan_id":"cebpf4jnsgd1na2vs0mg"},{"bike_id":"479a25b1-c1db-4e38-9802-13b8f5b183f0","system_id":"levelo_inurba_marseille","lat":43.28494,"lon":5.48375,"is_reserved":false,"is_disabled":false,"rental_uris":{"android":"levelo://app?vid=479a25b1-c1db-4e38-9802-13b8f5b183f0","ios":"levelo://app?vid=479a25b1-c1db-4e38-9802-13b8f5b183f0"},"vehicle_type_id":"4","last_reported":1784736797,"current_range_meters":29600,"station_id":"st_d3svhcjqgbts73a3dn0g","pricing_plan_id":"cebpf4jnsgd1na2vs0mg"},{"bike_id":"5ba3de10-889b-4152-aef4-4bff1e010d26","system_id":"levelo_inurba_marseille","lat":43.32111,"lon":5.36787,"is_reserved":false,"is_disabled":false,"rental_uris":{"android":"levelo://app?vid=5ba3de10-889b-4152-aef4-4bff1e010d26","ios":"levelo://app?vid=5ba3de10-889b-4152-aef4-4bff1e010d26"},"vehicle_type_id":"4","last_reported":1784736797,"current_range_meters":11200,"station_id":"ce4bhrh2rcd13ifvqhug","pricing_plan_id":"cebpf4jnsgd1na2vs0mg"},{"bike_id":"4a44625a-98e7-4ffe-9d7a-43dbdd22c4d2","system_id":"levelo_inurba_marseille","lat":43.31445,"lon":5.37378,"is_reserved":false,"is_disabled":false,"rental_uris":{"android":"levelo://app?vid=4a44625a-98e7-4ffe-9d7a-43dbdd22c4d2","ios":"levelo://app?vid=4a44625a-98e7-4ffe-9d7a-43dbdd22c4d2"},"vehicle_type_id":"4","last_reported":1784736797,"current_range_meters":27200,"station_id":"","pricing_plan_id":"cebpf4jnsgd1na2vs0mg"},{"bike_id":"ebfe9d04-d34e-4bb1-90c9-79f7b73604ae","system_id":"levelo_inurba_marseille","lat":43.27003,"lon":5.42808,"is_reserved":false,"is_disabled":true,"rental_uris":{"android":"levelo://app?vid=ebfe9d04-d34e-4bb1-90c9-79f7b73604ae","ios":"levelo://app?vid=ebfe9d04-d34e-4bb1-90c9-79f7b73604ae"},"vehicle_type_id":"4","last_reported":1784736797,"current_range_meters":0,"station_id":"","pricing_plan_id":"cebpf4jnsgd1na2vs0mg"},{"bike_id":"84cfb22e-cd2f-44b2-9fa0-6a1a4e81c5ed","system_id":"levelo_inurba_marseille","lat":43.25107,"lon":5.40307,"is_reserved":false,"is_disabled":false,"rental_uris":{"android":"levelo://app?vid=84cfb22e-cd2f-44b2-9fa0-6a1a4e81c5ed","ios":"levelo://app?vid=84cfb22e-cd2f-44b2-9fa0-6a1a4e81c5ed"},"vehicle_type_id":"4","last_reported":1784736797,"current_range_meters":22400,"station_id":"ce4bhlh2rcd13ifvqgig","pricing_plan_id":"cebpf4jnsgd1na2vs0mg"},{"bike_id":"a13f0111-9938-4362-bd71-0bd1f0788504","system_id":"levelo_inurba_marseille","lat":43.27924,"lon":5.35343,"is_reserved":false,"is_disabled":true,"rental_uris":{"android":"levelo://app?vid=a13f0111-9938-4362-bd71-0bd1f0788504","ios":"levelo://app?vid=a13f0111-9938-4362-bd71-0bd1f0788504"},"vehicle_type_id":"4","last_reported":1784736797,"current_range_meters":0,"station_id":"","pricing_plan_id":"cebpf4jnsgd1na2vs0mg"},{"bike_id":"20ad4eea-84b0-4530-9d16-25f9d023ac0b","system_id":"levelo_inurba_marseille","lat":43.292743,"lon":5.368369,"is_reserved":false,"is_disabled":true,"rental_uris":{"android":"levelo://app?vid=20ad4eea-84b0-4530-9d16-25f9d023ac0b","ios":"levelo://app?vid=20ad4eea-84b0-4530-9d16-25f9d023ac0b"},"vehicle_type_id":"4","last_reported":1784736797,"current_range_meters":0,"station_id":"","pricing_plan_id":"cebpf4jnsgd1na2vs0mg"},{"bike_id":"cc8568ab-2679-4305-9add-20ef1e360289","system_id":"levelo_inurba_marseille","lat":43.33784,"lon":5.37518,"is_reserved":false,"is_disabled":false,"rental_uris":{"android":"levelo://app?vid=cc8568ab-2679-4305-9add-20ef1e360289","ios":"levelo://app?vid=cc8568ab-2679-4305-9add-20ef1e360289"},"vehicle_type_id":"4","last_reported":1784736797,"current_range_meters":34000,"station_id":"","pricing_plan_id":"cebpf4jnsgd1na2vs0mg"},{"bike_id":"8d4acc6d-2c13-47a4-aecd-97cca02b4d0f","system_id":"levelo_inurba_marseille","lat":43.28267,"lon":5.35059,"is_reserved":false,"is_disabled":false,"rental_uris":{"android":"levelo://app?vid=8d4acc6d-2c13-47a4-aecd-97cca02b4d0f","ios":"levelo://app?vid=8d4acc6d-2c13-47a4-aecd-97cca02b4d0f"},"vehicle_type_id":"4","last_reported":1784736797,"current_range_meters":14400,"station_id":"ce4bhbp2rcd13ifvqerg","pricing_plan_id":"cebpf4jnsgd1na2vs0mg"},{"bike_id":"f601c330-faaa-4b1a-b8a1-7d0e288a6d74","system_id":"levelo_inurba_marseille","lat":43.28882,"lon":5.35843,"is_reserved":false,"is_disabled":false,"rental_uris":{"android":"levelo://app?vid=f601c330-faaa-4b1a-b8a1-7d0e288a6d74","ios":"levelo://app?vid=f601c330-faaa-4b1a-b8a1-7d0e288a6d74"},"vehicle_type_id":"4","last_reported":1784736797,"current_range_meters":38000,"station_id":"ce4bhb12rcd13ifvqem0","pricing_plan_id":"cebpf4jnsgd1na2vs0mg"},{"bike_id":"80f2fcef-357e-49cd-aa72-dbf1de6d4695","system_id":"levelo_inurba_marseille","lat":43.31905,"lon":5.3677,"is_reserved":false,"is_disabled":false,"rental_uris":{"android":"levelo://app?vid=80f2fcef-357e-49cd-aa72-dbf1de6d4695","ios":"levelo://app?vid=80f2fcef-357e-49cd-aa72-dbf1de6d4695"},"vehicle_type_id":"4","last_reported":1784736797,"current_range_meters":18000,"station_id":"st_d6o2h0d0559c73evc1b0","pricing_plan_id":"cebpf4jnsgd1na2vs0mg"},{"bike_id":"da4233c0-c0af-47c9-9d03-bfe159080fb5","system_id":"levelo_inurba_marseille","lat":43.33547,"lon":5.37476,"is_reserved":false,"is_disabled":false,"rental_uris":{"android":"levelo://app?vid=da4233c0-c0af-47c9-9d03-bfe159080fb5","ios":"levelo://app?vid=da4233c0-c0af-47c9-9d03-bfe159080fb5"},"vehicle_type_id":"4","last_reported":1784736797,"current_range_meters":10000,"station_id":"st_d46tts09ee8s73dlu43g","pricing_plan_id":"cebpf4jnsgd1na2vs0mg"},{"bike_id":"cc0b889f-c821-4646-abe6-e5be55efcd27","system_id":"levelo_inurba_marseille","lat":43.31086,"lon":5.42427,"is_reserved":false,"is_disabled":false,"rental_uris":{"android":"levelo://app?vid=cc0b889f-c821-4646-abe6-e5be55efcd27","ios":"levelo://app?vid=cc0b889f-c821-4646-abe6-e5be55efcd27"},"vehicle_type_id":"4","last_reported":1784736797,"current_range_meters":35200,"station_id":"ce4bhp92rcd13ifvqhag","pricing_plan_id":"cebpf4jnsgd1na2vs0mg"},{"bike_id":"d88b45a5-fda5-4824-aaa9-a2ae0cc2364d","system_id":"levelo_inurba_marseille","lat":43.24808,"lon":5.3745,"is_reserved":false,"is_disabled":false,"rental_uris":{"android":"levelo://app?vid=d88b45a5-fda5-4824-aaa9-a2ae0cc2364d","ios":"levelo://app?vid=d88b45a5-fda5-4824-aaa9-a2ae0cc2364d"},"vehicle_type_id":"4","last_reported":1784736797,"current_range_meters":39200,"station_id":"ce4bhgh2rcd13ifvqfb0","pricing_plan_id":"cebpf4jnsgd1na2vs0mg"},{"bike_id":"b47d92e5-f21f-41a4-9f0f-22e84a038b71","system_id":"levelo_inurba_marseille","lat":43.32348,"lon":5.36719,"is_reserved":false,"is_disabled":false,"rental_uris":{"android":"levelo://app?vid=b47d92e5-f21f-41a4-9f0f-22e84a038b71","ios":"levelo://app?vid=b47d92e5-f21f-41a4-9f0f-22e84a038b71"},"vehicle_type_id":"4","last_reported":1784736797,"current_range_meters":38800,"station_id":"ce4bhsh2rcd13ifvqi2g","pricing_plan_id":"cebpf4jnsgd1na2vs0mg"},{"bike_id":"24562537-d892-46b0-8d1f-b9806d00c57d","system_id":"levelo_inurba_marseille","lat":43.29618,"lon":5.37135,"is_reserved":false,"is_disabled":true,"rental_uris":{"android":"levelo://app?vid=24562537-d892-46b0-8d1f-b9806d00c57d","ios":"levelo://app?vid=24562537-d892-46b0-8d1f-b9806d00c57d"},"vehicle_type_id":"4","last_reported":1784736797,"current_range_meters":24800,"station_id":"","pricing_plan_id":"cebpf4jnsgd1na2vs0mg"},{"bike_id":"97c0494c-c7ee-4cb9-a38b-046f44cb3c85","system_id":"levelo_inurba_marseille","lat":43.26174,"lon":5.37383,"is_reserved":false,"is_disabled":true,"rental_uris":{"android":"levelo://app?vid=97c0494c-c7ee-4cb9-a38b-046f44cb3c85","ios":"levelo://app?vid=97c0494c-c7ee-4cb9-a38b-046f44cb3c85"},"vehicle_type_id":"4","last_reported":1784736797,"current_range_meters":30400,"station_id":"","pricing_plan_id":"cebpf4jnsgd1na2vs0mg"},{"bike_id":"966f8088-2ac5-4665-977d-639964483b84","system_id":"levelo_inurba_marseille","lat":43.3019,"lon":5.3661,"is_reserved":false,"is_disabled":false,"rental_uris":{"android":"levelo://app?vid=966f8088-2ac5-4665-977d-639964483b84","ios":"levelo://app?vid=966f8088-2ac5-4665-977d-639964483b84"},"vehicle_type_id":"4","last_reported":1784736797,"current_range_meters":39200,"station_id":"ce4bgrh2rcd13ifvqc8g","pricing_plan_id":"cebpf4jnsgd1na2vs0mg"},{"bike_id":"5d02b474-8288-40f1-9c16-eac9629cdecd","system_id":"levelo_inurba_marseille","lat":43.26555,"lon":5.3728,"is_reserved":false,"is_disabled":false,"rental_uris":{"android":"levelo://app?vid=5d02b474-8288-40f1-9c16-eac9629cdecd","ios":"levelo://app?vid=5d02b474-8288-40f1-9c16-eac9629cdecd"},"vehicle_type_id":"4","last_reported":1784736797,"current_range_meters":28800,"station_id":"ce4bhg12rcd13ifvqf70","pricing_plan_id":"cebpf4jnsgd1na2vs0mg"},{"bike_id":"c6339b14-6408-4f1f-9334-32c118625fc1","system_id":"levelo_inurba_marseille","lat":43.29511,"lon":5.43352,"is_reserved":false,"is_disabled":false,"rental_uris":{"android":"levelo://app?vid=c6339b14-6408-4f1f-9334-32c118625fc1","ios":"levelo://app?vid=c6339b14-6408-4f1f-9334-32c118625fc1"},"vehicle_type_id":"4","last_reported":1784736797,"current_range_meters":20000,"station_id":"st_d3j5ugp08ojc73fj9d10","pricing_plan_id":"cebpf4jnsgd1na2vs0mg"},{"bike_id":"24994495-7aa8-45d3-a4bb-b4d887318c6e","system_id":"levelo_inurba_marseille","lat":43.296809,"lon":5.372857,"is_reserved":false,"is_disabled":false,"rental_uris":{"android":"levelo://app?vid=24994495-7aa8-45d3-a4bb-b4d887318c6e","ios":"levelo://app?vid=24994495-7aa8-45d3-a4bb-b4d887318c6e"},"vehicle_type_id":"4","last_reported":1784736797,"current_range_meters":40000,"station_id":"ce4bgk12rcd13ifvqbj0","pricing_plan_id":"cebpf4jnsgd1na2vs0mg"},{"bike_id":"7e2484ed-daa5-468d-89f1-354100728329","system_id":"levelo_inurba_marseille","lat":43.289316,"lon":5.396255,"is_reserved":false,"is_disabled":false,"rental_uris":{"android":"levelo://app?vid=7e2484ed-daa5-468d-89f1-354100728329","ios":"levelo://app?vid=7e2484ed-daa5-468d-89f1-354100728329"},"vehicle_type_id":"4","last_reported":1784736797,"current_range_meters":13600,"station_id":"ce4bh3h2rcd13ifvqdn0","pricing_plan_id":"cebpf4jnsgd1na2vs0mg"},{"bike_id":"b809a343-278b-440c-8bd3-1837080007bc","system_id":"levelo_inurba_marseille","lat":43.27843,"lon":5.35435,"is_reserved":false,"is_disabled":false,"rental_uris":{"android":"levelo://app?vid=b809a343-278b-440c-8bd3-1837080007bc","ios":"levelo://app?vid=b809a343-278b-440c-8bd3-1837080007bc"},"vehicle_type_id":"4","last_reported":1784736797,"current_range_meters":33600,"station_id":"","pricing_plan_id":"cebpf4jnsgd1na2vs0mg"},{"bike_id":"8002b706-492f-47e8-9d58-f09ebbaece70","system_id":"levelo_inurba_marseille","lat":43.27344,"lon":5.3619,"is_reserved":false,"is_disabled":false,"rental_uris":{"android":"levelo://app?vid=8002b706-492f-47e8-9d58-f09ebbaece70","ios":"levelo://app?vid=8002b706-492f-47e8-9d58-f09ebbaece70"},"vehicle_type_id":"4","last_reported":1784736797,"current_range_meters":28000,"station_id":"","pricing_plan_id":"cebpf4jnsgd1na2vs0mg"},{"bike_id":"8654abf3-1cc6-430e-8d34-bbca99828118","system_id":"levelo_inurba_marseille","lat":43.33773,"lon":5.37474,"is_reserved":false,"is_disabled":false,"rental_uris":{"android":"levelo://app?vid=8654abf3-1cc6-430e-8d34-bbca99828118","ios":"levelo://app?vid=8654abf3-1cc6-430e-8d34-bbca99828118"},"vehicle_type_id":"4","last_reported":1784736797,"current_range_meters":35200,"station_id":"","pricing_plan_id":"cebpf4jnsgd1na2vs0mg"},{"bike_id":"9f289fda-6ee8-427a-bf7c-2b64032d914f","system_id":"levelo_inurba_marseille","lat":43.29903,"lon":5.39676,"is_reserved":false,"is_disabled":false,"rental_uris":{"android":"levelo://app?vid=9f289fda-6ee8-427a-bf7c-2b64032d914f","ios":"levelo://app?vid=9f289fda-6ee8-427a-bf7c-2b64032d914f"},"vehicle_type_id":"4","last_reported":1784736797,"current_range_meters":2800,"station_id":"","pricing_plan_id":"cebpf4jnsgd1na2vs0mg"},{"bike_id":"65ad9de8-7135-4e55-bf82-697b44118451","system_id":"levelo_inurba_marseille","lat":43.31914,"lon":5.36804,"is_reserved":false,"is_disabled":false,"rental_uris":{"android":"levelo://app?vid=65ad9de8-7135-4e55-bf82-697b44118451","ios":"levelo://app?vid=65ad9de8-7135-4e55-bf82-697b44118451"},"vehicle_type_id":"4","last_reported":1784736797,"current_range_meters":38800,"station_id":"st_d6o2h0d0559c73evc1b0","pricing_plan_id":"cebpf4jnsgd1na2vs0mg"},{"bike_id":"01f4a5dd-3fb3-4d74-a8f6-4f37ab9dbed7","system_id":"levelo_inurba_marseille","lat":43.27325,"lon":5.39129,"is_reserved":false,"is_disabled":true,"rental_uris":{"android":"levelo://app?vid=01f4a5dd-3fb3-4d74-a8f6-4f37ab9dbed7","ios":"levelo://app?vid=01f4a5dd-3fb3-4d74-a8f6-4f37ab9dbed7"},"vehicle_type_id":"4","last_reported":1784736797,"current_range_meters":26800,"station_id":"ce4bhgp2rcd13ifvqfe0","pricing_plan_id":"cebpf4jnsgd1na2vs0mg"},