{"last_updated":1726402491,"ttl":30,"version":"2.2","data":{"bikes":[{"bike_id":"a084d085-043f-4c8c-a597-c0982ab2119f","system_id":"levelo_inurba_marseille","lat":43.33013,"lon":5.39,"is_reserved":false,"is_disabled":false,"rental_uris":{"android":"levelo://app?vid=a084d085-043f-4c8c-a597-c0982ab2119f","ios":"levelo://app?vid=a084d085-043f-4c8c-a597-c0982ab2119f"},"vehicle_type_id":"4","last_reported":1726402491,"current_range_meters":28000,"station_id":"ce4bhr92rcd13ifvqhrg","pricing_plan_id":"cebpf4jnsgd1na2vs0mg"},{"bike_id":"da74842e-8b51-42a6-8c35-5d7d26dd14c1","system_id":"levelo_inurba_marseille","lat":43.31059,"lon":5.38366,"is_reserved":false,"is_disabled":false,"rental_uris":{"android":"levelo://app?vid=da74842e-8b51-42a6-8c35-5d7d26dd14c1","ios":"levelo://app?vid=da74842e-8b51-42a6-8c35-5d7d26dd14c1"},"vehicle_type_id":"4","last_reported":1726402491,"current_range_meters":37600,"station_id":"ce4bgv92rcd13ifvqcr0","pricing_plan_id":"cebpf4jnsgd1na2vs0mg"},{"bike_id":"056313ad-8265-4df1-b42f-640ec0ab3367","system_id":"levelo_inurba_marseille","lat":43.28423,"lon":5.34991,"is_reserved":false,"is_disabled":false,"rental_uris":{"android":"levelo://app?vid=056313ad-8265-4df1-b42f-640ec0ab3367","ios":"levelo://app?vid=056313ad-8265-4df1-b42f-640ec0ab3367"},"vehicle_type_id":"4","last_reported":1726402491,"current_range_meters":30400,"station_id":"ce4bhbh2rcd13ifvqepg","pricing_plan_id":"cebpf4jnsgd1na2vs0mg"},{"bike_id":"4400549d-60cd-48cd-85e0-bcc9e67ddd22","system_id":"levelo_inurba_marseille","lat":43.27055,"lon":5.4026,"is_reserved":false,"is_disabled":false,"rental_uris":{"android":"levelo://app?vid=4400549d-60cd-48cd-85e0-bcc9e67ddd22","ios":"levelo://app?vid=4400549d-60cd-48cd-85e0-bcc9e67ddd22"},"vehicle_type_id":"4","last_reported":1726402491,"current_range_meters":24800,"station_id":"ce4bhk92rcd13ifvqgc0","pricing_plan_id":"cebpf4jnsgd1na2vs0mg"},{"bike_id":"41907fca-a52e-41d5-98d7-71f277307927","system_id":"levelo_inurba_marseille","lat":43.31294,"lon":5.37812,"is_reserved":false,"is_disabled":false,"rental_uris":{"android":"levelo://app?vid=41907fca-a52e-41d5-98d7-71f277307927","ios":"levelo://app?vid=41907fca-a52e-41d5-98d7-71f277307927"},"vehicle_type_id":"4","last_reported":1726402491,"current_range_meters":34000,"station_id":"","pricing_plan_id":"cebpf4jnsgd1na2vs0mg"},{"bike_id":"670b158d-c627-41e1-bd63-94a02d67628d","system_id":"levelo_inurba_marseille","lat":43.26945,"lon":5.38914,"is_reserved":false,"is_disabled":false,"rental_uris":{"android":"levelo://app?vid=670b158d-c627-41e1-bd63-94a02d67628d","ios":"levelo://app?vid=670b158d-c627-41e1-bd63-94a02d67628d"},"vehicle_type_id":"4","last_reported":1726402491,"current_range_meters":30800,"station_id":"ce4bhhh2rcd13ifvqfl0","pricing_plan_id":"cebpf4jnsgd1na2vs0mg"},{"bike_id":"491f625c-672a-429b-adf2-44db696ce223","system_id":"levelo_inurba_marseille","lat":43.24816,"lon":5.37464,"is_reserved":false,"is_disabled":false,"rental_uris":{"android":"levelo://app?vid=491f625c-672a-429b-adf2-44db696ce223","ios":"levelo://app?vid=491f625c-672a-429b-adf2-44db696ce223"},"vehicle_type_id":"4","last_reported":1726402491,"current_range_meters":10000,"station_id":"ce4bhgh2rcd13ifvqfb0","pricing_plan_id":"cebpf4jnsgd1na2vs0mg"},{"bike_id":"ce3dc406-963f-4951-a515-a8d7cff6914c","system_id":"levelo_inurba_marseille","lat":43.24163,"lon":5.36398,"is_reserved":false,"is_disabled":false,"rental_uris":{"android":"levelo://app?vid=ce3dc406-963f-4951-a515-a8d7cff6914c","ios":"levelo://app?vid=ce3dc406-963f-4951-a515-a8d7cff6914c"},"vehicle_type_id":"4","last_reported":1726402491,"current_range_meters":24800,"station_id":"cpo36qri1sfpv3e86is0","pricing_plan_id":"cebpf4jnsgd1na2vs0mg"},{"bike_id":"13c4bde3-79a1-495d-a0c0-1dbceff892e5","system_id":"levelo_inurba_marseille","lat":43.25927,"lon":5.40921,"is_reserved":false,"is_disabled":false,"rental_uris":{"android":"levelo://app?vid=13c4bde3-79a1-495d-a0c0-1dbceff892e5","ios":"levelo://app?vid=13c4bde3-79a1-495d-a0c0-1dbceff892e5"},"vehicle_type_id":"4","last_reported":1726402491,"current_range_meters":2800,"station_id":"ce4bhm92rcd13ifvqglg","pricing_plan_id":"cebpf4jnsgd1na2vs0mg"},{"bike_id":"10728045-d652-461a-a9ab-b0440d533a3f","system_id":"levelo_inurba_marseille","lat":43.24389,"lon":5.3705,"is_reserved":false,"is_disabled":false,"rental_uris":{"android":"levelo://app?vid=10728045-d652-461a-a9ab-b0440d533a3f","ios":"levelo://app?vid=10728045-d652-461a-a9ab-b0440d533a3f"},"vehicle_type_id":"4","last_reported":1726402491,"current_range_meters":18000,"station_id":"ce4bhhh2rcd13ifvqfk0","pricing_plan_id":"cebpf4jnsgd1na2vs0mg"},{"bike_id":"7c475990-5c91-40de-8e97-2ed5070be005","system_id":"levelo_inurba_marseille","lat":43.23032,"lon":5.401,"is_reserved":false,"is_disabled":false,"rental_uris":{"android":"levelo://app?vid=7c475990-5c91-40de-8e97-2ed5070be005","ios":"levelo://app?vid=7c475990-5c91-40de-8e97-2ed5070be005"},"vehicle_type_id":"4","last_reported":1726402491,"current_range_meters":38800,"station_id":"","pricing_plan_id":"cebpf4jnsgd1na2vs0mg"},{"bike_id":"13ec4916-f0ea-4897-8afc-596425b42c42","system_id":"levelo_inurba_marseille","lat":43.23192,"lon":5.35555,"is_reserved":false,"is_disabled":false,"rental_uris":{"android":"levelo://app?vid=13ec4916-f0ea-4897-8afc-596425b42c42","ios":"levelo://app?vid=13ec4916-f0ea-4897-8afc-596425b42c42"},"vehicle_type_id":"4","last_reported":1726402491,"current_range_meters":22400,"station_id":"ce4bhu92rcd13ifvqi70","pricing_plan_id":"cebpf4jnsgd1na2vs0mg"},{"bike_id":"e8549387-9deb-4f66-b733-a7cdaa0db866","system_id":"levelo_inurba_marseille","lat":43.33027,"lon":5.3903,"is_reserved":false,"is_disabled":false,"rental_uris":{"android":"levelo://app?vid=e8549387-9deb-4f66-b733-a7cdaa0db866","ios":"levelo://app?vid=e8549387-9deb-4f66-b733-a7cdaa0db866"},"vehicle_type_id":"4","last_reported":1726402491,"current_range_meters":16800,"station_id":"ce4bhr92rcd13ifvqhrg","pricing_plan_id":"cebpf4jnsgd1na2vs0mg"},{"bike_id":"344880e3-ce90-437f-a8da-22ec22dc470a","system_id":"levelo_inurba_marseille","lat":43.29563,"lon":5.42286,"is_reserved":false,"is_disabled":false,"rental_uris":{"android":"levelo://app?vid=344880e3-ce90-437f-a8da-22ec22dc470a","ios":"levelo://app?vid=344880e3-ce90-437f-a8da-22ec22dc470a"},"vehicle_type_id":"4","last_reported":1726402491,"current_range_meters":12400,"station_id":"ce4bhph2rcd13ifvqhdg","pricing_plan_id":"cebpf4jnsgd1na2vs0mg"},{"bike_id":"3d64c255-1660-41db-ac56-60cbee1ac9b2","system_id":"levelo_inurba_marseille","lat":43.28483,"lon":5.38541,"is_reserved":false,"is_disabled":false,"rental_uris":{"android":"levelo://app?vid=3d64c255-1660-41db-ac56-60cbee1ac9b2","ios":"levelo://app?vid=3d64c255-1660-41db-ac56-60cbee1ac9b2"},"vehicle_type_id":"4","last_reported":1726402491,"current_range_meters":37600,"station_id":"ce4bh8p2rcd13ifvqeb0","pricing_plan_id":"cebpf4jnsgd1na2vs0mg"},{"bike_id":"1b69e28d-b657-4802-b5dd-aa17fb5a768b","system_id":"levelo_inurba_marseille","lat":43.27134,"lon":5.42785,"is_reserved":false,"is_disabled":false,"rental_uris":{"android":"levelo://app?vid=1b69e28d-b657-4802-b5dd-aa17fb5a768b","ios":"levelo://app?vid=1b69e28d-b657-4802-b5dd-aa17fb5a768b"},"vehicle_type_id":"4","last_reported":1726402491,"current_range_meters":22000,"station_id":"","pricing_plan_id":"cebpf4jnsgd1na2vs0mg"},{"bike_id":"f5104168-c740-4ffc-a061-2bc031317fd1","system_id":"levelo_inurba_marseille","lat":43.30139,"lon":5.37423,"is_reserved":false,"is_disabled":false,"rental_uris":{"android":"levelo://app?vid=f5104168-c740-4ffc-a061-2bc031317fd1","ios":"levelo://app?vid=f5104168-c740-4ffc-a061-2bc031317fd1"},"vehicle_type_id":"4","last_reported":1726402491,"current_range_meters":3600,"station_id":"ce4bgs92rcd13ifvqcc0","pricing_plan_id":"cebpf4jnsgd1na2vs0mg"},{"bike_id":"b2300b49-404f-4db4-8744-43ebcde60dc7","system_id":"levelo_inurba_marseille","lat":43.241791,"lon":5.397315,"is_reserved":false,"is_disabled":false,"rental_uris":{"android":"levelo://app?vid=b2300b49-404f-4db4-8744-43ebcde60dc7","ios":"levelo://app?vid=b2300b49-404f-4db4-8744-43ebcde60dc7"},"vehicle_type_id":"4","last_reported":1726402491,"current_range_meters":5600,"station_id":"ce4bhn12rcd13ifvqgpg","pricing_plan_id":"cebpf4jnsgd1na2vs0mg"},{"bike_id":"e587aa13-8844-4e73-991a-832ddb3cbb36","system_id":"levelo_inurba_marseille","lat":43.24999,"lon":5.38934,"is_reserved":false,"is_disabled":false,"rental_uris":{"android":"levelo://app?vid=e587aa13-8844-4e73-991a-832ddb3cbb36","ios":"levelo://app?vid=e587aa13-8844-4e73-991a-832ddb3cbb36"},"vehicle_type_id":"4","last_reported":1726402491,"current_range_meters":37600,"station_id":"ce4bhgp2rcd13ifvqfd0","pricing_plan_id":"cebpf4jnsgd1na2vs0mg"},{"bike_id":"995d3a7e-289e-4ebd-b785-9d2da426ad57","system_id":"levelo_inurba_marseille","lat":43.23199,"lon":5.35546,"is_reserved":false,"is_disabled":false,"rental_uris":{"android":"levelo://app?vid=995d3a7e-289e-4ebd-b785-9d2da426ad57","ios":"levelo://app?vid=995d3a7e-289e-4ebd-b785-9d2da426ad57"},"vehicle_type_id":"4","last_reported":1726402491,"current_range_meters":14000,"station_id":"ce4bhu92rcd13ifvqi70","pricing_plan_id":"cebpf4jnsgd1na2vs0mg"},{"bike_id":"74c67d55-8a5f-40c9-8066-d68354718f8c","system_id":"levelo_inurba_marseille","lat":43.23191,"lon":5.3556,"is_reserved":false,"is_disabled":false,"rental_uris":{"android":"levelo://app?vid=74c67d55-8a5f-40c9-8066-d68354718f8c","ios":"levelo://app?vid=74c67d55-8a5f-40c9-8066-d68354718f8c"},"vehicle_type_id":"4","last_reported":1726402491,"current_range_meters":19600,"station_id":"ce4bhu92rcd13ifvqi70","pricing_plan_id":"cebpf4jnsgd1na2vs0mg"},{"bike_id":"2ddfad23-de66-4057-b823-7eec87784951","system_id":"levelo_inurba_marseille","lat":43.30539,"lon":5.367,"is_reserved":false,"is_disabled":false,"rental_uris":{"android":"levelo://app?vid=2ddfad23-de66-4057-b823-7eec87784951","ios":"levelo://app?vid=2ddfad23-de66-4057-b823-7eec87784951"},"vehicle_type_id":"4","last_reported":1726402491,"current_range_meters":32800,"station_id":"ce4bgrp2rcd13ifvqc9g","pricing_plan_id":"cebpf4jnsgd1na2vs0mg"},{"bike_id":"2348432a-2e1b-4480-8221-dc0ae33b40e8","system_id":"levelo_inurba_marseille","lat":43.24396,"lon":5.37064,"is_reserved":false,"is_disabled":false,"rental_uris":{"android":"levelo://app?vid=2348432a-2e1b-4480-8221-dc0ae33b40e8","ios":"levelo://app?vid=2348432a-2e1b-4480-8221-dc0ae33b40e8"},"vehicle_type_id":"4","last_reported":1726402491,"current_range_meters":19200,"station_id":"ce4bhhh2rcd13ifvqfk0","pricing_plan_id":"cebpf4jnsgd1na2vs0mg"},{"bike_id":"d0698402-85d8-4942-960d-db4ee8bd1c46","system_id":"levelo_inurba_marseille","lat":43.32482,"lon":5.36557,"is_reserved":false,"is_disabled":false,"rental_uris":{"android":"levelo://app?vid=d0698402-85d8-4942-960d-db4ee8bd1c46","ios":"levelo://app?vid=d0698402-85d8-4942-960d-db4ee8bd1c46"},"vehicle_type_id":"4","last_reported":1726402491,"current_range_meters":5600,"station_id":"ce4bhs12rcd13ifvqhvg","pricing_plan_id":"cebpf4jnsgd1na2vs0mg"},{"bike_id":"1aeff3de-970e-4440-8b84-9abb74479e56","system_id":"levelo_inurba_marseille","lat":43.29964,"lon":5.41329,"is_reserved":false,"is_disabled":false,"rental_uris":{"android":"levelo://app?vid=1aeff3de-970e-4440-8b84-9abb74479e56","ios":"levelo://app?vid=1aeff3de-970e-4440-8b84-9abb74479e56"},"vehicle_type_id":"4","last_reported":1726402491,"current_range_meters":20000,"station_id":"ce4bhp12rcd13ifvqh9g","pricing_plan_id":"cebpf4jnsgd1na2vs0mg"},{"bike_id":"dfb89513-f211-47bc-95b2-ffac780f14a8","system_id":"levelo_inurba_marseille","lat":43.23193,"lon":5.35552,"is_reserved":false,"is_disabled":false,"rental_uris":{"android":"levelo://app?vid=dfb89513-f211-47bc-95b2-ffac780f14a8","ios":"levelo://app?vid=dfb89513-f211-47bc-95b2-ffac780f14a8"},"vehicle_type_id":"4","last_reported":1726402491,"current_range_meters":8800,"station_id":"ce4bhu92rcd13ifvqi70","pricing_plan_id":"cebpf4jnsgd1na2vs0mg"},{"bike_id":"1dfac145-3591-43f9-b88c-b3cbd1fcd09a","system_id":"levelo_inurba_marseille","lat":43.27905,"lon":5.39581,"is_reserved":false,"is_disabled":false,"rental_uris":{"android":"levelo://app?vid=1dfac145-3591-43f9-b88c-b3cbd1fcd09a","ios":"levelo://app?vid=1dfac145-3591-43f9-b88c-b3cbd1fcd09a"},"vehicle_type_id":"4","last_reported":1726402491,"current_range_meters":33600,"station_id":"ce4bhf92rcd13ifvqf40","pricing_plan_id":"cebpf4jnsgd1na2vs0mg"},{"bike_id":"59746d4e-a238-420f-a8c2-5242660e2516","system_id":"levelo_inurba_marseille","lat":43.313603,"lon":5.384903,"is_reserved":false,"is_disabled":false,"rental_uris":{"android":"levelo://app?vid=59746d4e-a238-420f-a8c2-5242660e2516","ios":"levelo://app?vid=59746d4e-a238-420f-a8c2-5242660e2516"},"vehicle_type_id":"4","last_reported":1726402491,"current_range_meters":18000,"station_id":"ce4bgt92rcd13ifvqcf0","pricing_plan_id":"cebpf4jnsgd1na2vs0mg"},{"bike_id":"e0a5f56b-399c-4d27-ab7e-6d5ddb333f48","system_id":"levelo_inurba_marseille","lat":43.24802,"lon":5.37452,"is_reserved":false,"is_disabled":false,"rental_uris":{"android":"levelo://app?vid=e0a5f56b-399c-4d27-ab7e-6d5ddb333f48","ios":"levelo://app?vid=e0a5f56b-399c-4d27-ab7e-6d5ddb333f48"},"vehicle_type_id":"4","last_reported":1726402491,"current_range_meters":36000,"station_id":"ce4bhgh2rcd13ifvqfb0","pricing_plan_id":"cebpf4jnsgd1na2vs0mg"},{"bike_id":"aac07f6f-d068-41e5-80ed-ad695afca2fa","system_id":"levelo_inurba_marseille","lat":43.25717,"lon":5.4111,"is_reserved":false,"is_disabled":false,"rental_uris":{"android":"levelo://app?vid=aac07f6f-d068-41e5-80ed-ad695afca2fa","ios":"levelo://app?vid=aac07f6f-d068-41e5-80ed-ad695afca2fa"},"vehicle_type_id":"4","last_reported":1726402491,"current_range_meters":31200,"station_id":"ce4bhkp2rcd13ifvqgd0","pricing_plan_id":"cebpf4jnsgd1na2vs0mg"},{"bike_id":"8f7d2222-b8b1-4df4-8f4e-3209ab742980","system_id":"levelo_inurba_marseille","lat":43.3089,"lon":5.39643,"is_reserved":false,"is_disabled":false,"rental_uris":{"android":"levelo://app?vid=8f7d2222-b8b1-4df4-8f4e-3209ab742980","ios":"levelo://app?vid=8f7d2222-b8b1-4df4-8f4e-3209ab742980"},"vehicle_type_id":"4","last_reported":1726402491,"current_range_meters":24400,"station_id":"ce4bh012rcd13ifvqcv0","pricing_plan_id":"cebpf4jnsgd1na2vs0mg"},{"bike_id":"30fc1f51-20b6-4e13-8f56-75175e166910","system_id":"levelo_inurba_marseille","lat":43.23056,"lon":5.35496,"is_reserved":false,"is_disabled":false,"rental_uris":{"android":"levelo://app?vid=30fc1f51-20b6-4e13-8f56-75175e166910","ios":"levelo://app?vid=30fc1f51-20b6-4e13-8f56-75175e166910"},"vehicle_type_id":"4","last_reported":1726402491,"current_range_meters":36000,"station_id":"cpo3342slgdg3j2ifvpg","pricing_plan_id":"cebpf4jnsgd1na2vs0mg"},{"bike_id":"af273a3d-202f-4136-90d2-75e2ad1363d4","system_id":"levelo_inurba_marseille","lat":43.29784,"lon":5.38105,"is_reserved":false,"is_disabled":false,"rental_uris":{"android":"levelo://app?vid=af273a3d-202f-4136-90d2-75e2ad1363d4","ios":"levelo://app?vid=af273a3d-202f-4136-90d2-75e2ad1363d4"},"vehicle_type_id":"4","last_reported":1726402491,"current_range_meters":38800,"station_id":"ce4bgip2rcd13ifvqbb0","pricing_plan_id":"cebpf4jnsgd1na2vs0mg"},{"bike_id":"3163426e-9884-4f93-93cc-852587b8f557","system_id":"levelo_inurba_marseille","lat":43.28371,"lon":5.39636,"is_reserved":false,"is_disabled":false,"rental_uris":{"android":"levelo://app?vid=3163426e-9884-4f93-93cc-852587b8f557","ios":"levelo://app?vid=3163426e-9884-4f93-93cc-852587b8f557"},"vehicle_type_id":"4","last_reported":1726402491,"current_range_meters":34800,"station_id":"","pricing_plan_id":"cebpf4jnsgd1na2vs0mg"},{"bike_id":"610c7215-052b-40c9-a8aa-314130aa6c30","system_id":"levelo_inurba_marseille","lat":43.31322,"lon":5.39706,"is_reserved":false,"is_disabled":false,"rental_uris":{"android":"levelo://app?vid=610c7215-052b-40c9-a8aa-314130aa6c30","ios":"levelo://app?vid=610c7215-052b-40c9-a8aa-314130aa6c30"},"vehicle_type_id":"4","last_reported":1726402491,"current_range_meters":24800,"station_id":"ce4bgvp2rcd13ifvqcu0","pricing_plan_id":"cebpf4jnsgd1na2vs0mg"},{"bike_id":"ec9006f1-9246-40db-9584-a79270db200a","system_id":"levelo_inurba_marseille","lat":43.31721,"lon":5.42407,"is_reserved":false,"is_disabled":false,"rental_uris":{"android":"levelo://app?vid=ec9006f1-9246-40db-9584-a79270db200a","ios":"levelo://app?vid=ec9006f1-9246-40db-9584-a79270db200a"},"vehicle_type_id":"4","last_reported":1726402491,"current_range_meters":38800,"station_id":"ce4bhp92rcd13ifvqhbg","pricing_plan_id":"cebpf4jnsgd1na2vs0mg"},{"bike_id":"af390aaa-4ef7-492c-aded-06fda96c9f12","system_id":"levelo_inurba_marseille","lat":43.31709,"lon":5.43693,"is_reserved":false,"is_disabled":false,"rental_uris":{"android":"levelo://app?vid=af390aaa-4ef7-492c-aded-06fda96c9f12","ios":"levelo://app?vid=af390aaa-4ef7-492c-aded-06fda96c9f12"},"vehicle_type_id":"4","last_reported":1726402491,"current_range_meters":30000,"station_id":"ce4bhp92rcd13ifvqhcg","pricing_plan_id":"cebpf4jnsgd1na2vs0mg"},{"bike_id":"021541c8-d81e-4557-bc41-eb7c63d91195","system_id":"levelo_inurba_marseille","lat":43.31753,"lon":5.39013,"is_reserved":false,"is_disabled":false,"rental_uris":{"android":"levelo://app?vid=021541c8-d81e-4557-bc41-eb7c63d91195","ios":"levelo://app?vid=021541c8-d81e-4557-bc41-eb7c63d91195"},"vehicle_type_id":"4","last_reported":1726402491,"current_range_meters":38800,"station_id":"ce4bhqp2rcd13ifvqhng","pricing_plan_id":"cebpf4jnsgd1na2vs0mg"},{"bike_id":"f89ebaff-608b-48c6-99bf-a4efd018954e","system_id":"levelo_inurba_marseille","lat":43.25718,"lon":5.41113,"is_reserved":false,"is_disabled":false,"rental_uris":{"android":"levelo://app?vid=f89ebaff-608b-48c6-99bf-a4efd018954e","ios":"levelo://app?vid=f89ebaff-608b-48c6-99bf-a4efd018954e"},"vehicle_type_id":"4","last_reported":1726402491,"current_range_meters":16000,"station_id":"ce4bhkp2rcd13ifvqgd0","pricing_plan_id":"cebpf4jnsgd1na2vs0mg"},{"bike_id":"65c19f49-c4fe-4c2d-8a06-e52117f63875","system_id":"levelo_inurba_marseille","lat":43.25002,"lon":5.38926,"is_reserved":false,"is_disabled":false,"rental_uris":{"android":"levelo://app?vid=65c19f49-c4fe-4c2d-8a06-e52117f63875","ios":"levelo://app?vid=65c19f49-c4fe-4c2d-8a06-e52117f63875"},"vehicle_type_id":"4","last_reported":1726402491,"current_range_meters":4000,"station_id":"ce4bhgp2rcd13ifvqfd0","pricing_plan_id":"cebpf4jnsgd1na2vs0mg"},{"bike_id":"00b84575-9389-41de-a2a2-9fad0c9af95f","system_id":"levelo_inurba_marseille","lat":43.29594,"lon":5.38113,"is_reserved":false,"is_disabled":false,"rental_uris":{"android":"levelo://app?vid=00b84575-9389-41de-a2a2-9fad0c9af95f","ios":"levelo://app?vid=00b84575-9389-41de-a2a2-9fad0c9af95f"},"vehicle_type_id":"4","last_reported":1726402491,"current_range_meters":7200,"station_id":"ce4bgl12rcd13ifvqbo0","pricing_plan_id":"cebpf4jnsgd1na2vs0mg"},{"bike_id":"884655a1-2e5c-444e-b8b4-bc4e03857085","system_id":"levelo_inurba_marseille","lat":43.28156,"lon":5.42638,"is_reserved":false,"is_disabled":false,"rental_uris":{"android":"levelo://app?vid=884655a1-2e5c-444e-b8b4-bc4e03857085","ios":"levelo://app?vid=884655a1-2e5c-444e-b8b4-bc4e03857085"},"vehicle_type_id":"4","last_reported":1726402491,"current_range_meters":19600,"station_id":"ce4bhnh2rcd13ifvqgug","pricing_plan_id":"cebpf4jnsgd1na2vs0mg"},{"bike_id":"c5dd4feb-12d2-4aab-b7e0-58b69563947c","system_id":"levelo_inurba_marseille","lat":43.31719,"lon":5.424,"is_reserved":false,"is_disabled":false,"rental_uris":{"android":"levelo://app?vid=c5dd4feb-12d2-4aab-b7e0-58b69563947c","ios":"levelo://app?vid=c5dd4feb-12d2-4aab-b7e0-58b69563947c"},"vehicle_type_id":"4","last_reported":1726402491,"current_range_meters":37600,"station_id":"ce4bhp92rcd13ifvqhbg","pricing_plan_id":"cebpf4jnsgd1na2vs0mg"},{"bike_id":"b163cf08-6ce3-4d2f-a3d2-6a4eb4ce7991","system_id":"levelo_inurba_marseille","lat":43.28152,"lon":5.42646,"is_reserved":false,"is_disabled":false,"rental_uris":{"android":"levelo://app?vid=b163cf08-6ce3-4d2f-a3d2-6a4eb4ce7991","ios":"levelo://app?vid=b163cf08-6ce3-4d2f-a3d2-6a4eb4ce7991"},"vehicle_type_id":"4","last_reported":1726402491,"current_range_meters":8800,"station_id":"ce4bhnh2rcd13ifvqgug","pricing_plan_id":"cebpf4jnsgd1na2vs0mg"},{"bike_id":"d98e39c9-ded1-4e40-bd6b-e276fae8ebae","system_id":"levelo_inurba_marseille","lat":43.26563,"lon":5.39019,"is_reserved":false,"is_disabled":false,"rental_uris":{"android":"levelo://app?vid=d98e39c9-ded1-4e40-bd6b-e276fae8ebae","ios":"levelo://app?vid=d98e39c9-ded1-4e40-bd6b-e276fae8ebae"},"vehicle_type_id":"4","last_reported":1726402491,"current_range_meters":16000,"station_id":"ce4bhe12rcd13ifvqf30","pricing_plan_id":"cebpf4jnsgd1na2vs0mg"},{"bike_id":"50f525e0-c283-45a2-8ff3-8fd172ffacf6","system_id":"levelo_inurba_marseille","lat":43.28405,"lon":5.375058,"is_reserved":false,"is_disabled":false,"rental_uris":{"android":"levelo://app?vid=50f525e0-c283-45a2-8ff3-8fd172ffacf6","ios":"levelo://app?vid=50f525e0-c283-45a2-8ff3-8fd172ffacf6"},"vehicle_type_id":"4","last_reported":1726402491,"current_range_meters":14000,"station_id":"ce4bh412rcd13ifvqds0","pricing_plan_id":"cebpf4jnsgd1na2vs0mg"},{"bike_id":"fa520970-b02f-48ef-8a4c-a0b6221dc909","system_id":"levelo_inurba_marseille","lat":43.28154,"lon":5.42643,"is_reserved":false,"is_disabled":false,"rental_uris":{"android":"levelo://app?vid=fa520970-b02f-48ef-8a4c-a0b6221dc909","ios":"levelo://app?vid=fa520970-b02f-48ef-8a4c-a0b6221dc909"},"vehicle_type_id":"4","last_reported":1726402491,"current_range_meters":36000,"station_id":"ce4bhnh2rcd13ifvqgug","pricing_plan_id":"cebpf4jnsgd1na2vs0mg"},{"bike_id":"f79ff168-7c1f-43a6-9a48-819ae1e3b151","system_id":"levelo_inurba_marseille","lat":43.24071,"lon":5.37756,"is_reserved":false,"is_disabled":false,"rental_uris":{"android":"levelo://app?vid=f79ff168-7c1f-43a6-9a48-819ae1e3b151","ios":"levelo://app?vid=f79ff168-7c1f-43a6-9a48-819ae1e3b151"},"vehicle_type_id":"4","last_reported":1726402491,"current_range_meters":12800,"station_id":"ce4bhnp2rcd13ifvqgvg","pricing_plan_id":"cebpf4jnsgd1na2vs0mg"},{"bike_id":"6d5614e0-2e6f-4d24-9d4a-5c6cca74e3e5","system_id":"levelo_inurba_marseille","lat":43.23199,"lon":5.35556,"is_reserved":false,"is_disabled":false,"rental_uris":{"android":"levelo://app?vid=6d5614e0-2e6f-4d24-9d4a-5c6cca74e3e5","ios":"levelo://app?vid=6d5614e0-2e6f-4d24-9d4a-5c6cca74e3e5"},"vehicle_type_id":"4","last_reported":1726402491,"current_range_meters":10800,"station_id":"ce4bhu92rcd13ifvqi70","pricing_plan_id":"cebpf4jnsgd1na2vs0mg"},{"bike_id":"2bd6d586-7a39-4193-b931-436964993ed9","system_id":"levelo_inurba_marseille","lat":43.28271,"lon":5.35055,"is_reserved":false,"is_disabled":false,"rental_uris":{"android":"levelo://app?vid=2bd6d586-7a39-4193-b931-436964993ed9","ios":"levelo://app?vid=2bd6d586-7a39-4193-b931-436964993ed9"},"vehicle_type_id":"4","last_reported":1726402491,"current_range_meters":9200,"station_id":"ce4bhbp2rcd13ifvqerg","pricing_plan_id":"cebpf4jnsgd1na2vs0mg"},{"bike_id":"30d76f20-3abf-4f8d-bf02-61db7b08413c","system_id":"levelo_inurba_marseille","lat":43.24068,"lon":5.37764,"is_reserved":false,"is_disabled":false,"rental_uris":{"android":"levelo://app?vid=30d76f20-3abf-4f8d-bf02-61db7b08413c","ios":"levelo://app?vid=30d76f20-3abf-4f8d-bf02-61db7b08413c"},"vehicle_type_id":"4","last_reported":1726402491,"current_range_meters":24400,"station_id":"ce4bhnp2rcd13ifvqgvg","pricing_plan_id":"cebpf4jnsgd1na2vs0mg"},{"bike_id":"472398ca-7be6-45c1-a57c-fce088f97183","system_id":"levelo_inurba_marseille","lat":43.2842,"lon":5.34984,"is_reserved":false,"is_disabled":false,"rental_uris":{"android":"levelo://app?vid=472398ca-7be6-45c1-a57c-fce088f97183","ios":"levelo://app?vid=472398ca-7be6-45c1-a57c-fce088f97183"},"vehicle_type_id":"4","last_reported":1726402491,"current_range_meters":27200,"station_id":"ce4bhbh2rcd13ifvqepg","pricing_plan_id":"cebpf4jnsgd1na2vs0mg"},{"bike_id":"90521811-f8fd-48e1-ade7-4d07ddb065bb","system_id":"levelo_inurba_marseille","lat":43.23193,"lon":5.35559,"is_reserved":false,"is_disabled":false,"rental_uris":{"android":"levelo://app?vid=90521811-f8fd-48e1-ade7-4d07ddb065bb","ios":"levelo://app?vid=90521811-f8fd-48e1-ade7-4d07ddb065bb"},"vehicle_type_id":"4","last_reported":1726402491,"current_range_meters":12400,"station_id":"ce4bhu92rcd13ifvqi70","pricing_plan_id":"cebpf4jnsgd1na2vs0mg"},{"bike_id":"ac0b2d92-4e72-4a28-851c-700dc240dbdc","system_id":"levelo_inurba_marseille","lat":43.24805,"lon":5.37455,"is_reserved":false,"is_disabled":false,"rental_uris":{"android":"levelo://app?vid=ac0b2d92-4e72-4a28-851c-700dc240dbdc","ios":"levelo://app?vid=ac0b2d92-4e72-4a28-851c-700dc240dbdc"},"vehicle_type_id":"4","last_reported":1726402491,"current_range_meters":37600,"station_id":"ce4bhgh2rcd13ifvqfb0","pricing_plan_id":"cebpf4jnsgd1na2vs0mg"},{"bike_id":"3287f4aa-c745-47cf-a448-017cb5156cf8","system_id":"levelo_inurba_marseille","lat":43.25823,"lon":5.39428,"is_reserved":false,"is_disabled":false,"rental_uris":{"android":"levelo://app?vid=3287f4aa-c745-47cf-a448-017cb5156cf8","ios":"levelo://app?vid=3287f4aa-c745-47cf-a448-017cb5156cf8"},"vehicle_type_id":"4","last_reported":1726402491,"current_range_meters":24400,"station_id":"ce4bhip2rcd13ifvqft0","pricing_plan_id":"cebpf4jnsgd1na2vs0mg"},{"bike_id":"1fb5da9e-6df7-4106-a459-3f96f567eb25","system_id":"levelo_inurba_marseille","lat":43.23153,"lon":5.43707,"is_reserved":false,"is_disabled":false,"rental_uris":{"android":"levelo://app?vid=1fb5da9e-6df7-4106-a459-3f96f567eb25","ios":"levelo://app?vid=1fb5da9e-6df7-4106-a459-3f96f567eb25"},"vehicle_type_id":"4","last_reported":1726402491,"current_range_meters":36800,"station_id":"ce4bhmp2rcd13ifvqgog","pricing_plan_id":"cebpf4jnsgd1na2vs0mg"},{"bike_id":"6f398722-d2dc-44fa-9bb7-0980fb53e3f8","system_id":"levelo_inurba_marseille","lat":43.251037,"lon":5.403146,"is_reserved":false,"is_disabled":false,"rental_uris":{"android":"levelo://app?vid=6f398722-d2dc-44fa-9bb7-0980fb53e3f8","ios":"levelo://app?vid=6f398722-d2dc-44fa-9bb7-0980fb53e3f8"},"vehicle_type_id":"4","last_reported":1726402491,"current_range_meters":38800,"station_id":"ce4bhlh2rcd13ifvqgig","pricing_plan_id":"cebpf4jnsgd1na2vs0mg"},{"bike_id":"8d4bdb4f-95a8-40f5-a971-f2c3ce256c38","system_id":"levelo_inurba_marseille","lat":43.24673,"lon":5.38163,"is_reserved":false,"is_disabled":false,"rental_uris":{"android":"levelo://app?vid=8d4bdb4f-95a8-40f5-a971-f2c3ce256c38","ios":"levelo://app?vid=8d4bdb4f-95a8-40f5-a971-f2c3ce256c38"},"vehicle_type_id":"4","last_reported":1726402491,"current_range_meters":38000,"station_id":"ce4bhih2rcd13ifvqfr0","pricing_plan_id":"cebpf4jnsgd1na2vs0mg"},{"bike_id":"fe7d7640-31b4-4680-bbc0-971c61390d2e","system_id":"levelo_inurba_marseille","lat":43.25086,"lon":5.3951,"is_reserved":false,"is_disabled":false,"rental_uris":{"android":"levelo://app?vid=fe7d7640-31b4-4680-bbc0-971c61390d2e","ios":"levelo://app?vid=fe7d7640-31b4-4680-bbc0-971c61390d2e"},"vehicle_type_id":"4","last_reported":1726402491,"current_range_meters":28400,"station_id":"ce4bhm12rcd13ifvqgkg","pricing_plan_id":"cebpf4jnsgd1na2vs0mg"},{"bike_id":"26db0265-0a91-4c66-8aa8-67a94f7eef0d","system_id":"levelo_inurba_marseille","lat":43.26934,"lon":5.40055,"is_reserved":false,"is_disabled":false,"rental_uris":{"android":"levelo://app?vid=26db0265-0a91-4c66-8aa8-67a94f7eef0d","ios":"levelo://app?vid=26db0265-0a91-4c66-8aa8-67a94f7eef0d"},"vehicle_type_id":"4","last_reported":1726402491,"current_range_meters":10000,"station_id":"","pricing_plan_id":"cebpf4jnsgd1na2vs0mg"},{"bike_id":"9b49fc06-69dc-4375-9bc8-2ab31283d424","system_id":"levelo_inurba_marseille","lat":43.29903,"lon":5.43661,"is_reserved":false,"is_disabled":false,"rental_uris":{"android":"levelo://app?vid=9b49fc06-69dc-4375-9bc8-2ab31283d424","ios":"levelo://app?vid=9b49fc06-69dc-4375-9bc8-2ab31283d424"},"vehicle_type_id":"4","last_reported":1726402491,"current_range_meters":27200,"station_id":"ce4bhpp2rcd13ifvqhfg","pricing_plan_id":"cebpf4jnsgd1na2vs0mg"},{"bike_id":"332e7158-8ad6-4ff8-a711-56e21947b7b5","system_id":"levelo_inurba_marseille","lat":43.28421,"lon":5.34993,"is_reserved":false,"is_disabled":false,"rental_uris":{"android":"levelo://app?vid=332e7158-8ad6-4ff8-a711-56e21947b7b5","ios":"levelo://app?vid=332e7158-8ad6-4ff8-a711-56e21947b7b5"},"vehicle_type_id":"4","last_reported":1726402491,"current_range_meters":38800,"station_id":"ce4bhbh2rcd13ifvqepg","pricing_plan_id":"cebpf4jnsgd1na2vs0mg"},{"bike_id":"5fbd293c-40dd-47d7-acfe-e7573f7b6d3d","system_id":"levelo_inurba_marseille","lat":43.305367,"lon":5.367375,"is_reserved":false,"is_disabled":false,"rental_uris":{"android":"levelo://app?vid=5fbd293c-40dd-47d7-acfe-e7573f7b6d3d","ios":"levelo://app?vid=5fbd293c-40dd-47d7-acfe-e7573f7b6d3d"},"vehicle_type_id":"4","last_reported":1726402491,"current_range_meters":14400,"station_id":"ce4bgrp2rcd13ifvqc9g","pricing_plan_id":"cebpf4jnsgd1na2vs0mg"},{"bike_id":"326bd062-a168-4521-886c-59a9cfe74adc","system_id":"levelo_inurba_marseille","lat":43.30126,"lon":5.38776,"is_reserved":false,"is_disabled":false,"rental_uris":{"android":"levelo://app?vid=326bd062-a168-4521-886c-59a9cfe74adc","ios":"levelo://app?vid=326bd062-a168-4521-886c-59a9cfe74adc"},"vehicle_type_id":"4","last_reported":1726402491,"current_range_meters":22800,"station_id":"ce4bghh2rcd13ifvqb60","pricing_plan_id":"cebpf4jnsgd1na2vs0mg"},{"bike_id":"7cb86f02-015f-4218-848c-60a0be8facd1","system_id":"levelo_inurba_marseille","lat":43.25733,"lon":5.41103,"is_reserved":false,"is_disabled":false,"rental_uris":{"android":"levelo://app?vid=7cb86f02-015f-4218-848c-60a0be8facd1","ios":"levelo://app?vid=7cb86f02-015f-4218-848c-60a0be8facd1"},"vehicle_type_id":"4","last_reported":1726402491,"current_range_meters":16000,"station_id":"ce4bhkp2rcd13ifvqgd0","pricing_plan_id":"cebpf4jnsgd1na2vs0mg"},{"bike_id":"cfa04768-99b5-4d79-b78a-436c5da6ffbf","system_id":"levelo_inurba_marseille","lat":43.28257,"lon":5.35068,"is_reserved":false,"is_disabled":false,"rental_uris":{"android":"levelo://app?vid=cfa04768-99b5-4d79-b78a-436c5da6ffbf","ios":"levelo://app?vid=cfa04768-99b5-4d79-b78a-436c5da6ffbf"},"vehicle_type_id":"4","last_reported":1726402491,"current_range_meters":38800,"station_id":"ce4bhbp2rcd13ifvqerg","pricing_plan_id":"cebpf4jnsgd1na2vs0mg"},{"bike_id":"fa0bba81-ae28-438c-aaa0-a2a0c9d69ac5","system_id":"levelo_inurba_marseille","lat":43.29557,"lon":5.42283,"is_reserved":false,"is_disabled":false,"rental_uris":{"android":"levelo://app?vid=fa0bba81-ae28-438c-aaa0-a2a0c9d69ac5","ios":"levelo://app?vid=fa0bba81-ae28-438c-aaa0-a2a0c9d69ac5"},"vehicle_type_id":"4","last_reported":1726402491,"current_range_meters":32800,"station_id":"ce4bhph2rcd13ifvqhdg","pricing_plan_id":"cebpf4jnsgd1na2vs0mg"},{"bike_id":"818aa103-0406-41fd-91ec-587323d47afb","system_id":"levelo_inurba_marseille","lat":43.23961,"lon":5.3663,"is_reserved":false,"is_disabled":false,"rental_uris":{"android":"levelo://app?vid=818aa103-0406-41fd-91ec-587323d47afb","ios":"levelo://app?vid=818aa103-0406-41fd-91ec-587323d47afb"},"vehicle_type_id":"4","last_reported":1726402491,"current_range_meters":16400,"station_id":"ce4bhi12rcd13ifvqfp0","pricing_plan_id":"cebpf4jnsgd1na2vs0mg"},{"bike_id":"e00d038a-00c7-4258-ab4b-259bdb081cfd","system_id":"levelo_inurba_marseille","lat":43.23193,"lon":5.35543,"is_reserved":false,"is_disabled":false,"rental_uris":{"android":"levelo://app?vid=e00d038a-00c7-4258-ab4b-259bdb081cfd","ios":"levelo://app?vid=e00d038a-00c7-4258-ab4b-259bdb081cfd"},"vehicle_type_id":"4","last_reported":1726402491,"current_range_meters":28000,"station_id":"ce4bhu92rcd13ifvqi70","pricing_plan_id":"cebpf4jnsgd1na2vs0mg"},{"bike_id":"459ca2fe-304d-47b2-a604-8dea281edb0c","system_id":"levelo_inurba_marseille","lat":43.310772,"lon":5.424331,"is_reserved":false,"is_disabled":false,"rental_uris":{"android":"levelo://app?vid=459ca2fe-304d-47b2-a604-8dea281edb0c","ios":"levelo://app?vid=459ca2fe-304d-47b2-a604-8dea281edb0c"},"vehicle_type_id":"4","last_reported":1726402491,"current_range_meters":32400,"station_id":"ce4bhp92rcd13ifvqhag","pricing_plan_id":"cebpf4jnsgd1na2vs0mg"},{"bike_id":"fc2a0ead-924c-45f3-81f0-fe042b5d66b7","system_id":"levelo_inurba_marseille","lat":43.29905,"lon":5.38129,"is_reserved":false,"is_disabled":false,"rental_uris":{"android":"levelo://app?vid=fc2a0ead-924c-45f3-81f0-fe042b5d66b7","ios":"levelo://app?vid=fc2a0ead-924c-45f3-81f0-fe042b5d66b7"},"vehicle_type_id":"4","last_reported":1726402491,"current_range_meters":2000,"station_id":"ce4bgj12rcd13ifvqbc0","pricing_plan_id":"cebpf4jnsgd1na2vs0mg"},{"bike_id":"8d3ee9a4-51a1-44e0-8b30-166e67777a82","system_id":"levelo_inurba_marseille","lat":43.25853,"lon":5.39907,"is_reserved":false,"is_disabled":false,"rental_uris":{"android":"levelo://app?vid=8d3ee9a4-51a1-44e0-8b30-166e67777a82","ios":"levelo://app?vid=8d3ee9a4-51a1-44e0-8b30-166e67777a82"},"vehicle_type_id":"4","last_reported":1726402491,"current_range_meters":38000,"station_id":"ce4bhl92rcd13ifvqghg","pricing_plan_id":"cebpf4jnsgd1na2vs0mg"},{"bike_id":"d565d120-3226-4709-92bb-d601ab6a5b13","system_id":"levelo_inurba_marseille","lat":43.28348,"lon":5.38108,"is_reserved":false,"is_disabled":false,"rental_uris":{"android":"levelo://app?vid=d565d120-3226-4709-92bb-d601ab6a5b13","ios":"levelo://app?vid=d565d120-3226-4709-92bb-d601ab6a5b13"},"vehicle_type_id":"4","last_reported":1726402491,"current_range_meters":12000,"station_id":"ce4bh412rcd13ifvqdr0","pricing_plan_id":"cebpf4jnsgd1na2vs0mg"},{"bike_id":"b8640a1b-d4a2-4e08-b27f-f6878ec4cbf7","system_id":"levelo_inurba_marseille","lat":43.31697,"lon":5.40473,"is_reserved":false,"is_disabled":false,"rental_uris":{"android":"levelo://app?vid=b8640a1b-d4a2-4e08-b27f-f6878ec4cbf7","ios":"levelo://app?vid=b8640a1b-d4a2-4e08-b27f-f6878ec4cbf7"},"vehicle_type_id":"4","last_reported":1726402491,"current_range_meters":32400,"station_id":"ce4bh012rcd13ifvqd00","pricing_plan_id":"cebpf4jnsgd1na2vs0mg"},{"bike_id":"ce671292-f761-4123-b340-0508a3a46e9c","system_id":"levelo_inurba_marseille","lat":43.31336,"lon":5.3673,"is_reserved":false,"is_disabled":false,"rental_uris":{"android":"levelo://app?vid=ce671292-f761-4123-b340-0508a3a46e9c","ios":"levelo://app?vid=ce671292-f761-4123-b340-0508a3a46e9c"},"vehicle_type_id":"4","last_reported":1726402491,"current_range_meters":36400,"station_id":"ce4bgr92rcd13ifvqc6g","pricing_plan_id":"cebpf4jnsgd1na2vs0mg"},{"bike_id":"f20556f7-f759-42cf-a525-d68233a54438","system_id":"levelo_inurba_marseille","lat":43.30545,"lon":5.36542,"is_reserved":false,"is_disabled":false,"rental_uris":{"android":"levelo://app?vid=f20556f7-f759-42cf-a525-d68233a54438","ios":"levelo://app?vid=f20556f7-f759-42cf-a525-d68233a54438"},"vehicle_type_id":"4","last_reported":1726402491,"current_range_meters":20000,"station_id":"ce4bgs12rcd13ifvqcag","pricing_plan_id":"cebpf4jnsgd1na2vs0mg"},{"bike_id":"ec19b6e1-4ec0-4e39-b98f-e4b7c23ca064","system_id":"levelo_inurba_marseille","lat":43.27378,"lon":5.36253,"is_reserved":false,"is_disabled":false,"rental_uris":{"android":"levelo://app?vid=ec19b6e1-4ec0-4e39-b98f-e4b7c23ca064","ios":"levelo://app?vid=ec19b6e1-4ec0-4e39-b98f-e4b7c23ca064"},"vehicle_type_id":"4","last_reported":1726402491,"current_range_meters":6800,"station_id":"ce4bhbh2rcd13ifvqeo0","pricing_plan_id":"cebpf4jnsgd1na2vs0mg"},{"bike_id":"55b2ff50-0658-416d-947e-8f1c242f6ea9","system_id":"levelo_inurba_marseille","lat":43.27426,"lon":5.3942,"is_reserved":false,"is_disabled":false,"rental_uris":{"android":"levelo://app?vid=55b2ff50-0658-416d-947e-8f1c242f6ea9","ios":"levelo://app?vid=55b2ff50-0658-416d-947e-8f1c242f6ea9"},"vehicle_type_id":"4","last_reported":1726402491,"current_range_meters":33200,"station_id":"ce4bhdp2rcd13ifvqf20","pricing_plan_id":"cebpf4jnsgd1na2vs0mg"},{"bike_id":"14819771-c2e0-4b34-85c7-d24843bd6054","system_id":"levelo_inurba_marseille","lat":43.31322,"lon":5.39698,"is_reserved":false,"is_disabled":false,"rental_uris":{"android":"levelo://app?vid=14819771-c2e0-4b34-85c7-d24843bd6054","ios":"levelo://app?vid=14819771-c2e0-4b34-85c7-d24843bd6054"},"vehicle_type_id":"4","last_reported":1726402491,"current_range_meters":35200,"station_id":"ce4bgvp2rcd13ifvqcu0","pricing_plan_id":"cebpf4jnsgd1na2vs0mg"},{"bike_id":"ed330385-6b94-4eca-8854-ee1ebb745d56","system_id":"levelo_inurba_marseille","lat":43.29258,"lon":5.40903,"is_reserved":false,"is_disabled":false,"rental_uris":{"android":"levelo://app?vid=ed330385-6b94-4eca-8854-ee1ebb745d56","ios":"levelo://app?vid=ed330385-6b94-4eca-8854-ee1ebb745d56"},"vehicle_type_id":"4","last_reported":1726402491,"current_range_meters":18000,"station_id":"ce4bh192rcd13ifvqdc0","pricing_plan_id":"cebpf4jnsgd1na2vs0mg"},{"bike_id":"b1db6496-7d7b-4acc-a88c-e5406d38e100","system_id":"levelo_inurba_marseille","lat":43.23196,"lon":5.3555,"is_reserved":false,"is_disabled":false,"rental_uris":{"android":"levelo://app?vid=b1db6496-7d7b-4acc-a88c-e5406d38e100","ios":"levelo://app?vid=b1db6496-7d7b-4acc-a88c-e5406d38e100"},"vehicle_type_id":"4","last_reported":1726402491,"current_range_meters":36800,"station_id":"ce4bhu92rcd13ifvqi70","pricing_plan_id":"cebpf4jnsgd1na2vs0mg"},{"bike_id":"ee721f16-71d0-49c8-9da4-858f78b55bcb","system_id":"levelo_inurba_marseille","lat":43.25938,"lon":5.40902,"is_reserved":false,"is_disabled":false,"rental_uris":{"android":"levelo://app?vid=ee721f16-71d0-49c8-9da4-858f78b55bcb","ios":"levelo://app?vid=ee721f16-71d0-49c8-9da4-858f78b55bcb"},"vehicle_type_id":"4","last_reported":1726402491,"current_range_meters":25600,"station_id":"ce4bhm92rcd13ifvqglg","pricing_plan_id":"cebpf4jnsgd1na2vs0mg"},{"bike_id":"13c91d7d-de5b-4dfc-9b1a-b2ed5c129dd0","system_id":"levelo_inurba_marseille","lat":43.30538,"lon":5.36699,"is_reserved":false,"is_disabled":false,"rental_uris":{"android":"levelo://app?vid=13c91d7d-de5b-4dfc-9b1a-b2ed5c129dd0","ios":"levelo://app?vid=13c91d7d-de5b-4dfc-9b1a-b2ed5c129dd0"},"vehicle_type_id":"4","last_reported":1726402491,"current_range_meters":15200,"station_id":"ce4bgrp2rcd13ifvqc9g","pricing_plan_id":"cebpf4jnsgd1na2vs0mg"},{"bike_id":"6f61cd53-19b3-4fb7-87d9-1b69bb693160","system_id":"levelo_inurba_marseille","lat":43.26212,"lon":5.37438,"is_reserved":false,"is_disabled":false,"rental_uris":{"android":"levelo://app?vid=6f61cd53-19b3-4fb7-87d9-1b69bb693160","ios":"levelo://app?vid=6f61cd53-19b3-4fb7-87d9-1b69bb693160"},"vehicle_type_id":"4","last_reported":1726402491,"current_range_meters":32000,"station_id":"ce4bhgp2rcd13ifvqfc0","pricing_plan_id":"cebpf4jnsgd1na2vs0mg"},{"bike_id":"7691806c-1262-49b4-8742-55d33f5ddcc2","system_id":"levelo_inurba_marseille","lat":43.30151,"lon":5.38075,"is_reserved":false,"is_disabled":false,"rental_uris":{"android":"levelo://app?vid=7691806c-1262-49b4-8742-55d33f5ddcc2","ios":"levelo://app?vid=7691806c-1262-49b4-8742-55d33f5ddcc2"},"vehicle_type_id":"4","last_reported":1726402491,"current_range_meters":9200,"station_id":"ce4bgjp2rcd13ifvqbh0","pricing_plan_id":"cebpf4jnsgd1na2vs0mg"},{"bike_id":"5cf4c2f1-f092-4550-b8cf-369099ebc3bc","system_id":"levelo_inurba_marseille","lat":43.2456,"lon":5.4155,"is_reserved":false,"is_disabled":false,"rental_uris":{"android":"levelo://app?vid=5cf4c2f1-f092-4550-b8cf-369099ebc3bc","ios":"levelo://app?vid=5cf4c2f1-f092-4550-b8cf-369099ebc3bc"},"vehicle_type_id":"4","last_reported":1726402491,"current_range_meters":14800,"station_id":"ce4bhlh2rcd13ifvqgig","pricing_plan_id":"cebpf4jnsgd1na2vs0mg"},{"bike_id":"b4d67c25-885f-4a3e-ae9b-19bc2bdbee26","system_id":"levelo_inurba_marseille","lat":43.24809,"lon":5.37454,"is_reserved":false,"is_disabled":false,"rental_uris":{"android":"levelo://app?vid=b4d67c25-885f-4a3e-ae9b-19bc2bdbee26","ios":"levelo://app?vid=b4d67c25-885f-4a3e-ae9b-19bc2bdbee26"},"vehicle_type_id":"4","last_reported":1726402491,"current_range_meters":12800,"station_id":"ce4bhgh2rcd13ifvqfb0","pricing_plan_id":"cebpf4jnsgd1na2vs0mg"},{"bike_id":"dfc7e944-178a-43bd-85e8-0abf1cafc416","system_id":"levelo_inurba_marseille","lat":43.22923,"lon":5.35376,"is_reserved":false,"is_disabled":false,"rental_uris":{"android":"levelo://app?vid=dfc7e944-178a-43bd-85e8-0abf1cafc416","ios":"levelo://app?vid=dfc7e944-178a-43bd-85e8-0abf1cafc416"},"vehicle_type_id":"4","last_reported":1726402491,"current_range_meters":22400,"station_id":"cpo3532slgdg3j2ikp40","pricing_plan_id":"cebpf4jnsgd1na2vs0mg"},{"bike_id":"354f931f-0632-45e1-8742-ec6ddc3feef8","system_id":"levelo_inurba_marseille","lat":43.28418,"lon":5.34979,"is_reserved":false,"is_disabled":false,"rental_uris":{"android":"levelo://app?vid=354f931f-0632-45e1-8742-ec6ddc3feef8","ios":"levelo://app?vid=354f931f-0632-45e1-8742-ec6ddc3feef8"},"vehicle_type_id":"4","last_reported":1726402491,"current_range_meters":32800,"station_id":"ce4bhbh2rcd13ifvqepg","pricing_plan_id":"cebpf4jnsgd1na2vs0mg"},{"bike_id":"6dddbab5-c16e-4541-846f-31261364d687","system_id":"levelo_inurba_marseille","lat":43.31325,"lon":5.39699,"is_reserved":false,"is_disabled":false,"rental_uris":{"android":"levelo://app?vid=6dddbab5-c16e-4541-846f-31261364d687","ios":"levelo://app?vid=6dddbab5-c16e-4541-846f-31261364d687"},"vehicle_type_id":"4","last_reported":1726402491,"current_range_meters":10000,"station_id":"ce4bgvp2rcd13ifvqcu0","pricing_plan_id":"cebpf4jnsgd1na2vs0mg"},{"bike_id":"7bc14114-e12c-41c1-ab2a-a4f019a17326","system_id":"levelo_inurba_marseille","lat":43.23058,"lon":5.35491,"is_reserved":false,"is_disabled":false,"rental_uris":{"android":"levelo://app?vid=7bc14114-e12c-41c1-ab2a-a4f019a17326","ios":"levelo://app?vid=7bc14114-e12c-41c1-ab2a-a4f019a17326"},"vehicle_type_id":"4","last_reported":1726402491,"current_range_meters":25200,"station_id":"cpo3342slgdg3j2ifvpg","pricing_plan_id":"cebpf4jnsgd1na2vs0mg"},{"bike_id":"b645ac77-0d58-4fa9-8ad3-947af8bdb1d9","system_id":"levelo_inurba_marseille","lat":43.29902,"lon":5.43666,"is_reserved":false,"is_disabled":false,"rental_uris":{"android":"levelo://app?vid=b645ac77-0d58-4fa9-8ad3-947af8bdb1d9","ios":"levelo://app?vid=b645ac77-0d58-4fa9-8ad3-947af8bdb1d9"},"vehicle_type_id":"4","last_reported":1726402491,"current_range_meters":34000,"station_id":"ce4bhpp2rcd13ifvqhfg","pricing_plan_id":"cebpf4jnsgd1na2vs0mg"},{"bike_id":"03515e55-0de8-4f6d-953a-abbf71a9cce4","system_id":"levelo_inurba_marseille","lat":43.24071,"lon":5.37759,"is_reserved":false,"is_disabled":false,"rental_uris":{"android":"levelo://app?vid=03515e55-0de8-4f6d-953a-abbf71a9cce4","ios":"levelo://app?vid=03515e55-0de8-4f6d-953a-abbf71a9cce4"},"vehicle_type_id":"4","last_reported":1726402491,"current_range_meters":17600,"station_id":"ce4bhnp2rcd13ifvqgvg","pricing_plan_id":"cebpf4jnsgd1na2vs0mg"},{"bike_id":"91d155a1-0e95-42f4-9cf2-24e586735a13","system_id":"levelo_inurba_marseille","lat":43.33722,"lon":5.39181,"is_reserved":false,"is_disabled":false,"rental_uris":{"android":"levelo://app?vid=91d155a1-0e95-42f4-9cf2-24e586735a13","ios":"levelo://app?vid=91d155a1-0e95-42f4-9cf2-24e586735a13"},"vehicle_type_id":"4","last_reported":1726402491,"current_range_meters":38800,"station_id":"ce4bhr92rcd13ifvqhsg","pricing_plan_id":"cebpf4jnsgd1na2vs0mg"},{"bike_id":"9ea5f386-1594-4303-a22f-dd9a4338fb38","system_id":"levelo_inurba_marseille","lat":43.28269,"lon":5.35056,"is_reserved":false,"is_disabled":false,"rental_uris":{"android":"levelo://app?vid=9ea5f386-1594-4303-a22f-dd9a4338fb38","ios":"levelo://app?vid=9ea5f386-1594-4303-a22f-dd9a4338fb38"},"vehicle_type_id":"4","last_reported":1726402491,"current_range_meters":18800,"station_id":"ce4bhbp2rcd13ifvqerg","pricing_plan_id":"cebpf4jnsgd1na2vs0mg"},{"bike_id":"b00d6d0d-9b69-4bac-adae-46e5a982b2f2","system_id":"levelo_inurba_marseille","lat":43.31068,"lon":5.38348,"is_reserved":false,"is_disabled":false,"rental_uris":{"android":"levelo://app?vid=b00d6d0d-9b69-4bac-adae-46e5a982b2f2","ios":"levelo://app?vid=b00d6d0d-9b69-4bac-adae-46e5a982b2f2"},"vehicle_type_id":"4","last_reported":1726402491,"current_range_meters":28800,"station_id":"ce4bgv92rcd13ifvqcr0","pricing_plan_id":"cebpf4jnsgd1na2vs0mg"},{"bike_id":"7abc2a25-404a-4f70-a7c0-c89315b5c4bc","system_id":"levelo_inurba_marseille","lat":43.29757,"lon":5.36522,"is_reserved":false,"is_disabled":false,"rental_uris":{"android":"levelo://app?vid=7abc2a25-404a-4f70-a7c0-c89315b5c4bc","ios":"levelo://app?vid=7abc2a25-404a-4f70-a7c0-c89315b5c4bc"},"vehicle_type_id":"4","last_reported":1726402491,"current_range_meters":28400,"station_id":"","pricing_plan_id":"cebpf4jnsgd1na2vs0mg"},{"bike_id":"fd83cc85-fb39-4529-9ec4-67df617c15df","system_id":"levelo_inurba_marseille","lat":43.28261,"lon":5.35389,"is_reserved":false,"is_disabled":false,"rental_uris":{"android":"levelo://app?vid=fd83cc85-fb39-4529-9ec4-67df617c15df","ios":"levelo://app?vid=fd83cc85-fb39-4529-9ec4-67df617c15df"},"vehicle_type_id":"4","last_reported":1726402491,"current_range_meters":17200,"station_id":"","pricing_plan_id":"cebpf4jnsgd1na2vs0mg"},{"bike_id":"680b296f-8a9e-4ce9-90dd-5edf4faa61c1","system_id":"levelo_inurba_marseille","lat":43.31748,"lon":5.39026,"is_reserved":false,"is_disabled":false,"rental_uris":{"android":"levelo://app?vid=680b296f-8a9e-4ce9-90dd-5edf4faa61c1","ios":"levelo://app?vid=680b296f-8a9e-4ce9-90dd-5edf4faa61c1"},"vehicle_type_id":"4","last_reported":1726402491,"current_range_meters":38000,"station_id":"ce4bhqp2rcd13ifvqhng","pricing_plan_id":"cebpf4jnsgd1na2vs0mg"},{"bike_id":"bbd2450a-84a7-42e1-bc94-af6bf7be8eb5","system_id":"levelo_inurba_marseille","lat":43.33023,"lon":5.39051,"is_reserved":false,"is_disabled":false,"rental_uris":{"android":"levelo://app?vid=bbd2450a-84a7-42e1-bc94-af6bf7be8eb5","ios":"levelo://app?vid=bbd2450a-84a7-42e1-bc94-af6bf7be8eb5"},"vehicle_type_id":"4","last_reported":1726402491,"current_range_meters":32800,"station_id":"ce4bhr92rcd13ifvqhrg","pricing_plan_id":"cebpf4jnsgd1na2vs0mg"},{"bike_id":"eba21231-45d2-4b55-bd6c-544d316e9e2d","system_id":"levelo_inurba_marseille","lat":43.30143,"lon":5.37419,"is_reserved":false,"is_disabled":false,"rental_uris":{"android":"levelo://app?vid=eba21231-45d2-4b55-bd6c-544d316e9e2d","ios":"levelo://app?vid=eba21231-45d2-4b55-bd6c-544d316e9e2d"},"vehicle_type_id":"4","last_reported":1726402491,"current_range_meters":32400,"station_id":"ce4bgs92rcd13ifvqcc0","pricing_plan_id":"cebpf4jnsgd1na2vs0mg"},{"bike_id":"6f35c12e-d335-43b9-b4b4-448f434edd1c","system_id":"levelo_inurba_marseille","lat":43.33728,"lon":5.39181,"is_reserved":false,"is_disabled":false,"rental_uris":{"android":"levelo://app?vid=6f35c12e-d335-43b9-b4b4-448f434edd1c","ios":"levelo://app?vid=6f35c12e-d335-43b9-b4b4-448f434edd1c"},"vehicle_type_id":"4","last_reported":1726402491,"current_range_meters":36800,"station_id":"ce4bhr92rcd13ifvqhsg","pricing_plan_id":"cebpf4jnsgd1na2vs0mg"},{"bike_id":"46fa0628-63da-403c-a9e3-76cf9989cf96","system_id":"levelo_inurba_marseille","lat":43.31328,"lon":5.39691,"is_reserved":false,"is_disabled":false,"rental_uris":{"android":"levelo://app?vid=46fa0628-63da-403c-a9e3-76cf9989cf96","ios":"levelo://app?vid=46fa0628-63da-403c-a9e3-76cf9989cf96"},"vehicle_type_id":"4","last_reported":1726402491,"current_range_meters":39200,"station_id":"ce4bgvp2rcd13ifvqcu0","pricing_plan_id":"cebpf4jnsgd1na2vs0mg"},{"bike_id":"873ac64c-a3b4-489d-b67e-8f966df25667","system_id":"levelo_inurba_marseille","lat":43.30889,"lon":5.39653,"is_reserved":false,"is_disabled":false,"rental_uris":{"android":"levelo://app?vid=873ac64c-a3b4-489d-b67e-8f966df25667","ios":"levelo://app?vid=873ac64c-a3b4-489d-b67e-8f966df25667"},"vehicle_type_id":"4","last_reported":1726402491,"current_range_meters":37600,"station_id":"ce4bh012rcd13ifvqcv0","pricing_plan_id":"cebpf4jnsgd1na2vs0mg"},{"bike_id":"eb859aa0-56cd-4f84-a240-69fd46a38636","system_id":"levelo_inurba_marseille","lat":43.2841,"lon":5.34995,"is_reserved":false,"is_disabled":false,"rental_uris":{"android":"levelo://app?vid=eb859aa0-56cd-4f84-a240-69fd46a38636","ios":"levelo://app?vid=eb859aa0-56cd-4f84-a240-69fd46a38636"},"vehicle_type_id":"4","last_reported":1726402491,"current_range_meters":39200,"station_id":"ce4bhbh2rcd13ifvqepg","pricing_plan_id":"cebpf4jnsgd1na2vs0mg"},{"bike_id":"a5b9893a-69ee-452e-a569-2236e1a73750","system_id":"levelo_inurba_marseille","lat":43.25503,"lon":5.37654,"is_reserved":false,"is_disabled":false,"rental_uris":{"android":"levelo://app?vid=a5b9893a-69ee-452e-a569-2236e1a73750","ios":"levelo://app?vid=a5b9893a-69ee-452e-a569-2236e1a73750"},"vehicle_type_id":"4","last_reported":1726402491,"current_range_meters":34800,"station_id":"ce4bhh12rcd13ifvqff0","pricing_plan_id":"cebpf4jnsgd1na2vs0mg"},{"bike_id":"ac2f8b18-c4e8-4836-947b-b533a20a9549","system_id":"levelo_inurba_marseille","lat":43.29043,"lon":5.35913,"is_reserved":false,"is_disabled":false,"rental_uris":{"android":"levelo://app?vid=ac2f8b18-c4e8-4836-947b-b533a20a9549","ios":"levelo://app?vid=ac2f8b18-c4e8-4836-947b-b533a20a9549"},"vehicle_type_id":"4","last_reported":1726402491,"current_range_meters":34800,"station_id":"ce4bha92rcd13ifvqeg0","pricing_plan_id":"cebpf4jnsgd1na2vs0mg"},{"bike_id":"552ccea4-a0ab-4fa2-9015-1ea8da64cd61","system_id":"levelo_inurba_marseille","lat":43.25574,"lon":5.38242,"is_reserved":false,"is_disabled":false,"rental_uris":{"android":"levelo://app?vid=552ccea4-a0ab-4fa2-9015-1ea8da64cd61","ios":"levelo://app?vid=552ccea4-a0ab-4fa2-9015-1ea8da64cd61"},"vehicle_type_id":"4","last_reported":1726402491,"current_range_meters":3600,"station_id":"ce4bhih2rcd13ifvqfs0","pricing_plan_id":"cebpf4jnsgd1na2vs0mg"},{"bike_id":"c979dfc3-35c3-4581-bddc-204d4a80487c","system_id":"levelo_inurba_marseille","lat":43.28271,"lon":5.35069,"is_reserved":false,"is_disabled":false,"rental_uris":{"android":"levelo://app?vid=c979dfc3-35c3-4581-bddc-204d4a80487c","ios":"levelo://app?vid=c979dfc3-35c3-4581-bddc-204d4a80487c"},"vehicle_type_id":"4","last_reported":1726402491,"current_range_meters":38800,"station_id":"ce4bhbp2rcd13ifvqerg","pricing_plan_id":"cebpf4jnsgd1na2vs0mg"},{"bike_id":"18c72797-f403-4de4-93d9-262e4ac4c0cc","system_id":"levelo_inurba_marseille","lat":43.28477,"lon":5.38415,"is_reserved":false,"is_disabled":false,"rental_uris":{"android":"levelo://app?vid=18c72797-f403-4de4-93d9-262e4ac4c0cc","ios":"levelo://app?vid=18c72797-f403-4de4-93d9-262e4ac4c0cc"},"vehicle_type_id":"4","last_reported":1726402491,"current_range_meters":8000,"station_id":"ce4bh512rcd13ifvqe3g","pricing_plan_id":"cebpf4jnsgd1na2vs0mg"},{"bike_id":"b8cfd7e7-5313-497a-b136-54748d691d21","system_id":"levelo_inurba_marseille","lat":43.31707,"lon":5.43707,"is_reserved":false,"is_disabled":false,"rental_uris":{"android":"levelo://app?vid=b8cfd7e7-5313-497a-b136-54748d691d21","ios":"levelo://app?vid=b8cfd7e7-5313-497a-b136-54748d691d21"},"vehicle_type_id":"4","last_reported":1726402491,"current_range_meters":38800,"station_id":"ce4bhp92rcd13ifvqhcg","pricing_plan_id":"cebpf4jnsgd1na2vs0mg"},{"bike_id":"b2ab15ce-8752-4a7f-9d28-aa53fc49472e","system_id":"levelo_inurba_marseille","lat":43.24665,"lon":5.38163,"is_reserved":false,"is_disabled":false,"rental_uris":{"android":"levelo://app?vid=b2ab15ce-8752-4a7f-9d28-aa53fc49472e","ios":"levelo://app?vid=b2ab15ce-8752-4a7f-9d28-aa53fc49472e"},"vehicle_type_id":"4","last_reported":1726402491,"current_range_meters":39200,"station_id":"ce4bhih2rcd13ifvqfr0","pricing_plan_id":"cebpf4jnsgd1na2vs0mg"},{"bike_id":"e913674e-3e20-42a5-890a-6007ca92b33d","system_id":"levelo_inurba_marseille","lat":43.31331,"lon":5.39689,"is_reserved":false,"is_disabled":false,"rental_uris":{"android":"levelo://app?vid=e913674e-3e20-42a5-890a-6007ca92b33d","ios":"levelo://app?vid=e913674e-3e20-42a5-890a-6007ca92b33d"},"vehicle_type_id":"4","last_reported":1726402491,"current_range_meters":30400,"station_id":"ce4bgvp2rcd13ifvqcu0","pricing_plan_id":"cebpf4jnsgd1na2vs0mg"},{"bike_id":"9189c83d-010e-49bd-b164-1e39c4fa7872","system_id":"levelo_inurba_marseille","lat":43.30544,"lon":5.36525,"is_reserved":false,"is_disabled":false,"rental_uris":{"android":"levelo://app?vid=9189c83d-010e-49bd-b164-1e39c4fa7872","ios":"levelo://app?vid=9189c83d-010e-49bd-b164-1e39c4fa7872"},"vehicle_type_id":"4","last_reported":1726402491,"current_range_meters":37600,"station_id":"ce4bgs12rcd13ifvqcag","pricing_plan_id":"cebpf4jnsgd1na2vs0mg"},{"bike_id":"7251d55d-befd-400d-90d9-ab0b68ba8caa","system_id":"levelo_inurba_marseille","lat":43.24811,"lon":5.37456,"is_reserved":false,"is_disabled":false,"rental_uris":{"android":"levelo://app?vid=7251d55d-befd-400d-90d9-ab0b68ba8caa","ios":"levelo://app?vid=7251d55d-befd-400d-90d9-ab0b68ba8caa"},"vehicle_type_id":"4","last_reported":1726402491,"current_range_meters":37600,"station_id":"ce4bhgh2rcd13ifvqfb0","pricing_plan_id":"cebpf4jnsgd1na2vs0mg"},{"bike_id":"53a2d874-293d-47cc-bdbd-a03b3468623b","system_id":"levelo_inurba_marseille","lat":43.29904,"lon":5.43678,"is_reserved":false,"is_disabled":false,"rental_uris":{"android":"levelo://app?vid=53a2d874-293d-47cc-bdbd-a03b3468623b","ios":"levelo://app?vid=53a2d874-293d-47cc-bdbd-a03b3468623b"},"vehicle_type_id":"4","last_reported":1726402491,"current_range_meters":4000,"station_id":"ce4bhpp2rcd13ifvqhfg","pricing_plan_id":"cebpf4jnsgd1na2vs0mg"},{"bike_id":"bb7acf50-b6bc-4b2d-adf4-833abc23b24c","system_id":"levelo_inurba_marseille","lat":43.23196,"lon":5.35545,"is_reserved":false,"is_disabled":false,"rental_uris":{"android":"levelo://app?vid=bb7acf50-b6bc-4b2d-adf4-833abc23b24c","ios":"levelo://app?vid=bb7acf50-b6bc-4b2d-adf4-833abc23b24c"},"vehicle_type_id":"4","last_reported":1726402491,"current_range_meters":39200,"station_id":"ce4bhu92rcd13ifvqi70","pricing_plan_id":"cebpf4jnsgd1na2vs0mg"},{"bike_id":"19628bd1-9172-46c3-bfa1-37d603408e00","system_id":"levelo_inurba_marseille","lat":43.31329,"lon":5.39694,"is_reserved":false,"is_disabled":false,"rental_uris":{"android":"levelo://app?vid=19628bd1-9172-46c3-bfa1-37d603408e00","ios":"levelo://app?vid=19628bd1-9172-46c3-bfa1-37d603408e00"},"vehicle_type_id":"4","last_reported":1726402491,"current_range_meters":39200,"station_id":"ce4bgvp2rcd13ifvqcu0","pricing_plan_id":"cebpf4jnsgd1na2vs0mg"},{"bike_id":"4c1ecf41-3292-4a63-a103-401c0bb6cad5","system_id":"levelo_inurba_marseille","lat":43.23961,"lon":5.36629,"is_reserved":false,"is_disabled":false,"rental_uris":{"android":"levelo://app?vid=4c1ecf41-3292-4a63-a103-401c0bb6cad5","ios":"levelo://app?vid=4c1ecf41-3292-4a63-a103-401c0bb6cad5"},"vehicle_type_id":"4","last_reported":1726402491,"current_range_meters":24000,"station_id":"ce4bhi12rcd13ifvqfp0","pricing_plan_id":"cebpf4jnsgd1na2vs0mg"},{"bike_id":"f283393f-cb71-4171-8fa7-12e43a64db58","system_id":"levelo_inurba_marseille","lat":43.29579,"lon":5.36742,"is_reserved":false,"is_disabled":false,"rental_uris":{"android":"levelo://app?vid=f283393f-cb71-4171-8fa7-12e43a64db58","ios":"levelo://app?vid=f283393f-cb71-4171-8fa7-12e43a64db58"},"vehicle_type_id":"4","last_reported":1726402491,"current_range_meters":38400,"station_id":"ce4bgph2rcd13ifvqc2g","pricing_plan_id":"cebpf4jnsgd1na2vs0mg"},{"bike_id":"9c24584d-1fe2-4937-9dbd-7f9208b3ad07","system_id":"levelo_inurba_marseille","lat":43.27985,"lon":5.41651,"is_reserved":false,"is_disabled":false,"rental_uris":{"android":"levelo://app?vid=9c24584d-1fe2-4937-9dbd-7f9208b3ad07","ios":"levelo://app?vid=9c24584d-1fe2-4937-9dbd-7f9208b3ad07"},"vehicle_type_id":"4","last_reported":1726402491,"current_range_meters":28000,"station_id":"ce4bho12rcd13ifvqh1g","pricing_plan_id":"cebpf4jnsgd1na2vs0mg"},{"bike_id":"55a43fda-0c8d-40d1-a3de-092939f135ed","system_id":"levelo_inurba_marseille","lat":43.25579,"lon":5.38245,"is_reserved":false,"is_disabled":false,"rental_uris":{"android":"levelo://app?vid=55a43fda-0c8d-40d1-a3de-092939f135ed","ios":"levelo://app?vid=55a43fda-0c8d-40d1-a3de-092939f135ed"},"vehicle_type_id":"4","last_reported":1726402491,"current_range_meters":38800,"station_id":"ce4bhih2rcd13ifvqfs0","pricing_plan_id":"cebpf4jnsgd1na2vs0mg"},{"bike_id":"cc0d038e-8a62-435b-9ac6-bfd1505a2d4f","system_id":"levelo_inurba_marseille","lat":43.31722,"lon":5.42401,"is_reserved":false,"is_disabled":false,"rental_uris":{"android":"levelo://app?vid=cc0d038e-8a62-435b-9ac6-bfd1505a2d4f","ios":"levelo://app?vid=cc0d038e-8a62-435b-9ac6-bfd1505a2d4f"},"vehicle_type_id":"4","last_reported":1726402491,"current_range_meters":38800,"station_id":"ce4bhp92rcd13ifvqhbg","pricing_plan_id":"cebpf4jnsgd1na2vs0mg"},{"bike_id":"9d3d0e56-768e-4892-a48d-97d25cda04cf","system_id":"levelo_inurba_marseille","lat":43.315,"lon":5.37305,"is_reserved":false,"is_disabled":false,"rental_uris":{"android":"levelo://app?vid=9d3d0e56-768e-4892-a48d-97d25cda04cf","ios":"levelo://app?vid=9d3d0e56-768e-4892-a48d-97d25cda04cf"},"vehicle_type_id":"4","last_reported":1726402491,"current_range_meters":20800,"station_id":"ce4bgt12rcd13ifvqcd0","pricing_plan_id":"cebpf4jnsgd1na2vs0mg"},{"bike_id":"7f5df2c6-7e1e-42fe-b508-8ee82456fcff","system_id":"levelo_inurba_marseille","lat":43.31068,"lon":5.38353,"is_reserved":false,"is_disabled":false,"rental_uris":{"android":"levelo://app?vid=7f5df2c6-7e1e-42fe-b508-8ee82456fcff","ios":"levelo://app?vid=7f5df2c6-7e1e-42fe-b508-8ee82456fcff"},"vehicle_type_id":"4","last_reported":1726402491,"current_range_meters":32400,"station_id":"ce4bgv92rcd13ifvqcr0","pricing_plan_id":"cebpf4jnsgd1na2vs0mg"},{"bike_id":"d56cbbe5-b13f-48cb-8b7d-140885a7b197","system_id":"levelo_inurba_marseille","lat":43.3132,"lon":5.39698,"is_reserved":false,"is_disabled":false,"rental_uris":{"android":"levelo://app?vid=d56cbbe5-b13f-48cb-8b7d-140885a7b197","ios":"levelo://app?vid=d56cbbe5-b13f-48cb-8b7d-140885a7b197"},"vehicle_type_id":"4","last_reported":1726402491,"current_range_meters":18800,"station_id":"ce4bgvp2rcd13ifvqcu0","pricing_plan_id":"cebpf4jnsgd1na2vs0mg"},{"bike_id":"bb046787-1b6f-4a52-9f6c-67f38be48f9e","system_id":"levelo_inurba_marseille","lat":43.24542,"lon":5.39523,"is_reserved":false,"is_disabled":false,"rental_uris":{"android":"levelo://app?vid=bb046787-1b6f-4a52-9f6c-67f38be48f9e","ios":"levelo://app?vid=bb046787-1b6f-4a52-9f6c-67f38be48f9e"},"vehicle_type_id":"4","last_reported":1726402491,"current_range_meters":31200,"station_id":"ce4bhlp2rcd13ifvqgjg","pricing_plan_id":"cebpf4jnsgd1na2vs0mg"},{"bike_id":"70618e56-e6bb-4e9b-b2de-67c302a224c9","system_id":"levelo_inurba_marseille","lat":43.25501,"lon":5.37648,"is_reserved":false,"is_disabled":false,"rental_uris":{"android":"levelo://app?vid=70618e56-e6bb-4e9b-b2de-67c302a224c9","ios":"levelo://app?vid=70618e56-e6bb-4e9b-b2de-67c302a224c9"},"vehicle_type_id":"4","last_reported":1726402491,"current_range_meters":27200,"station_id":"ce4bhh12rcd13ifvqff0","pricing_plan_id":"cebpf4jnsgd1na2vs0mg"},{"bike_id":"ece1c1da-1c56-49d0-9e30-ae29ef104a57","system_id":"levelo_inurba_marseille","lat":43.3188,"lon":5.40734,"is_reserved":false,"is_disabled":false,"rental_uris":{"android":"levelo://app?vid=ece1c1da-1c56-49d0-9e30-ae29ef104a57","ios":"levelo://app?vid=ece1c1da-1c56-49d0-9e30-ae29ef104a57"},"vehicle_type_id":"4","last_reported":1726402491,"current_range_meters":8000,"station_id":"ce4bhq12rcd13ifvqhig","pricing_plan_id":"cebpf4jnsgd1na2vs0mg"},{"bike_id":"e040efde-f85a-42e1-b011-6999076e9e17","system_id":"levelo_inurba_marseille","lat":43.23174,"lon":5.39994,"is_reserved":false,"is_disabled":false,"rental_uris":{"android":"levelo://app?vid=e040efde-f85a-42e1-b011-6999076e9e17","ios":"levelo://app?vid=e040efde-f85a-42e1-b011-6999076e9e17"},"vehicle_type_id":"4","last_reported":1726402491,"current_range_meters":16000,"station_id":"ce4bhn12rcd13ifvqgqg","pricing_plan_id":"cebpf4jnsgd1na2vs0mg"},{"bike_id":"6bcc742b-48ce-4914-8d02-15bb6fc592ab","system_id":"levelo_inurba_marseille","lat":43.25576,"lon":5.38235,"is_reserved":false,"is_disabled":false,"rental_uris":{"android":"levelo://app?vid=6bcc742b-48ce-4914-8d02-15bb6fc592ab","ios":"levelo://app?vid=6bcc742b-48ce-4914-8d02-15bb6fc592ab"},"vehicle_type_id":"4","last_reported":1726402491,"current_range_meters":6800,"station_id":"ce4bhih2rcd13ifvqfs0","pricing_plan_id":"cebpf4jnsgd1na2vs0mg"},{"bike_id":"ccc81115-c769-40cb-a420-a414e3f0cc3b","system_id":"levelo_inurba_marseille","lat":43.24389,"lon":5.37061,"is_reserved":false,"is_disabled":false,"rental_uris":{"android":"levelo://app?vid=ccc81115-c769-40cb-a420-a414e3f0cc3b","ios":"levelo://app?vid=ccc81115-c769-40cb-a420-a414e3f0cc3b"},"vehicle_type_id":"4","last_reported":1726402491,"current_range_meters":37600,"station_id":"ce4bhhh2rcd13ifvqfk0","pricing_plan_id":"cebpf4jnsgd1na2vs0mg"},{"bike_id":"8c78136d-facd-47b2-a4b1-bfdd1a328c94","system_id":"levelo_inurba_marseille","lat":43.23157,"lon":5.43696,"is_reserved":false,"is_disabled":false,"rental_uris":{"android":"levelo://app?vid=8c78136d-facd-47b2-a4b1-bfdd1a328c94","ios":"levelo://app?vid=8c78136d-facd-47b2-a4b1-bfdd1a328c94"},"vehicle_type_id":"4","last_reported":1726402491,"current_range_meters":13600,"station_id":"ce4bhmp2rcd13ifvqgog","pricing_plan_id":"cebpf4jnsgd1na2vs0mg"},{"bike_id":"9a989ab9-ddf0-492e-bf4f-18a2ccc1505e","system_id":"levelo_inurba_marseille","lat":43.30305,"lon":5.39212,"is_reserved":false,"is_disabled":false,"rental_uris":{"android":"levelo://app?vid=9a989ab9-ddf0-492e-bf4f-18a2ccc1505e","ios":"levelo://app?vid=9a989ab9-ddf0-492e-bf4f-18a2ccc1505e"},"vehicle_type_id":"4","last_reported":1726402491,"current_range_meters":37600,"station_id":"ce4bgkh2rcd13ifvqbk0","pricing_plan_id":"cebpf4jnsgd1na2vs0mg"},{"bike_id":"0a692c33-2ede-4ca6-b044-3c8bef2017da","system_id":"levelo_inurba_marseille","lat":43.25505,"lon":5.3765,"is_reserved":false,"is_disabled":false,"rental_uris":{"android":"levelo://app?vid=0a692c33-2ede-4ca6-b044-3c8bef2017da","ios":"levelo://app?vid=0a692c33-2ede-4ca6-b044-3c8bef2017da"},"vehicle_type_id":"4","last_reported":1726402491,"current_range_meters":30400,"station_id":"ce4bhh12rcd13ifvqff0","pricing_plan_id":"cebpf4jnsgd1na2vs0mg"},{"bike_id":"316fb4f8-29fb-4075-8b89-916e4ce5c90e","system_id":"levelo_inurba_marseille","lat":43.25116,"lon":5.403188,"is_reserved":false,"is_disabled":false,"rental_uris":{"android":"levelo://app?vid=316fb4f8-29fb-4075-8b89-916e4ce5c90e","ios":"levelo://app?vid=316fb4f8-29fb-4075-8b89-916e4ce5c90e"},"vehicle_type_id":"4","last_reported":1726402491,"current_range_meters":20800,"station_id":"","pricing_plan_id":"cebpf4jnsgd1na2vs0mg"},{"bike_id":"4073836b-d78a-4e07-a2b2-1236ca93a703","system_id":"levelo_inurba_marseille","lat":43.28157,"lon":5.42642,"is_reserved":false,"is_disabled":false,"rental_uris":{"android":"levelo://app?vid=4073836b-d78a-4e07-a2b2-1236ca93a703","ios":"levelo://app?vid=4073836b-d78a-4e07-a2b2-1236ca93a703"},"vehicle_type_id":"4","last_reported":1726402491,"current_range_meters":14000,"station_id":"ce4bhnh2rcd13ifvqgug","pricing_plan_id":"cebpf4jnsgd1na2vs0mg"},{"bike_id":"ca2a7d1c-6d45-4393-a7fc-add972844d08","system_id":"levelo_inurba_marseille","lat":43.31368,"lon":5.40774,"is_reserved":false,"is_disabled":false,"rental_uris":{"android":"levelo://app?vid=ca2a7d1c-6d45-4393-a7fc-add972844d08","ios":"levelo://app?vid=ca2a7d1c-6d45-4393-a7fc-add972844d08"},"vehicle_type_id":"4","last_reported":1726402491,"current_range_meters":3600,"station_id":"","pricing_plan_id":"cebpf4jnsgd1na2vs0mg"},{"bike_id":"6d2f1fdf-ef85-4dbc-b421-2602e9d32ca8","system_id":"levelo_inurba_marseille","lat":43.25933,"lon":5.40913,"is_reserved":false,"is_disabled":false,"rental_uris":{"android":"levelo://app?vid=6d2f1fdf-ef85-4dbc-b421-2602e9d32ca8","ios":"levelo://app?vid=6d2f1fdf-ef85-4dbc-b421-2602e9d32ca8"},"vehicle_type_id":"4","last_reported":1726402491,"current_range_meters":20800,"station_id":"ce4bhm92rcd13ifvqglg","pricing_plan_id":"cebpf4jnsgd1na2vs0mg"},{"bike_id":"e61fbe41-521b-47d3-9cc7-323b0d80cc6b","system_id":"levelo_inurba_marseille","lat":43.29717,"lon":5.36614,"is_reserved":false,"is_disabled":false,"rental_uris":{"android":"levelo://app?vid=e61fbe41-521b-47d3-9cc7-323b0d80cc6b","ios":"levelo://app?vid=e61fbe41-521b-47d3-9cc7-323b0d80cc6b"},"vehicle_type_id":"4","last_reported":1726402491,"current_range_meters":23200,"station_id":"ce4bgn12rcd13ifvqbt0","pricing_plan_id":"cebpf4jnsgd1na2vs0mg"},{"bike_id":"d09aedb3-0212-456b-a0d7-0a019f75665d","system_id":"levelo_inurba_marseille","lat":43.23152,"lon":5.43708,"is_reserved":false,"is_disabled":false,"rental_uris":{"android":"levelo://app?vid=d09aedb3-0212-456b-a0d7-0a019f75665d","ios":"levelo://app?vid=d09aedb3-0212-456b-a0d7-0a019f75665d"},"vehicle_type_id":"4","last_reported":1726402491,"current_range_meters":38800,"station_id":"ce4bhmp2rcd13ifvqgog","pricing_plan_id":"cebpf4jnsgd1na2vs0mg"},{"bike_id":"2a29b635-860d-4fcf-b9ef-7b9429843b40","system_id":"levelo_inurba_marseille","lat":43.31723,"lon":5.42399,"is_reserved":false,"is_disabled":false,"rental_uris":{"android":"levelo://app?vid=2a29b635-860d-4fcf-b9ef-7b9429843b40","ios":"levelo://app?vid=2a29b635-860d-4fcf-b9ef-7b9429843b40"},"vehicle_type_id":"4","last_reported":1726402491,"current_range_meters":37600,"station_id":"ce4bhp92rcd13ifvqhbg","pricing_plan_id":"cebpf4jnsgd1na2vs0mg"},{"bike_id":"49e8a52b-e394-4fd9-bcd8-7f199113d0d7","system_id":"levelo_inurba_marseille","lat":43.27832,"lon":5.3921,"is_reserved":false,"is_disabled":false,"rental_uris":{"android":"levelo://app?vid=49e8a52b-e394-4fd9-bcd8-7f199113d0d7","ios":"levelo://app?vid=49e8a52b-e394-4fd9-bcd8-7f199113d0d7"},"vehicle_type_id":"4","last_reported":1726402491,"current_range_meters":9600,"station_id":"ce4bhjp2rcd13ifvqga0","pricing_plan_id":"cebpf4jnsgd1na2vs0mg"},{"bike_id":"5fb80b9c-4c90-47a0-bb0f-a0abc69b22ef","system_id":"levelo_inurba_marseille","lat":43.28929,"lon":5.36651,"is_reserved":false,"is_disabled":false,"rental_uris":{"android":"levelo://app?vid=5fb80b9c-4c90-47a0-bb0f-a0abc69b22ef","ios":"levelo://app?vid=5fb80b9c-4c90-47a0-bb0f-a0abc69b22ef"},"vehicle_type_id":"4","last_reported":1726402491,"current_range_meters":6800,"station_id":"ce4bhap2rcd13ifvqek0","pricing_plan_id":"cebpf4jnsgd1na2vs0mg"},{"bike_id":"43412657-8f93-44d7-90fb-da7639962547","system_id":"levelo_inurba_marseille","lat":43.33723,"lon":5.39176,"is_reserved":false,"is_disabled":false,"rental_uris":{"android":"levelo://app?vid=43412657-8f93-44d7-90fb-da7639962547","ios":"levelo://app?vid=43412657-8f93-44d7-90fb-da7639962547"},"vehicle_type_id":"4","last_reported":1726402491,"current_range_meters":22000,"station_id":"ce4bhr92rcd13ifvqhsg","pricing_plan_id":"cebpf4jnsgd1na2vs0mg"},{"bike_id":"a2a7dd1b-4d18-45d5-adf0-8780a47f4629","system_id":"levelo_inurba_marseille","lat":43.28155,"lon":5.42643,"is_reserved":false,"is_disabled":false,"rental_uris":{"android":"levelo://app?vid=a2a7dd1b-4d18-45d5-adf0-8780a47f4629","ios":"levelo://app?vid=a2a7dd1b-4d18-45d5-adf0-8780a47f4629"},"vehicle_type_id":"4","last_reported":1726402491,"current_range_meters":13600,"station_id":"ce4bhnh2rcd13ifvqgug","pricing_plan_id":"cebpf4jnsgd1na2vs0mg"},{"bike_id":"1ae32bd5-c749-4b92-8b1e-ed6b0223c669","system_id":"levelo_inurba_marseille","lat":43.28455,"lon":5.35882,"is_reserved":false,"is_disabled":false,"rental_uris":{"android":"levelo://app?vid=1ae32bd5-c749-4b92-8b1e-ed6b0223c669","ios":"levelo://app?vid=1ae32bd5-c749-4b92-8b1e-ed6b0223c669"},"vehicle_type_id":"4","last_reported":1726402491,"current_range_meters":28000,"station_id":"ce4bhah2rcd13ifvqei0","pricing_plan_id":"cebpf4jnsgd1na2vs0mg"},{"bike_id":"a2e61375-1bb5-46a9-a445-a74224f4bf8f","system_id":"levelo_inurba_marseille","lat":43.27924,"lon":5.3958,"is_reserved":false,"is_disabled":false,"rental_uris":{"android":"levelo://app?vid=a2e61375-1bb5-46a9-a445-a74224f4bf8f","ios":"levelo://app?vid=a2e61375-1bb5-46a9-a445-a74224f4bf8f"},"vehicle_type_id":"4","last_reported":1726402491,"current_range_meters":3200,"station_id":"ce4bhf92rcd13ifvqf40","pricing_plan_id":"cebpf4jnsgd1na2vs0mg"},{"bike_id":"03a621d2-a15f-406e-9fc4-e6490fe47bad","system_id":"levelo_inurba_marseille","lat":43.320374,"lon":5.415345,"is_reserved":false,"is_disabled":false,"rental_uris":{"android":"levelo://app?vid=03a621d2-a15f-406e-9fc4-e6490fe47bad","ios":"levelo://app?vid=03a621d2-a15f-406e-9fc4-e6490fe47bad"},"vehicle_type_id":"4","last_reported":1726402491,"current_range_meters":19200,"station_id":"ce4bhq92rcd13ifvqhkg","pricing_plan_id":"cebpf4jnsgd1na2vs0mg"},{"bike_id":"ff7f113d-329b-4f28-b5d1-8725d7930b37","system_id":"levelo_inurba_marseille","lat":43.31534,"lon":5.3803,"is_reserved":false,"is_disabled":false,"rental_uris":{"android":"levelo://app?vid=ff7f113d-329b-4f28-b5d1-8725d7930b37","ios":"levelo://app?vid=ff7f113d-329b-4f28-b5d1-8725d7930b37"},"vehicle_type_id":"4","last_reported":1726402491,"current_range_meters":11200,"station_id":"ce4bhsp2rcd13ifvqi50","pricing_plan_id":"cebpf4jnsgd1na2vs0mg"},{"bike_id":"61e00977-be43-400f-99ea-3c33330f7657","system_id":"levelo_inurba_marseille","lat":43.25007,"lon":5.38914,"is_reserved":false,"is_disabled":false,"rental_uris":{"android":"levelo://app?vid=61e00977-be43-400f-99ea-3c33330f7657","ios":"levelo://app?vid=61e00977-be43-400f-99ea-3c33330f7657"},"vehicle_type_id":"4","last_reported":1726402491,"current_range_meters":14000,"station_id":"ce4bhgp2rcd13ifvqfd0","pricing_plan_id":"cebpf4jnsgd1na2vs0mg"},{"bike_id":"d1f38fcd-be46-4877-a9ac-34b365272c30","system_id":"levelo_inurba_marseille","lat":43.27102,"lon":5.43322,"is_reserved":false,"is_disabled":false,"rental_uris":{"android":"levelo://app?vid=d1f38fcd-be46-4877-a9ac-34b365272c30","ios":"levelo://app?vid=d1f38fcd-be46-4877-a9ac-34b365272c30"},"vehicle_type_id":"4","last_reported":1726402491,"current_range_meters":15200,"station_id":"","pricing_plan_id":"cebpf4jnsgd1na2vs0mg"},{"bike_id":"ab7ce063-b08f-40cb-9cf7-3b8902b895bb","system_id":"levelo_inurba_marseille","lat":43.30956,"lon":5.39025,"is_reserved":false,"is_disabled":false,"rental_uris":{"android":"levelo://app?vid=ab7ce063-b08f-40cb-9cf7-3b8902b895bb","ios":"levelo://app?vid=ab7ce063-b08f-40cb-9cf7-3b8902b895bb"},"vehicle_type_id":"4","last_reported":1726402491,"current_range_meters":19200,"station_id":"ce4bgup2rcd13ifvqco0","pricing_plan_id":"cebpf4jnsgd1na2vs0mg"},{"bike_id":"2c36f173-7fe7-45a3-b0b4-69fddd6ecd2c","system_id":"levelo_inurba_marseille","lat":43.27614,"lon":5.36115,"is_reserved":false,"is_disabled":false,"rental_uris":{"android":"levelo://app?vid=2c36f173-7fe7-45a3-b0b4-69fddd6ecd2c","ios":"levelo://app?vid=2c36f173-7fe7-45a3-b0b4-69fddd6ecd2c"},"vehicle_type_id":"4","last_reported":1726402491,"current_range_meters":18800,"station_id":"ce4bgj92rcd13ifvqbe0","pricing_plan_id":"cebpf4jnsgd1na2vs0mg"},{"bike_id":"a62f319d-a0b3-4a8f-9809-24b9661da7c1","system_id":"levelo_inurba_marseille","lat":43.28422,"lon":5.34988,"is_reserved":false,"is_disabled":false,"rental_uris":{"android":"levelo://app?vid=a62f319d-a0b3-4a8f-9809-24b9661da7c1","ios":"levelo://app?vid=a62f319d-a0b3-4a8f-9809-24b9661da7c1"},"vehicle_type_id":"4","last_reported":1726402491,"current_range_meters":38800,"station_id":"ce4bhbh2rcd13ifvqepg","pricing_plan_id":"cebpf4jnsgd1na2vs0mg"},{"bike_id":"46492db6-e15b-4d8b-8244-fe4f6cfe1a7f","system_id":"levelo_inurba_marseille","lat":43.28417,"lon":5.34991,"is_reserved":false,"is_disabled":false,"rental_uris":{"android":"levelo://app?vid=46492db6-e15b-4d8b-8244-fe4f6cfe1a7f","ios":"levelo://app?vid=46492db6-e15b-4d8b-8244-fe4f6cfe1a7f"},"vehicle_type_id":"4","last_reported":1726402491,"current_range_meters":38800,"station_id":"ce4bhbh2rcd13ifvqepg","pricing_plan_id":"cebpf4jnsgd1na2vs0mg"},{"bike_id":"f9076aec-56e7-4b2e-a7b1-575337aca9d5","system_id":"levelo_inurba_marseille","lat":43.24168,"lon":5.36405,"is_reserved":false,"is_disabled":false,"rental_uris":{"android":"levelo://app?vid=f9076aec-56e7-4b2e-a7b1-575337aca9d5","ios":"levelo://app?vid=f9076aec-56e7-4b2e-a7b1-575337aca9d5"},"vehicle_type_id":"4","last_reported":1726402491,"current_range_meters":28000,"station_id":"cpo36qri1sfpv3e86is0","pricing_plan_id":"cebpf4jnsgd1na2vs0mg"},{"bike_id":"72f756e0-794a-4716-b239-a81141698ffc","system_id":"levelo_inurba_marseille","lat":43.22936,"lon":5.35379,"is_reserved":false,"is_disabled":false,"rental_uris":{"android":"levelo://app?vid=72f756e0-794a-4716-b239-a81141698ffc","ios":"levelo://app?vid=72f756e0-794a-4716-b239-a81141698ffc"},"vehicle_type_id":"4","last_reported":1726402491,"current_range_meters":29600,"station_id":"cpo3532slgdg3j2ikp40","pricing_plan_id":"cebpf4jnsgd1na2vs0mg"},{"bike_id":"a4f18687-e126-425b-b639-a942cceab9e8","system_id":"levelo_inurba_marseille","lat":43.24651,"lon":5.38903,"is_reserved":false,"is_disabled":false,"rental_uris":{"android":"levelo://app?vid=a4f18687-e126-425b-b639-a942cceab9e8","ios":"levelo://app?vid=a4f18687-e126-425b-b639-a942cceab9e8"},"vehicle_type_id":"4","last_reported":1726402491,"current_range_meters":26000,"station_id":"ce4bhg12rcd13ifvqf60","pricing_plan_id":"cebpf4jnsgd1na2vs0mg"},{"bike_id":"91f7e9e5-076e-4e3a-8acf-289dc20e3d9f","system_id":"levelo_inurba_marseille","lat":43.31721,"lon":5.4241,"is_reserved":false,"is_disabled":false,"rental_uris":{"android":"levelo://app?vid=91f7e9e5-076e-4e3a-8acf-289dc20e3d9f","ios":"levelo://app?vid=91f7e9e5-076e-4e3a-8acf-289dc20e3d9f"},"vehicle_type_id":"4","last_reported":1726402491,"current_range_meters":37600,"station_id":"ce4bhp92rcd13ifvqhbg","pricing_plan_id":"cebpf4jnsgd1na2vs0mg"},{"bike_id":"255a5389-055c-49e2-84ab-5340ea1e5539","system_id":"levelo_inurba_marseille","lat":43.25497,"lon":5.37649,"is_reserved":false,"is_disabled":false,"rental_uris":{"android":"levelo://app?vid=255a5389-055c-49e2-84ab-5340ea1e5539","ios":"levelo://app?vid=255a5389-055c-49e2-84ab-5340ea1e5539"},"vehicle_type_id":"4","last_reported":1726402491,"current_range_meters":32800,"station_id":"ce4bhh12rcd13ifvqff0","pricing_plan_id":"cebpf4jnsgd1na2vs0mg"},{"bike_id":"d4dcec5a-b0b6-4319-8584-aaf3103d153c","system_id":"levelo_inurba_marseille","lat":43.29562,"lon":5.42276,"is_reserved":false,"is_disabled":false,"rental_uris":{"android":"levelo://app?vid=d4dcec5a-b0b6-4319-8584-aaf3103d153c","ios":"levelo://app?vid=d4dcec5a-b0b6-4319-8584-aaf3103d153c"},"vehicle_type_id":"4","last_reported":1726402491,"current_range_meters":36000,"station_id":"ce4bhph2rcd13ifvqhdg","pricing_plan_id":"cebpf4jnsgd1na2vs0mg"},{"bike_id":"7560168d-c555-4b8e-a518-1c66771c1c72","system_id":"levelo_inurba_marseille","lat":43.24182,"lon":5.39728,"is_reserved":false,"is_disabled":false,"rental_uris":{"android":"levelo://app?vid=7560168d-c555-4b8e-a518-1c66771c1c72","ios":"levelo://app?vid=7560168d-c555-4b8e-a518-1c66771c1c72"},"vehicle_type_id":"4","last_reported":1726402491,"current_range_meters":9600,"station_id":"ce4bhn12rcd13ifvqgpg","pricing_plan_id":"cebpf4jnsgd1na2vs0mg"},{"bike_id":"bbe85231-7051-4426-b8e5-a81aa7bc3b22","system_id":"levelo_inurba_marseille","lat":43.31877,"lon":5.40736,"is_reserved":false,"is_disabled":false,"rental_uris":{"android":"levelo://app?vid=bbe85231-7051-4426-b8e5-a81aa7bc3b22","ios":"levelo://app?vid=bbe85231-7051-4426-b8e5-a81aa7bc3b22"},"vehicle_type_id":"4","last_reported":1726402491,"current_range_meters":24400,"station_id":"ce4bhq12rcd13ifvqhig","pricing_plan_id":"cebpf4jnsgd1na2vs0mg"},{"bike_id":"36612ab8-e475-4981-b0de-04a150aa48e8","system_id":"levelo_inurba_marseille","lat":43.29561,"lon":5.42279,"is_reserved":false,"is_disabled":false,"rental_uris":{"android":"levelo://app?vid=36612ab8-e475-4981-b0de-04a150aa48e8","ios":"levelo://app?vid=36612ab8-e475-4981-b0de-04a150aa48e8"},"vehicle_type_id":"4","last_reported":1726402491,"current_range_meters":9600,"station_id":"ce4bhph2rcd13ifvqhdg","pricing_plan_id":"cebpf4jnsgd1na2vs0mg"},{"bike_id":"9ea70376-2dc8-45dc-80b6-52167f4acb2a","system_id":"levelo_inurba_marseille","lat":43.30339,"lon":5.40439,"is_reserved":false,"is_disabled":false,"rental_uris":{"android":"levelo://app?vid=9ea70376-2dc8-45dc-80b6-52167f4acb2a","ios":"levelo://app?vid=9ea70376-2dc8-45dc-80b6-52167f4acb2a"},"vehicle_type_id":"4","last_reported":1726402491,"current_range_meters":33200,"station_id":"ce4bh012rcd13ifvqd10","pricing_plan_id":"cebpf4jnsgd1na2vs0mg"},{"bike_id":"5263c75a-b0ca-4e1c-9976-2df708ba914c","system_id":"levelo_inurba_marseille","lat":43.29556,"lon":5.42276,"is_reserved":false,"is_disabled":false,"rental_uris":{"android":"levelo://app?vid=5263c75a-b0ca-4e1c-9976-2df708ba914c","ios":"levelo://app?vid=5263c75a-b0ca-4e1c-9976-2df708ba914c"},"vehicle_type_id":"4","last_reported":1726402491,"current_range_meters":11600,"station_id":"ce4bhph2rcd13ifvqhdg","pricing_plan_id":"cebpf4jnsgd1na2vs0mg"},{"bike_id":"a15707df-0c8a-4652-bac6-f996920a8641","system_id":"levelo_inurba_marseille","lat":43.28711,"lon":5.39982,"is_reserved":false,"is_disabled":false,"rental_uris":{"android":"levelo://app?vid=a15707df-0c8a-4652-bac6-f996920a8641","ios":"levelo://app?vid=a15707df-0c8a-4652-bac6-f996920a8641"},"vehicle_type_id":"4","last_reported":1726402491,"current_range_meters":34800,"station_id":"ce4bho92rcd13ifvqh3g","pricing_plan_id":"cebpf4jnsgd1na2vs0mg"},{"bike_id":"56713ad6-421a-4675-becc-6486dc945a1e","system_id":"levelo_inurba_marseille","lat":43.24072,"lon":5.3776,"is_reserved":false,"is_disabled":false,"rental_uris":{"android":"levelo://app?vid=56713ad6-421a-4675-becc-6486dc945a1e","ios":"levelo://app?vid=56713ad6-421a-4675-becc-6486dc945a1e"},"vehicle_type_id":"4","last_reported":1726402491,"current_range_meters":36000,"station_id":"ce4bhnp2rcd13ifvqgvg","pricing_plan_id":"cebpf4jnsgd1na2vs0mg"},{"bike_id":"09fe7126-1b51-4220-8cc4-49996158106b","system_id":"levelo_inurba_marseille","lat":43.27071,"lon":5.42279,"is_reserved":false,"is_disabled":false,"rental_uris":{"android":"levelo://app?vid=09fe7126-1b51-4220-8cc4-49996158106b","ios":"levelo://app?vid=09fe7126-1b51-4220-8cc4-49996158106b"},"vehicle_type_id":"4","last_reported":1726402491,"current_range_meters":32400,"station_id":"ce4bhk92rcd13ifvqgb0","pricing_plan_id":"cebpf4jnsgd1na2vs0mg"},{"bike_id":"db168c1b-0278-4b23-8c07-adefd998740b","system_id":"levelo_inurba_marseille","lat":43.27565,"lon":5.38435,"is_reserved":false,"is_disabled":false,"rental_uris":{"android":"levelo://app?vid=db168c1b-0278-4b23-8c07-adefd998740b","ios":"levelo://app?vid=db168c1b-0278-4b23-8c07-adefd998740b"},"vehicle_type_id":"4","last_reported":1726402491,"current_range_meters":30400,"station_id":"ce4bhh92rcd13ifvqfi0","pricing_plan_id":"cebpf4jnsgd1na2vs0mg"},{"bike_id":"f1f27f13-3a81-45e4-a950-b4e90aab67df","system_id":"levelo_inurba_marseille","lat":43.23148,"lon":5.43708,"is_reserved":false,"is_disabled":false,"rental_uris":{"android":"levelo://app?vid=f1f27f13-3a81-45e4-a950-b4e90aab67df","ios":"levelo://app?vid=f1f27f13-3a81-45e4-a950-b4e90aab67df"},"vehicle_type_id":"4","last_reported":1726402491,"current_range_meters":25600,"station_id":"ce4bhmp2rcd13ifvqgog","pricing_plan_id":"cebpf4jnsgd1na2vs0mg"},{"bike_id":"93678763-4333-4af4-a349-b34d9f12786d","system_id":"levelo_inurba_marseille","lat":43.2293,"lon":5.35376,"is_reserved":false,"is_disabled":false,"rental_uris":{"android":"levelo://app?vid=93678763-4333-4af4-a349-b34d9f12786d","ios":"levelo://app?vid=93678763-4333-4af4-a349-b34d9f12786d"},"vehicle_type_id":"4","last_reported":1726402491,"current_range_meters":32000,"station_id":"cpo3532slgdg3j2ikp40","pricing_plan_id":"cebpf4jnsgd1na2vs0mg"},{"bike_id":"1be4bcad-bdf2-46c2-8c7e-d9c3888fe276","system_id":"levelo_inurba_marseille","lat":43.32346,"lon":5.40615,"is_reserved":false,"is_disabled":false,"rental_uris":{"android":"levelo://app?vid=1be4bcad-bdf2-46c2-8c7e-d9c3888fe276","ios":"levelo://app?vid=1be4bcad-bdf2-46c2-8c7e-d9c3888fe276"},"vehicle_type_id":"4","last_reported":1726402491,"current_range_meters":30000,"station_id":"ce4bhq92rcd13ifvqhjg","pricing_plan_id":"cebpf4jnsgd1na2vs0mg"},{"bike_id":"ad6f2a99-5e7d-421c-91df-6e2b2cbbd548","system_id":"levelo_inurba_marseille","lat":43.29558,"lon":5.42276,"is_reserved":false,"is_disabled":false,"rental_uris":{"android":"levelo://app?vid=ad6f2a99-5e7d-421c-91df-6e2b2cbbd548","ios":"levelo://app?vid=ad6f2a99-5e7d-421c-91df-6e2b2cbbd548"},"vehicle_type_id":"4","last_reported":1726402491,"current_range_meters":27200,"station_id":"ce4bhph2rcd13ifvqhdg","pricing_plan_id":"cebpf4jnsgd1na2vs0mg"},{"bike_id":"50c7d7fa-8f71-4a80-8c0d-ac642c4e2618","system_id":"levelo_inurba_marseille","lat":43.30531,"lon":5.36704,"is_reserved":false,"is_disabled":false,"rental_uris":{"android":"levelo://app?vid=50c7d7fa-8f71-4a80-8c0d-ac642c4e2618","ios":"levelo://app?vid=50c7d7fa-8f71-4a80-8c0d-ac642c4e2618"},"vehicle_type_id":"4","last_reported":1726402491,"current_range_meters":20800,"station_id":"ce4bgrp2rcd13ifvqc9g","pricing_plan_id":"cebpf4jnsgd1na2vs0mg"},{"bike_id":"93fef659-94f2-479c-96db-349ee58237d2","system_id":"levelo_inurba_marseille","lat":43.27811,"lon":5.40712,"is_reserved":false,"is_disabled":false,"rental_uris":{"android":"levelo://app?vid=93fef659-94f2-479c-96db-349ee58237d2","ios":"levelo://app?vid=93fef659-94f2-479c-96db-349ee58237d2"},"vehicle_type_id":"4","last_reported":1726402491,"current_range_meters":25200,"station_id":"ce4bhnh2rcd13ifvqgtg","pricing_plan_id":"cebpf4jnsgd1na2vs0mg"},{"bike_id":"cd6a8b25-7579-4518-8405-4dfcfc49b7a1","system_id":"levelo_inurba_marseille","lat":43.31707,"lon":5.37744,"is_reserved":false,"is_disabled":false,"rental_uris":{"android":"levelo://app?vid=cd6a8b25-7579-4518-8405-4dfcfc49b7a1","ios":"levelo://app?vid=cd6a8b25-7579-4518-8405-4dfcfc49b7a1"},"vehicle_type_id":"4","last_reported":1726402491,"current_range_meters":28000,"station_id":"ce4bgth2rcd13ifvqch0","pricing_plan_id":"cebpf4jnsgd1na2vs0mg"},{"bike_id":"b0b831b6-dfd9-4e0a-9847-113465141083","system_id":"levelo_inurba_marseille","lat":43.23158,"lon":5.4372,"is_reserved":false,"is_disabled":false,"rental_uris":{"android":"levelo://app?vid=b0b831b6-dfd9-4e0a-9847-113465141083","ios":"levelo://app?vid=b0b831b6-dfd9-4e0a-9847-113465141083"},"vehicle_type_id":"4","last_reported":1726402491,"current_range_meters":28000,"station_id":"ce4bhmp2rcd13ifvqgog","pricing_plan_id":"cebpf4jnsgd1na2vs0mg"},{"bike_id":"aadc69e3-f4ce-4b79-9b72-c8e869ba5afa","system_id":"levelo_inurba_marseille","lat":43.271957,"lon":5.391862,"is_reserved":false,"is_disabled":false,"rental_uris":{"android":"levelo://app?vid=aadc69e3-f4ce-4b79-9b72-c8e869ba5afa","ios":"levelo://app?vid=aadc69e3-f4ce-4b79-9b72-c8e869ba5afa"},"vehicle_type_id":"4","last_reported":1726402491,"current_range_meters":32000,"station_id":"ce4bhhp2rcd13ifvqfm0","pricing_plan_id":"cebpf4jnsgd1na2vs0mg"},{"bike_id":"4db921f2-bc23-49f4-8a24-f619c1eace61","system_id":"levelo_inurba_marseille","lat":43.23201,"lon":5.35552,"is_reserved":false,"is_disabled":false,"rental_uris":{"android":"levelo://app?vid=4db921f2-bc23-49f4-8a24-f619c1eace61","ios":"levelo://app?vid=4db921f2-bc23-49f4-8a24-f619c1eace61"},"vehicle_type_id":"4","last_reported":1726402491,"current_range_meters":23200,"station_id":"ce4bhu92rcd13ifvqi70","pricing_plan_id":"cebpf4jnsgd1na2vs0mg"},{"bike_id":"a498bcb3-7267-4e14-aa0b-ebf679a4f341","system_id":"levelo_inurba_marseille","lat":43.33025,"lon":5.39044,"is_reserved":false,"is_disabled":false,"rental_uris":{"android":"levelo://app?vid=a498bcb3-7267-4e14-aa0b-ebf679a4f341","ios":"levelo://app?vid=a498bcb3-7267-4e14-aa0b-ebf679a4f341"},"vehicle_type_id":"4","last_reported":1726402491,"current_range_meters":20000,"station_id":"ce4bhr92rcd13ifvqhrg","pricing_plan_id":"cebpf4jnsgd1na2vs0mg"},{"bike_id":"c0474bae-bf19-448c-80d3-763792c1df75","system_id":"levelo_inurba_marseille","lat":43.245904,"lon":5.394723,"is_reserved":false,"is_disabled":false,"rental_uris":{"android":"levelo://app?vid=c0474bae-bf19-448c-80d3-763792c1df75","ios":"levelo://app?vid=c0474bae-bf19-448c-80d3-763792c1df75"},"vehicle_type_id":"4","last_reported":1726402491,"current_range_meters":38000,"station_id":"ce4bhlp2rcd13ifvqgjg","pricing_plan_id":"cebpf4jnsgd1na2vs0mg"},{"bike_id":"1e157798-eec5-4286-9da7-a2099f677a50","system_id":"levelo_inurba_marseille","lat":43.29552,"lon":5.42284,"is_reserved":false,"is_disabled":false,"rental_uris":{"android":"levelo://app?vid=1e157798-eec5-4286-9da7-a2099f677a50","ios":"levelo://app?vid=1e157798-eec5-4286-9da7-a2099f677a50"},"vehicle_type_id":"4","last_reported":1726402491,"current_range_meters":16800,"station_id":"ce4bhph2rcd13ifvqhdg","pricing_plan_id":"cebpf4jnsgd1na2vs0mg"},{"bike_id":"328d45f9-980e-4811-97c0-47d761861509","system_id":"levelo_inurba_marseille","lat":43.29847,"lon":5.37836,"is_reserved":false,"is_disabled":false,"rental_uris":{"android":"levelo://app?vid=328d45f9-980e-4811-97c0-47d761861509","ios":"levelo://app?vid=328d45f9-980e-4811-97c0-47d761861509"},"vehicle_type_id":"4","last_reported":1726402491,"current_range_meters":28000,"station_id":"ce4bgkh2rcd13ifvqbl0","pricing_plan_id":"cebpf4jnsgd1na2vs0mg"},{"bike_id":"3b51f764-c75e-47b9-9ce2-0fdae7022f59","system_id":"levelo_inurba_marseille","lat":43.24824,"lon":5.39216,"is_reserved":false,"is_disabled":false,"rental_uris":{"android":"levelo://app?vid=3b51f764-c75e-47b9-9ce2-0fdae7022f59","ios":"levelo://app?vid=3b51f764-c75e-47b9-9ce2-0fdae7022f59"},"vehicle_type_id":"4","last_reported":1726402491,"current_range_meters":4000,"station_id":"","pricing_plan_id":"cebpf4jnsgd1na2vs0mg"},{"bike_id":"9d9687ff-53d9-4c00-9964-668bd2f2d7ab","system_id":"levelo_inurba_marseille","lat":43.28033,"lon":5.36945,"is_reserved":false,"is_disabled":false,"rental_uris":{"android":"levelo://app?vid=9d9687ff-53d9-4c00-9964-668bd2f2d7ab","ios":"levelo://app?vid=9d9687ff-53d9-4c00-9964-668bd2f2d7ab"},"vehicle_type_id":"4","last_reported":1726402491,"current_range_meters":3600,"station_id":"ce4bha12rcd13ifvqef0","pricing_plan_id":"cebpf4jnsgd1na2vs0mg"},{"bike_id":"faf816e6-4e87-4e93-88d4-5861eae33b5c","system_id":"levelo_inurba_marseille","lat":43.24078,"lon":5.3775,"is_reserved":false,"is_disabled":false,"rental_uris":{"android":"levelo://app?vid=faf816e6-4e87-4e93-88d4-5861eae33b5c","ios":"levelo://app?vid=faf816e6-4e87-4e93-88d4-5861eae33b5c"},"vehicle_type_id":"4","last_reported":1726402491,"current_range_meters":26000,"station_id":"ce4bhnp2rcd13ifvqgvg","pricing_plan_id":"cebpf4jnsgd1na2vs0mg"},{"bike_id":"9b622166-609b-42e3-a193-9f9652982890","system_id":"levelo_inurba_marseille","lat":43.31715,"lon":5.43707,"is_reserved":false,"is_disabled":false,"rental_uris":{"android":"levelo://app?vid=9b622166-609b-42e3-a193-9f9652982890","ios":"levelo://app?vid=9b622166-609b-42e3-a193-9f9652982890"},"vehicle_type_id":"4","last_reported":1726402491,"current_range_meters":37600,"station_id":"ce4bhp92rcd13ifvqhcg","pricing_plan_id":"cebpf4jnsgd1na2vs0mg"},{"bike_id":"47796c26-123b-4bbd-a7cd-e828bc0c960d","system_id":"levelo_inurba_marseille","lat":43.28612,"lon":5.35108,"is_reserved":false,"is_disabled":false,"rental_uris":{"android":"levelo://app?vid=47796c26-123b-4bbd-a7cd-e828bc0c960d","ios":"levelo://app?vid=47796c26-123b-4bbd-a7cd-e828bc0c960d"},"vehicle_type_id":"4","last_reported":1726402491,"current_range_meters":16000,"station_id":"ce4bhch2rcd13ifvqeug","pricing_plan_id":"cebpf4jnsgd1na2vs0mg"},{"bike_id":"7e512072-6c2f-4e40-a9d3-1a66b836f80e","system_id":"levelo_inurba_marseille","lat":43.282719,"lon":5.35065,"is_reserved":false,"is_disabled":false,"rental_uris":{"android":"levelo://app?vid=7e512072-6c2f-4e40-a9d3-1a66b836f80e","ios":"levelo://app?vid=7e512072-6c2f-4e40-a9d3-1a66b836f80e"},"vehicle_type_id":"4","last_reported":1726402491,"current_range_meters":12800,"station_id":"ce4bhbp2rcd13ifvqerg","pricing_plan_id":"cebpf4jnsgd1na2vs0mg"},{"bike_id":"2a3b9a03-ec63-4beb-b186-aa50dc939384","system_id":"levelo_inurba_marseille","lat":43.27177,"lon":5.40989,"is_reserved":false,"is_disabled":false,"rental_uris":{"android":"levelo://app?vid=2a3b9a03-ec63-4beb-b186-aa50dc939384","ios":"levelo://app?vid=2a3b9a03-ec63-4beb-b186-aa50dc939384"},"vehicle_type_id":"4","last_reported":1726402491,"current_range_meters":31200,"station_id":"ce4bhl12rcd13ifvqgf0","pricing_plan_id":"cebpf4jnsgd1na2vs0mg"},{"bike_id":"e687461b-66f9-48d1-b9b0-ea75a11fe4d4","system_id":"levelo_inurba_marseille","lat":43.24811,"lon":5.37454,"is_reserved":false,"is_disabled":false,"rental_uris":{"android":"levelo://app?vid=e687461b-66f9-48d1-b9b0-ea75a11fe4d4","ios":"levelo://app?vid=e687461b-66f9-48d1-b9b0-ea75a11fe4d4"},"vehicle_type_id":"4","last_reported":1726402491,"current_range_meters":8400,"station_id":"ce4bhgh2rcd13ifvqfb0","pricing_plan_id":"cebpf4jnsgd1na2vs0mg"},{"bike_id":"fc76a35a-a564-4eb5-8688-a9c3d5237512","system_id":"levelo_inurba_marseille","lat":43.31751,"lon":5.39034,"is_reserved":false,"is_disabled":false,"rental_uris":{"android":"levelo://app?vid=fc76a35a-a564-4eb5-8688-a9c3d5237512","ios":"levelo://app?vid=fc76a35a-a564-4eb5-8688-a9c3d5237512"},"vehicle_type_id":"4","last_reported":1726402491,"current_range_meters":36400,"station_id":"ce4bhqp2rcd13ifvqhng","pricing_plan_id":"cebpf4jnsgd1na2vs0mg"},{"bike_id":"8b608b96-fedf-4511-8d4b-09bad2606e1a","system_id":"levelo_inurba_marseille","lat":43.27734,"lon":5.41129,"is_reserved":false,"is_disabled":false,"rental_uris":{"android":"levelo://app?vid=8b608b96-fedf-4511-8d4b-09bad2606e1a","ios":"levelo://app?vid=8b608b96-fedf-4511-8d4b-09bad2606e1a"},"vehicle_type_id":"4","last_reported":1726402491,"current_range_meters":22000,"station_id":"","pricing_plan_id":"cebpf4jnsgd1na2vs0mg"},{"bike_id":"9a9eb11d-e006-4f34-a88d-6ea736772765","system_id":"levelo_inurba_marseille","lat":43.30353,"lon":5.41874,"is_reserved":false,"is_disabled":false,"rental_uris":{"android":"levelo://app?vid=9a9eb11d-e006-4f34-a88d-6ea736772765","ios":"levelo://app?vid=9a9eb11d-e006-4f34-a88d-6ea736772765"},"vehicle_type_id":"4","last_reported":1726402491,"current_range_meters":39200,"station_id":"ce4bhop2rcd13ifvqh7g","pricing_plan_id":"cebpf4jnsgd1na2vs0mg"},{"bike_id":"6f1c5594-1d3a-4b17-b321-633f38b3a93b","system_id":"levelo_inurba_marseille","lat":43.29067,"lon":5.37175,"is_reserved":false,"is_disabled":false,"rental_uris":{"android":"levelo://app?vid=6f1c5594-1d3a-4b17-b321-633f38b3a93b","ios":"levelo://app?vid=6f1c5594-1d3a-4b17-b321-633f38b3a93b"},"vehicle_type_id":"4","last_reported":1726402491,"current_range_meters":33600,"station_id":"ce4bh5p2rcd13ifvqe4g","pricing_plan_id":"cebpf4jnsgd1na2vs0mg"},{"bike_id":"d6149948-cc69-48c8-b75f-51b423ee5546","system_id":"levelo_inurba_marseille","lat":43.31168,"lon":5.39353,"is_reserved":false,"is_disabled":false,"rental_uris":{"android":"levelo://app?vid=d6149948-cc69-48c8-b75f-51b423ee5546","ios":"levelo://app?vid=d6149948-cc69-48c8-b75f-51b423ee5546"},"vehicle_type_id":"4","last_reported":1726402491,"current_range_meters":27600,"station_id":"","pricing_plan_id":"cebpf4jnsgd1na2vs0mg"},{"bike_id":"fa2b0a9f-66ad-4cd1-b7bb-93b9cffdc904","system_id":"levelo_inurba_marseille","lat":43.25931,"lon":5.40906,"is_reserved":false,"is_disabled":false,"rental_uris":{"android":"levelo://app?vid=fa2b0a9f-66ad-4cd1-b7bb-93b9cffdc904","ios":"levelo://app?vid=fa2b0a9f-66ad-4cd1-b7bb-93b9cffdc904"},"vehicle_type_id":"4","last_reported":1726402491,"current_range_meters":32800,"station_id":"ce4bhm92rcd13ifvqglg","pricing_plan_id":"cebpf4jnsgd1na2vs0mg"},{"bike_id":"6755156f-5028-4d53-8f64-3b66d3ac1353","system_id":"levelo_inurba_marseille","lat":43.25728,"lon":5.411,"is_reserved":false,"is_disabled":false,"rental_uris":{"android":"levelo://app?vid=6755156f-5028-4d53-8f64-3b66d3ac1353","ios":"levelo://app?vid=6755156f-5028-4d53-8f64-3b66d3ac1353"},"vehicle_type_id":"4","last_reported":1726402491,"current_range_meters":38000,"station_id":"ce4bhkp2rcd13ifvqgd0","pricing_plan_id":"cebpf4jnsgd1na2vs0mg"},{"bike_id":"39861af5-5cbd-45ed-9324-845157baab13","system_id":"levelo_inurba_marseille","lat":43.27074,"lon":5.42277,"is_reserved":false,"is_disabled":false,"rental_uris":{"android":"levelo://app?vid=39861af5-5cbd-45ed-9324-845157baab13","ios":"levelo://app?vid=39861af5-5cbd-45ed-9324-845157baab13"},"vehicle_type_id":"4","last_reported":1726402491,"current_range_meters":28000,"station_id":"ce4bhk92rcd13ifvqgb0","pricing_plan_id":"cebpf4jnsgd1na2vs0mg"},{"bike_id":"d2ca61ed-07b0-4f91-990e-b98a38e76d1b","system_id":"levelo_inurba_marseille","lat":43.24073,"lon":5.37759,"is_reserved":false,"is_disabled":false,"rental_uris":{"android":"levelo://app?vid=d2ca61ed-07b0-4f91-990e-b98a38e76d1b","ios":"levelo://app?vid=d2ca61ed-07b0-4f91-990e-b98a38e76d1b"},"vehicle_type_id":"4","last_reported":1726402491,"current_range_meters":12400,"station_id":"ce4bhnp2rcd13ifvqgvg","pricing_plan_id":"cebpf4jnsgd1na2vs0mg"},{"bike_id":"069f401e-6b7d-4857-aa5b-2fc9cc8c4b17","system_id":"levelo_inurba_marseille","lat":43.23156,"lon":5.43709,"is_reserved":false,"is_disabled":false,"rental_uris":{"android":"levelo://app?vid=069f401e-6b7d-4857-aa5b-2fc9cc8c4b17","ios":"levelo://app?vid=069f401e-6b7d-4857-aa5b-2fc9cc8c4b17"},"vehicle_type_id":"4","last_reported":1726402491,"current_range_meters":16800,"station_id":"ce4bhmp2rcd13ifvqgog","pricing_plan_id":"cebpf4jnsgd1na2vs0mg"},{"bike_id":"be3580cc-5597-48ff-bbfe-6a25fd4800e2","system_id":"levelo_inurba_marseille","lat":43.31725,"lon":5.42401,"is_reserved":false,"is_disabled":false,"rental_uris":{"android":"levelo://app?vid=be3580cc-5597-48ff-bbfe-6a25fd4800e2","ios":"levelo://app?vid=be3580cc-5597-48ff-bbfe-6a25fd4800e2"},"vehicle_type_id":"4","last_reported":1726402491,"current_range_meters":38800,"station_id":"ce4bhp92rcd13ifvqhbg","pricing_plan_id":"cebpf4jnsgd1na2vs0mg"},{"bike_id":"c79e483e-6c74-49ab-93da-a718c1a223f1","system_id":"levelo_inurba_marseille","lat":43.24081,"lon":5.3775,"is_reserved":false,"is_disabled":false,"rental_uris":{"android":"levelo://app?vid=c79e483e-6c74-49ab-93da-a718c1a223f1","ios":"levelo://app?vid=c79e483e-6c74-49ab-93da-a718c1a223f1"},"vehicle_type_id":"4","last_reported":1726402491,"current_range_meters":11600,"station_id":"ce4bhnp2rcd13ifvqgvg","pricing_plan_id":"cebpf4jnsgd1na2vs0mg"},{"bike_id":"03dd0fcd-c413-43d9-9706-698be86ebf1a","system_id":"levelo_inurba_marseille","lat":43.23967,"lon":5.36635,"is_reserved":false,"is_disabled":false,"rental_uris":{"android":"levelo://app?vid=03dd0fcd-c413-43d9-9706-698be86ebf1a","ios":"levelo://app?vid=03dd0fcd-c413-43d9-9706-698be86ebf1a"},"vehicle_type_id":"4","last_reported":1726402491,"current_range_meters":14800,"station_id":"ce4bhi12rcd13ifvqfp0","pricing_plan_id":"cebpf4jnsgd1na2vs0mg"},{"bike_id":"ab75f336-47ea-4e49-a80c-bb3fd984b8d6","system_id":"levelo_inurba_marseille","lat":43.33025,"lon":5.39047,"is_reserved":false,"is_disabled":false,"rental_uris":{"android":"levelo://app?vid=ab75f336-47ea-4e49-a80c-bb3fd984b8d6","ios":"levelo://app?vid=ab75f336-47ea-4e49-a80c-bb3fd984b8d6"},"vehicle_type_id":"4","last_reported":1726402491,"current_range_meters":38400,"station_id":"ce4bhr92rcd13ifvqhrg","pricing_plan_id":"cebpf4jnsgd1na2vs0mg"},{"bike_id":"50560d73-e286-49a5-b257-3e11fc0ff3ba","system_id":"levelo_inurba_marseille","lat":43.29163,"lon":5.37157,"is_reserved":false,"is_disabled":false,"rental_uris":{"android":"levelo://app?vid=50560d73-e286-49a5-b257-3e11fc0ff3ba","ios":"levelo://app?vid=50560d73-e286-49a5-b257-3e11fc0ff3ba"},"vehicle_type_id":"4","last_reported":1726402491,"current_range_meters":34800,"station_id":"ce4bha92rcd13ifvqeh0","pricing_plan_id":"cebpf4jnsgd1na2vs0mg"},{"bike_id":"fa003e32-dbf7-46dc-96a2-8b9eedb7ba44","system_id":"levelo_inurba_marseille","lat":43.27071,"lon":5.42277,"is_reserved":false,"is_disabled":false,"rental_uris":{"android":"levelo://app?vid=fa003e32-dbf7-46dc-96a2-8b9eedb7ba44","ios":"levelo://app?vid=fa003e32-dbf7-46dc-96a2-8b9eedb7ba44"},"vehicle_type_id":"4","last_reported":1726402491,"current_range_meters":30800,"station_id":"ce4bhk92rcd13ifvqgb0","pricing_plan_id":"cebpf4jnsgd1na2vs0mg"},{"bike_id":"f1e8ceee-9573-4b77-ab79-482d0d3b70cc","system_id":"levelo_inurba_marseille","lat":43.24171,"lon":5.36402,"is_reserved":false,"is_disabled":false,"rental_uris":{"android":"levelo://app?vid=f1e8ceee-9573-4b77-ab79-482d0d3b70cc","ios":"levelo://app?vid=f1e8ceee-9573-4b77-ab79-482d0d3b70cc"},"vehicle_type_id":"4","last_reported":1726402491,"current_range_meters":36000,"station_id":"cpo36qri1sfpv3e86is0","pricing_plan_id":"cebpf4jnsgd1na2vs0mg"},{"bike_id":"9b23122f-567a-4336-9277-ecf80e15c1f2","system_id":"levelo_inurba_marseille","lat":43.25124,"lon":5.40313,"is_reserved":false,"is_disabled":false,"rental_uris":{"android":"levelo://app?vid=9b23122f-567a-4336-9277-ecf80e15c1f2","ios":"levelo://app?vid=9b23122f-567a-4336-9277-ecf80e15c1f2"},"vehicle_type_id":"4","last_reported":1726402491,"current_range_meters":36800,"station_id":"ce4bhlh2rcd13ifvqgig","pricing_plan_id":"cebpf4jnsgd1na2vs0mg"},{"bike_id":"d92d285d-5fd3-4a41-8ad3-d9bd7a9b8bdd","system_id":"levelo_inurba_marseille","lat":43.29968,"lon":5.37175,"is_reserved":false,"is_disabled":false,"rental_uris":{"android":"levelo://app?vid=d92d285d-5fd3-4a41-8ad3-d9bd7a9b8bdd","ios":"levelo://app?vid=d92d285d-5fd3-4a41-8ad3-d9bd7a9b8bdd"},"vehicle_type_id":"4","last_reported":1726402491,"current_range_meters":8800,"station_id":"ce4bgr92rcd13ifvqc7g","pricing_plan_id":"cebpf4jnsgd1na2vs0mg"},{"bike_id":"4645c155-2220-484e-8b92-6295151c588c","system_id":"levelo_inurba_marseille","lat":43.292565,"lon":5.408964,"is_reserved":false,"is_disabled":false,"rental_uris":{"android":"levelo://app?vid=4645c155-2220-484e-8b92-6295151c588c","ios":"levelo://app?vid=4645c155-2220-484e-8b92-6295151c588c"},"vehicle_type_id":"4","last_reported":1726402491,"current_range_meters":38800,"station_id":"ce4bh192rcd13ifvqdc0","pricing_plan_id":"cebpf4jnsgd1na2vs0mg"},{"bike_id":"2408ff6b-c924-4f58-8800-fa0c5191ba7e","system_id":"levelo_inurba_marseille","lat":43.29938,"lon":5.36553,"is_reserved":false,"is_disabled":false,"rental_uris":{"android":"levelo://app?vid=2408ff6b-c924-4f58-8800-fa0c5191ba7e","ios":"levelo://app?vid=2408ff6b-c924-4f58-8800-fa0c5191ba7e"},"vehicle_type_id":"4","last_reported":1726402491,"current_range_meters":4800,"station_id":"ce4bgm92rcd13ifvqbr0","pricing_plan_id":"cebpf4jnsgd1na2vs0mg"},{"bike_id":"1484fcd3-6882-4bc9-b7b3-2f2ff06801eb","system_id":"levelo_inurba_marseille","lat":43.230682,"lon":5.354876,"is_reserved":false,"is_disabled":false,"rental_uris":{"android":"levelo://app?vid=1484fcd3-6882-4bc9-b7b3-2f2ff06801eb","ios":"levelo://app?vid=1484fcd3-6882-4bc9-b7b3-2f2ff06801eb"},"vehicle_type_id":"4","last_reported":1726402491,"current_range_meters":12000,"station_id":"cpo3342slgdg3j2ifvpg","pricing_plan_id":"cebpf4jnsgd1na2vs0mg"},{"bike_id":"42697fbd-f736-4094-a7ac-5c78a5478024","system_id":"levelo_inurba_marseille","lat":43.23058,"lon":5.35489,"is_reserved":false,"is_disabled":false,"rental_uris":{"android":"levelo://app?vid=42697fbd-f736-4094-a7ac-5c78a5478024","ios":"levelo://app?vid=42697fbd-f736-4094-a7ac-5c78a5478024"},"vehicle_type_id":"4","last_reported":1726402491,"current_range_meters":30800,"station_id":"cpo3342slgdg3j2ifvpg","pricing_plan_id":"cebpf4jnsgd1na2vs0mg"},{"bike_id":"ed242036-4f6c-4647-a30e-37c79cfc2034","system_id":"levelo_inurba_marseille","lat":43.24178,"lon":5.39728,"is_reserved":false,"is_disabled":false,"rental_uris":{"android":"levelo://app?vid=ed242036-4f6c-4647-a30e-37c79cfc2034","ios":"levelo://app?vid=ed242036-4f6c-4647-a30e-37c79cfc2034"},"vehicle_type_id":"4","last_reported":1726402491,"current_range_meters":3600,"station_id":"ce4bhn12rcd13ifvqgpg","pricing_plan_id":"cebpf4jnsgd1na2vs0mg"},{"bike_id":"d9b6a4ab-cc21-4f3a-b9fb-e76e8bfef99d","system_id":"levelo_inurba_marseille","lat":43.28421,"lon":5.34986,"is_reserved":false,"is_disabled":false,"rental_uris":{"android":"levelo://app?vid=d9b6a4ab-cc21-4f3a-b9fb-e76e8bfef99d","ios":"levelo://app?vid=d9b6a4ab-cc21-4f3a-b9fb-e76e8bfef99d"},"vehicle_type_id":"4","last_reported":1726402491,"current_range_meters":19200,"station_id":"ce4bhbh2rcd13ifvqepg","pricing_plan_id":"cebpf4jnsgd1na2vs0mg"},{"bike_id":"f61b11bb-a1bf-4657-a7e8-d93aba2ccdf1","system_id":"levelo_inurba_marseille","lat":43.296,"lon":5.38107,"is_reserved":false,"is_disabled":false,"rental_uris":{"android":"levelo://app?vid=f61b11bb-a1bf-4657-a7e8-d93aba2ccdf1","ios":"levelo://app?vid=f61b11bb-a1bf-4657-a7e8-d93aba2ccdf1"},"vehicle_type_id":"4","last_reported":1726402491,"current_range_meters":36000,"station_id":"ce4bgl12rcd13ifvqbo0","pricing_plan_id":"cebpf4jnsgd1na2vs0mg"},