{"last_updated":1735488585,"ttl":60,"version":"2.2","data":{"bikes":[{"bike_id":"1ed0b79b-94a5-43ce-a19b-ce6172504605","system_id":"levelo_inurba_marseille","lat":43.30547,"lon":5.36534,"is_reserved":false,"is_disabled":false,"rental_uris":{"android":"levelo://app?vid=1ed0b79b-94a5-43ce-a19b-ce6172504605","ios":"levelo://app?vid=1ed0b79b-94a5-43ce-a19b-ce6172504605"},"vehicle_type_id":"4","last_reported":1735488585,"current_range_meters":34000,"station_id":"ce4bgs12rcd13ifvqcag","pricing_plan_id":"cebpf4jnsgd1na2vs0mg"},{"bike_id":"32227ab6-07fd-403b-ad23-f18a857dac01","system_id":"levelo_inurba_marseille","lat":43.23967,"lon":5.36632,"is_reserved":false,"is_disabled":true,"rental_uris":{"android":"levelo://app?vid=32227ab6-07fd-403b-ad23-f18a857dac01","ios":"levelo://app?vid=32227ab6-07fd-403b-ad23-f18a857dac01"},"vehicle_type_id":"4","last_reported":1735488585,"current_range_meters":800,"station_id":"ce4bhi12rcd13ifvqfp0","pricing_plan_id":"cebpf4jnsgd1na2vs0mg"},{"bike_id":"5cf3454e-f81a-476a-8881-9dae9e4b84ae","system_id":"levelo_inurba_marseille","lat":43.2738,"lon":5.36244,"is_reserved":false,"is_disabled":false,"rental_uris":{"android":"levelo://app?vid=5cf3454e-f81a-476a-8881-9dae9e4b84ae","ios":"levelo://app?vid=5cf3454e-f81a-476a-8881-9dae9e4b84ae"},"vehicle_type_id":"4","last_reported":1735488585,"current_range_meters":14400,"station_id":"ce4bhbh2rcd13ifvqeo0","pricing_plan_id":"cebpf4jnsgd1na2vs0mg"},{"bike_id":"c65dc0c5-cafd-46ef-b0a4-ccfaad853b02","system_id":"levelo_inurba_marseille","lat":43.28621,"lon":5.35111,"is_reserved":false,"is_disabled":false,"rental_uris":{"android":"levelo://app?vid=c65dc0c5-cafd-46ef-b0a4-ccfaad853b02","ios":"levelo://app?vid=c65dc0c5-cafd-46ef-b0a4-ccfaad853b02"},"vehicle_type_id":"4","last_reported":1735488585,"current_range_meters":34000,"station_id":"ce4bhch2rcd13ifvqeug","pricing_plan_id":"cebpf4jnsgd1na2vs0mg"},{"bike_id":"3991aac2-ec7f-43c8-801f-23e11845f2d6","system_id":"levelo_inurba_marseille","lat":43.2816,"lon":5.42636,"is_reserved":false,"is_disabled":false,"rental_uris":{"android":"levelo://app?vid=3991aac2-ec7f-43c8-801f-23e11845f2d6","ios":"levelo://app?vid=3991aac2-ec7f-43c8-801f-23e11845f2d6"},"vehicle_type_id":"4","last_reported":1735488585,"current_range_meters":38800,"station_id":"ce4bhnh2rcd13ifvqgug","pricing_plan_id":"cebpf4jnsgd1na2vs0mg"},{"bike_id":"638688e6-43f6-4349-8097-51163ecc97e4","system_id":"levelo_inurba_marseille","lat":43.28281,"lon":5.35085,"is_reserved":false,"is_disabled":false,"rental_uris":{"android":"levelo://app?vid=638688e6-43f6-4349-8097-51163ecc97e4","ios":"levelo://app?vid=638688e6-43f6-4349-8097-51163ecc97e4"},"vehicle_type_id":"4","last_reported":1735488585,"current_range_meters":38000,"station_id":"ce4bhbp2rcd13ifvqerg","pricing_plan_id":"cebpf4jnsgd1na2vs0mg"},{"bike_id":"6fd79a92-f86f-40fe-b622-15c314c30e80","system_id":"levelo_inurba_marseille","lat":43.29201,"lon":5.35806,"is_reserved":false,"is_disabled":false,"rental_uris":{"android":"levelo://app?vid=6fd79a92-f86f-40fe-b622-15c314c30e80","ios":"levelo://app?vid=6fd79a92-f86f-40fe-b622-15c314c30e80"},"vehicle_type_id":"4","last_reported":1735488585,"current_range_meters":19200,"station_id":"ce4bhb12rcd13ifvqel0","pricing_plan_id":"cebpf4jnsgd1na2vs0mg"},{"bike_id":"e084f860-c011-41d1-a501-e83e7c3e69a9","system_id":"levelo_inurba_marseille","lat":43.28043,"lon":5.3695,"is_reserved":false,"is_disabled":false,"rental_uris":{"android":"levelo://app?vid=e084f860-c011-41d1-a501-e83e7c3e69a9","ios":"levelo://app?vid=e084f860-c011-41d1-a501-e83e7c3e69a9"},"vehicle_type_id":"4","last_reported":1735488585,"current_range_meters":19200,"station_id":"ce4bha12rcd13ifvqef0","pricing_plan_id":"cebpf4jnsgd1na2vs0mg"},{"bike_id":"3b3d2c75-4195-4f81-af35-afa13ebc8eea","system_id":"levelo_inurba_marseille","lat":43.27381,"lon":5.36241,"is_reserved":false,"is_disabled":true,"rental_uris":{"android":"levelo://app?vid=3b3d2c75-4195-4f81-af35-afa13ebc8eea","ios":"levelo://app?vid=3b3d2c75-4195-4f81-af35-afa13ebc8eea"},"vehicle_type_id":"4","last_reported":1735488585,"current_range_meters":26800,"station_id":"ce4bhbh2rcd13ifvqeo0","pricing_plan_id":"cebpf4jnsgd1na2vs0mg"},{"bike_id":"8ab4daaa-58c2-4fd2-80af-cd1e62c53d68","system_id":"levelo_inurba_marseille","lat":43.29923,"lon":5.37481,"is_reserved":false,"is_disabled":false,"rental_uris":{"android":"levelo://app?vid=8ab4daaa-58c2-4fd2-80af-cd1e62c53d68","ios":"levelo://app?vid=8ab4daaa-58c2-4fd2-80af-cd1e62c53d68"},"vehicle_type_id":"4","last_reported":1735488585,"current_range_meters":25200,"station_id":"ce4bgjh2rcd13ifvqbg0","pricing_plan_id":"cebpf4jnsgd1na2vs0mg"},{"bike_id":"424171d8-a927-4f41-9f0e-3b2f855635b9","system_id":"levelo_inurba_marseille","lat":43.26494,"lon":5.39546,"is_reserved":false,"is_disabled":false,"rental_uris":{"android":"levelo://app?vid=424171d8-a927-4f41-9f0e-3b2f855635b9","ios":"levelo://app?vid=424171d8-a927-4f41-9f0e-3b2f855635b9"},"vehicle_type_id":"4","last_reported":1735488585,"current_range_meters":36400,"station_id":"ce4bhi12rcd13ifvqfq0","pricing_plan_id":"cebpf4jnsgd1na2vs0mg"},{"bike_id":"350b38e2-bdb8-463d-a5c0-b63752aa6a30","system_id":"levelo_inurba_marseille","lat":43.2842,"lon":5.34993,"is_reserved":false,"is_disabled":false,"rental_uris":{"android":"levelo://app?vid=350b38e2-bdb8-463d-a5c0-b63752aa6a30","ios":"levelo://app?vid=350b38e2-bdb8-463d-a5c0-b63752aa6a30"},"vehicle_type_id":"4","last_reported":1735488585,"current_range_meters":26800,"station_id":"ce4bhbh2rcd13ifvqepg","pricing_plan_id":"cebpf4jnsgd1na2vs0mg"},{"bike_id":"d83dba37-5390-4340-8b2a-41494ed23165","system_id":"levelo_inurba_marseille","lat":43.28619,"lon":5.35104,"is_reserved":false,"is_disabled":false,"rental_uris":{"android":"levelo://app?vid=d83dba37-5390-4340-8b2a-41494ed23165","ios":"levelo://app?vid=d83dba37-5390-4340-8b2a-41494ed23165"},"vehicle_type_id":"4","last_reported":1735488585,"current_range_meters":36000,"station_id":"ce4bhch2rcd13ifvqeug","pricing_plan_id":"cebpf4jnsgd1na2vs0mg"},{"bike_id":"44068498-280d-48c0-a32f-4fbfd33896b0","system_id":"levelo_inurba_marseille","lat":43.31487,"lon":5.37301,"is_reserved":false,"is_disabled":false,"rental_uris":{"android":"levelo://app?vid=44068498-280d-48c0-a32f-4fbfd33896b0","ios":"levelo://app?vid=44068498-280d-48c0-a32f-4fbfd33896b0"},"vehicle_type_id":"4","last_reported":1735488585,"current_range_meters":37600,"station_id":"ce4bgt12rcd13ifvqcd0","pricing_plan_id":"cebpf4jnsgd1na2vs0mg"},{"bike_id":"bbf509d3-d0d2-4376-b43d-ddcdf50db3b4","system_id":"levelo_inurba_marseille","lat":43.29532,"lon":5.3903,"is_reserved":false,"is_disabled":false,"rental_uris":{"android":"levelo://app?vid=bbf509d3-d0d2-4376-b43d-ddcdf50db3b4","ios":"levelo://app?vid=bbf509d3-d0d2-4376-b43d-ddcdf50db3b4"},"vehicle_type_id":"4","last_reported":1735488585,"current_range_meters":24400,"station_id":"ce4bh3p2rcd13ifvqdp0","pricing_plan_id":"cebpf4jnsgd1na2vs0mg"},{"bike_id":"dc2c9797-a649-4a78-b4aa-63c695441bf2","system_id":"levelo_inurba_marseille","lat":43.30933,"lon":5.40142,"is_reserved":false,"is_disabled":false,"rental_uris":{"android":"levelo://app?vid=dc2c9797-a649-4a78-b4aa-63c695441bf2","ios":"levelo://app?vid=dc2c9797-a649-4a78-b4aa-63c695441bf2"},"vehicle_type_id":"4","last_reported":1735488585,"current_range_meters":37600,"station_id":"ce4bgvp2rcd13ifvqct0","pricing_plan_id":"cebpf4jnsgd1na2vs0mg"},{"bike_id":"9a503b4a-6ab1-4b37-b592-79eca06f8ee8","system_id":"levelo_inurba_marseille","lat":43.29067,"lon":5.37173,"is_reserved":false,"is_disabled":false,"rental_uris":{"android":"levelo://app?vid=9a503b4a-6ab1-4b37-b592-79eca06f8ee8","ios":"levelo://app?vid=9a503b4a-6ab1-4b37-b592-79eca06f8ee8"},"vehicle_type_id":"4","last_reported":1735488585,"current_range_meters":39200,"station_id":"ce4bh5p2rcd13ifvqe4g","pricing_plan_id":"cebpf4jnsgd1na2vs0mg"},{"bike_id":"857344dd-6be1-4d34-90e7-6f62afbbef2e","system_id":"levelo_inurba_marseille","lat":43.32109,"lon":5.36769,"is_reserved":false,"is_disabled":false,"rental_uris":{"android":"levelo://app?vid=857344dd-6be1-4d34-90e7-6f62afbbef2e","ios":"levelo://app?vid=857344dd-6be1-4d34-90e7-6f62afbbef2e"},"vehicle_type_id":"4","last_reported":1735488585,"current_range_meters":28000,"station_id":"ce4bhrh2rcd13ifvqhug","pricing_plan_id":"cebpf4jnsgd1na2vs0mg"},{"bike_id":"945e4f92-3516-44bd-b0eb-4c9d367a2c82","system_id":"levelo_inurba_marseille","lat":43.24075,"lon":5.37765,"is_reserved":false,"is_disabled":false,"rental_uris":{"android":"levelo://app?vid=945e4f92-3516-44bd-b0eb-4c9d367a2c82","ios":"levelo://app?vid=945e4f92-3516-44bd-b0eb-4c9d367a2c82"},"vehicle_type_id":"4","last_reported":1735488585,"current_range_meters":26000,"station_id":"ce4bhnp2rcd13ifvqgvg","pricing_plan_id":"cebpf4jnsgd1na2vs0mg"},{"bike_id":"a2908599-b253-4069-b7e7-2a8f33214fc4","system_id":"levelo_inurba_marseille","lat":43.29717,"lon":5.36614,"is_reserved":false,"is_disabled":true,"rental_uris":{"android":"levelo://app?vid=a2908599-b253-4069-b7e7-2a8f33214fc4","ios":"levelo://app?vid=a2908599-b253-4069-b7e7-2a8f33214fc4"},"vehicle_type_id":"4","last_reported":1735488585,"current_range_meters":1600,"station_id":"ce4bgn12rcd13ifvqbt0","pricing_plan_id":"cebpf4jnsgd1na2vs0mg"},{"bike_id":"1533d15a-47b9-4fbc-8e1c-11ff2fd4cbf0","system_id":"levelo_inurba_marseille","lat":43.28426,"lon":5.34989,"is_reserved":false,"is_disabled":false,"rental_uris":{"android":"levelo://app?vid=1533d15a-47b9-4fbc-8e1c-11ff2fd4cbf0","ios":"levelo://app?vid=1533d15a-47b9-4fbc-8e1c-11ff2fd4cbf0"},"vehicle_type_id":"4","last_reported":1735488585,"current_range_meters":37600,"station_id":"ce4bhbh2rcd13ifvqepg","pricing_plan_id":"cebpf4jnsgd1na2vs0mg"},{"bike_id":"8371faa7-e323-455f-a207-a7608856e977","system_id":"levelo_inurba_marseille","lat":43.26559,"lon":5.37278,"is_reserved":false,"is_disabled":false,"rental_uris":{"android":"levelo://app?vid=8371faa7-e323-455f-a207-a7608856e977","ios":"levelo://app?vid=8371faa7-e323-455f-a207-a7608856e977"},"vehicle_type_id":"4","last_reported":1735488585,"current_range_meters":30800,"station_id":"ce4bhg12rcd13ifvqf70","pricing_plan_id":"cebpf4jnsgd1na2vs0mg"},{"bike_id":"b4d130c6-4fa7-4fa3-83b8-3ae416781279","system_id":"levelo_inurba_marseille","lat":43.27449,"lon":5.39273,"is_reserved":false,"is_disabled":false,"rental_uris":{"android":"levelo://app?vid=b4d130c6-4fa7-4fa3-83b8-3ae416781279","ios":"levelo://app?vid=b4d130c6-4fa7-4fa3-83b8-3ae416781279"},"vehicle_type_id":"4","last_reported":1735488585,"current_range_meters":15200,"station_id":"","pricing_plan_id":"cebpf4jnsgd1na2vs0mg"},{"bike_id":"99ff2cd6-f02d-4ed5-bcf6-96dc4fa5880b","system_id":"levelo_inurba_marseille","lat":43.24813,"lon":5.37462,"is_reserved":false,"is_disabled":false,"rental_uris":{"android":"levelo://app?vid=99ff2cd6-f02d-4ed5-bcf6-96dc4fa5880b","ios":"levelo://app?vid=99ff2cd6-f02d-4ed5-bcf6-96dc4fa5880b"},"vehicle_type_id":"4","last_reported":1735488585,"current_range_meters":9200,"station_id":"ce4bhgh2rcd13ifvqfb0","pricing_plan_id":"cebpf4jnsgd1na2vs0mg"},{"bike_id":"ff49d49a-53c3-499a-b296-89a67f332a8a","system_id":"levelo_inurba_marseille","lat":43.24169,"lon":5.36395,"is_reserved":false,"is_disabled":false,"rental_uris":{"android":"levelo://app?vid=ff49d49a-53c3-499a-b296-89a67f332a8a","ios":"levelo://app?vid=ff49d49a-53c3-499a-b296-89a67f332a8a"},"vehicle_type_id":"4","last_reported":1735488585,"current_range_meters":14000,"station_id":"cpo36qri1sfpv3e86is0","pricing_plan_id":"cebpf4jnsgd1na2vs0mg"},{"bike_id":"1dc8d099-49a1-4b0b-80be-692cb533fe2b","system_id":"levelo_inurba_marseille","lat":43.27836,"lon":5.35473,"is_reserved":false,"is_disabled":false,"rental_uris":{"android":"levelo://app?vid=1dc8d099-49a1-4b0b-80be-692cb533fe2b","ios":"levelo://app?vid=1dc8d099-49a1-4b0b-80be-692cb533fe2b"},"vehicle_type_id":"4","last_reported":1735488585,"current_range_meters":21600,"station_id":"","pricing_plan_id":"cebpf4jnsgd1na2vs0mg"},{"bike_id":"cefa4e99-d23a-4f3e-a55c-511f406d8c11","system_id":"levelo_inurba_marseille","lat":43.2619,"lon":5.3745,"is_reserved":false,"is_disabled":false,"rental_uris":{"android":"levelo://app?vid=cefa4e99-d23a-4f3e-a55c-511f406d8c11","ios":"levelo://app?vid=cefa4e99-d23a-4f3e-a55c-511f406d8c11"},"vehicle_type_id":"4","last_reported":1735488585,"current_range_meters":37600,"station_id":"ce4bhgp2rcd13ifvqfc0","pricing_plan_id":"cebpf4jnsgd1na2vs0mg"},{"bike_id":"753fe1a2-6ec1-4d51-9513-13144401ea46","system_id":"levelo_inurba_marseille","lat":43.29174,"lon":5.37146,"is_reserved":false,"is_disabled":false,"rental_uris":{"android":"levelo://app?vid=753fe1a2-6ec1-4d51-9513-13144401ea46","ios":"levelo://app?vid=753fe1a2-6ec1-4d51-9513-13144401ea46"},"vehicle_type_id":"4","last_reported":1735488585,"current_range_meters":29600,"station_id":"ce4bha92rcd13ifvqeh0","pricing_plan_id":"cebpf4jnsgd1na2vs0mg"},{"bike_id":"1f4b2932-3998-4e2c-a4c7-9039ca3e2533","system_id":"levelo_inurba_marseille","lat":43.27215,"lon":5.39194,"is_reserved":false,"is_disabled":false,"rental_uris":{"android":"levelo://app?vid=1f4b2932-3998-4e2c-a4c7-9039ca3e2533","ios":"levelo://app?vid=1f4b2932-3998-4e2c-a4c7-9039ca3e2533"},"vehicle_type_id":"4","last_reported":1735488585,"current_range_meters":38000,"station_id":"ce4bhhp2rcd13ifvqfm0","pricing_plan_id":"cebpf4jnsgd1na2vs0mg"},{"bike_id":"92ac6347-8dd4-4c7e-a4d0-6e7f04311c47","system_id":"levelo_inurba_marseille","lat":43.29609,"lon":5.38101,"is_reserved":false,"is_disabled":false,"rental_uris":{"android":"levelo://app?vid=92ac6347-8dd4-4c7e-a4d0-6e7f04311c47","ios":"levelo://app?vid=92ac6347-8dd4-4c7e-a4d0-6e7f04311c47"},"vehicle_type_id":"4","last_reported":1735488585,"current_range_meters":37600,"station_id":"ce4bgl12rcd13ifvqbo0","pricing_plan_id":"cebpf4jnsgd1na2vs0mg"},{"bike_id":"7c78c533-ca3a-4ac5-ad8b-e1c0befcd7b8","system_id":"levelo_inurba_marseille","lat":43.25088,"lon":5.3952,"is_reserved":false,"is_disabled":false,"rental_uris":{"android":"levelo://app?vid=7c78c533-ca3a-4ac5-ad8b-e1c0befcd7b8","ios":"levelo://app?vid=7c78c533-ca3a-4ac5-ad8b-e1c0befcd7b8"},"vehicle_type_id":"4","last_reported":1735488585,"current_range_meters":36000,"station_id":"ce4bhm12rcd13ifvqgkg","pricing_plan_id":"cebpf4jnsgd1na2vs0mg"},{"bike_id":"98b900d2-5218-4f34-9619-a21e902d182b","system_id":"levelo_inurba_marseille","lat":43.28418,"lon":5.34979,"is_reserved":false,"is_disabled":false,"rental_uris":{"android":"levelo://app?vid=98b900d2-5218-4f34-9619-a21e902d182b","ios":"levelo://app?vid=98b900d2-5218-4f34-9619-a21e902d182b"},"vehicle_type_id":"4","last_reported":1735488585,"current_range_meters":18000,"station_id":"ce4bhbh2rcd13ifvqepg","pricing_plan_id":"cebpf4jnsgd1na2vs0mg"},{"bike_id":"13f84696-4405-43e0-b0f5-1a61d67abe32","system_id":"levelo_inurba_marseille","lat":43.27833,"lon":5.39192,"is_reserved":false,"is_disabled":false,"rental_uris":{"android":"levelo://app?vid=13f84696-4405-43e0-b0f5-1a61d67abe32","ios":"levelo://app?vid=13f84696-4405-43e0-b0f5-1a61d67abe32"},"vehicle_type_id":"4","last_reported":1735488585,"current_range_meters":24000,"station_id":"ce4bhjp2rcd13ifvqga0","pricing_plan_id":"cebpf4jnsgd1na2vs0mg"},{"bike_id":"9a185309-e1a1-42af-b9de-efc597001933","system_id":"levelo_inurba_marseille","lat":43.29281,"lon":5.36849,"is_reserved":false,"is_disabled":false,"rental_uris":{"android":"levelo://app?vid=9a185309-e1a1-42af-b9de-efc597001933","ios":"levelo://app?vid=9a185309-e1a1-42af-b9de-efc597001933"},"vehicle_type_id":"4","last_reported":1735488585,"current_range_meters":17600,"station_id":"ce4bhbp2rcd13ifvqesg","pricing_plan_id":"cebpf4jnsgd1na2vs0mg"},{"bike_id":"caab34a4-5264-4b72-a12f-e55159fe93b6","system_id":"levelo_inurba_marseille","lat":43.27096,"lon":5.42275,"is_reserved":false,"is_disabled":false,"rental_uris":{"android":"levelo://app?vid=caab34a4-5264-4b72-a12f-e55159fe93b6","ios":"levelo://app?vid=caab34a4-5264-4b72-a12f-e55159fe93b6"},"vehicle_type_id":"4","last_reported":1735488585,"current_range_meters":24400,"station_id":"ce4bhk92rcd13ifvqgb0","pricing_plan_id":"cebpf4jnsgd1na2vs0mg"},{"bike_id":"e28936d1-deab-45e5-b02d-5934b2fa2a26","system_id":"levelo_inurba_marseille","lat":43.24549,"lon":5.39522,"is_reserved":false,"is_disabled":true,"rental_uris":{"android":"levelo://app?vid=e28936d1-deab-45e5-b02d-5934b2fa2a26","ios":"levelo://app?vid=e28936d1-deab-45e5-b02d-5934b2fa2a26"},"vehicle_type_id":"4","last_reported":1735488585,"current_range_meters":8800,"station_id":"ce4bhlp2rcd13ifvqgjg","pricing_plan_id":"cebpf4jnsgd1na2vs0mg"},{"bike_id":"b9a69417-3087-4257-8cf9-dc36e246b62d","system_id":"levelo_inurba_marseille","lat":43.30812,"lon":5.38142,"is_reserved":false,"is_disabled":false,"rental_uris":{"android":"levelo://app?vid=b9a69417-3087-4257-8cf9-dc36e246b62d","ios":"levelo://app?vid=b9a69417-3087-4257-8cf9-dc36e246b62d"},"vehicle_type_id":"4","last_reported":1735488585,"current_range_meters":34800,"station_id":"ce4bgt12rcd13ifvqce0","pricing_plan_id":"cebpf4jnsgd1na2vs0mg"},{"bike_id":"68071365-6693-471a-8bf9-0f6efd75ecd6","system_id":"levelo_inurba_marseille","lat":43.2869,"lon":5.35177,"is_reserved":false,"is_disabled":false,"rental_uris":{"android":"levelo://app?vid=68071365-6693-471a-8bf9-0f6efd75ecd6","ios":"levelo://app?vid=68071365-6693-471a-8bf9-0f6efd75ecd6"},"vehicle_type_id":"4","last_reported":1735488585,"current_range_meters":24400,"station_id":"ce4bhch2rcd13ifvqeug","pricing_plan_id":"cebpf4jnsgd1na2vs0mg"},{"bike_id":"282e923e-ac5d-40e2-a3bb-abd81b562ee0","system_id":"levelo_inurba_marseille","lat":43.28152,"lon":5.42639,"is_reserved":false,"is_disabled":false,"rental_uris":{"android":"levelo://app?vid=282e923e-ac5d-40e2-a3bb-abd81b562ee0","ios":"levelo://app?vid=282e923e-ac5d-40e2-a3bb-abd81b562ee0"},"vehicle_type_id":"4","last_reported":1735488585,"current_range_meters":28400,"station_id":"ce4bhnh2rcd13ifvqgug","pricing_plan_id":"cebpf4jnsgd1na2vs0mg"},{"bike_id":"2eaf5aab-e12e-4e93-a20d-88a34894165c","system_id":"levelo_inurba_marseille","lat":43.28472,"lon":5.35883,"is_reserved":false,"is_disabled":true,"rental_uris":{"android":"levelo://app?vid=2eaf5aab-e12e-4e93-a20d-88a34894165c","ios":"levelo://app?vid=2eaf5aab-e12e-4e93-a20d-88a34894165c"},"vehicle_type_id":"4","last_reported":1735488585,"current_range_meters":0,"station_id":"ce4bhah2rcd13ifvqei0","pricing_plan_id":"cebpf4jnsgd1na2vs0mg"},{"bike_id":"d8e15cb7-f332-47a1-86c8-d28da7833ff4","system_id":"levelo_inurba_marseille","lat":43.30891,"lon":5.37189,"is_reserved":false,"is_disabled":true,"rental_uris":{"android":"levelo://app?vid=d8e15cb7-f332-47a1-86c8-d28da7833ff4","ios":"levelo://app?vid=d8e15cb7-f332-47a1-86c8-d28da7833ff4"},"vehicle_type_id":"4","last_reported":1735488585,"current_range_meters":14800,"station_id":"ce4bguh2rcd13ifvqckg","pricing_plan_id":"cebpf4jnsgd1na2vs0mg"},{"bike_id":"c549aa02-86c9-44ee-96b2-cb2501aef0df","system_id":"levelo_inurba_marseille","lat":43.29252,"lon":5.4091,"is_reserved":false,"is_disabled":false,"rental_uris":{"android":"levelo://app?vid=c549aa02-86c9-44ee-96b2-cb2501aef0df","ios":"levelo://app?vid=c549aa02-86c9-44ee-96b2-cb2501aef0df"},"vehicle_type_id":"4","last_reported":1735488585,"current_range_meters":27200,"station_id":"ce4bh192rcd13ifvqdc0","pricing_plan_id":"cebpf4jnsgd1na2vs0mg"},{"bike_id":"f3e056f3-4841-4241-b583-03808d7da85a","system_id":"levelo_inurba_marseille","lat":43.30156,"lon":5.38083,"is_reserved":false,"is_disabled":false,"rental_uris":{"android":"levelo://app?vid=f3e056f3-4841-4241-b583-03808d7da85a","ios":"levelo://app?vid=f3e056f3-4841-4241-b583-03808d7da85a"},"vehicle_type_id":"4","last_reported":1735488585,"current_range_meters":33600,"station_id":"ce4bgjp2rcd13ifvqbh0","pricing_plan_id":"cebpf4jnsgd1na2vs0mg"},{"bike_id":"71556ec0-11d6-4c14-95b0-ef09a637d528","system_id":"levelo_inurba_marseille","lat":43.33611,"lon":5.41035,"is_reserved":false,"is_disabled":false,"rental_uris":{"android":"levelo://app?vid=71556ec0-11d6-4c14-95b0-ef09a637d528","ios":"levelo://app?vid=71556ec0-11d6-4c14-95b0-ef09a637d528"},"vehicle_type_id":"4","last_reported":1735488585,"current_range_meters":30800,"station_id":"ce4bhqh2rcd13ifvqhmg","pricing_plan_id":"cebpf4jnsgd1na2vs0mg"},{"bike_id":"f7ea23f6-e168-4049-af9c-3d18c33b42e1","system_id":"levelo_inurba_marseille","lat":43.27378,"lon":5.36255,"is_reserved":false,"is_disabled":false,"rental_uris":{"android":"levelo://app?vid=f7ea23f6-e168-4049-af9c-3d18c33b42e1","ios":"levelo://app?vid=f7ea23f6-e168-4049-af9c-3d18c33b42e1"},"vehicle_type_id":"4","last_reported":1735488585,"current_range_meters":38800,"station_id":"ce4bhbh2rcd13ifvqeo0","pricing_plan_id":"cebpf4jnsgd1na2vs0mg"},{"bike_id":"a87e21c9-e118-4821-adf5-28cb9ee5da34","system_id":"levelo_inurba_marseille","lat":43.30145,"lon":5.37419,"is_reserved":false,"is_disabled":false,"rental_uris":{"android":"levelo://app?vid=a87e21c9-e118-4821-adf5-28cb9ee5da34","ios":"levelo://app?vid=a87e21c9-e118-4821-adf5-28cb9ee5da34"},"vehicle_type_id":"4","last_reported":1735488585,"current_range_meters":35200,"station_id":"ce4bgs92rcd13ifvqcc0","pricing_plan_id":"cebpf4jnsgd1na2vs0mg"},{"bike_id":"d225e49f-de10-470b-90af-648b3c15cce7","system_id":"levelo_inurba_marseille","lat":43.2574,"lon":5.41106,"is_reserved":false,"is_disabled":false,"rental_uris":{"android":"levelo://app?vid=d225e49f-de10-470b-90af-648b3c15cce7","ios":"levelo://app?vid=d225e49f-de10-470b-90af-648b3c15cce7"},"vehicle_type_id":"4","last_reported":1735488585,"current_range_meters":38800,"station_id":"ce4bhkp2rcd13ifvqgd0","pricing_plan_id":"cebpf4jnsgd1na2vs0mg"},{"bike_id":"2ad96645-53b8-4b57-b8b9-898b5d0758ec","system_id":"levelo_inurba_marseille","lat":43.27337,"lon":5.36269,"is_reserved":false,"is_disabled":false,"rental_uris":{"android":"levelo://app?vid=2ad96645-53b8-4b57-b8b9-898b5d0758ec","ios":"levelo://app?vid=2ad96645-53b8-4b57-b8b9-898b5d0758ec"},"vehicle_type_id":"4","last_reported":1735488585,"current_range_meters":24000,"station_id":"ce4bhbh2rcd13ifvqeo0","pricing_plan_id":"cebpf4jnsgd1na2vs0mg"},{"bike_id":"8499c959-998d-4486-a511-9d65f0b01fae","system_id":"levelo_inurba_marseille","lat":43.25736,"lon":5.41111,"is_reserved":false,"is_disabled":false,"rental_uris":{"android":"levelo://app?vid=8499c959-998d-4486-a511-9d65f0b01fae","ios":"levelo://app?vid=8499c959-998d-4486-a511-9d65f0b01fae"},"vehicle_type_id":"4","last_reported":1735488585,"current_range_meters":35600,"station_id":"ce4bhkp2rcd13ifvqgd0","pricing_plan_id":"cebpf4jnsgd1na2vs0mg"},{"bike_id":"158e017f-4a76-4ad7-a5e3-1ca7daceabea","system_id":"levelo_inurba_marseille","lat":43.275,"lon":5.42446,"is_reserved":false,"is_disabled":false,"rental_uris":{"android":"levelo://app?vid=158e017f-4a76-4ad7-a5e3-1ca7daceabea","ios":"levelo://app?vid=158e017f-4a76-4ad7-a5e3-1ca7daceabea"},"vehicle_type_id":"4","last_reported":1735488585,"current_range_meters":16400,"station_id":"ce4bhn92rcd13ifvqgrg","pricing_plan_id":"cebpf4jnsgd1na2vs0mg"},{"bike_id":"d6144803-d96b-4980-90a1-d59f6d11564c","system_id":"levelo_inurba_marseille","lat":43.28152,"lon":5.42641,"is_reserved":false,"is_disabled":false,"rental_uris":{"android":"levelo://app?vid=d6144803-d96b-4980-90a1-d59f6d11564c","ios":"levelo://app?vid=d6144803-d96b-4980-90a1-d59f6d11564c"},"vehicle_type_id":"4","last_reported":1735488585,"current_range_meters":38800,"station_id":"ce4bhnh2rcd13ifvqgug","pricing_plan_id":"cebpf4jnsgd1na2vs0mg"},{"bike_id":"8ec82eb6-9f95-45a2-ab5f-a9d76752bac5","system_id":"levelo_inurba_marseille","lat":43.28626,"lon":5.35103,"is_reserved":false,"is_disabled":false,"rental_uris":{"android":"levelo://app?vid=8ec82eb6-9f95-45a2-ab5f-a9d76752bac5","ios":"levelo://app?vid=8ec82eb6-9f95-45a2-ab5f-a9d76752bac5"},"vehicle_type_id":"4","last_reported":1735488585,"current_range_meters":36000,"station_id":"ce4bhch2rcd13ifvqeug","pricing_plan_id":"cebpf4jnsgd1na2vs0mg"},{"bike_id":"8ed5a1f5-589e-42ed-8f11-2d154ce6b9eb","system_id":"levelo_inurba_marseille","lat":43.23967,"lon":5.36631,"is_reserved":false,"is_disabled":false,"rental_uris":{"android":"levelo://app?vid=8ed5a1f5-589e-42ed-8f11-2d154ce6b9eb","ios":"levelo://app?vid=8ed5a1f5-589e-42ed-8f11-2d154ce6b9eb"},"vehicle_type_id":"4","last_reported":1735488585,"current_range_meters":35600,"station_id":"ce4bhi12rcd13ifvqfp0","pricing_plan_id":"cebpf4jnsgd1na2vs0mg"},{"bike_id":"2974da9a-626b-4d89-928a-d61d62cd91bd","system_id":"levelo_inurba_marseille","lat":43.27377,"lon":5.36255,"is_reserved":false,"is_disabled":false,"rental_uris":{"android":"levelo://app?vid=2974da9a-626b-4d89-928a-d61d62cd91bd","ios":"levelo://app?vid=2974da9a-626b-4d89-928a-d61d62cd91bd"},"vehicle_type_id":"4","last_reported":1735488585,"current_range_meters":14400,"station_id":"ce4bhbh2rcd13ifvqeo0","pricing_plan_id":"cebpf4jnsgd1na2vs0mg"},{"bike_id":"d19a8e89-9188-421b-96bb-632c602a5f2b","system_id":"levelo_inurba_marseille","lat":43.2958,"lon":5.37534,"is_reserved":false,"is_disabled":false,"rental_uris":{"android":"levelo://app?vid=d19a8e89-9188-421b-96bb-632c602a5f2b","ios":"levelo://app?vid=d19a8e89-9188-421b-96bb-632c602a5f2b"},"vehicle_type_id":"4","last_reported":1735488585,"current_range_meters":24400,"station_id":"ce4bgh92rcd13ifvqb50","pricing_plan_id":"cebpf4jnsgd1na2vs0mg"},{"bike_id":"e99c68bf-51ac-4ef7-82db-77aa108add0a","system_id":"levelo_inurba_marseille","lat":43.2962,"lon":5.37713,"is_reserved":false,"is_disabled":false,"rental_uris":{"android":"levelo://app?vid=e99c68bf-51ac-4ef7-82db-77aa108add0a","ios":"levelo://app?vid=e99c68bf-51ac-4ef7-82db-77aa108add0a"},"vehicle_type_id":"4","last_reported":1735488585,"current_range_meters":25600,"station_id":"ce4bgi92rcd13ifvqb90","pricing_plan_id":"cebpf4jnsgd1na2vs0mg"},{"bike_id":"ea5f7699-af81-4ced-bb43-4fdb79de8421","system_id":"levelo_inurba_marseille","lat":43.24818,"lon":5.37459,"is_reserved":false,"is_disabled":false,"rental_uris":{"android":"levelo://app?vid=ea5f7699-af81-4ced-bb43-4fdb79de8421","ios":"levelo://app?vid=ea5f7699-af81-4ced-bb43-4fdb79de8421"},"vehicle_type_id":"4","last_reported":1735488585,"current_range_meters":6400,"station_id":"ce4bhgh2rcd13ifvqfb0","pricing_plan_id":"cebpf4jnsgd1na2vs0mg"},{"bike_id":"257f45e8-2159-4ec3-b38e-b61340f2d82c","system_id":"levelo_inurba_marseille","lat":43.28421,"lon":5.34974,"is_reserved":false,"is_disabled":false,"rental_uris":{"android":"levelo://app?vid=257f45e8-2159-4ec3-b38e-b61340f2d82c","ios":"levelo://app?vid=257f45e8-2159-4ec3-b38e-b61340f2d82c"},"vehicle_type_id":"4","last_reported":1735488585,"current_range_meters":21600,"station_id":"ce4bhbh2rcd13ifvqepg","pricing_plan_id":"cebpf4jnsgd1na2vs0mg"},{"bike_id":"fbd37606-7491-40eb-a6f2-fedf079ad396","system_id":"levelo_inurba_marseille","lat":43.2828,"lon":5.35081,"is_reserved":false,"is_disabled":false,"rental_uris":{"android":"levelo://app?vid=fbd37606-7491-40eb-a6f2-fedf079ad396","ios":"levelo://app?vid=fbd37606-7491-40eb-a6f2-fedf079ad396"},"vehicle_type_id":"4","last_reported":1735488585,"current_range_meters":28800,"station_id":"ce4bhbp2rcd13ifvqerg","pricing_plan_id":"cebpf4jnsgd1na2vs0mg"},{"bike_id":"b17525f1-b749-4e76-8a6d-ca2f0b626ef1","system_id":"levelo_inurba_marseille","lat":43.31236,"lon":5.3686,"is_reserved":false,"is_disabled":false,"rental_uris":{"android":"levelo://app?vid=b17525f1-b749-4e76-8a6d-ca2f0b626ef1","ios":"levelo://app?vid=b17525f1-b749-4e76-8a6d-ca2f0b626ef1"},"vehicle_type_id":"4","last_reported":1735488585,"current_range_meters":35600,"station_id":"ce4bgl92rcd13ifvqbq0","pricing_plan_id":"cebpf4jnsgd1na2vs0mg"},{"bike_id":"95b5bd4d-ffca-463a-89ae-9691d4e3693c","system_id":"levelo_inurba_marseille","lat":43.26217,"lon":5.37442,"is_reserved":false,"is_disabled":false,"rental_uris":{"android":"levelo://app?vid=95b5bd4d-ffca-463a-89ae-9691d4e3693c","ios":"levelo://app?vid=95b5bd4d-ffca-463a-89ae-9691d4e3693c"},"vehicle_type_id":"4","last_reported":1735488585,"current_range_meters":20000,"station_id":"ce4bhgp2rcd13ifvqfc0","pricing_plan_id":"cebpf4jnsgd1na2vs0mg"},{"bike_id":"99576042-4f78-4e00-9526-03707718ec70","system_id":"levelo_inurba_marseille","lat":43.286214,"lon":5.351024,"is_reserved":false,"is_disabled":false,"rental_uris":{"android":"levelo://app?vid=99576042-4f78-4e00-9526-03707718ec70","ios":"levelo://app?vid=99576042-4f78-4e00-9526-03707718ec70"},"vehicle_type_id":"4","last_reported":1735488585,"current_range_meters":24400,"station_id":"ce4bhch2rcd13ifvqeug","pricing_plan_id":"cebpf4jnsgd1na2vs0mg"},{"bike_id":"4d73b4d8-2a56-478e-a3e6-19c6ad4f04f2","system_id":"levelo_inurba_marseille","lat":43.31692,"lon":5.40471,"is_reserved":false,"is_disabled":false,"rental_uris":{"android":"levelo://app?vid=4d73b4d8-2a56-478e-a3e6-19c6ad4f04f2","ios":"levelo://app?vid=4d73b4d8-2a56-478e-a3e6-19c6ad4f04f2"},"vehicle_type_id":"4","last_reported":1735488585,"current_range_meters":16800,"station_id":"ce4bh012rcd13ifvqd00","pricing_plan_id":"cebpf4jnsgd1na2vs0mg"},{"bike_id":"e72c6d65-0b04-411e-bf0f-f72d15cad0d7","system_id":"levelo_inurba_marseille","lat":43.33726,"lon":5.3918,"is_reserved":false,"is_disabled":false,"rental_uris":{"android":"levelo://app?vid=e72c6d65-0b04-411e-bf0f-f72d15cad0d7","ios":"levelo://app?vid=e72c6d65-0b04-411e-bf0f-f72d15cad0d7"},"vehicle_type_id":"4","last_reported":1735488585,"current_range_meters":39200,"station_id":"ce4bhr92rcd13ifvqhsg","pricing_plan_id":"cebpf4jnsgd1na2vs0mg"},{"bike_id":"284766be-28e5-4111-8d74-5c0afb59f155","system_id":"levelo_inurba_marseille","lat":43.30621,"lon":5.3723,"is_reserved":false,"is_disabled":false,"rental_uris":{"android":"levelo://app?vid=284766be-28e5-4111-8d74-5c0afb59f155","ios":"levelo://app?vid=284766be-28e5-4111-8d74-5c0afb59f155"},"vehicle_type_id":"4","last_reported":1735488585,"current_range_meters":38000,"station_id":"ce4bgqh2rcd13ifvqc4g","pricing_plan_id":"cebpf4jnsgd1na2vs0mg"},{"bike_id":"eac618cd-6ec0-4ecf-b838-2d31e84e64f9","system_id":"levelo_inurba_marseille","lat":43.28621,"lon":5.35106,"is_reserved":false,"is_disabled":false,"rental_uris":{"android":"levelo://app?vid=eac618cd-6ec0-4ecf-b838-2d31e84e64f9","ios":"levelo://app?vid=eac618cd-6ec0-4ecf-b838-2d31e84e64f9"},"vehicle_type_id":"4","last_reported":1735488585,"current_range_meters":30000,"station_id":"ce4bhch2rcd13ifvqeug","pricing_plan_id":"cebpf4jnsgd1na2vs0mg"},{"bike_id":"2fdeab75-c3c7-44e1-8744-5eb7e97729bb","system_id":"levelo_inurba_marseille","lat":43.32111,"lon":5.36776,"is_reserved":false,"is_disabled":false,"rental_uris":{"android":"levelo://app?vid=2fdeab75-c3c7-44e1-8744-5eb7e97729bb","ios":"levelo://app?vid=2fdeab75-c3c7-44e1-8744-5eb7e97729bb"},"vehicle_type_id":"4","last_reported":1735488585,"current_range_meters":38800,"station_id":"ce4bhrh2rcd13ifvqhug","pricing_plan_id":"cebpf4jnsgd1na2vs0mg"},{"bike_id":"5416a2c8-e6bc-42cf-83d8-c71e60fc0453","system_id":"levelo_inurba_marseille","lat":43.2862,"lon":5.35104,"is_reserved":false,"is_disabled":false,"rental_uris":{"android":"levelo://app?vid=5416a2c8-e6bc-42cf-83d8-c71e60fc0453","ios":"levelo://app?vid=5416a2c8-e6bc-42cf-83d8-c71e60fc0453"},"vehicle_type_id":"4","last_reported":1735488585,"current_range_meters":16400,"station_id":"ce4bhch2rcd13ifvqeug","pricing_plan_id":"cebpf4jnsgd1na2vs0mg"},{"bike_id":"ec1358c9-3da7-4ac5-b6a4-026b7243e09b","system_id":"levelo_inurba_marseille","lat":43.29581,"lon":5.36735,"is_reserved":false,"is_disabled":true,"rental_uris":{"android":"levelo://app?vid=ec1358c9-3da7-4ac5-b6a4-026b7243e09b","ios":"levelo://app?vid=ec1358c9-3da7-4ac5-b6a4-026b7243e09b"},"vehicle_type_id":"4","last_reported":1735488585,"current_range_meters":800,"station_id":"ce4bgph2rcd13ifvqc2g","pricing_plan_id":"cebpf4jnsgd1na2vs0mg"},{"bike_id":"9e6d9495-e6fc-46af-bf3a-7dc282e2ba92","system_id":"levelo_inurba_marseille","lat":43.2707,"lon":5.42278,"is_reserved":false,"is_disabled":false,"rental_uris":{"android":"levelo://app?vid=9e6d9495-e6fc-46af-bf3a-7dc282e2ba92","ios":"levelo://app?vid=9e6d9495-e6fc-46af-bf3a-7dc282e2ba92"},"vehicle_type_id":"4","last_reported":1735488585,"current_range_meters":32000,"station_id":"ce4bhk92rcd13ifvqgb0","pricing_plan_id":"cebpf4jnsgd1na2vs0mg"},{"bike_id":"57103b12-06fc-494b-9a1a-1903f8f245d5","system_id":"levelo_inurba_marseille","lat":43.27994,"lon":5.41665,"is_reserved":false,"is_disabled":false,"rental_uris":{"android":"levelo://app?vid=57103b12-06fc-494b-9a1a-1903f8f245d5","ios":"levelo://app?vid=57103b12-06fc-494b-9a1a-1903f8f245d5"},"vehicle_type_id":"4","last_reported":1735488585,"current_range_meters":17200,"station_id":"ce4bho12rcd13ifvqh1g","pricing_plan_id":"cebpf4jnsgd1na2vs0mg"},{"bike_id":"9c190374-01bb-42bf-8134-b1b2e72f4531","system_id":"levelo_inurba_marseille","lat":43.27373,"lon":5.3624,"is_reserved":false,"is_disabled":false,"rental_uris":{"android":"levelo://app?vid=9c190374-01bb-42bf-8134-b1b2e72f4531","ios":"levelo://app?vid=9c190374-01bb-42bf-8134-b1b2e72f4531"},"vehicle_type_id":"4","last_reported":1735488585,"current_range_meters":36800,"station_id":"ce4bhbh2rcd13ifvqeo0","pricing_plan_id":"cebpf4jnsgd1na2vs0mg"},{"bike_id":"1da4ffe8-41e0-47a3-9058-b574a027b1a6","system_id":"levelo_inurba_marseille","lat":43.2886,"lon":5.3585,"is_reserved":false,"is_disabled":false,"rental_uris":{"android":"levelo://app?vid=1da4ffe8-41e0-47a3-9058-b574a027b1a6","ios":"levelo://app?vid=1da4ffe8-41e0-47a3-9058-b574a027b1a6"},"vehicle_type_id":"4","last_reported":1735488585,"current_range_meters":23200,"station_id":"ce4bhb12rcd13ifvqem0","pricing_plan_id":"cebpf4jnsgd1na2vs0mg"},{"bike_id":"d9d97985-8792-47a3-ab8c-09980f6a9900","system_id":"levelo_inurba_marseille","lat":43.29534,"lon":5.37503,"is_reserved":false,"is_disabled":true,"rental_uris":{"android":"levelo://app?vid=d9d97985-8792-47a3-ab8c-09980f6a9900","ios":"levelo://app?vid=d9d97985-8792-47a3-ab8c-09980f6a9900"},"vehicle_type_id":"4","last_reported":1735488585,"current_range_meters":6400,"station_id":"ce4bgkp2rcd13ifvqbmg","pricing_plan_id":"cebpf4jnsgd1na2vs0mg"},{"bike_id":"8084febb-f07c-41d5-b5a3-c8f3e7fa6003","system_id":"levelo_inurba_marseille","lat":43.3063,"lon":5.4009,"is_reserved":false,"is_disabled":false,"rental_uris":{"android":"levelo://app?vid=8084febb-f07c-41d5-b5a3-c8f3e7fa6003","ios":"levelo://app?vid=8084febb-f07c-41d5-b5a3-c8f3e7fa6003"},"vehicle_type_id":"4","last_reported":1735488585,"current_range_meters":14000,"station_id":"ce4bh112rcd13ifvqda0","pricing_plan_id":"cebpf4jnsgd1na2vs0mg"},{"bike_id":"81b7dbd4-2034-4c75-9f95-f800613fb5e7","system_id":"levelo_inurba_marseille","lat":43.28161,"lon":5.42632,"is_reserved":false,"is_disabled":false,"rental_uris":{"android":"levelo://app?vid=81b7dbd4-2034-4c75-9f95-f800613fb5e7","ios":"levelo://app?vid=81b7dbd4-2034-4c75-9f95-f800613fb5e7"},"vehicle_type_id":"4","last_reported":1735488585,"current_range_meters":10800,"station_id":"ce4bhnh2rcd13ifvqgug","pricing_plan_id":"cebpf4jnsgd1na2vs0mg"},{"bike_id":"648cf23b-4b07-49a1-8461-b84a0b1b6cf3","system_id":"levelo_inurba_marseille","lat":43.27967,"lon":5.38704,"is_reserved":false,"is_disabled":false,"rental_uris":{"android":"levelo://app?vid=648cf23b-4b07-49a1-8461-b84a0b1b6cf3","ios":"levelo://app?vid=648cf23b-4b07-49a1-8461-b84a0b1b6cf3"},"vehicle_type_id":"4","last_reported":1735488585,"current_range_meters":30000,"station_id":"ce4bhg12rcd13ifvqf80","pricing_plan_id":"cebpf4jnsgd1na2vs0mg"},{"bike_id":"1988a0cb-db3f-4357-989b-45e02692230c","system_id":"levelo_inurba_marseille","lat":43.27569,"lon":5.38402,"is_reserved":false,"is_disabled":false,"rental_uris":{"android":"levelo://app?vid=1988a0cb-db3f-4357-989b-45e02692230c","ios":"levelo://app?vid=1988a0cb-db3f-4357-989b-45e02692230c"},"vehicle_type_id":"4","last_reported":1735488585,"current_range_meters":14400,"station_id":"ce4bhh92rcd13ifvqfi0","pricing_plan_id":"cebpf4jnsgd1na2vs0mg"},{"bike_id":"482b0b80-c53d-4d05-aa82-218b22575b6c","system_id":"levelo_inurba_marseille","lat":43.23161,"lon":5.43701,"is_reserved":false,"is_disabled":true,"rental_uris":{"android":"levelo://app?vid=482b0b80-c53d-4d05-aa82-218b22575b6c","ios":"levelo://app?vid=482b0b80-c53d-4d05-aa82-218b22575b6c"},"vehicle_type_id":"4","last_reported":1735488585,"current_range_meters":38000,"station_id":"ce4bhmp2rcd13ifvqgog","pricing_plan_id":"cebpf4jnsgd1na2vs0mg"},{"bike_id":"64e8eea7-ab85-4f6f-ba6a-aaa78e71867d","system_id":"levelo_inurba_marseille","lat":43.30326,"lon":5.40444,"is_reserved":false,"is_disabled":false,"rental_uris":{"android":"levelo://app?vid=64e8eea7-ab85-4f6f-ba6a-aaa78e71867d","ios":"levelo://app?vid=64e8eea7-ab85-4f6f-ba6a-aaa78e71867d"},"vehicle_type_id":"4","last_reported":1735488585,"current_range_meters":36800,"station_id":"ce4bh012rcd13ifvqd10","pricing_plan_id":"cebpf4jnsgd1na2vs0mg"},{"bike_id":"27d85c90-904b-4894-bd56-b68193995749","system_id":"levelo_inurba_marseille","lat":43.282757,"lon":5.350647,"is_reserved":false,"is_disabled":false,"rental_uris":{"android":"levelo://app?vid=27d85c90-904b-4894-bd56-b68193995749","ios":"levelo://app?vid=27d85c90-904b-4894-bd56-b68193995749"},"vehicle_type_id":"4","last_reported":1735488585,"current_range_meters":28400,"station_id":"ce4bhbp2rcd13ifvqerg","pricing_plan_id":"cebpf4jnsgd1na2vs0mg"},{"bike_id":"233a097a-4a1a-4237-8e06-ac2677069e9a","system_id":"levelo_inurba_marseille","lat":43.29423,"lon":5.38617,"is_reserved":false,"is_disabled":false,"rental_uris":{"android":"levelo://app?vid=233a097a-4a1a-4237-8e06-ac2677069e9a","ios":"levelo://app?vid=233a097a-4a1a-4237-8e06-ac2677069e9a"},"vehicle_type_id":"4","last_reported":1735488585,"current_range_meters":13600,"station_id":"ce4bh2h2rcd13ifvqdh0","pricing_plan_id":"cebpf4jnsgd1na2vs0mg"},{"bike_id":"4d598eae-1cfb-44eb-8092-aca2df872482","system_id":"levelo_inurba_marseille","lat":43.2307,"lon":5.35481,"is_reserved":false,"is_disabled":false,"rental_uris":{"android":"levelo://app?vid=4d598eae-1cfb-44eb-8092-aca2df872482","ios":"levelo://app?vid=4d598eae-1cfb-44eb-8092-aca2df872482"},"vehicle_type_id":"4","last_reported":1735488585,"current_range_meters":14400,"station_id":"cpo3342slgdg3j2ifvpg","pricing_plan_id":"cebpf4jnsgd1na2vs0mg"},{"bike_id":"59fc5870-b971-4cb3-9795-c1174dfeb490","system_id":"levelo_inurba_marseille","lat":43.24091,"lon":5.37768,"is_reserved":false,"is_disabled":false,"rental_uris":{"android":"levelo://app?vid=59fc5870-b971-4cb3-9795-c1174dfeb490","ios":"levelo://app?vid=59fc5870-b971-4cb3-9795-c1174dfeb490"},"vehicle_type_id":"4","last_reported":1735488585,"current_range_meters":33600,"station_id":"ce4bhnp2rcd13ifvqgvg","pricing_plan_id":"cebpf4jnsgd1na2vs0mg"},{"bike_id":"c4e33464-90ab-45ef-82c6-733a360bdee4","system_id":"levelo_inurba_marseille","lat":43.23206,"lon":5.39993,"is_reserved":false,"is_disabled":true,"rental_uris":{"android":"levelo://app?vid=c4e33464-90ab-45ef-82c6-733a360bdee4","ios":"levelo://app?vid=c4e33464-90ab-45ef-82c6-733a360bdee4"},"vehicle_type_id":"4","last_reported":1735488585,"current_range_meters":800,"station_id":"ce4bhn12rcd13ifvqgqg","pricing_plan_id":"cebpf4jnsgd1na2vs0mg"},{"bike_id":"4c8620d1-6de4-4287-83d5-1887e4de83a5","system_id":"levelo_inurba_marseille","lat":43.30608,"lon":5.37221,"is_reserved":false,"is_disabled":false,"rental_uris":{"android":"levelo://app?vid=4c8620d1-6de4-4287-83d5-1887e4de83a5","ios":"levelo://app?vid=4c8620d1-6de4-4287-83d5-1887e4de83a5"},"vehicle_type_id":"4","last_reported":1735488585,"current_range_meters":33600,"station_id":"ce4bgqh2rcd13ifvqc4g","pricing_plan_id":"cebpf4jnsgd1na2vs0mg"},{"bike_id":"139ba5af-cd52-4f53-9b4f-5ca42e118791","system_id":"levelo_inurba_marseille","lat":43.30601,"lon":5.37215,"is_reserved":false,"is_disabled":false,"rental_uris":{"android":"levelo://app?vid=139ba5af-cd52-4f53-9b4f-5ca42e118791","ios":"levelo://app?vid=139ba5af-cd52-4f53-9b4f-5ca42e118791"},"vehicle_type_id":"4","last_reported":1735488585,"current_range_meters":39200,"station_id":"ce4bgqh2rcd13ifvqc4g","pricing_plan_id":"cebpf4jnsgd1na2vs0mg"},{"bike_id":"f6a398ba-af8e-4fe3-a6c0-f28cb0077f88","system_id":"levelo_inurba_marseille","lat":43.28172,"lon":5.42657,"is_reserved":false,"is_disabled":false,"rental_uris":{"android":"levelo://app?vid=f6a398ba-af8e-4fe3-a6c0-f28cb0077f88","ios":"levelo://app?vid=f6a398ba-af8e-4fe3-a6c0-f28cb0077f88"},"vehicle_type_id":"4","last_reported":1735488585,"current_range_meters":20000,"station_id":"ce4bhnh2rcd13ifvqgug","pricing_plan_id":"cebpf4jnsgd1na2vs0mg"},{"bike_id":"0bcec2f5-0203-436b-a80c-c30c50ac99f3","system_id":"levelo_inurba_marseille","lat":43.27859,"lon":5.3881,"is_reserved":false,"is_disabled":false,"rental_uris":{"android":"levelo://app?vid=0bcec2f5-0203-436b-a80c-c30c50ac99f3","ios":"levelo://app?vid=0bcec2f5-0203-436b-a80c-c30c50ac99f3"},"vehicle_type_id":"4","last_reported":1735488585,"current_range_meters":22400,"station_id":"","pricing_plan_id":"cebpf4jnsgd1na2vs0mg"},{"bike_id":"7bd44d09-e872-4291-b548-1cbe40f16cac","system_id":"levelo_inurba_marseille","lat":43.2813,"lon":5.4264,"is_reserved":false,"is_disabled":false,"rental_uris":{"android":"levelo://app?vid=7bd44d09-e872-4291-b548-1cbe40f16cac","ios":"levelo://app?vid=7bd44d09-e872-4291-b548-1cbe40f16cac"},"vehicle_type_id":"4","last_reported":1735488585,"current_range_meters":24400,"station_id":"ce4bhnh2rcd13ifvqgug","pricing_plan_id":"cebpf4jnsgd1na2vs0mg"},{"bike_id":"d648ed32-95e8-4506-9861-c5c50b60ec2c","system_id":"levelo_inurba_marseille","lat":43.31089,"lon":5.42432,"is_reserved":false,"is_disabled":false,"rental_uris":{"android":"levelo://app?vid=d648ed32-95e8-4506-9861-c5c50b60ec2c","ios":"levelo://app?vid=d648ed32-95e8-4506-9861-c5c50b60ec2c"},"vehicle_type_id":"4","last_reported":1735488585,"current_range_meters":38800,"station_id":"ce4bhp92rcd13ifvqhag","pricing_plan_id":"cebpf4jnsgd1na2vs0mg"},{"bike_id":"d124b3fa-f3a5-4c6d-bebc-2f7ad1a1004e","system_id":"levelo_inurba_marseille","lat":43.26956,"lon":5.38634,"is_reserved":false,"is_disabled":false,"rental_uris":{"android":"levelo://app?vid=d124b3fa-f3a5-4c6d-bebc-2f7ad1a1004e","ios":"levelo://app?vid=d124b3fa-f3a5-4c6d-bebc-2f7ad1a1004e"},"vehicle_type_id":"4","last_reported":1735488585,"current_range_meters":38800,"station_id":"ce4bhh92rcd13ifvqfh0","pricing_plan_id":"cebpf4jnsgd1na2vs0mg"},{"bike_id":"7d2b3041-8127-45ad-8301-fa0d38ea46bb","system_id":"levelo_inurba_marseille","lat":43.30474,"lon":5.40174,"is_reserved":false,"is_disabled":false,"rental_uris":{"android":"levelo://app?vid=7d2b3041-8127-45ad-8301-fa0d38ea46bb","ios":"levelo://app?vid=7d2b3041-8127-45ad-8301-fa0d38ea46bb"},"vehicle_type_id":"4","last_reported":1735488585,"current_range_meters":36000,"station_id":"","pricing_plan_id":"cebpf4jnsgd1na2vs0mg"},{"bike_id":"725d27e0-ab38-49d8-bcf3-195c730fb97c","system_id":"levelo_inurba_marseille","lat":43.28983,"lon":5.37821,"is_reserved":false,"is_disabled":false,"rental_uris":{"android":"levelo://app?vid=725d27e0-ab38-49d8-bcf3-195c730fb97c","ios":"levelo://app?vid=725d27e0-ab38-49d8-bcf3-195c730fb97c"},"vehicle_type_id":"4","last_reported":1735488585,"current_range_meters":38000,"station_id":"ce4bh9p2rcd13ifvqed0","pricing_plan_id":"cebpf4jnsgd1na2vs0mg"},{"bike_id":"fcf332e6-d264-4d57-b172-6ccfd198d339","system_id":"levelo_inurba_marseille","lat":43.28608,"lon":5.37062,"is_reserved":false,"is_disabled":false,"rental_uris":{"android":"levelo://app?vid=fcf332e6-d264-4d57-b172-6ccfd198d339","ios":"levelo://app?vid=fcf332e6-d264-4d57-b172-6ccfd198d339"},"vehicle_type_id":"4","last_reported":1735488585,"current_range_meters":3600,"station_id":"ce4bht12rcd13ifvqi60","pricing_plan_id":"cebpf4jnsgd1na2vs0mg"},{"bike_id":"08d8f31c-cb73-45b4-8785-5e4b71fd666e","system_id":"levelo_inurba_marseille","lat":43.29531,"lon":5.38541,"is_reserved":false,"is_disabled":false,"rental_uris":{"android":"levelo://app?vid=08d8f31c-cb73-45b4-8785-5e4b71fd666e","ios":"levelo://app?vid=08d8f31c-cb73-45b4-8785-5e4b71fd666e"},"vehicle_type_id":"4","last_reported":1735488585,"current_range_meters":16800,"station_id":"ce4bgih2rcd13ifvqba0","pricing_plan_id":"cebpf4jnsgd1na2vs0mg"},{"bike_id":"1107b56a-98a5-4a01-8449-9eba086fee5a","system_id":"levelo_inurba_marseille","lat":43.29073,"lon":5.39883,"is_reserved":false,"is_disabled":true,"rental_uris":{"android":"levelo://app?vid=1107b56a-98a5-4a01-8449-9eba086fee5a","ios":"levelo://app?vid=1107b56a-98a5-4a01-8449-9eba086fee5a"},"vehicle_type_id":"4","last_reported":1735488585,"current_range_meters":15200,"station_id":"","pricing_plan_id":"cebpf4jnsgd1na2vs0mg"},{"bike_id":"d170c350-402a-4bb2-ace5-a19b016abf0f","system_id":"levelo_inurba_marseille","lat":43.29625,"lon":5.37151,"is_reserved":false,"is_disabled":false,"rental_uris":{"android":"levelo://app?vid=d170c350-402a-4bb2-ace5-a19b016abf0f","ios":"levelo://app?vid=d170c350-402a-4bb2-ace5-a19b016abf0f"},"vehicle_type_id":"4","last_reported":1735488585,"current_range_meters":38800,"station_id":"ce4bgnh2rcd13ifvqc0g","pricing_plan_id":"cebpf4jnsgd1na2vs0mg"},{"bike_id":"20b351ce-aa3b-4fc8-af62-864415db2c56","system_id":"levelo_inurba_marseille","lat":43.23071,"lon":5.35471,"is_reserved":false,"is_disabled":false,"rental_uris":{"android":"levelo://app?vid=20b351ce-aa3b-4fc8-af62-864415db2c56","ios":"levelo://app?vid=20b351ce-aa3b-4fc8-af62-864415db2c56"},"vehicle_type_id":"4","last_reported":1735488585,"current_range_meters":26000,"station_id":"cpo3342slgdg3j2ifvpg","pricing_plan_id":"cebpf4jnsgd1na2vs0mg"},{"bike_id":"2967c6fe-a090-41bc-aa72-92f710c67e02","system_id":"levelo_inurba_marseille","lat":43.27983,"lon":5.38751,"is_reserved":false,"is_disabled":false,"rental_uris":{"android":"levelo://app?vid=2967c6fe-a090-41bc-aa72-92f710c67e02","ios":"levelo://app?vid=2967c6fe-a090-41bc-aa72-92f710c67e02"},"vehicle_type_id":"4","last_reported":1735488585,"current_range_meters":27600,"station_id":"ce4bhg12rcd13ifvqf80","pricing_plan_id":"cebpf4jnsgd1na2vs0mg"},{"bike_id":"06cba798-43f6-46d0-8a8f-7853683e721d","system_id":"levelo_inurba_marseille","lat":43.2707,"lon":5.42275,"is_reserved":false,"is_disabled":false,"rental_uris":{"android":"levelo://app?vid=06cba798-43f6-46d0-8a8f-7853683e721d","ios":"levelo://app?vid=06cba798-43f6-46d0-8a8f-7853683e721d"},"vehicle_type_id":"4","last_reported":1735488585,"current_range_meters":30800,"station_id":"ce4bhk92rcd13ifvqgb0","pricing_plan_id":"cebpf4jnsgd1na2vs0mg"},{"bike_id":"dea518ee-3309-45db-93e6-1a3a669baccb","system_id":"levelo_inurba_marseille","lat":43.28944,"lon":5.36632,"is_reserved":false,"is_disabled":false,"rental_uris":{"android":"levelo://app?vid=dea518ee-3309-45db-93e6-1a3a669baccb","ios":"levelo://app?vid=dea518ee-3309-45db-93e6-1a3a669baccb"},"vehicle_type_id":"4","last_reported":1735488585,"current_range_meters":20000,"station_id":"ce4bhap2rcd13ifvqek0","pricing_plan_id":"cebpf4jnsgd1na2vs0mg"},{"bike_id":"8c265605-84f9-4d39-92bd-998a7850a564","system_id":"levelo_inurba_marseille","lat":43.23202,"lon":5.35725,"is_reserved":false,"is_disabled":false,"rental_uris":{"android":"levelo://app?vid=8c265605-84f9-4d39-92bd-998a7850a564","ios":"levelo://app?vid=8c265605-84f9-4d39-92bd-998a7850a564"},"vehicle_type_id":"4","last_reported":1735488585,"current_range_meters":17200,"station_id":"ce4bhu92rcd13ifvqi70","pricing_plan_id":"cebpf4jnsgd1na2vs0mg"},{"bike_id":"8a613f5a-5979-4022-a092-2888a966fd1d","system_id":"levelo_inurba_marseille","lat":43.30573,"lon":5.37154,"is_reserved":false,"is_disabled":false,"rental_uris":{"android":"levelo://app?vid=8a613f5a-5979-4022-a092-2888a966fd1d","ios":"levelo://app?vid=8a613f5a-5979-4022-a092-2888a966fd1d"},"vehicle_type_id":"4","last_reported":1735488585,"current_range_meters":38800,"station_id":"","pricing_plan_id":"cebpf4jnsgd1na2vs0mg"},{"bike_id":"57869636-6c57-433c-84df-16414c4c43f3","system_id":"levelo_inurba_marseille","lat":43.29871,"lon":5.39717,"is_reserved":false,"is_disabled":false,"rental_uris":{"android":"levelo://app?vid=57869636-6c57-433c-84df-16414c4c43f3","ios":"levelo://app?vid=57869636-6c57-433c-84df-16414c4c43f3"},"vehicle_type_id":"4","last_reported":1735488585,"current_range_meters":9200,"station_id":"ce4bh0h2rcd13ifvqd50","pricing_plan_id":"cebpf4jnsgd1na2vs0mg"},{"bike_id":"6d2b8c78-3d8e-43ff-8b55-8413e35b30b4","system_id":"levelo_inurba_marseille","lat":43.29182,"lon":5.35796,"is_reserved":false,"is_disabled":false,"rental_uris":{"android":"levelo://app?vid=6d2b8c78-3d8e-43ff-8b55-8413e35b30b4","ios":"levelo://app?vid=6d2b8c78-3d8e-43ff-8b55-8413e35b30b4"},"vehicle_type_id":"4","last_reported":1735488585,"current_range_meters":10000,"station_id":"ce4bhb12rcd13ifvqel0","pricing_plan_id":"cebpf4jnsgd1na2vs0mg"},{"bike_id":"731bb0c1-af09-4dd7-8187-8a856a9319fb","system_id":"levelo_inurba_marseille","lat":43.29264,"lon":5.38428,"is_reserved":false,"is_disabled":false,"rental_uris":{"android":"levelo://app?vid=731bb0c1-af09-4dd7-8187-8a856a9319fb","ios":"levelo://app?vid=731bb0c1-af09-4dd7-8187-8a856a9319fb"},"vehicle_type_id":"4","last_reported":1735488585,"current_range_meters":30000,"station_id":"ce4bh692rcd13ifvqea0","pricing_plan_id":"cebpf4jnsgd1na2vs0mg"},{"bike_id":"9141827a-cd60-47bf-acf1-a8efbc1eb007","system_id":"levelo_inurba_marseille","lat":43.28002,"lon":5.40009,"is_reserved":false,"is_disabled":false,"rental_uris":{"android":"levelo://app?vid=9141827a-cd60-47bf-acf1-a8efbc1eb007","ios":"levelo://app?vid=9141827a-cd60-47bf-acf1-a8efbc1eb007"},"vehicle_type_id":"4","last_reported":1735488585,"current_range_meters":38800,"station_id":"ce4bho92rcd13ifvqh4g","pricing_plan_id":"cebpf4jnsgd1na2vs0mg"},{"bike_id":"ffd8c34d-1d09-4cfb-be16-965e5ee8d3eb","system_id":"levelo_inurba_marseille","lat":43.26556,"lon":5.37291,"is_reserved":false,"is_disabled":false,"rental_uris":{"android":"levelo://app?vid=ffd8c34d-1d09-4cfb-be16-965e5ee8d3eb","ios":"levelo://app?vid=ffd8c34d-1d09-4cfb-be16-965e5ee8d3eb"},"vehicle_type_id":"4","last_reported":1735488585,"current_range_meters":17600,"station_id":"ce4bhg12rcd13ifvqf70","pricing_plan_id":"cebpf4jnsgd1na2vs0mg"},{"bike_id":"41e441a8-4ad2-4bf0-81ba-96c35feaf6d8","system_id":"levelo_inurba_marseille","lat":43.28154,"lon":5.42639,"is_reserved":false,"is_disabled":false,"rental_uris":{"android":"levelo://app?vid=41e441a8-4ad2-4bf0-81ba-96c35feaf6d8","ios":"levelo://app?vid=41e441a8-4ad2-4bf0-81ba-96c35feaf6d8"},"vehicle_type_id":"4","last_reported":1735488585,"current_range_meters":28000,"station_id":"ce4bhnh2rcd13ifvqgug","pricing_plan_id":"cebpf4jnsgd1na2vs0mg"},{"bike_id":"26d256bf-db09-4e94-8803-6c6252f367b1","system_id":"levelo_inurba_marseille","lat":43.26562,"lon":5.37291,"is_reserved":false,"is_disabled":false,"rental_uris":{"android":"levelo://app?vid=26d256bf-db09-4e94-8803-6c6252f367b1","ios":"levelo://app?vid=26d256bf-db09-4e94-8803-6c6252f367b1"},"vehicle_type_id":"4","last_reported":1735488585,"current_range_meters":38800,"station_id":"ce4bhg12rcd13ifvqf70","pricing_plan_id":"cebpf4jnsgd1na2vs0mg"},{"bike_id":"b0d45b52-6895-4f7d-b544-51d0d9d0ee35","system_id":"levelo_inurba_marseille","lat":43.30546,"lon":5.36697,"is_reserved":false,"is_disabled":true,"rental_uris":{"android":"levelo://app?vid=b0d45b52-6895-4f7d-b544-51d0d9d0ee35","ios":"levelo://app?vid=b0d45b52-6895-4f7d-b544-51d0d9d0ee35"},"vehicle_type_id":"4","last_reported":1735488585,"current_range_meters":0,"station_id":"ce4bgrp2rcd13ifvqc9g","pricing_plan_id":"cebpf4jnsgd1na2vs0mg"},{"bike_id":"9cbeea91-6305-4ee1-ad7f-82772e35ad52","system_id":"levelo_inurba_marseille","lat":43.28184,"lon":5.42653,"is_reserved":false,"is_disabled":false,"rental_uris":{"android":"levelo://app?vid=9cbeea91-6305-4ee1-ad7f-82772e35ad52","ios":"levelo://app?vid=9cbeea91-6305-4ee1-ad7f-82772e35ad52"},"vehicle_type_id":"4","last_reported":1735488585,"current_range_meters":27200,"station_id":"ce4bhnh2rcd13ifvqgug","pricing_plan_id":"cebpf4jnsgd1na2vs0mg"},{"bike_id":"5639f52b-1196-4558-b062-4f7891cec443","system_id":"levelo_inurba_marseille","lat":43.28418,"lon":5.37536,"is_reserved":false,"is_disabled":true,"rental_uris":{"android":"levelo://app?vid=5639f52b-1196-4558-b062-4f7891cec443","ios":"levelo://app?vid=5639f52b-1196-4558-b062-4f7891cec443"},"vehicle_type_id":"4","last_reported":1735488585,"current_range_meters":25200,"station_id":"ce4bh412rcd13ifvqds0","pricing_plan_id":"cebpf4jnsgd1na2vs0mg"},{"bike_id":"1727a0bf-5c41-4aa7-be74-58dfcc6e8f12","system_id":"levelo_inurba_marseille","lat":43.31505,"lon":5.37313,"is_reserved":false,"is_disabled":false,"rental_uris":{"android":"levelo://app?vid=1727a0bf-5c41-4aa7-be74-58dfcc6e8f12","ios":"levelo://app?vid=1727a0bf-5c41-4aa7-be74-58dfcc6e8f12"},"vehicle_type_id":"4","last_reported":1735488585,"current_range_meters":38800,"station_id":"ce4bgt12rcd13ifvqcd0","pricing_plan_id":"cebpf4jnsgd1na2vs0mg"},{"bike_id":"43f6acee-0569-479b-b44d-6ba1dec2476a","system_id":"levelo_inurba_marseille","lat":43.29976,"lon":5.3849,"is_reserved":false,"is_disabled":false,"rental_uris":{"android":"levelo://app?vid=43f6acee-0569-479b-b44d-6ba1dec2476a","ios":"levelo://app?vid=43f6acee-0569-479b-b44d-6ba1dec2476a"},"vehicle_type_id":"4","last_reported":1735488585,"current_range_meters":33200,"station_id":"ce4bgj92rcd13ifvqbd0","pricing_plan_id":"cebpf4jnsgd1na2vs0mg"},{"bike_id":"e0bc7d62-cb01-41bd-ae7c-f1008a168512","system_id":"levelo_inurba_marseille","lat":43.26205,"lon":5.37925,"is_reserved":false,"is_disabled":false,"rental_uris":{"android":"levelo://app?vid=e0bc7d62-cb01-41bd-ae7c-f1008a168512","ios":"levelo://app?vid=e0bc7d62-cb01-41bd-ae7c-f1008a168512"},"vehicle_type_id":"4","last_reported":1735488585,"current_range_meters":32400,"station_id":"ce4bhjp2rcd13ifvqg90","pricing_plan_id":"cebpf4jnsgd1na2vs0mg"},{"bike_id":"c4464463-92cc-48b8-b950-7ed437f91335","system_id":"levelo_inurba_marseille","lat":43.29219,"lon":5.3605,"is_reserved":false,"is_disabled":false,"rental_uris":{"android":"levelo://app?vid=c4464463-92cc-48b8-b950-7ed437f91335","ios":"levelo://app?vid=c4464463-92cc-48b8-b950-7ed437f91335"},"vehicle_type_id":"4","last_reported":1735488585,"current_range_meters":34000,"station_id":"ce4bhbh2rcd13ifvqeqg","pricing_plan_id":"cebpf4jnsgd1na2vs0mg"},{"bike_id":"3f23ecd4-40eb-4d91-9c06-2ef1ef8e81a6","system_id":"levelo_inurba_marseille","lat":43.28285,"lon":5.35077,"is_reserved":false,"is_disabled":false,"rental_uris":{"android":"levelo://app?vid=3f23ecd4-40eb-4d91-9c06-2ef1ef8e81a6","ios":"levelo://app?vid=3f23ecd4-40eb-4d91-9c06-2ef1ef8e81a6"},"vehicle_type_id":"4","last_reported":1735488585,"current_range_meters":35200,"station_id":"ce4bhbp2rcd13ifvqerg","pricing_plan_id":"cebpf4jnsgd1na2vs0mg"},{"bike_id":"356fd92d-e963-40e6-b40e-58fc72ac9553","system_id":"levelo_inurba_marseille","lat":43.32108,"lon":5.3678,"is_reserved":false,"is_disabled":false,"rental_uris":{"android":"levelo://app?vid=356fd92d-e963-40e6-b40e-58fc72ac9553","ios":"levelo://app?vid=356fd92d-e963-40e6-b40e-58fc72ac9553"},"vehicle_type_id":"4","last_reported":1735488585,"current_range_meters":36800,"station_id":"ce4bhrh2rcd13ifvqhug","pricing_plan_id":"cebpf4jnsgd1na2vs0mg"},{"bike_id":"67ace3d6-f856-461e-bae1-ce541a83d8dd","system_id":"levelo_inurba_marseille","lat":43.23216,"lon":5.35554,"is_reserved":false,"is_disabled":false,"rental_uris":{"android":"levelo://app?vid=67ace3d6-f856-461e-bae1-ce541a83d8dd","ios":"levelo://app?vid=67ace3d6-f856-461e-bae1-ce541a83d8dd"},"vehicle_type_id":"4","last_reported":1735488585,"current_range_meters":2800,"station_id":"ce4bhu92rcd13ifvqi70","pricing_plan_id":"cebpf4jnsgd1na2vs0mg"},{"bike_id":"12b64bf2-4ce1-4146-af5b-eb3b72f8d5ae","system_id":"levelo_inurba_marseille","lat":43.25726,"lon":5.41107,"is_reserved":false,"is_disabled":false,"rental_uris":{"android":"levelo://app?vid=12b64bf2-4ce1-4146-af5b-eb3b72f8d5ae","ios":"levelo://app?vid=12b64bf2-4ce1-4146-af5b-eb3b72f8d5ae"},"vehicle_type_id":"4","last_reported":1735488585,"current_range_meters":38800,"station_id":"ce4bhkp2rcd13ifvqgd0","pricing_plan_id":"cebpf4jnsgd1na2vs0mg"},{"bike_id":"c4151bcc-08e3-4540-b001-aa1854338dab","system_id":"levelo_inurba_marseille","lat":43.27633,"lon":5.36111,"is_reserved":false,"is_disabled":false,"rental_uris":{"android":"levelo://app?vid=c4151bcc-08e3-4540-b001-aa1854338dab","ios":"levelo://app?vid=c4151bcc-08e3-4540-b001-aa1854338dab"},"vehicle_type_id":"4","last_reported":1735488585,"current_range_meters":4400,"station_id":"ce4bgj92rcd13ifvqbe0","pricing_plan_id":"cebpf4jnsgd1na2vs0mg"},{"bike_id":"9cf47541-6d81-40c9-9a0a-10f52490d028","system_id":"levelo_inurba_marseille","lat":43.23154,"lon":5.43702,"is_reserved":false,"is_disabled":false,"rental_uris":{"android":"levelo://app?vid=9cf47541-6d81-40c9-9a0a-10f52490d028","ios":"levelo://app?vid=9cf47541-6d81-40c9-9a0a-10f52490d028"},"vehicle_type_id":"4","last_reported":1735488585,"current_range_meters":12000,"station_id":"ce4bhmp2rcd13ifvqgog","pricing_plan_id":"cebpf4jnsgd1na2vs0mg"},{"bike_id":"a0a23f3e-a7a3-4649-a9f6-4d7c21f4f9e5","system_id":"levelo_inurba_marseille","lat":43.29679,"lon":5.37289,"is_reserved":false,"is_disabled":false,"rental_uris":{"android":"levelo://app?vid=a0a23f3e-a7a3-4649-a9f6-4d7c21f4f9e5","ios":"levelo://app?vid=a0a23f3e-a7a3-4649-a9f6-4d7c21f4f9e5"},"vehicle_type_id":"4","last_reported":1735488585,"current_range_meters":38800,"station_id":"ce4bgk12rcd13ifvqbj0","pricing_plan_id":"cebpf4jnsgd1na2vs0mg"},{"bike_id":"4ff07c24-5f71-48e2-ae35-b8ed4c8088e4","system_id":"levelo_inurba_marseille","lat":43.29221,"lon":5.3608,"is_reserved":false,"is_disabled":false,"rental_uris":{"android":"levelo://app?vid=4ff07c24-5f71-48e2-ae35-b8ed4c8088e4","ios":"levelo://app?vid=4ff07c24-5f71-48e2-ae35-b8ed4c8088e4"},"vehicle_type_id":"4","last_reported":1735488585,"current_range_meters":31200,"station_id":"ce4bhbh2rcd13ifvqeqg","pricing_plan_id":"cebpf4jnsgd1na2vs0mg"},{"bike_id":"5055049c-e7a1-4b11-8693-0ad632a3d8d7","system_id":"levelo_inurba_marseille","lat":43.26952,"lon":5.38631,"is_reserved":false,"is_disabled":false,"rental_uris":{"android":"levelo://app?vid=5055049c-e7a1-4b11-8693-0ad632a3d8d7","ios":"levelo://app?vid=5055049c-e7a1-4b11-8693-0ad632a3d8d7"},"vehicle_type_id":"4","last_reported":1735488585,"current_range_meters":17200,"station_id":"ce4bhh92rcd13ifvqfh0","pricing_plan_id":"cebpf4jnsgd1na2vs0mg"},{"bike_id":"a7322e7d-fa1c-435c-b4da-98cb797fb06e","system_id":"levelo_inurba_marseille","lat":43.30603,"lon":5.37213,"is_reserved":false,"is_disabled":false,"rental_uris":{"android":"levelo://app?vid=a7322e7d-fa1c-435c-b4da-98cb797fb06e","ios":"levelo://app?vid=a7322e7d-fa1c-435c-b4da-98cb797fb06e"},"vehicle_type_id":"4","last_reported":1735488585,"current_range_meters":39200,"station_id":"ce4bgqh2rcd13ifvqc4g","pricing_plan_id":"cebpf4jnsgd1na2vs0mg"},{"bike_id":"673ed0fe-3027-4e1f-9efc-2804b0e32190","system_id":"levelo_inurba_marseille","lat":43.2669,"lon":5.3827,"is_reserved":false,"is_disabled":false,"rental_uris":{"android":"levelo://app?vid=673ed0fe-3027-4e1f-9efc-2804b0e32190","ios":"levelo://app?vid=673ed0fe-3027-4e1f-9efc-2804b0e32190"},"vehicle_type_id":"4","last_reported":1735488585,"current_range_meters":38800,"station_id":"ce4bhg92rcd13ifvqf90","pricing_plan_id":"cebpf4jnsgd1na2vs0mg"},{"bike_id":"a077f749-b88f-462a-b8ef-557e58db968d","system_id":"levelo_inurba_marseille","lat":43.3016,"lon":5.38079,"is_reserved":false,"is_disabled":false,"rental_uris":{"android":"levelo://app?vid=a077f749-b88f-462a-b8ef-557e58db968d","ios":"levelo://app?vid=a077f749-b88f-462a-b8ef-557e58db968d"},"vehicle_type_id":"4","last_reported":1735488585,"current_range_meters":26800,"station_id":"ce4bgjp2rcd13ifvqbh0","pricing_plan_id":"cebpf4jnsgd1na2vs0mg"},{"bike_id":"f4f2187e-53f0-46af-88e1-2e6c1fbf9286","system_id":"levelo_inurba_marseille","lat":43.30784,"lon":5.37657,"is_reserved":false,"is_disabled":false,"rental_uris":{"android":"levelo://app?vid=f4f2187e-53f0-46af-88e1-2e6c1fbf9286","ios":"levelo://app?vid=f4f2187e-53f0-46af-88e1-2e6c1fbf9286"},"vehicle_type_id":"4","last_reported":1735488585,"current_range_meters":36800,"station_id":"ce4bgv92rcd13ifvqcq0","pricing_plan_id":"cebpf4jnsgd1na2vs0mg"},{"bike_id":"9eb7b9f3-106c-4e64-badd-640107d9d620","system_id":"levelo_inurba_marseille","lat":43.25003,"lon":5.38936,"is_reserved":false,"is_disabled":false,"rental_uris":{"android":"levelo://app?vid=9eb7b9f3-106c-4e64-badd-640107d9d620","ios":"levelo://app?vid=9eb7b9f3-106c-4e64-badd-640107d9d620"},"vehicle_type_id":"4","last_reported":1735488585,"current_range_meters":20000,"station_id":"ce4bhgp2rcd13ifvqfd0","pricing_plan_id":"cebpf4jnsgd1na2vs0mg"},{"bike_id":"e70ce8bb-674e-436b-ab6d-79ca756c291a","system_id":"levelo_inurba_marseille","lat":43.25731,"lon":5.41108,"is_reserved":false,"is_disabled":false,"rental_uris":{"android":"levelo://app?vid=e70ce8bb-674e-436b-ab6d-79ca756c291a","ios":"levelo://app?vid=e70ce8bb-674e-436b-ab6d-79ca756c291a"},"vehicle_type_id":"4","last_reported":1735488585,"current_range_meters":30800,"station_id":"ce4bhkp2rcd13ifvqgd0","pricing_plan_id":"cebpf4jnsgd1na2vs0mg"},{"bike_id":"c8d1c33c-78e9-42be-a881-5b72ffd6d815","system_id":"levelo_inurba_marseille","lat":43.29919,"lon":5.374676,"is_reserved":false,"is_disabled":false,"rental_uris":{"android":"levelo://app?vid=c8d1c33c-78e9-42be-a881-5b72ffd6d815","ios":"levelo://app?vid=c8d1c33c-78e9-42be-a881-5b72ffd6d815"},"vehicle_type_id":"4","last_reported":1735488585,"current_range_meters":39200,"station_id":"ce4bgjh2rcd13ifvqbg0","pricing_plan_id":"cebpf4jnsgd1na2vs0mg"},{"bike_id":"0344f336-00ff-4388-b353-9f72a30c331a","system_id":"levelo_inurba_marseille","lat":43.28616,"lon":5.35097,"is_reserved":false,"is_disabled":false,"rental_uris":{"android":"levelo://app?vid=0344f336-00ff-4388-b353-9f72a30c331a","ios":"levelo://app?vid=0344f336-00ff-4388-b353-9f72a30c331a"},"vehicle_type_id":"4","last_reported":1735488585,"current_range_meters":24000,"station_id":"ce4bhch2rcd13ifvqeug","pricing_plan_id":"cebpf4jnsgd1na2vs0mg"},{"bike_id":"182697cb-2219-4e08-8291-846687f91a97","system_id":"levelo_inurba_marseille","lat":43.28161,"lon":5.42639,"is_reserved":false,"is_disabled":false,"rental_uris":{"android":"levelo://app?vid=182697cb-2219-4e08-8291-846687f91a97","ios":"levelo://app?vid=182697cb-2219-4e08-8291-846687f91a97"},"vehicle_type_id":"4","last_reported":1735488585,"current_range_meters":36400,"station_id":"ce4bhnh2rcd13ifvqgug","pricing_plan_id":"cebpf4jnsgd1na2vs0mg"},{"bike_id":"e1bcf252-18b4-4805-9368-7dd66d02d24f","system_id":"levelo_inurba_marseille","lat":43.29062,"lon":5.37171,"is_reserved":false,"is_disabled":false,"rental_uris":{"android":"levelo://app?vid=e1bcf252-18b4-4805-9368-7dd66d02d24f","ios":"levelo://app?vid=e1bcf252-18b4-4805-9368-7dd66d02d24f"},"vehicle_type_id":"4","last_reported":1735488585,"current_range_meters":32000,"station_id":"ce4bh5p2rcd13ifvqe4g","pricing_plan_id":"cebpf4jnsgd1na2vs0mg"},{"bike_id":"35142cb1-da84-4465-a902-1b70f5829b31","system_id":"levelo_inurba_marseille","lat":43.25757,"lon":5.41107,"is_reserved":false,"is_disabled":false,"rental_uris":{"android":"levelo://app?vid=35142cb1-da84-4465-a902-1b70f5829b31","ios":"levelo://app?vid=35142cb1-da84-4465-a902-1b70f5829b31"},"vehicle_type_id":"4","last_reported":1735488585,"current_range_meters":38800,"station_id":"","pricing_plan_id":"cebpf4jnsgd1na2vs0mg"},{"bike_id":"a508a2a9-cebc-4298-b965-9edb99957faa","system_id":"levelo_inurba_marseille","lat":43.29712,"lon":5.37699,"is_reserved":false,"is_disabled":false,"rental_uris":{"android":"levelo://app?vid=a508a2a9-cebc-4298-b965-9edb99957faa","ios":"levelo://app?vid=a508a2a9-cebc-4298-b965-9edb99957faa"},"vehicle_type_id":"4","last_reported":1735488585,"current_range_meters":32000,"station_id":"ce4bgkh2rcd13ifvqbl0","pricing_plan_id":"cebpf4jnsgd1na2vs0mg"},{"bike_id":"df0eb88d-fd2c-4e51-b29b-0b4e96cdb399","system_id":"levelo_inurba_marseille","lat":43.2816,"lon":5.42638,"is_reserved":false,"is_disabled":false,"rental_uris":{"android":"levelo://app?vid=df0eb88d-fd2c-4e51-b29b-0b4e96cdb399","ios":"levelo://app?vid=df0eb88d-fd2c-4e51-b29b-0b4e96cdb399"},"vehicle_type_id":"4","last_reported":1735488585,"current_range_meters":30400,"station_id":"ce4bhnh2rcd13ifvqgug","pricing_plan_id":"cebpf4jnsgd1na2vs0mg"},{"bike_id":"d1ecf04e-a21b-4f52-84c8-374e0cbdfc54","system_id":"levelo_inurba_marseille","lat":43.29259,"lon":5.40914,"is_reserved":false,"is_disabled":false,"rental_uris":{"android":"levelo://app?vid=d1ecf04e-a21b-4f52-84c8-374e0cbdfc54","ios":"levelo://app?vid=d1ecf04e-a21b-4f52-84c8-374e0cbdfc54"},"vehicle_type_id":"4","last_reported":1735488585,"current_range_meters":39200,"station_id":"ce4bh192rcd13ifvqdc0","pricing_plan_id":"cebpf4jnsgd1na2vs0mg"},{"bike_id":"b05b2056-1756-4acc-b9bc-e5f9e37c6e15","system_id":"levelo_inurba_marseille","lat":43.27067,"lon":5.42278,"is_reserved":false,"is_disabled":false,"rental_uris":{"android":"levelo://app?vid=b05b2056-1756-4acc-b9bc-e5f9e37c6e15","ios":"levelo://app?vid=b05b2056-1756-4acc-b9bc-e5f9e37c6e15"},"vehicle_type_id":"4","last_reported":1735488585,"current_range_meters":33200,"station_id":"ce4bhk92rcd13ifvqgb0","pricing_plan_id":"cebpf4jnsgd1na2vs0mg"},{"bike_id":"585de49c-4b3d-4a09-97c5-0ee13dcc1b7c","system_id":"levelo_inurba_marseille","lat":43.295567,"lon":5.422861,"is_reserved":false,"is_disabled":false,"rental_uris":{"android":"levelo://app?vid=585de49c-4b3d-4a09-97c5-0ee13dcc1b7c","ios":"levelo://app?vid=585de49c-4b3d-4a09-97c5-0ee13dcc1b7c"},"vehicle_type_id":"4","last_reported":1735488585,"current_range_meters":38800,"station_id":"ce4bhph2rcd13ifvqhdg","pricing_plan_id":"cebpf4jnsgd1na2vs0mg"},{"bike_id":"97fc9c01-30fa-4894-9fb1-636bdfc835c5","system_id":"levelo_inurba_marseille","lat":43.25734,"lon":5.41113,"is_reserved":false,"is_disabled":false,"rental_uris":{"android":"levelo://app?vid=97fc9c01-30fa-4894-9fb1-636bdfc835c5","ios":"levelo://app?vid=97fc9c01-30fa-4894-9fb1-636bdfc835c5"},"vehicle_type_id":"4","last_reported":1735488585,"current_range_meters":8400,"station_id":"ce4bhkp2rcd13ifvqgd0","pricing_plan_id":"cebpf4jnsgd1na2vs0mg"},{"bike_id":"309a9554-13e3-4a27-8da4-4d931614d914","system_id":"levelo_inurba_marseille","lat":43.29025,"lon":5.38126,"is_reserved":false,"is_disabled":true,"rental_uris":{"android":"levelo://app?vid=309a9554-13e3-4a27-8da4-4d931614d914","ios":"levelo://app?vid=309a9554-13e3-4a27-8da4-4d931614d914"},"vehicle_type_id":"4","last_reported":1735488585,"current_range_meters":3600,"station_id":"ce4bh4p2rcd13ifvqe1g","pricing_plan_id":"cebpf4jnsgd1na2vs0mg"},{"bike_id":"3ea0cc3c-cc20-4b14-a31b-5bdd225ba6d8","system_id":"levelo_inurba_marseille","lat":43.28363,"lon":5.38624,"is_reserved":false,"is_disabled":false,"rental_uris":{"android":"levelo://app?vid=3ea0cc3c-cc20-4b14-a31b-5bdd225ba6d8","ios":"levelo://app?vid=3ea0cc3c-cc20-4b14-a31b-5bdd225ba6d8"},"vehicle_type_id":"4","last_reported":1735488585,"current_range_meters":17600,"station_id":"ce4bh492rcd13ifvqdvg","pricing_plan_id":"cebpf4jnsgd1na2vs0mg"},{"bike_id":"1107af61-e211-41cf-b98e-f5d9cce08783","system_id":"levelo_inurba_marseille","lat":43.30886,"lon":5.37182,"is_reserved":false,"is_disabled":false,"rental_uris":{"android":"levelo://app?vid=1107af61-e211-41cf-b98e-f5d9cce08783","ios":"levelo://app?vid=1107af61-e211-41cf-b98e-f5d9cce08783"},"vehicle_type_id":"4","last_reported":1735488585,"current_range_meters":28400,"station_id":"ce4bguh2rcd13ifvqckg","pricing_plan_id":"cebpf4jnsgd1na2vs0mg"},{"bike_id":"2598d78b-c5cd-4ad1-8306-8c58913fa9c2","system_id":"levelo_inurba_marseille","lat":43.26562,"lon":5.42239,"is_reserved":false,"is_disabled":false,"rental_uris":{"android":"levelo://app?vid=2598d78b-c5cd-4ad1-8306-8c58913fa9c2","ios":"levelo://app?vid=2598d78b-c5cd-4ad1-8306-8c58913fa9c2"},"vehicle_type_id":"4","last_reported":1735488585,"current_range_meters":29600,"station_id":"","pricing_plan_id":"cebpf4jnsgd1na2vs0mg"},{"bike_id":"2d76d9f4-5ac3-420c-b7d3-8710df44025b","system_id":"levelo_inurba_marseille","lat":43.29558,"lon":5.42273,"is_reserved":false,"is_disabled":true,"rental_uris":{"android":"levelo://app?vid=2d76d9f4-5ac3-420c-b7d3-8710df44025b","ios":"levelo://app?vid=2d76d9f4-5ac3-420c-b7d3-8710df44025b"},"vehicle_type_id":"4","last_reported":1735488585,"current_range_meters":9200,"station_id":"ce4bhph2rcd13ifvqhdg","pricing_plan_id":"cebpf4jnsgd1na2vs0mg"},{"bike_id":"5477d212-35e2-4622-b27a-bfe5ff434d03","system_id":"levelo_inurba_marseille","lat":43.337603,"lon":5.374424,"is_reserved":false,"is_disabled":false,"rental_uris":{"android":"levelo://app?vid=5477d212-35e2-4622-b27a-bfe5ff434d03","ios":"levelo://app?vid=5477d212-35e2-4622-b27a-bfe5ff434d03"},"vehicle_type_id":"4","last_reported":1735488585,"current_range_meters":20000,"station_id":"","pricing_plan_id":"cebpf4jnsgd1na2vs0mg"},{"bike_id":"38c51c6f-1b3b-4622-a4dc-a1c9f916b788","system_id":"levelo_inurba_marseille","lat":43.26195,"lon":5.37454,"is_reserved":false,"is_disabled":false,"rental_uris":{"android":"levelo://app?vid=38c51c6f-1b3b-4622-a4dc-a1c9f916b788","ios":"levelo://app?vid=38c51c6f-1b3b-4622-a4dc-a1c9f916b788"},"vehicle_type_id":"4","last_reported":1735488585,"current_range_meters":27600,"station_id":"ce4bhgp2rcd13ifvqfc0","pricing_plan_id":"cebpf4jnsgd1na2vs0mg"},{"bike_id":"4cacea6a-712c-4b21-b2e7-3497e6c2c96a","system_id":"levelo_inurba_marseille","lat":43.28275,"lon":5.35065,"is_reserved":false,"is_disabled":false,"rental_uris":{"android":"levelo://app?vid=4cacea6a-712c-4b21-b2e7-3497e6c2c96a","ios":"levelo://app?vid=4cacea6a-712c-4b21-b2e7-3497e6c2c96a"},"vehicle_type_id":"4","last_reported":1735488585,"current_range_meters":23200,"station_id":"ce4bhbp2rcd13ifvqerg","pricing_plan_id":"cebpf4jnsgd1na2vs0mg"},{"bike_id":"9c699461-17d5-4077-8f28-482b484da4fe","system_id":"levelo_inurba_marseille","lat":43.29185,"lon":5.35816,"is_reserved":false,"is_disabled":false,"rental_uris":{"android":"levelo://app?vid=9c699461-17d5-4077-8f28-482b484da4fe","ios":"levelo://app?vid=9c699461-17d5-4077-8f28-482b484da4fe"},"vehicle_type_id":"4","last_reported":1735488585,"current_range_meters":2800,"station_id":"ce4bhb12rcd13ifvqel0","pricing_plan_id":"cebpf4jnsgd1na2vs0mg"},{"bike_id":"7aab2ffc-cec0-4dd6-981d-6bd7c8cbfd0b","system_id":"levelo_inurba_marseille","lat":43.26054,"lon":5.39399,"is_reserved":false,"is_disabled":true,"rental_uris":{"android":"levelo://app?vid=7aab2ffc-cec0-4dd6-981d-6bd7c8cbfd0b","ios":"levelo://app?vid=7aab2ffc-cec0-4dd6-981d-6bd7c8cbfd0b"},"vehicle_type_id":"4","last_reported":1735488585,"current_range_meters":38400,"station_id":"ce4bhh92rcd13ifvqfj0","pricing_plan_id":"cebpf4jnsgd1na2vs0mg"},{"bike_id":"9e5d4b40-7285-4f93-9efa-c01ba475f3b8","system_id":"levelo_inurba_marseille","lat":43.30615,"lon":5.37235,"is_reserved":false,"is_disabled":false,"rental_uris":{"android":"levelo://app?vid=9e5d4b40-7285-4f93-9efa-c01ba475f3b8","ios":"levelo://app?vid=9e5d4b40-7285-4f93-9efa-c01ba475f3b8"},"vehicle_type_id":"4","last_reported":1735488585,"current_range_meters":17600,"station_id":"ce4bgqh2rcd13ifvqc4g","pricing_plan_id":"cebpf4jnsgd1na2vs0mg"},{"bike_id":"23a4d441-2165-4230-9340-c5327bee924b","system_id":"levelo_inurba_marseille","lat":43.24898,"lon":5.37508,"is_reserved":false,"is_disabled":false,"rental_uris":{"android":"levelo://app?vid=23a4d441-2165-4230-9340-c5327bee924b","ios":"levelo://app?vid=23a4d441-2165-4230-9340-c5327bee924b"},"vehicle_type_id":"4","last_reported":1735488585,"current_range_meters":19600,"station_id":"","pricing_plan_id":"cebpf4jnsgd1na2vs0mg"},{"bike_id":"59247496-0f6b-4a3a-875b-8261892635cf","system_id":"levelo_inurba_marseille","lat":43.28358,"lon":5.38632,"is_reserved":false,"is_disabled":false,"rental_uris":{"android":"levelo://app?vid=59247496-0f6b-4a3a-875b-8261892635cf","ios":"levelo://app?vid=59247496-0f6b-4a3a-875b-8261892635cf"},"vehicle_type_id":"4","last_reported":1735488585,"current_range_meters":12400,"station_id":"ce4bh492rcd13ifvqdvg","pricing_plan_id":"cebpf4jnsgd1na2vs0mg"},{"bike_id":"b3a22d3f-7399-4a51-a5ee-8e43c846f17c","system_id":"levelo_inurba_marseille","lat":43.30613,"lon":5.37251,"is_reserved":false,"is_disabled":true,"rental_uris":{"android":"levelo://app?vid=b3a22d3f-7399-4a51-a5ee-8e43c846f17c","ios":"levelo://app?vid=b3a22d3f-7399-4a51-a5ee-8e43c846f17c"},"vehicle_type_id":"4","last_reported":1735488585,"current_range_meters":9600,"station_id":"ce4bgqh2rcd13ifvqc4g","pricing_plan_id":"cebpf4jnsgd1na2vs0mg"},{"bike_id":"a9fa3d0c-8669-4d62-8eb2-a587f4a9779c","system_id":"levelo_inurba_marseille","lat":43.27916,"lon":5.39566,"is_reserved":false,"is_disabled":true,"rental_uris":{"android":"levelo://app?vid=a9fa3d0c-8669-4d62-8eb2-a587f4a9779c","ios":"levelo://app?vid=a9fa3d0c-8669-4d62-8eb2-a587f4a9779c"},"vehicle_type_id":"4","last_reported":1735488585,"current_range_meters":35200,"station_id":"ce4bhf92rcd13ifvqf40","pricing_plan_id":"cebpf4jnsgd1na2vs0mg"},{"bike_id":"b1c0ee8d-93e8-4cc8-82d6-c539d877336e","system_id":"levelo_inurba_marseille","lat":43.24393,"lon":5.37061,"is_reserved":false,"is_disabled":false,"rental_uris":{"android":"levelo://app?vid=b1c0ee8d-93e8-4cc8-82d6-c539d877336e","ios":"levelo://app?vid=b1c0ee8d-93e8-4cc8-82d6-c539d877336e"},"vehicle_type_id":"4","last_reported":1735488585,"current_range_meters":39200,"station_id":"ce4bhhh2rcd13ifvqfk0","pricing_plan_id":"cebpf4jnsgd1na2vs0mg"},{"bike_id":"b1e5579e-3648-4585-8402-2a9c4624ad25","system_id":"levelo_inurba_marseille","lat":43.26201,"lon":5.37928,"is_reserved":false,"is_disabled":false,"rental_uris":{"android":"levelo://app?vid=b1e5579e-3648-4585-8402-2a9c4624ad25","ios":"levelo://app?vid=b1e5579e-3648-4585-8402-2a9c4624ad25"},"vehicle_type_id":"4","last_reported":1735488585,"current_range_meters":20000,"station_id":"ce4bhjp2rcd13ifvqg90","pricing_plan_id":"cebpf4jnsgd1na2vs0mg"},{"bike_id":"7a3b2a52-2875-471f-a059-730e5443442b","system_id":"levelo_inurba_marseille","lat":43.30466,"lon":5.37906,"is_reserved":false,"is_disabled":false,"rental_uris":{"android":"levelo://app?vid=7a3b2a52-2875-471f-a059-730e5443442b","ios":"levelo://app?vid=7a3b2a52-2875-471f-a059-730e5443442b"},"vehicle_type_id":"4","last_reported":1735488585,"current_range_meters":17200,"station_id":"ce4bgup2rcd13ifvqcn0","pricing_plan_id":"cebpf4jnsgd1na2vs0mg"},{"bike_id":"ffee1acd-67fd-46c8-9d8e-d3d42484b023","system_id":"levelo_inurba_marseille","lat":43.29006,"lon":5.35579,"is_reserved":false,"is_disabled":false,"rental_uris":{"android":"levelo://app?vid=ffee1acd-67fd-46c8-9d8e-d3d42484b023","ios":"levelo://app?vid=ffee1acd-67fd-46c8-9d8e-d3d42484b023"},"vehicle_type_id":"4","last_reported":1735488585,"current_range_meters":25600,"station_id":"ce4bhb92rcd13ifvqen0","pricing_plan_id":"cebpf4jnsgd1na2vs0mg"},{"bike_id":"a5f518bb-4119-4201-87a3-1707c496c472","system_id":"levelo_inurba_marseille","lat":43.29223,"lon":5.3606,"is_reserved":false,"is_disabled":false,"rental_uris":{"android":"levelo://app?vid=a5f518bb-4119-4201-87a3-1707c496c472","ios":"levelo://app?vid=a5f518bb-4119-4201-87a3-1707c496c472"},"vehicle_type_id":"4","last_reported":1735488585,"current_range_meters":32800,"station_id":"ce4bhbh2rcd13ifvqeqg","pricing_plan_id":"cebpf4jnsgd1na2vs0mg"},{"bike_id":"dd708212-6c95-4591-b555-43b33b8da7f5","system_id":"levelo_inurba_marseille","lat":43.25692,"lon":5.41106,"is_reserved":false,"is_disabled":false,"rental_uris":{"android":"levelo://app?vid=dd708212-6c95-4591-b555-43b33b8da7f5","ios":"levelo://app?vid=dd708212-6c95-4591-b555-43b33b8da7f5"},"vehicle_type_id":"4","last_reported":1735488585,"current_range_meters":37600,"station_id":"ce4bhkp2rcd13ifvqgd0","pricing_plan_id":"cebpf4jnsgd1na2vs0mg"},{"bike_id":"59604dad-fcba-4552-832c-4b487a619f8e","system_id":"levelo_inurba_marseille","lat":43.23968,"lon":5.36631,"is_reserved":false,"is_disabled":false,"rental_uris":{"android":"levelo://app?vid=59604dad-fcba-4552-832c-4b487a619f8e","ios":"levelo://app?vid=59604dad-fcba-4552-832c-4b487a619f8e"},"vehicle_type_id":"4","last_reported":1735488585,"current_range_meters":28000,"station_id":"ce4bhi12rcd13ifvqfp0","pricing_plan_id":"cebpf4jnsgd1na2vs0mg"},{"bike_id":"6c26c8f3-53ae-47d9-b39d-577074fba746","system_id":"levelo_inurba_marseille","lat":43.31756,"lon":5.39003,"is_reserved":false,"is_disabled":false,"rental_uris":{"android":"levelo://app?vid=6c26c8f3-53ae-47d9-b39d-577074fba746","ios":"levelo://app?vid=6c26c8f3-53ae-47d9-b39d-577074fba746"},"vehicle_type_id":"4","last_reported":1735488585,"current_range_meters":38800,"station_id":"ce4bhqp2rcd13ifvqhng","pricing_plan_id":"cebpf4jnsgd1na2vs0mg"},{"bike_id":"d91f0e85-743b-41a2-80c1-c10d1d66fe47","system_id":"levelo_inurba_marseille","lat":43.29919,"lon":5.36425,"is_reserved":false,"is_disabled":false,"rental_uris":{"android":"levelo://app?vid=d91f0e85-743b-41a2-80c1-c10d1d66fe47","ios":"levelo://app?vid=d91f0e85-743b-41a2-80c1-c10d1d66fe47"},"vehicle_type_id":"4","last_reported":1735488585,"current_range_meters":38800,"station_id":"ce4bgpp2rcd13ifvqc3g","pricing_plan_id":"cebpf4jnsgd1na2vs0mg"},{"bike_id":"af28d292-226b-4b0c-b39e-417b89319493","system_id":"levelo_inurba_marseille","lat":43.23197,"lon":5.35543,"is_reserved":false,"is_disabled":false,"rental_uris":{"android":"levelo://app?vid=af28d292-226b-4b0c-b39e-417b89319493","ios":"levelo://app?vid=af28d292-226b-4b0c-b39e-417b89319493"},"vehicle_type_id":"4","last_reported":1735488585,"current_range_meters":22000,"station_id":"ce4bhu92rcd13ifvqi70","pricing_plan_id":"cebpf4jnsgd1na2vs0mg"},{"bike_id":"a2dfaa5b-c1ad-4316-ae45-cf62c09c30b3","system_id":"levelo_inurba_marseille","lat":43.32112,"lon":5.36772,"is_reserved":false,"is_disabled":false,"rental_uris":{"android":"levelo://app?vid=a2dfaa5b-c1ad-4316-ae45-cf62c09c30b3","ios":"levelo://app?vid=a2dfaa5b-c1ad-4316-ae45-cf62c09c30b3"},"vehicle_type_id":"4","last_reported":1735488585,"current_range_meters":18000,"station_id":"ce4bhrh2rcd13ifvqhug","pricing_plan_id":"cebpf4jnsgd1na2vs0mg"},{"bike_id":"5f8ee9c5-4e33-43ee-b8aa-ac908ba0aac5","system_id":"levelo_inurba_marseille","lat":43.27497,"lon":5.4245,"is_reserved":false,"is_disabled":false,"rental_uris":{"android":"levelo://app?vid=5f8ee9c5-4e33-43ee-b8aa-ac908ba0aac5","ios":"levelo://app?vid=5f8ee9c5-4e33-43ee-b8aa-ac908ba0aac5"},"vehicle_type_id":"4","last_reported":1735488585,"current_range_meters":24800,"station_id":"ce4bhn92rcd13ifvqgrg","pricing_plan_id":"cebpf4jnsgd1na2vs0mg"},{"bike_id":"f6eaced9-ca89-417f-a01d-b87955fe3119","system_id":"levelo_inurba_marseille","lat":43.28427,"lon":5.34976,"is_reserved":false,"is_disabled":true,"rental_uris":{"android":"levelo://app?vid=f6eaced9-ca89-417f-a01d-b87955fe3119","ios":"levelo://app?vid=f6eaced9-ca89-417f-a01d-b87955fe3119"},"vehicle_type_id":"4","last_reported":1735488585,"current_range_meters":3200,"station_id":"ce4bhbh2rcd13ifvqepg","pricing_plan_id":"cebpf4jnsgd1na2vs0mg"},{"bike_id":"1352858a-a749-4923-98fd-62aa7f0b3279","system_id":"levelo_inurba_marseille","lat":43.28278,"lon":5.35079,"is_reserved":false,"is_disabled":false,"rental_uris":{"android":"levelo://app?vid=1352858a-a749-4923-98fd-62aa7f0b3279","ios":"levelo://app?vid=1352858a-a749-4923-98fd-62aa7f0b3279"},"vehicle_type_id":"4","last_reported":1735488585,"current_range_meters":27600,"station_id":"ce4bhbp2rcd13ifvqerg","pricing_plan_id":"cebpf4jnsgd1na2vs0mg"},{"bike_id":"615e3d4d-907d-4e2c-8f2a-ce64ff70eec4","system_id":"levelo_inurba_marseille","lat":43.31123,"lon":5.37774,"is_reserved":false,"is_disabled":false,"rental_uris":{"android":"levelo://app?vid=615e3d4d-907d-4e2c-8f2a-ce64ff70eec4","ios":"levelo://app?vid=615e3d4d-907d-4e2c-8f2a-ce64ff70eec4"},"vehicle_type_id":"4","last_reported":1735488585,"current_range_meters":22800,"station_id":"ce4bgt92rcd13ifvqcg0","pricing_plan_id":"cebpf4jnsgd1na2vs0mg"},{"bike_id":"1b03d65f-a009-414a-9d0b-f590fd78bda1","system_id":"levelo_inurba_marseille","lat":43.2926,"lon":5.40901,"is_reserved":false,"is_disabled":false,"rental_uris":{"android":"levelo://app?vid=1b03d65f-a009-414a-9d0b-f590fd78bda1","ios":"levelo://app?vid=1b03d65f-a009-414a-9d0b-f590fd78bda1"},"vehicle_type_id":"4","last_reported":1735488585,"current_range_meters":27200,"station_id":"ce4bh192rcd13ifvqdc0","pricing_plan_id":"cebpf4jnsgd1na2vs0mg"},{"bike_id":"0f964104-751a-4834-9d4b-8ccb42f2b0d1","system_id":"levelo_inurba_marseille","lat":43.27918,"lon":5.39606,"is_reserved":false,"is_disabled":false,"rental_uris":{"android":"levelo://app?vid=0f964104-751a-4834-9d4b-8ccb42f2b0d1","ios":"levelo://app?vid=0f964104-751a-4834-9d4b-8ccb42f2b0d1"},"vehicle_type_id":"4","last_reported":1735488585,"current_range_meters":36000,"station_id":"ce4bhf92rcd13ifvqf40","pricing_plan_id":"cebpf4jnsgd1na2vs0mg"},{"bike_id":"5d22d4f6-c5a9-4ef2-8663-0ea09a357db3","system_id":"levelo_inurba_marseille","lat":43.27209,"lon":5.39177,"is_reserved":false,"is_disabled":false,"rental_uris":{"android":"levelo://app?vid=5d22d4f6-c5a9-4ef2-8663-0ea09a357db3","ios":"levelo://app?vid=5d22d4f6-c5a9-4ef2-8663-0ea09a357db3"},"vehicle_type_id":"4","last_reported":1735488585,"current_range_meters":32000,"station_id":"ce4bhhp2rcd13ifvqfm0","pricing_plan_id":"cebpf4jnsgd1na2vs0mg"},{"bike_id":"e23a7d55-7ce1-4f20-a71a-26c06c907d82","system_id":"levelo_inurba_marseille","lat":43.279493,"lon":5.410477,"is_reserved":false,"is_disabled":false,"rental_uris":{"android":"levelo://app?vid=e23a7d55-7ce1-4f20-a71a-26c06c907d82","ios":"levelo://app?vid=e23a7d55-7ce1-4f20-a71a-26c06c907d82"},"vehicle_type_id":"4","last_reported":1735488585,"current_range_meters":38000,"station_id":"ce4bhnp2rcd13ifvqh0g","pricing_plan_id":"cebpf4jnsgd1na2vs0mg"},{"bike_id":"b0c4d0d6-5451-4daa-af56-54957229db80","system_id":"levelo_inurba_marseille","lat":43.32361,"lon":5.36715,"is_reserved":false,"is_disabled":false,"rental_uris":{"android":"levelo://app?vid=b0c4d0d6-5451-4daa-af56-54957229db80","ios":"levelo://app?vid=b0c4d0d6-5451-4daa-af56-54957229db80"},"vehicle_type_id":"4","last_reported":1735488585,"current_range_meters":35600,"station_id":"ce4bhsh2rcd13ifvqi2g","pricing_plan_id":"cebpf4jnsgd1na2vs0mg"},{"bike_id":"5367a292-5564-4681-91cd-97babb89fc00","system_id":"levelo_inurba_marseille","lat":43.22934,"lon":5.35385,"is_reserved":false,"is_disabled":false,"rental_uris":{"android":"levelo://app?vid=5367a292-5564-4681-91cd-97babb89fc00","ios":"levelo://app?vid=5367a292-5564-4681-91cd-97babb89fc00"},"vehicle_type_id":"4","last_reported":1735488585,"current_range_meters":36000,"station_id":"cpo3532slgdg3j2ikp40","pricing_plan_id":"cebpf4jnsgd1na2vs0mg"},{"bike_id":"10d543bf-e957-49c7-ab38-e1ef1c40a922","system_id":"levelo_inurba_marseille","lat":43.30089,"lon":5.39075,"is_reserved":false,"is_disabled":false,"rental_uris":{"android":"levelo://app?vid=10d543bf-e957-49c7-ab38-e1ef1c40a922","ios":"levelo://app?vid=10d543bf-e957-49c7-ab38-e1ef1c40a922"},"vehicle_type_id":"4","last_reported":1735488585,"current_range_meters":27200,"station_id":"ce4bh192rcd13ifvqdb0","pricing_plan_id":"cebpf4jnsgd1na2vs0mg"},{"bike_id":"0483d5a5-12c2-4b90-8e6c-47d6d5a4b82c","system_id":"levelo_inurba_marseille","lat":43.25824,"lon":5.39416,"is_reserved":false,"is_disabled":false,"rental_uris":{"android":"levelo://app?vid=0483d5a5-12c2-4b90-8e6c-47d6d5a4b82c","ios":"levelo://app?vid=0483d5a5-12c2-4b90-8e6c-47d6d5a4b82c"},"vehicle_type_id":"4","last_reported":1735488585,"current_range_meters":16800,"station_id":"ce4bhip2rcd13ifvqft0","pricing_plan_id":"cebpf4jnsgd1na2vs0mg"},{"bike_id":"07308ae1-bea8-48ff-879f-15b3edeb7a1a","system_id":"levelo_inurba_marseille","lat":43.28109,"lon":5.37826,"is_reserved":false,"is_disabled":false,"rental_uris":{"android":"levelo://app?vid=07308ae1-bea8-48ff-879f-15b3edeb7a1a","ios":"levelo://app?vid=07308ae1-bea8-48ff-879f-15b3edeb7a1a"},"vehicle_type_id":"4","last_reported":1735488585,"current_range_meters":29600,"station_id":"ce4bha12rcd13ifvqee0","pricing_plan_id":"cebpf4jnsgd1na2vs0mg"},{"bike_id":"78200f69-6a9c-465c-b1dc-5d4539609389","system_id":"levelo_inurba_marseille","lat":43.28699,"lon":5.37389,"is_reserved":false,"is_disabled":false,"rental_uris":{"android":"levelo://app?vid=78200f69-6a9c-465c-b1dc-5d4539609389","ios":"levelo://app?vid=78200f69-6a9c-465c-b1dc-5d4539609389"},"vehicle_type_id":"4","last_reported":1735488585,"current_range_meters":16400,"station_id":"ce4bh3p2rcd13ifvqdq0","pricing_plan_id":"cebpf4jnsgd1na2vs0mg"},{"bike_id":"cd0f8fde-5dbd-4dfd-9841-71397d7c30f7","system_id":"levelo_inurba_marseille","lat":43.260923,"lon":5.373223,"is_reserved":false,"is_disabled":false,"rental_uris":{"android":"levelo://app?vid=cd0f8fde-5dbd-4dfd-9841-71397d7c30f7","ios":"levelo://app?vid=cd0f8fde-5dbd-4dfd-9841-71397d7c30f7"},"vehicle_type_id":"4","last_reported":1735488585,"current_range_meters":28000,"station_id":"","pricing_plan_id":"cebpf4jnsgd1na2vs0mg"},{"bike_id":"0a9bd2c9-6bb0-441b-a060-b5d07e04e812","system_id":"levelo_inurba_marseille","lat":43.26224,"lon":5.37448,"is_reserved":false,"is_disabled":false,"rental_uris":{"android":"levelo://app?vid=0a9bd2c9-6bb0-441b-a060-b5d07e04e812","ios":"levelo://app?vid=0a9bd2c9-6bb0-441b-a060-b5d07e04e812"},"vehicle_type_id":"4","last_reported":1735488585,"current_range_meters":25600,"station_id":"","pricing_plan_id":"cebpf4jnsgd1na2vs0mg"},{"bike_id":"6c30f754-d8e9-49eb-a61d-8345b813e83f","system_id":"levelo_inurba_marseille","lat":43.29969,"lon":5.38495,"is_reserved":false,"is_disabled":false,"rental_uris":{"android":"levelo://app?vid=6c30f754-d8e9-49eb-a61d-8345b813e83f","ios":"levelo://app?vid=6c30f754-d8e9-49eb-a61d-8345b813e83f"},"vehicle_type_id":"4","last_reported":1735488585,"current_range_meters":38800,"station_id":"ce4bgj92rcd13ifvqbd0","pricing_plan_id":"cebpf4jnsgd1na2vs0mg"},{"bike_id":"de1d6bf4-987d-4ebe-b2ec-5ca225b6a355","system_id":"levelo_inurba_marseille","lat":43.27819,"lon":5.40725,"is_reserved":false,"is_disabled":false,"rental_uris":{"android":"levelo://app?vid=de1d6bf4-987d-4ebe-b2ec-5ca225b6a355","ios":"levelo://app?vid=de1d6bf4-987d-4ebe-b2ec-5ca225b6a355"},"vehicle_type_id":"4","last_reported":1735488585,"current_range_meters":23200,"station_id":"ce4bhnh2rcd13ifvqgtg","pricing_plan_id":"cebpf4jnsgd1na2vs0mg"},{"bike_id":"79c4e503-18a8-4eeb-88be-9bc7971aa5bb","system_id":"levelo_inurba_marseille","lat":43.26499,"lon":5.39548,"is_reserved":false,"is_disabled":true,"rental_uris":{"android":"levelo://app?vid=79c4e503-18a8-4eeb-88be-9bc7971aa5bb","ios":"levelo://app?vid=79c4e503-18a8-4eeb-88be-9bc7971aa5bb"},"vehicle_type_id":"4","last_reported":1735488585,"current_range_meters":0,"station_id":"ce4bhi12rcd13ifvqfq0","pricing_plan_id":"cebpf4jnsgd1na2vs0mg"},{"bike_id":"798eb5ba-861f-4564-8d21-3e47b7607c50","system_id":"levelo_inurba_marseille","lat":43.29077,"lon":5.37174,"is_reserved":false,"is_disabled":false,"rental_uris":{"android":"levelo://app?vid=798eb5ba-861f-4564-8d21-3e47b7607c50","ios":"levelo://app?vid=798eb5ba-861f-4564-8d21-3e47b7607c50"},"vehicle_type_id":"4","last_reported":1735488585,"current_range_meters":16000,"station_id":"ce4bh5p2rcd13ifvqe4g","pricing_plan_id":"cebpf4jnsgd1na2vs0mg"},{"bike_id":"2e19126c-44cf-40bf-a549-dc01e1a05272","system_id":"levelo_inurba_marseille","lat":43.28413,"lon":5.37511,"is_reserved":false,"is_disabled":false,"rental_uris":{"android":"levelo://app?vid=2e19126c-44cf-40bf-a549-dc01e1a05272","ios":"levelo://app?vid=2e19126c-44cf-40bf-a549-dc01e1a05272"},"vehicle_type_id":"4","last_reported":1735488585,"current_range_meters":14000,"station_id":"ce4bh412rcd13ifvqds0","pricing_plan_id":"cebpf4jnsgd1na2vs0mg"},{"bike_id":"0e2a10e8-1d09-40cb-b6a8-755a537fb5b5","system_id":"levelo_inurba_marseille","lat":43.27998,"lon":5.41666,"is_reserved":false,"is_disabled":false,"rental_uris":{"android":"levelo://app?vid=0e2a10e8-1d09-40cb-b6a8-755a537fb5b5","ios":"levelo://app?vid=0e2a10e8-1d09-40cb-b6a8-755a537fb5b5"},"vehicle_type_id":"4","last_reported":1735488585,"current_range_meters":24400,"station_id":"ce4bho12rcd13ifvqh1g","pricing_plan_id":"cebpf4jnsgd1na2vs0mg"},{"bike_id":"015cc28e-b144-4884-9ea6-67bf8bf4689b","system_id":"levelo_inurba_marseille","lat":43.30523,"lon":5.36709,"is_reserved":false,"is_disabled":false,"rental_uris":{"android":"levelo://app?vid=015cc28e-b144-4884-9ea6-67bf8bf4689b","ios":"levelo://app?vid=015cc28e-b144-4884-9ea6-67bf8bf4689b"},"vehicle_type_id":"4","last_reported":1735488585,"current_range_meters":30400,"station_id":"ce4bgrp2rcd13ifvqc9g","pricing_plan_id":"cebpf4jnsgd1na2vs0mg"},{"bike_id":"942f8ae0-f6f5-42e2-980f-8bfebed0d611","system_id":"levelo_inurba_marseille","lat":43.32078,"lon":5.41534,"is_reserved":false,"is_disabled":false,"rental_uris":{"android":"levelo://app?vid=942f8ae0-f6f5-42e2-980f-8bfebed0d611","ios":"levelo://app?vid=942f8ae0-f6f5-42e2-980f-8bfebed0d611"},"vehicle_type_id":"4","last_reported":1735488585,"current_range_meters":37600,"station_id":"ce4bhq92rcd13ifvqhkg","pricing_plan_id":"cebpf4jnsgd1na2vs0mg"},{"bike_id":"dac94ecf-3203-4c89-acc0-21c14e979588","system_id":"levelo_inurba_marseille","lat":43.26692,"lon":5.38282,"is_reserved":false,"is_disabled":false,"rental_uris":{"android":"levelo://app?vid=dac94ecf-3203-4c89-acc0-21c14e979588","ios":"levelo://app?vid=dac94ecf-3203-4c89-acc0-21c14e979588"},"vehicle_type_id":"4","last_reported":1735488585,"current_range_meters":25600,"station_id":"ce4bhg92rcd13ifvqf90","pricing_plan_id":"cebpf4jnsgd1na2vs0mg"},{"bike_id":"91bb292a-df5c-4dce-bd7e-6647a12df4cd","system_id":"levelo_inurba_marseille","lat":43.26953,"lon":5.38623,"is_reserved":false,"is_disabled":false,"rental_uris":{"android":"levelo://app?vid=91bb292a-df5c-4dce-bd7e-6647a12df4cd","ios":"levelo://app?vid=91bb292a-df5c-4dce-bd7e-6647a12df4cd"},"vehicle_type_id":"4","last_reported":1735488585,"current_range_meters":39200,"station_id":"ce4bhh92rcd13ifvqfh0","pricing_plan_id":"cebpf4jnsgd1na2vs0mg"},{"bike_id":"dae442df-0334-4a2a-8901-28b38cfe10c7","system_id":"levelo_inurba_marseille","lat":43.23146,"lon":5.437,"is_reserved":false,"is_disabled":false,"rental_uris":{"android":"levelo://app?vid=dae442df-0334-4a2a-8901-28b38cfe10c7","ios":"levelo://app?vid=dae442df-0334-4a2a-8901-28b38cfe10c7"},"vehicle_type_id":"4","last_reported":1735488585,"current_range_meters":24400,"station_id":"ce4bhmp2rcd13ifvqgog","pricing_plan_id":"cebpf4jnsgd1na2vs0mg"},{"bike_id":"d787e330-e288-4e1c-926a-5bcb7a236ca2","system_id":"levelo_inurba_marseille","lat":43.28144,"lon":5.42639,"is_reserved":false,"is_disabled":false,"rental_uris":{"android":"levelo://app?vid=d787e330-e288-4e1c-926a-5bcb7a236ca2","ios":"levelo://app?vid=d787e330-e288-4e1c-926a-5bcb7a236ca2"},"vehicle_type_id":"4","last_reported":1735488585,"current_range_meters":24000,"station_id":"ce4bhnh2rcd13ifvqgug","pricing_plan_id":"cebpf4jnsgd1na2vs0mg"},{"bike_id":"8ad84dbe-8c87-477a-acca-96839cbc8a6f","system_id":"levelo_inurba_marseille","lat":43.29843,"lon":5.36266,"is_reserved":false,"is_disabled":false,"rental_uris":{"android":"levelo://app?vid=8ad84dbe-8c87-477a-acca-96839cbc8a6f","ios":"levelo://app?vid=8ad84dbe-8c87-477a-acca-96839cbc8a6f"},"vehicle_type_id":"4","last_reported":1735488585,"current_range_meters":33200,"station_id":"ce4bgpp2rcd13ifvqc3g","pricing_plan_id":"cebpf4jnsgd1na2vs0mg"},{"bike_id":"ca42594c-4c0a-4080-98d3-9312d00d8df7","system_id":"levelo_inurba_marseille","lat":43.23067,"lon":5.35497,"is_reserved":false,"is_disabled":false,"rental_uris":{"android":"levelo://app?vid=ca42594c-4c0a-4080-98d3-9312d00d8df7","ios":"levelo://app?vid=ca42594c-4c0a-4080-98d3-9312d00d8df7"},"vehicle_type_id":"4","last_reported":1735488585,"current_range_meters":38400,"station_id":"cpo3342slgdg3j2ifvpg","pricing_plan_id":"cebpf4jnsgd1na2vs0mg"},{"bike_id":"5af48ed4-70be-4d97-acf2-82d6f3c0b2fb","system_id":"levelo_inurba_marseille","lat":43.31874,"lon":5.37799,"is_reserved":false,"is_disabled":true,"rental_uris":{"android":"levelo://app?vid=5af48ed4-70be-4d97-acf2-82d6f3c0b2fb","ios":"levelo://app?vid=5af48ed4-70be-4d97-acf2-82d6f3c0b2fb"},"vehicle_type_id":"4","last_reported":1735488585,"current_range_meters":37600,"station_id":"ce4bgth2rcd13ifvqch0","pricing_plan_id":"cebpf4jnsgd1na2vs0mg"},{"bike_id":"c1669ea3-4e3c-4dbb-809e-0a29c4971d25","system_id":"levelo_inurba_marseille","lat":43.29007,"lon":5.35602,"is_reserved":false,"is_disabled":false,"rental_uris":{"android":"levelo://app?vid=c1669ea3-4e3c-4dbb-809e-0a29c4971d25","ios":"levelo://app?vid=c1669ea3-4e3c-4dbb-809e-0a29c4971d25"},"vehicle_type_id":"4","last_reported":1735488585,"current_range_meters":29600,"station_id":"ce4bhb92rcd13ifvqen0","pricing_plan_id":"cebpf4jnsgd1na2vs0mg"},{"bike_id":"494d9e5b-e33f-4bbf-988e-4ba7f5a0bf5d","system_id":"levelo_inurba_marseille","lat":43.23157,"lon":5.43705,"is_reserved":false,"is_disabled":false,"rental_uris":{"android":"levelo://app?vid=494d9e5b-e33f-4bbf-988e-4ba7f5a0bf5d","ios":"levelo://app?vid=494d9e5b-e33f-4bbf-988e-4ba7f5a0bf5d"},"vehicle_type_id":"4","last_reported":1735488585,"current_range_meters":28800,"station_id":"ce4bhmp2rcd13ifvqgog","pricing_plan_id":"cebpf4jnsgd1na2vs0mg"},{"bike_id":"84909874-ae0d-4639-b8ad-0571136a70a4","system_id":"levelo_inurba_marseille","lat":43.29519,"lon":5.37504,"is_reserved":false,"is_disabled":false,"rental_uris":{"android":"levelo://app?vid=84909874-ae0d-4639-b8ad-0571136a70a4","ios":"levelo://app?vid=84909874-ae0d-4639-b8ad-0571136a70a4"},"vehicle_type_id":"4","last_reported":1735488585,"current_range_meters":27600,"station_id":"ce4bgkp2rcd13ifvqbmg","pricing_plan_id":"cebpf4jnsgd1na2vs0mg"},{"bike_id":"9c5bca43-a233-42d3-afe6-7aaa0033f973","system_id":"levelo_inurba_marseille","lat":43.31717,"lon":5.37749,"is_reserved":false,"is_disabled":true,"rental_uris":{"android":"levelo://app?vid=9c5bca43-a233-42d3-afe6-7aaa0033f973","ios":"levelo://app?vid=9c5bca43-a233-42d3-afe6-7aaa0033f973"},"vehicle_type_id":"4","last_reported":1735488585,"current_range_meters":12800,"station_id":"ce4bgth2rcd13ifvqch0","pricing_plan_id":"cebpf4jnsgd1na2vs0mg"},{"bike_id":"5e57eef6-8100-463f-8b9f-a736bec4d03f","system_id":"levelo_inurba_marseille","lat":43.26959,"lon":5.38628,"is_reserved":false,"is_disabled":false,"rental_uris":{"android":"levelo://app?vid=5e57eef6-8100-463f-8b9f-a736bec4d03f","ios":"levelo://app?vid=5e57eef6-8100-463f-8b9f-a736bec4d03f"},"vehicle_type_id":"4","last_reported":1735488585,"current_range_meters":14400,"station_id":"ce4bhh92rcd13ifvqfh0","pricing_plan_id":"cebpf4jnsgd1na2vs0mg"},{"bike_id":"54d6e866-278e-420d-98d6-ccb9d5a2b8b8","system_id":"levelo_inurba_marseille","lat":43.27974,"lon":5.38721,"is_reserved":false,"is_disabled":false,"rental_uris":{"android":"levelo://app?vid=54d6e866-278e-420d-98d6-ccb9d5a2b8b8","ios":"levelo://app?vid=54d6e866-278e-420d-98d6-ccb9d5a2b8b8"},"vehicle_type_id":"4","last_reported":1735488585,"current_range_meters":39200,"station_id":"ce4bhg12rcd13ifvqf80","pricing_plan_id":"cebpf4jnsgd1na2vs0mg"},{"bike_id":"8205527f-99f1-4172-ad22-1d0f33b2b4bc","system_id":"levelo_inurba_marseille","lat":43.25723,"lon":5.41114,"is_reserved":false,"is_disabled":false,"rental_uris":{"android":"levelo://app?vid=8205527f-99f1-4172-ad22-1d0f33b2b4bc","ios":"levelo://app?vid=8205527f-99f1-4172-ad22-1d0f33b2b4bc"},"vehicle_type_id":"4","last_reported":1735488585,"current_range_meters":12400,"station_id":"ce4bhkp2rcd13ifvqgd0","pricing_plan_id":"cebpf4jnsgd1na2vs0mg"},{"bike_id":"146b19bc-bb2f-44ce-9d27-68df95b19aa7","system_id":"levelo_inurba_marseille","lat":43.286885,"lon":5.373813,"is_reserved":false,"is_disabled":false,"rental_uris":{"android":"levelo://app?vid=146b19bc-bb2f-44ce-9d27-68df95b19aa7","ios":"levelo://app?vid=146b19bc-bb2f-44ce-9d27-68df95b19aa7"},"vehicle_type_id":"4","last_reported":1735488585,"current_range_meters":21600,"station_id":"ce4bh3p2rcd13ifvqdq0","pricing_plan_id":"cebpf4jnsgd1na2vs0mg"},{"bike_id":"5832e546-07d1-41c2-83e0-661411e5ee7e","system_id":"levelo_inurba_marseille","lat":43.28275,"lon":5.35056,"is_reserved":false,"is_disabled":false,"rental_uris":{"android":"levelo://app?vid=5832e546-07d1-41c2-83e0-661411e5ee7e","ios":"levelo://app?vid=5832e546-07d1-41c2-83e0-661411e5ee7e"},"vehicle_type_id":"4","last_reported":1735488585,"current_range_meters":31200,"station_id":"ce4bhbp2rcd13ifvqerg","pricing_plan_id":"cebpf4jnsgd1na2vs0mg"},{"bike_id":"30a125ea-1c42-46b6-9baa-f49909f6c1a7","system_id":"levelo_inurba_marseille","lat":43.28429,"lon":5.34973,"is_reserved":false,"is_disabled":false,"rental_uris":{"android":"levelo://app?vid=30a125ea-1c42-46b6-9baa-f49909f6c1a7","ios":"levelo://app?vid=30a125ea-1c42-46b6-9baa-f49909f6c1a7"},"vehicle_type_id":"4","last_reported":1735488585,"current_range_meters":33200,"station_id":"ce4bhbh2rcd13ifvqepg","pricing_plan_id":"cebpf4jnsgd1na2vs0mg"},{"bike_id":"b193a302-c749-4637-8735-a2a74f50ec47","system_id":"levelo_inurba_marseille","lat":43.279519,"lon":5.410471,"is_reserved":false,"is_disabled":false,"rental_uris":{"android":"levelo://app?vid=b193a302-c749-4637-8735-a2a74f50ec47","ios":"levelo://app?vid=b193a302-c749-4637-8735-a2a74f50ec47"},"vehicle_type_id":"4","last_reported":1735488585,"current_range_meters":19200,"station_id":"ce4bhnp2rcd13ifvqh0g","pricing_plan_id":"cebpf4jnsgd1na2vs0mg"},{"bike_id":"da24cdde-8fde-46aa-9ecd-3a8a0cc73c3e","system_id":"levelo_inurba_marseille","lat":43.2928,"lon":5.36851,"is_reserved":false,"is_disabled":false,"rental_uris":{"android":"levelo://app?vid=da24cdde-8fde-46aa-9ecd-3a8a0cc73c3e","ios":"levelo://app?vid=da24cdde-8fde-46aa-9ecd-3a8a0cc73c3e"},"vehicle_type_id":"4","last_reported":1735488585,"current_range_meters":26000,"station_id":"ce4bhbp2rcd13ifvqesg","pricing_plan_id":"cebpf4jnsgd1na2vs0mg"},{"bike_id":"a4cec7d3-203d-4b8b-a808-81c0496a69e0","system_id":"levelo_inurba_marseille","lat":43.2829,"lon":5.35084,"is_reserved":false,"is_disabled":false,"rental_uris":{"android":"levelo://app?vid=a4cec7d3-203d-4b8b-a808-81c0496a69e0","ios":"levelo://app?vid=a4cec7d3-203d-4b8b-a808-81c0496a69e0"},"vehicle_type_id":"4","last_reported":1735488585,"current_range_meters":26800,"station_id":"ce4bhbp2rcd13ifvqerg","pricing_plan_id":"cebpf4jnsgd1na2vs0mg"},{"bike_id":"b8feb562-9ac0-4974-8ba7-4af547dd85da","system_id":"levelo_inurba_marseille","lat":43.26061,"lon":5.39396,"is_reserved":false,"is_disabled":false,"rental_uris":{"android":"levelo://app?vid=b8feb562-9ac0-4974-8ba7-4af547dd85da","ios":"levelo://app?vid=b8feb562-9ac0-4974-8ba7-4af547dd85da"},"vehicle_type_id":"4","last_reported":1735488585,"current_range_meters":37600,"station_id":"ce4bhh92rcd13ifvqfj0","pricing_plan_id":"cebpf4jnsgd1na2vs0mg"},{"bike_id":"09dd674f-0824-45db-a549-43da6d957116","system_id":"levelo_inurba_marseille","lat":43.25716,"lon":5.41108,"is_reserved":false,"is_disabled":false,"rental_uris":{"android":"levelo://app?vid=09dd674f-0824-45db-a549-43da6d957116","ios":"levelo://app?vid=09dd674f-0824-45db-a549-43da6d957116"},"vehicle_type_id":"4","last_reported":1735488585,"current_range_meters":38800,"station_id":"ce4bhkp2rcd13ifvqgd0","pricing_plan_id":"cebpf4jnsgd1na2vs0mg"},{"bike_id":"9c23e948-b0b6-4445-98a0-8bd27d2df0e4","system_id":"levelo_inurba_marseille","lat":43.28959,"lon":5.36599,"is_reserved":false,"is_disabled":false,"rental_uris":{"android":"levelo://app?vid=9c23e948-b0b6-4445-98a0-8bd27d2df0e4","ios":"levelo://app?vid=9c23e948-b0b6-4445-98a0-8bd27d2df0e4"},"vehicle_type_id":"4","last_reported":1735488585,"current_range_meters":38000,"station_id":"","pricing_plan_id":"cebpf4jnsgd1na2vs0mg"},{"bike_id":"83830a46-f3a4-4506-b996-32d3c1a80099","system_id":"levelo_inurba_marseille","lat":43.27989,"lon":5.40027,"is_reserved":false,"is_disabled":false,"rental_uris":{"android":"levelo://app?vid=83830a46-f3a4-4506-b996-32d3c1a80099","ios":"levelo://app?vid=83830a46-f3a4-4506-b996-32d3c1a80099"},"vehicle_type_id":"4","last_reported":1735488585,"current_range_meters":15200,"station_id":"ce4bho92rcd13ifvqh4g","pricing_plan_id":"cebpf4jnsgd1na2vs0mg"},{"bike_id":"19a5c565-dd92-46a9-893d-b173419c156e","system_id":"levelo_inurba_marseille","lat":43.24387,"lon":5.37055,"is_reserved":false,"is_disabled":false,"rental_uris":{"android":"levelo://app?vid=19a5c565-dd92-46a9-893d-b173419c156e","ios":"levelo://app?vid=19a5c565-dd92-46a9-893d-b173419c156e"},"vehicle_type_id":"4","last_reported":1735488585,"current_range_meters":22400,"station_id":"ce4bhhh2rcd13ifvqfk0","pricing_plan_id":"cebpf4jnsgd1na2vs0mg"},