{"last_updated":1703012626,"ttl":30,"version":"2.2","data":{"bikes":[{"bike_id":"15c7edea-86ab-4b62-9286-30eaeca9bae0","system_id":"levelo_inurba_marseille","lat":43.31341,"lon":5.367098,"is_reserved":false,"is_disabled":false,"rental_uris":{"android":"levelo://app?vid=15c7edea-86ab-4b62-9286-30eaeca9bae0","ios":"levelo://app?vid=15c7edea-86ab-4b62-9286-30eaeca9bae0"},"vehicle_type_id":"4","last_reported":1703012627,"current_range_meters":27200,"station_id":"ce4bgr92rcd13ifvqc6g","pricing_plan_id":"free"},{"bike_id":"b9f6aa9c-f486-4ff8-aa57-43a2e1371d6c","system_id":"levelo_inurba_marseille","lat":43.31227,"lon":5.36865,"is_reserved":false,"is_disabled":false,"rental_uris":{"android":"levelo://app?vid=b9f6aa9c-f486-4ff8-aa57-43a2e1371d6c","ios":"levelo://app?vid=b9f6aa9c-f486-4ff8-aa57-43a2e1371d6c"},"vehicle_type_id":"4","last_reported":1703012627,"current_range_meters":12000,"station_id":"ce4bgl92rcd13ifvqbq0","pricing_plan_id":"free"},{"bike_id":"440f7f17-c77e-4878-9430-dfdee0958ec8","system_id":"levelo_inurba_marseille","lat":43.314811,"lon":5.373103,"is_reserved":false,"is_disabled":false,"rental_uris":{"android":"levelo://app?vid=440f7f17-c77e-4878-9430-dfdee0958ec8","ios":"levelo://app?vid=440f7f17-c77e-4878-9430-dfdee0958ec8"},"vehicle_type_id":"4","last_reported":1703012627,"current_range_meters":2800,"station_id":"ce4bgt12rcd13ifvqcd0","pricing_plan_id":"free"},{"bike_id":"aa3eb507-db67-47ed-a100-b64174be716f","system_id":"levelo_inurba_marseille","lat":43.309039,"lon":5.371797,"is_reserved":false,"is_disabled":false,"rental_uris":{"android":"levelo://app?vid=aa3eb507-db67-47ed-a100-b64174be716f","ios":"levelo://app?vid=aa3eb507-db67-47ed-a100-b64174be716f"},"vehicle_type_id":"4","last_reported":1703012627,"current_range_meters":28000,"station_id":"ce4bguh2rcd13ifvqckg","pricing_plan_id":"free"},{"bike_id":"0d46ad18-b3fd-478f-9015-38a94311241e","system_id":"levelo_inurba_marseille","lat":43.305989,"lon":5.37225,"is_reserved":false,"is_disabled":false,"rental_uris":{"android":"levelo://app?vid=0d46ad18-b3fd-478f-9015-38a94311241e","ios":"levelo://app?vid=0d46ad18-b3fd-478f-9015-38a94311241e"},"vehicle_type_id":"4","last_reported":1703012627,"current_range_meters":28000,"station_id":"ce4bgqh2rcd13ifvqc4g","pricing_plan_id":"free"},{"bike_id":"41b80136-0740-4d0b-ac68-a1968697a2bc","system_id":"levelo_inurba_marseille","lat":43.317075,"lon":5.377367,"is_reserved":false,"is_disabled":false,"rental_uris":{"android":"levelo://app?vid=41b80136-0740-4d0b-ac68-a1968697a2bc","ios":"levelo://app?vid=41b80136-0740-4d0b-ac68-a1968697a2bc"},"vehicle_type_id":"4","last_reported":1703012627,"current_range_meters":16400,"station_id":"ce4bgth2rcd13ifvqch0","pricing_plan_id":"free"},{"bike_id":"434ac7bc-c4ee-4178-8066-57cd65d9dfc7","system_id":"levelo_inurba_marseille","lat":43.31337,"lon":5.37931,"is_reserved":false,"is_disabled":false,"rental_uris":{"android":"levelo://app?vid=434ac7bc-c4ee-4178-8066-57cd65d9dfc7","ios":"levelo://app?vid=434ac7bc-c4ee-4178-8066-57cd65d9dfc7"},"vehicle_type_id":"4","last_reported":1703012627,"current_range_meters":2400,"station_id":"","pricing_plan_id":"free"},{"bike_id":"f349ac61-13e7-4d17-85a3-7b9744074ddc","system_id":"levelo_inurba_marseille","lat":43.303046,"lon":5.368981,"is_reserved":false,"is_disabled":false,"rental_uris":{"android":"levelo://app?vid=f349ac61-13e7-4d17-85a3-7b9744074ddc","ios":"levelo://app?vid=f349ac61-13e7-4d17-85a3-7b9744074ddc"},"vehicle_type_id":"4","last_reported":1703012627,"current_range_meters":26000,"station_id":"ce4bgqh2rcd13ifvqc5g","pricing_plan_id":"free"},{"bike_id":"42fa07c7-2d88-48ea-b407-e335afeb3037","system_id":"levelo_inurba_marseille","lat":43.315293,"lon":5.380349,"is_reserved":false,"is_disabled":false,"rental_uris":{"android":"levelo://app?vid=42fa07c7-2d88-48ea-b407-e335afeb3037","ios":"levelo://app?vid=42fa07c7-2d88-48ea-b407-e335afeb3037"},"vehicle_type_id":"4","last_reported":1703012627,"current_range_meters":5600,"station_id":"ce4bhsp2rcd13ifvqi50","pricing_plan_id":"free"},{"bike_id":"ff61b42d-58ff-4b73-913b-03f3caec66e0","system_id":"levelo_inurba_marseille","lat":43.319935,"lon":5.381699,"is_reserved":false,"is_disabled":false,"rental_uris":{"android":"levelo://app?vid=ff61b42d-58ff-4b73-913b-03f3caec66e0","ios":"levelo://app?vid=ff61b42d-58ff-4b73-913b-03f3caec66e0"},"vehicle_type_id":"4","last_reported":1703012627,"current_range_meters":26000,"station_id":"ce4bhr12rcd13ifvqhpg","pricing_plan_id":"free"},{"bike_id":"73ec7247-bcd3-4193-9351-c056112d3952","system_id":"levelo_inurba_marseille","lat":43.319935,"lon":5.381699,"is_reserved":false,"is_disabled":false,"rental_uris":{"android":"levelo://app?vid=73ec7247-bcd3-4193-9351-c056112d3952","ios":"levelo://app?vid=73ec7247-bcd3-4193-9351-c056112d3952"},"vehicle_type_id":"4","last_reported":1703012627,"current_range_meters":30000,"station_id":"ce4bhr12rcd13ifvqhpg","pricing_plan_id":"free"},{"bike_id":"1d47b93b-fec2-43c7-b08d-ef8c42c093e5","system_id":"levelo_inurba_marseille","lat":43.319935,"lon":5.381699,"is_reserved":false,"is_disabled":false,"rental_uris":{"android":"levelo://app?vid=1d47b93b-fec2-43c7-b08d-ef8c42c093e5","ios":"levelo://app?vid=1d47b93b-fec2-43c7-b08d-ef8c42c093e5"},"vehicle_type_id":"4","last_reported":1703012627,"current_range_meters":24800,"station_id":"ce4bhr12rcd13ifvqhpg","pricing_plan_id":"free"},{"bike_id":"9ba98b26-e12e-48fb-a575-24e5c6bef54e","system_id":"levelo_inurba_marseille","lat":43.31367,"lon":5.38489,"is_reserved":false,"is_disabled":false,"rental_uris":{"android":"levelo://app?vid=9ba98b26-e12e-48fb-a575-24e5c6bef54e","ios":"levelo://app?vid=9ba98b26-e12e-48fb-a575-24e5c6bef54e"},"vehicle_type_id":"4","last_reported":1703012627,"current_range_meters":24800,"station_id":"ce4bgt92rcd13ifvqcf0","pricing_plan_id":"free"},{"bike_id":"b94bc742-e48d-40ea-9ed4-e39890955bc0","system_id":"levelo_inurba_marseille","lat":43.31359,"lon":5.38495,"is_reserved":false,"is_disabled":false,"rental_uris":{"android":"levelo://app?vid=b94bc742-e48d-40ea-9ed4-e39890955bc0","ios":"levelo://app?vid=b94bc742-e48d-40ea-9ed4-e39890955bc0"},"vehicle_type_id":"4","last_reported":1703012627,"current_range_meters":26400,"station_id":"ce4bgt92rcd13ifvqcf0","pricing_plan_id":"free"},{"bike_id":"49e6fbff-48ad-4699-b140-c3ec3f3115ad","system_id":"levelo_inurba_marseille","lat":43.31362,"lon":5.384957,"is_reserved":false,"is_disabled":false,"rental_uris":{"android":"levelo://app?vid=49e6fbff-48ad-4699-b140-c3ec3f3115ad","ios":"levelo://app?vid=49e6fbff-48ad-4699-b140-c3ec3f3115ad"},"vehicle_type_id":"4","last_reported":1703012627,"current_range_meters":25600,"station_id":"ce4bgt92rcd13ifvqcf0","pricing_plan_id":"free"},{"bike_id":"9d72f84c-e239-4de9-a8d1-b1964ce4b190","system_id":"levelo_inurba_marseille","lat":43.31365,"lon":5.38497,"is_reserved":false,"is_disabled":false,"rental_uris":{"android":"levelo://app?vid=9d72f84c-e239-4de9-a8d1-b1964ce4b190","ios":"levelo://app?vid=9d72f84c-e239-4de9-a8d1-b1964ce4b190"},"vehicle_type_id":"4","last_reported":1703012627,"current_range_meters":29200,"station_id":"ce4bgt92rcd13ifvqcf0","pricing_plan_id":"free"},{"bike_id":"8fc63f90-e42f-45a5-8ef8-f3e9aca8ac5d","system_id":"levelo_inurba_marseille","lat":43.31363,"lon":5.384973,"is_reserved":false,"is_disabled":false,"rental_uris":{"android":"levelo://app?vid=8fc63f90-e42f-45a5-8ef8-f3e9aca8ac5d","ios":"levelo://app?vid=8fc63f90-e42f-45a5-8ef8-f3e9aca8ac5d"},"vehicle_type_id":"4","last_reported":1703012627,"current_range_meters":24800,"station_id":"ce4bgt92rcd13ifvqcf0","pricing_plan_id":"free"},{"bike_id":"1d405565-81fe-483d-b06d-9ddd014114e3","system_id":"levelo_inurba_marseille","lat":43.3137,"lon":5.38497,"is_reserved":false,"is_disabled":false,"rental_uris":{"android":"levelo://app?vid=1d405565-81fe-483d-b06d-9ddd014114e3","ios":"levelo://app?vid=1d405565-81fe-483d-b06d-9ddd014114e3"},"vehicle_type_id":"4","last_reported":1703012627,"current_range_meters":31200,"station_id":"ce4bgt92rcd13ifvqcf0","pricing_plan_id":"free"},{"bike_id":"8fae39fe-f351-4775-bf17-ce9800288018","system_id":"levelo_inurba_marseille","lat":43.313667,"lon":5.38498,"is_reserved":false,"is_disabled":false,"rental_uris":{"android":"levelo://app?vid=8fae39fe-f351-4775-bf17-ce9800288018","ios":"levelo://app?vid=8fae39fe-f351-4775-bf17-ce9800288018"},"vehicle_type_id":"4","last_reported":1703012627,"current_range_meters":31200,"station_id":"ce4bgt92rcd13ifvqcf0","pricing_plan_id":"free"},{"bike_id":"01ee7429-cfde-4b62-856f-75cf388216af","system_id":"levelo_inurba_marseille","lat":43.313653,"lon":5.385,"is_reserved":false,"is_disabled":false,"rental_uris":{"android":"levelo://app?vid=01ee7429-cfde-4b62-856f-75cf388216af","ios":"levelo://app?vid=01ee7429-cfde-4b62-856f-75cf388216af"},"vehicle_type_id":"4","last_reported":1703012627,"current_range_meters":28400,"station_id":"ce4bgt92rcd13ifvqcf0","pricing_plan_id":"free"},{"bike_id":"93e3f275-51de-4ff5-beb2-171840114c6c","system_id":"levelo_inurba_marseille","lat":43.31365,"lon":5.38502,"is_reserved":false,"is_disabled":false,"rental_uris":{"android":"levelo://app?vid=93e3f275-51de-4ff5-beb2-171840114c6c","ios":"levelo://app?vid=93e3f275-51de-4ff5-beb2-171840114c6c"},"vehicle_type_id":"4","last_reported":1703012627,"current_range_meters":20400,"station_id":"ce4bgt92rcd13ifvqcf0","pricing_plan_id":"free"},{"bike_id":"6449f08c-0c05-42c8-9735-6a346b9ddb1a","system_id":"levelo_inurba_marseille","lat":43.31368,"lon":5.38504,"is_reserved":false,"is_disabled":false,"rental_uris":{"android":"levelo://app?vid=6449f08c-0c05-42c8-9735-6a346b9ddb1a","ios":"levelo://app?vid=6449f08c-0c05-42c8-9735-6a346b9ddb1a"},"vehicle_type_id":"4","last_reported":1703012627,"current_range_meters":22000,"station_id":"ce4bgt92rcd13ifvqcf0","pricing_plan_id":"free"},{"bike_id":"2275ed5b-00d4-476e-8ed4-82373b638bb8","system_id":"levelo_inurba_marseille","lat":43.295196,"lon":5.39397,"is_reserved":false,"is_disabled":false,"rental_uris":{"android":"levelo://app?vid=2275ed5b-00d4-476e-8ed4-82373b638bb8","ios":"levelo://app?vid=2275ed5b-00d4-476e-8ed4-82373b638bb8"},"vehicle_type_id":"4","last_reported":1703012627,"current_range_meters":16800,"station_id":"ce4bh292rcd13ifvqdf0","pricing_plan_id":"free"},{"bike_id":"45cc6009-a587-4fd0-bf50-c97d16a6cd28","system_id":"levelo_inurba_marseille","lat":43.299243,"lon":5.374807,"is_reserved":false,"is_disabled":false,"rental_uris":{"android":"levelo://app?vid=45cc6009-a587-4fd0-bf50-c97d16a6cd28","ios":"levelo://app?vid=45cc6009-a587-4fd0-bf50-c97d16a6cd28"},"vehicle_type_id":"4","last_reported":1703012627,"current_range_meters":0,"station_id":"ce4bgjh2rcd13ifvqbg0","pricing_plan_id":"free"},{"bike_id":"ca0834b0-077b-48e5-8d61-d563b65c06e3","system_id":"levelo_inurba_marseille","lat":43.305476,"lon":5.384555,"is_reserved":false,"is_disabled":false,"rental_uris":{"android":"levelo://app?vid=ca0834b0-077b-48e5-8d61-d563b65c06e3","ios":"levelo://app?vid=ca0834b0-077b-48e5-8d61-d563b65c06e3"},"vehicle_type_id":"4","last_reported":1703012627,"current_range_meters":2000,"station_id":"ce4bgg92rcd13ifvqb30","pricing_plan_id":"free"},{"bike_id":"624bb959-e3bc-4209-8a60-387132b3b63d","system_id":"levelo_inurba_marseille","lat":43.311722,"lon":5.387247,"is_reserved":false,"is_disabled":false,"rental_uris":{"android":"levelo://app?vid=624bb959-e3bc-4209-8a60-387132b3b63d","ios":"levelo://app?vid=624bb959-e3bc-4209-8a60-387132b3b63d"},"vehicle_type_id":"4","last_reported":1703012627,"current_range_meters":30400,"station_id":"ce4bgv12rcd13ifvqcp0","pricing_plan_id":"free"},{"bike_id":"eee89c6a-8813-47e5-9c77-ccd562b18d36","system_id":"levelo_inurba_marseille","lat":43.311722,"lon":5.387247,"is_reserved":false,"is_disabled":false,"rental_uris":{"android":"levelo://app?vid=eee89c6a-8813-47e5-9c77-ccd562b18d36","ios":"levelo://app?vid=eee89c6a-8813-47e5-9c77-ccd562b18d36"},"vehicle_type_id":"4","last_reported":1703012627,"current_range_meters":18000,"station_id":"ce4bgv12rcd13ifvqcp0","pricing_plan_id":"free"},{"bike_id":"6e34925d-e42a-4345-bd5e-c0a2b50f717a","system_id":"levelo_inurba_marseille","lat":43.311722,"lon":5.387247,"is_reserved":false,"is_disabled":false,"rental_uris":{"android":"levelo://app?vid=6e34925d-e42a-4345-bd5e-c0a2b50f717a","ios":"levelo://app?vid=6e34925d-e42a-4345-bd5e-c0a2b50f717a"},"vehicle_type_id":"4","last_reported":1703012627,"current_range_meters":27200,"station_id":"ce4bgv12rcd13ifvqcp0","pricing_plan_id":"free"},{"bike_id":"3bed26bb-0ada-42b3-9c7f-dfbaac3937fa","system_id":"levelo_inurba_marseille","lat":43.322872,"lon":5.382756,"is_reserved":false,"is_disabled":false,"rental_uris":{"android":"levelo://app?vid=3bed26bb-0ada-42b3-9c7f-dfbaac3937fa","ios":"levelo://app?vid=3bed26bb-0ada-42b3-9c7f-dfbaac3937fa"},"vehicle_type_id":"4","last_reported":1703012627,"current_range_meters":27600,"station_id":"ce4bhr12rcd13ifvqhqg","pricing_plan_id":"free"},{"bike_id":"06f7ecc2-a81a-445d-91c4-92fc3a1d9ef2","system_id":"levelo_inurba_marseille","lat":43.297774,"lon":5.370875,"is_reserved":false,"is_disabled":false,"rental_uris":{"android":"levelo://app?vid=06f7ecc2-a81a-445d-91c4-92fc3a1d9ef2","ios":"levelo://app?vid=06f7ecc2-a81a-445d-91c4-92fc3a1d9ef2"},"vehicle_type_id":"4","last_reported":1703012627,"current_range_meters":1200,"station_id":"ce4bgop2rcd13ifvqc1g","pricing_plan_id":"free"},{"bike_id":"873a287b-4e8b-4542-834f-91bce629838e","system_id":"levelo_inurba_marseille","lat":43.322872,"lon":5.382756,"is_reserved":false,"is_disabled":false,"rental_uris":{"android":"levelo://app?vid=873a287b-4e8b-4542-834f-91bce629838e","ios":"levelo://app?vid=873a287b-4e8b-4542-834f-91bce629838e"},"vehicle_type_id":"4","last_reported":1703012627,"current_range_meters":24800,"station_id":"ce4bhr12rcd13ifvqhqg","pricing_plan_id":"free"},{"bike_id":"eb8ebe7d-6983-4780-997c-9447c3c0c6e2","system_id":"levelo_inurba_marseille","lat":43.32825,"lon":5.36689,"is_reserved":false,"is_disabled":false,"rental_uris":{"android":"levelo://app?vid=eb8ebe7d-6983-4780-997c-9447c3c0c6e2","ios":"levelo://app?vid=eb8ebe7d-6983-4780-997c-9447c3c0c6e2"},"vehicle_type_id":"4","last_reported":1703012627,"current_range_meters":31200,"station_id":"ce4bhs92rcd13ifvqi0g","pricing_plan_id":"free"},{"bike_id":"c22e4b9f-ba20-4a7c-a7c8-fd0a73d903e0","system_id":"levelo_inurba_marseille","lat":43.328371,"lon":5.366909,"is_reserved":false,"is_disabled":false,"rental_uris":{"android":"levelo://app?vid=c22e4b9f-ba20-4a7c-a7c8-fd0a73d903e0","ios":"levelo://app?vid=c22e4b9f-ba20-4a7c-a7c8-fd0a73d903e0"},"vehicle_type_id":"4","last_reported":1703012627,"current_range_meters":26400,"station_id":"ce4bhs92rcd13ifvqi0g","pricing_plan_id":"free"},{"bike_id":"c12df297-168e-4ca3-95d9-a300ff1ffbd9","system_id":"levelo_inurba_marseille","lat":43.328371,"lon":5.366909,"is_reserved":false,"is_disabled":false,"rental_uris":{"android":"levelo://app?vid=c12df297-168e-4ca3-95d9-a300ff1ffbd9","ios":"levelo://app?vid=c12df297-168e-4ca3-95d9-a300ff1ffbd9"},"vehicle_type_id":"4","last_reported":1703012627,"current_range_meters":31200,"station_id":"ce4bhs92rcd13ifvqi0g","pricing_plan_id":"free"},{"bike_id":"48ebe570-3797-4c11-9550-8036b565ccb1","system_id":"levelo_inurba_marseille","lat":43.328371,"lon":5.366909,"is_reserved":false,"is_disabled":false,"rental_uris":{"android":"levelo://app?vid=48ebe570-3797-4c11-9550-8036b565ccb1","ios":"levelo://app?vid=48ebe570-3797-4c11-9550-8036b565ccb1"},"vehicle_type_id":"4","last_reported":1703012627,"current_range_meters":30400,"station_id":"ce4bhs92rcd13ifvqi0g","pricing_plan_id":"free"},{"bike_id":"d6acffa9-1d1f-42e6-8d01-ac81190b6d3a","system_id":"levelo_inurba_marseille","lat":43.297163,"lon":5.365866,"is_reserved":false,"is_disabled":false,"rental_uris":{"android":"levelo://app?vid=d6acffa9-1d1f-42e6-8d01-ac81190b6d3a","ios":"levelo://app?vid=d6acffa9-1d1f-42e6-8d01-ac81190b6d3a"},"vehicle_type_id":"4","last_reported":1703012627,"current_range_meters":25200,"station_id":"ce4bgn12rcd13ifvqbt0","pricing_plan_id":"free"},{"bike_id":"8d16a536-f3f2-4cbf-a52e-c8c8c9b71be0","system_id":"levelo_inurba_marseille","lat":43.296131,"lon":5.370791,"is_reserved":false,"is_disabled":false,"rental_uris":{"android":"levelo://app?vid=8d16a536-f3f2-4cbf-a52e-c8c8c9b71be0","ios":"levelo://app?vid=8d16a536-f3f2-4cbf-a52e-c8c8c9b71be0"},"vehicle_type_id":"4","last_reported":1703012627,"current_range_meters":12800,"station_id":"ce4bgnh2rcd13ifvqc0g","pricing_plan_id":"free"},{"bike_id":"8c4fa6df-927a-41b1-8fb1-9dac069dd028","system_id":"levelo_inurba_marseille","lat":43.317557,"lon":5.390173,"is_reserved":false,"is_disabled":false,"rental_uris":{"android":"levelo://app?vid=8c4fa6df-927a-41b1-8fb1-9dac069dd028","ios":"levelo://app?vid=8c4fa6df-927a-41b1-8fb1-9dac069dd028"},"vehicle_type_id":"4","last_reported":1703012627,"current_range_meters":27600,"station_id":"ce4bhqp2rcd13ifvqhng","pricing_plan_id":"free"},{"bike_id":"40554fe8-87bf-41d5-b75a-7fd0e2ec929c","system_id":"levelo_inurba_marseille","lat":43.317557,"lon":5.390173,"is_reserved":false,"is_disabled":false,"rental_uris":{"android":"levelo://app?vid=40554fe8-87bf-41d5-b75a-7fd0e2ec929c","ios":"levelo://app?vid=40554fe8-87bf-41d5-b75a-7fd0e2ec929c"},"vehicle_type_id":"4","last_reported":1703012627,"current_range_meters":31200,"station_id":"ce4bhqp2rcd13ifvqhng","pricing_plan_id":"free"},{"bike_id":"5eb2bd39-1f40-4daa-aef3-38b62445e1a4","system_id":"levelo_inurba_marseille","lat":43.317557,"lon":5.390173,"is_reserved":false,"is_disabled":false,"rental_uris":{"android":"levelo://app?vid=5eb2bd39-1f40-4daa-aef3-38b62445e1a4","ios":"levelo://app?vid=5eb2bd39-1f40-4daa-aef3-38b62445e1a4"},"vehicle_type_id":"4","last_reported":1703012627,"current_range_meters":4800,"station_id":"ce4bhqp2rcd13ifvqhng","pricing_plan_id":"free"},{"bike_id":"02c579ee-a0fc-4b8d-b2ad-000124bb2316","system_id":"levelo_inurba_marseille","lat":43.298037,"lon":5.381066,"is_reserved":false,"is_disabled":false,"rental_uris":{"android":"levelo://app?vid=02c579ee-a0fc-4b8d-b2ad-000124bb2316","ios":"levelo://app?vid=02c579ee-a0fc-4b8d-b2ad-000124bb2316"},"vehicle_type_id":"4","last_reported":1703012627,"current_range_meters":11600,"station_id":"ce4bgip2rcd13ifvqbb0","pricing_plan_id":"free"},{"bike_id":"463ed030-5dc9-4394-a678-a37371864ecc","system_id":"levelo_inurba_marseille","lat":43.304274,"lon":5.388873,"is_reserved":false,"is_disabled":false,"rental_uris":{"android":"levelo://app?vid=463ed030-5dc9-4394-a678-a37371864ecc","ios":"levelo://app?vid=463ed030-5dc9-4394-a678-a37371864ecc"},"vehicle_type_id":"4","last_reported":1703012627,"current_range_meters":8400,"station_id":"ce4bgk12rcd13ifvqbi0","pricing_plan_id":"free"},{"bike_id":"83346718-c143-43ea-8b24-ddfe74507bd5","system_id":"levelo_inurba_marseille","lat":43.304278,"lon":5.388868,"is_reserved":false,"is_disabled":false,"rental_uris":{"android":"levelo://app?vid=83346718-c143-43ea-8b24-ddfe74507bd5","ios":"levelo://app?vid=83346718-c143-43ea-8b24-ddfe74507bd5"},"vehicle_type_id":"4","last_reported":1703012627,"current_range_meters":28400,"station_id":"ce4bgk12rcd13ifvqbi0","pricing_plan_id":"free"},{"bike_id":"442e6811-8e63-4356-838b-392c366cbdaa","system_id":"levelo_inurba_marseille","lat":43.304278,"lon":5.388868,"is_reserved":false,"is_disabled":false,"rental_uris":{"android":"levelo://app?vid=442e6811-8e63-4356-838b-392c366cbdaa","ios":"levelo://app?vid=442e6811-8e63-4356-838b-392c366cbdaa"},"vehicle_type_id":"4","last_reported":1703012627,"current_range_meters":21600,"station_id":"ce4bgk12rcd13ifvqbi0","pricing_plan_id":"free"},{"bike_id":"d19c3baa-e3a9-4bf4-be6e-624bcca3f800","system_id":"levelo_inurba_marseille","lat":43.299717,"lon":5.384845,"is_reserved":false,"is_disabled":false,"rental_uris":{"android":"levelo://app?vid=d19c3baa-e3a9-4bf4-be6e-624bcca3f800","ios":"levelo://app?vid=d19c3baa-e3a9-4bf4-be6e-624bcca3f800"},"vehicle_type_id":"4","last_reported":1703012627,"current_range_meters":16400,"station_id":"ce4bgj92rcd13ifvqbd0","pricing_plan_id":"free"},{"bike_id":"22a4fc37-cd0c-439a-9715-4a11508bb4b3","system_id":"levelo_inurba_marseille","lat":43.32367,"lon":5.388836,"is_reserved":false,"is_disabled":false,"rental_uris":{"android":"levelo://app?vid=22a4fc37-cd0c-439a-9715-4a11508bb4b3","ios":"levelo://app?vid=22a4fc37-cd0c-439a-9715-4a11508bb4b3"},"vehicle_type_id":"4","last_reported":1703012627,"current_range_meters":22400,"station_id":"ce4bhqp2rcd13ifvqhog","pricing_plan_id":"free"},{"bike_id":"70fda661-87d6-419e-9b40-f9c4076436b5","system_id":"levelo_inurba_marseille","lat":43.32367,"lon":5.388836,"is_reserved":false,"is_disabled":false,"rental_uris":{"android":"levelo://app?vid=70fda661-87d6-419e-9b40-f9c4076436b5","ios":"levelo://app?vid=70fda661-87d6-419e-9b40-f9c4076436b5"},"vehicle_type_id":"4","last_reported":1703012627,"current_range_meters":31200,"station_id":"ce4bhqp2rcd13ifvqhog","pricing_plan_id":"free"},{"bike_id":"f6c944ac-76c5-4af7-bad2-2080808a45f4","system_id":"levelo_inurba_marseille","lat":43.32367,"lon":5.388836,"is_reserved":false,"is_disabled":false,"rental_uris":{"android":"levelo://app?vid=f6c944ac-76c5-4af7-bad2-2080808a45f4","ios":"levelo://app?vid=f6c944ac-76c5-4af7-bad2-2080808a45f4"},"vehicle_type_id":"4","last_reported":1703012627,"current_range_meters":31200,"station_id":"ce4bhqp2rcd13ifvqhog","pricing_plan_id":"free"},{"bike_id":"8095ca0b-42b6-4ab8-83ff-f4ce6945da94","system_id":"levelo_inurba_marseille","lat":43.292749,"lon":5.368402,"is_reserved":false,"is_disabled":false,"rental_uris":{"android":"levelo://app?vid=8095ca0b-42b6-4ab8-83ff-f4ce6945da94","ios":"levelo://app?vid=8095ca0b-42b6-4ab8-83ff-f4ce6945da94"},"vehicle_type_id":"4","last_reported":1703012627,"current_range_meters":2000,"station_id":"ce4bhbp2rcd13ifvqesg","pricing_plan_id":"free"},{"bike_id":"bb899513-9191-406e-9e24-df8272eeb337","system_id":"levelo_inurba_marseille","lat":43.292749,"lon":5.368402,"is_reserved":false,"is_disabled":false,"rental_uris":{"android":"levelo://app?vid=bb899513-9191-406e-9e24-df8272eeb337","ios":"levelo://app?vid=bb899513-9191-406e-9e24-df8272eeb337"},"vehicle_type_id":"4","last_reported":1703012627,"current_range_meters":18800,"station_id":"ce4bhbp2rcd13ifvqesg","pricing_plan_id":"free"},{"bike_id":"ecb5aa0a-28de-49c1-bdf6-1405855c6a1f","system_id":"levelo_inurba_marseille","lat":43.293009,"lon":5.374584,"is_reserved":false,"is_disabled":false,"rental_uris":{"android":"levelo://app?vid=ecb5aa0a-28de-49c1-bdf6-1405855c6a1f","ios":"levelo://app?vid=ecb5aa0a-28de-49c1-bdf6-1405855c6a1f"},"vehicle_type_id":"4","last_reported":1703012627,"current_range_meters":28800,"station_id":"ce4bgi12rcd13ifvqb70","pricing_plan_id":"free"},{"bike_id":"f0952096-9bad-4946-966e-94c86c299a6e","system_id":"levelo_inurba_marseille","lat":43.305994,"lon":5.393687,"is_reserved":false,"is_disabled":false,"rental_uris":{"android":"levelo://app?vid=f0952096-9bad-4946-966e-94c86c299a6e","ios":"levelo://app?vid=f0952096-9bad-4946-966e-94c86c299a6e"},"vehicle_type_id":"4","last_reported":1703012627,"current_range_meters":11200,"station_id":"ce4bh0p2rcd13ifvqd80","pricing_plan_id":"free"},{"bike_id":"d0a32a14-2161-452f-b532-7d5ec5eec1b9","system_id":"levelo_inurba_marseille","lat":43.2936,"lon":5.37835,"is_reserved":false,"is_disabled":false,"rental_uris":{"android":"levelo://app?vid=d0a32a14-2161-452f-b532-7d5ec5eec1b9","ios":"levelo://app?vid=d0a32a14-2161-452f-b532-7d5ec5eec1b9"},"vehicle_type_id":"4","last_reported":1703012627,"current_range_meters":18800,"station_id":"ce4bgjh2rcd13ifvqbf0","pricing_plan_id":"free"},{"bike_id":"14fdd7dc-6f80-4b49-9d83-04a821351b28","system_id":"levelo_inurba_marseille","lat":43.300852,"lon":5.390859,"is_reserved":false,"is_disabled":false,"rental_uris":{"android":"levelo://app?vid=14fdd7dc-6f80-4b49-9d83-04a821351b28","ios":"levelo://app?vid=14fdd7dc-6f80-4b49-9d83-04a821351b28"},"vehicle_type_id":"4","last_reported":1703012627,"current_range_meters":19200,"station_id":"ce4bh192rcd13ifvqdb0","pricing_plan_id":"free"},{"bike_id":"3aae2b91-aff2-45cf-98d0-4096be38d29a","system_id":"levelo_inurba_marseille","lat":43.300961,"lon":5.390836,"is_reserved":false,"is_disabled":false,"rental_uris":{"android":"levelo://app?vid=3aae2b91-aff2-45cf-98d0-4096be38d29a","ios":"levelo://app?vid=3aae2b91-aff2-45cf-98d0-4096be38d29a"},"vehicle_type_id":"4","last_reported":1703012627,"current_range_meters":27600,"station_id":"","pricing_plan_id":"free"},{"bike_id":"67dbc710-e248-4701-92da-b94e6f063a32","system_id":"levelo_inurba_marseille","lat":43.32296,"lon":5.3925,"is_reserved":false,"is_disabled":false,"rental_uris":{"android":"levelo://app?vid=67dbc710-e248-4701-92da-b94e6f063a32","ios":"levelo://app?vid=67dbc710-e248-4701-92da-b94e6f063a32"},"vehicle_type_id":"4","last_reported":1703012627,"current_range_meters":8000,"station_id":"","pricing_plan_id":"free"},{"bike_id":"4d58e6f0-9efe-4656-9012-bc6cc6bcee5b","system_id":"levelo_inurba_marseille","lat":43.298803,"lon":5.389003,"is_reserved":false,"is_disabled":false,"rental_uris":{"android":"levelo://app?vid=4d58e6f0-9efe-4656-9012-bc6cc6bcee5b","ios":"levelo://app?vid=4d58e6f0-9efe-4656-9012-bc6cc6bcee5b"},"vehicle_type_id":"4","last_reported":1703012627,"current_range_meters":4000,"station_id":"","pricing_plan_id":"free"},{"bike_id":"16101d3b-6d24-4443-9a98-4c4b1e39413c","system_id":"levelo_inurba_marseille","lat":43.291671,"lon":5.371575,"is_reserved":false,"is_disabled":false,"rental_uris":{"android":"levelo://app?vid=16101d3b-6d24-4443-9a98-4c4b1e39413c","ios":"levelo://app?vid=16101d3b-6d24-4443-9a98-4c4b1e39413c"},"vehicle_type_id":"4","last_reported":1703012627,"current_range_meters":12400,"station_id":"ce4bha92rcd13ifvqeh0","pricing_plan_id":"free"},{"bike_id":"d6be523b-c47d-49bb-867e-4b36b896406f","system_id":"levelo_inurba_marseille","lat":43.291675,"lon":5.371583,"is_reserved":false,"is_disabled":false,"rental_uris":{"android":"levelo://app?vid=d6be523b-c47d-49bb-867e-4b36b896406f","ios":"levelo://app?vid=d6be523b-c47d-49bb-867e-4b36b896406f"},"vehicle_type_id":"4","last_reported":1703012627,"current_range_meters":26800,"station_id":"ce4bha92rcd13ifvqeh0","pricing_plan_id":"free"},{"bike_id":"89479ad6-e1a2-4068-b6cd-3dd1a891b103","system_id":"levelo_inurba_marseille","lat":43.291675,"lon":5.371583,"is_reserved":false,"is_disabled":false,"rental_uris":{"android":"levelo://app?vid=89479ad6-e1a2-4068-b6cd-3dd1a891b103","ios":"levelo://app?vid=89479ad6-e1a2-4068-b6cd-3dd1a891b103"},"vehicle_type_id":"4","last_reported":1703012627,"current_range_meters":30800,"station_id":"ce4bha92rcd13ifvqeh0","pricing_plan_id":"free"},{"bike_id":"81b8b4f2-3eb2-4ed7-98b6-4f3b8a983758","system_id":"levelo_inurba_marseille","lat":43.291671,"lon":5.371575,"is_reserved":false,"is_disabled":false,"rental_uris":{"android":"levelo://app?vid=81b8b4f2-3eb2-4ed7-98b6-4f3b8a983758","ios":"levelo://app?vid=81b8b4f2-3eb2-4ed7-98b6-4f3b8a983758"},"vehicle_type_id":"4","last_reported":1703012627,"current_range_meters":4800,"station_id":"ce4bha92rcd13ifvqeh0","pricing_plan_id":"free"},{"bike_id":"f2410063-9401-44bb-9627-6471ca1f9221","system_id":"levelo_inurba_marseille","lat":43.309038,"lon":5.396546,"is_reserved":false,"is_disabled":false,"rental_uris":{"android":"levelo://app?vid=f2410063-9401-44bb-9627-6471ca1f9221","ios":"levelo://app?vid=f2410063-9401-44bb-9627-6471ca1f9221"},"vehicle_type_id":"4","last_reported":1703012627,"current_range_meters":20800,"station_id":"ce4bh012rcd13ifvqcv0","pricing_plan_id":"free"},{"bike_id":"6960561d-5944-40e3-85c9-76abce5ce314","system_id":"levelo_inurba_marseille","lat":43.291994,"lon":5.357886,"is_reserved":false,"is_disabled":false,"rental_uris":{"android":"levelo://app?vid=6960561d-5944-40e3-85c9-76abce5ce314","ios":"levelo://app?vid=6960561d-5944-40e3-85c9-76abce5ce314"},"vehicle_type_id":"4","last_reported":1703012627,"current_range_meters":6400,"station_id":"ce4bhb12rcd13ifvqel0","pricing_plan_id":"free"},{"bike_id":"981bd619-307f-4ed0-84e6-feaa3c71a64f","system_id":"levelo_inurba_marseille","lat":43.313291,"lon":5.396838,"is_reserved":false,"is_disabled":false,"rental_uris":{"android":"levelo://app?vid=981bd619-307f-4ed0-84e6-feaa3c71a64f","ios":"levelo://app?vid=981bd619-307f-4ed0-84e6-feaa3c71a64f"},"vehicle_type_id":"4","last_reported":1703012627,"current_range_meters":25200,"station_id":"ce4bgvp2rcd13ifvqcu0","pricing_plan_id":"free"},{"bike_id":"1b062a3e-c939-4851-aabb-ce93bd49ef85","system_id":"levelo_inurba_marseille","lat":43.313291,"lon":5.396838,"is_reserved":false,"is_disabled":false,"rental_uris":{"android":"levelo://app?vid=1b062a3e-c939-4851-aabb-ce93bd49ef85","ios":"levelo://app?vid=1b062a3e-c939-4851-aabb-ce93bd49ef85"},"vehicle_type_id":"4","last_reported":1703012627,"current_range_meters":24800,"station_id":"ce4bgvp2rcd13ifvqcu0","pricing_plan_id":"free"},{"bike_id":"269c9be6-1557-4ea6-9a7e-6b575d4289f4","system_id":"levelo_inurba_marseille","lat":43.309047,"lon":5.396551,"is_reserved":false,"is_disabled":false,"rental_uris":{"android":"levelo://app?vid=269c9be6-1557-4ea6-9a7e-6b575d4289f4","ios":"levelo://app?vid=269c9be6-1557-4ea6-9a7e-6b575d4289f4"},"vehicle_type_id":"4","last_reported":1703012627,"current_range_meters":31600,"station_id":"ce4bh012rcd13ifvqcv0","pricing_plan_id":"free"},{"bike_id":"123f6846-4316-4d20-a0b1-d9640ea3a43d","system_id":"levelo_inurba_marseille","lat":43.313291,"lon":5.396838,"is_reserved":false,"is_disabled":false,"rental_uris":{"android":"levelo://app?vid=123f6846-4316-4d20-a0b1-d9640ea3a43d","ios":"levelo://app?vid=123f6846-4316-4d20-a0b1-d9640ea3a43d"},"vehicle_type_id":"4","last_reported":1703012627,"current_range_meters":31200,"station_id":"ce4bgvp2rcd13ifvqcu0","pricing_plan_id":"free"},{"bike_id":"92b4909a-3848-412a-8a40-181618f34250","system_id":"levelo_inurba_marseille","lat":43.309038,"lon":5.396546,"is_reserved":false,"is_disabled":false,"rental_uris":{"android":"levelo://app?vid=92b4909a-3848-412a-8a40-181618f34250","ios":"levelo://app?vid=92b4909a-3848-412a-8a40-181618f34250"},"vehicle_type_id":"4","last_reported":1703012627,"current_range_meters":20000,"station_id":"ce4bh012rcd13ifvqcv0","pricing_plan_id":"free"},{"bike_id":"81fa4c34-bc3a-4719-bd7f-9b4dd5d53b94","system_id":"levelo_inurba_marseille","lat":43.309047,"lon":5.396551,"is_reserved":false,"is_disabled":false,"rental_uris":{"android":"levelo://app?vid=81fa4c34-bc3a-4719-bd7f-9b4dd5d53b94","ios":"levelo://app?vid=81fa4c34-bc3a-4719-bd7f-9b4dd5d53b94"},"vehicle_type_id":"4","last_reported":1703012627,"current_range_meters":11600,"station_id":"ce4bh012rcd13ifvqcv0","pricing_plan_id":"free"},{"bike_id":"8e672063-b80a-4e5c-bf41-eef17536e40a","system_id":"levelo_inurba_marseille","lat":43.313291,"lon":5.396838,"is_reserved":false,"is_disabled":false,"rental_uris":{"android":"levelo://app?vid=8e672063-b80a-4e5c-bf41-eef17536e40a","ios":"levelo://app?vid=8e672063-b80a-4e5c-bf41-eef17536e40a"},"vehicle_type_id":"4","last_reported":1703012627,"current_range_meters":31200,"station_id":"ce4bgvp2rcd13ifvqcu0","pricing_plan_id":"free"},{"bike_id":"b232da9e-922d-45aa-b476-a1c2053db223","system_id":"levelo_inurba_marseille","lat":43.29529,"lon":5.385581,"is_reserved":false,"is_disabled":false,"rental_uris":{"android":"levelo://app?vid=b232da9e-922d-45aa-b476-a1c2053db223","ios":"levelo://app?vid=b232da9e-922d-45aa-b476-a1c2053db223"},"vehicle_type_id":"4","last_reported":1703012627,"current_range_meters":21600,"station_id":"ce4bgih2rcd13ifvqba0","pricing_plan_id":"free"},{"bike_id":"fe64a291-db1d-446c-828e-01e7c3d9631c","system_id":"levelo_inurba_marseille","lat":43.29529,"lon":5.385581,"is_reserved":false,"is_disabled":false,"rental_uris":{"android":"levelo://app?vid=fe64a291-db1d-446c-828e-01e7c3d9631c","ios":"levelo://app?vid=fe64a291-db1d-446c-828e-01e7c3d9631c"},"vehicle_type_id":"4","last_reported":1703012627,"current_range_meters":23200,"station_id":"ce4bgih2rcd13ifvqba0","pricing_plan_id":"free"},{"bike_id":"0c02f659-e6a6-49f7-99b5-95bbe7b7f4c1","system_id":"levelo_inurba_marseille","lat":43.290631,"lon":5.359244,"is_reserved":false,"is_disabled":false,"rental_uris":{"android":"levelo://app?vid=0c02f659-e6a6-49f7-99b5-95bbe7b7f4c1","ios":"levelo://app?vid=0c02f659-e6a6-49f7-99b5-95bbe7b7f4c1"},"vehicle_type_id":"4","last_reported":1703012627,"current_range_meters":15600,"station_id":"ce4bha92rcd13ifvqeg0","pricing_plan_id":"free"},{"bike_id":"a5019df1-53e9-43bc-9d47-08f74c0120b1","system_id":"levelo_inurba_marseille","lat":43.294153,"lon":5.386305,"is_reserved":false,"is_disabled":false,"rental_uris":{"android":"levelo://app?vid=a5019df1-53e9-43bc-9d47-08f74c0120b1","ios":"levelo://app?vid=a5019df1-53e9-43bc-9d47-08f74c0120b1"},"vehicle_type_id":"4","last_reported":1703012627,"current_range_meters":22400,"station_id":"ce4bh2h2rcd13ifvqdh0","pricing_plan_id":"free"},{"bike_id":"2dc82db2-de2b-4d47-be47-e3f5012de253","system_id":"levelo_inurba_marseille","lat":43.294153,"lon":5.386305,"is_reserved":false,"is_disabled":false,"rental_uris":{"android":"levelo://app?vid=2dc82db2-de2b-4d47-be47-e3f5012de253","ios":"levelo://app?vid=2dc82db2-de2b-4d47-be47-e3f5012de253"},"vehicle_type_id":"4","last_reported":1703012627,"current_range_meters":20800,"station_id":"ce4bh2h2rcd13ifvqdh0","pricing_plan_id":"free"},{"bike_id":"09ea0a4d-197d-4b43-9dc7-474d9ce30227","system_id":"levelo_inurba_marseille","lat":43.294153,"lon":5.386305,"is_reserved":false,"is_disabled":false,"rental_uris":{"android":"levelo://app?vid=09ea0a4d-197d-4b43-9dc7-474d9ce30227","ios":"levelo://app?vid=09ea0a4d-197d-4b43-9dc7-474d9ce30227"},"vehicle_type_id":"4","last_reported":1703012627,"current_range_meters":18000,"station_id":"ce4bh2h2rcd13ifvqdh0","pricing_plan_id":"free"},{"bike_id":"59cf7ac0-4862-4c6b-9a64-9bdaa0673c88","system_id":"levelo_inurba_marseille","lat":43.294184,"lon":5.386285,"is_reserved":false,"is_disabled":false,"rental_uris":{"android":"levelo://app?vid=59cf7ac0-4862-4c6b-9a64-9bdaa0673c88","ios":"levelo://app?vid=59cf7ac0-4862-4c6b-9a64-9bdaa0673c88"},"vehicle_type_id":"4","last_reported":1703012627,"current_range_meters":800,"station_id":"ce4bh2h2rcd13ifvqdh0","pricing_plan_id":"free"},{"bike_id":"d955a03a-17fb-4d5a-bca6-e7cc96c68652","system_id":"levelo_inurba_marseille","lat":43.289184,"lon":5.366408,"is_reserved":false,"is_disabled":false,"rental_uris":{"android":"levelo://app?vid=d955a03a-17fb-4d5a-bca6-e7cc96c68652","ios":"levelo://app?vid=d955a03a-17fb-4d5a-bca6-e7cc96c68652"},"vehicle_type_id":"4","last_reported":1703012627,"current_range_meters":0,"station_id":"ce4bhap2rcd13ifvqek0","pricing_plan_id":"free"},{"bike_id":"267db500-57a9-4857-898b-ef92b9c5a9cf","system_id":"levelo_inurba_marseille","lat":43.289468,"lon":5.363719,"is_reserved":false,"is_disabled":false,"rental_uris":{"android":"levelo://app?vid=267db500-57a9-4857-898b-ef92b9c5a9cf","ios":"levelo://app?vid=267db500-57a9-4857-898b-ef92b9c5a9cf"},"vehicle_type_id":"4","last_reported":1703012627,"current_range_meters":14400,"station_id":"ce4bhc92rcd13ifvqetg","pricing_plan_id":"free"},{"bike_id":"bfaed376-ed72-4631-9ccf-7ce108fcef5e","system_id":"levelo_inurba_marseille","lat":43.292642,"lon":5.384254,"is_reserved":false,"is_disabled":false,"rental_uris":{"android":"levelo://app?vid=bfaed376-ed72-4631-9ccf-7ce108fcef5e","ios":"levelo://app?vid=bfaed376-ed72-4631-9ccf-7ce108fcef5e"},"vehicle_type_id":"4","last_reported":1703012627,"current_range_meters":7600,"station_id":"ce4bh692rcd13ifvqea0","pricing_plan_id":"free"},{"bike_id":"08bc5949-3096-45c9-8d3f-58d7e8ed0c24","system_id":"levelo_inurba_marseille","lat":43.330442,"lon":5.389148,"is_reserved":false,"is_disabled":false,"rental_uris":{"android":"levelo://app?vid=08bc5949-3096-45c9-8d3f-58d7e8ed0c24","ios":"levelo://app?vid=08bc5949-3096-45c9-8d3f-58d7e8ed0c24"},"vehicle_type_id":"4","last_reported":1703012627,"current_range_meters":5200,"station_id":"ce4bhr92rcd13ifvqhrg","pricing_plan_id":"free"},{"bike_id":"f9de8fb0-d0f9-4855-8451-afff0b454db2","system_id":"levelo_inurba_marseille","lat":43.330442,"lon":5.389148,"is_reserved":false,"is_disabled":false,"rental_uris":{"android":"levelo://app?vid=f9de8fb0-d0f9-4855-8451-afff0b454db2","ios":"levelo://app?vid=f9de8fb0-d0f9-4855-8451-afff0b454db2"},"vehicle_type_id":"4","last_reported":1703012627,"current_range_meters":26800,"station_id":"ce4bhr92rcd13ifvqhrg","pricing_plan_id":"free"},{"bike_id":"73480e66-4884-4d83-9700-e0acd3cc4734","system_id":"levelo_inurba_marseille","lat":43.330442,"lon":5.389148,"is_reserved":false,"is_disabled":false,"rental_uris":{"android":"levelo://app?vid=73480e66-4884-4d83-9700-e0acd3cc4734","ios":"levelo://app?vid=73480e66-4884-4d83-9700-e0acd3cc4734"},"vehicle_type_id":"4","last_reported":1703012627,"current_range_meters":17200,"station_id":"ce4bhr92rcd13ifvqhrg","pricing_plan_id":"free"},{"bike_id":"2fb71484-fd85-4cf1-841b-c6fa44a405e2","system_id":"levelo_inurba_marseille","lat":43.330442,"lon":5.389148,"is_reserved":false,"is_disabled":false,"rental_uris":{"android":"levelo://app?vid=2fb71484-fd85-4cf1-841b-c6fa44a405e2","ios":"levelo://app?vid=2fb71484-fd85-4cf1-841b-c6fa44a405e2"},"vehicle_type_id":"4","last_reported":1703012627,"current_range_meters":2000,"station_id":"ce4bhr92rcd13ifvqhrg","pricing_plan_id":"free"},{"bike_id":"7ce82c8b-e8cc-4ee9-ae39-6c00230f93d9","system_id":"levelo_inurba_marseille","lat":43.330442,"lon":5.389148,"is_reserved":false,"is_disabled":false,"rental_uris":{"android":"levelo://app?vid=7ce82c8b-e8cc-4ee9-ae39-6c00230f93d9","ios":"levelo://app?vid=7ce82c8b-e8cc-4ee9-ae39-6c00230f93d9"},"vehicle_type_id":"4","last_reported":1703012627,"current_range_meters":6000,"station_id":"ce4bhr92rcd13ifvqhrg","pricing_plan_id":"free"},{"bike_id":"03cab1e7-d703-4d5f-a324-dcac8ce22b0d","system_id":"levelo_inurba_marseille","lat":43.290044,"lon":5.356147,"is_reserved":false,"is_disabled":false,"rental_uris":{"android":"levelo://app?vid=03cab1e7-d703-4d5f-a324-dcac8ce22b0d","ios":"levelo://app?vid=03cab1e7-d703-4d5f-a324-dcac8ce22b0d"},"vehicle_type_id":"4","last_reported":1703012627,"current_range_meters":3200,"station_id":"","pricing_plan_id":"free"},{"bike_id":"bc6240e1-e0cc-4c2f-9aa6-3921ab128b65","system_id":"levelo_inurba_marseille","lat":43.290104,"lon":5.356111,"is_reserved":false,"is_disabled":false,"rental_uris":{"android":"levelo://app?vid=bc6240e1-e0cc-4c2f-9aa6-3921ab128b65","ios":"levelo://app?vid=bc6240e1-e0cc-4c2f-9aa6-3921ab128b65"},"vehicle_type_id":"4","last_reported":1703012627,"current_range_meters":12800,"station_id":"ce4bhb92rcd13ifvqen0","pricing_plan_id":"free"},{"bike_id":"3e3b6b53-e4f1-4369-8021-f2801aa11e6d","system_id":"levelo_inurba_marseille","lat":43.297815,"lon":5.393548,"is_reserved":false,"is_disabled":false,"rental_uris":{"android":"levelo://app?vid=3e3b6b53-e4f1-4369-8021-f2801aa11e6d","ios":"levelo://app?vid=3e3b6b53-e4f1-4369-8021-f2801aa11e6d"},"vehicle_type_id":"4","last_reported":1703012627,"current_range_meters":5200,"station_id":"chh1huq6cuj3fo74tm60","pricing_plan_id":"free"},{"bike_id":"df8eaff5-aa73-4b63-a615-50b8d2a078da","system_id":"levelo_inurba_marseille","lat":43.29783,"lon":5.39335,"is_reserved":false,"is_disabled":false,"rental_uris":{"android":"levelo://app?vid=df8eaff5-aa73-4b63-a615-50b8d2a078da","ios":"levelo://app?vid=df8eaff5-aa73-4b63-a615-50b8d2a078da"},"vehicle_type_id":"4","last_reported":1703012627,"current_range_meters":6000,"station_id":"chh1huq6cuj3fo74tm60","pricing_plan_id":"free"},{"bike_id":"cf76304d-83b6-4b82-aa4d-e2a8750c038a","system_id":"levelo_inurba_marseille","lat":43.297837,"lon":5.393367,"is_reserved":false,"is_disabled":false,"rental_uris":{"android":"levelo://app?vid=cf76304d-83b6-4b82-aa4d-e2a8750c038a","ios":"levelo://app?vid=cf76304d-83b6-4b82-aa4d-e2a8750c038a"},"vehicle_type_id":"4","last_reported":1703012627,"current_range_meters":22400,"station_id":"chh1huq6cuj3fo74tm60","pricing_plan_id":"free"},{"bike_id":"f769c34e-4a0a-4af9-a6af-653ef2a6cae9","system_id":"levelo_inurba_marseille","lat":43.297815,"lon":5.393548,"is_reserved":false,"is_disabled":false,"rental_uris":{"android":"levelo://app?vid=f769c34e-4a0a-4af9-a6af-653ef2a6cae9","ios":"levelo://app?vid=f769c34e-4a0a-4af9-a6af-653ef2a6cae9"},"vehicle_type_id":"4","last_reported":1703012627,"current_range_meters":11200,"station_id":"chh1huq6cuj3fo74tm60","pricing_plan_id":"free"},{"bike_id":"989d8d42-4c1f-4cb7-b01a-25185bf1fe2e","system_id":"levelo_inurba_marseille","lat":43.297815,"lon":5.393548,"is_reserved":false,"is_disabled":false,"rental_uris":{"android":"levelo://app?vid=989d8d42-4c1f-4cb7-b01a-25185bf1fe2e","ios":"levelo://app?vid=989d8d42-4c1f-4cb7-b01a-25185bf1fe2e"},"vehicle_type_id":"4","last_reported":1703012627,"current_range_meters":8800,"station_id":"chh1huq6cuj3fo74tm60","pricing_plan_id":"free"},{"bike_id":"3a8140b6-e3cd-4b2d-b5ac-2abbf7b7f6ab","system_id":"levelo_inurba_marseille","lat":43.295169,"lon":5.390426,"is_reserved":false,"is_disabled":false,"rental_uris":{"android":"levelo://app?vid=3a8140b6-e3cd-4b2d-b5ac-2abbf7b7f6ab","ios":"levelo://app?vid=3a8140b6-e3cd-4b2d-b5ac-2abbf7b7f6ab"},"vehicle_type_id":"4","last_reported":1703012627,"current_range_meters":12400,"station_id":"ce4bh3p2rcd13ifvqdp0","pricing_plan_id":"free"},{"bike_id":"da3c052a-f918-4420-8ec2-afba91c0eaf0","system_id":"levelo_inurba_marseille","lat":43.295169,"lon":5.390426,"is_reserved":false,"is_disabled":false,"rental_uris":{"android":"levelo://app?vid=da3c052a-f918-4420-8ec2-afba91c0eaf0","ios":"levelo://app?vid=da3c052a-f918-4420-8ec2-afba91c0eaf0"},"vehicle_type_id":"4","last_reported":1703012627,"current_range_meters":16400,"station_id":"ce4bh3p2rcd13ifvqdp0","pricing_plan_id":"free"},{"bike_id":"9d71be5a-0c98-41eb-815a-70a0cd3c1b48","system_id":"levelo_inurba_marseille","lat":43.295169,"lon":5.390426,"is_reserved":false,"is_disabled":false,"rental_uris":{"android":"levelo://app?vid=9d71be5a-0c98-41eb-815a-70a0cd3c1b48","ios":"levelo://app?vid=9d71be5a-0c98-41eb-815a-70a0cd3c1b48"},"vehicle_type_id":"4","last_reported":1703012627,"current_range_meters":3600,"station_id":"ce4bh3p2rcd13ifvqdp0","pricing_plan_id":"free"},{"bike_id":"3b971fa1-b802-4a4e-9754-c7850e7d0283","system_id":"levelo_inurba_marseille","lat":43.295169,"lon":5.390426,"is_reserved":false,"is_disabled":false,"rental_uris":{"android":"levelo://app?vid=3b971fa1-b802-4a4e-9754-c7850e7d0283","ios":"levelo://app?vid=3b971fa1-b802-4a4e-9754-c7850e7d0283"},"vehicle_type_id":"4","last_reported":1703012627,"current_range_meters":4000,"station_id":"ce4bh3p2rcd13ifvqdp0","pricing_plan_id":"free"},{"bike_id":"37a832ab-5640-4832-88c8-54e591394389","system_id":"levelo_inurba_marseille","lat":43.295169,"lon":5.390426,"is_reserved":false,"is_disabled":false,"rental_uris":{"android":"levelo://app?vid=37a832ab-5640-4832-88c8-54e591394389","ios":"levelo://app?vid=37a832ab-5640-4832-88c8-54e591394389"},"vehicle_type_id":"4","last_reported":1703012627,"current_range_meters":6400,"station_id":"ce4bh3p2rcd13ifvqdp0","pricing_plan_id":"free"},{"bike_id":"f6791569-8ab6-4e53-892f-bad6148b443d","system_id":"levelo_inurba_marseille","lat":43.289743,"lon":5.378304,"is_reserved":false,"is_disabled":false,"rental_uris":{"android":"levelo://app?vid=f6791569-8ab6-4e53-892f-bad6148b443d","ios":"levelo://app?vid=f6791569-8ab6-4e53-892f-bad6148b443d"},"vehicle_type_id":"4","last_reported":1703012627,"current_range_meters":23600,"station_id":"ce4bh9p2rcd13ifvqed0","pricing_plan_id":"free"},{"bike_id":"1060473c-9bce-4fb2-8a8d-90039c94fef3","system_id":"levelo_inurba_marseille","lat":43.2901,"lon":5.381269,"is_reserved":false,"is_disabled":false,"rental_uris":{"android":"levelo://app?vid=1060473c-9bce-4fb2-8a8d-90039c94fef3","ios":"levelo://app?vid=1060473c-9bce-4fb2-8a8d-90039c94fef3"},"vehicle_type_id":"4","last_reported":1703012627,"current_range_meters":18000,"station_id":"ce4bh4p2rcd13ifvqe1g","pricing_plan_id":"free"},{"bike_id":"2314c247-45b7-482c-a8c2-94addfb75a05","system_id":"levelo_inurba_marseille","lat":43.28845,"lon":5.35852,"is_reserved":false,"is_disabled":false,"rental_uris":{"android":"levelo://app?vid=2314c247-45b7-482c-a8c2-94addfb75a05","ios":"levelo://app?vid=2314c247-45b7-482c-a8c2-94addfb75a05"},"vehicle_type_id":"4","last_reported":1703012627,"current_range_meters":19200,"station_id":"ce4bhb12rcd13ifvqem0","pricing_plan_id":"free"},{"bike_id":"1da1e231-5b30-48fa-94e1-270d37ce07a5","system_id":"levelo_inurba_marseille","lat":43.309371,"lon":5.401449,"is_reserved":false,"is_disabled":false,"rental_uris":{"android":"levelo://app?vid=1da1e231-5b30-48fa-94e1-270d37ce07a5","ios":"levelo://app?vid=1da1e231-5b30-48fa-94e1-270d37ce07a5"},"vehicle_type_id":"4","last_reported":1703012627,"current_range_meters":22800,"station_id":"ce4bgvp2rcd13ifvqct0","pricing_plan_id":"free"},{"bike_id":"9a6099ab-a40d-4b6a-8582-715d207e2801","system_id":"levelo_inurba_marseille","lat":43.309371,"lon":5.401449,"is_reserved":false,"is_disabled":false,"rental_uris":{"android":"levelo://app?vid=9a6099ab-a40d-4b6a-8582-715d207e2801","ios":"levelo://app?vid=9a6099ab-a40d-4b6a-8582-715d207e2801"},"vehicle_type_id":"4","last_reported":1703012627,"current_range_meters":30400,"station_id":"ce4bgvp2rcd13ifvqct0","pricing_plan_id":"free"},{"bike_id":"25d32a4e-2431-4469-aff9-239e16262af8","system_id":"levelo_inurba_marseille","lat":43.309371,"lon":5.401449,"is_reserved":false,"is_disabled":false,"rental_uris":{"android":"levelo://app?vid=25d32a4e-2431-4469-aff9-239e16262af8","ios":"levelo://app?vid=25d32a4e-2431-4469-aff9-239e16262af8"},"vehicle_type_id":"4","last_reported":1703012627,"current_range_meters":24800,"station_id":"ce4bgvp2rcd13ifvqct0","pricing_plan_id":"free"},{"bike_id":"b0aaa213-6b84-4f23-af6c-d20e0a13f37a","system_id":"levelo_inurba_marseille","lat":43.309371,"lon":5.401449,"is_reserved":false,"is_disabled":false,"rental_uris":{"android":"levelo://app?vid=b0aaa213-6b84-4f23-af6c-d20e0a13f37a","ios":"levelo://app?vid=b0aaa213-6b84-4f23-af6c-d20e0a13f37a"},"vehicle_type_id":"4","last_reported":1703012627,"current_range_meters":18800,"station_id":"ce4bgvp2rcd13ifvqct0","pricing_plan_id":"free"},{"bike_id":"2054c906-6809-49e3-931b-c23603bf0296","system_id":"levelo_inurba_marseille","lat":43.30923,"lon":5.40141,"is_reserved":false,"is_disabled":false,"rental_uris":{"android":"levelo://app?vid=2054c906-6809-49e3-931b-c23603bf0296","ios":"levelo://app?vid=2054c906-6809-49e3-931b-c23603bf0296"},"vehicle_type_id":"4","last_reported":1703012627,"current_range_meters":0,"station_id":"ce4bgvp2rcd13ifvqct0","pricing_plan_id":"free"},{"bike_id":"f45ce3b5-af32-4ddb-a1ff-10c5533ea990","system_id":"levelo_inurba_marseille","lat":43.302992,"lon":5.392136,"is_reserved":false,"is_disabled":false,"rental_uris":{"android":"levelo://app?vid=f45ce3b5-af32-4ddb-a1ff-10c5533ea990","ios":"levelo://app?vid=f45ce3b5-af32-4ddb-a1ff-10c5533ea990"},"vehicle_type_id":"4","last_reported":1703012627,"current_range_meters":9200,"station_id":"ce4bgkh2rcd13ifvqbk0","pricing_plan_id":"free"},{"bike_id":"c3c3cbbb-aa08-4874-94d9-d40777882ceb","system_id":"levelo_inurba_marseille","lat":43.337664,"lon":5.374271,"is_reserved":false,"is_disabled":false,"rental_uris":{"android":"levelo://app?vid=c3c3cbbb-aa08-4874-94d9-d40777882ceb","ios":"levelo://app?vid=c3c3cbbb-aa08-4874-94d9-d40777882ceb"},"vehicle_type_id":"4","last_reported":1703012627,"current_range_meters":8000,"station_id":"","pricing_plan_id":"free"},{"bike_id":"3873cd9d-0dad-4022-aaf9-5cd4b6535c11","system_id":"levelo_inurba_marseille","lat":43.306412,"lon":5.401035,"is_reserved":false,"is_disabled":false,"rental_uris":{"android":"levelo://app?vid=3873cd9d-0dad-4022-aaf9-5cd4b6535c11","ios":"levelo://app?vid=3873cd9d-0dad-4022-aaf9-5cd4b6535c11"},"vehicle_type_id":"4","last_reported":1703012627,"current_range_meters":11200,"station_id":"ce4bh112rcd13ifvqda0","pricing_plan_id":"free"},{"bike_id":"bb2495a5-6730-4a56-9811-56880ea352ce","system_id":"levelo_inurba_marseille","lat":43.301117,"lon":5.398795,"is_reserved":false,"is_disabled":false,"rental_uris":{"android":"levelo://app?vid=bb2495a5-6730-4a56-9811-56880ea352ce","ios":"levelo://app?vid=bb2495a5-6730-4a56-9811-56880ea352ce"},"vehicle_type_id":"4","last_reported":1703012627,"current_range_meters":16800,"station_id":"ce4bh0h2rcd13ifvqd40","pricing_plan_id":"free"},{"bike_id":"3e59a714-ed7c-4fea-8e55-b52e8b2993f2","system_id":"levelo_inurba_marseille","lat":43.301322,"lon":5.398716,"is_reserved":false,"is_disabled":false,"rental_uris":{"android":"levelo://app?vid=3e59a714-ed7c-4fea-8e55-b52e8b2993f2","ios":"levelo://app?vid=3e59a714-ed7c-4fea-8e55-b52e8b2993f2"},"vehicle_type_id":"4","last_reported":1703012627,"current_range_meters":19600,"station_id":"ce4bh0h2rcd13ifvqd40","pricing_plan_id":"free"},{"bike_id":"187a5928-1dea-4a55-a57b-8dc0877abe4d","system_id":"levelo_inurba_marseille","lat":43.301386,"lon":5.398793,"is_reserved":false,"is_disabled":false,"rental_uris":{"android":"levelo://app?vid=187a5928-1dea-4a55-a57b-8dc0877abe4d","ios":"levelo://app?vid=187a5928-1dea-4a55-a57b-8dc0877abe4d"},"vehicle_type_id":"4","last_reported":1703012627,"current_range_meters":0,"station_id":"ce4bh0h2rcd13ifvqd40","pricing_plan_id":"free"},{"bike_id":"088146c4-68d1-4d15-964b-03879b0208c3","system_id":"levelo_inurba_marseille","lat":43.28727,"lon":5.36078,"is_reserved":false,"is_disabled":false,"rental_uris":{"android":"levelo://app?vid=088146c4-68d1-4d15-964b-03879b0208c3","ios":"levelo://app?vid=088146c4-68d1-4d15-964b-03879b0208c3"},"vehicle_type_id":"4","last_reported":1703012627,"current_range_meters":4400,"station_id":"cki0cbj6b192h4jlfktg","pricing_plan_id":"free"},{"bike_id":"01eee4d5-f7e7-46f8-acf2-259b84eeb2b0","system_id":"levelo_inurba_marseille","lat":43.298681,"lon":5.397225,"is_reserved":false,"is_disabled":false,"rental_uris":{"android":"levelo://app?vid=01eee4d5-f7e7-46f8-acf2-259b84eeb2b0","ios":"levelo://app?vid=01eee4d5-f7e7-46f8-acf2-259b84eeb2b0"},"vehicle_type_id":"4","last_reported":1703012627,"current_range_meters":28000,"station_id":"ce4bh0h2rcd13ifvqd50","pricing_plan_id":"free"},{"bike_id":"c0ff39e8-71a5-4305-889a-2da0ae17e6fb","system_id":"levelo_inurba_marseille","lat":43.298681,"lon":5.397225,"is_reserved":false,"is_disabled":false,"rental_uris":{"android":"levelo://app?vid=c0ff39e8-71a5-4305-889a-2da0ae17e6fb","ios":"levelo://app?vid=c0ff39e8-71a5-4305-889a-2da0ae17e6fb"},"vehicle_type_id":"4","last_reported":1703012627,"current_range_meters":3200,"station_id":"ce4bh0h2rcd13ifvqd50","pricing_plan_id":"free"},{"bike_id":"bb111104-7197-4dfa-bb9d-384d88e2a57e","system_id":"levelo_inurba_marseille","lat":43.298681,"lon":5.397225,"is_reserved":false,"is_disabled":false,"rental_uris":{"android":"levelo://app?vid=bb111104-7197-4dfa-bb9d-384d88e2a57e","ios":"levelo://app?vid=bb111104-7197-4dfa-bb9d-384d88e2a57e"},"vehicle_type_id":"4","last_reported":1703012627,"current_range_meters":20800,"station_id":"ce4bh0h2rcd13ifvqd50","pricing_plan_id":"free"},{"bike_id":"6e55b601-20bf-467b-b173-99a0c30995a8","system_id":"levelo_inurba_marseille","lat":43.295196,"lon":5.39397,"is_reserved":false,"is_disabled":false,"rental_uris":{"android":"levelo://app?vid=6e55b601-20bf-467b-b173-99a0c30995a8","ios":"levelo://app?vid=6e55b601-20bf-467b-b173-99a0c30995a8"},"vehicle_type_id":"4","last_reported":1703012627,"current_range_meters":1200,"station_id":"ce4bh292rcd13ifvqdf0","pricing_plan_id":"free"},{"bike_id":"cb657cb7-c9be-41a4-bd3b-e15e5805b755","system_id":"levelo_inurba_marseille","lat":43.295194,"lon":5.39397,"is_reserved":false,"is_disabled":false,"rental_uris":{"android":"levelo://app?vid=cb657cb7-c9be-41a4-bd3b-e15e5805b755","ios":"levelo://app?vid=cb657cb7-c9be-41a4-bd3b-e15e5805b755"},"vehicle_type_id":"4","last_reported":1703012627,"current_range_meters":6800,"station_id":"ce4bh292rcd13ifvqdf0","pricing_plan_id":"free"},{"bike_id":"d3d64d66-0fc8-4ddb-b8f5-6d9867610ddc","system_id":"levelo_inurba_marseille","lat":43.295194,"lon":5.39397,"is_reserved":false,"is_disabled":false,"rental_uris":{"android":"levelo://app?vid=d3d64d66-0fc8-4ddb-b8f5-6d9867610ddc","ios":"levelo://app?vid=d3d64d66-0fc8-4ddb-b8f5-6d9867610ddc"},"vehicle_type_id":"4","last_reported":1703012627,"current_range_meters":0,"station_id":"ce4bh292rcd13ifvqdf0","pricing_plan_id":"free"},{"bike_id":"3b3de53a-96a9-471a-8ebb-d461f16dd6ad","system_id":"levelo_inurba_marseille","lat":43.295196,"lon":5.39397,"is_reserved":false,"is_disabled":false,"rental_uris":{"android":"levelo://app?vid=3b3de53a-96a9-471a-8ebb-d461f16dd6ad","ios":"levelo://app?vid=3b3de53a-96a9-471a-8ebb-d461f16dd6ad"},"vehicle_type_id":"4","last_reported":1703012627,"current_range_meters":31200,"station_id":"ce4bh292rcd13ifvqdf0","pricing_plan_id":"free"},{"bike_id":"dc743a73-d789-4f29-927f-baf8af11d33e","system_id":"levelo_inurba_marseille","lat":43.295194,"lon":5.39397,"is_reserved":false,"is_disabled":false,"rental_uris":{"android":"levelo://app?vid=dc743a73-d789-4f29-927f-baf8af11d33e","ios":"levelo://app?vid=dc743a73-d789-4f29-927f-baf8af11d33e"},"vehicle_type_id":"4","last_reported":1703012627,"current_range_meters":7600,"station_id":"ce4bh292rcd13ifvqdf0","pricing_plan_id":"free"},{"bike_id":"ca19d882-08b8-4ab5-b47c-738442294e14","system_id":"levelo_inurba_marseille","lat":43.295194,"lon":5.39397,"is_reserved":false,"is_disabled":false,"rental_uris":{"android":"levelo://app?vid=ca19d882-08b8-4ab5-b47c-738442294e14","ios":"levelo://app?vid=ca19d882-08b8-4ab5-b47c-738442294e14"},"vehicle_type_id":"4","last_reported":1703012627,"current_range_meters":10800,"station_id":"ce4bh292rcd13ifvqdf0","pricing_plan_id":"free"},{"bike_id":"3fe4ca94-b986-43fd-b609-ffdab4be449a","system_id":"levelo_inurba_marseille","lat":43.295194,"lon":5.39397,"is_reserved":false,"is_disabled":false,"rental_uris":{"android":"levelo://app?vid=3fe4ca94-b986-43fd-b609-ffdab4be449a","ios":"levelo://app?vid=3fe4ca94-b986-43fd-b609-ffdab4be449a"},"vehicle_type_id":"4","last_reported":1703012627,"current_range_meters":8400,"station_id":"ce4bh292rcd13ifvqdf0","pricing_plan_id":"free"},{"bike_id":"538be743-59db-4ed2-9eeb-58486bd39976","system_id":"levelo_inurba_marseille","lat":43.302759,"lon":5.400793,"is_reserved":false,"is_disabled":false,"rental_uris":{"android":"levelo://app?vid=538be743-59db-4ed2-9eeb-58486bd39976","ios":"levelo://app?vid=538be743-59db-4ed2-9eeb-58486bd39976"},"vehicle_type_id":"4","last_reported":1703012627,"current_range_meters":12000,"station_id":"ce4bgvh2rcd13ifvqcs0","pricing_plan_id":"free"},{"bike_id":"d968e840-2fbe-45e3-9b75-7bc3ca959097","system_id":"levelo_inurba_marseille","lat":43.295194,"lon":5.39397,"is_reserved":false,"is_disabled":false,"rental_uris":{"android":"levelo://app?vid=d968e840-2fbe-45e3-9b75-7bc3ca959097","ios":"levelo://app?vid=d968e840-2fbe-45e3-9b75-7bc3ca959097"},"vehicle_type_id":"4","last_reported":1703012627,"current_range_meters":0,"station_id":"ce4bh292rcd13ifvqdf0","pricing_plan_id":"free"},{"bike_id":"76bf2183-0119-49dc-ad19-70150d3546a8","system_id":"levelo_inurba_marseille","lat":43.302759,"lon":5.400793,"is_reserved":false,"is_disabled":false,"rental_uris":{"android":"levelo://app?vid=76bf2183-0119-49dc-ad19-70150d3546a8","ios":"levelo://app?vid=76bf2183-0119-49dc-ad19-70150d3546a8"},"vehicle_type_id":"4","last_reported":1703012627,"current_range_meters":23600,"station_id":"ce4bgvh2rcd13ifvqcs0","pricing_plan_id":"free"},{"bike_id":"de2b0f7f-2e51-4dbb-8ff3-ca6bc6811c64","system_id":"levelo_inurba_marseille","lat":43.302759,"lon":5.400793,"is_reserved":false,"is_disabled":false,"rental_uris":{"android":"levelo://app?vid=de2b0f7f-2e51-4dbb-8ff3-ca6bc6811c64","ios":"levelo://app?vid=de2b0f7f-2e51-4dbb-8ff3-ca6bc6811c64"},"vehicle_type_id":"4","last_reported":1703012627,"current_range_meters":11600,"station_id":"ce4bgvh2rcd13ifvqcs0","pricing_plan_id":"free"},{"bike_id":"3bf2ea02-e0bd-4c5e-b18d-455712b7549f","system_id":"levelo_inurba_marseille","lat":43.302759,"lon":5.400793,"is_reserved":false,"is_disabled":false,"rental_uris":{"android":"levelo://app?vid=3bf2ea02-e0bd-4c5e-b18d-455712b7549f","ios":"levelo://app?vid=3bf2ea02-e0bd-4c5e-b18d-455712b7549f"},"vehicle_type_id":"4","last_reported":1703012627,"current_range_meters":24800,"station_id":"ce4bgvh2rcd13ifvqcs0","pricing_plan_id":"free"},{"bike_id":"dd4d805a-cb06-4d21-9fe6-494f9b6b3f1e","system_id":"levelo_inurba_marseille","lat":43.302759,"lon":5.400793,"is_reserved":false,"is_disabled":false,"rental_uris":{"android":"levelo://app?vid=dd4d805a-cb06-4d21-9fe6-494f9b6b3f1e","ios":"levelo://app?vid=dd4d805a-cb06-4d21-9fe6-494f9b6b3f1e"},"vehicle_type_id":"4","last_reported":1703012627,"current_range_meters":15200,"station_id":"ce4bgvh2rcd13ifvqcs0","pricing_plan_id":"free"},{"bike_id":"72586fa1-7c49-43a9-bc7b-f5c8eb87adff","system_id":"levelo_inurba_marseille","lat":43.302759,"lon":5.400793,"is_reserved":false,"is_disabled":false,"rental_uris":{"android":"levelo://app?vid=72586fa1-7c49-43a9-bc7b-f5c8eb87adff","ios":"levelo://app?vid=72586fa1-7c49-43a9-bc7b-f5c8eb87adff"},"vehicle_type_id":"4","last_reported":1703012627,"current_range_meters":23200,"station_id":"ce4bgvh2rcd13ifvqcs0","pricing_plan_id":"free"},{"bike_id":"9bef25cd-88ab-4b9f-8d00-91cbd7007a44","system_id":"levelo_inurba_marseille","lat":43.302759,"lon":5.400793,"is_reserved":false,"is_disabled":false,"rental_uris":{"android":"levelo://app?vid=9bef25cd-88ab-4b9f-8d00-91cbd7007a44","ios":"levelo://app?vid=9bef25cd-88ab-4b9f-8d00-91cbd7007a44"},"vehicle_type_id":"4","last_reported":1703012627,"current_range_meters":0,"station_id":"ce4bgvh2rcd13ifvqcs0","pricing_plan_id":"free"},{"bike_id":"43362537-6e10-4fd6-8bc6-d6f0d1bab69a","system_id":"levelo_inurba_marseille","lat":43.302759,"lon":5.400793,"is_reserved":false,"is_disabled":false,"rental_uris":{"android":"levelo://app?vid=43362537-6e10-4fd6-8bc6-d6f0d1bab69a","ios":"levelo://app?vid=43362537-6e10-4fd6-8bc6-d6f0d1bab69a"},"vehicle_type_id":"4","last_reported":1703012627,"current_range_meters":2400,"station_id":"ce4bgvh2rcd13ifvqcs0","pricing_plan_id":"free"},{"bike_id":"303951ce-7e87-476f-ac95-f968e8b3f174","system_id":"levelo_inurba_marseille","lat":43.302759,"lon":5.400793,"is_reserved":false,"is_disabled":false,"rental_uris":{"android":"levelo://app?vid=303951ce-7e87-476f-ac95-f968e8b3f174","ios":"levelo://app?vid=303951ce-7e87-476f-ac95-f968e8b3f174"},"vehicle_type_id":"4","last_reported":1703012627,"current_range_meters":18800,"station_id":"ce4bgvh2rcd13ifvqcs0","pricing_plan_id":"free"},{"bike_id":"a5ab0f6e-cb1e-43c6-8bca-1c02e17f1b90","system_id":"levelo_inurba_marseille","lat":43.286039,"lon":5.370679,"is_reserved":false,"is_disabled":false,"rental_uris":{"android":"levelo://app?vid=a5ab0f6e-cb1e-43c6-8bca-1c02e17f1b90","ios":"levelo://app?vid=a5ab0f6e-cb1e-43c6-8bca-1c02e17f1b90"},"vehicle_type_id":"4","last_reported":1703012627,"current_range_meters":30400,"station_id":"ce4bht12rcd13ifvqi60","pricing_plan_id":"free"},{"bike_id":"d4f51661-8db2-4734-8eaa-73046e8220b1","system_id":"levelo_inurba_marseille","lat":43.295713,"lon":5.399639,"is_reserved":false,"is_disabled":false,"rental_uris":{"android":"levelo://app?vid=d4f51661-8db2-4734-8eaa-73046e8220b1","ios":"levelo://app?vid=d4f51661-8db2-4734-8eaa-73046e8220b1"},"vehicle_type_id":"4","last_reported":1703012627,"current_range_meters":15600,"station_id":"ce4bh312rcd13ifvqdj0","pricing_plan_id":"free"},{"bike_id":"30f2f604-6bc3-42f4-ae4b-0b379c63e18f","system_id":"levelo_inurba_marseille","lat":43.287185,"lon":5.379373,"is_reserved":false,"is_disabled":false,"rental_uris":{"android":"levelo://app?vid=30f2f604-6bc3-42f4-ae4b-0b379c63e18f","ios":"levelo://app?vid=30f2f604-6bc3-42f4-ae4b-0b379c63e18f"},"vehicle_type_id":"4","last_reported":1703012627,"current_range_meters":16800,"station_id":"ce4bh9p2rcd13ifvqec0","pricing_plan_id":"free"},{"bike_id":"18f5d6a8-288d-46db-8899-351082875d82","system_id":"levelo_inurba_marseille","lat":43.316828,"lon":5.404723,"is_reserved":false,"is_disabled":false,"rental_uris":{"android":"levelo://app?vid=18f5d6a8-288d-46db-8899-351082875d82","ios":"levelo://app?vid=18f5d6a8-288d-46db-8899-351082875d82"},"vehicle_type_id":"4","last_reported":1703012627,"current_range_meters":25600,"station_id":"ce4bh012rcd13ifvqd00","pricing_plan_id":"free"},{"bike_id":"6d91f096-9544-4c01-be4f-ca15fd9b391b","system_id":"levelo_inurba_marseille","lat":43.291994,"lon":5.392907,"is_reserved":false,"is_disabled":false,"rental_uris":{"android":"levelo://app?vid=6d91f096-9544-4c01-be4f-ca15fd9b391b","ios":"levelo://app?vid=6d91f096-9544-4c01-be4f-ca15fd9b391b"},"vehicle_type_id":"4","last_reported":1703012627,"current_range_meters":13200,"station_id":"ce4bh192rcd13ifvqdd0","pricing_plan_id":"free"},{"bike_id":"9dfab752-ae7b-4207-9675-7ab0fe71a517","system_id":"levelo_inurba_marseille","lat":43.2918,"lon":5.39325,"is_reserved":false,"is_disabled":false,"rental_uris":{"android":"levelo://app?vid=9dfab752-ae7b-4207-9675-7ab0fe71a517","ios":"levelo://app?vid=9dfab752-ae7b-4207-9675-7ab0fe71a517"},"vehicle_type_id":"4","last_reported":1703012627,"current_range_meters":16000,"station_id":"ce4bh192rcd13ifvqdd0","pricing_plan_id":"free"},{"bike_id":"80af2e78-4fd1-41a0-b925-37e1dae3d507","system_id":"levelo_inurba_marseille","lat":43.28459,"lon":5.35896,"is_reserved":false,"is_disabled":false,"rental_uris":{"android":"levelo://app?vid=80af2e78-4fd1-41a0-b925-37e1dae3d507","ios":"levelo://app?vid=80af2e78-4fd1-41a0-b925-37e1dae3d507"},"vehicle_type_id":"4","last_reported":1703012627,"current_range_meters":0,"station_id":"ce4bhah2rcd13ifvqei0","pricing_plan_id":"free"},{"bike_id":"9336a5e7-eda6-454b-b363-20141663bb32","system_id":"levelo_inurba_marseille","lat":43.294314,"lon":5.397498,"is_reserved":false,"is_disabled":false,"rental_uris":{"android":"levelo://app?vid=9336a5e7-eda6-454b-b363-20141663bb32","ios":"levelo://app?vid=9336a5e7-eda6-454b-b363-20141663bb32"},"vehicle_type_id":"4","last_reported":1703012627,"current_range_meters":16800,"station_id":"ce4bh3h2rcd13ifvqdo0","pricing_plan_id":"free"},{"bike_id":"07f7c081-6f04-4157-b0db-1eececa16aa5","system_id":"levelo_inurba_marseille","lat":43.285856,"lon":5.350771,"is_reserved":false,"is_disabled":false,"rental_uris":{"android":"levelo://app?vid=07f7c081-6f04-4157-b0db-1eececa16aa5","ios":"levelo://app?vid=07f7c081-6f04-4157-b0db-1eececa16aa5"},"vehicle_type_id":"4","last_reported":1703012627,"current_range_meters":12800,"station_id":"ce4bhch2rcd13ifvqeug","pricing_plan_id":"free"},{"bike_id":"4a3bf0b1-66fa-4ba1-95be-5c0a76ccad27","system_id":"levelo_inurba_marseille","lat":43.285856,"lon":5.350771,"is_reserved":false,"is_disabled":false,"rental_uris":{"android":"levelo://app?vid=4a3bf0b1-66fa-4ba1-95be-5c0a76ccad27","ios":"levelo://app?vid=4a3bf0b1-66fa-4ba1-95be-5c0a76ccad27"},"vehicle_type_id":"4","last_reported":1703012627,"current_range_meters":23200,"station_id":"ce4bhch2rcd13ifvqeug","pricing_plan_id":"free"},{"bike_id":"36cf4d02-bd22-413f-a81d-3c2efead6ba1","system_id":"levelo_inurba_marseille","lat":43.285856,"lon":5.350771,"is_reserved":false,"is_disabled":false,"rental_uris":{"android":"levelo://app?vid=36cf4d02-bd22-413f-a81d-3c2efead6ba1","ios":"levelo://app?vid=36cf4d02-bd22-413f-a81d-3c2efead6ba1"},"vehicle_type_id":"4","last_reported":1703012627,"current_range_meters":18400,"station_id":"ce4bhch2rcd13ifvqeug","pricing_plan_id":"free"},{"bike_id":"d6f1cb3a-139c-45ba-88a4-26cff8954219","system_id":"levelo_inurba_marseille","lat":43.285856,"lon":5.350771,"is_reserved":false,"is_disabled":false,"rental_uris":{"android":"levelo://app?vid=d6f1cb3a-139c-45ba-88a4-26cff8954219","ios":"levelo://app?vid=d6f1cb3a-139c-45ba-88a4-26cff8954219"},"vehicle_type_id":"4","last_reported":1703012627,"current_range_meters":22800,"station_id":"ce4bhch2rcd13ifvqeug","pricing_plan_id":"free"},{"bike_id":"50a15c4b-e449-4648-8e85-935cca8d8f78","system_id":"levelo_inurba_marseille","lat":43.285856,"lon":5.350771,"is_reserved":false,"is_disabled":false,"rental_uris":{"android":"levelo://app?vid=50a15c4b-e449-4648-8e85-935cca8d8f78","ios":"levelo://app?vid=50a15c4b-e449-4648-8e85-935cca8d8f78"},"vehicle_type_id":"4","last_reported":1703012627,"current_range_meters":1200,"station_id":"ce4bhch2rcd13ifvqeug","pricing_plan_id":"free"},{"bike_id":"2eb52441-f2b5-4053-a57b-7908913c3b82","system_id":"levelo_inurba_marseille","lat":43.285856,"lon":5.350771,"is_reserved":false,"is_disabled":false,"rental_uris":{"android":"levelo://app?vid=2eb52441-f2b5-4053-a57b-7908913c3b82","ios":"levelo://app?vid=2eb52441-f2b5-4053-a57b-7908913c3b82"},"vehicle_type_id":"4","last_reported":1703012627,"current_range_meters":15200,"station_id":"ce4bhch2rcd13ifvqeug","pricing_plan_id":"free"},{"bike_id":"0c689767-e565-4fdc-b74c-9192458db94e","system_id":"levelo_inurba_marseille","lat":43.285856,"lon":5.350771,"is_reserved":false,"is_disabled":false,"rental_uris":{"android":"levelo://app?vid=0c689767-e565-4fdc-b74c-9192458db94e","ios":"levelo://app?vid=0c689767-e565-4fdc-b74c-9192458db94e"},"vehicle_type_id":"4","last_reported":1703012627,"current_range_meters":21600,"station_id":"ce4bhch2rcd13ifvqeug","pricing_plan_id":"free"},{"bike_id":"f3b85f34-8342-42b3-9689-e6718d9bce90","system_id":"levelo_inurba_marseille","lat":43.285856,"lon":5.350771,"is_reserved":false,"is_disabled":false,"rental_uris":{"android":"levelo://app?vid=f3b85f34-8342-42b3-9689-e6718d9bce90","ios":"levelo://app?vid=f3b85f34-8342-42b3-9689-e6718d9bce90"},"vehicle_type_id":"4","last_reported":1703012627,"current_range_meters":14000,"station_id":"ce4bhch2rcd13ifvqeug","pricing_plan_id":"free"},{"bike_id":"7ab43898-10dc-4577-8a07-9543e314aae7","system_id":"levelo_inurba_marseille","lat":43.285856,"lon":5.350771,"is_reserved":false,"is_disabled":false,"rental_uris":{"android":"levelo://app?vid=7ab43898-10dc-4577-8a07-9543e314aae7","ios":"levelo://app?vid=7ab43898-10dc-4577-8a07-9543e314aae7"},"vehicle_type_id":"4","last_reported":1703012627,"current_range_meters":0,"station_id":"ce4bhch2rcd13ifvqeug","pricing_plan_id":"free"},{"bike_id":"69955788-238a-411d-87b5-baf0f415db21","system_id":"levelo_inurba_marseille","lat":43.285856,"lon":5.350771,"is_reserved":false,"is_disabled":false,"rental_uris":{"android":"levelo://app?vid=69955788-238a-411d-87b5-baf0f415db21","ios":"levelo://app?vid=69955788-238a-411d-87b5-baf0f415db21"},"vehicle_type_id":"4","last_reported":1703012627,"current_range_meters":16000,"station_id":"ce4bhch2rcd13ifvqeug","pricing_plan_id":"free"},{"bike_id":"05435e1e-93de-4800-ade7-2ab5b5ccd9cc","system_id":"levelo_inurba_marseille","lat":43.285856,"lon":5.350771,"is_reserved":false,"is_disabled":false,"rental_uris":{"android":"levelo://app?vid=05435e1e-93de-4800-ade7-2ab5b5ccd9cc","ios":"levelo://app?vid=05435e1e-93de-4800-ade7-2ab5b5ccd9cc"},"vehicle_type_id":"4","last_reported":1703012627,"current_range_meters":20800,"station_id":"ce4bhch2rcd13ifvqeug","pricing_plan_id":"free"},{"bike_id":"aaa07f64-d8ff-4e64-be71-7ab399227c99","system_id":"levelo_inurba_marseille","lat":43.285856,"lon":5.350771,"is_reserved":false,"is_disabled":false,"rental_uris":{"android":"levelo://app?vid=aaa07f64-d8ff-4e64-be71-7ab399227c99","ios":"levelo://app?vid=aaa07f64-d8ff-4e64-be71-7ab399227c99"},"vehicle_type_id":"4","last_reported":1703012627,"current_range_meters":2400,"station_id":"ce4bhch2rcd13ifvqeug","pricing_plan_id":"free"},{"bike_id":"f830c1ee-419b-4ba9-b9b5-13d3fe124a69","system_id":"levelo_inurba_marseille","lat":43.285856,"lon":5.350771,"is_reserved":false,"is_disabled":false,"rental_uris":{"android":"levelo://app?vid=f830c1ee-419b-4ba9-b9b5-13d3fe124a69","ios":"levelo://app?vid=f830c1ee-419b-4ba9-b9b5-13d3fe124a69"},"vehicle_type_id":"4","last_reported":1703012627,"current_range_meters":14800,"station_id":"ce4bhch2rcd13ifvqeug","pricing_plan_id":"free"},{"bike_id":"361f0a21-a448-4290-aafc-982fe9fc828d","system_id":"levelo_inurba_marseille","lat":43.295713,"lon":5.399639,"is_reserved":false,"is_disabled":false,"rental_uris":{"android":"levelo://app?vid=361f0a21-a448-4290-aafc-982fe9fc828d","ios":"levelo://app?vid=361f0a21-a448-4290-aafc-982fe9fc828d"},"vehicle_type_id":"4","last_reported":1703012627,"current_range_meters":18400,"station_id":"ce4bh312rcd13ifvqdj0","pricing_plan_id":"free"},{"bike_id":"a0d0b267-bb3b-4588-a444-5768e7776fe0","system_id":"levelo_inurba_marseille","lat":43.295713,"lon":5.399639,"is_reserved":false,"is_disabled":false,"rental_uris":{"android":"levelo://app?vid=a0d0b267-bb3b-4588-a444-5768e7776fe0","ios":"levelo://app?vid=a0d0b267-bb3b-4588-a444-5768e7776fe0"},"vehicle_type_id":"4","last_reported":1703012627,"current_range_meters":23600,"station_id":"ce4bh312rcd13ifvqdj0","pricing_plan_id":"free"},{"bike_id":"8538e6dd-dbef-4a5a-a119-9a857fd021ad","system_id":"levelo_inurba_marseille","lat":43.33218,"lon":5.397067,"is_reserved":false,"is_disabled":false,"rental_uris":{"android":"levelo://app?vid=8538e6dd-dbef-4a5a-a119-9a857fd021ad","ios":"levelo://app?vid=8538e6dd-dbef-4a5a-a119-9a857fd021ad"},"vehicle_type_id":"4","last_reported":1703012627,"current_range_meters":400,"station_id":"","pricing_plan_id":"free"},{"bike_id":"59146ca9-ad82-49bb-811e-8bdcadd76991","system_id":"levelo_inurba_marseille","lat":43.295713,"lon":5.399639,"is_reserved":false,"is_disabled":false,"rental_uris":{"android":"levelo://app?vid=59146ca9-ad82-49bb-811e-8bdcadd76991","ios":"levelo://app?vid=59146ca9-ad82-49bb-811e-8bdcadd76991"},"vehicle_type_id":"4","last_reported":1703012627,"current_range_meters":8000,"station_id":"ce4bh312rcd13ifvqdj0","pricing_plan_id":"free"},{"bike_id":"dd2d7617-7ae9-4336-9a72-dccc4520bf4e","system_id":"levelo_inurba_marseille","lat":43.295713,"lon":5.399639,"is_reserved":false,"is_disabled":false,"rental_uris":{"android":"levelo://app?vid=dd2d7617-7ae9-4336-9a72-dccc4520bf4e","ios":"levelo://app?vid=dd2d7617-7ae9-4336-9a72-dccc4520bf4e"},"vehicle_type_id":"4","last_reported":1703012627,"current_range_meters":30800,"station_id":"ce4bh312rcd13ifvqdj0","pricing_plan_id":"free"},{"bike_id":"d003c993-2dbb-4921-8a35-9541757e107a","system_id":"levelo_inurba_marseille","lat":43.295713,"lon":5.399639,"is_reserved":false,"is_disabled":false,"rental_uris":{"android":"levelo://app?vid=d003c993-2dbb-4921-8a35-9541757e107a","ios":"levelo://app?vid=d003c993-2dbb-4921-8a35-9541757e107a"},"vehicle_type_id":"4","last_reported":1703012627,"current_range_meters":21200,"station_id":"ce4bh312rcd13ifvqdj0","pricing_plan_id":"free"},{"bike_id":"b4de2189-4521-4dae-8d08-1f34c9c5eb52","system_id":"levelo_inurba_marseille","lat":43.302008,"lon":5.394694,"is_reserved":false,"is_disabled":false,"rental_uris":{"android":"levelo://app?vid=b4de2189-4521-4dae-8d08-1f34c9c5eb52","ios":"levelo://app?vid=b4de2189-4521-4dae-8d08-1f34c9c5eb52"},"vehicle_type_id":"4","last_reported":1703012627,"current_range_meters":19600,"station_id":"ce4bh0p2rcd13ifvqd70","pricing_plan_id":"free"},{"bike_id":"6ef1931b-9751-4a0e-9f83-360587689828","system_id":"levelo_inurba_marseille","lat":43.319179,"lon":5.407725,"is_reserved":false,"is_disabled":false,"rental_uris":{"android":"levelo://app?vid=6ef1931b-9751-4a0e-9f83-360587689828","ios":"levelo://app?vid=6ef1931b-9751-4a0e-9f83-360587689828"},"vehicle_type_id":"4","last_reported":1703012627,"current_range_meters":31200,"station_id":"ce4bhq12rcd13ifvqhig","pricing_plan_id":"free"},{"bike_id":"552ecd1b-51e2-45dc-8ae7-b724fc949a20","system_id":"levelo_inurba_marseille","lat":43.319179,"lon":5.407725,"is_reserved":false,"is_disabled":false,"rental_uris":{"android":"levelo://app?vid=552ecd1b-51e2-45dc-8ae7-b724fc949a20","ios":"levelo://app?vid=552ecd1b-51e2-45dc-8ae7-b724fc949a20"},"vehicle_type_id":"4","last_reported":1703012627,"current_range_meters":26800,"station_id":"ce4bhq12rcd13ifvqhig","pricing_plan_id":"free"},{"bike_id":"27628269-9f0b-4c51-9659-7fb830c4871d","system_id":"levelo_inurba_marseille","lat":43.323464,"lon":5.406297,"is_reserved":false,"is_disabled":false,"rental_uris":{"android":"levelo://app?vid=27628269-9f0b-4c51-9659-7fb830c4871d","ios":"levelo://app?vid=27628269-9f0b-4c51-9659-7fb830c4871d"},"vehicle_type_id":"4","last_reported":1703012627,"current_range_meters":27600,"station_id":"ce4bhq92rcd13ifvqhjg","pricing_plan_id":"free"},{"bike_id":"a93419d0-4d01-44a1-af99-701ab9e6ea06","system_id":"levelo_inurba_marseille","lat":43.284787,"lon":5.384116,"is_reserved":false,"is_disabled":false,"rental_uris":{"android":"levelo://app?vid=a93419d0-4d01-44a1-af99-701ab9e6ea06","ios":"levelo://app?vid=a93419d0-4d01-44a1-af99-701ab9e6ea06"},"vehicle_type_id":"4","last_reported":1703012627,"current_range_meters":13200,"station_id":"ce4bh512rcd13ifvqe3g","pricing_plan_id":"free"},{"bike_id":"3eebc176-57c1-45d9-9bc0-22f9a8f92e1b","system_id":"levelo_inurba_marseille","lat":43.297946,"lon":5.404063,"is_reserved":false,"is_disabled":false,"rental_uris":{"android":"levelo://app?vid=3eebc176-57c1-45d9-9bc0-22f9a8f92e1b","ios":"levelo://app?vid=3eebc176-57c1-45d9-9bc0-22f9a8f92e1b"},"vehicle_type_id":"4","last_reported":1703012627,"current_range_meters":18800,"station_id":"ce4bh112rcd13ifvqd90","pricing_plan_id":"free"},{"bike_id":"f5332b34-8259-4323-952e-7bd465eb247c","system_id":"levelo_inurba_marseille","lat":43.29795,"lon":5.404086,"is_reserved":false,"is_disabled":false,"rental_uris":{"android":"levelo://app?vid=f5332b34-8259-4323-952e-7bd465eb247c","ios":"levelo://app?vid=f5332b34-8259-4323-952e-7bd465eb247c"},"vehicle_type_id":"4","last_reported":1703012627,"current_range_meters":0,"station_id":"ce4bh112rcd13ifvqd90","pricing_plan_id":"free"},{"bike_id":"1f979b92-28c5-4b7d-91ff-3863a490bedd","system_id":"levelo_inurba_marseille","lat":43.288501,"lon":5.393087,"is_reserved":false,"is_disabled":false,"rental_uris":{"android":"levelo://app?vid=1f979b92-28c5-4b7d-91ff-3863a490bedd","ios":"levelo://app?vid=1f979b92-28c5-4b7d-91ff-3863a490bedd"},"vehicle_type_id":"4","last_reported":1703012627,"current_range_meters":21200,"station_id":"ce4bh2p2rcd13ifvqdi0","pricing_plan_id":"free"},{"bike_id":"35385d14-b780-4d84-a627-95c353df6d29","system_id":"levelo_inurba_marseille","lat":43.283494,"lon":5.380945,"is_reserved":false,"is_disabled":false,"rental_uris":{"android":"levelo://app?vid=35385d14-b780-4d84-a627-95c353df6d29","ios":"levelo://app?vid=35385d14-b780-4d84-a627-95c353df6d29"},"vehicle_type_id":"4","last_reported":1703012627,"current_range_meters":25200,"station_id":"ce4bh412rcd13ifvqdr0","pricing_plan_id":"free"},{"bike_id":"eed03dce-e6cc-46b1-8527-45439af6f114","system_id":"levelo_inurba_marseille","lat":43.284214,"lon":5.349706,"is_reserved":false,"is_disabled":false,"rental_uris":{"android":"levelo://app?vid=eed03dce-e6cc-46b1-8527-45439af6f114","ios":"levelo://app?vid=eed03dce-e6cc-46b1-8527-45439af6f114"},"vehicle_type_id":"4","last_reported":1703012627,"current_range_meters":24000,"station_id":"ce4bhbh2rcd13ifvqepg","pricing_plan_id":"free"},{"bike_id":"35e5c977-c3ec-4302-85e4-7f44ba15ca6f","system_id":"levelo_inurba_marseille","lat":43.306412,"lon":5.401035,"is_reserved":false,"is_disabled":false,"rental_uris":{"android":"levelo://app?vid=35e5c977-c3ec-4302-85e4-7f44ba15ca6f","ios":"levelo://app?vid=35e5c977-c3ec-4302-85e4-7f44ba15ca6f"},"vehicle_type_id":"4","last_reported":1703012627,"current_range_meters":22000,"station_id":"ce4bh112rcd13ifvqda0","pricing_plan_id":"free"},{"bike_id":"c98e5341-8ffa-4ace-88ab-f78f92d8c93b","system_id":"levelo_inurba_marseille","lat":43.289363,"lon":5.396322,"is_reserved":false,"is_disabled":false,"rental_uris":{"android":"levelo://app?vid=c98e5341-8ffa-4ace-88ab-f78f92d8c93b","ios":"levelo://app?vid=c98e5341-8ffa-4ace-88ab-f78f92d8c93b"},"vehicle_type_id":"4","last_reported":1703012627,"current_range_meters":7600,"station_id":"ce4bh3h2rcd13ifvqdn0","pricing_plan_id":"free"},{"bike_id":"f4033e38-c139-46ba-bd9d-864936bdec5c","system_id":"levelo_inurba_marseille","lat":43.289363,"lon":5.396322,"is_reserved":false,"is_disabled":false,"rental_uris":{"android":"levelo://app?vid=f4033e38-c139-46ba-bd9d-864936bdec5c","ios":"levelo://app?vid=f4033e38-c139-46ba-bd9d-864936bdec5c"},"vehicle_type_id":"4","last_reported":1703012627,"current_range_meters":4400,"station_id":"ce4bh3h2rcd13ifvqdn0","pricing_plan_id":"free"},{"bike_id":"c6c9cebc-a543-490e-91c2-f3c7d1d2efdf","system_id":"levelo_inurba_marseille","lat":43.289363,"lon":5.396322,"is_reserved":false,"is_disabled":false,"rental_uris":{"android":"levelo://app?vid=c6c9cebc-a543-490e-91c2-f3c7d1d2efdf","ios":"levelo://app?vid=c6c9cebc-a543-490e-91c2-f3c7d1d2efdf"},"vehicle_type_id":"4","last_reported":1703012627,"current_range_meters":11600,"station_id":"ce4bh3h2rcd13ifvqdn0","pricing_plan_id":"free"},{"bike_id":"405e74c3-581d-40d5-82b7-7c06e4f4c4a7","system_id":"levelo_inurba_marseille","lat":43.292724,"lon":5.401131,"is_reserved":false,"is_disabled":false,"rental_uris":{"android":"levelo://app?vid=405e74c3-581d-40d5-82b7-7c06e4f4c4a7","ios":"levelo://app?vid=405e74c3-581d-40d5-82b7-7c06e4f4c4a7"},"vehicle_type_id":"4","last_reported":1703012627,"current_range_meters":15200,"station_id":"ce4bh312rcd13ifvqdk0","pricing_plan_id":"free"},{"bike_id":"6f47e789-9887-4676-9daf-db96563cf27e","system_id":"levelo_inurba_marseille","lat":43.292724,"lon":5.401131,"is_reserved":false,"is_disabled":false,"rental_uris":{"android":"levelo://app?vid=6f47e789-9887-4676-9daf-db96563cf27e","ios":"levelo://app?vid=6f47e789-9887-4676-9daf-db96563cf27e"},"vehicle_type_id":"4","last_reported":1703012627,"current_range_meters":10000,"station_id":"ce4bh312rcd13ifvqdk0","pricing_plan_id":"free"},{"bike_id":"725c62a2-53d1-4c72-8be5-a3f6a6bd9459","system_id":"levelo_inurba_marseille","lat":43.282744,"lon":5.350533,"is_reserved":false,"is_disabled":false,"rental_uris":{"android":"levelo://app?vid=725c62a2-53d1-4c72-8be5-a3f6a6bd9459","ios":"levelo://app?vid=725c62a2-53d1-4c72-8be5-a3f6a6bd9459"},"vehicle_type_id":"4","last_reported":1703012627,"current_range_meters":23600,"station_id":"ce4bhbp2rcd13ifvqerg","pricing_plan_id":"free"},{"bike_id":"2fe4c2f8-c94b-46f7-b569-e5e3379780c6","system_id":"levelo_inurba_marseille","lat":43.282754,"lon":5.350519,"is_reserved":false,"is_disabled":false,"rental_uris":{"android":"levelo://app?vid=2fe4c2f8-c94b-46f7-b569-e5e3379780c6","ios":"levelo://app?vid=2fe4c2f8-c94b-46f7-b569-e5e3379780c6"},"vehicle_type_id":"4","last_reported":1703012627,"current_range_meters":2800,"station_id":"ce4bhbp2rcd13ifvqerg","pricing_plan_id":"free"},{"bike_id":"a53f681d-51b5-4ecc-bca6-1cb8d12861b1","system_id":"levelo_inurba_marseille","lat":43.282744,"lon":5.350533,"is_reserved":false,"is_disabled":false,"rental_uris":{"android":"levelo://app?vid=a53f681d-51b5-4ecc-bca6-1cb8d12861b1","ios":"levelo://app?vid=a53f681d-51b5-4ecc-bca6-1cb8d12861b1"},"vehicle_type_id":"4","last_reported":1703012627,"current_range_meters":6800,"station_id":"ce4bhbp2rcd13ifvqerg","pricing_plan_id":"free"},{"bike_id":"7a9c501a-a88f-4b20-a3be-0f05afe0b8e1","system_id":"levelo_inurba_marseille","lat":43.282754,"lon":5.350519,"is_reserved":false,"is_disabled":false,"rental_uris":{"android":"levelo://app?vid=7a9c501a-a88f-4b20-a3be-0f05afe0b8e1","ios":"levelo://app?vid=7a9c501a-a88f-4b20-a3be-0f05afe0b8e1"},"vehicle_type_id":"4","last_reported":1703012627,"current_range_meters":26000,"station_id":"ce4bhbp2rcd13ifvqerg","pricing_plan_id":"free"},{"bike_id":"7415b361-4875-4231-90b5-c9caee2a9d88","system_id":"levelo_inurba_marseille","lat":43.282754,"lon":5.350519,"is_reserved":false,"is_disabled":false,"rental_uris":{"android":"levelo://app?vid=7415b361-4875-4231-90b5-c9caee2a9d88","ios":"levelo://app?vid=7415b361-4875-4231-90b5-c9caee2a9d88"},"vehicle_type_id":"4","last_reported":1703012627,"current_range_meters":2400,"station_id":"ce4bhbp2rcd13ifvqerg","pricing_plan_id":"free"},{"bike_id":"7aecbcde-a0be-4ee7-9fb3-c08e2ed7a241","system_id":"levelo_inurba_marseille","lat":43.280382,"lon":5.369291,"is_reserved":false,"is_disabled":false,"rental_uris":{"android":"levelo://app?vid=7aecbcde-a0be-4ee7-9fb3-c08e2ed7a241","ios":"levelo://app?vid=7aecbcde-a0be-4ee7-9fb3-c08e2ed7a241"},"vehicle_type_id":"4","last_reported":1703012627,"current_range_meters":30800,"station_id":"ce4bha12rcd13ifvqef0","pricing_plan_id":"free"},{"bike_id":"f93b9b08-462a-45e1-b20a-7bf6d9e0f690","system_id":"levelo_inurba_marseille","lat":43.28035,"lon":5.36942,"is_reserved":false,"is_disabled":false,"rental_uris":{"android":"levelo://app?vid=f93b9b08-462a-45e1-b20a-7bf6d9e0f690","ios":"levelo://app?vid=f93b9b08-462a-45e1-b20a-7bf6d9e0f690"},"vehicle_type_id":"4","last_reported":1703012627,"current_range_meters":8400,"station_id":"ce4bha12rcd13ifvqef0","pricing_plan_id":"free"},{"bike_id":"54d674a2-7b13-4c65-b1d4-f723ad6da69a","system_id":"levelo_inurba_marseille","lat":43.29037,"lon":5.39968,"is_reserved":false,"is_disabled":false,"rental_uris":{"android":"levelo://app?vid=54d674a2-7b13-4c65-b1d4-f723ad6da69a","ios":"levelo://app?vid=54d674a2-7b13-4c65-b1d4-f723ad6da69a"},"vehicle_type_id":"4","last_reported":1703012627,"current_range_meters":16800,"station_id":"ce4bh392rcd13ifvqdm0","pricing_plan_id":"free"},{"bike_id":"944212f6-29c3-4232-b094-2242377e53ee","system_id":"levelo_inurba_marseille","lat":43.281044,"lon":5.378308,"is_reserved":false,"is_disabled":false,"rental_uris":{"android":"levelo://app?vid=944212f6-29c3-4232-b094-2242377e53ee","ios":"levelo://app?vid=944212f6-29c3-4232-b094-2242377e53ee"},"vehicle_type_id":"4","last_reported":1703012627,"current_range_meters":17200,"station_id":"ce4bha12rcd13ifvqee0","pricing_plan_id":"free"},{"bike_id":"59ffaadf-75be-4784-8345-1850106e19e2","system_id":"levelo_inurba_marseille","lat":43.281044,"lon":5.378308,"is_reserved":false,"is_disabled":false,"rental_uris":{"android":"levelo://app?vid=59ffaadf-75be-4784-8345-1850106e19e2","ios":"levelo://app?vid=59ffaadf-75be-4784-8345-1850106e19e2"},"vehicle_type_id":"4","last_reported":1703012627,"current_range_meters":3600,"station_id":"ce4bha12rcd13ifvqee0","pricing_plan_id":"free"},{"bike_id":"be7ed5c3-8519-46a5-bab2-60e422239ae0","system_id":"levelo_inurba_marseille","lat":43.281044,"lon":5.378308,"is_reserved":false,"is_disabled":false,"rental_uris":{"android":"levelo://app?vid=be7ed5c3-8519-46a5-bab2-60e422239ae0","ios":"levelo://app?vid=be7ed5c3-8519-46a5-bab2-60e422239ae0"},"vehicle_type_id":"4","last_reported":1703012627,"current_range_meters":31200,"station_id":"ce4bha12rcd13ifvqee0","pricing_plan_id":"free"},{"bike_id":"5990443f-e6d3-4be2-8855-21cbe59f89c6","system_id":"levelo_inurba_marseille","lat":43.284462,"lon":5.392121,"is_reserved":false,"is_disabled":false,"rental_uris":{"android":"levelo://app?vid=5990443f-e6d3-4be2-8855-21cbe59f89c6","ios":"levelo://app?vid=5990443f-e6d3-4be2-8855-21cbe59f89c6"},"vehicle_type_id":"4","last_reported":1703012627,"current_range_meters":2800,"station_id":"ce4bhoh2rcd13ifvqh5g","pricing_plan_id":"free"},{"bike_id":"3fc6aae6-4ea2-448b-b7c5-c5776b7b1744","system_id":"levelo_inurba_marseille","lat":43.284462,"lon":5.392121,"is_reserved":false,"is_disabled":false,"rental_uris":{"android":"levelo://app?vid=3fc6aae6-4ea2-448b-b7c5-c5776b7b1744","ios":"levelo://app?vid=3fc6aae6-4ea2-448b-b7c5-c5776b7b1744"},"vehicle_type_id":"4","last_reported":1703012627,"current_range_meters":16800,"station_id":"ce4bhoh2rcd13ifvqh5g","pricing_plan_id":"free"},{"bike_id":"5a19dc98-4b6a-4cac-8617-bec854bef98e","system_id":"levelo_inurba_marseille","lat":43.30418,"lon":5.41281,"is_reserved":false,"is_disabled":false,"rental_uris":{"android":"levelo://app?vid=5a19dc98-4b6a-4cac-8617-bec854bef98e","ios":"levelo://app?vid=5a19dc98-4b6a-4cac-8617-bec854bef98e"},"vehicle_type_id":"4","last_reported":1703012627,"current_range_meters":31200,"station_id":"ce4bhop2rcd13ifvqh8g","pricing_plan_id":"free"},{"bike_id":"fadd8973-e132-4204-aeed-f9a44f2ca7cc","system_id":"levelo_inurba_marseille","lat":43.304202,"lon":5.412884,"is_reserved":false,"is_disabled":false,"rental_uris":{"android":"levelo://app?vid=fadd8973-e132-4204-aeed-f9a44f2ca7cc","ios":"levelo://app?vid=fadd8973-e132-4204-aeed-f9a44f2ca7cc"},"vehicle_type_id":"4","last_reported":1703012627,"current_range_meters":24800,"station_id":"ce4bhop2rcd13ifvqh8g","pricing_plan_id":"free"},{"bike_id":"3883a42f-cb5b-46fe-8d5d-05654d396be4","system_id":"levelo_inurba_marseille","lat":43.279087,"lon":5.380114,"is_reserved":false,"is_disabled":false,"rental_uris":{"android":"levelo://app?vid=3883a42f-cb5b-46fe-8d5d-05654d396be4","ios":"levelo://app?vid=3883a42f-cb5b-46fe-8d5d-05654d396be4"},"vehicle_type_id":"4","last_reported":1703012627,"current_range_meters":20800,"station_id":"ce4bhf92rcd13ifvqf50","pricing_plan_id":"free"},{"bike_id":"477eb7e5-8d2c-4746-a739-c95787cfda1c","system_id":"levelo_inurba_marseille","lat":43.287154,"lon":5.399979,"is_reserved":false,"is_disabled":false,"rental_uris":{"android":"levelo://app?vid=477eb7e5-8d2c-4746-a739-c95787cfda1c","ios":"levelo://app?vid=477eb7e5-8d2c-4746-a739-c95787cfda1c"},"vehicle_type_id":"4","last_reported":1703012627,"current_range_meters":0,"station_id":"ce4bho92rcd13ifvqh3g","pricing_plan_id":"free"},{"bike_id":"311b719f-dacc-4749-8765-a7873788b09c","system_id":"levelo_inurba_marseille","lat":43.287154,"lon":5.399979,"is_reserved":false,"is_disabled":false,"rental_uris":{"android":"levelo://app?vid=311b719f-dacc-4749-8765-a7873788b09c","ios":"levelo://app?vid=311b719f-dacc-4749-8765-a7873788b09c"},"vehicle_type_id":"4","last_reported":1703012627,"current_range_meters":4400,"station_id":"ce4bho92rcd13ifvqh3g","pricing_plan_id":"free"},{"bike_id":"ea13635a-64ce-4e1d-8eee-aa3a727b8d6f","system_id":"levelo_inurba_marseille","lat":43.287154,"lon":5.399979,"is_reserved":false,"is_disabled":false,"rental_uris":{"android":"levelo://app?vid=ea13635a-64ce-4e1d-8eee-aa3a727b8d6f","ios":"levelo://app?vid=ea13635a-64ce-4e1d-8eee-aa3a727b8d6f"},"vehicle_type_id":"4","last_reported":1703012627,"current_range_meters":14000,"station_id":"ce4bho92rcd13ifvqh3g","pricing_plan_id":"free"},{"bike_id":"cb0668d4-d46c-4efe-a7e0-185ebe495ab4","system_id":"levelo_inurba_marseille","lat":43.280527,"lon":5.389053,"is_reserved":false,"is_disabled":false,"rental_uris":{"android":"levelo://app?vid=cb0668d4-d46c-4efe-a7e0-185ebe495ab4","ios":"levelo://app?vid=cb0668d4-d46c-4efe-a7e0-185ebe495ab4"},"vehicle_type_id":"4","last_reported":1703012627,"current_range_meters":11200,"station_id":"","pricing_plan_id":"free"},{"bike_id":"98989e73-b3eb-4839-b681-94334944276f","system_id":"levelo_inurba_marseille","lat":43.2926,"lon":5.409105,"is_reserved":false,"is_disabled":false,"rental_uris":{"android":"levelo://app?vid=98989e73-b3eb-4839-b681-94334944276f","ios":"levelo://app?vid=98989e73-b3eb-4839-b681-94334944276f"},"vehicle_type_id":"4","last_reported":1703012627,"current_range_meters":11200,"station_id":"ce4bh192rcd13ifvqdc0","pricing_plan_id":"free"},{"bike_id":"64f6857d-9635-4f9a-aa1f-0ca1465f75c6","system_id":"levelo_inurba_marseille","lat":43.292575,"lon":5.409097,"is_reserved":false,"is_disabled":false,"rental_uris":{"android":"levelo://app?vid=64f6857d-9635-4f9a-aa1f-0ca1465f75c6","ios":"levelo://app?vid=64f6857d-9635-4f9a-aa1f-0ca1465f75c6"},"vehicle_type_id":"4","last_reported":1703012627,"current_range_meters":16800,"station_id":"ce4bh192rcd13ifvqdc0","pricing_plan_id":"free"},{"bike_id":"0121c00f-66de-4472-970c-6ae9ae14cf86","system_id":"levelo_inurba_marseille","lat":43.276179,"lon":5.361009,"is_reserved":false,"is_disabled":false,"rental_uris":{"android":"levelo://app?vid=0121c00f-66de-4472-970c-6ae9ae14cf86","ios":"levelo://app?vid=0121c00f-66de-4472-970c-6ae9ae14cf86"},"vehicle_type_id":"4","last_reported":1703012627,"current_range_meters":4000,"station_id":"ce4bgj92rcd13ifvqbe0","pricing_plan_id":"free"},{"bike_id":"5e129923-63cc-489e-a4aa-6a9dea21393b","system_id":"levelo_inurba_marseille","lat":43.280784,"lon":5.396622,"is_reserved":false,"is_disabled":false,"rental_uris":{"android":"levelo://app?vid=5e129923-63cc-489e-a4aa-6a9dea21393b","ios":"levelo://app?vid=5e129923-63cc-489e-a4aa-6a9dea21393b"},"vehicle_type_id":"4","last_reported":1703012627,"current_range_meters":13600,"station_id":"ce4bho12rcd13ifvqh2g","pricing_plan_id":"free"},{"bike_id":"cc1d7bf3-e5c0-4653-bf69-25a7c7d536b3","system_id":"levelo_inurba_marseille","lat":43.280784,"lon":5.396622,"is_reserved":false,"is_disabled":false,"rental_uris":{"android":"levelo://app?vid=cc1d7bf3-e5c0-4653-bf69-25a7c7d536b3","ios":"levelo://app?vid=cc1d7bf3-e5c0-4653-bf69-25a7c7d536b3"},"vehicle_type_id":"4","last_reported":1703012627,"current_range_meters":18800,"station_id":"ce4bho12rcd13ifvqh2g","pricing_plan_id":"free"},{"bike_id":"d6646d4f-3da7-4d1e-9d41-73c5eed89dc3","system_id":"levelo_inurba_marseille","lat":43.278401,"lon":5.392152,"is_reserved":false,"is_disabled":false,"rental_uris":{"android":"levelo://app?vid=d6646d4f-3da7-4d1e-9d41-73c5eed89dc3","ios":"levelo://app?vid=d6646d4f-3da7-4d1e-9d41-73c5eed89dc3"},"vehicle_type_id":"4","last_reported":1703012627,"current_range_meters":21600,"station_id":"ce4bhjp2rcd13ifvqga0","pricing_plan_id":"free"},{"bike_id":"e7afcd31-b4d2-4656-8aa5-6d5afb88a6d0","system_id":"levelo_inurba_marseille","lat":43.278399,"lon":5.392139,"is_reserved":false,"is_disabled":false,"rental_uris":{"android":"levelo://app?vid=e7afcd31-b4d2-4656-8aa5-6d5afb88a6d0","ios":"levelo://app?vid=e7afcd31-b4d2-4656-8aa5-6d5afb88a6d0"},"vehicle_type_id":"4","last_reported":1703012627,"current_range_meters":0,"station_id":"ce4bhjp2rcd13ifvqga0","pricing_plan_id":"free"},{"bike_id":"14ee62e5-ce1b-415c-871e-cbb2d91567b4","system_id":"levelo_inurba_marseille","lat":43.275625,"lon":5.384392,"is_reserved":false,"is_disabled":false,"rental_uris":{"android":"levelo://app?vid=14ee62e5-ce1b-415c-871e-cbb2d91567b4","ios":"levelo://app?vid=14ee62e5-ce1b-415c-871e-cbb2d91567b4"},"vehicle_type_id":"4","last_reported":1703012627,"current_range_meters":2400,"station_id":"ce4bhh92rcd13ifvqfi0","pricing_plan_id":"free"},{"bike_id":"bd3f1de2-f36b-432b-96b3-1f836b3f46f6","system_id":"levelo_inurba_marseille","lat":43.275625,"lon":5.384392,"is_reserved":false,"is_disabled":false,"rental_uris":{"android":"levelo://app?vid=bd3f1de2-f36b-432b-96b3-1f836b3f46f6","ios":"levelo://app?vid=bd3f1de2-f36b-432b-96b3-1f836b3f46f6"},"vehicle_type_id":"4","last_reported":1703012627,"current_range_meters":24000,"station_id":"ce4bhh92rcd13ifvqfi0","pricing_plan_id":"free"},{"bike_id":"a453e506-6946-4623-9512-82735d696064","system_id":"levelo_inurba_marseille","lat":43.273609,"lon":5.362708,"is_reserved":false,"is_disabled":false,"rental_uris":{"android":"levelo://app?vid=a453e506-6946-4623-9512-82735d696064","ios":"levelo://app?vid=a453e506-6946-4623-9512-82735d696064"},"vehicle_type_id":"4","last_reported":1703012627,"current_range_meters":22000,"station_id":"ce4bhbh2rcd13ifvqeo0","pricing_plan_id":"free"},{"bike_id":"467f6fa7-75aa-40c1-9c68-e7b5ff19ccb1","system_id":"levelo_inurba_marseille","lat":43.275625,"lon":5.384392,"is_reserved":false,"is_disabled":false,"rental_uris":{"android":"levelo://app?vid=467f6fa7-75aa-40c1-9c68-e7b5ff19ccb1","ios":"levelo://app?vid=467f6fa7-75aa-40c1-9c68-e7b5ff19ccb1"},"vehicle_type_id":"4","last_reported":1703012627,"current_range_meters":29200,"station_id":"ce4bhh92rcd13ifvqfi0","pricing_plan_id":"free"},{"bike_id":"402c657f-f553-43d5-a172-13577975d2d0","system_id":"levelo_inurba_marseille","lat":43.290336,"lon":5.386425,"is_reserved":false,"is_disabled":false,"rental_uris":{"android":"levelo://app?vid=402c657f-f553-43d5-a172-13577975d2d0","ios":"levelo://app?vid=402c657f-f553-43d5-a172-13577975d2d0"},"vehicle_type_id":"4","last_reported":1703012627,"current_range_meters":1200,"station_id":"ce4bh4p2rcd13ifvqe0g","pricing_plan_id":"free"},{"bike_id":"8aaafce3-32e4-45e5-9f96-e6fe6d7e4f5b","system_id":"levelo_inurba_marseille","lat":43.31718,"lon":5.42391,"is_reserved":false,"is_disabled":false,"rental_uris":{"android":"levelo://app?vid=8aaafce3-32e4-45e5-9f96-e6fe6d7e4f5b","ios":"levelo://app?vid=8aaafce3-32e4-45e5-9f96-e6fe6d7e4f5b"},"vehicle_type_id":"4","last_reported":1703012627,"current_range_meters":16800,"station_id":"ce4bhp92rcd13ifvqhbg","pricing_plan_id":"free"},{"bike_id":"905a6c74-af0c-489d-930a-338c6f3bbfd5","system_id":"levelo_inurba_marseille","lat":43.317183,"lon":5.423918,"is_reserved":false,"is_disabled":false,"rental_uris":{"android":"levelo://app?vid=905a6c74-af0c-489d-930a-338c6f3bbfd5","ios":"levelo://app?vid=905a6c74-af0c-489d-930a-338c6f3bbfd5"},"vehicle_type_id":"4","last_reported":1703012627,"current_range_meters":11200,"station_id":"ce4bhp92rcd13ifvqhbg","pricing_plan_id":"free"},{"bike_id":"6aeb72c6-7795-421e-8c99-8e89a08bfac6","system_id":"levelo_inurba_marseille","lat":43.317121,"lon":5.423936,"is_reserved":false,"is_disabled":false,"rental_uris":{"android":"levelo://app?vid=6aeb72c6-7795-421e-8c99-8e89a08bfac6","ios":"levelo://app?vid=6aeb72c6-7795-421e-8c99-8e89a08bfac6"},"vehicle_type_id":"4","last_reported":1703012627,"current_range_meters":30000,"station_id":"ce4bhp92rcd13ifvqhbg","pricing_plan_id":"free"},{"bike_id":"974dc7db-ff3c-4554-8964-132f9db52d9b","system_id":"levelo_inurba_marseille","lat":43.276092,"lon":5.395289,"is_reserved":false,"is_disabled":false,"rental_uris":{"android":"levelo://app?vid=974dc7db-ff3c-4554-8964-132f9db52d9b","ios":"levelo://app?vid=974dc7db-ff3c-4554-8964-132f9db52d9b"},"vehicle_type_id":"4","last_reported":1703012627,"current_range_meters":6800,"station_id":"","pricing_plan_id":"free"},{"bike_id":"1aaeade2-16f7-4c2d-b598-dfecd6c04985","system_id":"levelo_inurba_marseille","lat":43.29551,"lon":5.42287,"is_reserved":false,"is_disabled":false,"rental_uris":{"android":"levelo://app?vid=1aaeade2-16f7-4c2d-b598-dfecd6c04985","ios":"levelo://app?vid=1aaeade2-16f7-4c2d-b598-dfecd6c04985"},"vehicle_type_id":"4","last_reported":1703012627,"current_range_meters":18000,"station_id":"ce4bhph2rcd13ifvqhdg","pricing_plan_id":"free"},{"bike_id":"ca314493-3848-477b-95b3-e1722a7aef04","system_id":"levelo_inurba_marseille","lat":43.295173,"lon":5.422675,"is_reserved":false,"is_disabled":false,"rental_uris":{"android":"levelo://app?vid=ca314493-3848-477b-95b3-e1722a7aef04","ios":"levelo://app?vid=ca314493-3848-477b-95b3-e1722a7aef04"},"vehicle_type_id":"4","last_reported":1703012627,"current_range_meters":14800,"station_id":"ce4bhph2rcd13ifvqhdg","pricing_plan_id":"free"},{"bike_id":"9c6826b7-5273-425c-ae07-ee8f8a402ab4","system_id":"levelo_inurba_marseille","lat":43.295523,"lon":5.422926,"is_reserved":false,"is_disabled":false,"rental_uris":{"android":"levelo://app?vid=9c6826b7-5273-425c-ae07-ee8f8a402ab4","ios":"levelo://app?vid=9c6826b7-5273-425c-ae07-ee8f8a402ab4"},"vehicle_type_id":"4","last_reported":1703012627,"current_range_meters":23600,"station_id":"ce4bhph2rcd13ifvqhdg","pricing_plan_id":"free"},{"bike_id":"3596ffe6-624b-4dc7-9170-dafc2adf1848","system_id":"levelo_inurba_marseille","lat":43.27188,"lon":5.39224,"is_reserved":false,"is_disabled":false,"rental_uris":{"android":"levelo://app?vid=3596ffe6-624b-4dc7-9170-dafc2adf1848","ios":"levelo://app?vid=3596ffe6-624b-4dc7-9170-dafc2adf1848"},"vehicle_type_id":"4","last_reported":1703012627,"current_range_meters":9600,"station_id":"ce4bhhp2rcd13ifvqfm0","pricing_plan_id":"free"},{"bike_id":"4aad0a89-e145-4549-97ab-689cadeee0ac","system_id":"levelo_inurba_marseille","lat":43.2794,"lon":5.40861,"is_reserved":false,"is_disabled":false,"rental_uris":{"android":"levelo://app?vid=4aad0a89-e145-4549-97ab-689cadeee0ac","ios":"levelo://app?vid=4aad0a89-e145-4549-97ab-689cadeee0ac"},"vehicle_type_id":"4","last_reported":1703012627,"current_range_meters":6000,"station_id":"ce4bhl12rcd13ifvqgf0","pricing_plan_id":"free"},{"bike_id":"5811f8df-1e25-4a9f-b351-09c37aebfa21","system_id":"levelo_inurba_marseille","lat":43.278128,"lon":5.407195,"is_reserved":false,"is_disabled":false,"rental_uris":{"android":"levelo://app?vid=5811f8df-1e25-4a9f-b351-09c37aebfa21","ios":"levelo://app?vid=5811f8df-1e25-4a9f-b351-09c37aebfa21"},"vehicle_type_id":"4","last_reported":1703012627,"current_range_meters":12000,"station_id":"ce4bhnh2rcd13ifvqgtg","pricing_plan_id":"free"},{"bike_id":"c4d6b0f5-6505-4bc4-b5c7-41cb405ff78a","system_id":"levelo_inurba_marseille","lat":43.278128,"lon":5.407195,"is_reserved":false,"is_disabled":false,"rental_uris":{"android":"levelo://app?vid=c4d6b0f5-6505-4bc4-b5c7-41cb405ff78a","ios":"levelo://app?vid=c4d6b0f5-6505-4bc4-b5c7-41cb405ff78a"},"vehicle_type_id":"4","last_reported":1703012627,"current_range_meters":15200,"station_id":"ce4bhnh2rcd13ifvqgtg","pricing_plan_id":"free"},{"bike_id":"a8fcc8a6-5665-4904-b944-4f0d966a182a","system_id":"levelo_inurba_marseille","lat":43.278128,"lon":5.407195,"is_reserved":false,"is_disabled":false,"rental_uris":{"android":"levelo://app?vid=a8fcc8a6-5665-4904-b944-4f0d966a182a","ios":"levelo://app?vid=a8fcc8a6-5665-4904-b944-4f0d966a182a"},"vehicle_type_id":"4","last_reported":1703012627,"current_range_meters":11200,"station_id":"ce4bhnh2rcd13ifvqgtg","pricing_plan_id":"free"},{"bike_id":"1d4d3214-aee3-4c48-a6c9-174e6bf0131a","system_id":"levelo_inurba_marseille","lat":43.278128,"lon":5.407195,"is_reserved":false,"is_disabled":false,"rental_uris":{"android":"levelo://app?vid=1d4d3214-aee3-4c48-a6c9-174e6bf0131a","ios":"levelo://app?vid=1d4d3214-aee3-4c48-a6c9-174e6bf0131a"},"vehicle_type_id":"4","last_reported":1703012627,"current_range_meters":4000,"station_id":"ce4bhnh2rcd13ifvqgtg","pricing_plan_id":"free"},{"bike_id":"d2b95e8a-c18d-44c4-ab96-4e53aa3122fa","system_id":"levelo_inurba_marseille","lat":43.278128,"lon":5.407195,"is_reserved":false,"is_disabled":false,"rental_uris":{"android":"levelo://app?vid=d2b95e8a-c18d-44c4-ab96-4e53aa3122fa","ios":"levelo://app?vid=d2b95e8a-c18d-44c4-ab96-4e53aa3122fa"},"vehicle_type_id":"4","last_reported":1703012627,"current_range_meters":4000,"station_id":"ce4bhnh2rcd13ifvqgtg","pricing_plan_id":"free"},{"bike_id":"fa85ba82-94c0-493e-ae74-e3b791fd58c0","system_id":"levelo_inurba_marseille","lat":43.269467,"lon":5.386439,"is_reserved":false,"is_disabled":false,"rental_uris":{"android":"levelo://app?vid=fa85ba82-94c0-493e-ae74-e3b791fd58c0","ios":"levelo://app?vid=fa85ba82-94c0-493e-ae74-e3b791fd58c0"},"vehicle_type_id":"4","last_reported":1703012627,"current_range_meters":0,"station_id":"ce4bhh92rcd13ifvqfh0","pricing_plan_id":"free"},{"bike_id":"4249991d-d320-4409-90c8-3ff561525765","system_id":"levelo_inurba_marseille","lat":43.269467,"lon":5.386439,"is_reserved":false,"is_disabled":false,"rental_uris":{"android":"levelo://app?vid=4249991d-d320-4409-90c8-3ff561525765","ios":"levelo://app?vid=4249991d-d320-4409-90c8-3ff561525765"},"vehicle_type_id":"4","last_reported":1703012627,"current_range_meters":10400,"station_id":"ce4bhh92rcd13ifvqfh0","pricing_plan_id":"free"},{"bike_id":"07363bb1-82af-4c38-85c7-f9314739b491","system_id":"levelo_inurba_marseille","lat":43.279465,"lon":5.410561,"is_reserved":false,"is_disabled":false,"rental_uris":{"android":"levelo://app?vid=07363bb1-82af-4c38-85c7-f9314739b491","ios":"levelo://app?vid=07363bb1-82af-4c38-85c7-f9314739b491"},"vehicle_type_id":"4","last_reported":1703012627,"current_range_meters":5200,"station_id":"ce4bhnp2rcd13ifvqh0g","pricing_plan_id":"free"},{"bike_id":"cda00609-2c3e-49da-98fe-18d75660961f","system_id":"levelo_inurba_marseille","lat":43.269319,"lon":5.389397,"is_reserved":false,"is_disabled":false,"rental_uris":{"android":"levelo://app?vid=cda00609-2c3e-49da-98fe-18d75660961f","ios":"levelo://app?vid=cda00609-2c3e-49da-98fe-18d75660961f"},"vehicle_type_id":"4","last_reported":1703012627,"current_range_meters":10000,"station_id":"ce4bhhh2rcd13ifvqfl0","pricing_plan_id":"free"},{"bike_id":"9978d16d-ab61-4513-a15a-fcca8d25e4bd","system_id":"levelo_inurba_marseille","lat":43.27024,"lon":5.39263,"is_reserved":false,"is_disabled":false,"rental_uris":{"android":"levelo://app?vid=9978d16d-ab61-4513-a15a-fcca8d25e4bd","ios":"levelo://app?vid=9978d16d-ab61-4513-a15a-fcca8d25e4bd"},"vehicle_type_id":"4","last_reported":1703012627,"current_range_meters":21200,"station_id":"","pricing_plan_id":"free"},