{"last_updated":1731348699,"ttl":60,"version":"2.2","data":{"bikes":[{"bike_id":"2afb4c00-67cc-42f1-ae32-502f5aecb4b2","system_id":"levelo_inurba_marseille","lat":43.24084,"lon":5.37752,"is_reserved":false,"is_disabled":false,"rental_uris":{"android":"levelo://app?vid=2afb4c00-67cc-42f1-ae32-502f5aecb4b2","ios":"levelo://app?vid=2afb4c00-67cc-42f1-ae32-502f5aecb4b2"},"vehicle_type_id":"4","last_reported":1731348699,"current_range_meters":33600,"station_id":"ce4bhnp2rcd13ifvqgvg","pricing_plan_id":"cebpf4jnsgd1na2vs0mg"},{"bike_id":"55f338da-564d-4339-bcb5-5d0a4b68c4e6","system_id":"levelo_inurba_marseille","lat":43.31047,"lon":5.40099,"is_reserved":false,"is_disabled":false,"rental_uris":{"android":"levelo://app?vid=55f338da-564d-4339-bcb5-5d0a4b68c4e6","ios":"levelo://app?vid=55f338da-564d-4339-bcb5-5d0a4b68c4e6"},"vehicle_type_id":"4","last_reported":1731348699,"current_range_meters":6400,"station_id":"","pricing_plan_id":"cebpf4jnsgd1na2vs0mg"},{"bike_id":"092dc3c4-ec94-48f1-bf24-36eadab65fb9","system_id":"levelo_inurba_marseille","lat":43.29049,"lon":5.38673,"is_reserved":false,"is_disabled":false,"rental_uris":{"android":"levelo://app?vid=092dc3c4-ec94-48f1-bf24-36eadab65fb9","ios":"levelo://app?vid=092dc3c4-ec94-48f1-bf24-36eadab65fb9"},"vehicle_type_id":"4","last_reported":1731348699,"current_range_meters":36400,"station_id":"ce4bh4p2rcd13ifvqe0g","pricing_plan_id":"cebpf4jnsgd1na2vs0mg"},{"bike_id":"64d90b08-5e61-4c38-bbaa-d680bf80640e","system_id":"levelo_inurba_marseille","lat":43.29033,"lon":5.38645,"is_reserved":false,"is_disabled":false,"rental_uris":{"android":"levelo://app?vid=64d90b08-5e61-4c38-bbaa-d680bf80640e","ios":"levelo://app?vid=64d90b08-5e61-4c38-bbaa-d680bf80640e"},"vehicle_type_id":"4","last_reported":1731348699,"current_range_meters":32400,"station_id":"ce4bh4p2rcd13ifvqe0g","pricing_plan_id":"cebpf4jnsgd1na2vs0mg"},{"bike_id":"e8f6a345-613f-4d73-b3c6-ff7badec834d","system_id":"levelo_inurba_marseille","lat":43.29196,"lon":5.3932,"is_reserved":false,"is_disabled":false,"rental_uris":{"android":"levelo://app?vid=e8f6a345-613f-4d73-b3c6-ff7badec834d","ios":"levelo://app?vid=e8f6a345-613f-4d73-b3c6-ff7badec834d"},"vehicle_type_id":"4","last_reported":1731348699,"current_range_meters":36800,"station_id":"ce4bh192rcd13ifvqdd0","pricing_plan_id":"cebpf4jnsgd1na2vs0mg"},{"bike_id":"84292e1a-6745-44c9-864a-ea58b6a7f73a","system_id":"levelo_inurba_marseille","lat":43.28844,"lon":5.3933,"is_reserved":false,"is_disabled":false,"rental_uris":{"android":"levelo://app?vid=84292e1a-6745-44c9-864a-ea58b6a7f73a","ios":"levelo://app?vid=84292e1a-6745-44c9-864a-ea58b6a7f73a"},"vehicle_type_id":"4","last_reported":1731348699,"current_range_meters":6400,"station_id":"ce4bh2p2rcd13ifvqdi0","pricing_plan_id":"cebpf4jnsgd1na2vs0mg"},{"bike_id":"b60d171a-c530-4b12-b1ce-068899dc5a94","system_id":"levelo_inurba_marseille","lat":43.31098,"lon":5.37773,"is_reserved":false,"is_disabled":false,"rental_uris":{"android":"levelo://app?vid=b60d171a-c530-4b12-b1ce-068899dc5a94","ios":"levelo://app?vid=b60d171a-c530-4b12-b1ce-068899dc5a94"},"vehicle_type_id":"4","last_reported":1731348699,"current_range_meters":38800,"station_id":"ce4bgt92rcd13ifvqcg0","pricing_plan_id":"cebpf4jnsgd1na2vs0mg"},{"bike_id":"4c0f6987-6003-458e-b26d-8c7570128565","system_id":"levelo_inurba_marseille","lat":43.29527,"lon":5.38545,"is_reserved":false,"is_disabled":false,"rental_uris":{"android":"levelo://app?vid=4c0f6987-6003-458e-b26d-8c7570128565","ios":"levelo://app?vid=4c0f6987-6003-458e-b26d-8c7570128565"},"vehicle_type_id":"4","last_reported":1731348699,"current_range_meters":4400,"station_id":"ce4bgih2rcd13ifvqba0","pricing_plan_id":"cebpf4jnsgd1na2vs0mg"},{"bike_id":"885bee73-bbcc-4a11-84fd-1a21612a7fac","system_id":"levelo_inurba_marseille","lat":43.2928,"lon":5.40121,"is_reserved":false,"is_disabled":false,"rental_uris":{"android":"levelo://app?vid=885bee73-bbcc-4a11-84fd-1a21612a7fac","ios":"levelo://app?vid=885bee73-bbcc-4a11-84fd-1a21612a7fac"},"vehicle_type_id":"4","last_reported":1731348699,"current_range_meters":3200,"station_id":"ce4bh312rcd13ifvqdk0","pricing_plan_id":"cebpf4jnsgd1na2vs0mg"},{"bike_id":"d58636f1-224d-48a3-ac68-59d52e30576f","system_id":"levelo_inurba_marseille","lat":43.32365,"lon":5.38886,"is_reserved":false,"is_disabled":false,"rental_uris":{"android":"levelo://app?vid=d58636f1-224d-48a3-ac68-59d52e30576f","ios":"levelo://app?vid=d58636f1-224d-48a3-ac68-59d52e30576f"},"vehicle_type_id":"4","last_reported":1731348699,"current_range_meters":34000,"station_id":"ce4bhqp2rcd13ifvqhog","pricing_plan_id":"cebpf4jnsgd1na2vs0mg"},{"bike_id":"45cbcec8-866a-410e-ac80-4597d326b6ff","system_id":"levelo_inurba_marseille","lat":43.29037,"lon":5.38648,"is_reserved":false,"is_disabled":false,"rental_uris":{"android":"levelo://app?vid=45cbcec8-866a-410e-ac80-4597d326b6ff","ios":"levelo://app?vid=45cbcec8-866a-410e-ac80-4597d326b6ff"},"vehicle_type_id":"4","last_reported":1731348699,"current_range_meters":36400,"station_id":"ce4bh4p2rcd13ifvqe0g","pricing_plan_id":"cebpf4jnsgd1na2vs0mg"},{"bike_id":"91bca75f-40ea-47aa-9353-1bbaa55d735b","system_id":"levelo_inurba_marseille","lat":43.31324,"lon":5.39692,"is_reserved":false,"is_disabled":false,"rental_uris":{"android":"levelo://app?vid=91bca75f-40ea-47aa-9353-1bbaa55d735b","ios":"levelo://app?vid=91bca75f-40ea-47aa-9353-1bbaa55d735b"},"vehicle_type_id":"4","last_reported":1731348699,"current_range_meters":32400,"station_id":"ce4bgvp2rcd13ifvqcu0","pricing_plan_id":"cebpf4jnsgd1na2vs0mg"},{"bike_id":"aa3e2e8f-a957-420a-903b-a1ce6b7d817c","system_id":"levelo_inurba_marseille","lat":43.301812,"lon":5.366041,"is_reserved":false,"is_disabled":false,"rental_uris":{"android":"levelo://app?vid=aa3e2e8f-a957-420a-903b-a1ce6b7d817c","ios":"levelo://app?vid=aa3e2e8f-a957-420a-903b-a1ce6b7d817c"},"vehicle_type_id":"4","last_reported":1731348699,"current_range_meters":26800,"station_id":"ce4bha92rcd13ifvqeh0","pricing_plan_id":"cebpf4jnsgd1na2vs0mg"},{"bike_id":"121d62dd-bb92-4146-bb00-6ccc5ba0d151","system_id":"levelo_inurba_marseille","lat":43.24666,"lon":5.3817,"is_reserved":false,"is_disabled":false,"rental_uris":{"android":"levelo://app?vid=121d62dd-bb92-4146-bb00-6ccc5ba0d151","ios":"levelo://app?vid=121d62dd-bb92-4146-bb00-6ccc5ba0d151"},"vehicle_type_id":"4","last_reported":1731348699,"current_range_meters":21600,"station_id":"ce4bhih2rcd13ifvqfr0","pricing_plan_id":"cebpf4jnsgd1na2vs0mg"},{"bike_id":"f9466836-1d54-427d-8260-e51c56ac445f","system_id":"levelo_inurba_marseille","lat":43.3042,"lon":5.39753,"is_reserved":false,"is_disabled":false,"rental_uris":{"android":"levelo://app?vid=f9466836-1d54-427d-8260-e51c56ac445f","ios":"levelo://app?vid=f9466836-1d54-427d-8260-e51c56ac445f"},"vehicle_type_id":"4","last_reported":1731348699,"current_range_meters":10000,"station_id":"ce4bh092rcd13ifvqd20","pricing_plan_id":"cebpf4jnsgd1na2vs0mg"},{"bike_id":"1ec31f50-d96c-47c6-9806-96f227089cd4","system_id":"levelo_inurba_marseille","lat":43.27493,"lon":5.42455,"is_reserved":false,"is_disabled":false,"rental_uris":{"android":"levelo://app?vid=1ec31f50-d96c-47c6-9806-96f227089cd4","ios":"levelo://app?vid=1ec31f50-d96c-47c6-9806-96f227089cd4"},"vehicle_type_id":"4","last_reported":1731348699,"current_range_meters":36400,"station_id":"ce4bhn92rcd13ifvqgrg","pricing_plan_id":"cebpf4jnsgd1na2vs0mg"},{"bike_id":"04a78320-ad8c-4850-8cdb-0babaaeb3325","system_id":"levelo_inurba_marseille","lat":43.31108,"lon":5.37763,"is_reserved":false,"is_disabled":false,"rental_uris":{"android":"levelo://app?vid=04a78320-ad8c-4850-8cdb-0babaaeb3325","ios":"levelo://app?vid=04a78320-ad8c-4850-8cdb-0babaaeb3325"},"vehicle_type_id":"4","last_reported":1731348699,"current_range_meters":20800,"station_id":"ce4bgt92rcd13ifvqcg0","pricing_plan_id":"cebpf4jnsgd1na2vs0mg"},{"bike_id":"589411fc-9ee4-44e6-9623-60f3651703e2","system_id":"levelo_inurba_marseille","lat":43.26496,"lon":5.39543,"is_reserved":false,"is_disabled":false,"rental_uris":{"android":"levelo://app?vid=589411fc-9ee4-44e6-9623-60f3651703e2","ios":"levelo://app?vid=589411fc-9ee4-44e6-9623-60f3651703e2"},"vehicle_type_id":"4","last_reported":1731348699,"current_range_meters":38400,"station_id":"ce4bhi12rcd13ifvqfq0","pricing_plan_id":"cebpf4jnsgd1na2vs0mg"},{"bike_id":"59a307ea-acec-44f2-a4ef-7e7d74d8ed8b","system_id":"levelo_inurba_marseille","lat":43.28075,"lon":5.39663,"is_reserved":false,"is_disabled":false,"rental_uris":{"android":"levelo://app?vid=59a307ea-acec-44f2-a4ef-7e7d74d8ed8b","ios":"levelo://app?vid=59a307ea-acec-44f2-a4ef-7e7d74d8ed8b"},"vehicle_type_id":"4","last_reported":1731348699,"current_range_meters":35200,"station_id":"ce4bho12rcd13ifvqh2g","pricing_plan_id":"cebpf4jnsgd1na2vs0mg"},{"bike_id":"2f337dac-b7d7-4eda-a17f-54dd9750b9d0","system_id":"levelo_inurba_marseille","lat":43.29595,"lon":5.38098,"is_reserved":false,"is_disabled":false,"rental_uris":{"android":"levelo://app?vid=2f337dac-b7d7-4eda-a17f-54dd9750b9d0","ios":"levelo://app?vid=2f337dac-b7d7-4eda-a17f-54dd9750b9d0"},"vehicle_type_id":"4","last_reported":1731348699,"current_range_meters":16800,"station_id":"ce4bgl12rcd13ifvqbo0","pricing_plan_id":"cebpf4jnsgd1na2vs0mg"},{"bike_id":"55f1a7c3-896e-434c-b890-0d70bff8f621","system_id":"levelo_inurba_marseille","lat":43.24652,"lon":5.3889,"is_reserved":false,"is_disabled":false,"rental_uris":{"android":"levelo://app?vid=55f1a7c3-896e-434c-b890-0d70bff8f621","ios":"levelo://app?vid=55f1a7c3-896e-434c-b890-0d70bff8f621"},"vehicle_type_id":"4","last_reported":1731348699,"current_range_meters":17200,"station_id":"ce4bhg12rcd13ifvqf60","pricing_plan_id":"cebpf4jnsgd1na2vs0mg"},{"bike_id":"4839c812-e2cb-432b-a0ef-e2817e346c52","system_id":"levelo_inurba_marseille","lat":43.29187,"lon":5.39312,"is_reserved":false,"is_disabled":false,"rental_uris":{"android":"levelo://app?vid=4839c812-e2cb-432b-a0ef-e2817e346c52","ios":"levelo://app?vid=4839c812-e2cb-432b-a0ef-e2817e346c52"},"vehicle_type_id":"4","last_reported":1731348699,"current_range_meters":38800,"station_id":"ce4bh192rcd13ifvqdd0","pricing_plan_id":"cebpf4jnsgd1na2vs0mg"},{"bike_id":"7a95755a-3580-4668-83df-fbf97c2ae4af","system_id":"levelo_inurba_marseille","lat":43.313282,"lon":5.396996,"is_reserved":false,"is_disabled":false,"rental_uris":{"android":"levelo://app?vid=7a95755a-3580-4668-83df-fbf97c2ae4af","ios":"levelo://app?vid=7a95755a-3580-4668-83df-fbf97c2ae4af"},"vehicle_type_id":"4","last_reported":1731348699,"current_range_meters":36400,"station_id":"ce4bgvp2rcd13ifvqcu0","pricing_plan_id":"cebpf4jnsgd1na2vs0mg"},{"bike_id":"0eb03395-9db6-43c2-99fd-3b0a65988124","system_id":"levelo_inurba_marseille","lat":43.29519,"lon":5.39406,"is_reserved":false,"is_disabled":false,"rental_uris":{"android":"levelo://app?vid=0eb03395-9db6-43c2-99fd-3b0a65988124","ios":"levelo://app?vid=0eb03395-9db6-43c2-99fd-3b0a65988124"},"vehicle_type_id":"4","last_reported":1731348699,"current_range_meters":38400,"station_id":"ce4bh292rcd13ifvqdf0","pricing_plan_id":"cebpf4jnsgd1na2vs0mg"},{"bike_id":"3603859d-120d-4ec8-81ce-2906c962f38f","system_id":"levelo_inurba_marseille","lat":43.28,"lon":5.40021,"is_reserved":false,"is_disabled":false,"rental_uris":{"android":"levelo://app?vid=3603859d-120d-4ec8-81ce-2906c962f38f","ios":"levelo://app?vid=3603859d-120d-4ec8-81ce-2906c962f38f"},"vehicle_type_id":"4","last_reported":1731348699,"current_range_meters":24000,"station_id":"ce4bho92rcd13ifvqh4g","pricing_plan_id":"cebpf4jnsgd1na2vs0mg"},{"bike_id":"2684a46d-bd51-4978-ba6c-c61abe608ac8","system_id":"levelo_inurba_marseille","lat":43.28103,"lon":5.3785,"is_reserved":false,"is_disabled":false,"rental_uris":{"android":"levelo://app?vid=2684a46d-bd51-4978-ba6c-c61abe608ac8","ios":"levelo://app?vid=2684a46d-bd51-4978-ba6c-c61abe608ac8"},"vehicle_type_id":"4","last_reported":1731348699,"current_range_meters":24000,"station_id":"ce4bha12rcd13ifvqee0","pricing_plan_id":"cebpf4jnsgd1na2vs0mg"},{"bike_id":"f81a2320-91ce-4291-b01c-239e4e5f4fca","system_id":"levelo_inurba_marseille","lat":43.27978,"lon":5.38729,"is_reserved":false,"is_disabled":false,"rental_uris":{"android":"levelo://app?vid=f81a2320-91ce-4291-b01c-239e4e5f4fca","ios":"levelo://app?vid=f81a2320-91ce-4291-b01c-239e4e5f4fca"},"vehicle_type_id":"4","last_reported":1731348699,"current_range_meters":4000,"station_id":"ce4bhg12rcd13ifvqf80","pricing_plan_id":"cebpf4jnsgd1na2vs0mg"},{"bike_id":"333a8fd1-0af5-4d2d-8e99-f8610bc57a84","system_id":"levelo_inurba_marseille","lat":43.23965,"lon":5.36628,"is_reserved":false,"is_disabled":false,"rental_uris":{"android":"levelo://app?vid=333a8fd1-0af5-4d2d-8e99-f8610bc57a84","ios":"levelo://app?vid=333a8fd1-0af5-4d2d-8e99-f8610bc57a84"},"vehicle_type_id":"4","last_reported":1731348699,"current_range_meters":9600,"station_id":"ce4bhi12rcd13ifvqfp0","pricing_plan_id":"cebpf4jnsgd1na2vs0mg"},{"bike_id":"b1cf96d5-1835-4dd5-86b9-31c9cf745a25","system_id":"levelo_inurba_marseille","lat":43.30098,"lon":5.39095,"is_reserved":false,"is_disabled":false,"rental_uris":{"android":"levelo://app?vid=b1cf96d5-1835-4dd5-86b9-31c9cf745a25","ios":"levelo://app?vid=b1cf96d5-1835-4dd5-86b9-31c9cf745a25"},"vehicle_type_id":"4","last_reported":1731348699,"current_range_meters":2800,"station_id":"ce4bh192rcd13ifvqdb0","pricing_plan_id":"cebpf4jnsgd1na2vs0mg"},{"bike_id":"9d7f4e5e-91e3-4a5e-9d1b-e516002e6026","system_id":"levelo_inurba_marseille","lat":43.29613,"lon":5.38105,"is_reserved":false,"is_disabled":false,"rental_uris":{"android":"levelo://app?vid=9d7f4e5e-91e3-4a5e-9d1b-e516002e6026","ios":"levelo://app?vid=9d7f4e5e-91e3-4a5e-9d1b-e516002e6026"},"vehicle_type_id":"4","last_reported":1731348699,"current_range_meters":14000,"station_id":"ce4bgl12rcd13ifvqbo0","pricing_plan_id":"cebpf4jnsgd1na2vs0mg"},{"bike_id":"2972f759-c98e-4fe7-9758-85d215895273","system_id":"levelo_inurba_marseille","lat":43.23961,"lon":5.3662,"is_reserved":false,"is_disabled":false,"rental_uris":{"android":"levelo://app?vid=2972f759-c98e-4fe7-9758-85d215895273","ios":"levelo://app?vid=2972f759-c98e-4fe7-9758-85d215895273"},"vehicle_type_id":"4","last_reported":1731348699,"current_range_meters":29600,"station_id":"ce4bhi12rcd13ifvqfp0","pricing_plan_id":"cebpf4jnsgd1na2vs0mg"},{"bike_id":"4e51ffaf-349f-47c5-9cb4-eb6ae2f1c2b5","system_id":"levelo_inurba_marseille","lat":43.30422,"lon":5.41286,"is_reserved":false,"is_disabled":false,"rental_uris":{"android":"levelo://app?vid=4e51ffaf-349f-47c5-9cb4-eb6ae2f1c2b5","ios":"levelo://app?vid=4e51ffaf-349f-47c5-9cb4-eb6ae2f1c2b5"},"vehicle_type_id":"4","last_reported":1731348699,"current_range_meters":28800,"station_id":"ce4bhop2rcd13ifvqh8g","pricing_plan_id":"cebpf4jnsgd1na2vs0mg"},{"bike_id":"cf9fd513-f1e9-4a45-afce-a540f8d0ed14","system_id":"levelo_inurba_marseille","lat":43.30552,"lon":5.38428,"is_reserved":false,"is_disabled":false,"rental_uris":{"android":"levelo://app?vid=cf9fd513-f1e9-4a45-afce-a540f8d0ed14","ios":"levelo://app?vid=cf9fd513-f1e9-4a45-afce-a540f8d0ed14"},"vehicle_type_id":"4","last_reported":1731348699,"current_range_meters":20000,"station_id":"ce4bgg92rcd13ifvqb30","pricing_plan_id":"cebpf4jnsgd1na2vs0mg"},{"bike_id":"8a294e85-51a2-4b6d-a9a6-740bad5f1fbb","system_id":"levelo_inurba_marseille","lat":43.30957,"lon":5.39026,"is_reserved":false,"is_disabled":false,"rental_uris":{"android":"levelo://app?vid=8a294e85-51a2-4b6d-a9a6-740bad5f1fbb","ios":"levelo://app?vid=8a294e85-51a2-4b6d-a9a6-740bad5f1fbb"},"vehicle_type_id":"4","last_reported":1731348699,"current_range_meters":8800,"station_id":"ce4bgup2rcd13ifvqco0","pricing_plan_id":"cebpf4jnsgd1na2vs0mg"},{"bike_id":"acdc1b6b-35f6-4073-b3c7-0431b15d2ec2","system_id":"levelo_inurba_marseille","lat":43.32475,"lon":5.36559,"is_reserved":false,"is_disabled":false,"rental_uris":{"android":"levelo://app?vid=acdc1b6b-35f6-4073-b3c7-0431b15d2ec2","ios":"levelo://app?vid=acdc1b6b-35f6-4073-b3c7-0431b15d2ec2"},"vehicle_type_id":"4","last_reported":1731348699,"current_range_meters":6800,"station_id":"ce4bhs12rcd13ifvqhvg","pricing_plan_id":"cebpf4jnsgd1na2vs0mg"},{"bike_id":"4a4636eb-5285-4ece-a125-6c6ccc5ce3d7","system_id":"levelo_inurba_marseille","lat":43.26956,"lon":5.38638,"is_reserved":false,"is_disabled":false,"rental_uris":{"android":"levelo://app?vid=4a4636eb-5285-4ece-a125-6c6ccc5ce3d7","ios":"levelo://app?vid=4a4636eb-5285-4ece-a125-6c6ccc5ce3d7"},"vehicle_type_id":"4","last_reported":1731348699,"current_range_meters":2800,"station_id":"ce4bhh92rcd13ifvqfh0","pricing_plan_id":"cebpf4jnsgd1na2vs0mg"},{"bike_id":"8ca99178-6817-46ad-bfbf-2c6e3d96e9c0","system_id":"levelo_inurba_marseille","lat":43.29418,"lon":5.38625,"is_reserved":false,"is_disabled":false,"rental_uris":{"android":"levelo://app?vid=8ca99178-6817-46ad-bfbf-2c6e3d96e9c0","ios":"levelo://app?vid=8ca99178-6817-46ad-bfbf-2c6e3d96e9c0"},"vehicle_type_id":"4","last_reported":1731348699,"current_range_meters":17200,"station_id":"ce4bh2h2rcd13ifvqdh0","pricing_plan_id":"cebpf4jnsgd1na2vs0mg"},{"bike_id":"3260cc4a-31ee-4f29-b1d9-1f2c1c8e2cb4","system_id":"levelo_inurba_marseille","lat":43.25724,"lon":5.41114,"is_reserved":false,"is_disabled":false,"rental_uris":{"android":"levelo://app?vid=3260cc4a-31ee-4f29-b1d9-1f2c1c8e2cb4","ios":"levelo://app?vid=3260cc4a-31ee-4f29-b1d9-1f2c1c8e2cb4"},"vehicle_type_id":"4","last_reported":1731348699,"current_range_meters":6400,"station_id":"ce4bhkp2rcd13ifvqgd0","pricing_plan_id":"cebpf4jnsgd1na2vs0mg"},{"bike_id":"987f7718-3c7a-46f6-8c12-2d4dd2bc5fbe","system_id":"levelo_inurba_marseille","lat":43.31074,"lon":5.38354,"is_reserved":false,"is_disabled":false,"rental_uris":{"android":"levelo://app?vid=987f7718-3c7a-46f6-8c12-2d4dd2bc5fbe","ios":"levelo://app?vid=987f7718-3c7a-46f6-8c12-2d4dd2bc5fbe"},"vehicle_type_id":"4","last_reported":1731348699,"current_range_meters":20400,"station_id":"ce4bgv92rcd13ifvqcr0","pricing_plan_id":"cebpf4jnsgd1na2vs0mg"},{"bike_id":"8fc6ebbf-cbb9-48fb-82a1-81cf2aa7095b","system_id":"levelo_inurba_marseille","lat":43.308922,"lon":5.39656,"is_reserved":false,"is_disabled":false,"rental_uris":{"android":"levelo://app?vid=8fc6ebbf-cbb9-48fb-82a1-81cf2aa7095b","ios":"levelo://app?vid=8fc6ebbf-cbb9-48fb-82a1-81cf2aa7095b"},"vehicle_type_id":"4","last_reported":1731348699,"current_range_meters":38800,"station_id":"ce4bh012rcd13ifvqcv0","pricing_plan_id":"cebpf4jnsgd1na2vs0mg"},{"bike_id":"45bce2f4-8b6a-4822-ae16-11b3e6df4e0e","system_id":"levelo_inurba_marseille","lat":43.30341,"lon":5.40433,"is_reserved":false,"is_disabled":false,"rental_uris":{"android":"levelo://app?vid=45bce2f4-8b6a-4822-ae16-11b3e6df4e0e","ios":"levelo://app?vid=45bce2f4-8b6a-4822-ae16-11b3e6df4e0e"},"vehicle_type_id":"4","last_reported":1731348699,"current_range_meters":24000,"station_id":"ce4bh012rcd13ifvqd10","pricing_plan_id":"cebpf4jnsgd1na2vs0mg"},{"bike_id":"9c4f8c3d-4199-41d5-ae4c-2187a1769153","system_id":"levelo_inurba_marseille","lat":43.33026,"lon":5.39037,"is_reserved":false,"is_disabled":false,"rental_uris":{"android":"levelo://app?vid=9c4f8c3d-4199-41d5-ae4c-2187a1769153","ios":"levelo://app?vid=9c4f8c3d-4199-41d5-ae4c-2187a1769153"},"vehicle_type_id":"4","last_reported":1731348699,"current_range_meters":34000,"station_id":"ce4bhr92rcd13ifvqhrg","pricing_plan_id":"cebpf4jnsgd1na2vs0mg"},{"bike_id":"c66ec171-b4ec-4aa8-a323-2009aec3b76d","system_id":"levelo_inurba_marseille","lat":43.25726,"lon":5.41109,"is_reserved":false,"is_disabled":false,"rental_uris":{"android":"levelo://app?vid=c66ec171-b4ec-4aa8-a323-2009aec3b76d","ios":"levelo://app?vid=c66ec171-b4ec-4aa8-a323-2009aec3b76d"},"vehicle_type_id":"4","last_reported":1731348699,"current_range_meters":2000,"station_id":"ce4bhkp2rcd13ifvqgd0","pricing_plan_id":"cebpf4jnsgd1na2vs0mg"},{"bike_id":"6f7d5bcf-4621-4445-b576-651735e3fad4","system_id":"levelo_inurba_marseille","lat":43.29684,"lon":5.37738,"is_reserved":false,"is_disabled":false,"rental_uris":{"android":"levelo://app?vid=6f7d5bcf-4621-4445-b576-651735e3fad4","ios":"levelo://app?vid=6f7d5bcf-4621-4445-b576-651735e3fad4"},"vehicle_type_id":"4","last_reported":1731348699,"current_range_meters":36400,"station_id":"","pricing_plan_id":"cebpf4jnsgd1na2vs0mg"},{"bike_id":"f5f7adb1-08a0-41e5-84f8-4eacbb87fa6f","system_id":"levelo_inurba_marseille","lat":43.23962,"lon":5.36639,"is_reserved":false,"is_disabled":false,"rental_uris":{"android":"levelo://app?vid=f5f7adb1-08a0-41e5-84f8-4eacbb87fa6f","ios":"levelo://app?vid=f5f7adb1-08a0-41e5-84f8-4eacbb87fa6f"},"vehicle_type_id":"4","last_reported":1731348699,"current_range_meters":38000,"station_id":"ce4bhi12rcd13ifvqfp0","pricing_plan_id":"cebpf4jnsgd1na2vs0mg"},{"bike_id":"cd3763b4-c6c9-439a-8c88-6b6d78464d6e","system_id":"levelo_inurba_marseille","lat":43.337444,"lon":5.374475,"is_reserved":false,"is_disabled":false,"rental_uris":{"android":"levelo://app?vid=cd3763b4-c6c9-439a-8c88-6b6d78464d6e","ios":"levelo://app?vid=cd3763b4-c6c9-439a-8c88-6b6d78464d6e"},"vehicle_type_id":"4","last_reported":1731348699,"current_range_meters":35600,"station_id":"","pricing_plan_id":"cebpf4jnsgd1na2vs0mg"},{"bike_id":"a64e486f-ab51-45e7-ae26-9bf3a4451217","system_id":"levelo_inurba_marseille","lat":43.32001,"lon":5.38161,"is_reserved":false,"is_disabled":false,"rental_uris":{"android":"levelo://app?vid=a64e486f-ab51-45e7-ae26-9bf3a4451217","ios":"levelo://app?vid=a64e486f-ab51-45e7-ae26-9bf3a4451217"},"vehicle_type_id":"4","last_reported":1731348699,"current_range_meters":32400,"station_id":"ce4bhr12rcd13ifvqhpg","pricing_plan_id":"cebpf4jnsgd1na2vs0mg"},{"bike_id":"51f9a7a2-21d9-4e0c-9c47-31f28ab3de6f","system_id":"levelo_inurba_marseille","lat":43.29975,"lon":5.38496,"is_reserved":false,"is_disabled":false,"rental_uris":{"android":"levelo://app?vid=51f9a7a2-21d9-4e0c-9c47-31f28ab3de6f","ios":"levelo://app?vid=51f9a7a2-21d9-4e0c-9c47-31f28ab3de6f"},"vehicle_type_id":"4","last_reported":1731348699,"current_range_meters":4800,"station_id":"ce4bgj92rcd13ifvqbd0","pricing_plan_id":"cebpf4jnsgd1na2vs0mg"},{"bike_id":"d2a384f7-380d-4380-b7cc-6c180d1e9d23","system_id":"levelo_inurba_marseille","lat":43.27813,"lon":5.40717,"is_reserved":false,"is_disabled":false,"rental_uris":{"android":"levelo://app?vid=d2a384f7-380d-4380-b7cc-6c180d1e9d23","ios":"levelo://app?vid=d2a384f7-380d-4380-b7cc-6c180d1e9d23"},"vehicle_type_id":"4","last_reported":1731348699,"current_range_meters":22000,"station_id":"ce4bhnh2rcd13ifvqgtg","pricing_plan_id":"cebpf4jnsgd1na2vs0mg"},{"bike_id":"453dc6b0-f2d0-4daa-aab9-663747a21ebe","system_id":"levelo_inurba_marseille","lat":43.3414,"lon":5.40905,"is_reserved":false,"is_disabled":false,"rental_uris":{"android":"levelo://app?vid=453dc6b0-f2d0-4daa-aab9-663747a21ebe","ios":"levelo://app?vid=453dc6b0-f2d0-4daa-aab9-663747a21ebe"},"vehicle_type_id":"4","last_reported":1731348699,"current_range_meters":39200,"station_id":"ce4bhqh2rcd13ifvqhlg","pricing_plan_id":"cebpf4jnsgd1na2vs0mg"},{"bike_id":"caa11ca2-332e-46c6-89aa-b2d256c63d67","system_id":"levelo_inurba_marseille","lat":43.302155,"lon":5.397184,"is_reserved":false,"is_disabled":false,"rental_uris":{"android":"levelo://app?vid=caa11ca2-332e-46c6-89aa-b2d256c63d67","ios":"levelo://app?vid=caa11ca2-332e-46c6-89aa-b2d256c63d67"},"vehicle_type_id":"4","last_reported":1731348699,"current_range_meters":29600,"station_id":"ce4bgvh2rcd13ifvqcs0","pricing_plan_id":"cebpf4jnsgd1na2vs0mg"},{"bike_id":"f6fc28de-13f2-47a9-b7f0-baa96e66470d","system_id":"levelo_inurba_marseille","lat":43.2893,"lon":5.36412,"is_reserved":false,"is_disabled":false,"rental_uris":{"android":"levelo://app?vid=f6fc28de-13f2-47a9-b7f0-baa96e66470d","ios":"levelo://app?vid=f6fc28de-13f2-47a9-b7f0-baa96e66470d"},"vehicle_type_id":"4","last_reported":1731348699,"current_range_meters":17600,"station_id":"ce4bhc92rcd13ifvqetg","pricing_plan_id":"cebpf4jnsgd1na2vs0mg"},{"bike_id":"43c6a40a-67d7-49eb-90d2-da3657e28dc5","system_id":"levelo_inurba_marseille","lat":43.28702,"lon":5.39986,"is_reserved":false,"is_disabled":false,"rental_uris":{"android":"levelo://app?vid=43c6a40a-67d7-49eb-90d2-da3657e28dc5","ios":"levelo://app?vid=43c6a40a-67d7-49eb-90d2-da3657e28dc5"},"vehicle_type_id":"4","last_reported":1731348699,"current_range_meters":24800,"station_id":"ce4bho92rcd13ifvqh3g","pricing_plan_id":"cebpf4jnsgd1na2vs0mg"},{"bike_id":"3538d675-be0c-4a76-a3e5-b24b98bb667f","system_id":"levelo_inurba_marseille","lat":43.29907,"lon":5.38146,"is_reserved":false,"is_disabled":false,"rental_uris":{"android":"levelo://app?vid=3538d675-be0c-4a76-a3e5-b24b98bb667f","ios":"levelo://app?vid=3538d675-be0c-4a76-a3e5-b24b98bb667f"},"vehicle_type_id":"4","last_reported":1731348699,"current_range_meters":38000,"station_id":"ce4bgj12rcd13ifvqbc0","pricing_plan_id":"cebpf4jnsgd1na2vs0mg"},{"bike_id":"396ad373-06e3-40be-8a43-bd153ae3540f","system_id":"levelo_inurba_marseille","lat":43.29029,"lon":5.38647,"is_reserved":false,"is_disabled":false,"rental_uris":{"android":"levelo://app?vid=396ad373-06e3-40be-8a43-bd153ae3540f","ios":"levelo://app?vid=396ad373-06e3-40be-8a43-bd153ae3540f"},"vehicle_type_id":"4","last_reported":1731348699,"current_range_meters":4000,"station_id":"ce4bh4p2rcd13ifvqe0g","pricing_plan_id":"cebpf4jnsgd1na2vs0mg"},{"bike_id":"8ccc6640-c5d6-453f-9acf-4ed28d373241","system_id":"levelo_inurba_marseille","lat":43.29265,"lon":5.38442,"is_reserved":false,"is_disabled":false,"rental_uris":{"android":"levelo://app?vid=8ccc6640-c5d6-453f-9acf-4ed28d373241","ios":"levelo://app?vid=8ccc6640-c5d6-453f-9acf-4ed28d373241"},"vehicle_type_id":"4","last_reported":1731348699,"current_range_meters":38800,"station_id":"ce4bh692rcd13ifvqea0","pricing_plan_id":"cebpf4jnsgd1na2vs0mg"},{"bike_id":"5847243e-3d84-47dc-98d1-c8e94c4067b9","system_id":"levelo_inurba_marseille","lat":43.27576,"lon":5.3842,"is_reserved":false,"is_disabled":false,"rental_uris":{"android":"levelo://app?vid=5847243e-3d84-47dc-98d1-c8e94c4067b9","ios":"levelo://app?vid=5847243e-3d84-47dc-98d1-c8e94c4067b9"},"vehicle_type_id":"4","last_reported":1731348699,"current_range_meters":34800,"station_id":"ce4bhh92rcd13ifvqfi0","pricing_plan_id":"cebpf4jnsgd1na2vs0mg"},{"bike_id":"ba097cd0-d682-4703-b63a-9fc053e0a244","system_id":"levelo_inurba_marseille","lat":43.31117,"lon":5.37763,"is_reserved":false,"is_disabled":false,"rental_uris":{"android":"levelo://app?vid=ba097cd0-d682-4703-b63a-9fc053e0a244","ios":"levelo://app?vid=ba097cd0-d682-4703-b63a-9fc053e0a244"},"vehicle_type_id":"4","last_reported":1731348699,"current_range_meters":39200,"station_id":"ce4bgt92rcd13ifvqcg0","pricing_plan_id":"cebpf4jnsgd1na2vs0mg"},{"bike_id":"1e459af7-b6c7-4fd4-8525-20475ac82e5a","system_id":"levelo_inurba_marseille","lat":43.30424,"lon":5.39747,"is_reserved":false,"is_disabled":false,"rental_uris":{"android":"levelo://app?vid=1e459af7-b6c7-4fd4-8525-20475ac82e5a","ios":"levelo://app?vid=1e459af7-b6c7-4fd4-8525-20475ac82e5a"},"vehicle_type_id":"4","last_reported":1731348699,"current_range_meters":39200,"station_id":"ce4bh092rcd13ifvqd20","pricing_plan_id":"cebpf4jnsgd1na2vs0mg"},{"bike_id":"22a2914a-6d99-4b9f-a055-86e657c3c38f","system_id":"levelo_inurba_marseille","lat":43.31994,"lon":5.38156,"is_reserved":false,"is_disabled":false,"rental_uris":{"android":"levelo://app?vid=22a2914a-6d99-4b9f-a055-86e657c3c38f","ios":"levelo://app?vid=22a2914a-6d99-4b9f-a055-86e657c3c38f"},"vehicle_type_id":"4","last_reported":1731348699,"current_range_meters":8000,"station_id":"ce4bhr12rcd13ifvqhpg","pricing_plan_id":"cebpf4jnsgd1na2vs0mg"},{"bike_id":"1d75d4ce-da07-47a0-83ad-027ef32b7b53","system_id":"levelo_inurba_marseille","lat":43.27413,"lon":5.3895,"is_reserved":false,"is_disabled":false,"rental_uris":{"android":"levelo://app?vid=1d75d4ce-da07-47a0-83ad-027ef32b7b53","ios":"levelo://app?vid=1d75d4ce-da07-47a0-83ad-027ef32b7b53"},"vehicle_type_id":"4","last_reported":1731348699,"current_range_meters":20400,"station_id":"","pricing_plan_id":"cebpf4jnsgd1na2vs0mg"},{"bike_id":"4b030070-7462-4bf2-bebf-0530c956675b","system_id":"levelo_inurba_marseille","lat":43.2927,"lon":5.38433,"is_reserved":false,"is_disabled":false,"rental_uris":{"android":"levelo://app?vid=4b030070-7462-4bf2-bebf-0530c956675b","ios":"levelo://app?vid=4b030070-7462-4bf2-bebf-0530c956675b"},"vehicle_type_id":"4","last_reported":1731348699,"current_range_meters":9600,"station_id":"ce4bh692rcd13ifvqea0","pricing_plan_id":"cebpf4jnsgd1na2vs0mg"},{"bike_id":"89c461f3-1323-4327-aaea-c2eae1707b62","system_id":"levelo_inurba_marseille","lat":43.31063,"lon":5.38357,"is_reserved":false,"is_disabled":false,"rental_uris":{"android":"levelo://app?vid=89c461f3-1323-4327-aaea-c2eae1707b62","ios":"levelo://app?vid=89c461f3-1323-4327-aaea-c2eae1707b62"},"vehicle_type_id":"4","last_reported":1731348699,"current_range_meters":38800,"station_id":"ce4bgv92rcd13ifvqcr0","pricing_plan_id":"cebpf4jnsgd1na2vs0mg"},{"bike_id":"faa62358-1a10-4de5-b65a-29c8e6988d2f","system_id":"levelo_inurba_marseille","lat":43.28378,"lon":5.38626,"is_reserved":false,"is_disabled":false,"rental_uris":{"android":"levelo://app?vid=faa62358-1a10-4de5-b65a-29c8e6988d2f","ios":"levelo://app?vid=faa62358-1a10-4de5-b65a-29c8e6988d2f"},"vehicle_type_id":"4","last_reported":1731348699,"current_range_meters":38800,"station_id":"ce4bh492rcd13ifvqdvg","pricing_plan_id":"cebpf4jnsgd1na2vs0mg"},{"bike_id":"3fe574fa-e1ef-46c4-b2c1-26927cac7add","system_id":"levelo_inurba_marseille","lat":43.27369,"lon":5.36257,"is_reserved":false,"is_disabled":false,"rental_uris":{"android":"levelo://app?vid=3fe574fa-e1ef-46c4-b2c1-26927cac7add","ios":"levelo://app?vid=3fe574fa-e1ef-46c4-b2c1-26927cac7add"},"vehicle_type_id":"4","last_reported":1731348699,"current_range_meters":6000,"station_id":"ce4bhbh2rcd13ifvqeo0","pricing_plan_id":"cebpf4jnsgd1na2vs0mg"},{"bike_id":"58619a3d-722c-4d96-a931-d2f898b47aef","system_id":"levelo_inurba_marseille","lat":43.28665,"lon":5.38654,"is_reserved":false,"is_disabled":false,"rental_uris":{"android":"levelo://app?vid=58619a3d-722c-4d96-a931-d2f898b47aef","ios":"levelo://app?vid=58619a3d-722c-4d96-a931-d2f898b47aef"},"vehicle_type_id":"4","last_reported":1731348699,"current_range_meters":38800,"station_id":"ce4bh492rcd13ifvqdug","pricing_plan_id":"cebpf4jnsgd1na2vs0mg"},{"bike_id":"0c99cc06-d0ea-4d4b-b18c-48e0d26ebc93","system_id":"levelo_inurba_marseille","lat":43.24647,"lon":5.3889,"is_reserved":false,"is_disabled":false,"rental_uris":{"android":"levelo://app?vid=0c99cc06-d0ea-4d4b-b18c-48e0d26ebc93","ios":"levelo://app?vid=0c99cc06-d0ea-4d4b-b18c-48e0d26ebc93"},"vehicle_type_id":"4","last_reported":1731348699,"current_range_meters":25200,"station_id":"ce4bhg12rcd13ifvqf60","pricing_plan_id":"cebpf4jnsgd1na2vs0mg"},{"bike_id":"1335ed3a-9d45-429f-9ab0-128debef84ee","system_id":"levelo_inurba_marseille","lat":43.32478,"lon":5.36566,"is_reserved":false,"is_disabled":false,"rental_uris":{"android":"levelo://app?vid=1335ed3a-9d45-429f-9ab0-128debef84ee","ios":"levelo://app?vid=1335ed3a-9d45-429f-9ab0-128debef84ee"},"vehicle_type_id":"4","last_reported":1731348699,"current_range_meters":37600,"station_id":"ce4bhs12rcd13ifvqhvg","pricing_plan_id":"cebpf4jnsgd1na2vs0mg"},{"bike_id":"58b1a875-bafb-44c0-ad1b-a52aa14d9d3a","system_id":"levelo_inurba_marseille","lat":43.29788,"lon":5.38125,"is_reserved":false,"is_disabled":false,"rental_uris":{"android":"levelo://app?vid=58b1a875-bafb-44c0-ad1b-a52aa14d9d3a","ios":"levelo://app?vid=58b1a875-bafb-44c0-ad1b-a52aa14d9d3a"},"vehicle_type_id":"4","last_reported":1731348699,"current_range_meters":5600,"station_id":"ce4bgip2rcd13ifvqbb0","pricing_plan_id":"cebpf4jnsgd1na2vs0mg"},{"bike_id":"1b11adf4-be9e-4cb7-aa8e-4c27e7cc3412","system_id":"levelo_inurba_marseille","lat":43.24809,"lon":5.37461,"is_reserved":false,"is_disabled":false,"rental_uris":{"android":"levelo://app?vid=1b11adf4-be9e-4cb7-aa8e-4c27e7cc3412","ios":"levelo://app?vid=1b11adf4-be9e-4cb7-aa8e-4c27e7cc3412"},"vehicle_type_id":"4","last_reported":1731348699,"current_range_meters":2000,"station_id":"ce4bhgh2rcd13ifvqfb0","pricing_plan_id":"cebpf4jnsgd1na2vs0mg"},{"bike_id":"c250a014-df00-41e7-bd69-420056328559","system_id":"levelo_inurba_marseille","lat":43.307966,"lon":5.381439,"is_reserved":false,"is_disabled":false,"rental_uris":{"android":"levelo://app?vid=c250a014-df00-41e7-bd69-420056328559","ios":"levelo://app?vid=c250a014-df00-41e7-bd69-420056328559"},"vehicle_type_id":"4","last_reported":1731348699,"current_range_meters":30000,"station_id":"ce4bh492rcd13ifvqdug","pricing_plan_id":"cebpf4jnsgd1na2vs0mg"},{"bike_id":"19504735-7fc8-418b-9690-868d64cd8fca","system_id":"levelo_inurba_marseille","lat":43.28927,"lon":5.38389,"is_reserved":false,"is_disabled":false,"rental_uris":{"android":"levelo://app?vid=19504735-7fc8-418b-9690-868d64cd8fca","ios":"levelo://app?vid=19504735-7fc8-418b-9690-868d64cd8fca"},"vehicle_type_id":"4","last_reported":1731348699,"current_range_meters":17600,"station_id":"ce4bh612rcd13ifvqe6g","pricing_plan_id":"cebpf4jnsgd1na2vs0mg"},{"bike_id":"94bdae10-2bab-4bc4-a4c8-9893a60735b3","system_id":"levelo_inurba_marseille","lat":43.28851,"lon":5.39318,"is_reserved":false,"is_disabled":false,"rental_uris":{"android":"levelo://app?vid=94bdae10-2bab-4bc4-a4c8-9893a60735b3","ios":"levelo://app?vid=94bdae10-2bab-4bc4-a4c8-9893a60735b3"},"vehicle_type_id":"4","last_reported":1731348699,"current_range_meters":9600,"station_id":"ce4bh2p2rcd13ifvqdi0","pricing_plan_id":"cebpf4jnsgd1na2vs0mg"},{"bike_id":"784616cb-3dcc-4a17-ae25-f5786a0d223a","system_id":"levelo_inurba_marseille","lat":43.337444,"lon":5.374475,"is_reserved":false,"is_disabled":false,"rental_uris":{"android":"levelo://app?vid=784616cb-3dcc-4a17-ae25-f5786a0d223a","ios":"levelo://app?vid=784616cb-3dcc-4a17-ae25-f5786a0d223a"},"vehicle_type_id":"4","last_reported":1731348699,"current_range_meters":36000,"station_id":"","pricing_plan_id":"cebpf4jnsgd1na2vs0mg"},{"bike_id":"d31992c0-6352-46fc-b67b-08a93bda80fa","system_id":"levelo_inurba_marseille","lat":43.28002,"lon":5.40038,"is_reserved":false,"is_disabled":false,"rental_uris":{"android":"levelo://app?vid=d31992c0-6352-46fc-b67b-08a93bda80fa","ios":"levelo://app?vid=d31992c0-6352-46fc-b67b-08a93bda80fa"},"vehicle_type_id":"4","last_reported":1731348699,"current_range_meters":12000,"station_id":"ce4bho92rcd13ifvqh4g","pricing_plan_id":"cebpf4jnsgd1na2vs0mg"},{"bike_id":"38494b26-732c-4693-af81-a3cf4c4e1902","system_id":"levelo_inurba_marseille","lat":43.31509,"lon":5.37281,"is_reserved":false,"is_disabled":false,"rental_uris":{"android":"levelo://app?vid=38494b26-732c-4693-af81-a3cf4c4e1902","ios":"levelo://app?vid=38494b26-732c-4693-af81-a3cf4c4e1902"},"vehicle_type_id":"4","last_reported":1731348699,"current_range_meters":12800,"station_id":"","pricing_plan_id":"cebpf4jnsgd1na2vs0mg"},{"bike_id":"f54be929-12f4-490d-9cb9-29c3078cb8a6","system_id":"levelo_inurba_marseille","lat":43.29098,"lon":5.38137,"is_reserved":false,"is_disabled":false,"rental_uris":{"android":"levelo://app?vid=f54be929-12f4-490d-9cb9-29c3078cb8a6","ios":"levelo://app?vid=f54be929-12f4-490d-9cb9-29c3078cb8a6"},"vehicle_type_id":"4","last_reported":1731348699,"current_range_meters":38800,"station_id":"ce4bh512rcd13ifvqe2g","pricing_plan_id":"cebpf4jnsgd1na2vs0mg"},{"bike_id":"181fa628-fd06-4339-88f4-5d411c857699","system_id":"levelo_inurba_marseille","lat":43.27065,"lon":5.42281,"is_reserved":false,"is_disabled":false,"rental_uris":{"android":"levelo://app?vid=181fa628-fd06-4339-88f4-5d411c857699","ios":"levelo://app?vid=181fa628-fd06-4339-88f4-5d411c857699"},"vehicle_type_id":"4","last_reported":1731348699,"current_range_meters":36400,"station_id":"ce4bhk92rcd13ifvqgb0","pricing_plan_id":"cebpf4jnsgd1na2vs0mg"},{"bike_id":"39864c33-4013-4c07-9fa6-cdfe5c4f0072","system_id":"levelo_inurba_marseille","lat":43.27438,"lon":5.39405,"is_reserved":false,"is_disabled":false,"rental_uris":{"android":"levelo://app?vid=39864c33-4013-4c07-9fa6-cdfe5c4f0072","ios":"levelo://app?vid=39864c33-4013-4c07-9fa6-cdfe5c4f0072"},"vehicle_type_id":"4","last_reported":1731348699,"current_range_meters":38800,"station_id":"ce4bhdp2rcd13ifvqf20","pricing_plan_id":"cebpf4jnsgd1na2vs0mg"},{"bike_id":"594d2d82-0a3b-47b7-bd9a-eefc6f3b58b1","system_id":"levelo_inurba_marseille","lat":43.27676,"lon":5.3888,"is_reserved":false,"is_disabled":false,"rental_uris":{"android":"levelo://app?vid=594d2d82-0a3b-47b7-bd9a-eefc6f3b58b1","ios":"levelo://app?vid=594d2d82-0a3b-47b7-bd9a-eefc6f3b58b1"},"vehicle_type_id":"4","last_reported":1731348699,"current_range_meters":10000,"station_id":"ce4bhi12rcd13ifvqfo0","pricing_plan_id":"cebpf4jnsgd1na2vs0mg"},{"bike_id":"941ea951-b8b2-41e8-9dc6-73721a59ab36","system_id":"levelo_inurba_marseille","lat":43.28079,"lon":5.39658,"is_reserved":false,"is_disabled":false,"rental_uris":{"android":"levelo://app?vid=941ea951-b8b2-41e8-9dc6-73721a59ab36","ios":"levelo://app?vid=941ea951-b8b2-41e8-9dc6-73721a59ab36"},"vehicle_type_id":"4","last_reported":1731348699,"current_range_meters":8400,"station_id":"ce4bho12rcd13ifvqh2g","pricing_plan_id":"cebpf4jnsgd1na2vs0mg"},{"bike_id":"0ff30c97-d032-4bd2-b806-0ba1b23f1458","system_id":"levelo_inurba_marseille","lat":43.29898,"lon":5.43667,"is_reserved":false,"is_disabled":false,"rental_uris":{"android":"levelo://app?vid=0ff30c97-d032-4bd2-b806-0ba1b23f1458","ios":"levelo://app?vid=0ff30c97-d032-4bd2-b806-0ba1b23f1458"},"vehicle_type_id":"4","last_reported":1731348699,"current_range_meters":30400,"station_id":"ce4bhpp2rcd13ifvqhfg","pricing_plan_id":"cebpf4jnsgd1na2vs0mg"},{"bike_id":"21e137ff-3c66-45d4-8967-f2781f45e25c","system_id":"levelo_inurba_marseille","lat":43.26056,"lon":5.39402,"is_reserved":false,"is_disabled":false,"rental_uris":{"android":"levelo://app?vid=21e137ff-3c66-45d4-8967-f2781f45e25c","ios":"levelo://app?vid=21e137ff-3c66-45d4-8967-f2781f45e25c"},"vehicle_type_id":"4","last_reported":1731348699,"current_range_meters":13600,"station_id":"ce4bhh92rcd13ifvqfj0","pricing_plan_id":"cebpf4jnsgd1na2vs0mg"},{"bike_id":"3c1cdd4f-c4b1-4df5-96c5-2df84a5937fb","system_id":"levelo_inurba_marseille","lat":43.29527,"lon":5.38543,"is_reserved":false,"is_disabled":false,"rental_uris":{"android":"levelo://app?vid=3c1cdd4f-c4b1-4df5-96c5-2df84a5937fb","ios":"levelo://app?vid=3c1cdd4f-c4b1-4df5-96c5-2df84a5937fb"},"vehicle_type_id":"4","last_reported":1731348699,"current_range_meters":8400,"station_id":"ce4bgih2rcd13ifvqba0","pricing_plan_id":"cebpf4jnsgd1na2vs0mg"},{"bike_id":"fc01d943-4616-4d37-8e17-5947c751d06c","system_id":"levelo_inurba_marseille","lat":43.28102,"lon":5.37837,"is_reserved":false,"is_disabled":false,"rental_uris":{"android":"levelo://app?vid=fc01d943-4616-4d37-8e17-5947c751d06c","ios":"levelo://app?vid=fc01d943-4616-4d37-8e17-5947c751d06c"},"vehicle_type_id":"4","last_reported":1731348699,"current_range_meters":28000,"station_id":"ce4bha12rcd13ifvqee0","pricing_plan_id":"cebpf4jnsgd1na2vs0mg"},{"bike_id":"24c9306f-65ce-450d-9a77-5a1d35db9294","system_id":"levelo_inurba_marseille","lat":43.29928,"lon":5.37444,"is_reserved":false,"is_disabled":false,"rental_uris":{"android":"levelo://app?vid=24c9306f-65ce-450d-9a77-5a1d35db9294","ios":"levelo://app?vid=24c9306f-65ce-450d-9a77-5a1d35db9294"},"vehicle_type_id":"4","last_reported":1731348699,"current_range_meters":38800,"station_id":"ce4bgjh2rcd13ifvqbg0","pricing_plan_id":"cebpf4jnsgd1na2vs0mg"},{"bike_id":"0bf4609e-8be2-4584-af54-38d4f2f11d61","system_id":"levelo_inurba_marseille","lat":43.28031,"lon":5.3695,"is_reserved":false,"is_disabled":false,"rental_uris":{"android":"levelo://app?vid=0bf4609e-8be2-4584-af54-38d4f2f11d61","ios":"levelo://app?vid=0bf4609e-8be2-4584-af54-38d4f2f11d61"},"vehicle_type_id":"4","last_reported":1731348699,"current_range_meters":36800,"station_id":"ce4bha12rcd13ifvqef0","pricing_plan_id":"cebpf4jnsgd1na2vs0mg"},{"bike_id":"6e7edb60-78e3-46d3-81b0-56489f199812","system_id":"levelo_inurba_marseille","lat":43.28024,"lon":5.36944,"is_reserved":false,"is_disabled":false,"rental_uris":{"android":"levelo://app?vid=6e7edb60-78e3-46d3-81b0-56489f199812","ios":"levelo://app?vid=6e7edb60-78e3-46d3-81b0-56489f199812"},"vehicle_type_id":"4","last_reported":1731348699,"current_range_meters":34800,"station_id":"ce4bha12rcd13ifvqef0","pricing_plan_id":"cebpf4jnsgd1na2vs0mg"},{"bike_id":"7d250d0a-c6fc-4d65-82f7-a1a00a43422b","system_id":"levelo_inurba_marseille","lat":43.30423,"lon":5.39752,"is_reserved":false,"is_disabled":false,"rental_uris":{"android":"levelo://app?vid=7d250d0a-c6fc-4d65-82f7-a1a00a43422b","ios":"levelo://app?vid=7d250d0a-c6fc-4d65-82f7-a1a00a43422b"},"vehicle_type_id":"4","last_reported":1731348699,"current_range_meters":30800,"station_id":"ce4bh092rcd13ifvqd20","pricing_plan_id":"cebpf4jnsgd1na2vs0mg"},{"bike_id":"5b60c548-f5fb-418c-a58c-c7cbddaa515c","system_id":"levelo_inurba_marseille","lat":43.28652,"lon":5.36353,"is_reserved":false,"is_disabled":false,"rental_uris":{"android":"levelo://app?vid=5b60c548-f5fb-418c-a58c-c7cbddaa515c","ios":"levelo://app?vid=5b60c548-f5fb-418c-a58c-c7cbddaa515c"},"vehicle_type_id":"4","last_reported":1731348699,"current_range_meters":36000,"station_id":"ce4bhah2rcd13ifvqej0","pricing_plan_id":"cebpf4jnsgd1na2vs0mg"},{"bike_id":"0154e3cb-30d1-4c73-b2ef-9bd6acfbfcb5","system_id":"levelo_inurba_marseille","lat":43.29271,"lon":5.3845,"is_reserved":false,"is_disabled":false,"rental_uris":{"android":"levelo://app?vid=0154e3cb-30d1-4c73-b2ef-9bd6acfbfcb5","ios":"levelo://app?vid=0154e3cb-30d1-4c73-b2ef-9bd6acfbfcb5"},"vehicle_type_id":"4","last_reported":1731348699,"current_range_meters":27600,"station_id":"ce4bh692rcd13ifvqea0","pricing_plan_id":"cebpf4jnsgd1na2vs0mg"},{"bike_id":"a875991b-6091-43df-8026-3e7fab422ca5","system_id":"levelo_inurba_marseille","lat":43.31276,"lon":5.40172,"is_reserved":false,"is_disabled":false,"rental_uris":{"android":"levelo://app?vid=a875991b-6091-43df-8026-3e7fab422ca5","ios":"levelo://app?vid=a875991b-6091-43df-8026-3e7fab422ca5"},"vehicle_type_id":"4","last_reported":1731348699,"current_range_meters":38800,"station_id":"ce4bh092rcd13ifvqd30","pricing_plan_id":"cebpf4jnsgd1na2vs0mg"},{"bike_id":"93a14ad8-918f-46b2-9e2d-8501e389861e","system_id":"levelo_inurba_marseille","lat":43.31269,"lon":5.40163,"is_reserved":false,"is_disabled":false,"rental_uris":{"android":"levelo://app?vid=93a14ad8-918f-46b2-9e2d-8501e389861e","ios":"levelo://app?vid=93a14ad8-918f-46b2-9e2d-8501e389861e"},"vehicle_type_id":"4","last_reported":1731348699,"current_range_meters":24000,"station_id":"ce4bh092rcd13ifvqd30","pricing_plan_id":"cebpf4jnsgd1na2vs0mg"},{"bike_id":"95c9c3e4-d8c2-4ec1-a572-4283aa887b5c","system_id":"levelo_inurba_marseille","lat":43.29872,"lon":5.39733,"is_reserved":false,"is_disabled":false,"rental_uris":{"android":"levelo://app?vid=95c9c3e4-d8c2-4ec1-a572-4283aa887b5c","ios":"levelo://app?vid=95c9c3e4-d8c2-4ec1-a572-4283aa887b5c"},"vehicle_type_id":"4","last_reported":1731348699,"current_range_meters":13600,"station_id":"ce4bh0h2rcd13ifvqd50","pricing_plan_id":"cebpf4jnsgd1na2vs0mg"},{"bike_id":"228b3edc-348f-449f-ae1b-071868bf4e8d","system_id":"levelo_inurba_marseille","lat":43.30798,"lon":5.38152,"is_reserved":false,"is_disabled":false,"rental_uris":{"android":"levelo://app?vid=228b3edc-348f-449f-ae1b-071868bf4e8d","ios":"levelo://app?vid=228b3edc-348f-449f-ae1b-071868bf4e8d"},"vehicle_type_id":"4","last_reported":1731348699,"current_range_meters":8000,"station_id":"ce4bgt12rcd13ifvqce0","pricing_plan_id":"cebpf4jnsgd1na2vs0mg"},{"bike_id":"fb562cda-d3b6-48cc-94dc-0fe4fbacc551","system_id":"levelo_inurba_marseille","lat":43.23181,"lon":5.39983,"is_reserved":false,"is_disabled":false,"rental_uris":{"android":"levelo://app?vid=fb562cda-d3b6-48cc-94dc-0fe4fbacc551","ios":"levelo://app?vid=fb562cda-d3b6-48cc-94dc-0fe4fbacc551"},"vehicle_type_id":"4","last_reported":1731348699,"current_range_meters":18800,"station_id":"ce4bhn12rcd13ifvqgqg","pricing_plan_id":"cebpf4jnsgd1na2vs0mg"},{"bike_id":"0389f6ba-9b11-4bae-aa59-6c887bee55e5","system_id":"levelo_inurba_marseille","lat":43.3221,"lon":5.38713,"is_reserved":false,"is_disabled":false,"rental_uris":{"android":"levelo://app?vid=0389f6ba-9b11-4bae-aa59-6c887bee55e5","ios":"levelo://app?vid=0389f6ba-9b11-4bae-aa59-6c887bee55e5"},"vehicle_type_id":"4","last_reported":1731348699,"current_range_meters":30000,"station_id":"","pricing_plan_id":"cebpf4jnsgd1na2vs0mg"},{"bike_id":"835fa522-c4fa-49b1-9060-16512c31e15b","system_id":"levelo_inurba_marseille","lat":43.27169,"lon":5.40993,"is_reserved":false,"is_disabled":false,"rental_uris":{"android":"levelo://app?vid=835fa522-c4fa-49b1-9060-16512c31e15b","ios":"levelo://app?vid=835fa522-c4fa-49b1-9060-16512c31e15b"},"vehicle_type_id":"4","last_reported":1731348699,"current_range_meters":9200,"station_id":"ce4bhl12rcd13ifvqgf0","pricing_plan_id":"cebpf4jnsgd1na2vs0mg"},{"bike_id":"8ccb6e7d-9c6d-4799-aff6-a9828113d65d","system_id":"levelo_inurba_marseille","lat":43.29419,"lon":5.38623,"is_reserved":false,"is_disabled":false,"rental_uris":{"android":"levelo://app?vid=8ccb6e7d-9c6d-4799-aff6-a9828113d65d","ios":"levelo://app?vid=8ccb6e7d-9c6d-4799-aff6-a9828113d65d"},"vehicle_type_id":"4","last_reported":1731348699,"current_range_meters":4400,"station_id":"ce4bh2h2rcd13ifvqdh0","pricing_plan_id":"cebpf4jnsgd1na2vs0mg"},{"bike_id":"9e23d23d-ec72-4b12-97b6-0f9e6cc3cf31","system_id":"levelo_inurba_marseille","lat":43.292551,"lon":5.384529,"is_reserved":false,"is_disabled":false,"rental_uris":{"android":"levelo://app?vid=9e23d23d-ec72-4b12-97b6-0f9e6cc3cf31","ios":"levelo://app?vid=9e23d23d-ec72-4b12-97b6-0f9e6cc3cf31"},"vehicle_type_id":"4","last_reported":1731348699,"current_range_meters":11200,"station_id":"ce4bh692rcd13ifvqea0","pricing_plan_id":"cebpf4jnsgd1na2vs0mg"},{"bike_id":"ac5941e1-3fd0-4a36-b1af-70a3352289e4","system_id":"levelo_inurba_marseille","lat":43.28029,"lon":5.36945,"is_reserved":false,"is_disabled":false,"rental_uris":{"android":"levelo://app?vid=ac5941e1-3fd0-4a36-b1af-70a3352289e4","ios":"levelo://app?vid=ac5941e1-3fd0-4a36-b1af-70a3352289e4"},"vehicle_type_id":"4","last_reported":1731348699,"current_range_meters":36800,"station_id":"ce4bha12rcd13ifvqef0","pricing_plan_id":"cebpf4jnsgd1na2vs0mg"},{"bike_id":"bdb123f5-716a-4e66-98a0-bc11e1090349","system_id":"levelo_inurba_marseille","lat":43.30255,"lon":5.4006,"is_reserved":false,"is_disabled":false,"rental_uris":{"android":"levelo://app?vid=bdb123f5-716a-4e66-98a0-bc11e1090349","ios":"levelo://app?vid=bdb123f5-716a-4e66-98a0-bc11e1090349"},"vehicle_type_id":"4","last_reported":1731348699,"current_range_meters":28400,"station_id":"ce4bgvh2rcd13ifvqcs0","pricing_plan_id":"cebpf4jnsgd1na2vs0mg"},{"bike_id":"3d1235e2-b84a-4857-b9ab-d13cc7f2755b","system_id":"levelo_inurba_marseille","lat":43.2893,"lon":5.38392,"is_reserved":false,"is_disabled":false,"rental_uris":{"android":"levelo://app?vid=3d1235e2-b84a-4857-b9ab-d13cc7f2755b","ios":"levelo://app?vid=3d1235e2-b84a-4857-b9ab-d13cc7f2755b"},"vehicle_type_id":"4","last_reported":1731348699,"current_range_meters":39200,"station_id":"ce4bh612rcd13ifvqe6g","pricing_plan_id":"cebpf4jnsgd1na2vs0mg"},{"bike_id":"009d830b-8fd1-45e5-83db-bba4d35cc472","system_id":"levelo_inurba_marseille","lat":43.29416,"lon":5.38623,"is_reserved":false,"is_disabled":false,"rental_uris":{"android":"levelo://app?vid=009d830b-8fd1-45e5-83db-bba4d35cc472","ios":"levelo://app?vid=009d830b-8fd1-45e5-83db-bba4d35cc472"},"vehicle_type_id":"4","last_reported":1731348699,"current_range_meters":6000,"station_id":"ce4bh2h2rcd13ifvqdh0","pricing_plan_id":"cebpf4jnsgd1na2vs0mg"},{"bike_id":"dbe89fcb-541a-4ae6-8954-ac908f12e72b","system_id":"levelo_inurba_marseille","lat":43.3013,"lon":5.39855,"is_reserved":false,"is_disabled":false,"rental_uris":{"android":"levelo://app?vid=dbe89fcb-541a-4ae6-8954-ac908f12e72b","ios":"levelo://app?vid=dbe89fcb-541a-4ae6-8954-ac908f12e72b"},"vehicle_type_id":"4","last_reported":1731348699,"current_range_meters":29600,"station_id":"ce4bh0h2rcd13ifvqd40","pricing_plan_id":"cebpf4jnsgd1na2vs0mg"},{"bike_id":"e4b94526-ed5b-4ec1-acf3-12ff957d04ee","system_id":"levelo_inurba_marseille","lat":43.245404,"lon":5.395262,"is_reserved":false,"is_disabled":false,"rental_uris":{"android":"levelo://app?vid=e4b94526-ed5b-4ec1-acf3-12ff957d04ee","ios":"levelo://app?vid=e4b94526-ed5b-4ec1-acf3-12ff957d04ee"},"vehicle_type_id":"4","last_reported":1731348699,"current_range_meters":32000,"station_id":"ce4bhlh2rcd13ifvqgig","pricing_plan_id":"cebpf4jnsgd1na2vs0mg"},{"bike_id":"27776fec-7625-4f95-9e9a-bef82ec195e4","system_id":"levelo_inurba_marseille","lat":43.29622,"lon":5.37685,"is_reserved":false,"is_disabled":false,"rental_uris":{"android":"levelo://app?vid=27776fec-7625-4f95-9e9a-bef82ec195e4","ios":"levelo://app?vid=27776fec-7625-4f95-9e9a-bef82ec195e4"},"vehicle_type_id":"4","last_reported":1731348699,"current_range_meters":36800,"station_id":"ce4bh392rcd13ifvqdl0","pricing_plan_id":"cebpf4jnsgd1na2vs0mg"},{"bike_id":"9e22c680-5ff4-4adf-87bd-063d6a5c4995","system_id":"levelo_inurba_marseille","lat":43.27809,"lon":5.40715,"is_reserved":false,"is_disabled":false,"rental_uris":{"android":"levelo://app?vid=9e22c680-5ff4-4adf-87bd-063d6a5c4995","ios":"levelo://app?vid=9e22c680-5ff4-4adf-87bd-063d6a5c4995"},"vehicle_type_id":"4","last_reported":1731348699,"current_range_meters":31200,"station_id":"ce4bhnh2rcd13ifvqgtg","pricing_plan_id":"cebpf4jnsgd1na2vs0mg"},{"bike_id":"2617c334-502c-4386-8efa-4093144bba15","system_id":"levelo_inurba_marseille","lat":43.28475,"lon":5.38415,"is_reserved":false,"is_disabled":false,"rental_uris":{"android":"levelo://app?vid=2617c334-502c-4386-8efa-4093144bba15","ios":"levelo://app?vid=2617c334-502c-4386-8efa-4093144bba15"},"vehicle_type_id":"4","last_reported":1731348699,"current_range_meters":26000,"station_id":"ce4bh512rcd13ifvqe3g","pricing_plan_id":"cebpf4jnsgd1na2vs0mg"},{"bike_id":"190c8b9a-9ab9-4b94-9df5-1ac8debe1a48","system_id":"levelo_inurba_marseille","lat":43.29514,"lon":5.3904,"is_reserved":false,"is_disabled":false,"rental_uris":{"android":"levelo://app?vid=190c8b9a-9ab9-4b94-9df5-1ac8debe1a48","ios":"levelo://app?vid=190c8b9a-9ab9-4b94-9df5-1ac8debe1a48"},"vehicle_type_id":"4","last_reported":1731348699,"current_range_meters":7200,"station_id":"ce4bh3p2rcd13ifvqdp0","pricing_plan_id":"cebpf4jnsgd1na2vs0mg"},{"bike_id":"35d3420c-a8df-4fb3-a2da-a21e79ab0bb5","system_id":"levelo_inurba_marseille","lat":43.25577,"lon":5.3824,"is_reserved":false,"is_disabled":false,"rental_uris":{"android":"levelo://app?vid=35d3420c-a8df-4fb3-a2da-a21e79ab0bb5","ios":"levelo://app?vid=35d3420c-a8df-4fb3-a2da-a21e79ab0bb5"},"vehicle_type_id":"4","last_reported":1731348699,"current_range_meters":36800,"station_id":"ce4bhih2rcd13ifvqfs0","pricing_plan_id":"cebpf4jnsgd1na2vs0mg"},{"bike_id":"c8cc08d6-9716-4256-92ac-a0e7bbcc71a9","system_id":"levelo_inurba_marseille","lat":43.28567,"lon":5.39494,"is_reserved":false,"is_disabled":false,"rental_uris":{"android":"levelo://app?vid=c8cc08d6-9716-4256-92ac-a0e7bbcc71a9","ios":"levelo://app?vid=c8cc08d6-9716-4256-92ac-a0e7bbcc71a9"},"vehicle_type_id":"4","last_reported":1731348699,"current_range_meters":22800,"station_id":"ce4bh292rcd13ifvqdg0","pricing_plan_id":"cebpf4jnsgd1na2vs0mg"},{"bike_id":"3556625b-efbe-42f5-b2bc-c289a6e7cd38","system_id":"levelo_inurba_marseille","lat":43.28477,"lon":5.38419,"is_reserved":false,"is_disabled":false,"rental_uris":{"android":"levelo://app?vid=3556625b-efbe-42f5-b2bc-c289a6e7cd38","ios":"levelo://app?vid=3556625b-efbe-42f5-b2bc-c289a6e7cd38"},"vehicle_type_id":"4","last_reported":1731348699,"current_range_meters":19200,"station_id":"ce4bh512rcd13ifvqe3g","pricing_plan_id":"cebpf4jnsgd1na2vs0mg"},{"bike_id":"f7403d44-18bb-4fcd-a284-5d8276d25914","system_id":"levelo_inurba_marseille","lat":43.24663,"lon":5.38168,"is_reserved":false,"is_disabled":false,"rental_uris":{"android":"levelo://app?vid=f7403d44-18bb-4fcd-a284-5d8276d25914","ios":"levelo://app?vid=f7403d44-18bb-4fcd-a284-5d8276d25914"},"vehicle_type_id":"4","last_reported":1731348699,"current_range_meters":27200,"station_id":"ce4bhih2rcd13ifvqfr0","pricing_plan_id":"cebpf4jnsgd1na2vs0mg"},{"bike_id":"17e30027-6a6d-4e1c-b83a-ccb011001914","system_id":"levelo_inurba_marseille","lat":43.30772,"lon":5.37656,"is_reserved":false,"is_disabled":false,"rental_uris":{"android":"levelo://app?vid=17e30027-6a6d-4e1c-b83a-ccb011001914","ios":"levelo://app?vid=17e30027-6a6d-4e1c-b83a-ccb011001914"},"vehicle_type_id":"4","last_reported":1731348699,"current_range_meters":20800,"station_id":"ce4bgv92rcd13ifvqcq0","pricing_plan_id":"cebpf4jnsgd1na2vs0mg"},{"bike_id":"b2f3adca-b446-441d-a1ab-5903c30fd432","system_id":"levelo_inurba_marseille","lat":43.33772,"lon":5.37447,"is_reserved":false,"is_disabled":false,"rental_uris":{"android":"levelo://app?vid=b2f3adca-b446-441d-a1ab-5903c30fd432","ios":"levelo://app?vid=b2f3adca-b446-441d-a1ab-5903c30fd432"},"vehicle_type_id":"4","last_reported":1731348699,"current_range_meters":9600,"station_id":"","pricing_plan_id":"cebpf4jnsgd1na2vs0mg"},{"bike_id":"fd9fd0aa-0804-4953-a041-494b11c6f5c1","system_id":"levelo_inurba_marseille","lat":43.29896,"lon":5.38904,"is_reserved":false,"is_disabled":false,"rental_uris":{"android":"levelo://app?vid=fd9fd0aa-0804-4953-a041-494b11c6f5c1","ios":"levelo://app?vid=fd9fd0aa-0804-4953-a041-494b11c6f5c1"},"vehicle_type_id":"4","last_reported":1731348699,"current_range_meters":32800,"station_id":"ce4bh392rcd13ifvqdl0","pricing_plan_id":"cebpf4jnsgd1na2vs0mg"},{"bike_id":"b8fe3cb6-4e0a-4895-90e7-fdafbe1d0ca0","system_id":"levelo_inurba_marseille","lat":43.28157,"lon":5.42645,"is_reserved":false,"is_disabled":false,"rental_uris":{"android":"levelo://app?vid=b8fe3cb6-4e0a-4895-90e7-fdafbe1d0ca0","ios":"levelo://app?vid=b8fe3cb6-4e0a-4895-90e7-fdafbe1d0ca0"},"vehicle_type_id":"4","last_reported":1731348699,"current_range_meters":34800,"station_id":"ce4bhnh2rcd13ifvqgug","pricing_plan_id":"cebpf4jnsgd1na2vs0mg"},{"bike_id":"e0c3de05-9843-467c-99cb-41df8916987e","system_id":"levelo_inurba_marseille","lat":43.29018,"lon":5.38141,"is_reserved":false,"is_disabled":false,"rental_uris":{"android":"levelo://app?vid=e0c3de05-9843-467c-99cb-41df8916987e","ios":"levelo://app?vid=e0c3de05-9843-467c-99cb-41df8916987e"},"vehicle_type_id":"4","last_reported":1731348699,"current_range_meters":38800,"station_id":"ce4bh4p2rcd13ifvqe1g","pricing_plan_id":"cebpf4jnsgd1na2vs0mg"},{"bike_id":"da37cce2-ac18-4941-9cde-a30e871f6ab1","system_id":"levelo_inurba_marseille","lat":43.29597,"lon":5.37733,"is_reserved":false,"is_disabled":false,"rental_uris":{"android":"levelo://app?vid=da37cce2-ac18-4941-9cde-a30e871f6ab1","ios":"levelo://app?vid=da37cce2-ac18-4941-9cde-a30e871f6ab1"},"vehicle_type_id":"4","last_reported":1731348699,"current_range_meters":9200,"station_id":"ce4bgi92rcd13ifvqb90","pricing_plan_id":"cebpf4jnsgd1na2vs0mg"},{"bike_id":"5a7eb38f-a426-43b4-8388-855fed0bb6e0","system_id":"levelo_inurba_marseille","lat":43.30118,"lon":5.39853,"is_reserved":false,"is_disabled":false,"rental_uris":{"android":"levelo://app?vid=5a7eb38f-a426-43b4-8388-855fed0bb6e0","ios":"levelo://app?vid=5a7eb38f-a426-43b4-8388-855fed0bb6e0"},"vehicle_type_id":"4","last_reported":1731348699,"current_range_meters":38800,"station_id":"ce4bh0h2rcd13ifvqd40","pricing_plan_id":"cebpf4jnsgd1na2vs0mg"},{"bike_id":"b72ca6e7-47e9-42be-9a97-b74e22acdc0e","system_id":"levelo_inurba_marseille","lat":43.32101,"lon":5.36784,"is_reserved":false,"is_disabled":false,"rental_uris":{"android":"levelo://app?vid=b72ca6e7-47e9-42be-9a97-b74e22acdc0e","ios":"levelo://app?vid=b72ca6e7-47e9-42be-9a97-b74e22acdc0e"},"vehicle_type_id":"4","last_reported":1731348699,"current_range_meters":28800,"station_id":"ce4bhrh2rcd13ifvqhug","pricing_plan_id":"cebpf4jnsgd1na2vs0mg"},{"bike_id":"0e8b328d-d250-4022-b102-700ab6c44fe0","system_id":"levelo_inurba_marseille","lat":43.28033,"lon":5.36953,"is_reserved":false,"is_disabled":false,"rental_uris":{"android":"levelo://app?vid=0e8b328d-d250-4022-b102-700ab6c44fe0","ios":"levelo://app?vid=0e8b328d-d250-4022-b102-700ab6c44fe0"},"vehicle_type_id":"4","last_reported":1731348699,"current_range_meters":38000,"station_id":"ce4bha12rcd13ifvqef0","pricing_plan_id":"cebpf4jnsgd1na2vs0mg"},{"bike_id":"acc60b5c-190b-48e0-acc4-dca642836c04","system_id":"levelo_inurba_marseille","lat":43.32538,"lon":5.4143,"is_reserved":false,"is_disabled":false,"rental_uris":{"android":"levelo://app?vid=acc60b5c-190b-48e0-acc4-dca642836c04","ios":"levelo://app?vid=acc60b5c-190b-48e0-acc4-dca642836c04"},"vehicle_type_id":"4","last_reported":1731348699,"current_range_meters":9200,"station_id":"ce4bhq12rcd13ifvqhhg","pricing_plan_id":"cebpf4jnsgd1na2vs0mg"},{"bike_id":"755d47d5-03c1-4a41-9bbc-7f3962d7f720","system_id":"levelo_inurba_marseille","lat":43.27813,"lon":5.40719,"is_reserved":false,"is_disabled":false,"rental_uris":{"android":"levelo://app?vid=755d47d5-03c1-4a41-9bbc-7f3962d7f720","ios":"levelo://app?vid=755d47d5-03c1-4a41-9bbc-7f3962d7f720"},"vehicle_type_id":"4","last_reported":1731348699,"current_range_meters":20800,"station_id":"ce4bhnh2rcd13ifvqgtg","pricing_plan_id":"cebpf4jnsgd1na2vs0mg"},{"bike_id":"d200f736-33ff-4949-a4fa-9c168ba1cf59","system_id":"levelo_inurba_marseille","lat":43.28415,"lon":5.35001,"is_reserved":false,"is_disabled":false,"rental_uris":{"android":"levelo://app?vid=d200f736-33ff-4949-a4fa-9c168ba1cf59","ios":"levelo://app?vid=d200f736-33ff-4949-a4fa-9c168ba1cf59"},"vehicle_type_id":"4","last_reported":1731348699,"current_range_meters":38000,"station_id":"ce4bhbh2rcd13ifvqepg","pricing_plan_id":"cebpf4jnsgd1na2vs0mg"},{"bike_id":"319c8a9b-eb4e-417d-8ef2-0d2f01e6c97c","system_id":"levelo_inurba_marseille","lat":43.24169,"lon":5.39727,"is_reserved":false,"is_disabled":false,"rental_uris":{"android":"levelo://app?vid=319c8a9b-eb4e-417d-8ef2-0d2f01e6c97c","ios":"levelo://app?vid=319c8a9b-eb4e-417d-8ef2-0d2f01e6c97c"},"vehicle_type_id":"4","last_reported":1731348699,"current_range_meters":38000,"station_id":"ce4bhn12rcd13ifvqgpg","pricing_plan_id":"cebpf4jnsgd1na2vs0mg"},{"bike_id":"c59a5a2d-19dd-42c3-ba8c-196c7d1f2233","system_id":"levelo_inurba_marseille","lat":43.31327,"lon":5.3969,"is_reserved":false,"is_disabled":false,"rental_uris":{"android":"levelo://app?vid=c59a5a2d-19dd-42c3-ba8c-196c7d1f2233","ios":"levelo://app?vid=c59a5a2d-19dd-42c3-ba8c-196c7d1f2233"},"vehicle_type_id":"4","last_reported":1731348699,"current_range_meters":39200,"station_id":"ce4bgvp2rcd13ifvqcu0","pricing_plan_id":"cebpf4jnsgd1na2vs0mg"},{"bike_id":"2c507cd7-54ef-475c-8faa-961482f8a251","system_id":"levelo_inurba_marseille","lat":43.295616,"lon":5.422856,"is_reserved":false,"is_disabled":false,"rental_uris":{"android":"levelo://app?vid=2c507cd7-54ef-475c-8faa-961482f8a251","ios":"levelo://app?vid=2c507cd7-54ef-475c-8faa-961482f8a251"},"vehicle_type_id":"4","last_reported":1731348699,"current_range_meters":26000,"station_id":"ce4bhph2rcd13ifvqhdg","pricing_plan_id":"cebpf4jnsgd1na2vs0mg"},{"bike_id":"f6798b59-feb5-429d-a8da-f75b65aed1ef","system_id":"levelo_inurba_marseille","lat":43.290293,"lon":5.386464,"is_reserved":false,"is_disabled":false,"rental_uris":{"android":"levelo://app?vid=f6798b59-feb5-429d-a8da-f75b65aed1ef","ios":"levelo://app?vid=f6798b59-feb5-429d-a8da-f75b65aed1ef"},"vehicle_type_id":"4","last_reported":1731348699,"current_range_meters":17600,"station_id":"ce4bgop2rcd13ifvqc1g","pricing_plan_id":"cebpf4jnsgd1na2vs0mg"},{"bike_id":"fbe88973-8533-4cd3-b76b-1c1e4adfee1d","system_id":"levelo_inurba_marseille","lat":43.29523,"lon":5.38547,"is_reserved":false,"is_disabled":false,"rental_uris":{"android":"levelo://app?vid=fbe88973-8533-4cd3-b76b-1c1e4adfee1d","ios":"levelo://app?vid=fbe88973-8533-4cd3-b76b-1c1e4adfee1d"},"vehicle_type_id":"4","last_reported":1731348699,"current_range_meters":38800,"station_id":"ce4bgih2rcd13ifvqba0","pricing_plan_id":"cebpf4jnsgd1na2vs0mg"},{"bike_id":"03b39e37-4095-42b9-ad0d-f2d1abefe795","system_id":"levelo_inurba_marseille","lat":43.27158,"lon":5.4,"is_reserved":false,"is_disabled":false,"rental_uris":{"android":"levelo://app?vid=03b39e37-4095-42b9-ad0d-f2d1abefe795","ios":"levelo://app?vid=03b39e37-4095-42b9-ad0d-f2d1abefe795"},"vehicle_type_id":"4","last_reported":1731348699,"current_range_meters":5600,"station_id":"","pricing_plan_id":"cebpf4jnsgd1na2vs0mg"},{"bike_id":"c02a192e-5825-44fe-a0c9-fd04411f4ff2","system_id":"levelo_inurba_marseille","lat":43.25005,"lon":5.38913,"is_reserved":false,"is_disabled":false,"rental_uris":{"android":"levelo://app?vid=c02a192e-5825-44fe-a0c9-fd04411f4ff2","ios":"levelo://app?vid=c02a192e-5825-44fe-a0c9-fd04411f4ff2"},"vehicle_type_id":"4","last_reported":1731348699,"current_range_meters":24000,"station_id":"ce4bhgp2rcd13ifvqfd0","pricing_plan_id":"cebpf4jnsgd1na2vs0mg"},{"bike_id":"d7e62703-035e-4c4e-82c6-53d8204b8f45","system_id":"levelo_inurba_marseille","lat":43.31534,"lon":5.38034,"is_reserved":false,"is_disabled":false,"rental_uris":{"android":"levelo://app?vid=d7e62703-035e-4c4e-82c6-53d8204b8f45","ios":"levelo://app?vid=d7e62703-035e-4c4e-82c6-53d8204b8f45"},"vehicle_type_id":"4","last_reported":1731348699,"current_range_meters":20000,"station_id":"ce4bhsp2rcd13ifvqi50","pricing_plan_id":"cebpf4jnsgd1na2vs0mg"},{"bike_id":"feb86f62-2c80-4064-8e38-33c5534046da","system_id":"levelo_inurba_marseille","lat":43.28199,"lon":5.3991,"is_reserved":false,"is_disabled":false,"rental_uris":{"android":"levelo://app?vid=feb86f62-2c80-4064-8e38-33c5534046da","ios":"levelo://app?vid=feb86f62-2c80-4064-8e38-33c5534046da"},"vehicle_type_id":"4","last_reported":1731348699,"current_range_meters":14800,"station_id":"","pricing_plan_id":"cebpf4jnsgd1na2vs0mg"},{"bike_id":"89056f4d-b834-4f56-b6be-015e2d158279","system_id":"levelo_inurba_marseille","lat":43.23193,"lon":5.35557,"is_reserved":false,"is_disabled":false,"rental_uris":{"android":"levelo://app?vid=89056f4d-b834-4f56-b6be-015e2d158279","ios":"levelo://app?vid=89056f4d-b834-4f56-b6be-015e2d158279"},"vehicle_type_id":"4","last_reported":1731348699,"current_range_meters":39200,"station_id":"ce4bhu92rcd13ifvqi70","pricing_plan_id":"cebpf4jnsgd1na2vs0mg"},{"bike_id":"95516736-d3f5-409d-baee-0c1fb73d5fab","system_id":"levelo_inurba_marseille","lat":43.31073,"lon":5.3837,"is_reserved":false,"is_disabled":false,"rental_uris":{"android":"levelo://app?vid=95516736-d3f5-409d-baee-0c1fb73d5fab","ios":"levelo://app?vid=95516736-d3f5-409d-baee-0c1fb73d5fab"},"vehicle_type_id":"4","last_reported":1731348699,"current_range_meters":11200,"station_id":"ce4bgv92rcd13ifvqcr0","pricing_plan_id":"cebpf4jnsgd1na2vs0mg"},{"bike_id":"c37b1f90-a5b7-4c54-acc1-38e97befbd5c","system_id":"levelo_inurba_marseille","lat":43.292236,"lon":5.392737,"is_reserved":false,"is_disabled":false,"rental_uris":{"android":"levelo://app?vid=c37b1f90-a5b7-4c54-acc1-38e97befbd5c","ios":"levelo://app?vid=c37b1f90-a5b7-4c54-acc1-38e97befbd5c"},"vehicle_type_id":"4","last_reported":1731348699,"current_range_meters":14400,"station_id":"ce4bgj12rcd13ifvqbc0","pricing_plan_id":"cebpf4jnsgd1na2vs0mg"},{"bike_id":"c2e4b197-0112-4d52-863d-34f1914def88","system_id":"levelo_inurba_marseille","lat":43.28567,"lon":5.39494,"is_reserved":false,"is_disabled":false,"rental_uris":{"android":"levelo://app?vid=c2e4b197-0112-4d52-863d-34f1914def88","ios":"levelo://app?vid=c2e4b197-0112-4d52-863d-34f1914def88"},"vehicle_type_id":"4","last_reported":1731348699,"current_range_meters":18800,"station_id":"ce4bh292rcd13ifvqdg0","pricing_plan_id":"cebpf4jnsgd1na2vs0mg"},{"bike_id":"8108899c-2bce-4e66-a34d-4d64f1ad21d9","system_id":"levelo_inurba_marseille","lat":43.29519,"lon":5.39036,"is_reserved":false,"is_disabled":false,"rental_uris":{"android":"levelo://app?vid=8108899c-2bce-4e66-a34d-4d64f1ad21d9","ios":"levelo://app?vid=8108899c-2bce-4e66-a34d-4d64f1ad21d9"},"vehicle_type_id":"4","last_reported":1731348699,"current_range_meters":8000,"station_id":"ce4bh3p2rcd13ifvqdp0","pricing_plan_id":"cebpf4jnsgd1na2vs0mg"},{"bike_id":"5cb3547d-5919-49c8-9621-92bb6be20901","system_id":"levelo_inurba_marseille","lat":43.27373,"lon":5.36251,"is_reserved":false,"is_disabled":false,"rental_uris":{"android":"levelo://app?vid=5cb3547d-5919-49c8-9621-92bb6be20901","ios":"levelo://app?vid=5cb3547d-5919-49c8-9621-92bb6be20901"},"vehicle_type_id":"4","last_reported":1731348699,"current_range_meters":21600,"station_id":"ce4bhbh2rcd13ifvqeo0","pricing_plan_id":"cebpf4jnsgd1na2vs0mg"},{"bike_id":"39fe44f9-8cc5-47a5-a8d0-08c77f21768b","system_id":"levelo_inurba_marseille","lat":43.23183,"lon":5.39981,"is_reserved":false,"is_disabled":false,"rental_uris":{"android":"levelo://app?vid=39fe44f9-8cc5-47a5-a8d0-08c77f21768b","ios":"levelo://app?vid=39fe44f9-8cc5-47a5-a8d0-08c77f21768b"},"vehicle_type_id":"4","last_reported":1731348699,"current_range_meters":7200,"station_id":"ce4bhn12rcd13ifvqgqg","pricing_plan_id":"cebpf4jnsgd1na2vs0mg"},{"bike_id":"53a41202-f163-4fe5-a866-2a6de8cf9ac8","system_id":"levelo_inurba_marseille","lat":43.29633,"lon":5.40593,"is_reserved":false,"is_disabled":false,"rental_uris":{"android":"levelo://app?vid=53a41202-f163-4fe5-a866-2a6de8cf9ac8","ios":"levelo://app?vid=53a41202-f163-4fe5-a866-2a6de8cf9ac8"},"vehicle_type_id":"4","last_reported":1731348699,"current_range_meters":12400,"station_id":"ce4bh0h2rcd13ifvqd60","pricing_plan_id":"cebpf4jnsgd1na2vs0mg"},{"bike_id":"3cf45514-86af-4149-be53-1b7062222901","system_id":"levelo_inurba_marseille","lat":43.28712,"lon":5.37376,"is_reserved":false,"is_disabled":false,"rental_uris":{"android":"levelo://app?vid=3cf45514-86af-4149-be53-1b7062222901","ios":"levelo://app?vid=3cf45514-86af-4149-be53-1b7062222901"},"vehicle_type_id":"4","last_reported":1731348699,"current_range_meters":28000,"station_id":"ce4bh3p2rcd13ifvqdq0","pricing_plan_id":"cebpf4jnsgd1na2vs0mg"},{"bike_id":"a8b1ff1b-fb4c-4aba-aa28-04f63a2aa4d6","system_id":"levelo_inurba_marseille","lat":43.28708,"lon":5.37397,"is_reserved":false,"is_disabled":false,"rental_uris":{"android":"levelo://app?vid=a8b1ff1b-fb4c-4aba-aa28-04f63a2aa4d6","ios":"levelo://app?vid=a8b1ff1b-fb4c-4aba-aa28-04f63a2aa4d6"},"vehicle_type_id":"4","last_reported":1731348699,"current_range_meters":4400,"station_id":"ce4bh3p2rcd13ifvqdq0","pricing_plan_id":"cebpf4jnsgd1na2vs0mg"},{"bike_id":"b16943e1-6e4b-4767-8789-7da828786277","system_id":"levelo_inurba_marseille","lat":43.34183,"lon":5.38614,"is_reserved":false,"is_disabled":false,"rental_uris":{"android":"levelo://app?vid=b16943e1-6e4b-4767-8789-7da828786277","ios":"levelo://app?vid=b16943e1-6e4b-4767-8789-7da828786277"},"vehicle_type_id":"4","last_reported":1731348699,"current_range_meters":12000,"station_id":"","pricing_plan_id":"cebpf4jnsgd1na2vs0mg"},{"bike_id":"18264b25-2551-4657-98f8-fffbfe2951c5","system_id":"levelo_inurba_marseille","lat":43.31075,"lon":5.38354,"is_reserved":false,"is_disabled":false,"rental_uris":{"android":"levelo://app?vid=18264b25-2551-4657-98f8-fffbfe2951c5","ios":"levelo://app?vid=18264b25-2551-4657-98f8-fffbfe2951c5"},"vehicle_type_id":"4","last_reported":1731348699,"current_range_meters":38800,"station_id":"ce4bgv92rcd13ifvqcr0","pricing_plan_id":"cebpf4jnsgd1na2vs0mg"},{"bike_id":"bd74318b-c861-482e-b392-4e6c1bbcd35c","system_id":"levelo_inurba_marseille","lat":43.29849,"lon":5.36284,"is_reserved":false,"is_disabled":false,"rental_uris":{"android":"levelo://app?vid=bd74318b-c861-482e-b392-4e6c1bbcd35c","ios":"levelo://app?vid=bd74318b-c861-482e-b392-4e6c1bbcd35c"},"vehicle_type_id":"4","last_reported":1731348699,"current_range_meters":39200,"station_id":"ce4bgpp2rcd13ifvqc3g","pricing_plan_id":"cebpf4jnsgd1na2vs0mg"},{"bike_id":"5765d9cc-6a36-41cb-934b-2ff44e479195","system_id":"levelo_inurba_marseille","lat":43.29531,"lon":5.3854,"is_reserved":false,"is_disabled":false,"rental_uris":{"android":"levelo://app?vid=5765d9cc-6a36-41cb-934b-2ff44e479195","ios":"levelo://app?vid=5765d9cc-6a36-41cb-934b-2ff44e479195"},"vehicle_type_id":"4","last_reported":1731348699,"current_range_meters":24800,"station_id":"ce4bgih2rcd13ifvqba0","pricing_plan_id":"cebpf4jnsgd1na2vs0mg"},{"bike_id":"88c3dca1-adfa-4b98-8e87-c851e170c625","system_id":"levelo_inurba_marseille","lat":43.27942,"lon":5.41045,"is_reserved":false,"is_disabled":false,"rental_uris":{"android":"levelo://app?vid=88c3dca1-adfa-4b98-8e87-c851e170c625","ios":"levelo://app?vid=88c3dca1-adfa-4b98-8e87-c851e170c625"},"vehicle_type_id":"4","last_reported":1731348699,"current_range_meters":8000,"station_id":"ce4bhnp2rcd13ifvqh0g","pricing_plan_id":"cebpf4jnsgd1na2vs0mg"},{"bike_id":"8348cd56-76c9-4efc-b5dc-8cb04d9ea85c","system_id":"levelo_inurba_marseille","lat":43.29032,"lon":5.38643,"is_reserved":false,"is_disabled":false,"rental_uris":{"android":"levelo://app?vid=8348cd56-76c9-4efc-b5dc-8cb04d9ea85c","ios":"levelo://app?vid=8348cd56-76c9-4efc-b5dc-8cb04d9ea85c"},"vehicle_type_id":"4","last_reported":1731348699,"current_range_meters":25600,"station_id":"ce4bh4p2rcd13ifvqe0g","pricing_plan_id":"cebpf4jnsgd1na2vs0mg"},{"bike_id":"ba43a0fc-d343-47fe-b0b1-068e4c9694e3","system_id":"levelo_inurba_marseille","lat":43.27994,"lon":5.4167,"is_reserved":false,"is_disabled":false,"rental_uris":{"android":"levelo://app?vid=ba43a0fc-d343-47fe-b0b1-068e4c9694e3","ios":"levelo://app?vid=ba43a0fc-d343-47fe-b0b1-068e4c9694e3"},"vehicle_type_id":"4","last_reported":1731348699,"current_range_meters":22000,"station_id":"ce4bho12rcd13ifvqh1g","pricing_plan_id":"cebpf4jnsgd1na2vs0mg"},{"bike_id":"dc12c22a-8cf2-4528-b50b-ec412d178453","system_id":"levelo_inurba_marseille","lat":43.31721,"lon":5.42406,"is_reserved":false,"is_disabled":false,"rental_uris":{"android":"levelo://app?vid=dc12c22a-8cf2-4528-b50b-ec412d178453","ios":"levelo://app?vid=dc12c22a-8cf2-4528-b50b-ec412d178453"},"vehicle_type_id":"4","last_reported":1731348699,"current_range_meters":38800,"station_id":"ce4bhp92rcd13ifvqhbg","pricing_plan_id":"cebpf4jnsgd1na2vs0mg"},{"bike_id":"3dfc655f-dc40-40e1-adc8-dad4496f2e4c","system_id":"levelo_inurba_marseille","lat":43.23968,"lon":5.36629,"is_reserved":false,"is_disabled":false,"rental_uris":{"android":"levelo://app?vid=3dfc655f-dc40-40e1-adc8-dad4496f2e4c","ios":"levelo://app?vid=3dfc655f-dc40-40e1-adc8-dad4496f2e4c"},"vehicle_type_id":"4","last_reported":1731348699,"current_range_meters":34000,"station_id":"ce4bhi12rcd13ifvqfp0","pricing_plan_id":"cebpf4jnsgd1na2vs0mg"},{"bike_id":"40b86548-1e03-4047-b78b-8483fa18809a","system_id":"levelo_inurba_marseille","lat":43.290375,"lon":5.399574,"is_reserved":false,"is_disabled":false,"rental_uris":{"android":"levelo://app?vid=40b86548-1e03-4047-b78b-8483fa18809a","ios":"levelo://app?vid=40b86548-1e03-4047-b78b-8483fa18809a"},"vehicle_type_id":"4","last_reported":1731348699,"current_range_meters":38800,"station_id":"ce4bgvp2rcd13ifvqct0","pricing_plan_id":"cebpf4jnsgd1na2vs0mg"},{"bike_id":"670a0569-1cd2-4534-816e-2223647a4790","system_id":"levelo_inurba_marseille","lat":43.337444,"lon":5.374475,"is_reserved":false,"is_disabled":false,"rental_uris":{"android":"levelo://app?vid=670a0569-1cd2-4534-816e-2223647a4790","ios":"levelo://app?vid=670a0569-1cd2-4534-816e-2223647a4790"},"vehicle_type_id":"4","last_reported":1731348699,"current_range_meters":35600,"station_id":"","pricing_plan_id":"cebpf4jnsgd1na2vs0mg"},{"bike_id":"cda4d5ca-16db-4d45-9822-14141a1915b8","system_id":"levelo_inurba_marseille","lat":43.3172,"lon":5.42401,"is_reserved":false,"is_disabled":false,"rental_uris":{"android":"levelo://app?vid=cda4d5ca-16db-4d45-9822-14141a1915b8","ios":"levelo://app?vid=cda4d5ca-16db-4d45-9822-14141a1915b8"},"vehicle_type_id":"4","last_reported":1731348699,"current_range_meters":11200,"station_id":"ce4bhp92rcd13ifvqhbg","pricing_plan_id":"cebpf4jnsgd1na2vs0mg"},{"bike_id":"b2c0a402-3788-4eea-9191-3ed19c257a37","system_id":"levelo_inurba_marseille","lat":43.29728,"lon":5.37699,"is_reserved":false,"is_disabled":false,"rental_uris":{"android":"levelo://app?vid=b2c0a402-3788-4eea-9191-3ed19c257a37","ios":"levelo://app?vid=b2c0a402-3788-4eea-9191-3ed19c257a37"},"vehicle_type_id":"4","last_reported":1731348699,"current_range_meters":6400,"station_id":"ce4bgqh2rcd13ifvqc5g","pricing_plan_id":"cebpf4jnsgd1na2vs0mg"},{"bike_id":"39f0d68d-da62-4ac6-a970-1f2dd8f802b8","system_id":"levelo_inurba_marseille","lat":43.286433,"lon":5.395083,"is_reserved":false,"is_disabled":false,"rental_uris":{"android":"levelo://app?vid=39f0d68d-da62-4ac6-a970-1f2dd8f802b8","ios":"levelo://app?vid=39f0d68d-da62-4ac6-a970-1f2dd8f802b8"},"vehicle_type_id":"4","last_reported":1731348699,"current_range_meters":14400,"station_id":"ce4bh292rcd13ifvqdg0","pricing_plan_id":"cebpf4jnsgd1na2vs0mg"},{"bike_id":"5f1ee66f-2f7a-464f-aba5-b55a506f409d","system_id":"levelo_inurba_marseille","lat":43.2903,"lon":5.38647,"is_reserved":false,"is_disabled":false,"rental_uris":{"android":"levelo://app?vid=5f1ee66f-2f7a-464f-aba5-b55a506f409d","ios":"levelo://app?vid=5f1ee66f-2f7a-464f-aba5-b55a506f409d"},"vehicle_type_id":"4","last_reported":1731348699,"current_range_meters":15200,"station_id":"ce4bh4p2rcd13ifvqe0g","pricing_plan_id":"cebpf4jnsgd1na2vs0mg"},{"bike_id":"5b86b072-d114-4fe3-b97d-b7eec3b13ee7","system_id":"levelo_inurba_marseille","lat":43.2593,"lon":5.40916,"is_reserved":false,"is_disabled":false,"rental_uris":{"android":"levelo://app?vid=5b86b072-d114-4fe3-b97d-b7eec3b13ee7","ios":"levelo://app?vid=5b86b072-d114-4fe3-b97d-b7eec3b13ee7"},"vehicle_type_id":"4","last_reported":1731348699,"current_range_meters":8400,"station_id":"ce4bhm92rcd13ifvqglg","pricing_plan_id":"cebpf4jnsgd1na2vs0mg"},{"bike_id":"003fbcc0-df19-447f-a06d-63d553ed3107","system_id":"levelo_inurba_marseille","lat":43.27928,"lon":5.39579,"is_reserved":false,"is_disabled":false,"rental_uris":{"android":"levelo://app?vid=003fbcc0-df19-447f-a06d-63d553ed3107","ios":"levelo://app?vid=003fbcc0-df19-447f-a06d-63d553ed3107"},"vehicle_type_id":"4","last_reported":1731348699,"current_range_meters":5600,"station_id":"ce4bhf92rcd13ifvqf40","pricing_plan_id":"cebpf4jnsgd1na2vs0mg"},{"bike_id":"6e0a324e-ac28-4229-a3bf-5279c042d086","system_id":"levelo_inurba_marseille","lat":43.30304,"lon":5.39207,"is_reserved":false,"is_disabled":false,"rental_uris":{"android":"levelo://app?vid=6e0a324e-ac28-4229-a3bf-5279c042d086","ios":"levelo://app?vid=6e0a324e-ac28-4229-a3bf-5279c042d086"},"vehicle_type_id":"4","last_reported":1731348699,"current_range_meters":26800,"station_id":"ce4bgkh2rcd13ifvqbk0","pricing_plan_id":"cebpf4jnsgd1na2vs0mg"},{"bike_id":"8d86920e-abce-44d6-b6ea-332c0911cce2","system_id":"levelo_inurba_marseille","lat":43.29303,"lon":5.37172,"is_reserved":false,"is_disabled":false,"rental_uris":{"android":"levelo://app?vid=8d86920e-abce-44d6-b6ea-332c0911cce2","ios":"levelo://app?vid=8d86920e-abce-44d6-b6ea-332c0911cce2"},"vehicle_type_id":"4","last_reported":1731348699,"current_range_meters":3200,"station_id":"ce4bgh92rcd13ifvqb40","pricing_plan_id":"cebpf4jnsgd1na2vs0mg"},{"bike_id":"dbc92809-ab3d-4f9b-983c-1501faba548f","system_id":"levelo_inurba_marseille","lat":43.27577,"lon":5.38418,"is_reserved":false,"is_disabled":false,"rental_uris":{"android":"levelo://app?vid=dbc92809-ab3d-4f9b-983c-1501faba548f","ios":"levelo://app?vid=dbc92809-ab3d-4f9b-983c-1501faba548f"},"vehicle_type_id":"4","last_reported":1731348699,"current_range_meters":7200,"station_id":"ce4bhh92rcd13ifvqfi0","pricing_plan_id":"cebpf4jnsgd1na2vs0mg"},{"bike_id":"7079b5ba-2cbc-4fe2-827c-9b7adcabd462","system_id":"levelo_inurba_marseille","lat":43.32479,"lon":5.36569,"is_reserved":false,"is_disabled":false,"rental_uris":{"android":"levelo://app?vid=7079b5ba-2cbc-4fe2-827c-9b7adcabd462","ios":"levelo://app?vid=7079b5ba-2cbc-4fe2-827c-9b7adcabd462"},"vehicle_type_id":"4","last_reported":1731348699,"current_range_meters":39200,"station_id":"ce4bhs12rcd13ifvqhvg","pricing_plan_id":"cebpf4jnsgd1na2vs0mg"},{"bike_id":"8a59f7ba-2456-4e5e-9314-809f890b4a6f","system_id":"levelo_inurba_marseille","lat":43.27999,"lon":5.41659,"is_reserved":false,"is_disabled":false,"rental_uris":{"android":"levelo://app?vid=8a59f7ba-2456-4e5e-9314-809f890b4a6f","ios":"levelo://app?vid=8a59f7ba-2456-4e5e-9314-809f890b4a6f"},"vehicle_type_id":"4","last_reported":1731348699,"current_range_meters":16400,"station_id":"ce4bho12rcd13ifvqh1g","pricing_plan_id":"cebpf4jnsgd1na2vs0mg"},{"bike_id":"6c70179e-28df-4a98-8b24-db5e64a1d48a","system_id":"levelo_inurba_marseille","lat":43.31119,"lon":5.37759,"is_reserved":false,"is_disabled":false,"rental_uris":{"android":"levelo://app?vid=6c70179e-28df-4a98-8b24-db5e64a1d48a","ios":"levelo://app?vid=6c70179e-28df-4a98-8b24-db5e64a1d48a"},"vehicle_type_id":"4","last_reported":1731348699,"current_range_meters":24400,"station_id":"ce4bgt92rcd13ifvqcg0","pricing_plan_id":"cebpf4jnsgd1na2vs0mg"},{"bike_id":"eb64b186-f3d4-4122-8cce-33e66eee2fd5","system_id":"levelo_inurba_marseille","lat":43.28485,"lon":5.3842,"is_reserved":false,"is_disabled":false,"rental_uris":{"android":"levelo://app?vid=eb64b186-f3d4-4122-8cce-33e66eee2fd5","ios":"levelo://app?vid=eb64b186-f3d4-4122-8cce-33e66eee2fd5"},"vehicle_type_id":"4","last_reported":1731348699,"current_range_meters":2000,"station_id":"ce4bh512rcd13ifvqe3g","pricing_plan_id":"cebpf4jnsgd1na2vs0mg"},{"bike_id":"0febbc68-e455-4cf3-b7b2-8bcafd2da79d","system_id":"levelo_inurba_marseille","lat":43.25579,"lon":5.38242,"is_reserved":false,"is_disabled":false,"rental_uris":{"android":"levelo://app?vid=0febbc68-e455-4cf3-b7b2-8bcafd2da79d","ios":"levelo://app?vid=0febbc68-e455-4cf3-b7b2-8bcafd2da79d"},"vehicle_type_id":"4","last_reported":1731348699,"current_range_meters":19600,"station_id":"ce4bhih2rcd13ifvqfs0","pricing_plan_id":"cebpf4jnsgd1na2vs0mg"},{"bike_id":"93be1a4c-28d1-42a4-994f-4a8ba1198ed1","system_id":"levelo_inurba_marseille","lat":43.30354,"lon":5.41874,"is_reserved":false,"is_disabled":false,"rental_uris":{"android":"levelo://app?vid=93be1a4c-28d1-42a4-994f-4a8ba1198ed1","ios":"levelo://app?vid=93be1a4c-28d1-42a4-994f-4a8ba1198ed1"},"vehicle_type_id":"4","last_reported":1731348699,"current_range_meters":29600,"station_id":"ce4bhop2rcd13ifvqh7g","pricing_plan_id":"cebpf4jnsgd1na2vs0mg"},{"bike_id":"f3a76cdf-3163-4926-abf7-0f4c6a7d74d1","system_id":"levelo_inurba_marseille","lat":43.27566,"lon":5.38413,"is_reserved":false,"is_disabled":false,"rental_uris":{"android":"levelo://app?vid=f3a76cdf-3163-4926-abf7-0f4c6a7d74d1","ios":"levelo://app?vid=f3a76cdf-3163-4926-abf7-0f4c6a7d74d1"},"vehicle_type_id":"4","last_reported":1731348699,"current_range_meters":2000,"station_id":"ce4bhh92rcd13ifvqfi0","pricing_plan_id":"cebpf4jnsgd1na2vs0mg"},{"bike_id":"8f7c081b-07e5-4888-b6ff-652a3b0665bd","system_id":"levelo_inurba_marseille","lat":43.31268,"lon":5.40172,"is_reserved":false,"is_disabled":false,"rental_uris":{"android":"levelo://app?vid=8f7c081b-07e5-4888-b6ff-652a3b0665bd","ios":"levelo://app?vid=8f7c081b-07e5-4888-b6ff-652a3b0665bd"},"vehicle_type_id":"4","last_reported":1731348699,"current_range_meters":3600,"station_id":"ce4bh092rcd13ifvqd30","pricing_plan_id":"cebpf4jnsgd1na2vs0mg"},{"bike_id":"45c8d003-94a8-4c34-8ccb-71ab5a6e79f3","system_id":"levelo_inurba_marseille","lat":43.28364,"lon":5.38636,"is_reserved":false,"is_disabled":false,"rental_uris":{"android":"levelo://app?vid=45c8d003-94a8-4c34-8ccb-71ab5a6e79f3","ios":"levelo://app?vid=45c8d003-94a8-4c34-8ccb-71ab5a6e79f3"},"vehicle_type_id":"4","last_reported":1731348699,"current_range_meters":9600,"station_id":"ce4bh492rcd13ifvqdvg","pricing_plan_id":"cebpf4jnsgd1na2vs0mg"},{"bike_id":"95861fcb-0cff-401d-9b26-ce9494ae7d36","system_id":"levelo_inurba_marseille","lat":43.240832,"lon":5.377447,"is_reserved":false,"is_disabled":false,"rental_uris":{"android":"levelo://app?vid=95861fcb-0cff-401d-9b26-ce9494ae7d36","ios":"levelo://app?vid=95861fcb-0cff-401d-9b26-ce9494ae7d36"},"vehicle_type_id":"4","last_reported":1731348699,"current_range_meters":8000,"station_id":"ce4bhnp2rcd13ifvqgvg","pricing_plan_id":"cebpf4jnsgd1na2vs0mg"},{"bike_id":"4dc0e3bd-ab9c-461a-835f-d4784d7b8326","system_id":"levelo_inurba_marseille","lat":43.31325,"lon":5.42359,"is_reserved":false,"is_disabled":false,"rental_uris":{"android":"levelo://app?vid=4dc0e3bd-ab9c-461a-835f-d4784d7b8326","ios":"levelo://app?vid=4dc0e3bd-ab9c-461a-835f-d4784d7b8326"},"vehicle_type_id":"4","last_reported":1731348699,"current_range_meters":8000,"station_id":"ce4bhp92rcd13ifvqhcg","pricing_plan_id":"cebpf4jnsgd1na2vs0mg"},{"bike_id":"30055e77-88c9-49a1-9aae-40c11701ca86","system_id":"levelo_inurba_marseille","lat":43.30252,"lon":5.40076,"is_reserved":false,"is_disabled":false,"rental_uris":{"android":"levelo://app?vid=30055e77-88c9-49a1-9aae-40c11701ca86","ios":"levelo://app?vid=30055e77-88c9-49a1-9aae-40c11701ca86"},"vehicle_type_id":"4","last_reported":1731348699,"current_range_meters":2000,"station_id":"ce4bgvh2rcd13ifvqcs0","pricing_plan_id":"cebpf4jnsgd1na2vs0mg"},{"bike_id":"d13154a5-3b77-4ef6-98b9-5a5e3b12144e","system_id":"levelo_inurba_marseille","lat":43.29793,"lon":5.38102,"is_reserved":false,"is_disabled":false,"rental_uris":{"android":"levelo://app?vid=d13154a5-3b77-4ef6-98b9-5a5e3b12144e","ios":"levelo://app?vid=d13154a5-3b77-4ef6-98b9-5a5e3b12144e"},"vehicle_type_id":"4","last_reported":1731348699,"current_range_meters":17600,"station_id":"ce4bgip2rcd13ifvqbb0","pricing_plan_id":"cebpf4jnsgd1na2vs0mg"},{"bike_id":"40fb0bae-c580-48dc-a0ee-8f3812a26f2c","system_id":"levelo_inurba_marseille","lat":43.25722,"lon":5.41111,"is_reserved":false,"is_disabled":false,"rental_uris":{"android":"levelo://app?vid=40fb0bae-c580-48dc-a0ee-8f3812a26f2c","ios":"levelo://app?vid=40fb0bae-c580-48dc-a0ee-8f3812a26f2c"},"vehicle_type_id":"4","last_reported":1731348699,"current_range_meters":32800,"station_id":"ce4bhkp2rcd13ifvqgd0","pricing_plan_id":"cebpf4jnsgd1na2vs0mg"},{"bike_id":"dbfe17eb-b9d3-45ba-8d73-93d8f15d33ea","system_id":"levelo_inurba_marseille","lat":43.29962,"lon":5.38499,"is_reserved":false,"is_disabled":false,"rental_uris":{"android":"levelo://app?vid=dbfe17eb-b9d3-45ba-8d73-93d8f15d33ea","ios":"levelo://app?vid=dbfe17eb-b9d3-45ba-8d73-93d8f15d33ea"},"vehicle_type_id":"4","last_reported":1731348699,"current_range_meters":6000,"station_id":"ce4bgj92rcd13ifvqbd0","pricing_plan_id":"cebpf4jnsgd1na2vs0mg"},{"bike_id":"c30c7c17-b515-4143-9517-47b104debd66","system_id":"levelo_inurba_marseille","lat":43.337444,"lon":5.374475,"is_reserved":false,"is_disabled":false,"rental_uris":{"android":"levelo://app?vid=c30c7c17-b515-4143-9517-47b104debd66","ios":"levelo://app?vid=c30c7c17-b515-4143-9517-47b104debd66"},"vehicle_type_id":"4","last_reported":1731348699,"current_range_meters":9600,"station_id":"","pricing_plan_id":"cebpf4jnsgd1na2vs0mg"},{"bike_id":"a7c4b617-2161-4909-ba5a-46a42b730c51","system_id":"levelo_inurba_marseille","lat":43.25106,"lon":5.40321,"is_reserved":false,"is_disabled":false,"rental_uris":{"android":"levelo://app?vid=a7c4b617-2161-4909-ba5a-46a42b730c51","ios":"levelo://app?vid=a7c4b617-2161-4909-ba5a-46a42b730c51"},"vehicle_type_id":"4","last_reported":1731348699,"current_range_meters":3600,"station_id":"ce4bhlh2rcd13ifvqgig","pricing_plan_id":"cebpf4jnsgd1na2vs0mg"},{"bike_id":"a3737c00-2b24-45c7-87f6-a52becd1e5b4","system_id":"levelo_inurba_marseille","lat":43.27083,"lon":5.37999,"is_reserved":false,"is_disabled":false,"rental_uris":{"android":"levelo://app?vid=a3737c00-2b24-45c7-87f6-a52becd1e5b4","ios":"levelo://app?vid=a3737c00-2b24-45c7-87f6-a52becd1e5b4"},"vehicle_type_id":"4","last_reported":1731348699,"current_range_meters":30000,"station_id":"","pricing_plan_id":"cebpf4jnsgd1na2vs0mg"},{"bike_id":"3c8af3c5-bb73-4ccb-bf1c-ce6f9151d77c","system_id":"levelo_inurba_marseille","lat":43.239675,"lon":5.366307,"is_reserved":false,"is_disabled":false,"rental_uris":{"android":"levelo://app?vid=3c8af3c5-bb73-4ccb-bf1c-ce6f9151d77c","ios":"levelo://app?vid=3c8af3c5-bb73-4ccb-bf1c-ce6f9151d77c"},"vehicle_type_id":"4","last_reported":1731348699,"current_range_meters":38800,"station_id":"ce4bhi12rcd13ifvqfp0","pricing_plan_id":"cebpf4jnsgd1na2vs0mg"},{"bike_id":"6bde9ee8-b77b-4d28-9e41-03f074cd9901","system_id":"levelo_inurba_marseille","lat":43.28462,"lon":5.3841,"is_reserved":false,"is_disabled":false,"rental_uris":{"android":"levelo://app?vid=6bde9ee8-b77b-4d28-9e41-03f074cd9901","ios":"levelo://app?vid=6bde9ee8-b77b-4d28-9e41-03f074cd9901"},"vehicle_type_id":"4","last_reported":1731348699,"current_range_meters":39200,"station_id":"ce4bh512rcd13ifvqe3g","pricing_plan_id":"cebpf4jnsgd1na2vs0mg"},{"bike_id":"53f36564-5333-43ec-948a-d82c731013f1","system_id":"levelo_inurba_marseille","lat":43.29525,"lon":5.3855,"is_reserved":false,"is_disabled":false,"rental_uris":{"android":"levelo://app?vid=53f36564-5333-43ec-948a-d82c731013f1","ios":"levelo://app?vid=53f36564-5333-43ec-948a-d82c731013f1"},"vehicle_type_id":"4","last_reported":1731348699,"current_range_meters":9600,"station_id":"ce4bgih2rcd13ifvqba0","pricing_plan_id":"cebpf4jnsgd1na2vs0mg"},{"bike_id":"69202dc1-4576-48b4-bec2-5342846184e3","system_id":"levelo_inurba_marseille","lat":43.28537,"lon":5.384059,"is_reserved":false,"is_disabled":false,"rental_uris":{"android":"levelo://app?vid=69202dc1-4576-48b4-bec2-5342846184e3","ios":"levelo://app?vid=69202dc1-4576-48b4-bec2-5342846184e3"},"vehicle_type_id":"4","last_reported":1731348699,"current_range_meters":20800,"station_id":"","pricing_plan_id":"cebpf4jnsgd1na2vs0mg"},{"bike_id":"b00db9b0-c3e3-4539-b55c-e73ecb5a06ba","system_id":"levelo_inurba_marseille","lat":43.231927,"lon":5.355525,"is_reserved":false,"is_disabled":false,"rental_uris":{"android":"levelo://app?vid=b00db9b0-c3e3-4539-b55c-e73ecb5a06ba","ios":"levelo://app?vid=b00db9b0-c3e3-4539-b55c-e73ecb5a06ba"},"vehicle_type_id":"4","last_reported":1731348699,"current_range_meters":3600,"station_id":"ce4bhu92rcd13ifvqi70","pricing_plan_id":"cebpf4jnsgd1na2vs0mg"},{"bike_id":"9e2e3d34-8756-4dbc-86bc-087dee86fbeb","system_id":"levelo_inurba_marseille","lat":43.29871,"lon":5.39726,"is_reserved":false,"is_disabled":false,"rental_uris":{"android":"levelo://app?vid=9e2e3d34-8756-4dbc-86bc-087dee86fbeb","ios":"levelo://app?vid=9e2e3d34-8756-4dbc-86bc-087dee86fbeb"},"vehicle_type_id":"4","last_reported":1731348699,"current_range_meters":25200,"station_id":"ce4bh0h2rcd13ifvqd50","pricing_plan_id":"cebpf4jnsgd1na2vs0mg"},{"bike_id":"e0186bf7-9328-4e9f-b211-014fa0c8e51e","system_id":"levelo_inurba_marseille","lat":43.27552,"lon":5.38435,"is_reserved":false,"is_disabled":false,"rental_uris":{"android":"levelo://app?vid=e0186bf7-9328-4e9f-b211-014fa0c8e51e","ios":"levelo://app?vid=e0186bf7-9328-4e9f-b211-014fa0c8e51e"},"vehicle_type_id":"4","last_reported":1731348699,"current_range_meters":37600,"station_id":"ce4bhh92rcd13ifvqfi0","pricing_plan_id":"cebpf4jnsgd1na2vs0mg"},{"bike_id":"99973592-84be-4718-8200-51366bd2ca45","system_id":"levelo_inurba_marseille","lat":43.309,"lon":5.37187,"is_reserved":false,"is_disabled":false,"rental_uris":{"android":"levelo://app?vid=99973592-84be-4718-8200-51366bd2ca45","ios":"levelo://app?vid=99973592-84be-4718-8200-51366bd2ca45"},"vehicle_type_id":"4","last_reported":1731348699,"current_range_meters":26800,"station_id":"ce4bguh2rcd13ifvqckg","pricing_plan_id":"cebpf4jnsgd1na2vs0mg"},{"bike_id":"8b57e85e-a905-4579-a044-a906e90f5e02","system_id":"levelo_inurba_marseille","lat":43.25084,"lon":5.39519,"is_reserved":false,"is_disabled":false,"rental_uris":{"android":"levelo://app?vid=8b57e85e-a905-4579-a044-a906e90f5e02","ios":"levelo://app?vid=8b57e85e-a905-4579-a044-a906e90f5e02"},"vehicle_type_id":"4","last_reported":1731348699,"current_range_meters":11200,"station_id":"ce4bhm12rcd13ifvqgkg","pricing_plan_id":"cebpf4jnsgd1na2vs0mg"},{"bike_id":"fe98d769-6019-4dbc-8f6b-74c8b9c55f5a","system_id":"levelo_inurba_marseille","lat":43.31896,"lon":5.40729,"is_reserved":false,"is_disabled":false,"rental_uris":{"android":"levelo://app?vid=fe98d769-6019-4dbc-8f6b-74c8b9c55f5a","ios":"levelo://app?vid=fe98d769-6019-4dbc-8f6b-74c8b9c55f5a"},"vehicle_type_id":"4","last_reported":1731348699,"current_range_meters":38000,"station_id":"ce4bhq12rcd13ifvqhig","pricing_plan_id":"cebpf4jnsgd1na2vs0mg"},{"bike_id":"b7cfbf77-a77f-428d-a740-351d8f5f50c5","system_id":"levelo_inurba_marseille","lat":43.25719,"lon":5.41114,"is_reserved":false,"is_disabled":false,"rental_uris":{"android":"levelo://app?vid=b7cfbf77-a77f-428d-a740-351d8f5f50c5","ios":"levelo://app?vid=b7cfbf77-a77f-428d-a740-351d8f5f50c5"},"vehicle_type_id":"4","last_reported":1731348699,"current_range_meters":11200,"station_id":"ce4bhkp2rcd13ifvqgd0","pricing_plan_id":"cebpf4jnsgd1na2vs0mg"},{"bike_id":"ef27ca52-2069-4e9f-87d3-e8db83723690","system_id":"levelo_inurba_marseille","lat":43.3013,"lon":5.38791,"is_reserved":false,"is_disabled":false,"rental_uris":{"android":"levelo://app?vid=ef27ca52-2069-4e9f-87d3-e8db83723690","ios":"levelo://app?vid=ef27ca52-2069-4e9f-87d3-e8db83723690"},"vehicle_type_id":"4","last_reported":1731348699,"current_range_meters":13600,"station_id":"ce4bghh2rcd13ifvqb60","pricing_plan_id":"cebpf4jnsgd1na2vs0mg"},{"bike_id":"e6798bbc-0707-42c5-9a11-d1fda0166cf7","system_id":"levelo_inurba_marseille","lat":43.337444,"lon":5.374475,"is_reserved":false,"is_disabled":false,"rental_uris":{"android":"levelo://app?vid=e6798bbc-0707-42c5-9a11-d1fda0166cf7","ios":"levelo://app?vid=e6798bbc-0707-42c5-9a11-d1fda0166cf7"},"vehicle_type_id":"4","last_reported":1731348699,"current_range_meters":9600,"station_id":"","pricing_plan_id":"cebpf4jnsgd1na2vs0mg"},{"bike_id":"e280701b-2d39-49be-a712-e9fabaaa8694","system_id":"levelo_inurba_marseille","lat":43.31669,"lon":5.40426,"is_reserved":false,"is_disabled":false,"rental_uris":{"android":"levelo://app?vid=e280701b-2d39-49be-a712-e9fabaaa8694","ios":"levelo://app?vid=e280701b-2d39-49be-a712-e9fabaaa8694"},"vehicle_type_id":"4","last_reported":1731348699,"current_range_meters":10000,"station_id":"ce4bh012rcd13ifvqd00","pricing_plan_id":"cebpf4jnsgd1na2vs0mg"},{"bike_id":"e17d71fd-22e8-4d52-8aeb-c70b82b71d90","system_id":"levelo_inurba_marseille","lat":43.28925,"lon":5.36403,"is_reserved":false,"is_disabled":false,"rental_uris":{"android":"levelo://app?vid=e17d71fd-22e8-4d52-8aeb-c70b82b71d90","ios":"levelo://app?vid=e17d71fd-22e8-4d52-8aeb-c70b82b71d90"},"vehicle_type_id":"4","last_reported":1731348699,"current_range_meters":8000,"station_id":"ce4bhc92rcd13ifvqetg","pricing_plan_id":"cebpf4jnsgd1na2vs0mg"},{"bike_id":"f2973a72-e66d-4cef-a273-bdb03d235c56","system_id":"levelo_inurba_marseille","lat":43.28346,"lon":5.38103,"is_reserved":false,"is_disabled":false,"rental_uris":{"android":"levelo://app?vid=f2973a72-e66d-4cef-a273-bdb03d235c56","ios":"levelo://app?vid=f2973a72-e66d-4cef-a273-bdb03d235c56"},"vehicle_type_id":"4","last_reported":1731348699,"current_range_meters":7200,"station_id":"ce4bh412rcd13ifvqdr0","pricing_plan_id":"cebpf4jnsgd1na2vs0mg"},{"bike_id":"6962350e-7aa4-440c-82bf-69fc595fca75","system_id":"levelo_inurba_marseille","lat":43.23964,"lon":5.36629,"is_reserved":false,"is_disabled":false,"rental_uris":{"android":"levelo://app?vid=6962350e-7aa4-440c-82bf-69fc595fca75","ios":"levelo://app?vid=6962350e-7aa4-440c-82bf-69fc595fca75"},"vehicle_type_id":"4","last_reported":1731348699,"current_range_meters":6400,"station_id":"ce4bhi12rcd13ifvqfp0","pricing_plan_id":"cebpf4jnsgd1na2vs0mg"},{"bike_id":"3eefc3d4-2ef3-413a-9f43-a6c923f4cb44","system_id":"levelo_inurba_marseille","lat":43.31124,"lon":5.37763,"is_reserved":false,"is_disabled":false,"rental_uris":{"android":"levelo://app?vid=3eefc3d4-2ef3-413a-9f43-a6c923f4cb44","ios":"levelo://app?vid=3eefc3d4-2ef3-413a-9f43-a6c923f4cb44"},"vehicle_type_id":"4","last_reported":1731348699,"current_range_meters":36800,"station_id":"ce4bgt92rcd13ifvqcg0","pricing_plan_id":"cebpf4jnsgd1na2vs0mg"},{"bike_id":"dcb6718b-c068-43a4-8506-aad22aec4920","system_id":"levelo_inurba_marseille","lat":43.29509,"lon":5.3905,"is_reserved":false,"is_disabled":false,"rental_uris":{"android":"levelo://app?vid=dcb6718b-c068-43a4-8506-aad22aec4920","ios":"levelo://app?vid=dcb6718b-c068-43a4-8506-aad22aec4920"},"vehicle_type_id":"4","last_reported":1731348699,"current_range_meters":4000,"station_id":"ce4bh3p2rcd13ifvqdp0","pricing_plan_id":"cebpf4jnsgd1na2vs0mg"},{"bike_id":"461337fd-1ecb-4a19-bd0a-8000d04bc5f9","system_id":"levelo_inurba_marseille","lat":43.29017,"lon":5.3813,"is_reserved":false,"is_disabled":false,"rental_uris":{"android":"levelo://app?vid=461337fd-1ecb-4a19-bd0a-8000d04bc5f9","ios":"levelo://app?vid=461337fd-1ecb-4a19-bd0a-8000d04bc5f9"},"vehicle_type_id":"4","last_reported":1731348699,"current_range_meters":38800,"station_id":"ce4bh4p2rcd13ifvqe1g","pricing_plan_id":"cebpf4jnsgd1na2vs0mg"},{"bike_id":"3d738a4c-658d-4e38-a15b-8dfcaf404e52","system_id":"levelo_inurba_marseille","lat":43.28465,"lon":5.35889,"is_reserved":false,"is_disabled":false,"rental_uris":{"android":"levelo://app?vid=3d738a4c-658d-4e38-a15b-8dfcaf404e52","ios":"levelo://app?vid=3d738a4c-658d-4e38-a15b-8dfcaf404e52"},"vehicle_type_id":"4","last_reported":1731348699,"current_range_meters":38800,"station_id":"ce4bhah2rcd13ifvqei0","pricing_plan_id":"cebpf4jnsgd1na2vs0mg"},{"bike_id":"b6edeeaa-3927-4f31-93be-c44f75ad3838","system_id":"levelo_inurba_marseille","lat":43.28372,"lon":5.38618,"is_reserved":false,"is_disabled":false,"rental_uris":{"android":"levelo://app?vid=b6edeeaa-3927-4f31-93be-c44f75ad3838","ios":"levelo://app?vid=b6edeeaa-3927-4f31-93be-c44f75ad3838"},"vehicle_type_id":"4","last_reported":1731348699,"current_range_meters":38000,"station_id":"ce4bh492rcd13ifvqdvg","pricing_plan_id":"cebpf4jnsgd1na2vs0mg"},{"bike_id":"a5c08fd2-42ae-4ef5-a030-746fcb4aa33a","system_id":"levelo_inurba_marseille","lat":43.28372,"lon":5.38628,"is_reserved":false,"is_disabled":false,"rental_uris":{"android":"levelo://app?vid=a5c08fd2-42ae-4ef5-a030-746fcb4aa33a","ios":"levelo://app?vid=a5c08fd2-42ae-4ef5-a030-746fcb4aa33a"},"vehicle_type_id":"4","last_reported":1731348699,"current_range_meters":37600,"station_id":"ce4bh492rcd13ifvqdvg","pricing_plan_id":"cebpf4jnsgd1na2vs0mg"},{"bike_id":"f8429ee2-3fd7-46cf-b406-e5dd33551bf4","system_id":"levelo_inurba_marseille","lat":43.292152,"lon":5.38363,"is_reserved":false,"is_disabled":false,"rental_uris":{"android":"levelo://app?vid=f8429ee2-3fd7-46cf-b406-e5dd33551bf4","ios":"levelo://app?vid=f8429ee2-3fd7-46cf-b406-e5dd33551bf4"},"vehicle_type_id":"4","last_reported":1731348699,"current_range_meters":26800,"station_id":"ce4bh612rcd13ifvqe6g","pricing_plan_id":"cebpf4jnsgd1na2vs0mg"},{"bike_id":"e7591e97-3fbd-4c94-9e06-36566aac4684","system_id":"levelo_inurba_marseille","lat":43.28269,"lon":5.35068,"is_reserved":false,"is_disabled":false,"rental_uris":{"android":"levelo://app?vid=e7591e97-3fbd-4c94-9e06-36566aac4684","ios":"levelo://app?vid=e7591e97-3fbd-4c94-9e06-36566aac4684"},"vehicle_type_id":"4","last_reported":1731348699,"current_range_meters":38800,"station_id":"ce4bhbp2rcd13ifvqerg","pricing_plan_id":"cebpf4jnsgd1na2vs0mg"},{"bike_id":"32f4e355-680e-4cf4-b795-c23dc6e59821","system_id":"levelo_inurba_marseille","lat":43.2903,"lon":5.38654,"is_reserved":false,"is_disabled":false,"rental_uris":{"android":"levelo://app?vid=32f4e355-680e-4cf4-b795-c23dc6e59821","ios":"levelo://app?vid=32f4e355-680e-4cf4-b795-c23dc6e59821"},"vehicle_type_id":"4","last_reported":1731348699,"current_range_meters":24800,"station_id":"ce4bh4p2rcd13ifvqe0g","pricing_plan_id":"cebpf4jnsgd1na2vs0mg"},{"bike_id":"44c0ac36-be59-42d7-b72c-bf3904c5dec4","system_id":"levelo_inurba_marseille","lat":43.30083,"lon":5.39079,"is_reserved":false,"is_disabled":false,"rental_uris":{"android":"levelo://app?vid=44c0ac36-be59-42d7-b72c-bf3904c5dec4","ios":"levelo://app?vid=44c0ac36-be59-42d7-b72c-bf3904c5dec4"},"vehicle_type_id":"4","last_reported":1731348699,"current_range_meters":11600,"station_id":"ce4bh192rcd13ifvqdb0","pricing_plan_id":"cebpf4jnsgd1na2vs0mg"},{"bike_id":"afd84fcc-4d8c-4b89-ba13-10681ba93fa3","system_id":"levelo_inurba_marseille","lat":43.29356,"lon":5.45046,"is_reserved":false,"is_disabled":false,"rental_uris":{"android":"levelo://app?vid=afd84fcc-4d8c-4b89-ba13-10681ba93fa3","ios":"levelo://app?vid=afd84fcc-4d8c-4b89-ba13-10681ba93fa3"},"vehicle_type_id":"4","last_reported":1731348699,"current_range_meters":16800,"station_id":"","pricing_plan_id":"cebpf4jnsgd1na2vs0mg"},{"bike_id":"654c2989-8388-48e6-9b06-90d02adf35ba","system_id":"levelo_inurba_marseille","lat":43.292697,"lon":5.368379,"is_reserved":false,"is_disabled":false,"rental_uris":{"android":"levelo://app?vid=654c2989-8388-48e6-9b06-90d02adf35ba","ios":"levelo://app?vid=654c2989-8388-48e6-9b06-90d02adf35ba"},"vehicle_type_id":"4","last_reported":1731348699,"current_range_meters":38000,"station_id":"ce4bhbp2rcd13ifvqesg","pricing_plan_id":"cebpf4jnsgd1na2vs0mg"},{"bike_id":"566eab89-15f5-4d14-956b-e8eac078cde9","system_id":"levelo_inurba_marseille","lat":43.23963,"lon":5.36626,"is_reserved":false,"is_disabled":false,"rental_uris":{"android":"levelo://app?vid=566eab89-15f5-4d14-956b-e8eac078cde9","ios":"levelo://app?vid=566eab89-15f5-4d14-956b-e8eac078cde9"},"vehicle_type_id":"4","last_reported":1731348699,"current_range_meters":30400,"station_id":"ce4bhi12rcd13ifvqfp0","pricing_plan_id":"cebpf4jnsgd1na2vs0mg"},{"bike_id":"dc5ccc07-d5cb-49e9-a64d-01e75a191e8c","system_id":"levelo_inurba_marseille","lat":43.28846,"lon":5.39312,"is_reserved":false,"is_disabled":false,"rental_uris":{"android":"levelo://app?vid=dc5ccc07-d5cb-49e9-a64d-01e75a191e8c","ios":"levelo://app?vid=dc5ccc07-d5cb-49e9-a64d-01e75a191e8c"},"vehicle_type_id":"4","last_reported":1731348699,"current_range_meters":38400,"station_id":"ce4bh2p2rcd13ifvqdi0","pricing_plan_id":"cebpf4jnsgd1na2vs0mg"},{"bike_id":"569cd1ce-b58b-44e7-b0c7-2228bf12f968","system_id":"levelo_inurba_marseille","lat":43.30212,"lon":5.39477,"is_reserved":false,"is_disabled":false,"rental_uris":{"android":"levelo://app?vid=569cd1ce-b58b-44e7-b0c7-2228bf12f968","ios":"levelo://app?vid=569cd1ce-b58b-44e7-b0c7-2228bf12f968"},"vehicle_type_id":"4","last_reported":1731348699,"current_range_meters":20000,"station_id":"ce4bh0p2rcd13ifvqd70","pricing_plan_id":"cebpf4jnsgd1na2vs0mg"},{"bike_id":"14eba35d-e9ab-4f53-ace3-9805296a4a6c","system_id":"levelo_inurba_marseille","lat":43.31323,"lon":5.39695,"is_reserved":false,"is_disabled":false,"rental_uris":{"android":"levelo://app?vid=14eba35d-e9ab-4f53-ace3-9805296a4a6c","ios":"levelo://app?vid=14eba35d-e9ab-4f53-ace3-9805296a4a6c"},"vehicle_type_id":"4","last_reported":1731348699,"current_range_meters":39200,"station_id":"ce4bgvp2rcd13ifvqcu0","pricing_plan_id":"cebpf4jnsgd1na2vs0mg"},{"bike_id":"4bfc7cfc-a0a8-496b-932f-a2b1757ae91d","system_id":"levelo_inurba_marseille","lat":43.24454,"lon":5.37252,"is_reserved":false,"is_disabled":false,"rental_uris":{"android":"levelo://app?vid=4bfc7cfc-a0a8-496b-932f-a2b1757ae91d","ios":"levelo://app?vid=4bfc7cfc-a0a8-496b-932f-a2b1757ae91d"},"vehicle_type_id":"4","last_reported":1731348699,"current_range_meters":26000,"station_id":"","pricing_plan_id":"cebpf4jnsgd1na2vs0mg"},{"bike_id":"036ed9a3-ecbd-42c2-8f66-aa5d9df3af7c","system_id":"levelo_inurba_marseille","lat":43.269365,"lon":5.402453,"is_reserved":false,"is_disabled":false,"rental_uris":{"android":"levelo://app?vid=036ed9a3-ecbd-42c2-8f66-aa5d9df3af7c","ios":"levelo://app?vid=036ed9a3-ecbd-42c2-8f66-aa5d9df3af7c"},"vehicle_type_id":"4","last_reported":1731348699,"current_range_meters":8000,"station_id":"cjm6bp8fraef2m0cb0m0","pricing_plan_id":"cebpf4jnsgd1na2vs0mg"},{"bike_id":"09c555e3-e1bf-4e40-ada6-393c0a76a3ce","system_id":"levelo_inurba_marseille","lat":43.29532,"lon":5.39041,"is_reserved":false,"is_disabled":false,"rental_uris":{"android":"levelo://app?vid=09c555e3-e1bf-4e40-ada6-393c0a76a3ce","ios":"levelo://app?vid=09c555e3-e1bf-4e40-ada6-393c0a76a3ce"},"vehicle_type_id":"4","last_reported":1731348699,"current_range_meters":10000,"station_id":"ce4bh3p2rcd13ifvqdp0","pricing_plan_id":"cebpf4jnsgd1na2vs0mg"},