{"last_updated":1737796165,"ttl":60,"version":"2.2","data":{"bikes":[{"bike_id":"0e07a6ae-d17e-42fa-9ec3-4f7a623f0735","system_id":"levelo_inurba_marseille","lat":43.27377,"lon":5.36268,"is_reserved":false,"is_disabled":false,"rental_uris":{"android":"levelo://app?vid=0e07a6ae-d17e-42fa-9ec3-4f7a623f0735","ios":"levelo://app?vid=0e07a6ae-d17e-42fa-9ec3-4f7a623f0735"},"vehicle_type_id":"4","last_reported":1737796165,"current_range_meters":39200,"station_id":"ce4bhbh2rcd13ifvqeo0","pricing_plan_id":"cebpf4jnsgd1na2vs0mg"},{"bike_id":"e9b432c9-0e9b-4c3d-93df-1767c2ca5cf8","system_id":"levelo_inurba_marseille","lat":43.2963,"lon":5.40627,"is_reserved":false,"is_disabled":false,"rental_uris":{"android":"levelo://app?vid=e9b432c9-0e9b-4c3d-93df-1767c2ca5cf8","ios":"levelo://app?vid=e9b432c9-0e9b-4c3d-93df-1767c2ca5cf8"},"vehicle_type_id":"4","last_reported":1737796165,"current_range_meters":38800,"station_id":"ce4bh0h2rcd13ifvqd60","pricing_plan_id":"cebpf4jnsgd1na2vs0mg"},{"bike_id":"cd72321d-b559-4772-875f-9368c2e532b3","system_id":"levelo_inurba_marseille","lat":43.29581,"lon":5.37508,"is_reserved":false,"is_disabled":true,"rental_uris":{"android":"levelo://app?vid=cd72321d-b559-4772-875f-9368c2e532b3","ios":"levelo://app?vid=cd72321d-b559-4772-875f-9368c2e532b3"},"vehicle_type_id":"4","last_reported":1737796165,"current_range_meters":36800,"station_id":"ce4bgh92rcd13ifvqb50","pricing_plan_id":"cebpf4jnsgd1na2vs0mg"},{"bike_id":"17612137-8fb0-42cb-bf1b-9e4745e20389","system_id":"levelo_inurba_marseille","lat":43.26942,"lon":5.40237,"is_reserved":false,"is_disabled":false,"rental_uris":{"android":"levelo://app?vid=17612137-8fb0-42cb-bf1b-9e4745e20389","ios":"levelo://app?vid=17612137-8fb0-42cb-bf1b-9e4745e20389"},"vehicle_type_id":"4","last_reported":1737796165,"current_range_meters":37600,"station_id":"cjm6bp8fraef2m0cb0m0","pricing_plan_id":"cebpf4jnsgd1na2vs0mg"},{"bike_id":"22fdda07-29f7-4097-aa7c-457566d3caba","system_id":"levelo_inurba_marseille","lat":43.25066,"lon":5.39556,"is_reserved":false,"is_disabled":false,"rental_uris":{"android":"levelo://app?vid=22fdda07-29f7-4097-aa7c-457566d3caba","ios":"levelo://app?vid=22fdda07-29f7-4097-aa7c-457566d3caba"},"vehicle_type_id":"4","last_reported":1737796165,"current_range_meters":30000,"station_id":"ce4bhm12rcd13ifvqgkg","pricing_plan_id":"cebpf4jnsgd1na2vs0mg"},{"bike_id":"ccb58490-949f-4ed7-b0ed-dc2b5267d3cb","system_id":"levelo_inurba_marseille","lat":43.24375,"lon":5.37055,"is_reserved":false,"is_disabled":false,"rental_uris":{"android":"levelo://app?vid=ccb58490-949f-4ed7-b0ed-dc2b5267d3cb","ios":"levelo://app?vid=ccb58490-949f-4ed7-b0ed-dc2b5267d3cb"},"vehicle_type_id":"4","last_reported":1737796165,"current_range_meters":38800,"station_id":"ce4bhhh2rcd13ifvqfk0","pricing_plan_id":"cebpf4jnsgd1na2vs0mg"},{"bike_id":"8a629989-8739-4b2f-b493-9c49dbd0bbd8","system_id":"levelo_inurba_marseille","lat":43.28733,"lon":5.36109,"is_reserved":false,"is_disabled":false,"rental_uris":{"android":"levelo://app?vid=8a629989-8739-4b2f-b493-9c49dbd0bbd8","ios":"levelo://app?vid=8a629989-8739-4b2f-b493-9c49dbd0bbd8"},"vehicle_type_id":"4","last_reported":1737796165,"current_range_meters":22800,"station_id":"cki0cbj6b192h4jlfktg","pricing_plan_id":"cebpf4jnsgd1na2vs0mg"},{"bike_id":"58d9e3df-28a3-4560-b2cd-4d33fefbd544","system_id":"levelo_inurba_marseille","lat":43.28348,"lon":5.38102,"is_reserved":false,"is_disabled":true,"rental_uris":{"android":"levelo://app?vid=58d9e3df-28a3-4560-b2cd-4d33fefbd544","ios":"levelo://app?vid=58d9e3df-28a3-4560-b2cd-4d33fefbd544"},"vehicle_type_id":"4","last_reported":1737796165,"current_range_meters":23200,"station_id":"ce4bh412rcd13ifvqdr0","pricing_plan_id":"cebpf4jnsgd1na2vs0mg"},{"bike_id":"0793f05d-0029-4d54-a0fe-9c0436426db5","system_id":"levelo_inurba_marseille","lat":43.23187,"lon":5.35552,"is_reserved":false,"is_disabled":false,"rental_uris":{"android":"levelo://app?vid=0793f05d-0029-4d54-a0fe-9c0436426db5","ios":"levelo://app?vid=0793f05d-0029-4d54-a0fe-9c0436426db5"},"vehicle_type_id":"4","last_reported":1737796165,"current_range_meters":38800,"station_id":"ce4bhu92rcd13ifvqi70","pricing_plan_id":"cebpf4jnsgd1na2vs0mg"},{"bike_id":"2e69219e-a32a-45dd-bfbe-a39a3389fa1c","system_id":"levelo_inurba_marseille","lat":43.25083,"lon":5.39534,"is_reserved":false,"is_disabled":false,"rental_uris":{"android":"levelo://app?vid=2e69219e-a32a-45dd-bfbe-a39a3389fa1c","ios":"levelo://app?vid=2e69219e-a32a-45dd-bfbe-a39a3389fa1c"},"vehicle_type_id":"4","last_reported":1737796165,"current_range_meters":4800,"station_id":"ce4bhm12rcd13ifvqgkg","pricing_plan_id":"cebpf4jnsgd1na2vs0mg"},{"bike_id":"4914872c-162c-4b5d-a9af-cff65f389580","system_id":"levelo_inurba_marseille","lat":43.295959,"lon":5.38095,"is_reserved":false,"is_disabled":true,"rental_uris":{"android":"levelo://app?vid=4914872c-162c-4b5d-a9af-cff65f389580","ios":"levelo://app?vid=4914872c-162c-4b5d-a9af-cff65f389580"},"vehicle_type_id":"4","last_reported":1737796165,"current_range_meters":400,"station_id":"ce4bgl12rcd13ifvqbo0","pricing_plan_id":"cebpf4jnsgd1na2vs0mg"},{"bike_id":"f19dc989-9b1f-48ea-abf9-5fac135f6a39","system_id":"levelo_inurba_marseille","lat":43.28263,"lon":5.35089,"is_reserved":false,"is_disabled":false,"rental_uris":{"android":"levelo://app?vid=f19dc989-9b1f-48ea-abf9-5fac135f6a39","ios":"levelo://app?vid=f19dc989-9b1f-48ea-abf9-5fac135f6a39"},"vehicle_type_id":"4","last_reported":1737796165,"current_range_meters":38800,"station_id":"ce4bhbp2rcd13ifvqerg","pricing_plan_id":"cebpf4jnsgd1na2vs0mg"},{"bike_id":"78f1bcbe-297f-4d89-be9d-ff7c664d65b5","system_id":"levelo_inurba_marseille","lat":43.271866,"lon":5.409904,"is_reserved":false,"is_disabled":false,"rental_uris":{"android":"levelo://app?vid=78f1bcbe-297f-4d89-be9d-ff7c664d65b5","ios":"levelo://app?vid=78f1bcbe-297f-4d89-be9d-ff7c664d65b5"},"vehicle_type_id":"4","last_reported":1737796165,"current_range_meters":9200,"station_id":"ce4bhl12rcd13ifvqgf0","pricing_plan_id":"cebpf4jnsgd1na2vs0mg"},{"bike_id":"9eb3a6c5-a5c4-4b17-ae2c-9c5132badcbf","system_id":"levelo_inurba_marseille","lat":43.279047,"lon":5.380055,"is_reserved":false,"is_disabled":false,"rental_uris":{"android":"levelo://app?vid=9eb3a6c5-a5c4-4b17-ae2c-9c5132badcbf","ios":"levelo://app?vid=9eb3a6c5-a5c4-4b17-ae2c-9c5132badcbf"},"vehicle_type_id":"4","last_reported":1737796165,"current_range_meters":36800,"station_id":"ce4bhf92rcd13ifvqf50","pricing_plan_id":"cebpf4jnsgd1na2vs0mg"},{"bike_id":"a1526de0-7c6b-4b0a-8de4-16d23ef0a178","system_id":"levelo_inurba_marseille","lat":43.309,"lon":5.36858,"is_reserved":false,"is_disabled":false,"rental_uris":{"android":"levelo://app?vid=a1526de0-7c6b-4b0a-8de4-16d23ef0a178","ios":"levelo://app?vid=a1526de0-7c6b-4b0a-8de4-16d23ef0a178"},"vehicle_type_id":"4","last_reported":1737796165,"current_range_meters":32000,"station_id":"ce4bgn92rcd13ifvqbvg","pricing_plan_id":"cebpf4jnsgd1na2vs0mg"},{"bike_id":"eadecfe8-1294-4c6c-a688-c77357028c6c","system_id":"levelo_inurba_marseille","lat":43.28405,"lon":5.37527,"is_reserved":false,"is_disabled":false,"rental_uris":{"android":"levelo://app?vid=eadecfe8-1294-4c6c-a688-c77357028c6c","ios":"levelo://app?vid=eadecfe8-1294-4c6c-a688-c77357028c6c"},"vehicle_type_id":"4","last_reported":1737796165,"current_range_meters":33600,"station_id":"ce4bh412rcd13ifvqds0","pricing_plan_id":"cebpf4jnsgd1na2vs0mg"},{"bike_id":"6e0e02f5-b0ae-450f-ad77-51511a2e44cf","system_id":"levelo_inurba_marseille","lat":43.30927,"lon":5.40164,"is_reserved":false,"is_disabled":false,"rental_uris":{"android":"levelo://app?vid=6e0e02f5-b0ae-450f-ad77-51511a2e44cf","ios":"levelo://app?vid=6e0e02f5-b0ae-450f-ad77-51511a2e44cf"},"vehicle_type_id":"4","last_reported":1737796165,"current_range_meters":18800,"station_id":"ce4bgvp2rcd13ifvqct0","pricing_plan_id":"cebpf4jnsgd1na2vs0mg"},{"bike_id":"453d7b61-a742-44f6-9eeb-fc0cd50991e0","system_id":"levelo_inurba_marseille","lat":43.30155,"lon":5.38081,"is_reserved":false,"is_disabled":false,"rental_uris":{"android":"levelo://app?vid=453d7b61-a742-44f6-9eeb-fc0cd50991e0","ios":"levelo://app?vid=453d7b61-a742-44f6-9eeb-fc0cd50991e0"},"vehicle_type_id":"4","last_reported":1737796165,"current_range_meters":11200,"station_id":"ce4bgjp2rcd13ifvqbh0","pricing_plan_id":"cebpf4jnsgd1na2vs0mg"},{"bike_id":"33e49a76-9189-4512-983c-ac4509edb0e7","system_id":"levelo_inurba_marseille","lat":43.30546,"lon":5.3843,"is_reserved":false,"is_disabled":false,"rental_uris":{"android":"levelo://app?vid=33e49a76-9189-4512-983c-ac4509edb0e7","ios":"levelo://app?vid=33e49a76-9189-4512-983c-ac4509edb0e7"},"vehicle_type_id":"4","last_reported":1737796165,"current_range_meters":36400,"station_id":"ce4bgg92rcd13ifvqb30","pricing_plan_id":"cebpf4jnsgd1na2vs0mg"},{"bike_id":"bd6a12b4-fce2-41ac-ad77-6c6b79e9b360","system_id":"levelo_inurba_marseille","lat":43.3078,"lon":5.37654,"is_reserved":false,"is_disabled":false,"rental_uris":{"android":"levelo://app?vid=bd6a12b4-fce2-41ac-ad77-6c6b79e9b360","ios":"levelo://app?vid=bd6a12b4-fce2-41ac-ad77-6c6b79e9b360"},"vehicle_type_id":"4","last_reported":1737796165,"current_range_meters":33600,"station_id":"ce4bgv92rcd13ifvqcq0","pricing_plan_id":"cebpf4jnsgd1na2vs0mg"},{"bike_id":"9d5ccda8-3701-45d5-9f90-ad50ba3514f0","system_id":"levelo_inurba_marseille","lat":43.28413,"lon":5.34986,"is_reserved":false,"is_disabled":false,"rental_uris":{"android":"levelo://app?vid=9d5ccda8-3701-45d5-9f90-ad50ba3514f0","ios":"levelo://app?vid=9d5ccda8-3701-45d5-9f90-ad50ba3514f0"},"vehicle_type_id":"4","last_reported":1737796165,"current_range_meters":25600,"station_id":"ce4bhbh2rcd13ifvqepg","pricing_plan_id":"cebpf4jnsgd1na2vs0mg"},{"bike_id":"24d5e14d-cfec-4626-b0ab-ae43a7a8a7a3","system_id":"levelo_inurba_marseille","lat":43.27192,"lon":5.40995,"is_reserved":false,"is_disabled":false,"rental_uris":{"android":"levelo://app?vid=24d5e14d-cfec-4626-b0ab-ae43a7a8a7a3","ios":"levelo://app?vid=24d5e14d-cfec-4626-b0ab-ae43a7a8a7a3"},"vehicle_type_id":"4","last_reported":1737796165,"current_range_meters":33200,"station_id":"ce4bhl12rcd13ifvqgf0","pricing_plan_id":"cebpf4jnsgd1na2vs0mg"},{"bike_id":"278fa707-88f8-42b0-a06f-9a61234b8e76","system_id":"levelo_inurba_marseille","lat":43.31458,"lon":5.37383,"is_reserved":false,"is_disabled":true,"rental_uris":{"android":"levelo://app?vid=278fa707-88f8-42b0-a06f-9a61234b8e76","ios":"levelo://app?vid=278fa707-88f8-42b0-a06f-9a61234b8e76"},"vehicle_type_id":"4","last_reported":1737796165,"current_range_meters":0,"station_id":"","pricing_plan_id":"cebpf4jnsgd1na2vs0mg"},{"bike_id":"5653eca4-b417-427a-a3ec-24a4ba552e07","system_id":"levelo_inurba_marseille","lat":43.29966,"lon":5.38479,"is_reserved":false,"is_disabled":true,"rental_uris":{"android":"levelo://app?vid=5653eca4-b417-427a-a3ec-24a4ba552e07","ios":"levelo://app?vid=5653eca4-b417-427a-a3ec-24a4ba552e07"},"vehicle_type_id":"4","last_reported":1737796165,"current_range_meters":34800,"station_id":"ce4bgj92rcd13ifvqbd0","pricing_plan_id":"cebpf4jnsgd1na2vs0mg"},{"bike_id":"f63fda25-b652-4a7d-98df-67faab664e5b","system_id":"levelo_inurba_marseille","lat":43.3088,"lon":5.39651,"is_reserved":false,"is_disabled":false,"rental_uris":{"android":"levelo://app?vid=f63fda25-b652-4a7d-98df-67faab664e5b","ios":"levelo://app?vid=f63fda25-b652-4a7d-98df-67faab664e5b"},"vehicle_type_id":"4","last_reported":1737796165,"current_range_meters":8800,"station_id":"ce4bh012rcd13ifvqcv0","pricing_plan_id":"cebpf4jnsgd1na2vs0mg"},{"bike_id":"c98f70cd-2fef-43ec-9bec-3d0730f1565f","system_id":"levelo_inurba_marseille","lat":43.31227,"lon":5.36867,"is_reserved":false,"is_disabled":false,"rental_uris":{"android":"levelo://app?vid=c98f70cd-2fef-43ec-9bec-3d0730f1565f","ios":"levelo://app?vid=c98f70cd-2fef-43ec-9bec-3d0730f1565f"},"vehicle_type_id":"4","last_reported":1737796165,"current_range_meters":16800,"station_id":"ce4bgl92rcd13ifvqbq0","pricing_plan_id":"cebpf4jnsgd1na2vs0mg"},{"bike_id":"b53a82bc-8f2d-4819-ade5-15ef5277c579","system_id":"levelo_inurba_marseille","lat":43.24999,"lon":5.38928,"is_reserved":false,"is_disabled":false,"rental_uris":{"android":"levelo://app?vid=b53a82bc-8f2d-4819-ade5-15ef5277c579","ios":"levelo://app?vid=b53a82bc-8f2d-4819-ade5-15ef5277c579"},"vehicle_type_id":"4","last_reported":1737796165,"current_range_meters":25600,"station_id":"ce4bhgp2rcd13ifvqfd0","pricing_plan_id":"cebpf4jnsgd1na2vs0mg"},{"bike_id":"f7ac40bf-9ec2-46b3-898f-7f04d59d08e5","system_id":"levelo_inurba_marseille","lat":43.27212,"lon":5.41003,"is_reserved":false,"is_disabled":false,"rental_uris":{"android":"levelo://app?vid=f7ac40bf-9ec2-46b3-898f-7f04d59d08e5","ios":"levelo://app?vid=f7ac40bf-9ec2-46b3-898f-7f04d59d08e5"},"vehicle_type_id":"4","last_reported":1737796165,"current_range_meters":16000,"station_id":"ce4bhl12rcd13ifvqgf0","pricing_plan_id":"cebpf4jnsgd1na2vs0mg"},{"bike_id":"d6fd12db-b649-491b-ae85-e4bec940de64","system_id":"levelo_inurba_marseille","lat":43.30514,"lon":5.36533,"is_reserved":false,"is_disabled":false,"rental_uris":{"android":"levelo://app?vid=d6fd12db-b649-491b-ae85-e4bec940de64","ios":"levelo://app?vid=d6fd12db-b649-491b-ae85-e4bec940de64"},"vehicle_type_id":"4","last_reported":1737796165,"current_range_meters":38000,"station_id":"ce4bgs12rcd13ifvqcag","pricing_plan_id":"cebpf4jnsgd1na2vs0mg"},{"bike_id":"74d6d125-42a3-45e7-91aa-9f15530a9096","system_id":"levelo_inurba_marseille","lat":43.30243,"lon":5.40084,"is_reserved":false,"is_disabled":false,"rental_uris":{"android":"levelo://app?vid=74d6d125-42a3-45e7-91aa-9f15530a9096","ios":"levelo://app?vid=74d6d125-42a3-45e7-91aa-9f15530a9096"},"vehicle_type_id":"4","last_reported":1737796165,"current_range_meters":38800,"station_id":"ce4bgvh2rcd13ifvqcs0","pricing_plan_id":"cebpf4jnsgd1na2vs0mg"},{"bike_id":"cbfbeb4c-85db-4515-beb5-24d93346f05e","system_id":"levelo_inurba_marseille","lat":43.31883,"lon":5.40747,"is_reserved":false,"is_disabled":false,"rental_uris":{"android":"levelo://app?vid=cbfbeb4c-85db-4515-beb5-24d93346f05e","ios":"levelo://app?vid=cbfbeb4c-85db-4515-beb5-24d93346f05e"},"vehicle_type_id":"4","last_reported":1737796165,"current_range_meters":30400,"station_id":"ce4bhq12rcd13ifvqhig","pricing_plan_id":"cebpf4jnsgd1na2vs0mg"},{"bike_id":"35fd246c-6ac1-460e-9b98-2f0ca407d940","system_id":"levelo_inurba_marseille","lat":43.25116,"lon":5.40359,"is_reserved":false,"is_disabled":false,"rental_uris":{"android":"levelo://app?vid=35fd246c-6ac1-460e-9b98-2f0ca407d940","ios":"levelo://app?vid=35fd246c-6ac1-460e-9b98-2f0ca407d940"},"vehicle_type_id":"4","last_reported":1737796165,"current_range_meters":8400,"station_id":"ce4bhlh2rcd13ifvqgig","pricing_plan_id":"cebpf4jnsgd1na2vs0mg"},{"bike_id":"7ff41bb0-58bb-4e7a-856f-2a2aba66f15e","system_id":"levelo_inurba_marseille","lat":43.31721,"lon":5.43723,"is_reserved":false,"is_disabled":false,"rental_uris":{"android":"levelo://app?vid=7ff41bb0-58bb-4e7a-856f-2a2aba66f15e","ios":"levelo://app?vid=7ff41bb0-58bb-4e7a-856f-2a2aba66f15e"},"vehicle_type_id":"4","last_reported":1737796165,"current_range_meters":38800,"station_id":"ce4bhp92rcd13ifvqhcg","pricing_plan_id":"cebpf4jnsgd1na2vs0mg"},{"bike_id":"a30351db-fe9e-4b20-8751-6b327939c9b8","system_id":"levelo_inurba_marseille","lat":43.30179,"lon":5.38059,"is_reserved":false,"is_disabled":false,"rental_uris":{"android":"levelo://app?vid=a30351db-fe9e-4b20-8751-6b327939c9b8","ios":"levelo://app?vid=a30351db-fe9e-4b20-8751-6b327939c9b8"},"vehicle_type_id":"4","last_reported":1737796165,"current_range_meters":34000,"station_id":"ce4bgjp2rcd13ifvqbh0","pricing_plan_id":"cebpf4jnsgd1na2vs0mg"},{"bike_id":"0b2898cc-8bce-49ee-b161-4107d74d3d81","system_id":"levelo_inurba_marseille","lat":43.22931,"lon":5.35376,"is_reserved":false,"is_disabled":false,"rental_uris":{"android":"levelo://app?vid=0b2898cc-8bce-49ee-b161-4107d74d3d81","ios":"levelo://app?vid=0b2898cc-8bce-49ee-b161-4107d74d3d81"},"vehicle_type_id":"4","last_reported":1737796165,"current_range_meters":16000,"station_id":"cpo3532slgdg3j2ikp40","pricing_plan_id":"cebpf4jnsgd1na2vs0mg"},{"bike_id":"2df95088-fa4d-4a45-a08d-861841523075","system_id":"levelo_inurba_marseille","lat":43.30583,"lon":5.39358,"is_reserved":false,"is_disabled":false,"rental_uris":{"android":"levelo://app?vid=2df95088-fa4d-4a45-a08d-861841523075","ios":"levelo://app?vid=2df95088-fa4d-4a45-a08d-861841523075"},"vehicle_type_id":"4","last_reported":1737796165,"current_range_meters":15200,"station_id":"ce4bh0p2rcd13ifvqd80","pricing_plan_id":"cebpf4jnsgd1na2vs0mg"},{"bike_id":"8aa97369-b5a6-4d5d-aadb-472a5488584c","system_id":"levelo_inurba_marseille","lat":43.28144,"lon":5.42649,"is_reserved":false,"is_disabled":false,"rental_uris":{"android":"levelo://app?vid=8aa97369-b5a6-4d5d-aadb-472a5488584c","ios":"levelo://app?vid=8aa97369-b5a6-4d5d-aadb-472a5488584c"},"vehicle_type_id":"4","last_reported":1737796165,"current_range_meters":35600,"station_id":"ce4bhnh2rcd13ifvqgug","pricing_plan_id":"cebpf4jnsgd1na2vs0mg"},{"bike_id":"9d81fede-883c-49c7-a035-bc215f39d0c5","system_id":"levelo_inurba_marseille","lat":43.29928,"lon":5.36547,"is_reserved":false,"is_disabled":false,"rental_uris":{"android":"levelo://app?vid=9d81fede-883c-49c7-a035-bc215f39d0c5","ios":"levelo://app?vid=9d81fede-883c-49c7-a035-bc215f39d0c5"},"vehicle_type_id":"4","last_reported":1737796165,"current_range_meters":37600,"station_id":"ce4bgm92rcd13ifvqbr0","pricing_plan_id":"cebpf4jnsgd1na2vs0mg"},{"bike_id":"4a3ca55c-fef4-43f3-af2c-be858b71f7ad","system_id":"levelo_inurba_marseille","lat":43.24997,"lon":5.38951,"is_reserved":false,"is_disabled":false,"rental_uris":{"android":"levelo://app?vid=4a3ca55c-fef4-43f3-af2c-be858b71f7ad","ios":"levelo://app?vid=4a3ca55c-fef4-43f3-af2c-be858b71f7ad"},"vehicle_type_id":"4","last_reported":1737796165,"current_range_meters":10000,"station_id":"ce4bhgp2rcd13ifvqfd0","pricing_plan_id":"cebpf4jnsgd1na2vs0mg"},{"bike_id":"177c4830-729e-4258-b402-8b960fc4eee9","system_id":"levelo_inurba_marseille","lat":43.29709,"lon":5.37681,"is_reserved":false,"is_disabled":false,"rental_uris":{"android":"levelo://app?vid=177c4830-729e-4258-b402-8b960fc4eee9","ios":"levelo://app?vid=177c4830-729e-4258-b402-8b960fc4eee9"},"vehicle_type_id":"4","last_reported":1737796165,"current_range_meters":16000,"station_id":"ce4bgkh2rcd13ifvqbl0","pricing_plan_id":"cebpf4jnsgd1na2vs0mg"},{"bike_id":"5a48328b-50b3-460c-8c64-2722d8c28ce3","system_id":"levelo_inurba_marseille","lat":43.30553,"lon":5.36805,"is_reserved":false,"is_disabled":false,"rental_uris":{"android":"levelo://app?vid=5a48328b-50b3-460c-8c64-2722d8c28ce3","ios":"levelo://app?vid=5a48328b-50b3-460c-8c64-2722d8c28ce3"},"vehicle_type_id":"4","last_reported":1737796165,"current_range_meters":10000,"station_id":"","pricing_plan_id":"cebpf4jnsgd1na2vs0mg"},{"bike_id":"657af941-849b-4995-8548-48fa4f4ebe32","system_id":"levelo_inurba_marseille","lat":43.27908,"lon":5.39596,"is_reserved":false,"is_disabled":false,"rental_uris":{"android":"levelo://app?vid=657af941-849b-4995-8548-48fa4f4ebe32","ios":"levelo://app?vid=657af941-849b-4995-8548-48fa4f4ebe32"},"vehicle_type_id":"4","last_reported":1737796165,"current_range_meters":34800,"station_id":"ce4bhf92rcd13ifvqf40","pricing_plan_id":"cebpf4jnsgd1na2vs0mg"},{"bike_id":"d335caac-ece3-4d77-8b25-0151b2dd3e82","system_id":"levelo_inurba_marseille","lat":43.31887,"lon":5.40742,"is_reserved":false,"is_disabled":false,"rental_uris":{"android":"levelo://app?vid=d335caac-ece3-4d77-8b25-0151b2dd3e82","ios":"levelo://app?vid=d335caac-ece3-4d77-8b25-0151b2dd3e82"},"vehicle_type_id":"4","last_reported":1737796165,"current_range_meters":25600,"station_id":"ce4bhq12rcd13ifvqhig","pricing_plan_id":"cebpf4jnsgd1na2vs0mg"},{"bike_id":"548e1f8c-f86f-437f-8d1c-280a7faaee0a","system_id":"levelo_inurba_marseille","lat":43.29609,"lon":5.37739,"is_reserved":false,"is_disabled":false,"rental_uris":{"android":"levelo://app?vid=548e1f8c-f86f-437f-8d1c-280a7faaee0a","ios":"levelo://app?vid=548e1f8c-f86f-437f-8d1c-280a7faaee0a"},"vehicle_type_id":"4","last_reported":1737796165,"current_range_meters":38400,"station_id":"ce4bgi92rcd13ifvqb90","pricing_plan_id":"cebpf4jnsgd1na2vs0mg"},{"bike_id":"3608a3cf-49c3-46d4-b709-f8e9629a9213","system_id":"levelo_inurba_marseille","lat":43.24649,"lon":5.38898,"is_reserved":false,"is_disabled":false,"rental_uris":{"android":"levelo://app?vid=3608a3cf-49c3-46d4-b709-f8e9629a9213","ios":"levelo://app?vid=3608a3cf-49c3-46d4-b709-f8e9629a9213"},"vehicle_type_id":"4","last_reported":1737796165,"current_range_meters":6000,"station_id":"ce4bhg12rcd13ifvqf60","pricing_plan_id":"cebpf4jnsgd1na2vs0mg"},{"bike_id":"63cf48fa-3995-41c8-ba18-dc59b1c7d87e","system_id":"levelo_inurba_marseille","lat":43.30247,"lon":5.4006,"is_reserved":false,"is_disabled":false,"rental_uris":{"android":"levelo://app?vid=63cf48fa-3995-41c8-ba18-dc59b1c7d87e","ios":"levelo://app?vid=63cf48fa-3995-41c8-ba18-dc59b1c7d87e"},"vehicle_type_id":"4","last_reported":1737796165,"current_range_meters":38800,"station_id":"ce4bgvh2rcd13ifvqcs0","pricing_plan_id":"cebpf4jnsgd1na2vs0mg"},{"bike_id":"e91204e9-d4fe-4e30-81a6-71464f86006e","system_id":"levelo_inurba_marseille","lat":43.29901,"lon":5.38139,"is_reserved":false,"is_disabled":true,"rental_uris":{"android":"levelo://app?vid=e91204e9-d4fe-4e30-81a6-71464f86006e","ios":"levelo://app?vid=e91204e9-d4fe-4e30-81a6-71464f86006e"},"vehicle_type_id":"4","last_reported":1737796165,"current_range_meters":36800,"station_id":"ce4bgj12rcd13ifvqbc0","pricing_plan_id":"cebpf4jnsgd1na2vs0mg"},{"bike_id":"3a4662d3-e80a-48b3-bd42-b88b54a78839","system_id":"levelo_inurba_marseille","lat":43.30627,"lon":5.40053,"is_reserved":false,"is_disabled":false,"rental_uris":{"android":"levelo://app?vid=3a4662d3-e80a-48b3-bd42-b88b54a78839","ios":"levelo://app?vid=3a4662d3-e80a-48b3-bd42-b88b54a78839"},"vehicle_type_id":"4","last_reported":1737796165,"current_range_meters":38000,"station_id":"ce4bh112rcd13ifvqda0","pricing_plan_id":"cebpf4jnsgd1na2vs0mg"},{"bike_id":"69f3cce4-d883-45c3-b106-18c4c4d3df59","system_id":"levelo_inurba_marseille","lat":43.29623,"lon":5.37717,"is_reserved":false,"is_disabled":false,"rental_uris":{"android":"levelo://app?vid=69f3cce4-d883-45c3-b106-18c4c4d3df59","ios":"levelo://app?vid=69f3cce4-d883-45c3-b106-18c4c4d3df59"},"vehicle_type_id":"4","last_reported":1737796165,"current_range_meters":22800,"station_id":"ce4bgi92rcd13ifvqb90","pricing_plan_id":"cebpf4jnsgd1na2vs0mg"},{"bike_id":"f80b5064-8646-44b5-ab4a-789923d76611","system_id":"levelo_inurba_marseille","lat":43.31892,"lon":5.40744,"is_reserved":false,"is_disabled":false,"rental_uris":{"android":"levelo://app?vid=f80b5064-8646-44b5-ab4a-789923d76611","ios":"levelo://app?vid=f80b5064-8646-44b5-ab4a-789923d76611"},"vehicle_type_id":"4","last_reported":1737796165,"current_range_meters":38800,"station_id":"ce4bhq12rcd13ifvqhig","pricing_plan_id":"cebpf4jnsgd1na2vs0mg"},{"bike_id":"28e7a171-8223-4b14-b980-1fb4aba4652e","system_id":"levelo_inurba_marseille","lat":43.26558,"lon":5.37292,"is_reserved":false,"is_disabled":false,"rental_uris":{"android":"levelo://app?vid=28e7a171-8223-4b14-b980-1fb4aba4652e","ios":"levelo://app?vid=28e7a171-8223-4b14-b980-1fb4aba4652e"},"vehicle_type_id":"4","last_reported":1737796165,"current_range_meters":34000,"station_id":"ce4bhg12rcd13ifvqf70","pricing_plan_id":"cebpf4jnsgd1na2vs0mg"},{"bike_id":"601dcbd8-fb70-4c75-9ea8-ff4043c4d5f0","system_id":"levelo_inurba_marseille","lat":43.31887,"lon":5.40742,"is_reserved":false,"is_disabled":false,"rental_uris":{"android":"levelo://app?vid=601dcbd8-fb70-4c75-9ea8-ff4043c4d5f0","ios":"levelo://app?vid=601dcbd8-fb70-4c75-9ea8-ff4043c4d5f0"},"vehicle_type_id":"4","last_reported":1737796165,"current_range_meters":16000,"station_id":"ce4bhq12rcd13ifvqhig","pricing_plan_id":"cebpf4jnsgd1na2vs0mg"},{"bike_id":"34aa6db6-d08c-4f6b-ad5e-1bad446eaa72","system_id":"levelo_inurba_marseille","lat":43.23198,"lon":5.40015,"is_reserved":false,"is_disabled":false,"rental_uris":{"android":"levelo://app?vid=34aa6db6-d08c-4f6b-ad5e-1bad446eaa72","ios":"levelo://app?vid=34aa6db6-d08c-4f6b-ad5e-1bad446eaa72"},"vehicle_type_id":"4","last_reported":1737796165,"current_range_meters":38800,"station_id":"ce4bhn12rcd13ifvqgqg","pricing_plan_id":"cebpf4jnsgd1na2vs0mg"},{"bike_id":"0a89670a-bfb9-463a-b8f9-f89fe2a7c075","system_id":"levelo_inurba_marseille","lat":43.30597,"lon":5.39362,"is_reserved":false,"is_disabled":false,"rental_uris":{"android":"levelo://app?vid=0a89670a-bfb9-463a-b8f9-f89fe2a7c075","ios":"levelo://app?vid=0a89670a-bfb9-463a-b8f9-f89fe2a7c075"},"vehicle_type_id":"4","last_reported":1737796165,"current_range_meters":30000,"station_id":"ce4bh0p2rcd13ifvqd80","pricing_plan_id":"cebpf4jnsgd1na2vs0mg"},{"bike_id":"a2dbdc7e-8ab2-4f75-8035-18bef5b78a3b","system_id":"levelo_inurba_marseille","lat":43.25852,"lon":5.39917,"is_reserved":false,"is_disabled":false,"rental_uris":{"android":"levelo://app?vid=a2dbdc7e-8ab2-4f75-8035-18bef5b78a3b","ios":"levelo://app?vid=a2dbdc7e-8ab2-4f75-8035-18bef5b78a3b"},"vehicle_type_id":"4","last_reported":1737796165,"current_range_meters":37600,"station_id":"ce4bhl92rcd13ifvqghg","pricing_plan_id":"cebpf4jnsgd1na2vs0mg"},{"bike_id":"bb11c930-9893-453f-9db9-7983c8d5e66d","system_id":"levelo_inurba_marseille","lat":43.27491,"lon":5.42465,"is_reserved":false,"is_disabled":false,"rental_uris":{"android":"levelo://app?vid=bb11c930-9893-453f-9db9-7983c8d5e66d","ios":"levelo://app?vid=bb11c930-9893-453f-9db9-7983c8d5e66d"},"vehicle_type_id":"4","last_reported":1737796165,"current_range_meters":11200,"station_id":"ce4bhn92rcd13ifvqgrg","pricing_plan_id":"cebpf4jnsgd1na2vs0mg"},{"bike_id":"96f4e4cd-02de-47bb-a775-1bc9d4fdde7c","system_id":"levelo_inurba_marseille","lat":43.29241,"lon":5.38456,"is_reserved":false,"is_disabled":true,"rental_uris":{"android":"levelo://app?vid=96f4e4cd-02de-47bb-a775-1bc9d4fdde7c","ios":"levelo://app?vid=96f4e4cd-02de-47bb-a775-1bc9d4fdde7c"},"vehicle_type_id":"4","last_reported":1737796165,"current_range_meters":18000,"station_id":"ce4bh692rcd13ifvqea0","pricing_plan_id":"cebpf4jnsgd1na2vs0mg"},{"bike_id":"9838cc78-2b53-49d3-ae13-82df62c4fd64","system_id":"levelo_inurba_marseille","lat":43.28426,"lon":5.40937,"is_reserved":false,"is_disabled":true,"rental_uris":{"android":"levelo://app?vid=9838cc78-2b53-49d3-ae13-82df62c4fd64","ios":"levelo://app?vid=9838cc78-2b53-49d3-ae13-82df62c4fd64"},"vehicle_type_id":"4","last_reported":1737796165,"current_range_meters":0,"station_id":"","pricing_plan_id":"cebpf4jnsgd1na2vs0mg"},{"bike_id":"28701f92-59dc-4ddb-93d2-df198f12b5fd","system_id":"levelo_inurba_marseille","lat":43.2971,"lon":5.37708,"is_reserved":false,"is_disabled":false,"rental_uris":{"android":"levelo://app?vid=28701f92-59dc-4ddb-93d2-df198f12b5fd","ios":"levelo://app?vid=28701f92-59dc-4ddb-93d2-df198f12b5fd"},"vehicle_type_id":"4","last_reported":1737796165,"current_range_meters":20000,"station_id":"ce4bgkh2rcd13ifvqbl0","pricing_plan_id":"cebpf4jnsgd1na2vs0mg"},{"bike_id":"9eb25b12-5e2d-4582-9d7a-264c52c86aa4","system_id":"levelo_inurba_marseille","lat":43.33772,"lon":5.37442,"is_reserved":false,"is_disabled":false,"rental_uris":{"android":"levelo://app?vid=9eb25b12-5e2d-4582-9d7a-264c52c86aa4","ios":"levelo://app?vid=9eb25b12-5e2d-4582-9d7a-264c52c86aa4"},"vehicle_type_id":"4","last_reported":1737796165,"current_range_meters":22400,"station_id":"","pricing_plan_id":"cebpf4jnsgd1na2vs0mg"},{"bike_id":"4c60e553-4748-4da9-8b2e-6df453cbc057","system_id":"levelo_inurba_marseille","lat":43.28611,"lon":5.351,"is_reserved":false,"is_disabled":false,"rental_uris":{"android":"levelo://app?vid=4c60e553-4748-4da9-8b2e-6df453cbc057","ios":"levelo://app?vid=4c60e553-4748-4da9-8b2e-6df453cbc057"},"vehicle_type_id":"4","last_reported":1737796165,"current_range_meters":33200,"station_id":"ce4bhch2rcd13ifvqeug","pricing_plan_id":"cebpf4jnsgd1na2vs0mg"},{"bike_id":"50e2033c-b25e-47fd-b2fc-453a8d6c77a3","system_id":"levelo_inurba_marseille","lat":43.3132,"lon":5.3971,"is_reserved":false,"is_disabled":true,"rental_uris":{"android":"levelo://app?vid=50e2033c-b25e-47fd-b2fc-453a8d6c77a3","ios":"levelo://app?vid=50e2033c-b25e-47fd-b2fc-453a8d6c77a3"},"vehicle_type_id":"4","last_reported":1737796165,"current_range_meters":37600,"station_id":"ce4bgvp2rcd13ifvqcu0","pricing_plan_id":"cebpf4jnsgd1na2vs0mg"},{"bike_id":"bf096a89-ee72-4f37-85bd-7b3cf9f0cb41","system_id":"levelo_inurba_marseille","lat":43.31929,"lon":5.37888,"is_reserved":false,"is_disabled":false,"rental_uris":{"android":"levelo://app?vid=bf096a89-ee72-4f37-85bd-7b3cf9f0cb41","ios":"levelo://app?vid=bf096a89-ee72-4f37-85bd-7b3cf9f0cb41"},"vehicle_type_id":"4","last_reported":1737796165,"current_range_meters":32000,"station_id":"","pricing_plan_id":"cebpf4jnsgd1na2vs0mg"},{"bike_id":"66d1f8cf-8260-44c6-89e8-aa09a832fe98","system_id":"levelo_inurba_marseille","lat":43.24665,"lon":5.38161,"is_reserved":false,"is_disabled":true,"rental_uris":{"android":"levelo://app?vid=66d1f8cf-8260-44c6-89e8-aa09a832fe98","ios":"levelo://app?vid=66d1f8cf-8260-44c6-89e8-aa09a832fe98"},"vehicle_type_id":"4","last_reported":1737796165,"current_range_meters":0,"station_id":"ce4bhih2rcd13ifvqfr0","pricing_plan_id":"cebpf4jnsgd1na2vs0mg"},{"bike_id":"37e3e111-9b37-43f0-b268-a39efb3d8c36","system_id":"levelo_inurba_marseille","lat":43.29626,"lon":5.37171,"is_reserved":false,"is_disabled":false,"rental_uris":{"android":"levelo://app?vid=37e3e111-9b37-43f0-b268-a39efb3d8c36","ios":"levelo://app?vid=37e3e111-9b37-43f0-b268-a39efb3d8c36"},"vehicle_type_id":"4","last_reported":1737796165,"current_range_meters":37600,"station_id":"ce4bgnh2rcd13ifvqc0g","pricing_plan_id":"cebpf4jnsgd1na2vs0mg"},{"bike_id":"3bd1d5e7-fb8f-49c8-888b-1bf779aebd9a","system_id":"levelo_inurba_marseille","lat":43.3017,"lon":5.38088,"is_reserved":false,"is_disabled":false,"rental_uris":{"android":"levelo://app?vid=3bd1d5e7-fb8f-49c8-888b-1bf779aebd9a","ios":"levelo://app?vid=3bd1d5e7-fb8f-49c8-888b-1bf779aebd9a"},"vehicle_type_id":"4","last_reported":1737796165,"current_range_meters":36400,"station_id":"ce4bgjp2rcd13ifvqbh0","pricing_plan_id":"cebpf4jnsgd1na2vs0mg"},{"bike_id":"838ca3f4-197a-4a87-a85c-0230e07110b2","system_id":"levelo_inurba_marseille","lat":43.26195,"lon":5.3793,"is_reserved":false,"is_disabled":false,"rental_uris":{"android":"levelo://app?vid=838ca3f4-197a-4a87-a85c-0230e07110b2","ios":"levelo://app?vid=838ca3f4-197a-4a87-a85c-0230e07110b2"},"vehicle_type_id":"4","last_reported":1737796165,"current_range_meters":35600,"station_id":"ce4bhjp2rcd13ifvqg90","pricing_plan_id":"cebpf4jnsgd1na2vs0mg"},{"bike_id":"413bb15c-dccc-42fa-870b-317497dfce2a","system_id":"levelo_inurba_marseille","lat":43.28975,"lon":5.37846,"is_reserved":false,"is_disabled":false,"rental_uris":{"android":"levelo://app?vid=413bb15c-dccc-42fa-870b-317497dfce2a","ios":"levelo://app?vid=413bb15c-dccc-42fa-870b-317497dfce2a"},"vehicle_type_id":"4","last_reported":1737796165,"current_range_meters":24000,"station_id":"ce4bh9p2rcd13ifvqed0","pricing_plan_id":"cebpf4jnsgd1na2vs0mg"},{"bike_id":"7803e0b3-1754-4c42-8a39-6d2d4c528e44","system_id":"levelo_inurba_marseille","lat":43.29293,"lon":5.37457,"is_reserved":false,"is_disabled":false,"rental_uris":{"android":"levelo://app?vid=7803e0b3-1754-4c42-8a39-6d2d4c528e44","ios":"levelo://app?vid=7803e0b3-1754-4c42-8a39-6d2d4c528e44"},"vehicle_type_id":"4","last_reported":1737796165,"current_range_meters":35200,"station_id":"ce4bgi12rcd13ifvqb70","pricing_plan_id":"cebpf4jnsgd1na2vs0mg"},{"bike_id":"51c3b1a6-c5c6-4d24-9def-8186fdad8596","system_id":"levelo_inurba_marseille","lat":43.27068,"lon":5.4227,"is_reserved":false,"is_disabled":false,"rental_uris":{"android":"levelo://app?vid=51c3b1a6-c5c6-4d24-9def-8186fdad8596","ios":"levelo://app?vid=51c3b1a6-c5c6-4d24-9def-8186fdad8596"},"vehicle_type_id":"4","last_reported":1737796165,"current_range_meters":10800,"station_id":"ce4bhk92rcd13ifvqgb0","pricing_plan_id":"cebpf4jnsgd1na2vs0mg"},{"bike_id":"99456971-cf01-4da2-8121-1af64c1c2a59","system_id":"levelo_inurba_marseille","lat":43.24994,"lon":5.38964,"is_reserved":false,"is_disabled":false,"rental_uris":{"android":"levelo://app?vid=99456971-cf01-4da2-8121-1af64c1c2a59","ios":"levelo://app?vid=99456971-cf01-4da2-8121-1af64c1c2a59"},"vehicle_type_id":"4","last_reported":1737796165,"current_range_meters":34000,"station_id":"ce4bhgp2rcd13ifvqfd0","pricing_plan_id":"cebpf4jnsgd1na2vs0mg"},{"bike_id":"c276da85-c857-4b0d-8792-c2826228a14c","system_id":"levelo_inurba_marseille","lat":43.239577,"lon":5.366537,"is_reserved":false,"is_disabled":false,"rental_uris":{"android":"levelo://app?vid=c276da85-c857-4b0d-8792-c2826228a14c","ios":"levelo://app?vid=c276da85-c857-4b0d-8792-c2826228a14c"},"vehicle_type_id":"4","last_reported":1737796165,"current_range_meters":27200,"station_id":"ce4bhi12rcd13ifvqfp0","pricing_plan_id":"cebpf4jnsgd1na2vs0mg"},{"bike_id":"867d41e1-ec2e-4484-a31e-d471983f0ab7","system_id":"levelo_inurba_marseille","lat":43.33367,"lon":5.40051,"is_reserved":false,"is_disabled":false,"rental_uris":{"android":"levelo://app?vid=867d41e1-ec2e-4484-a31e-d471983f0ab7","ios":"levelo://app?vid=867d41e1-ec2e-4484-a31e-d471983f0ab7"},"vehicle_type_id":"4","last_reported":1737796165,"current_range_meters":14800,"station_id":"","pricing_plan_id":"cebpf4jnsgd1na2vs0mg"},{"bike_id":"7a30cd33-8d30-4d84-a086-6a47673beb62","system_id":"levelo_inurba_marseille","lat":43.28003,"lon":5.41671,"is_reserved":false,"is_disabled":false,"rental_uris":{"android":"levelo://app?vid=7a30cd33-8d30-4d84-a086-6a47673beb62","ios":"levelo://app?vid=7a30cd33-8d30-4d84-a086-6a47673beb62"},"vehicle_type_id":"4","last_reported":1737796165,"current_range_meters":16400,"station_id":"ce4bho12rcd13ifvqh1g","pricing_plan_id":"cebpf4jnsgd1na2vs0mg"},{"bike_id":"e6d44643-ccac-4e3c-948f-9793a828d6ef","system_id":"levelo_inurba_marseille","lat":43.30453,"lon":5.37909,"is_reserved":false,"is_disabled":false,"rental_uris":{"android":"levelo://app?vid=e6d44643-ccac-4e3c-948f-9793a828d6ef","ios":"levelo://app?vid=e6d44643-ccac-4e3c-948f-9793a828d6ef"},"vehicle_type_id":"4","last_reported":1737796165,"current_range_meters":32400,"station_id":"ce4bgup2rcd13ifvqcn0","pricing_plan_id":"cebpf4jnsgd1na2vs0mg"},{"bike_id":"93f4f4e4-86dd-44c9-bedb-dcbdace9162d","system_id":"levelo_inurba_marseille","lat":43.23188,"lon":5.3998,"is_reserved":false,"is_disabled":false,"rental_uris":{"android":"levelo://app?vid=93f4f4e4-86dd-44c9-bedb-dcbdace9162d","ios":"levelo://app?vid=93f4f4e4-86dd-44c9-bedb-dcbdace9162d"},"vehicle_type_id":"4","last_reported":1737796165,"current_range_meters":38800,"station_id":"ce4bhn12rcd13ifvqgqg","pricing_plan_id":"cebpf4jnsgd1na2vs0mg"},{"bike_id":"347dd29e-9a9e-4a37-8ddd-6e2050aaff03","system_id":"levelo_inurba_marseille","lat":43.33733,"lon":5.39215,"is_reserved":false,"is_disabled":false,"rental_uris":{"android":"levelo://app?vid=347dd29e-9a9e-4a37-8ddd-6e2050aaff03","ios":"levelo://app?vid=347dd29e-9a9e-4a37-8ddd-6e2050aaff03"},"vehicle_type_id":"4","last_reported":1737796165,"current_range_meters":36000,"station_id":"ce4bhr92rcd13ifvqhsg","pricing_plan_id":"cebpf4jnsgd1na2vs0mg"},{"bike_id":"badee5fd-b7b4-423c-a117-af12b0d774ca","system_id":"levelo_inurba_marseille","lat":43.31728,"lon":5.42403,"is_reserved":false,"is_disabled":false,"rental_uris":{"android":"levelo://app?vid=badee5fd-b7b4-423c-a117-af12b0d774ca","ios":"levelo://app?vid=badee5fd-b7b4-423c-a117-af12b0d774ca"},"vehicle_type_id":"4","last_reported":1737796165,"current_range_meters":38800,"station_id":"ce4bhp92rcd13ifvqhbg","pricing_plan_id":"cebpf4jnsgd1na2vs0mg"},{"bike_id":"5db9538e-f496-4d36-96eb-dbc4c4bd40dc","system_id":"levelo_inurba_marseille","lat":43.24465,"lon":5.37725,"is_reserved":false,"is_disabled":false,"rental_uris":{"android":"levelo://app?vid=5db9538e-f496-4d36-96eb-dbc4c4bd40dc","ios":"levelo://app?vid=5db9538e-f496-4d36-96eb-dbc4c4bd40dc"},"vehicle_type_id":"4","last_reported":1737796165,"current_range_meters":8800,"station_id":"","pricing_plan_id":"cebpf4jnsgd1na2vs0mg"},{"bike_id":"90b8a1b1-ad54-458d-9362-f5197bbdf048","system_id":"levelo_inurba_marseille","lat":43.22938,"lon":5.35389,"is_reserved":false,"is_disabled":false,"rental_uris":{"android":"levelo://app?vid=90b8a1b1-ad54-458d-9362-f5197bbdf048","ios":"levelo://app?vid=90b8a1b1-ad54-458d-9362-f5197bbdf048"},"vehicle_type_id":"4","last_reported":1737796165,"current_range_meters":37600,"station_id":"cpo3532slgdg3j2ikp40","pricing_plan_id":"cebpf4jnsgd1na2vs0mg"},{"bike_id":"7da50f07-38d9-468b-8e2c-04df74955810","system_id":"levelo_inurba_marseille","lat":43.29553,"lon":5.42291,"is_reserved":false,"is_disabled":false,"rental_uris":{"android":"levelo://app?vid=7da50f07-38d9-468b-8e2c-04df74955810","ios":"levelo://app?vid=7da50f07-38d9-468b-8e2c-04df74955810"},"vehicle_type_id":"4","last_reported":1737796165,"current_range_meters":38800,"station_id":"ce4bhph2rcd13ifvqhdg","pricing_plan_id":"cebpf4jnsgd1na2vs0mg"},{"bike_id":"76f6d9d5-e6de-4488-8f27-9cda9f60e41b","system_id":"levelo_inurba_marseille","lat":43.29033,"lon":5.3998,"is_reserved":false,"is_disabled":false,"rental_uris":{"android":"levelo://app?vid=76f6d9d5-e6de-4488-8f27-9cda9f60e41b","ios":"levelo://app?vid=76f6d9d5-e6de-4488-8f27-9cda9f60e41b"},"vehicle_type_id":"4","last_reported":1737796165,"current_range_meters":20000,"station_id":"ce4bh392rcd13ifvqdm0","pricing_plan_id":"cebpf4jnsgd1na2vs0mg"},{"bike_id":"17d80bc7-4e21-4435-a9d8-c5ad6bf53ee0","system_id":"levelo_inurba_marseille","lat":43.28612,"lon":5.35108,"is_reserved":false,"is_disabled":false,"rental_uris":{"android":"levelo://app?vid=17d80bc7-4e21-4435-a9d8-c5ad6bf53ee0","ios":"levelo://app?vid=17d80bc7-4e21-4435-a9d8-c5ad6bf53ee0"},"vehicle_type_id":"4","last_reported":1737796165,"current_range_meters":18800,"station_id":"ce4bhch2rcd13ifvqeug","pricing_plan_id":"cebpf4jnsgd1na2vs0mg"},{"bike_id":"f4b60626-05b7-4b59-90c0-9ca9f07724cd","system_id":"levelo_inurba_marseille","lat":43.30864,"lon":5.39687,"is_reserved":false,"is_disabled":false,"rental_uris":{"android":"levelo://app?vid=f4b60626-05b7-4b59-90c0-9ca9f07724cd","ios":"levelo://app?vid=f4b60626-05b7-4b59-90c0-9ca9f07724cd"},"vehicle_type_id":"4","last_reported":1737796165,"current_range_meters":38800,"station_id":"ce4bh012rcd13ifvqcv0","pricing_plan_id":"cebpf4jnsgd1na2vs0mg"},{"bike_id":"1ec9ea3d-bdb1-4d93-b38e-647775e10909","system_id":"levelo_inurba_marseille","lat":43.3064,"lon":5.40077,"is_reserved":false,"is_disabled":false,"rental_uris":{"android":"levelo://app?vid=1ec9ea3d-bdb1-4d93-b38e-647775e10909","ios":"levelo://app?vid=1ec9ea3d-bdb1-4d93-b38e-647775e10909"},"vehicle_type_id":"4","last_reported":1737796165,"current_range_meters":36400,"station_id":"ce4bh112rcd13ifvqda0","pricing_plan_id":"cebpf4jnsgd1na2vs0mg"},{"bike_id":"e9e8d2d8-7778-4828-9603-79da05b98142","system_id":"levelo_inurba_marseille","lat":43.30885,"lon":5.3966,"is_reserved":false,"is_disabled":false,"rental_uris":{"android":"levelo://app?vid=e9e8d2d8-7778-4828-9603-79da05b98142","ios":"levelo://app?vid=e9e8d2d8-7778-4828-9603-79da05b98142"},"vehicle_type_id":"4","last_reported":1737796165,"current_range_meters":33600,"station_id":"ce4bh012rcd13ifvqcv0","pricing_plan_id":"cebpf4jnsgd1na2vs0mg"},{"bike_id":"1267de3f-5e86-4017-9522-3faa4504a3b1","system_id":"levelo_inurba_marseille","lat":43.30127,"lon":5.38093,"is_reserved":false,"is_disabled":false,"rental_uris":{"android":"levelo://app?vid=1267de3f-5e86-4017-9522-3faa4504a3b1","ios":"levelo://app?vid=1267de3f-5e86-4017-9522-3faa4504a3b1"},"vehicle_type_id":"4","last_reported":1737796165,"current_range_meters":17200,"station_id":"ce4bgjp2rcd13ifvqbh0","pricing_plan_id":"cebpf4jnsgd1na2vs0mg"},{"bike_id":"d25393ff-809a-4f6c-8bbe-8e1d24755eb2","system_id":"levelo_inurba_marseille","lat":43.27995,"lon":5.40023,"is_reserved":false,"is_disabled":false,"rental_uris":{"android":"levelo://app?vid=d25393ff-809a-4f6c-8bbe-8e1d24755eb2","ios":"levelo://app?vid=d25393ff-809a-4f6c-8bbe-8e1d24755eb2"},"vehicle_type_id":"4","last_reported":1737796165,"current_range_meters":26800,"station_id":"ce4bho92rcd13ifvqh4g","pricing_plan_id":"cebpf4jnsgd1na2vs0mg"},{"bike_id":"cd2a4c81-944c-45cd-ad92-4381608c75f0","system_id":"levelo_inurba_marseille","lat":43.23192,"lon":5.35565,"is_reserved":false,"is_disabled":false,"rental_uris":{"android":"levelo://app?vid=cd2a4c81-944c-45cd-ad92-4381608c75f0","ios":"levelo://app?vid=cd2a4c81-944c-45cd-ad92-4381608c75f0"},"vehicle_type_id":"4","last_reported":1737796165,"current_range_meters":8000,"station_id":"ce4bhu92rcd13ifvqi70","pricing_plan_id":"cebpf4jnsgd1na2vs0mg"},{"bike_id":"e39346ad-5835-4e52-9c12-c994715ae718","system_id":"levelo_inurba_marseille","lat":43.31183,"lon":5.38715,"is_reserved":false,"is_disabled":false,"rental_uris":{"android":"levelo://app?vid=e39346ad-5835-4e52-9c12-c994715ae718","ios":"levelo://app?vid=e39346ad-5835-4e52-9c12-c994715ae718"},"vehicle_type_id":"4","last_reported":1737796165,"current_range_meters":29600,"station_id":"ce4bgv12rcd13ifvqcp0","pricing_plan_id":"cebpf4jnsgd1na2vs0mg"},{"bike_id":"187a06ad-878f-48df-9f2a-b4151b98cfad","system_id":"levelo_inurba_marseille","lat":43.25722,"lon":5.41108,"is_reserved":false,"is_disabled":false,"rental_uris":{"android":"levelo://app?vid=187a06ad-878f-48df-9f2a-b4151b98cfad","ios":"levelo://app?vid=187a06ad-878f-48df-9f2a-b4151b98cfad"},"vehicle_type_id":"4","last_reported":1737796165,"current_range_meters":30000,"station_id":"ce4bhkp2rcd13ifvqgd0","pricing_plan_id":"cebpf4jnsgd1na2vs0mg"},{"bike_id":"1ab9b624-40b7-465c-a005-729f21b3d75d","system_id":"levelo_inurba_marseille","lat":43.25717,"lon":5.41111,"is_reserved":false,"is_disabled":false,"rental_uris":{"android":"levelo://app?vid=1ab9b624-40b7-465c-a005-729f21b3d75d","ios":"levelo://app?vid=1ab9b624-40b7-465c-a005-729f21b3d75d"},"vehicle_type_id":"4","last_reported":1737796165,"current_range_meters":39200,"station_id":"ce4bhkp2rcd13ifvqgd0","pricing_plan_id":"cebpf4jnsgd1na2vs0mg"},{"bike_id":"a9bf65fc-ea78-4552-82ae-9ca270a1f42e","system_id":"levelo_inurba_marseille","lat":43.29957,"lon":5.38509,"is_reserved":false,"is_disabled":false,"rental_uris":{"android":"levelo://app?vid=a9bf65fc-ea78-4552-82ae-9ca270a1f42e","ios":"levelo://app?vid=a9bf65fc-ea78-4552-82ae-9ca270a1f42e"},"vehicle_type_id":"4","last_reported":1737796165,"current_range_meters":38800,"station_id":"ce4bgj92rcd13ifvqbd0","pricing_plan_id":"cebpf4jnsgd1na2vs0mg"},{"bike_id":"ac2c47d3-0d92-4e7d-a4e8-4f0f645d2437","system_id":"levelo_inurba_marseille","lat":43.313564,"lon":5.374612,"is_reserved":false,"is_disabled":false,"rental_uris":{"android":"levelo://app?vid=ac2c47d3-0d92-4e7d-a4e8-4f0f645d2437","ios":"levelo://app?vid=ac2c47d3-0d92-4e7d-a4e8-4f0f645d2437"},"vehicle_type_id":"4","last_reported":1737796165,"current_range_meters":26000,"station_id":"ce4bgkh2rcd13ifvqbl0","pricing_plan_id":"cebpf4jnsgd1na2vs0mg"},{"bike_id":"8609669b-68c7-4651-8463-8b069e6b3840","system_id":"levelo_inurba_marseille","lat":43.319932,"lon":5.381463,"is_reserved":false,"is_disabled":false,"rental_uris":{"android":"levelo://app?vid=8609669b-68c7-4651-8463-8b069e6b3840","ios":"levelo://app?vid=8609669b-68c7-4651-8463-8b069e6b3840"},"vehicle_type_id":"4","last_reported":1737796165,"current_range_meters":37600,"station_id":"ce4bhr12rcd13ifvqhpg","pricing_plan_id":"cebpf4jnsgd1na2vs0mg"},{"bike_id":"dabad150-600b-4273-9d4a-f2cb97af39fc","system_id":"levelo_inurba_marseille","lat":43.24644,"lon":5.389078,"is_reserved":false,"is_disabled":false,"rental_uris":{"android":"levelo://app?vid=dabad150-600b-4273-9d4a-f2cb97af39fc","ios":"levelo://app?vid=dabad150-600b-4273-9d4a-f2cb97af39fc"},"vehicle_type_id":"4","last_reported":1737796165,"current_range_meters":33600,"station_id":"ce4bhg12rcd13ifvqf60","pricing_plan_id":"cebpf4jnsgd1na2vs0mg"},{"bike_id":"a5193d8e-5ab9-42da-ba19-d58641d5f5c5","system_id":"levelo_inurba_marseille","lat":43.30421,"lon":5.41281,"is_reserved":false,"is_disabled":false,"rental_uris":{"android":"levelo://app?vid=a5193d8e-5ab9-42da-ba19-d58641d5f5c5","ios":"levelo://app?vid=a5193d8e-5ab9-42da-ba19-d58641d5f5c5"},"vehicle_type_id":"4","last_reported":1737796165,"current_range_meters":38800,"station_id":"ce4bhop2rcd13ifvqh8g","pricing_plan_id":"cebpf4jnsgd1na2vs0mg"},{"bike_id":"ebb52fe5-b595-49ac-8635-7d8344c873bb","system_id":"levelo_inurba_marseille","lat":43.29846,"lon":5.36286,"is_reserved":false,"is_disabled":false,"rental_uris":{"android":"levelo://app?vid=ebb52fe5-b595-49ac-8635-7d8344c873bb","ios":"levelo://app?vid=ebb52fe5-b595-49ac-8635-7d8344c873bb"},"vehicle_type_id":"4","last_reported":1737796165,"current_range_meters":29600,"station_id":"ce4bgpp2rcd13ifvqc3g","pricing_plan_id":"cebpf4jnsgd1na2vs0mg"},{"bike_id":"aa61ce13-2df8-420f-8571-642bbc196d13","system_id":"levelo_inurba_marseille","lat":43.29609,"lon":5.37717,"is_reserved":false,"is_disabled":false,"rental_uris":{"android":"levelo://app?vid=aa61ce13-2df8-420f-8571-642bbc196d13","ios":"levelo://app?vid=aa61ce13-2df8-420f-8571-642bbc196d13"},"vehicle_type_id":"4","last_reported":1737796165,"current_range_meters":38400,"station_id":"ce4bgi92rcd13ifvqb90","pricing_plan_id":"cebpf4jnsgd1na2vs0mg"},{"bike_id":"651e7b1f-b964-40ec-8583-7fa72259f84d","system_id":"levelo_inurba_marseille","lat":43.24545,"lon":5.39523,"is_reserved":false,"is_disabled":false,"rental_uris":{"android":"levelo://app?vid=651e7b1f-b964-40ec-8583-7fa72259f84d","ios":"levelo://app?vid=651e7b1f-b964-40ec-8583-7fa72259f84d"},"vehicle_type_id":"4","last_reported":1737796165,"current_range_meters":36400,"station_id":"ce4bhlp2rcd13ifvqgjg","pricing_plan_id":"cebpf4jnsgd1na2vs0mg"},{"bike_id":"7b7e4ec5-b3c2-4353-be82-91f1c0a6d310","system_id":"levelo_inurba_marseille","lat":43.309698,"lon":5.390183,"is_reserved":false,"is_disabled":false,"rental_uris":{"android":"levelo://app?vid=7b7e4ec5-b3c2-4353-be82-91f1c0a6d310","ios":"levelo://app?vid=7b7e4ec5-b3c2-4353-be82-91f1c0a6d310"},"vehicle_type_id":"4","last_reported":1737796165,"current_range_meters":25600,"station_id":"ce4bgup2rcd13ifvqco0","pricing_plan_id":"cebpf4jnsgd1na2vs0mg"},{"bike_id":"da351246-909a-4986-a69c-176945d7bc8a","system_id":"levelo_inurba_marseille","lat":43.27655,"lon":5.38889,"is_reserved":false,"is_disabled":true,"rental_uris":{"android":"levelo://app?vid=da351246-909a-4986-a69c-176945d7bc8a","ios":"levelo://app?vid=da351246-909a-4986-a69c-176945d7bc8a"},"vehicle_type_id":"4","last_reported":1737796165,"current_range_meters":36800,"station_id":"ce4bhi12rcd13ifvqfo0","pricing_plan_id":"cebpf4jnsgd1na2vs0mg"},{"bike_id":"9d67ce9e-3476-46bd-a24e-30eb2f617760","system_id":"levelo_inurba_marseille","lat":43.29895,"lon":5.43669,"is_reserved":false,"is_disabled":false,"rental_uris":{"android":"levelo://app?vid=9d67ce9e-3476-46bd-a24e-30eb2f617760","ios":"levelo://app?vid=9d67ce9e-3476-46bd-a24e-30eb2f617760"},"vehicle_type_id":"4","last_reported":1737796165,"current_range_meters":10800,"station_id":"ce4bhpp2rcd13ifvqhfg","pricing_plan_id":"cebpf4jnsgd1na2vs0mg"},{"bike_id":"6bc75c00-5e89-4555-9632-31a8a5729bf1","system_id":"levelo_inurba_marseille","lat":43.30274,"lon":5.37711,"is_reserved":false,"is_disabled":false,"rental_uris":{"android":"levelo://app?vid=6bc75c00-5e89-4555-9632-31a8a5729bf1","ios":"levelo://app?vid=6bc75c00-5e89-4555-9632-31a8a5729bf1"},"vehicle_type_id":"4","last_reported":1737796165,"current_range_meters":12800,"station_id":"ce4bguh2rcd13ifvqcj0","pricing_plan_id":"cebpf4jnsgd1na2vs0mg"},{"bike_id":"1c35c755-8b1c-439e-8798-f1a001a3969d","system_id":"levelo_inurba_marseille","lat":43.28095,"lon":5.37873,"is_reserved":false,"is_disabled":true,"rental_uris":{"android":"levelo://app?vid=1c35c755-8b1c-439e-8798-f1a001a3969d","ios":"levelo://app?vid=1c35c755-8b1c-439e-8798-f1a001a3969d"},"vehicle_type_id":"4","last_reported":1737796165,"current_range_meters":0,"station_id":"ce4bha12rcd13ifvqee0","pricing_plan_id":"cebpf4jnsgd1na2vs0mg"},{"bike_id":"e7bbd1f2-3eab-4a3a-bb32-cf87c8be734c","system_id":"levelo_inurba_marseille","lat":43.31355,"lon":5.38504,"is_reserved":false,"is_disabled":false,"rental_uris":{"android":"levelo://app?vid=e7bbd1f2-3eab-4a3a-bb32-cf87c8be734c","ios":"levelo://app?vid=e7bbd1f2-3eab-4a3a-bb32-cf87c8be734c"},"vehicle_type_id":"4","last_reported":1737796165,"current_range_meters":8800,"station_id":"ce4bgt92rcd13ifvqcf0","pricing_plan_id":"cebpf4jnsgd1na2vs0mg"},{"bike_id":"dd9b4528-9b26-456c-a5fe-e2c36a0656cb","system_id":"levelo_inurba_marseille","lat":43.3052,"lon":5.38435,"is_reserved":false,"is_disabled":false,"rental_uris":{"android":"levelo://app?vid=dd9b4528-9b26-456c-a5fe-e2c36a0656cb","ios":"levelo://app?vid=dd9b4528-9b26-456c-a5fe-e2c36a0656cb"},"vehicle_type_id":"4","last_reported":1737796165,"current_range_meters":38800,"station_id":"ce4bgg92rcd13ifvqb30","pricing_plan_id":"cebpf4jnsgd1na2vs0mg"},{"bike_id":"d56c115f-6df7-4f94-ac43-1d7eeda28b91","system_id":"levelo_inurba_marseille","lat":43.32337,"lon":5.40615,"is_reserved":false,"is_disabled":false,"rental_uris":{"android":"levelo://app?vid=d56c115f-6df7-4f94-ac43-1d7eeda28b91","ios":"levelo://app?vid=d56c115f-6df7-4f94-ac43-1d7eeda28b91"},"vehicle_type_id":"4","last_reported":1737796165,"current_range_meters":35600,"station_id":"ce4bhq92rcd13ifvqhjg","pricing_plan_id":"cebpf4jnsgd1na2vs0mg"},{"bike_id":"bce09769-02dc-489a-bcd7-84421f3b354f","system_id":"levelo_inurba_marseille","lat":43.32341,"lon":5.38894,"is_reserved":false,"is_disabled":false,"rental_uris":{"android":"levelo://app?vid=bce09769-02dc-489a-bcd7-84421f3b354f","ios":"levelo://app?vid=bce09769-02dc-489a-bcd7-84421f3b354f"},"vehicle_type_id":"4","last_reported":1737796165,"current_range_meters":19200,"station_id":"ce4bhqp2rcd13ifvqhog","pricing_plan_id":"cebpf4jnsgd1na2vs0mg"},{"bike_id":"9ed2a593-830d-4478-aa4a-9c6b0f8b7324","system_id":"levelo_inurba_marseille","lat":43.28935,"lon":5.39626,"is_reserved":false,"is_disabled":false,"rental_uris":{"android":"levelo://app?vid=9ed2a593-830d-4478-aa4a-9c6b0f8b7324","ios":"levelo://app?vid=9ed2a593-830d-4478-aa4a-9c6b0f8b7324"},"vehicle_type_id":"4","last_reported":1737796165,"current_range_meters":17200,"station_id":"ce4bh3h2rcd13ifvqdn0","pricing_plan_id":"cebpf4jnsgd1na2vs0mg"},{"bike_id":"febe660e-c8d3-40ea-9e6c-5eb2eb78fd55","system_id":"levelo_inurba_marseille","lat":43.24678,"lon":5.38165,"is_reserved":false,"is_disabled":false,"rental_uris":{"android":"levelo://app?vid=febe660e-c8d3-40ea-9e6c-5eb2eb78fd55","ios":"levelo://app?vid=febe660e-c8d3-40ea-9e6c-5eb2eb78fd55"},"vehicle_type_id":"4","last_reported":1737796165,"current_range_meters":35600,"station_id":"ce4bhih2rcd13ifvqfr0","pricing_plan_id":"cebpf4jnsgd1na2vs0mg"},{"bike_id":"d06e4858-1735-4dcf-9f21-bf859f4d029b","system_id":"levelo_inurba_marseille","lat":43.28163,"lon":5.42604,"is_reserved":false,"is_disabled":false,"rental_uris":{"android":"levelo://app?vid=d06e4858-1735-4dcf-9f21-bf859f4d029b","ios":"levelo://app?vid=d06e4858-1735-4dcf-9f21-bf859f4d029b"},"vehicle_type_id":"4","last_reported":1737796165,"current_range_meters":38000,"station_id":"ce4bhnh2rcd13ifvqgug","pricing_plan_id":"cebpf4jnsgd1na2vs0mg"},{"bike_id":"456c720b-c4bb-42a0-89e1-2a9fe602ff7b","system_id":"levelo_inurba_marseille","lat":43.241623,"lon":5.363983,"is_reserved":false,"is_disabled":false,"rental_uris":{"android":"levelo://app?vid=456c720b-c4bb-42a0-89e1-2a9fe602ff7b","ios":"levelo://app?vid=456c720b-c4bb-42a0-89e1-2a9fe602ff7b"},"vehicle_type_id":"4","last_reported":1737796165,"current_range_meters":16000,"station_id":"cpo36qri1sfpv3e86is0","pricing_plan_id":"cebpf4jnsgd1na2vs0mg"},{"bike_id":"61df6208-7c8d-4faf-b087-b4cb2a715156","system_id":"levelo_inurba_marseille","lat":43.319807,"lon":5.381724,"is_reserved":false,"is_disabled":false,"rental_uris":{"android":"levelo://app?vid=61df6208-7c8d-4faf-b087-b4cb2a715156","ios":"levelo://app?vid=61df6208-7c8d-4faf-b087-b4cb2a715156"},"vehicle_type_id":"4","last_reported":1737796165,"current_range_meters":39200,"station_id":"ce4bhr12rcd13ifvqhpg","pricing_plan_id":"cebpf4jnsgd1na2vs0mg"},{"bike_id":"3bac8bf1-c43c-48aa-a4e1-844bfc3a5ad3","system_id":"levelo_inurba_marseille","lat":43.30147,"lon":5.3812,"is_reserved":false,"is_disabled":true,"rental_uris":{"android":"levelo://app?vid=3bac8bf1-c43c-48aa-a4e1-844bfc3a5ad3","ios":"levelo://app?vid=3bac8bf1-c43c-48aa-a4e1-844bfc3a5ad3"},"vehicle_type_id":"4","last_reported":1737796165,"current_range_meters":7200,"station_id":"ce4bgjp2rcd13ifvqbh0","pricing_plan_id":"cebpf4jnsgd1na2vs0mg"},{"bike_id":"5a5f2dc1-b179-4c8f-8366-4367f5a8a308","system_id":"levelo_inurba_marseille","lat":43.30247,"lon":5.40043,"is_reserved":false,"is_disabled":false,"rental_uris":{"android":"levelo://app?vid=5a5f2dc1-b179-4c8f-8366-4367f5a8a308","ios":"levelo://app?vid=5a5f2dc1-b179-4c8f-8366-4367f5a8a308"},"vehicle_type_id":"4","last_reported":1737796165,"current_range_meters":34000,"station_id":"ce4bgvh2rcd13ifvqcs0","pricing_plan_id":"cebpf4jnsgd1na2vs0mg"},{"bike_id":"1346ff93-9ddb-4093-aa5d-b6cb09dfef3c","system_id":"levelo_inurba_marseille","lat":43.29093,"lon":5.38184,"is_reserved":false,"is_disabled":true,"rental_uris":{"android":"levelo://app?vid=1346ff93-9ddb-4093-aa5d-b6cb09dfef3c","ios":"levelo://app?vid=1346ff93-9ddb-4093-aa5d-b6cb09dfef3c"},"vehicle_type_id":"4","last_reported":1737796165,"current_range_meters":9600,"station_id":"ce4bh512rcd13ifvqe2g","pricing_plan_id":"cebpf4jnsgd1na2vs0mg"},{"bike_id":"354a0ed3-542c-4648-b29a-783f2de4680e","system_id":"levelo_inurba_marseille","lat":43.27676,"lon":5.38932,"is_reserved":false,"is_disabled":true,"rental_uris":{"android":"levelo://app?vid=354a0ed3-542c-4648-b29a-783f2de4680e","ios":"levelo://app?vid=354a0ed3-542c-4648-b29a-783f2de4680e"},"vehicle_type_id":"4","last_reported":1737796165,"current_range_meters":33200,"station_id":"ce4bhi12rcd13ifvqfo0","pricing_plan_id":"cebpf4jnsgd1na2vs0mg"},{"bike_id":"1e77e574-f5f3-4895-8e75-d0715b84f698","system_id":"levelo_inurba_marseille","lat":43.28618,"lon":5.35104,"is_reserved":false,"is_disabled":false,"rental_uris":{"android":"levelo://app?vid=1e77e574-f5f3-4895-8e75-d0715b84f698","ios":"levelo://app?vid=1e77e574-f5f3-4895-8e75-d0715b84f698"},"vehicle_type_id":"4","last_reported":1737796165,"current_range_meters":26800,"station_id":"ce4bhch2rcd13ifvqeug","pricing_plan_id":"cebpf4jnsgd1na2vs0mg"},{"bike_id":"11868150-2b7b-4835-8a7d-261c578ab5f5","system_id":"levelo_inurba_marseille","lat":43.29879,"lon":5.38909,"is_reserved":false,"is_disabled":false,"rental_uris":{"android":"levelo://app?vid=11868150-2b7b-4835-8a7d-261c578ab5f5","ios":"levelo://app?vid=11868150-2b7b-4835-8a7d-261c578ab5f5"},"vehicle_type_id":"4","last_reported":1737796165,"current_range_meters":13600,"station_id":"ce4bh392rcd13ifvqdl0","pricing_plan_id":"cebpf4jnsgd1na2vs0mg"},{"bike_id":"61d45abe-c1c8-4675-87ac-99c23d349e9f","system_id":"levelo_inurba_marseille","lat":43.30095,"lon":5.39099,"is_reserved":false,"is_disabled":false,"rental_uris":{"android":"levelo://app?vid=61d45abe-c1c8-4675-87ac-99c23d349e9f","ios":"levelo://app?vid=61d45abe-c1c8-4675-87ac-99c23d349e9f"},"vehicle_type_id":"4","last_reported":1737796165,"current_range_meters":38800,"station_id":"ce4bh192rcd13ifvqdb0","pricing_plan_id":"cebpf4jnsgd1na2vs0mg"},{"bike_id":"d5665470-c1b3-45e5-80ac-4df7d60c2564","system_id":"levelo_inurba_marseille","lat":43.3211,"lon":5.36791,"is_reserved":false,"is_disabled":false,"rental_uris":{"android":"levelo://app?vid=d5665470-c1b3-45e5-80ac-4df7d60c2564","ios":"levelo://app?vid=d5665470-c1b3-45e5-80ac-4df7d60c2564"},"vehicle_type_id":"4","last_reported":1737796165,"current_range_meters":33600,"station_id":"ce4bhrh2rcd13ifvqhug","pricing_plan_id":"cebpf4jnsgd1na2vs0mg"},{"bike_id":"8cf51c5b-7c48-4ab5-9077-80c820ef55f3","system_id":"levelo_inurba_marseille","lat":43.27505,"lon":5.42479,"is_reserved":false,"is_disabled":false,"rental_uris":{"android":"levelo://app?vid=8cf51c5b-7c48-4ab5-9077-80c820ef55f3","ios":"levelo://app?vid=8cf51c5b-7c48-4ab5-9077-80c820ef55f3"},"vehicle_type_id":"4","last_reported":1737796165,"current_range_meters":30400,"station_id":"ce4bhn92rcd13ifvqgrg","pricing_plan_id":"cebpf4jnsgd1na2vs0mg"},{"bike_id":"f7056aa3-3530-4d26-9d7f-58e06b1fd1ad","system_id":"levelo_inurba_marseille","lat":43.29378,"lon":5.37865,"is_reserved":false,"is_disabled":true,"rental_uris":{"android":"levelo://app?vid=f7056aa3-3530-4d26-9d7f-58e06b1fd1ad","ios":"levelo://app?vid=f7056aa3-3530-4d26-9d7f-58e06b1fd1ad"},"vehicle_type_id":"4","last_reported":1737796165,"current_range_meters":34000,"station_id":"ce4bgjh2rcd13ifvqbf0","pricing_plan_id":"cebpf4jnsgd1na2vs0mg"},{"bike_id":"11cc95e4-3cf9-4012-822f-515c26b74bb6","system_id":"levelo_inurba_marseille","lat":43.33594,"lon":5.41034,"is_reserved":false,"is_disabled":false,"rental_uris":{"android":"levelo://app?vid=11cc95e4-3cf9-4012-822f-515c26b74bb6","ios":"levelo://app?vid=11cc95e4-3cf9-4012-822f-515c26b74bb6"},"vehicle_type_id":"4","last_reported":1737796165,"current_range_meters":37600,"station_id":"ce4bhqh2rcd13ifvqhmg","pricing_plan_id":"cebpf4jnsgd1na2vs0mg"},{"bike_id":"85286890-620a-4072-b2d8-62b959e506a1","system_id":"levelo_inurba_marseille","lat":43.27945,"lon":5.41052,"is_reserved":false,"is_disabled":false,"rental_uris":{"android":"levelo://app?vid=85286890-620a-4072-b2d8-62b959e506a1","ios":"levelo://app?vid=85286890-620a-4072-b2d8-62b959e506a1"},"vehicle_type_id":"4","last_reported":1737796165,"current_range_meters":30400,"station_id":"ce4bhnp2rcd13ifvqh0g","pricing_plan_id":"cebpf4jnsgd1na2vs0mg"},{"bike_id":"7163b50e-f30c-4d07-817b-00137a631fae","system_id":"levelo_inurba_marseille","lat":43.287,"lon":5.40003,"is_reserved":false,"is_disabled":false,"rental_uris":{"android":"levelo://app?vid=7163b50e-f30c-4d07-817b-00137a631fae","ios":"levelo://app?vid=7163b50e-f30c-4d07-817b-00137a631fae"},"vehicle_type_id":"4","last_reported":1737796165,"current_range_meters":38800,"station_id":"ce4bho92rcd13ifvqh3g","pricing_plan_id":"cebpf4jnsgd1na2vs0mg"},{"bike_id":"5d0ced69-255e-410b-9398-708d471fa8b7","system_id":"levelo_inurba_marseille","lat":43.30294,"lon":5.39202,"is_reserved":false,"is_disabled":true,"rental_uris":{"android":"levelo://app?vid=5d0ced69-255e-410b-9398-708d471fa8b7","ios":"levelo://app?vid=5d0ced69-255e-410b-9398-708d471fa8b7"},"vehicle_type_id":"4","last_reported":1737796165,"current_range_meters":32000,"station_id":"ce4bgkh2rcd13ifvqbk0","pricing_plan_id":"cebpf4jnsgd1na2vs0mg"},{"bike_id":"35614ed7-a0df-4792-bca2-a1978fcd9fab","system_id":"levelo_inurba_marseille","lat":43.30803,"lon":5.43537,"is_reserved":false,"is_disabled":false,"rental_uris":{"android":"levelo://app?vid=35614ed7-a0df-4792-bca2-a1978fcd9fab","ios":"levelo://app?vid=35614ed7-a0df-4792-bca2-a1978fcd9fab"},"vehicle_type_id":"4","last_reported":1737796165,"current_range_meters":36400,"station_id":"ce4bhph2rcd13ifvqheg","pricing_plan_id":"cebpf4jnsgd1na2vs0mg"},{"bike_id":"6d17c276-0a0b-4d66-8572-ced57eea72cc","system_id":"levelo_inurba_marseille","lat":43.33605,"lon":5.41012,"is_reserved":false,"is_disabled":false,"rental_uris":{"android":"levelo://app?vid=6d17c276-0a0b-4d66-8572-ced57eea72cc","ios":"levelo://app?vid=6d17c276-0a0b-4d66-8572-ced57eea72cc"},"vehicle_type_id":"4","last_reported":1737796165,"current_range_meters":14400,"station_id":"ce4bhqh2rcd13ifvqhmg","pricing_plan_id":"cebpf4jnsgd1na2vs0mg"},{"bike_id":"62d50f16-46f9-4bfa-afc9-bbc9964c1283","system_id":"levelo_inurba_marseille","lat":43.29691,"lon":5.37313,"is_reserved":false,"is_disabled":false,"rental_uris":{"android":"levelo://app?vid=62d50f16-46f9-4bfa-afc9-bbc9964c1283","ios":"levelo://app?vid=62d50f16-46f9-4bfa-afc9-bbc9964c1283"},"vehicle_type_id":"4","last_reported":1737796165,"current_range_meters":27600,"station_id":"ce4bgk12rcd13ifvqbj0","pricing_plan_id":"cebpf4jnsgd1na2vs0mg"},{"bike_id":"e2282acb-df4b-40fa-825e-ae1c7627e57a","system_id":"levelo_inurba_marseille","lat":43.29527,"lon":5.38542,"is_reserved":false,"is_disabled":false,"rental_uris":{"android":"levelo://app?vid=e2282acb-df4b-40fa-825e-ae1c7627e57a","ios":"levelo://app?vid=e2282acb-df4b-40fa-825e-ae1c7627e57a"},"vehicle_type_id":"4","last_reported":1737796165,"current_range_meters":28400,"station_id":"ce4bgih2rcd13ifvqba0","pricing_plan_id":"cebpf4jnsgd1na2vs0mg"},{"bike_id":"51d9c06e-b0ae-4316-a37b-5c2613a5ffa7","system_id":"levelo_inurba_marseille","lat":43.30465,"lon":5.37916,"is_reserved":false,"is_disabled":true,"rental_uris":{"android":"levelo://app?vid=51d9c06e-b0ae-4316-a37b-5c2613a5ffa7","ios":"levelo://app?vid=51d9c06e-b0ae-4316-a37b-5c2613a5ffa7"},"vehicle_type_id":"4","last_reported":1737796165,"current_range_meters":35600,"station_id":"ce4bgup2rcd13ifvqcn0","pricing_plan_id":"cebpf4jnsgd1na2vs0mg"},{"bike_id":"f8214737-8286-470f-b79e-874b06881938","system_id":"levelo_inurba_marseille","lat":43.30945,"lon":5.40135,"is_reserved":false,"is_disabled":false,"rental_uris":{"android":"levelo://app?vid=f8214737-8286-470f-b79e-874b06881938","ios":"levelo://app?vid=f8214737-8286-470f-b79e-874b06881938"},"vehicle_type_id":"4","last_reported":1737796165,"current_range_meters":27600,"station_id":"ce4bgvp2rcd13ifvqct0","pricing_plan_id":"cebpf4jnsgd1na2vs0mg"},{"bike_id":"b1490244-d96a-480d-94ac-0c95a579c6f9","system_id":"levelo_inurba_marseille","lat":43.29197,"lon":5.358,"is_reserved":false,"is_disabled":false,"rental_uris":{"android":"levelo://app?vid=b1490244-d96a-480d-94ac-0c95a579c6f9","ios":"levelo://app?vid=b1490244-d96a-480d-94ac-0c95a579c6f9"},"vehicle_type_id":"4","last_reported":1737796165,"current_range_meters":38400,"station_id":"ce4bhb12rcd13ifvqel0","pricing_plan_id":"cebpf4jnsgd1na2vs0mg"},{"bike_id":"1751fce2-cf09-42c4-909f-331d932110c8","system_id":"levelo_inurba_marseille","lat":43.30901,"lon":5.39631,"is_reserved":false,"is_disabled":true,"rental_uris":{"android":"levelo://app?vid=1751fce2-cf09-42c4-909f-331d932110c8","ios":"levelo://app?vid=1751fce2-cf09-42c4-909f-331d932110c8"},"vehicle_type_id":"4","last_reported":1737796165,"current_range_meters":19200,"station_id":"ce4bh012rcd13ifvqcv0","pricing_plan_id":"cebpf4jnsgd1na2vs0mg"},{"bike_id":"9e579858-e7c0-4e91-9bb1-4a23c5cf16fc","system_id":"levelo_inurba_marseille","lat":43.30269,"lon":5.40049,"is_reserved":false,"is_disabled":false,"rental_uris":{"android":"levelo://app?vid=9e579858-e7c0-4e91-9bb1-4a23c5cf16fc","ios":"levelo://app?vid=9e579858-e7c0-4e91-9bb1-4a23c5cf16fc"},"vehicle_type_id":"4","last_reported":1737796165,"current_range_meters":39200,"station_id":"ce4bgvh2rcd13ifvqcs0","pricing_plan_id":"cebpf4jnsgd1na2vs0mg"},{"bike_id":"fae8b9fa-741e-4333-91d4-1033513a072b","system_id":"levelo_inurba_marseille","lat":43.28796,"lon":5.38039,"is_reserved":false,"is_disabled":false,"rental_uris":{"android":"levelo://app?vid=fae8b9fa-741e-4333-91d4-1033513a072b","ios":"levelo://app?vid=fae8b9fa-741e-4333-91d4-1033513a072b"},"vehicle_type_id":"4","last_reported":1737796165,"current_range_meters":38400,"station_id":"ce4bgjh2rcd13ifvqbf0","pricing_plan_id":"cebpf4jnsgd1na2vs0mg"},{"bike_id":"dd0c0e86-ef73-48c7-98b7-b46e24f96f31","system_id":"levelo_inurba_marseille","lat":43.287239,"lon":5.360986,"is_reserved":false,"is_disabled":false,"rental_uris":{"android":"levelo://app?vid=dd0c0e86-ef73-48c7-98b7-b46e24f96f31","ios":"levelo://app?vid=dd0c0e86-ef73-48c7-98b7-b46e24f96f31"},"vehicle_type_id":"4","last_reported":1737796165,"current_range_meters":27600,"station_id":"cki0cbj6b192h4jlfktg","pricing_plan_id":"cebpf4jnsgd1na2vs0mg"},{"bike_id":"30d0b9a3-d103-43e5-974c-d1bc88310fc8","system_id":"levelo_inurba_marseille","lat":43.24649,"lon":5.38894,"is_reserved":false,"is_disabled":false,"rental_uris":{"android":"levelo://app?vid=30d0b9a3-d103-43e5-974c-d1bc88310fc8","ios":"levelo://app?vid=30d0b9a3-d103-43e5-974c-d1bc88310fc8"},"vehicle_type_id":"4","last_reported":1737796165,"current_range_meters":12400,"station_id":"ce4bhg12rcd13ifvqf60","pricing_plan_id":"cebpf4jnsgd1na2vs0mg"},{"bike_id":"ea624404-124a-4128-9041-089ad79942c5","system_id":"levelo_inurba_marseille","lat":43.29539,"lon":5.42261,"is_reserved":false,"is_disabled":false,"rental_uris":{"android":"levelo://app?vid=ea624404-124a-4128-9041-089ad79942c5","ios":"levelo://app?vid=ea624404-124a-4128-9041-089ad79942c5"},"vehicle_type_id":"4","last_reported":1737796165,"current_range_meters":32800,"station_id":"ce4bhph2rcd13ifvqhdg","pricing_plan_id":"cebpf4jnsgd1na2vs0mg"},{"bike_id":"7f1596e0-f6d9-4072-b5fd-4558f8ae0b9d","system_id":"levelo_inurba_marseille","lat":43.25697,"lon":5.41087,"is_reserved":false,"is_disabled":false,"rental_uris":{"android":"levelo://app?vid=7f1596e0-f6d9-4072-b5fd-4558f8ae0b9d","ios":"levelo://app?vid=7f1596e0-f6d9-4072-b5fd-4558f8ae0b9d"},"vehicle_type_id":"4","last_reported":1737796165,"current_range_meters":39200,"station_id":"ce4bhkp2rcd13ifvqgd0","pricing_plan_id":"cebpf4jnsgd1na2vs0mg"},{"bike_id":"9863b7f9-4316-4322-9f6c-3cc66b0448e2","system_id":"levelo_inurba_marseille","lat":43.279439,"lon":5.389008,"is_reserved":false,"is_disabled":true,"rental_uris":{"android":"levelo://app?vid=9863b7f9-4316-4322-9f6c-3cc66b0448e2","ios":"levelo://app?vid=9863b7f9-4316-4322-9f6c-3cc66b0448e2"},"vehicle_type_id":"4","last_reported":1737796165,"current_range_meters":16400,"station_id":"","pricing_plan_id":"cebpf4jnsgd1na2vs0mg"},{"bike_id":"dbb7768e-3a47-4131-9a61-221a0e15cbea","system_id":"levelo_inurba_marseille","lat":43.28699,"lon":5.40004,"is_reserved":false,"is_disabled":false,"rental_uris":{"android":"levelo://app?vid=dbb7768e-3a47-4131-9a61-221a0e15cbea","ios":"levelo://app?vid=dbb7768e-3a47-4131-9a61-221a0e15cbea"},"vehicle_type_id":"4","last_reported":1737796165,"current_range_meters":21600,"station_id":"ce4bho92rcd13ifvqh3g","pricing_plan_id":"cebpf4jnsgd1na2vs0mg"},{"bike_id":"99dbffeb-1c5a-4dd9-965e-fb4860ebb73e","system_id":"levelo_inurba_marseille","lat":43.30779,"lon":5.3814,"is_reserved":false,"is_disabled":false,"rental_uris":{"android":"levelo://app?vid=99dbffeb-1c5a-4dd9-965e-fb4860ebb73e","ios":"levelo://app?vid=99dbffeb-1c5a-4dd9-965e-fb4860ebb73e"},"vehicle_type_id":"4","last_reported":1737796165,"current_range_meters":36400,"station_id":"ce4bgt12rcd13ifvqce0","pricing_plan_id":"cebpf4jnsgd1na2vs0mg"},{"bike_id":"40276c2b-c10e-42ab-857d-43e7ecb22cd6","system_id":"levelo_inurba_marseille","lat":43.2718,"lon":5.41002,"is_reserved":false,"is_disabled":false,"rental_uris":{"android":"levelo://app?vid=40276c2b-c10e-42ab-857d-43e7ecb22cd6","ios":"levelo://app?vid=40276c2b-c10e-42ab-857d-43e7ecb22cd6"},"vehicle_type_id":"4","last_reported":1737796165,"current_range_meters":33600,"station_id":"ce4bhl12rcd13ifvqgf0","pricing_plan_id":"cebpf4jnsgd1na2vs0mg"},{"bike_id":"2f1b100f-9a12-47a3-9a98-3d43cc7aa6e1","system_id":"levelo_inurba_marseille","lat":43.31213,"lon":5.37211,"is_reserved":false,"is_disabled":true,"rental_uris":{"android":"levelo://app?vid=2f1b100f-9a12-47a3-9a98-3d43cc7aa6e1","ios":"levelo://app?vid=2f1b100f-9a12-47a3-9a98-3d43cc7aa6e1"},"vehicle_type_id":"4","last_reported":1737796165,"current_range_meters":9600,"station_id":"","pricing_plan_id":"cebpf4jnsgd1na2vs0mg"},{"bike_id":"c57a15e7-63c9-4c28-a5b5-54aa968174c5","system_id":"levelo_inurba_marseille","lat":43.26947,"lon":5.38635,"is_reserved":false,"is_disabled":false,"rental_uris":{"android":"levelo://app?vid=c57a15e7-63c9-4c28-a5b5-54aa968174c5","ios":"levelo://app?vid=c57a15e7-63c9-4c28-a5b5-54aa968174c5"},"vehicle_type_id":"4","last_reported":1737796165,"current_range_meters":20000,"station_id":"ce4bhh92rcd13ifvqfh0","pricing_plan_id":"cebpf4jnsgd1na2vs0mg"},{"bike_id":"32639744-96fb-4e03-9c77-a8f66e1ade83","system_id":"levelo_inurba_marseille","lat":43.23194,"lon":5.40013,"is_reserved":false,"is_disabled":false,"rental_uris":{"android":"levelo://app?vid=32639744-96fb-4e03-9c77-a8f66e1ade83","ios":"levelo://app?vid=32639744-96fb-4e03-9c77-a8f66e1ade83"},"vehicle_type_id":"4","last_reported":1737796165,"current_range_meters":27200,"station_id":"ce4bhn12rcd13ifvqgqg","pricing_plan_id":"cebpf4jnsgd1na2vs0mg"},{"bike_id":"7fa5313c-2713-490d-866d-624893d37b90","system_id":"levelo_inurba_marseille","lat":43.30329,"lon":5.40434,"is_reserved":false,"is_disabled":false,"rental_uris":{"android":"levelo://app?vid=7fa5313c-2713-490d-866d-624893d37b90","ios":"levelo://app?vid=7fa5313c-2713-490d-866d-624893d37b90"},"vehicle_type_id":"4","last_reported":1737796165,"current_range_meters":20800,"station_id":"ce4bh012rcd13ifvqd10","pricing_plan_id":"cebpf4jnsgd1na2vs0mg"},{"bike_id":"bd284d7e-bdd5-4a33-8237-5266b47a8949","system_id":"levelo_inurba_marseille","lat":43.28934,"lon":5.36629,"is_reserved":false,"is_disabled":false,"rental_uris":{"android":"levelo://app?vid=bd284d7e-bdd5-4a33-8237-5266b47a8949","ios":"levelo://app?vid=bd284d7e-bdd5-4a33-8237-5266b47a8949"},"vehicle_type_id":"4","last_reported":1737796165,"current_range_meters":38800,"station_id":"ce4bhap2rcd13ifvqek0","pricing_plan_id":"cebpf4jnsgd1na2vs0mg"},{"bike_id":"25de2542-1bfa-4339-b5e3-b1aa2e18e3bf","system_id":"levelo_inurba_marseille","lat":43.32316,"lon":5.40621,"is_reserved":false,"is_disabled":false,"rental_uris":{"android":"levelo://app?vid=25de2542-1bfa-4339-b5e3-b1aa2e18e3bf","ios":"levelo://app?vid=25de2542-1bfa-4339-b5e3-b1aa2e18e3bf"},"vehicle_type_id":"4","last_reported":1737796165,"current_range_meters":18800,"station_id":"ce4bhq92rcd13ifvqhjg","pricing_plan_id":"cebpf4jnsgd1na2vs0mg"},{"bike_id":"cb34c09d-75c7-4b86-a04f-10301f39ae15","system_id":"levelo_inurba_marseille","lat":43.28732,"lon":5.39932,"is_reserved":false,"is_disabled":false,"rental_uris":{"android":"levelo://app?vid=cb34c09d-75c7-4b86-a04f-10301f39ae15","ios":"levelo://app?vid=cb34c09d-75c7-4b86-a04f-10301f39ae15"},"vehicle_type_id":"4","last_reported":1737796165,"current_range_meters":22400,"station_id":"","pricing_plan_id":"cebpf4jnsgd1na2vs0mg"},{"bike_id":"0360ea45-d506-45c1-97b0-d45cf5b2aaea","system_id":"levelo_inurba_marseille","lat":43.29813,"lon":5.40404,"is_reserved":false,"is_disabled":false,"rental_uris":{"android":"levelo://app?vid=0360ea45-d506-45c1-97b0-d45cf5b2aaea","ios":"levelo://app?vid=0360ea45-d506-45c1-97b0-d45cf5b2aaea"},"vehicle_type_id":"4","last_reported":1737796165,"current_range_meters":38400,"station_id":"ce4bh112rcd13ifvqd90","pricing_plan_id":"cebpf4jnsgd1na2vs0mg"},{"bike_id":"34ab8843-ab91-4491-a810-75792665934f","system_id":"levelo_inurba_marseille","lat":43.31236,"lon":5.36873,"is_reserved":false,"is_disabled":false,"rental_uris":{"android":"levelo://app?vid=34ab8843-ab91-4491-a810-75792665934f","ios":"levelo://app?vid=34ab8843-ab91-4491-a810-75792665934f"},"vehicle_type_id":"4","last_reported":1737796165,"current_range_meters":38800,"station_id":"ce4bgl92rcd13ifvqbq0","pricing_plan_id":"cebpf4jnsgd1na2vs0mg"},{"bike_id":"f716f6a9-70e6-40ef-9b05-f7a8de90bad0","system_id":"levelo_inurba_marseille","lat":43.2695,"lon":5.3892,"is_reserved":false,"is_disabled":false,"rental_uris":{"android":"levelo://app?vid=f716f6a9-70e6-40ef-9b05-f7a8de90bad0","ios":"levelo://app?vid=f716f6a9-70e6-40ef-9b05-f7a8de90bad0"},"vehicle_type_id":"4","last_reported":1737796165,"current_range_meters":29600,"station_id":"ce4bhhh2rcd13ifvqfl0","pricing_plan_id":"cebpf4jnsgd1na2vs0mg"},{"bike_id":"2e95c2f9-54ee-4f43-9ca5-c70c6253eaff","system_id":"levelo_inurba_marseille","lat":43.29821,"lon":5.40414,"is_reserved":false,"is_disabled":false,"rental_uris":{"android":"levelo://app?vid=2e95c2f9-54ee-4f43-9ca5-c70c6253eaff","ios":"levelo://app?vid=2e95c2f9-54ee-4f43-9ca5-c70c6253eaff"},"vehicle_type_id":"4","last_reported":1737796165,"current_range_meters":38800,"station_id":"ce4bh112rcd13ifvqd90","pricing_plan_id":"cebpf4jnsgd1na2vs0mg"},{"bike_id":"994af511-ccca-488a-8537-a60db72ca6b4","system_id":"levelo_inurba_marseille","lat":43.288569,"lon":5.358518,"is_reserved":false,"is_disabled":false,"rental_uris":{"android":"levelo://app?vid=994af511-ccca-488a-8537-a60db72ca6b4","ios":"levelo://app?vid=994af511-ccca-488a-8537-a60db72ca6b4"},"vehicle_type_id":"4","last_reported":1737796165,"current_range_meters":6000,"station_id":"ce4bhb12rcd13ifvqem0","pricing_plan_id":"cebpf4jnsgd1na2vs0mg"},{"bike_id":"40f8b4f3-121e-4168-bcc7-b1136e897f86","system_id":"levelo_inurba_marseille","lat":43.27053,"lon":5.40261,"is_reserved":false,"is_disabled":false,"rental_uris":{"android":"levelo://app?vid=40f8b4f3-121e-4168-bcc7-b1136e897f86","ios":"levelo://app?vid=40f8b4f3-121e-4168-bcc7-b1136e897f86"},"vehicle_type_id":"4","last_reported":1737796165,"current_range_meters":9600,"station_id":"ce4bhk92rcd13ifvqgc0","pricing_plan_id":"cebpf4jnsgd1na2vs0mg"},{"bike_id":"6f0e28ce-024f-4cd7-923a-80deb29961a7","system_id":"levelo_inurba_marseille","lat":43.33029,"lon":5.39062,"is_reserved":false,"is_disabled":false,"rental_uris":{"android":"levelo://app?vid=6f0e28ce-024f-4cd7-923a-80deb29961a7","ios":"levelo://app?vid=6f0e28ce-024f-4cd7-923a-80deb29961a7"},"vehicle_type_id":"4","last_reported":1737796165,"current_range_meters":38800,"station_id":"ce4bhr92rcd13ifvqhrg","pricing_plan_id":"cebpf4jnsgd1na2vs0mg"},{"bike_id":"3da1ba3d-cc9b-4f48-84c0-3b24d0a47268","system_id":"levelo_inurba_marseille","lat":43.27658,"lon":5.38875,"is_reserved":false,"is_disabled":false,"rental_uris":{"android":"levelo://app?vid=3da1ba3d-cc9b-4f48-84c0-3b24d0a47268","ios":"levelo://app?vid=3da1ba3d-cc9b-4f48-84c0-3b24d0a47268"},"vehicle_type_id":"4","last_reported":1737796165,"current_range_meters":38800,"station_id":"ce4bhi12rcd13ifvqfo0","pricing_plan_id":"cebpf4jnsgd1na2vs0mg"},{"bike_id":"7c78a755-c7f5-4f07-a96b-621451d47948","system_id":"levelo_inurba_marseille","lat":43.298992,"lon":5.436609,"is_reserved":false,"is_disabled":false,"rental_uris":{"android":"levelo://app?vid=7c78a755-c7f5-4f07-a96b-621451d47948","ios":"levelo://app?vid=7c78a755-c7f5-4f07-a96b-621451d47948"},"vehicle_type_id":"4","last_reported":1737796165,"current_range_meters":36800,"station_id":"ce4bhpp2rcd13ifvqhfg","pricing_plan_id":"cebpf4jnsgd1na2vs0mg"},{"bike_id":"0a5b83a3-8008-4da5-9bf3-69d0e8ac4adf","system_id":"levelo_inurba_marseille","lat":43.30873,"lon":5.37196,"is_reserved":false,"is_disabled":false,"rental_uris":{"android":"levelo://app?vid=0a5b83a3-8008-4da5-9bf3-69d0e8ac4adf","ios":"levelo://app?vid=0a5b83a3-8008-4da5-9bf3-69d0e8ac4adf"},"vehicle_type_id":"4","last_reported":1737796165,"current_range_meters":39200,"station_id":"ce4bguh2rcd13ifvqckg","pricing_plan_id":"cebpf4jnsgd1na2vs0mg"},{"bike_id":"46b5180f-7165-4227-93f7-c249887331f6","system_id":"levelo_inurba_marseille","lat":43.30198,"lon":5.39477,"is_reserved":false,"is_disabled":false,"rental_uris":{"android":"levelo://app?vid=46b5180f-7165-4227-93f7-c249887331f6","ios":"levelo://app?vid=46b5180f-7165-4227-93f7-c249887331f6"},"vehicle_type_id":"4","last_reported":1737796165,"current_range_meters":30800,"station_id":"ce4bh0p2rcd13ifvqd70","pricing_plan_id":"cebpf4jnsgd1na2vs0mg"},{"bike_id":"50945626-5c1b-46b5-84b7-f66bda2de773","system_id":"levelo_inurba_marseille","lat":43.27308,"lon":5.39115,"is_reserved":false,"is_disabled":false,"rental_uris":{"android":"levelo://app?vid=50945626-5c1b-46b5-84b7-f66bda2de773","ios":"levelo://app?vid=50945626-5c1b-46b5-84b7-f66bda2de773"},"vehicle_type_id":"4","last_reported":1737796165,"current_range_meters":6000,"station_id":"ce4bhgp2rcd13ifvqfe0","pricing_plan_id":"cebpf4jnsgd1na2vs0mg"},{"bike_id":"3330f026-8ad6-4e14-a5cd-4b9e97a67a00","system_id":"levelo_inurba_marseille","lat":43.28846,"lon":5.35868,"is_reserved":false,"is_disabled":false,"rental_uris":{"android":"levelo://app?vid=3330f026-8ad6-4e14-a5cd-4b9e97a67a00","ios":"levelo://app?vid=3330f026-8ad6-4e14-a5cd-4b9e97a67a00"},"vehicle_type_id":"4","last_reported":1737796165,"current_range_meters":36800,"station_id":"ce4bhb12rcd13ifvqem0","pricing_plan_id":"cebpf4jnsgd1na2vs0mg"},{"bike_id":"e6144616-07f5-4c03-a1a3-4500e9f15267","system_id":"levelo_inurba_marseille","lat":43.28722,"lon":5.36101,"is_reserved":false,"is_disabled":false,"rental_uris":{"android":"levelo://app?vid=e6144616-07f5-4c03-a1a3-4500e9f15267","ios":"levelo://app?vid=e6144616-07f5-4c03-a1a3-4500e9f15267"},"vehicle_type_id":"4","last_reported":1737796165,"current_range_meters":39200,"station_id":"cki0cbj6b192h4jlfktg","pricing_plan_id":"cebpf4jnsgd1na2vs0mg"},{"bike_id":"ec246f4f-03f2-443f-a597-3319b523fee3","system_id":"levelo_inurba_marseille","lat":43.30241,"lon":5.4007,"is_reserved":false,"is_disabled":false,"rental_uris":{"android":"levelo://app?vid=ec246f4f-03f2-443f-a597-3319b523fee3","ios":"levelo://app?vid=ec246f4f-03f2-443f-a597-3319b523fee3"},"vehicle_type_id":"4","last_reported":1737796165,"current_range_meters":33200,"station_id":"ce4bgvh2rcd13ifvqcs0","pricing_plan_id":"cebpf4jnsgd1na2vs0mg"},{"bike_id":"29aefc36-f7e8-4c0d-b8db-29a513c4635e","system_id":"levelo_inurba_marseille","lat":43.2588,"lon":5.39918,"is_reserved":false,"is_disabled":false,"rental_uris":{"android":"levelo://app?vid=29aefc36-f7e8-4c0d-b8db-29a513c4635e","ios":"levelo://app?vid=29aefc36-f7e8-4c0d-b8db-29a513c4635e"},"vehicle_type_id":"4","last_reported":1737796165,"current_range_meters":37600,"station_id":"ce4bhl92rcd13ifvqghg","pricing_plan_id":"cebpf4jnsgd1na2vs0mg"},{"bike_id":"8acb948b-4323-4635-a547-c87000c544f0","system_id":"levelo_inurba_marseille","lat":43.24644,"lon":5.38892,"is_reserved":false,"is_disabled":false,"rental_uris":{"android":"levelo://app?vid=8acb948b-4323-4635-a547-c87000c544f0","ios":"levelo://app?vid=8acb948b-4323-4635-a547-c87000c544f0"},"vehicle_type_id":"4","last_reported":1737796165,"current_range_meters":36400,"station_id":"ce4bhg12rcd13ifvqf60","pricing_plan_id":"cebpf4jnsgd1na2vs0mg"},{"bike_id":"09dd8ffe-8d05-4d69-b6dd-462340d9ddee","system_id":"levelo_inurba_marseille","lat":43.31882,"lon":5.40745,"is_reserved":false,"is_disabled":false,"rental_uris":{"android":"levelo://app?vid=09dd8ffe-8d05-4d69-b6dd-462340d9ddee","ios":"levelo://app?vid=09dd8ffe-8d05-4d69-b6dd-462340d9ddee"},"vehicle_type_id":"4","last_reported":1737796165,"current_range_meters":39200,"station_id":"ce4bhq12rcd13ifvqhig","pricing_plan_id":"cebpf4jnsgd1na2vs0mg"},{"bike_id":"9f0c46f0-4fb9-4e17-b4b9-e5ede73a87dc","system_id":"levelo_inurba_marseille","lat":43.32373,"lon":5.38911,"is_reserved":false,"is_disabled":false,"rental_uris":{"android":"levelo://app?vid=9f0c46f0-4fb9-4e17-b4b9-e5ede73a87dc","ios":"levelo://app?vid=9f0c46f0-4fb9-4e17-b4b9-e5ede73a87dc"},"vehicle_type_id":"4","last_reported":1737796165,"current_range_meters":30000,"station_id":"ce4bhqp2rcd13ifvqhog","pricing_plan_id":"cebpf4jnsgd1na2vs0mg"},{"bike_id":"1b8ab376-cfd7-48b3-9ad4-fc3dd25c0ae2","system_id":"levelo_inurba_marseille","lat":43.3015,"lon":5.38088,"is_reserved":false,"is_disabled":false,"rental_uris":{"android":"levelo://app?vid=1b8ab376-cfd7-48b3-9ad4-fc3dd25c0ae2","ios":"levelo://app?vid=1b8ab376-cfd7-48b3-9ad4-fc3dd25c0ae2"},"vehicle_type_id":"4","last_reported":1737796165,"current_range_meters":33600,"station_id":"ce4bgjp2rcd13ifvqbh0","pricing_plan_id":"cebpf4jnsgd1na2vs0mg"},{"bike_id":"e2c56740-6efd-4d1b-b7bf-64aef6b556a5","system_id":"levelo_inurba_marseille","lat":43.29026,"lon":5.3997,"is_reserved":false,"is_disabled":false,"rental_uris":{"android":"levelo://app?vid=e2c56740-6efd-4d1b-b7bf-64aef6b556a5","ios":"levelo://app?vid=e2c56740-6efd-4d1b-b7bf-64aef6b556a5"},"vehicle_type_id":"4","last_reported":1737796165,"current_range_meters":38800,"station_id":"ce4bh392rcd13ifvqdm0","pricing_plan_id":"cebpf4jnsgd1na2vs0mg"},{"bike_id":"731cc17f-5d29-4106-9e3d-e2d318062f50","system_id":"levelo_inurba_marseille","lat":43.30139,"lon":5.38102,"is_reserved":false,"is_disabled":false,"rental_uris":{"android":"levelo://app?vid=731cc17f-5d29-4106-9e3d-e2d318062f50","ios":"levelo://app?vid=731cc17f-5d29-4106-9e3d-e2d318062f50"},"vehicle_type_id":"4","last_reported":1737796165,"current_range_meters":38400,"station_id":"ce4bgjp2rcd13ifvqbh0","pricing_plan_id":"cebpf4jnsgd1na2vs0mg"},{"bike_id":"baea81b0-ec88-4597-8150-40e38e7872d6","system_id":"levelo_inurba_marseille","lat":43.30353,"lon":5.41891,"is_reserved":false,"is_disabled":false,"rental_uris":{"android":"levelo://app?vid=baea81b0-ec88-4597-8150-40e38e7872d6","ios":"levelo://app?vid=baea81b0-ec88-4597-8150-40e38e7872d6"},"vehicle_type_id":"4","last_reported":1737796165,"current_range_meters":38400,"station_id":"ce4bhop2rcd13ifvqh7g","pricing_plan_id":"cebpf4jnsgd1na2vs0mg"},{"bike_id":"fe3679b4-09f6-4e41-9aae-9d00892cb93e","system_id":"levelo_inurba_marseille","lat":43.23192,"lon":5.3558,"is_reserved":false,"is_disabled":false,"rental_uris":{"android":"levelo://app?vid=fe3679b4-09f6-4e41-9aae-9d00892cb93e","ios":"levelo://app?vid=fe3679b4-09f6-4e41-9aae-9d00892cb93e"},"vehicle_type_id":"4","last_reported":1737796165,"current_range_meters":12800,"station_id":"ce4bhu92rcd13ifvqi70","pricing_plan_id":"cebpf4jnsgd1na2vs0mg"},{"bike_id":"ec83d336-bb57-4f7c-9458-2f829bed741b","system_id":"levelo_inurba_marseille","lat":43.31323,"lon":5.39722,"is_reserved":false,"is_disabled":false,"rental_uris":{"android":"levelo://app?vid=ec83d336-bb57-4f7c-9458-2f829bed741b","ios":"levelo://app?vid=ec83d336-bb57-4f7c-9458-2f829bed741b"},"vehicle_type_id":"4","last_reported":1737796165,"current_range_meters":27600,"station_id":"ce4bgvp2rcd13ifvqcu0","pricing_plan_id":"cebpf4jnsgd1na2vs0mg"},{"bike_id":"d0febc12-80ed-4247-acaf-cb55e9f7088d","system_id":"levelo_inurba_marseille","lat":43.29191,"lon":5.35807,"is_reserved":false,"is_disabled":false,"rental_uris":{"android":"levelo://app?vid=d0febc12-80ed-4247-acaf-cb55e9f7088d","ios":"levelo://app?vid=d0febc12-80ed-4247-acaf-cb55e9f7088d"},"vehicle_type_id":"4","last_reported":1737796165,"current_range_meters":38000,"station_id":"ce4bhb12rcd13ifvqel0","pricing_plan_id":"cebpf4jnsgd1na2vs0mg"},{"bike_id":"18c7d293-404b-4580-8011-a5cc2003b905","system_id":"levelo_inurba_marseille","lat":43.30142,"lon":5.37427,"is_reserved":false,"is_disabled":false,"rental_uris":{"android":"levelo://app?vid=18c7d293-404b-4580-8011-a5cc2003b905","ios":"levelo://app?vid=18c7d293-404b-4580-8011-a5cc2003b905"},"vehicle_type_id":"4","last_reported":1737796165,"current_range_meters":36400,"station_id":"ce4bgs92rcd13ifvqcc0","pricing_plan_id":"cebpf4jnsgd1na2vs0mg"},{"bike_id":"1fa3ed75-21f9-4b4a-a2ad-a96d5bf08b88","system_id":"levelo_inurba_marseille","lat":43.309279,"lon":5.401366,"is_reserved":false,"is_disabled":true,"rental_uris":{"android":"levelo://app?vid=1fa3ed75-21f9-4b4a-a2ad-a96d5bf08b88","ios":"levelo://app?vid=1fa3ed75-21f9-4b4a-a2ad-a96d5bf08b88"},"vehicle_type_id":"4","last_reported":1737796165,"current_range_meters":0,"station_id":"","pricing_plan_id":"cebpf4jnsgd1na2vs0mg"},{"bike_id":"2d4bf5a7-c787-4ef1-85d1-ba4e520467b9","system_id":"levelo_inurba_marseille","lat":43.309482,"lon":5.390346,"is_reserved":false,"is_disabled":false,"rental_uris":{"android":"levelo://app?vid=2d4bf5a7-c787-4ef1-85d1-ba4e520467b9","ios":"levelo://app?vid=2d4bf5a7-c787-4ef1-85d1-ba4e520467b9"},"vehicle_type_id":"4","last_reported":1737796165,"current_range_meters":32000,"station_id":"ce4bgup2rcd13ifvqco0","pricing_plan_id":"cebpf4jnsgd1na2vs0mg"},{"bike_id":"e0d9c214-8293-4f71-86e2-08688c659245","system_id":"levelo_inurba_marseille","lat":43.24796,"lon":5.37449,"is_reserved":false,"is_disabled":false,"rental_uris":{"android":"levelo://app?vid=e0d9c214-8293-4f71-86e2-08688c659245","ios":"levelo://app?vid=e0d9c214-8293-4f71-86e2-08688c659245"},"vehicle_type_id":"4","last_reported":1737796165,"current_range_meters":26000,"station_id":"ce4bhgh2rcd13ifvqfb0","pricing_plan_id":"cebpf4jnsgd1na2vs0mg"},{"bike_id":"16cba4e1-cb10-44ef-b1a1-eca95385335f","system_id":"levelo_inurba_marseille","lat":43.28424,"lon":5.34963,"is_reserved":false,"is_disabled":true,"rental_uris":{"android":"levelo://app?vid=16cba4e1-cb10-44ef-b1a1-eca95385335f","ios":"levelo://app?vid=16cba4e1-cb10-44ef-b1a1-eca95385335f"},"vehicle_type_id":"4","last_reported":1737796165,"current_range_meters":17600,"station_id":"ce4bhbh2rcd13ifvqepg","pricing_plan_id":"cebpf4jnsgd1na2vs0mg"},{"bike_id":"08ec7980-3d1f-4bf1-909e-a9f15b620fd3","system_id":"levelo_inurba_marseille","lat":43.27065,"lon":5.42277,"is_reserved":false,"is_disabled":false,"rental_uris":{"android":"levelo://app?vid=08ec7980-3d1f-4bf1-909e-a9f15b620fd3","ios":"levelo://app?vid=08ec7980-3d1f-4bf1-909e-a9f15b620fd3"},"vehicle_type_id":"4","last_reported":1737796165,"current_range_meters":28400,"station_id":"ce4bhk92rcd13ifvqgb0","pricing_plan_id":"cebpf4jnsgd1na2vs0mg"},{"bike_id":"fe2c0a7c-53ba-4fbf-b61d-4a783f0a0d3e","system_id":"levelo_inurba_marseille","lat":43.259345,"lon":5.408936,"is_reserved":false,"is_disabled":false,"rental_uris":{"android":"levelo://app?vid=fe2c0a7c-53ba-4fbf-b61d-4a783f0a0d3e","ios":"levelo://app?vid=fe2c0a7c-53ba-4fbf-b61d-4a783f0a0d3e"},"vehicle_type_id":"4","last_reported":1737796165,"current_range_meters":21600,"station_id":"ce4bhm92rcd13ifvqglg","pricing_plan_id":"cebpf4jnsgd1na2vs0mg"},{"bike_id":"0a93e885-5fbc-4f93-8605-13feb19e8a89","system_id":"levelo_inurba_marseille","lat":43.316997,"lon":5.40444,"is_reserved":false,"is_disabled":false,"rental_uris":{"android":"levelo://app?vid=0a93e885-5fbc-4f93-8605-13feb19e8a89","ios":"levelo://app?vid=0a93e885-5fbc-4f93-8605-13feb19e8a89"},"vehicle_type_id":"4","last_reported":1737796165,"current_range_meters":10000,"station_id":"ce4bh012rcd13ifvqd00","pricing_plan_id":"cebpf4jnsgd1na2vs0mg"},{"bike_id":"8f5afff4-e04c-4492-9553-1f80253820f6","system_id":"levelo_inurba_marseille","lat":43.27296,"lon":5.39112,"is_reserved":false,"is_disabled":false,"rental_uris":{"android":"levelo://app?vid=8f5afff4-e04c-4492-9553-1f80253820f6","ios":"levelo://app?vid=8f5afff4-e04c-4492-9553-1f80253820f6"},"vehicle_type_id":"4","last_reported":1737796165,"current_range_meters":20800,"station_id":"ce4bhgp2rcd13ifvqfe0","pricing_plan_id":"cebpf4jnsgd1na2vs0mg"},{"bike_id":"50f6923c-24b2-4186-af99-03897004f9d8","system_id":"levelo_inurba_marseille","lat":43.3093,"lon":5.401517,"is_reserved":false,"is_disabled":false,"rental_uris":{"android":"levelo://app?vid=50f6923c-24b2-4186-af99-03897004f9d8","ios":"levelo://app?vid=50f6923c-24b2-4186-af99-03897004f9d8"},"vehicle_type_id":"4","last_reported":1737796165,"current_range_meters":38400,"station_id":"ce4bgvp2rcd13ifvqct0","pricing_plan_id":"cebpf4jnsgd1na2vs0mg"},{"bike_id":"949de77b-2504-4ad7-a9c6-65bd58126d3f","system_id":"levelo_inurba_marseille","lat":43.29844,"lon":5.36277,"is_reserved":false,"is_disabled":false,"rental_uris":{"android":"levelo://app?vid=949de77b-2504-4ad7-a9c6-65bd58126d3f","ios":"levelo://app?vid=949de77b-2504-4ad7-a9c6-65bd58126d3f"},"vehicle_type_id":"4","last_reported":1737796165,"current_range_meters":27200,"station_id":"ce4bgpp2rcd13ifvqc3g","pricing_plan_id":"cebpf4jnsgd1na2vs0mg"},{"bike_id":"53c33c8a-c862-4308-9965-bef88b94f630","system_id":"levelo_inurba_marseille","lat":43.29731,"lon":5.37694,"is_reserved":false,"is_disabled":false,"rental_uris":{"android":"levelo://app?vid=53c33c8a-c862-4308-9965-bef88b94f630","ios":"levelo://app?vid=53c33c8a-c862-4308-9965-bef88b94f630"},"vehicle_type_id":"4","last_reported":1737796165,"current_range_meters":39200,"station_id":"ce4bgkh2rcd13ifvqbl0","pricing_plan_id":"cebpf4jnsgd1na2vs0mg"},{"bike_id":"45b366a6-6abc-4401-bb9e-1aee69db2cae","system_id":"levelo_inurba_marseille","lat":43.28093,"lon":5.39681,"is_reserved":false,"is_disabled":false,"rental_uris":{"android":"levelo://app?vid=45b366a6-6abc-4401-bb9e-1aee69db2cae","ios":"levelo://app?vid=45b366a6-6abc-4401-bb9e-1aee69db2cae"},"vehicle_type_id":"4","last_reported":1737796165,"current_range_meters":28400,"station_id":"ce4bho12rcd13ifvqh2g","pricing_plan_id":"cebpf4jnsgd1na2vs0mg"},{"bike_id":"527f4649-8f1a-4e0f-b8a9-814737744a1b","system_id":"levelo_inurba_marseille","lat":43.23961,"lon":5.3663,"is_reserved":false,"is_disabled":false,"rental_uris":{"android":"levelo://app?vid=527f4649-8f1a-4e0f-b8a9-814737744a1b","ios":"levelo://app?vid=527f4649-8f1a-4e0f-b8a9-814737744a1b"},"vehicle_type_id":"4","last_reported":1737796165,"current_range_meters":9600,"station_id":"ce4bhi12rcd13ifvqfp0","pricing_plan_id":"cebpf4jnsgd1na2vs0mg"},{"bike_id":"40d16cdd-1de4-4773-88c9-45aa6c05579e","system_id":"levelo_inurba_marseille","lat":43.29709,"lon":5.37709,"is_reserved":false,"is_disabled":false,"rental_uris":{"android":"levelo://app?vid=40d16cdd-1de4-4773-88c9-45aa6c05579e","ios":"levelo://app?vid=40d16cdd-1de4-4773-88c9-45aa6c05579e"},"vehicle_type_id":"4","last_reported":1737796165,"current_range_meters":38400,"station_id":"ce4bgkh2rcd13ifvqbl0","pricing_plan_id":"cebpf4jnsgd1na2vs0mg"},{"bike_id":"4972c406-edb6-458c-8998-8ed23739e617","system_id":"levelo_inurba_marseille","lat":43.28267,"lon":5.35058,"is_reserved":false,"is_disabled":false,"rental_uris":{"android":"levelo://app?vid=4972c406-edb6-458c-8998-8ed23739e617","ios":"levelo://app?vid=4972c406-edb6-458c-8998-8ed23739e617"},"vehicle_type_id":"4","last_reported":1737796165,"current_range_meters":31200,"station_id":"ce4bhbp2rcd13ifvqerg","pricing_plan_id":"cebpf4jnsgd1na2vs0mg"},{"bike_id":"f4a67fd7-7ba0-462e-b321-724410a83bc3","system_id":"levelo_inurba_marseille","lat":43.28624,"lon":5.35085,"is_reserved":false,"is_disabled":true,"rental_uris":{"android":"levelo://app?vid=f4a67fd7-7ba0-462e-b321-724410a83bc3","ios":"levelo://app?vid=f4a67fd7-7ba0-462e-b321-724410a83bc3"},"vehicle_type_id":"4","last_reported":1737796165,"current_range_meters":18000,"station_id":"ce4bhch2rcd13ifvqeug","pricing_plan_id":"cebpf4jnsgd1na2vs0mg"},{"bike_id":"841a1767-078e-4378-8ef2-78843610d635","system_id":"levelo_inurba_marseille","lat":43.23185,"lon":5.35554,"is_reserved":false,"is_disabled":false,"rental_uris":{"android":"levelo://app?vid=841a1767-078e-4378-8ef2-78843610d635","ios":"levelo://app?vid=841a1767-078e-4378-8ef2-78843610d635"},"vehicle_type_id":"4","last_reported":1737796165,"current_range_meters":8000,"station_id":"ce4bhu92rcd13ifvqi70","pricing_plan_id":"cebpf4jnsgd1na2vs0mg"},{"bike_id":"d531adb9-2312-4b34-a321-08be0fda69cf","system_id":"levelo_inurba_marseille","lat":43.295767,"lon":5.400438,"is_reserved":false,"is_disabled":true,"rental_uris":{"android":"levelo://app?vid=d531adb9-2312-4b34-a321-08be0fda69cf","ios":"levelo://app?vid=d531adb9-2312-4b34-a321-08be0fda69cf"},"vehicle_type_id":"4","last_reported":1737796165,"current_range_meters":0,"station_id":"","pricing_plan_id":"cebpf4jnsgd1na2vs0mg"},{"bike_id":"4f235246-6af4-4354-b97c-cb0d796ab400","system_id":"levelo_inurba_marseille","lat":43.30139,"lon":5.37427,"is_reserved":false,"is_disabled":false,"rental_uris":{"android":"levelo://app?vid=4f235246-6af4-4354-b97c-cb0d796ab400","ios":"levelo://app?vid=4f235246-6af4-4354-b97c-cb0d796ab400"},"vehicle_type_id":"4","last_reported":1737796165,"current_range_meters":19600,"station_id":"ce4bgs92rcd13ifvqcc0","pricing_plan_id":"cebpf4jnsgd1na2vs0mg"},{"bike_id":"82939a3c-3751-48f0-bc49-554140d28b86","system_id":"levelo_inurba_marseille","lat":43.30805,"lon":5.38138,"is_reserved":false,"is_disabled":false,"rental_uris":{"android":"levelo://app?vid=82939a3c-3751-48f0-bc49-554140d28b86","ios":"levelo://app?vid=82939a3c-3751-48f0-bc49-554140d28b86"},"vehicle_type_id":"4","last_reported":1737796165,"current_range_meters":33600,"station_id":"ce4bgt12rcd13ifvqce0","pricing_plan_id":"cebpf4jnsgd1na2vs0mg"},{"bike_id":"a12ae140-7d40-4453-aee3-1f900eeb57d0","system_id":"levelo_inurba_marseille","lat":43.31716,"lon":5.42409,"is_reserved":false,"is_disabled":false,"rental_uris":{"android":"levelo://app?vid=a12ae140-7d40-4453-aee3-1f900eeb57d0","ios":"levelo://app?vid=a12ae140-7d40-4453-aee3-1f900eeb57d0"},"vehicle_type_id":"4","last_reported":1737796165,"current_range_meters":38800,"station_id":"ce4bhp92rcd13ifvqhbg","pricing_plan_id":"cebpf4jnsgd1na2vs0mg"},{"bike_id":"afd53ee7-c48e-4c7a-9b64-51b0a9bab2be","system_id":"levelo_inurba_marseille","lat":43.29851,"lon":5.36287,"is_reserved":false,"is_disabled":false,"rental_uris":{"android":"levelo://app?vid=afd53ee7-c48e-4c7a-9b64-51b0a9bab2be","ios":"levelo://app?vid=afd53ee7-c48e-4c7a-9b64-51b0a9bab2be"},"vehicle_type_id":"4","last_reported":1737796165,"current_range_meters":26000,"station_id":"ce4bgpp2rcd13ifvqc3g","pricing_plan_id":"cebpf4jnsgd1na2vs0mg"},{"bike_id":"e10eddc2-a25b-4033-9090-3499aa1e7f6b","system_id":"levelo_inurba_marseille","lat":43.27136,"lon":5.41005,"is_reserved":false,"is_disabled":false,"rental_uris":{"android":"levelo://app?vid=e10eddc2-a25b-4033-9090-3499aa1e7f6b","ios":"levelo://app?vid=e10eddc2-a25b-4033-9090-3499aa1e7f6b"},"vehicle_type_id":"4","last_reported":1737796165,"current_range_meters":8000,"station_id":"ce4bhl12rcd13ifvqgf0","pricing_plan_id":"cebpf4jnsgd1na2vs0mg"},{"bike_id":"adce305b-52ab-48ed-b869-88a382f8d738","system_id":"levelo_inurba_marseille","lat":43.24018,"lon":5.37769,"is_reserved":false,"is_disabled":false,"rental_uris":{"android":"levelo://app?vid=adce305b-52ab-48ed-b869-88a382f8d738","ios":"levelo://app?vid=adce305b-52ab-48ed-b869-88a382f8d738"},"vehicle_type_id":"4","last_reported":1737796165,"current_range_meters":29600,"station_id":"","pricing_plan_id":"cebpf4jnsgd1na2vs0mg"},{"bike_id":"b64d880e-4583-44f0-8c16-3495e23cf3e5","system_id":"levelo_inurba_marseille","lat":43.29897,"lon":5.43681,"is_reserved":false,"is_disabled":false,"rental_uris":{"android":"levelo://app?vid=b64d880e-4583-44f0-8c16-3495e23cf3e5","ios":"levelo://app?vid=b64d880e-4583-44f0-8c16-3495e23cf3e5"},"vehicle_type_id":"4","last_reported":1737796165,"current_range_meters":24000,"station_id":"ce4bhpp2rcd13ifvqhfg","pricing_plan_id":"cebpf4jnsgd1na2vs0mg"},{"bike_id":"c4215d0c-e91d-4ebd-b4a6-2817e994cc3b","system_id":"levelo_inurba_marseille","lat":43.30885,"lon":5.39676,"is_reserved":false,"is_disabled":false,"rental_uris":{"android":"levelo://app?vid=c4215d0c-e91d-4ebd-b4a6-2817e994cc3b","ios":"levelo://app?vid=c4215d0c-e91d-4ebd-b4a6-2817e994cc3b"},"vehicle_type_id":"4","last_reported":1737796165,"current_range_meters":38000,"station_id":"ce4bh012rcd13ifvqcv0","pricing_plan_id":"cebpf4jnsgd1na2vs0mg"},{"bike_id":"f99b4f63-9184-496c-bcbb-ae534710685d","system_id":"levelo_inurba_marseille","lat":43.29884,"lon":5.36249,"is_reserved":false,"is_disabled":false,"rental_uris":{"android":"levelo://app?vid=f99b4f63-9184-496c-bcbb-ae534710685d","ios":"levelo://app?vid=f99b4f63-9184-496c-bcbb-ae534710685d"},"vehicle_type_id":"4","last_reported":1737796165,"current_range_meters":37600,"station_id":"","pricing_plan_id":"cebpf4jnsgd1na2vs0mg"},{"bike_id":"38785526-2d95-4881-99f3-c8e7a3a152dc","system_id":"levelo_inurba_marseille","lat":43.24403,"lon":5.37058,"is_reserved":false,"is_disabled":false,"rental_uris":{"android":"levelo://app?vid=38785526-2d95-4881-99f3-c8e7a3a152dc","ios":"levelo://app?vid=38785526-2d95-4881-99f3-c8e7a3a152dc"},"vehicle_type_id":"4","last_reported":1737796165,"current_range_meters":24400,"station_id":"ce4bhhh2rcd13ifvqfk0","pricing_plan_id":"cebpf4jnsgd1na2vs0mg"},{"bike_id":"204f6510-53d8-490f-be2f-3c46370c37fa","system_id":"levelo_inurba_marseille","lat":43.24394,"lon":5.37067,"is_reserved":false,"is_disabled":false,"rental_uris":{"android":"levelo://app?vid=204f6510-53d8-490f-be2f-3c46370c37fa","ios":"levelo://app?vid=204f6510-53d8-490f-be2f-3c46370c37fa"},"vehicle_type_id":"4","last_reported":1737796165,"current_range_meters":9200,"station_id":"ce4bhhh2rcd13ifvqfk0","pricing_plan_id":"cebpf4jnsgd1na2vs0mg"},{"bike_id":"f80d01d0-a712-409a-8ab3-b8a044fec525","system_id":"levelo_inurba_marseille","lat":43.25858,"lon":5.39908,"is_reserved":false,"is_disabled":true,"rental_uris":{"android":"levelo://app?vid=f80d01d0-a712-409a-8ab3-b8a044fec525","ios":"levelo://app?vid=f80d01d0-a712-409a-8ab3-b8a044fec525"},"vehicle_type_id":"4","last_reported":1737796165,"current_range_meters":38800,"station_id":"ce4bhl92rcd13ifvqghg","pricing_plan_id":"cebpf4jnsgd1na2vs0mg"},{"bike_id":"375c54aa-d8c3-44cb-9610-967b44886ba6","system_id":"levelo_inurba_marseille","lat":43.33593,"lon":5.41,"is_reserved":false,"is_disabled":false,"rental_uris":{"android":"levelo://app?vid=375c54aa-d8c3-44cb-9610-967b44886ba6","ios":"levelo://app?vid=375c54aa-d8c3-44cb-9610-967b44886ba6"},"vehicle_type_id":"4","last_reported":1737796165,"current_range_meters":39200,"station_id":"ce4bhqh2rcd13ifvqhmg","pricing_plan_id":"cebpf4jnsgd1na2vs0mg"},{"bike_id":"782abfdb-d15e-4093-8359-850125ebbe0e","system_id":"levelo_inurba_marseille","lat":43.28959,"lon":5.37846,"is_reserved":false,"is_disabled":false,"rental_uris":{"android":"levelo://app?vid=782abfdb-d15e-4093-8359-850125ebbe0e","ios":"levelo://app?vid=782abfdb-d15e-4093-8359-850125ebbe0e"},"vehicle_type_id":"4","last_reported":1737796165,"current_range_meters":39200,"station_id":"ce4bh9p2rcd13ifvqed0","pricing_plan_id":"cebpf4jnsgd1na2vs0mg"},{"bike_id":"94a6fd25-745d-4025-8a00-b1a77cd0f7be","system_id":"levelo_inurba_marseille","lat":43.30776,"lon":5.37665,"is_reserved":false,"is_disabled":true,"rental_uris":{"android":"levelo://app?vid=94a6fd25-745d-4025-8a00-b1a77cd0f7be","ios":"levelo://app?vid=94a6fd25-745d-4025-8a00-b1a77cd0f7be"},"vehicle_type_id":"4","last_reported":1737796165,"current_range_meters":36400,"station_id":"ce4bgv92rcd13ifvqcq0","pricing_plan_id":"cebpf4jnsgd1na2vs0mg"},{"bike_id":"0da05c91-b4db-4424-93fa-80e05b294f90","system_id":"levelo_inurba_marseille","lat":43.33016,"lon":5.39062,"is_reserved":false,"is_disabled":false,"rental_uris":{"android":"levelo://app?vid=0da05c91-b4db-4424-93fa-80e05b294f90","ios":"levelo://app?vid=0da05c91-b4db-4424-93fa-80e05b294f90"},"vehicle_type_id":"4","last_reported":1737796165,"current_range_meters":38400,"station_id":"ce4bhr92rcd13ifvqhrg","pricing_plan_id":"cebpf4jnsgd1na2vs0mg"},{"bike_id":"4d1a6cd0-2ed2-4a2b-bf8b-3ee6bbb1c414","system_id":"levelo_inurba_marseille","lat":43.3092,"lon":5.4017,"is_reserved":false,"is_disabled":false,"rental_uris":{"android":"levelo://app?vid=4d1a6cd0-2ed2-4a2b-bf8b-3ee6bbb1c414","ios":"levelo://app?vid=4d1a6cd0-2ed2-4a2b-bf8b-3ee6bbb1c414"},"vehicle_type_id":"4","last_reported":1737796165,"current_range_meters":39200,"station_id":"ce4bgvp2rcd13ifvqct0","pricing_plan_id":"cebpf4jnsgd1na2vs0mg"},{"bike_id":"aaa4ac11-aea4-4483-bae2-eeb7f46ebbee","system_id":"levelo_inurba_marseille","lat":43.31898,"lon":5.40757,"is_reserved":false,"is_disabled":false,"rental_uris":{"android":"levelo://app?vid=aaa4ac11-aea4-4483-bae2-eeb7f46ebbee","ios":"levelo://app?vid=aaa4ac11-aea4-4483-bae2-eeb7f46ebbee"},"vehicle_type_id":"4","last_reported":1737796165,"current_range_meters":38800,"station_id":"ce4bhq12rcd13ifvqhig","pricing_plan_id":"cebpf4jnsgd1na2vs0mg"},{"bike_id":"2b63bc54-2b14-40f6-a510-32cb55fbe657","system_id":"levelo_inurba_marseille","lat":43.29943,"lon":5.36547,"is_reserved":false,"is_disabled":false,"rental_uris":{"android":"levelo://app?vid=2b63bc54-2b14-40f6-a510-32cb55fbe657","ios":"levelo://app?vid=2b63bc54-2b14-40f6-a510-32cb55fbe657"},"vehicle_type_id":"4","last_reported":1737796165,"current_range_meters":30400,"station_id":"ce4bgm92rcd13ifvqbr0","pricing_plan_id":"cebpf4jnsgd1na2vs0mg"},{"bike_id":"7b8c16d4-910b-47df-b68a-beeb1e122b03","system_id":"levelo_inurba_marseille","lat":43.2583,"lon":5.39414,"is_reserved":false,"is_disabled":false,"rental_uris":{"android":"levelo://app?vid=7b8c16d4-910b-47df-b68a-beeb1e122b03","ios":"levelo://app?vid=7b8c16d4-910b-47df-b68a-beeb1e122b03"},"vehicle_type_id":"4","last_reported":1737796165,"current_range_meters":39200,"station_id":"ce4bhip2rcd13ifvqft0","pricing_plan_id":"cebpf4jnsgd1na2vs0mg"},{"bike_id":"4e93830c-589f-413d-9c1d-ba2ee232cc2b","system_id":"levelo_inurba_marseille","lat":43.284156,"lon":5.375158,"is_reserved":false,"is_disabled":true,"rental_uris":{"android":"levelo://app?vid=4e93830c-589f-413d-9c1d-ba2ee232cc2b","ios":"levelo://app?vid=4e93830c-589f-413d-9c1d-ba2ee232cc2b"},"vehicle_type_id":"4","last_reported":1737796165,"current_range_meters":11600,"station_id":"ce4bh412rcd13ifvqds0","pricing_plan_id":"cebpf4jnsgd1na2vs0mg"},