{"last_updated":1742836171,"ttl":60,"version":"2.2","data":{"bikes":[{"bike_id":"71766c1f-8a73-40ee-9c76-d95c932ef439","system_id":"levelo_inurba_marseille","lat":43.28072,"lon":5.39653,"is_reserved":false,"is_disabled":false,"rental_uris":{"android":"levelo://app?vid=71766c1f-8a73-40ee-9c76-d95c932ef439","ios":"levelo://app?vid=71766c1f-8a73-40ee-9c76-d95c932ef439"},"vehicle_type_id":"4","last_reported":1742836171,"current_range_meters":2800,"station_id":"ce4bho12rcd13ifvqh2g","pricing_plan_id":"cebpf4jnsgd1na2vs0mg"},{"bike_id":"9554c7d2-3bd7-48ba-9bca-c77ebda0e046","system_id":"levelo_inurba_marseille","lat":43.309,"lon":5.37218,"is_reserved":false,"is_disabled":false,"rental_uris":{"android":"levelo://app?vid=9554c7d2-3bd7-48ba-9bca-c77ebda0e046","ios":"levelo://app?vid=9554c7d2-3bd7-48ba-9bca-c77ebda0e046"},"vehicle_type_id":"4","last_reported":1742836171,"current_range_meters":2800,"station_id":"ce4bguh2rcd13ifvqckg","pricing_plan_id":"cebpf4jnsgd1na2vs0mg"},{"bike_id":"56201ad2-cfd4-4ed1-b739-784ff3f709d9","system_id":"levelo_inurba_marseille","lat":43.27378,"lon":5.36253,"is_reserved":false,"is_disabled":false,"rental_uris":{"android":"levelo://app?vid=56201ad2-cfd4-4ed1-b739-784ff3f709d9","ios":"levelo://app?vid=56201ad2-cfd4-4ed1-b739-784ff3f709d9"},"vehicle_type_id":"4","last_reported":1742836171,"current_range_meters":2800,"station_id":"ce4bhbh2rcd13ifvqeo0","pricing_plan_id":"cebpf4jnsgd1na2vs0mg"},{"bike_id":"5e7feacb-d566-46bc-a50e-b3f3938ede51","system_id":"levelo_inurba_marseille","lat":43.26944,"lon":5.40252,"is_reserved":false,"is_disabled":false,"rental_uris":{"android":"levelo://app?vid=5e7feacb-d566-46bc-a50e-b3f3938ede51","ios":"levelo://app?vid=5e7feacb-d566-46bc-a50e-b3f3938ede51"},"vehicle_type_id":"4","last_reported":1742836171,"current_range_meters":2800,"station_id":"cjm6bp8fraef2m0cb0m0","pricing_plan_id":"cebpf4jnsgd1na2vs0mg"},{"bike_id":"e1b0e5a5-4d2c-439f-a035-eadd5217d570","system_id":"levelo_inurba_marseille","lat":43.312367,"lon":5.36861,"is_reserved":false,"is_disabled":true,"rental_uris":{"android":"levelo://app?vid=e1b0e5a5-4d2c-439f-a035-eadd5217d570","ios":"levelo://app?vid=e1b0e5a5-4d2c-439f-a035-eadd5217d570"},"vehicle_type_id":"4","last_reported":1742836171,"current_range_meters":2800,"station_id":"ce4bgl92rcd13ifvqbq0","pricing_plan_id":"cebpf4jnsgd1na2vs0mg"},{"bike_id":"8a080269-c7fc-4ff2-918f-13f2e45250e4","system_id":"levelo_inurba_marseille","lat":43.30641,"lon":5.40084,"is_reserved":false,"is_disabled":false,"rental_uris":{"android":"levelo://app?vid=8a080269-c7fc-4ff2-918f-13f2e45250e4","ios":"levelo://app?vid=8a080269-c7fc-4ff2-918f-13f2e45250e4"},"vehicle_type_id":"4","last_reported":1742836171,"current_range_meters":3200,"station_id":"ce4bh112rcd13ifvqda0","pricing_plan_id":"cebpf4jnsgd1na2vs0mg"},{"bike_id":"b4bbba48-f0b8-4968-8df2-733a68348cd4","system_id":"levelo_inurba_marseille","lat":43.31233,"lon":5.36854,"is_reserved":false,"is_disabled":false,"rental_uris":{"android":"levelo://app?vid=b4bbba48-f0b8-4968-8df2-733a68348cd4","ios":"levelo://app?vid=b4bbba48-f0b8-4968-8df2-733a68348cd4"},"vehicle_type_id":"4","last_reported":1742836171,"current_range_meters":3200,"station_id":"ce4bgl92rcd13ifvqbq0","pricing_plan_id":"cebpf4jnsgd1na2vs0mg"},{"bike_id":"8929f3ab-0a0a-431e-a659-29010a499c51","system_id":"levelo_inurba_marseille","lat":43.29696,"lon":5.36606,"is_reserved":false,"is_disabled":false,"rental_uris":{"android":"levelo://app?vid=8929f3ab-0a0a-431e-a659-29010a499c51","ios":"levelo://app?vid=8929f3ab-0a0a-431e-a659-29010a499c51"},"vehicle_type_id":"4","last_reported":1742836171,"current_range_meters":2800,"station_id":"ce4bgn12rcd13ifvqbt0","pricing_plan_id":"cebpf4jnsgd1na2vs0mg"},{"bike_id":"891f71dc-ef9c-43e0-9b43-00d78339ef7b","system_id":"levelo_inurba_marseille","lat":43.241689,"lon":5.397082,"is_reserved":false,"is_disabled":false,"rental_uris":{"android":"levelo://app?vid=891f71dc-ef9c-43e0-9b43-00d78339ef7b","ios":"levelo://app?vid=891f71dc-ef9c-43e0-9b43-00d78339ef7b"},"vehicle_type_id":"4","last_reported":1742836171,"current_range_meters":3200,"station_id":"ce4bhn12rcd13ifvqgpg","pricing_plan_id":"cebpf4jnsgd1na2vs0mg"},{"bike_id":"ef85fe43-c017-4d46-a5c7-78781a0bc71d","system_id":"levelo_inurba_marseille","lat":43.27944,"lon":5.41045,"is_reserved":false,"is_disabled":false,"rental_uris":{"android":"levelo://app?vid=ef85fe43-c017-4d46-a5c7-78781a0bc71d","ios":"levelo://app?vid=ef85fe43-c017-4d46-a5c7-78781a0bc71d"},"vehicle_type_id":"4","last_reported":1742836171,"current_range_meters":3200,"station_id":"ce4bhnp2rcd13ifvqh0g","pricing_plan_id":"cebpf4jnsgd1na2vs0mg"},{"bike_id":"b5915485-df3b-4041-9664-095e674ee425","system_id":"levelo_inurba_marseille","lat":43.31483,"lon":5.37313,"is_reserved":false,"is_disabled":false,"rental_uris":{"android":"levelo://app?vid=b5915485-df3b-4041-9664-095e674ee425","ios":"levelo://app?vid=b5915485-df3b-4041-9664-095e674ee425"},"vehicle_type_id":"4","last_reported":1742836171,"current_range_meters":3600,"station_id":"ce4bgt12rcd13ifvqcd0","pricing_plan_id":"cebpf4jnsgd1na2vs0mg"},{"bike_id":"942167dc-cfa0-4955-814c-3c8e85385a96","system_id":"levelo_inurba_marseille","lat":43.23059,"lon":5.35493,"is_reserved":false,"is_disabled":true,"rental_uris":{"android":"levelo://app?vid=942167dc-cfa0-4955-814c-3c8e85385a96","ios":"levelo://app?vid=942167dc-cfa0-4955-814c-3c8e85385a96"},"vehicle_type_id":"4","last_reported":1742836171,"current_range_meters":3600,"station_id":"cpo3342slgdg3j2ifvpg","pricing_plan_id":"cebpf4jnsgd1na2vs0mg"},{"bike_id":"f5f0914c-6e6b-4ef5-97f8-530e51ad2543","system_id":"levelo_inurba_marseille","lat":43.28409,"lon":5.37522,"is_reserved":false,"is_disabled":false,"rental_uris":{"android":"levelo://app?vid=f5f0914c-6e6b-4ef5-97f8-530e51ad2543","ios":"levelo://app?vid=f5f0914c-6e6b-4ef5-97f8-530e51ad2543"},"vehicle_type_id":"4","last_reported":1742836171,"current_range_meters":4000,"station_id":"ce4bh412rcd13ifvqds0","pricing_plan_id":"cebpf4jnsgd1na2vs0mg"},{"bike_id":"eba75db5-1206-4e87-a47f-be8a040e879b","system_id":"levelo_inurba_marseille","lat":43.29967,"lon":5.38497,"is_reserved":false,"is_disabled":false,"rental_uris":{"android":"levelo://app?vid=eba75db5-1206-4e87-a47f-be8a040e879b","ios":"levelo://app?vid=eba75db5-1206-4e87-a47f-be8a040e879b"},"vehicle_type_id":"4","last_reported":1742836171,"current_range_meters":4400,"station_id":"ce4bgj92rcd13ifvqbd0","pricing_plan_id":"cebpf4jnsgd1na2vs0mg"},{"bike_id":"9d519b14-06e9-4c4c-a504-ae7a17f21c70","system_id":"levelo_inurba_marseille","lat":43.241689,"lon":5.397082,"is_reserved":false,"is_disabled":false,"rental_uris":{"android":"levelo://app?vid=9d519b14-06e9-4c4c-a504-ae7a17f21c70","ios":"levelo://app?vid=9d519b14-06e9-4c4c-a504-ae7a17f21c70"},"vehicle_type_id":"4","last_reported":1742836171,"current_range_meters":4400,"station_id":"ce4bhn12rcd13ifvqgpg","pricing_plan_id":"cebpf4jnsgd1na2vs0mg"},{"bike_id":"c09425b1-e650-4cb8-b2df-ec541c9b51f0","system_id":"levelo_inurba_marseille","lat":43.29984,"lon":5.37146,"is_reserved":false,"is_disabled":false,"rental_uris":{"android":"levelo://app?vid=c09425b1-e650-4cb8-b2df-ec541c9b51f0","ios":"levelo://app?vid=c09425b1-e650-4cb8-b2df-ec541c9b51f0"},"vehicle_type_id":"4","last_reported":1742836171,"current_range_meters":4400,"station_id":"ce4bgr92rcd13ifvqc7g","pricing_plan_id":"cebpf4jnsgd1na2vs0mg"},{"bike_id":"e6ce6821-aa41-4e0b-ac83-095b87c839ce","system_id":"levelo_inurba_marseille","lat":43.29557,"lon":5.39055,"is_reserved":false,"is_disabled":false,"rental_uris":{"android":"levelo://app?vid=e6ce6821-aa41-4e0b-ac83-095b87c839ce","ios":"levelo://app?vid=e6ce6821-aa41-4e0b-ac83-095b87c839ce"},"vehicle_type_id":"4","last_reported":1742836171,"current_range_meters":4400,"station_id":"ce4bh3p2rcd13ifvqdp0","pricing_plan_id":"cebpf4jnsgd1na2vs0mg"},{"bike_id":"f7554dbb-76d6-4cc2-8f20-ed8d91f2de72","system_id":"levelo_inurba_marseille","lat":43.26807,"lon":5.40262,"is_reserved":false,"is_disabled":false,"rental_uris":{"android":"levelo://app?vid=f7554dbb-76d6-4cc2-8f20-ed8d91f2de72","ios":"levelo://app?vid=f7554dbb-76d6-4cc2-8f20-ed8d91f2de72"},"vehicle_type_id":"4","last_reported":1742836171,"current_range_meters":4800,"station_id":"ce501612rcd8frsf0b60","pricing_plan_id":"cebpf4jnsgd1na2vs0mg"},{"bike_id":"2b97c6c8-6b27-48dc-abad-8bcf29b097e0","system_id":"levelo_inurba_marseille","lat":43.26779,"lon":5.3943,"is_reserved":false,"is_disabled":true,"rental_uris":{"android":"levelo://app?vid=2b97c6c8-6b27-48dc-abad-8bcf29b097e0","ios":"levelo://app?vid=2b97c6c8-6b27-48dc-abad-8bcf29b097e0"},"vehicle_type_id":"4","last_reported":1742836171,"current_range_meters":4800,"station_id":"ce4bhh12rcd13ifvqfg0","pricing_plan_id":"cebpf4jnsgd1na2vs0mg"},{"bike_id":"4f4088b2-38a5-481e-8259-f109ef76ea1f","system_id":"levelo_inurba_marseille","lat":43.30665,"lon":5.38306,"is_reserved":false,"is_disabled":false,"rental_uris":{"android":"levelo://app?vid=4f4088b2-38a5-481e-8259-f109ef76ea1f","ios":"levelo://app?vid=4f4088b2-38a5-481e-8259-f109ef76ea1f"},"vehicle_type_id":"4","last_reported":1742836171,"current_range_meters":4800,"station_id":"ce4bgt12rcd13ifvqce0","pricing_plan_id":"cebpf4jnsgd1na2vs0mg"},{"bike_id":"49484fbe-fd73-46cd-838f-f43b14b948b4","system_id":"levelo_inurba_marseille","lat":43.30336,"lon":5.40447,"is_reserved":false,"is_disabled":false,"rental_uris":{"android":"levelo://app?vid=49484fbe-fd73-46cd-838f-f43b14b948b4","ios":"levelo://app?vid=49484fbe-fd73-46cd-838f-f43b14b948b4"},"vehicle_type_id":"4","last_reported":1742836171,"current_range_meters":4800,"station_id":"ce4bh012rcd13ifvqd10","pricing_plan_id":"cebpf4jnsgd1na2vs0mg"},{"bike_id":"c16c6905-aca9-452d-b527-22a6f29f892e","system_id":"levelo_inurba_marseille","lat":43.29971,"lon":5.38489,"is_reserved":false,"is_disabled":false,"rental_uris":{"android":"levelo://app?vid=c16c6905-aca9-452d-b527-22a6f29f892e","ios":"levelo://app?vid=c16c6905-aca9-452d-b527-22a6f29f892e"},"vehicle_type_id":"4","last_reported":1742836171,"current_range_meters":4800,"station_id":"","pricing_plan_id":"cebpf4jnsgd1na2vs0mg"},{"bike_id":"6938413b-0de2-4946-a0d2-e177a1bbfc82","system_id":"levelo_inurba_marseille","lat":43.261965,"lon":5.374492,"is_reserved":false,"is_disabled":false,"rental_uris":{"android":"levelo://app?vid=6938413b-0de2-4946-a0d2-e177a1bbfc82","ios":"levelo://app?vid=6938413b-0de2-4946-a0d2-e177a1bbfc82"},"vehicle_type_id":"4","last_reported":1742836171,"current_range_meters":4800,"station_id":"ce4bhgp2rcd13ifvqfc0","pricing_plan_id":"cebpf4jnsgd1na2vs0mg"},{"bike_id":"89e21462-a2eb-4a1f-9ac2-dd12c0078c73","system_id":"levelo_inurba_marseille","lat":43.32656,"lon":5.40995,"is_reserved":false,"is_disabled":false,"rental_uris":{"android":"levelo://app?vid=89e21462-a2eb-4a1f-9ac2-dd12c0078c73","ios":"levelo://app?vid=89e21462-a2eb-4a1f-9ac2-dd12c0078c73"},"vehicle_type_id":"4","last_reported":1742836171,"current_range_meters":5600,"station_id":"ce4bhpp2rcd13ifvqhgg","pricing_plan_id":"cebpf4jnsgd1na2vs0mg"},{"bike_id":"411b428a-be3d-4303-a051-cffaae886dc8","system_id":"levelo_inurba_marseille","lat":43.24164,"lon":5.36416,"is_reserved":false,"is_disabled":false,"rental_uris":{"android":"levelo://app?vid=411b428a-be3d-4303-a051-cffaae886dc8","ios":"levelo://app?vid=411b428a-be3d-4303-a051-cffaae886dc8"},"vehicle_type_id":"4","last_reported":1742836171,"current_range_meters":6000,"station_id":"cpo36qri1sfpv3e86is0","pricing_plan_id":"cebpf4jnsgd1na2vs0mg"},{"bike_id":"cee5d65d-4728-4de0-a31b-e1ee654abd90","system_id":"levelo_inurba_marseille","lat":43.27941,"lon":5.41046,"is_reserved":false,"is_disabled":false,"rental_uris":{"android":"levelo://app?vid=cee5d65d-4728-4de0-a31b-e1ee654abd90","ios":"levelo://app?vid=cee5d65d-4728-4de0-a31b-e1ee654abd90"},"vehicle_type_id":"4","last_reported":1742836171,"current_range_meters":6000,"station_id":"ce4bhnp2rcd13ifvqh0g","pricing_plan_id":"cebpf4jnsgd1na2vs0mg"},{"bike_id":"ec47b621-0fa7-4b48-b122-bffe26d4b5c9","system_id":"levelo_inurba_marseille","lat":43.24167,"lon":5.36409,"is_reserved":false,"is_disabled":false,"rental_uris":{"android":"levelo://app?vid=ec47b621-0fa7-4b48-b122-bffe26d4b5c9","ios":"levelo://app?vid=ec47b621-0fa7-4b48-b122-bffe26d4b5c9"},"vehicle_type_id":"4","last_reported":1742836171,"current_range_meters":6000,"station_id":"cpo36qri1sfpv3e86is0","pricing_plan_id":"cebpf4jnsgd1na2vs0mg"},{"bike_id":"c36cefb3-0db7-45d8-b171-a7dea51fd330","system_id":"levelo_inurba_marseille","lat":43.25725,"lon":5.41107,"is_reserved":false,"is_disabled":false,"rental_uris":{"android":"levelo://app?vid=c36cefb3-0db7-45d8-b171-a7dea51fd330","ios":"levelo://app?vid=c36cefb3-0db7-45d8-b171-a7dea51fd330"},"vehicle_type_id":"4","last_reported":1742836171,"current_range_meters":6400,"station_id":"ce4bhkp2rcd13ifvqgd0","pricing_plan_id":"cebpf4jnsgd1na2vs0mg"},{"bike_id":"28180142-2701-407a-8526-b01c66618e82","system_id":"levelo_inurba_marseille","lat":43.29532,"lon":5.38557,"is_reserved":false,"is_disabled":false,"rental_uris":{"android":"levelo://app?vid=28180142-2701-407a-8526-b01c66618e82","ios":"levelo://app?vid=28180142-2701-407a-8526-b01c66618e82"},"vehicle_type_id":"4","last_reported":1742836171,"current_range_meters":6400,"station_id":"ce4bgih2rcd13ifvqba0","pricing_plan_id":"cebpf4jnsgd1na2vs0mg"},{"bike_id":"78fa8716-9992-4708-9637-7640cd052cfb","system_id":"levelo_inurba_marseille","lat":43.29814,"lon":5.38094,"is_reserved":false,"is_disabled":false,"rental_uris":{"android":"levelo://app?vid=78fa8716-9992-4708-9637-7640cd052cfb","ios":"levelo://app?vid=78fa8716-9992-4708-9637-7640cd052cfb"},"vehicle_type_id":"4","last_reported":1742836171,"current_range_meters":6400,"station_id":"ce4bgip2rcd13ifvqbb0","pricing_plan_id":"cebpf4jnsgd1na2vs0mg"},{"bike_id":"32cf7aa4-8b5f-4aac-bcd5-6bbc88733ae4","system_id":"levelo_inurba_marseille","lat":43.27072,"lon":5.42285,"is_reserved":false,"is_disabled":false,"rental_uris":{"android":"levelo://app?vid=32cf7aa4-8b5f-4aac-bcd5-6bbc88733ae4","ios":"levelo://app?vid=32cf7aa4-8b5f-4aac-bcd5-6bbc88733ae4"},"vehicle_type_id":"4","last_reported":1742836171,"current_range_meters":6800,"station_id":"ce4bhk92rcd13ifvqgb0","pricing_plan_id":"cebpf4jnsgd1na2vs0mg"},{"bike_id":"1b7c5e4e-130d-4e75-8db2-feee0d51fa46","system_id":"levelo_inurba_marseille","lat":43.24189,"lon":5.39718,"is_reserved":false,"is_disabled":false,"rental_uris":{"android":"levelo://app?vid=1b7c5e4e-130d-4e75-8db2-feee0d51fa46","ios":"levelo://app?vid=1b7c5e4e-130d-4e75-8db2-feee0d51fa46"},"vehicle_type_id":"4","last_reported":1742836171,"current_range_meters":6800,"station_id":"ce4bhn12rcd13ifvqgpg","pricing_plan_id":"cebpf4jnsgd1na2vs0mg"},{"bike_id":"dd9cae75-c0bf-4877-9f8d-ae43680aff61","system_id":"levelo_inurba_marseille","lat":43.29289,"lon":5.38285,"is_reserved":false,"is_disabled":false,"rental_uris":{"android":"levelo://app?vid=dd9cae75-c0bf-4877-9f8d-ae43680aff61","ios":"levelo://app?vid=dd9cae75-c0bf-4877-9f8d-ae43680aff61"},"vehicle_type_id":"4","last_reported":1742836171,"current_range_meters":6800,"station_id":"ce4bgup2rcd13ifvqco0","pricing_plan_id":"cebpf4jnsgd1na2vs0mg"},{"bike_id":"7e18434c-ec35-4a69-911a-4141825b7861","system_id":"levelo_inurba_marseille","lat":43.2844,"lon":5.39168,"is_reserved":false,"is_disabled":false,"rental_uris":{"android":"levelo://app?vid=7e18434c-ec35-4a69-911a-4141825b7861","ios":"levelo://app?vid=7e18434c-ec35-4a69-911a-4141825b7861"},"vehicle_type_id":"4","last_reported":1742836171,"current_range_meters":6800,"station_id":"ce4bhoh2rcd13ifvqh5g","pricing_plan_id":"cebpf4jnsgd1na2vs0mg"},{"bike_id":"bebbaaa4-9324-461e-b685-01f74c9202e0","system_id":"levelo_inurba_marseille","lat":43.23961,"lon":5.36622,"is_reserved":false,"is_disabled":false,"rental_uris":{"android":"levelo://app?vid=bebbaaa4-9324-461e-b685-01f74c9202e0","ios":"levelo://app?vid=bebbaaa4-9324-461e-b685-01f74c9202e0"},"vehicle_type_id":"4","last_reported":1742836171,"current_range_meters":6800,"station_id":"ce4bhi12rcd13ifvqfp0","pricing_plan_id":"cebpf4jnsgd1na2vs0mg"},{"bike_id":"79f01643-fdb1-4a8a-8719-52bb33868792","system_id":"levelo_inurba_marseille","lat":43.312195,"lon":5.368748,"is_reserved":false,"is_disabled":false,"rental_uris":{"android":"levelo://app?vid=79f01643-fdb1-4a8a-8719-52bb33868792","ios":"levelo://app?vid=79f01643-fdb1-4a8a-8719-52bb33868792"},"vehicle_type_id":"4","last_reported":1742836171,"current_range_meters":6800,"station_id":"ce4bgip2rcd13ifvqbb0","pricing_plan_id":"cebpf4jnsgd1na2vs0mg"},{"bike_id":"d1f993ec-8e82-4e82-a38b-e848ded0cf74","system_id":"levelo_inurba_marseille","lat":43.25093,"lon":5.39514,"is_reserved":false,"is_disabled":false,"rental_uris":{"android":"levelo://app?vid=d1f993ec-8e82-4e82-a38b-e848ded0cf74","ios":"levelo://app?vid=d1f993ec-8e82-4e82-a38b-e848ded0cf74"},"vehicle_type_id":"4","last_reported":1742836171,"current_range_meters":6800,"station_id":"ce4bhm12rcd13ifvqgkg","pricing_plan_id":"cebpf4jnsgd1na2vs0mg"},{"bike_id":"6f023766-497a-44b5-8b39-a397e2b8fcb8","system_id":"levelo_inurba_marseille","lat":43.3108,"lon":5.42436,"is_reserved":false,"is_disabled":false,"rental_uris":{"android":"levelo://app?vid=6f023766-497a-44b5-8b39-a397e2b8fcb8","ios":"levelo://app?vid=6f023766-497a-44b5-8b39-a397e2b8fcb8"},"vehicle_type_id":"4","last_reported":1742836171,"current_range_meters":7200,"station_id":"ce4bhp92rcd13ifvqhag","pricing_plan_id":"cebpf4jnsgd1na2vs0mg"},{"bike_id":"4ecc66d0-5f4c-40db-9bc4-ebb04c3309c0","system_id":"levelo_inurba_marseille","lat":43.26506,"lon":5.39533,"is_reserved":false,"is_disabled":false,"rental_uris":{"android":"levelo://app?vid=4ecc66d0-5f4c-40db-9bc4-ebb04c3309c0","ios":"levelo://app?vid=4ecc66d0-5f4c-40db-9bc4-ebb04c3309c0"},"vehicle_type_id":"4","last_reported":1742836171,"current_range_meters":7200,"station_id":"ce4bhi12rcd13ifvqfq0","pricing_plan_id":"cebpf4jnsgd1na2vs0mg"},{"bike_id":"2b8f4ab2-f2f5-4177-ba09-80c6b40ca95e","system_id":"levelo_inurba_marseille","lat":43.29532,"lon":5.3855,"is_reserved":false,"is_disabled":false,"rental_uris":{"android":"levelo://app?vid=2b8f4ab2-f2f5-4177-ba09-80c6b40ca95e","ios":"levelo://app?vid=2b8f4ab2-f2f5-4177-ba09-80c6b40ca95e"},"vehicle_type_id":"4","last_reported":1742836171,"current_range_meters":7200,"station_id":"ce4bgih2rcd13ifvqba0","pricing_plan_id":"cebpf4jnsgd1na2vs0mg"},{"bike_id":"0b56d576-1682-4659-8d18-325f0b959b39","system_id":"levelo_inurba_marseille","lat":43.27072,"lon":5.42277,"is_reserved":false,"is_disabled":false,"rental_uris":{"android":"levelo://app?vid=0b56d576-1682-4659-8d18-325f0b959b39","ios":"levelo://app?vid=0b56d576-1682-4659-8d18-325f0b959b39"},"vehicle_type_id":"4","last_reported":1742836171,"current_range_meters":7200,"station_id":"ce4bhk92rcd13ifvqgb0","pricing_plan_id":"cebpf4jnsgd1na2vs0mg"},{"bike_id":"438c3484-329d-4a76-9d36-5a5cb3614c3e","system_id":"levelo_inurba_marseille","lat":43.31338,"lon":5.39697,"is_reserved":false,"is_disabled":false,"rental_uris":{"android":"levelo://app?vid=438c3484-329d-4a76-9d36-5a5cb3614c3e","ios":"levelo://app?vid=438c3484-329d-4a76-9d36-5a5cb3614c3e"},"vehicle_type_id":"4","last_reported":1742836171,"current_range_meters":7200,"station_id":"ce4bgvp2rcd13ifvqcu0","pricing_plan_id":"cebpf4jnsgd1na2vs0mg"},{"bike_id":"3c163bc6-7303-4a9a-b608-1242ea2de079","system_id":"levelo_inurba_marseille","lat":43.231433,"lon":5.437184,"is_reserved":false,"is_disabled":false,"rental_uris":{"android":"levelo://app?vid=3c163bc6-7303-4a9a-b608-1242ea2de079","ios":"levelo://app?vid=3c163bc6-7303-4a9a-b608-1242ea2de079"},"vehicle_type_id":"4","last_reported":1742836171,"current_range_meters":7200,"station_id":"ce4bhmp2rcd13ifvqgog","pricing_plan_id":"cebpf4jnsgd1na2vs0mg"},{"bike_id":"bc1f75c7-c85f-4ecc-bbbd-b9b4a2e47822","system_id":"levelo_inurba_marseille","lat":43.31121,"lon":5.37766,"is_reserved":false,"is_disabled":false,"rental_uris":{"android":"levelo://app?vid=bc1f75c7-c85f-4ecc-bbbd-b9b4a2e47822","ios":"levelo://app?vid=bc1f75c7-c85f-4ecc-bbbd-b9b4a2e47822"},"vehicle_type_id":"4","last_reported":1742836171,"current_range_meters":7200,"station_id":"ce4bgt92rcd13ifvqcg0","pricing_plan_id":"cebpf4jnsgd1na2vs0mg"},{"bike_id":"7ab97dca-e72a-4eeb-b77a-7abe75788bee","system_id":"levelo_inurba_marseille","lat":43.288581,"lon":5.358626,"is_reserved":false,"is_disabled":false,"rental_uris":{"android":"levelo://app?vid=7ab97dca-e72a-4eeb-b77a-7abe75788bee","ios":"levelo://app?vid=7ab97dca-e72a-4eeb-b77a-7abe75788bee"},"vehicle_type_id":"4","last_reported":1742836171,"current_range_meters":7200,"station_id":"ce4bhb12rcd13ifvqem0","pricing_plan_id":"cebpf4jnsgd1na2vs0mg"},{"bike_id":"6fd591ac-b490-445e-92c5-3b2f810b75d9","system_id":"levelo_inurba_marseille","lat":43.29523,"lon":5.39017,"is_reserved":false,"is_disabled":false,"rental_uris":{"android":"levelo://app?vid=6fd591ac-b490-445e-92c5-3b2f810b75d9","ios":"levelo://app?vid=6fd591ac-b490-445e-92c5-3b2f810b75d9"},"vehicle_type_id":"4","last_reported":1742836171,"current_range_meters":7200,"station_id":"ce4bh3p2rcd13ifvqdp0","pricing_plan_id":"cebpf4jnsgd1na2vs0mg"},{"bike_id":"86a65fab-1faf-4fc4-885c-2b086e92c069","system_id":"levelo_inurba_marseille","lat":43.24161,"lon":5.36407,"is_reserved":false,"is_disabled":false,"rental_uris":{"android":"levelo://app?vid=86a65fab-1faf-4fc4-885c-2b086e92c069","ios":"levelo://app?vid=86a65fab-1faf-4fc4-885c-2b086e92c069"},"vehicle_type_id":"4","last_reported":1742836171,"current_range_meters":7200,"station_id":"cpo36qri1sfpv3e86is0","pricing_plan_id":"cebpf4jnsgd1na2vs0mg"},{"bike_id":"0994d898-755c-4316-8a12-457613df1c9c","system_id":"levelo_inurba_marseille","lat":43.32002,"lon":5.38159,"is_reserved":false,"is_disabled":false,"rental_uris":{"android":"levelo://app?vid=0994d898-755c-4316-8a12-457613df1c9c","ios":"levelo://app?vid=0994d898-755c-4316-8a12-457613df1c9c"},"vehicle_type_id":"4","last_reported":1742836171,"current_range_meters":8000,"station_id":"ce4bhr12rcd13ifvqhpg","pricing_plan_id":"cebpf4jnsgd1na2vs0mg"},{"bike_id":"62739492-128b-4543-87c3-ae5279f8c4dc","system_id":"levelo_inurba_marseille","lat":43.29524,"lon":5.39027,"is_reserved":false,"is_disabled":false,"rental_uris":{"android":"levelo://app?vid=62739492-128b-4543-87c3-ae5279f8c4dc","ios":"levelo://app?vid=62739492-128b-4543-87c3-ae5279f8c4dc"},"vehicle_type_id":"4","last_reported":1742836171,"current_range_meters":8000,"station_id":"ce4bh3p2rcd13ifvqdp0","pricing_plan_id":"cebpf4jnsgd1na2vs0mg"},{"bike_id":"c7381ff1-5257-4a09-b1f3-b9a1a41f20b5","system_id":"levelo_inurba_marseille","lat":43.2762,"lon":5.36112,"is_reserved":false,"is_disabled":false,"rental_uris":{"android":"levelo://app?vid=c7381ff1-5257-4a09-b1f3-b9a1a41f20b5","ios":"levelo://app?vid=c7381ff1-5257-4a09-b1f3-b9a1a41f20b5"},"vehicle_type_id":"4","last_reported":1742836171,"current_range_meters":8000,"station_id":"ce4bgj92rcd13ifvqbe0","pricing_plan_id":"cebpf4jnsgd1na2vs0mg"},{"bike_id":"21e3a6e5-11f0-467c-9e11-90aab4ee0f83","system_id":"levelo_inurba_marseille","lat":43.27378,"lon":5.36241,"is_reserved":false,"is_disabled":false,"rental_uris":{"android":"levelo://app?vid=21e3a6e5-11f0-467c-9e11-90aab4ee0f83","ios":"levelo://app?vid=21e3a6e5-11f0-467c-9e11-90aab4ee0f83"},"vehicle_type_id":"4","last_reported":1742836171,"current_range_meters":8000,"station_id":"ce4bhbh2rcd13ifvqeo0","pricing_plan_id":"cebpf4jnsgd1na2vs0mg"},{"bike_id":"bb7d553e-f91c-478a-a14a-5f3ea0dc4964","system_id":"levelo_inurba_marseille","lat":43.24555,"lon":5.3951,"is_reserved":false,"is_disabled":false,"rental_uris":{"android":"levelo://app?vid=bb7d553e-f91c-478a-a14a-5f3ea0dc4964","ios":"levelo://app?vid=bb7d553e-f91c-478a-a14a-5f3ea0dc4964"},"vehicle_type_id":"4","last_reported":1742836171,"current_range_meters":8000,"station_id":"ce4bhlp2rcd13ifvqgjg","pricing_plan_id":"cebpf4jnsgd1na2vs0mg"},{"bike_id":"62d19d5f-6593-4237-9d54-02c9151fd2e4","system_id":"levelo_inurba_marseille","lat":43.2559,"lon":5.38219,"is_reserved":false,"is_disabled":false,"rental_uris":{"android":"levelo://app?vid=62d19d5f-6593-4237-9d54-02c9151fd2e4","ios":"levelo://app?vid=62d19d5f-6593-4237-9d54-02c9151fd2e4"},"vehicle_type_id":"4","last_reported":1742836171,"current_range_meters":8000,"station_id":"ce4bhih2rcd13ifvqfs0","pricing_plan_id":"cebpf4jnsgd1na2vs0mg"},{"bike_id":"ba77c809-1111-412f-8eae-c3c885fbd6c5","system_id":"levelo_inurba_marseille","lat":43.24158,"lon":5.36434,"is_reserved":false,"is_disabled":false,"rental_uris":{"android":"levelo://app?vid=ba77c809-1111-412f-8eae-c3c885fbd6c5","ios":"levelo://app?vid=ba77c809-1111-412f-8eae-c3c885fbd6c5"},"vehicle_type_id":"4","last_reported":1742836171,"current_range_meters":8000,"station_id":"cpo36qri1sfpv3e86is0","pricing_plan_id":"cebpf4jnsgd1na2vs0mg"},{"bike_id":"76f3d16e-d7a5-4684-96dc-ab38a67e3c56","system_id":"levelo_inurba_marseille","lat":43.27825,"lon":5.40726,"is_reserved":false,"is_disabled":false,"rental_uris":{"android":"levelo://app?vid=76f3d16e-d7a5-4684-96dc-ab38a67e3c56","ios":"levelo://app?vid=76f3d16e-d7a5-4684-96dc-ab38a67e3c56"},"vehicle_type_id":"4","last_reported":1742836171,"current_range_meters":8000,"station_id":"ce4bhnh2rcd13ifvqgtg","pricing_plan_id":"cebpf4jnsgd1na2vs0mg"},{"bike_id":"4830654f-daa6-4670-92df-0f2f84e45b34","system_id":"levelo_inurba_marseille","lat":43.30652,"lon":5.401,"is_reserved":false,"is_disabled":false,"rental_uris":{"android":"levelo://app?vid=4830654f-daa6-4670-92df-0f2f84e45b34","ios":"levelo://app?vid=4830654f-daa6-4670-92df-0f2f84e45b34"},"vehicle_type_id":"4","last_reported":1742836171,"current_range_meters":8000,"station_id":"ce4bh112rcd13ifvqda0","pricing_plan_id":"cebpf4jnsgd1na2vs0mg"},{"bike_id":"073fe5fd-0446-4ab7-8e4a-ba01ab6c5436","system_id":"levelo_inurba_marseille","lat":43.26823,"lon":5.39426,"is_reserved":false,"is_disabled":false,"rental_uris":{"android":"levelo://app?vid=073fe5fd-0446-4ab7-8e4a-ba01ab6c5436","ios":"levelo://app?vid=073fe5fd-0446-4ab7-8e4a-ba01ab6c5436"},"vehicle_type_id":"4","last_reported":1742836171,"current_range_meters":8000,"station_id":"","pricing_plan_id":"cebpf4jnsgd1na2vs0mg"},{"bike_id":"91456e3b-facc-45cb-b00f-aea26e6eaf6c","system_id":"levelo_inurba_marseille","lat":43.27824,"lon":5.40747,"is_reserved":false,"is_disabled":true,"rental_uris":{"android":"levelo://app?vid=91456e3b-facc-45cb-b00f-aea26e6eaf6c","ios":"levelo://app?vid=91456e3b-facc-45cb-b00f-aea26e6eaf6c"},"vehicle_type_id":"4","last_reported":1742836171,"current_range_meters":8000,"station_id":"ce4bhnh2rcd13ifvqgtg","pricing_plan_id":"cebpf4jnsgd1na2vs0mg"},{"bike_id":"48931a27-44fd-4688-ad18-d7aa23ee059a","system_id":"levelo_inurba_marseille","lat":43.2996,"lon":5.41317,"is_reserved":false,"is_disabled":false,"rental_uris":{"android":"levelo://app?vid=48931a27-44fd-4688-ad18-d7aa23ee059a","ios":"levelo://app?vid=48931a27-44fd-4688-ad18-d7aa23ee059a"},"vehicle_type_id":"4","last_reported":1742836171,"current_range_meters":8000,"station_id":"ce4bhp12rcd13ifvqh9g","pricing_plan_id":"cebpf4jnsgd1na2vs0mg"},{"bike_id":"707a5fbc-b3e0-4c7a-81f3-d3a4ec533399","system_id":"levelo_inurba_marseille","lat":43.28114,"lon":5.37825,"is_reserved":false,"is_disabled":false,"rental_uris":{"android":"levelo://app?vid=707a5fbc-b3e0-4c7a-81f3-d3a4ec533399","ios":"levelo://app?vid=707a5fbc-b3e0-4c7a-81f3-d3a4ec533399"},"vehicle_type_id":"4","last_reported":1742836171,"current_range_meters":8000,"station_id":"ce4bha12rcd13ifvqee0","pricing_plan_id":"cebpf4jnsgd1na2vs0mg"},{"bike_id":"6da44af1-8b7c-4791-bcb1-30013b0638eb","system_id":"levelo_inurba_marseille","lat":43.27319,"lon":5.39076,"is_reserved":false,"is_disabled":true,"rental_uris":{"android":"levelo://app?vid=6da44af1-8b7c-4791-bcb1-30013b0638eb","ios":"levelo://app?vid=6da44af1-8b7c-4791-bcb1-30013b0638eb"},"vehicle_type_id":"4","last_reported":1742836171,"current_range_meters":8400,"station_id":"ce4bhgp2rcd13ifvqfe0","pricing_plan_id":"cebpf4jnsgd1na2vs0mg"},{"bike_id":"3b80d575-b6f6-47f6-86af-968f2f87e0de","system_id":"levelo_inurba_marseille","lat":43.30889,"lon":5.39664,"is_reserved":false,"is_disabled":false,"rental_uris":{"android":"levelo://app?vid=3b80d575-b6f6-47f6-86af-968f2f87e0de","ios":"levelo://app?vid=3b80d575-b6f6-47f6-86af-968f2f87e0de"},"vehicle_type_id":"4","last_reported":1742836171,"current_range_meters":8400,"station_id":"ce4bh012rcd13ifvqcv0","pricing_plan_id":"cebpf4jnsgd1na2vs0mg"},{"bike_id":"0d8beaca-61c3-4551-bbc9-591f0e4276b4","system_id":"levelo_inurba_marseille","lat":43.305869,"lon":5.393449,"is_reserved":false,"is_disabled":false,"rental_uris":{"android":"levelo://app?vid=0d8beaca-61c3-4551-bbc9-591f0e4276b4","ios":"levelo://app?vid=0d8beaca-61c3-4551-bbc9-591f0e4276b4"},"vehicle_type_id":"4","last_reported":1742836171,"current_range_meters":8400,"station_id":"ce4bh092rcd13ifvqd30","pricing_plan_id":"cebpf4jnsgd1na2vs0mg"},{"bike_id":"26fa24fb-ac6c-440b-833a-f02e8547dc9a","system_id":"levelo_inurba_marseille","lat":43.30946,"lon":5.3685,"is_reserved":false,"is_disabled":false,"rental_uris":{"android":"levelo://app?vid=26fa24fb-ac6c-440b-833a-f02e8547dc9a","ios":"levelo://app?vid=26fa24fb-ac6c-440b-833a-f02e8547dc9a"},"vehicle_type_id":"4","last_reported":1742836171,"current_range_meters":8400,"station_id":"ce4bgn92rcd13ifvqbvg","pricing_plan_id":"cebpf4jnsgd1na2vs0mg"},{"bike_id":"e3c6d100-9b3b-44e1-abd1-7cf3538ee12c","system_id":"levelo_inurba_marseille","lat":43.23187,"lon":5.35552,"is_reserved":false,"is_disabled":false,"rental_uris":{"android":"levelo://app?vid=e3c6d100-9b3b-44e1-abd1-7cf3538ee12c","ios":"levelo://app?vid=e3c6d100-9b3b-44e1-abd1-7cf3538ee12c"},"vehicle_type_id":"4","last_reported":1742836171,"current_range_meters":8400,"station_id":"ce4bhu92rcd13ifvqi70","pricing_plan_id":"cebpf4jnsgd1na2vs0mg"},{"bike_id":"f02a77b8-f810-41ff-bf5b-5ab742b469a7","system_id":"levelo_inurba_marseille","lat":43.23153,"lon":5.43714,"is_reserved":false,"is_disabled":false,"rental_uris":{"android":"levelo://app?vid=f02a77b8-f810-41ff-bf5b-5ab742b469a7","ios":"levelo://app?vid=f02a77b8-f810-41ff-bf5b-5ab742b469a7"},"vehicle_type_id":"4","last_reported":1742836171,"current_range_meters":8400,"station_id":"ce4bhmp2rcd13ifvqgog","pricing_plan_id":"cebpf4jnsgd1na2vs0mg"},{"bike_id":"5eac692e-9706-41cc-82e6-d054c187ef4c","system_id":"levelo_inurba_marseille","lat":43.308,"lon":5.3815,"is_reserved":false,"is_disabled":false,"rental_uris":{"android":"levelo://app?vid=5eac692e-9706-41cc-82e6-d054c187ef4c","ios":"levelo://app?vid=5eac692e-9706-41cc-82e6-d054c187ef4c"},"vehicle_type_id":"4","last_reported":1742836171,"current_range_meters":8400,"station_id":"ce4bgt12rcd13ifvqce0","pricing_plan_id":"cebpf4jnsgd1na2vs0mg"},{"bike_id":"3d50d2d4-f98c-466f-af60-d375a9debb10","system_id":"levelo_inurba_marseille","lat":43.32287,"lon":5.38281,"is_reserved":false,"is_disabled":false,"rental_uris":{"android":"levelo://app?vid=3d50d2d4-f98c-466f-af60-d375a9debb10","ios":"levelo://app?vid=3d50d2d4-f98c-466f-af60-d375a9debb10"},"vehicle_type_id":"4","last_reported":1742836171,"current_range_meters":8400,"station_id":"ce4bhr12rcd13ifvqhqg","pricing_plan_id":"cebpf4jnsgd1na2vs0mg"},{"bike_id":"c77ba74c-34b4-4065-8232-671a3f8577ef","system_id":"levelo_inurba_marseille","lat":43.26204,"lon":5.37916,"is_reserved":false,"is_disabled":false,"rental_uris":{"android":"levelo://app?vid=c77ba74c-34b4-4065-8232-671a3f8577ef","ios":"levelo://app?vid=c77ba74c-34b4-4065-8232-671a3f8577ef"},"vehicle_type_id":"4","last_reported":1742836171,"current_range_meters":8400,"station_id":"","pricing_plan_id":"cebpf4jnsgd1na2vs0mg"},{"bike_id":"8e0cb4d0-c07f-4b3e-b2e7-49c77900d1ae","system_id":"levelo_inurba_marseille","lat":43.28947,"lon":5.39639,"is_reserved":false,"is_disabled":false,"rental_uris":{"android":"levelo://app?vid=8e0cb4d0-c07f-4b3e-b2e7-49c77900d1ae","ios":"levelo://app?vid=8e0cb4d0-c07f-4b3e-b2e7-49c77900d1ae"},"vehicle_type_id":"4","last_reported":1742836171,"current_range_meters":8400,"station_id":"ce4bh3h2rcd13ifvqdn0","pricing_plan_id":"cebpf4jnsgd1na2vs0mg"},{"bike_id":"02ba8b47-53ce-4764-9162-171e7d4d07e2","system_id":"levelo_inurba_marseille","lat":43.29534,"lon":5.39041,"is_reserved":false,"is_disabled":false,"rental_uris":{"android":"levelo://app?vid=02ba8b47-53ce-4764-9162-171e7d4d07e2","ios":"levelo://app?vid=02ba8b47-53ce-4764-9162-171e7d4d07e2"},"vehicle_type_id":"4","last_reported":1742836171,"current_range_meters":8400,"station_id":"ce4bh3p2rcd13ifvqdp0","pricing_plan_id":"cebpf4jnsgd1na2vs0mg"},{"bike_id":"5d376fd9-8e52-43c6-8e6a-1c1695e3d8ff","system_id":"levelo_inurba_marseille","lat":43.287225,"lon":5.36084,"is_reserved":false,"is_disabled":false,"rental_uris":{"android":"levelo://app?vid=5d376fd9-8e52-43c6-8e6a-1c1695e3d8ff","ios":"levelo://app?vid=5d376fd9-8e52-43c6-8e6a-1c1695e3d8ff"},"vehicle_type_id":"4","last_reported":1742836171,"current_range_meters":8800,"station_id":"ce4bh112rcd13ifvqda0","pricing_plan_id":"cebpf4jnsgd1na2vs0mg"},{"bike_id":"65383782-0c14-4377-bdff-9f651f12122e","system_id":"levelo_inurba_marseille","lat":43.32,"lon":5.38166,"is_reserved":false,"is_disabled":false,"rental_uris":{"android":"levelo://app?vid=65383782-0c14-4377-bdff-9f651f12122e","ios":"levelo://app?vid=65383782-0c14-4377-bdff-9f651f12122e"},"vehicle_type_id":"4","last_reported":1742836171,"current_range_meters":8800,"station_id":"ce4bhr12rcd13ifvqhpg","pricing_plan_id":"cebpf4jnsgd1na2vs0mg"},{"bike_id":"ab949828-8893-4a84-905b-1c8d0ec1f6cd","system_id":"levelo_inurba_marseille","lat":43.28942,"lon":5.39613,"is_reserved":false,"is_disabled":false,"rental_uris":{"android":"levelo://app?vid=ab949828-8893-4a84-905b-1c8d0ec1f6cd","ios":"levelo://app?vid=ab949828-8893-4a84-905b-1c8d0ec1f6cd"},"vehicle_type_id":"4","last_reported":1742836171,"current_range_meters":8800,"station_id":"ce4bh3h2rcd13ifvqdn0","pricing_plan_id":"cebpf4jnsgd1na2vs0mg"},{"bike_id":"ee1cdfb9-c2f4-4e88-9cf1-8bd182e8a246","system_id":"levelo_inurba_marseille","lat":43.30312,"lon":5.39212,"is_reserved":false,"is_disabled":false,"rental_uris":{"android":"levelo://app?vid=ee1cdfb9-c2f4-4e88-9cf1-8bd182e8a246","ios":"levelo://app?vid=ee1cdfb9-c2f4-4e88-9cf1-8bd182e8a246"},"vehicle_type_id":"4","last_reported":1742836171,"current_range_meters":8800,"station_id":"ce4bgkh2rcd13ifvqbk0","pricing_plan_id":"cebpf4jnsgd1na2vs0mg"},{"bike_id":"591ece55-fadb-473a-aa36-b86115c2f03e","system_id":"levelo_inurba_marseille","lat":43.301443,"lon":5.380791,"is_reserved":false,"is_disabled":false,"rental_uris":{"android":"levelo://app?vid=591ece55-fadb-473a-aa36-b86115c2f03e","ios":"levelo://app?vid=591ece55-fadb-473a-aa36-b86115c2f03e"},"vehicle_type_id":"4","last_reported":1742836171,"current_range_meters":8800,"station_id":"ce4bh612rcd13ifvqe6g","pricing_plan_id":"cebpf4jnsgd1na2vs0mg"},{"bike_id":"927919b4-d56f-444b-bbce-623424cee85b","system_id":"levelo_inurba_marseille","lat":43.2319,"lon":5.39984,"is_reserved":false,"is_disabled":false,"rental_uris":{"android":"levelo://app?vid=927919b4-d56f-444b-bbce-623424cee85b","ios":"levelo://app?vid=927919b4-d56f-444b-bbce-623424cee85b"},"vehicle_type_id":"4","last_reported":1742836171,"current_range_meters":9200,"station_id":"ce4bhn12rcd13ifvqgqg","pricing_plan_id":"cebpf4jnsgd1na2vs0mg"},{"bike_id":"ba347e1d-c42f-43ab-9a54-e602bb3e6899","system_id":"levelo_inurba_marseille","lat":43.27435,"lon":5.39409,"is_reserved":false,"is_disabled":false,"rental_uris":{"android":"levelo://app?vid=ba347e1d-c42f-43ab-9a54-e602bb3e6899","ios":"levelo://app?vid=ba347e1d-c42f-43ab-9a54-e602bb3e6899"},"vehicle_type_id":"4","last_reported":1742836171,"current_range_meters":8800,"station_id":"ce4bhdp2rcd13ifvqf20","pricing_plan_id":"cebpf4jnsgd1na2vs0mg"},{"bike_id":"19c4d38c-721f-4a6d-8de0-ad162aee3dc3","system_id":"levelo_inurba_marseille","lat":43.29874,"lon":5.38925,"is_reserved":false,"is_disabled":true,"rental_uris":{"android":"levelo://app?vid=19c4d38c-721f-4a6d-8de0-ad162aee3dc3","ios":"levelo://app?vid=19c4d38c-721f-4a6d-8de0-ad162aee3dc3"},"vehicle_type_id":"4","last_reported":1742836171,"current_range_meters":9200,"station_id":"ce4bh392rcd13ifvqdl0","pricing_plan_id":"cebpf4jnsgd1na2vs0mg"},{"bike_id":"7606ed16-d2a9-497b-99d9-7b5d1a65b776","system_id":"levelo_inurba_marseille","lat":43.27817,"lon":5.40693,"is_reserved":false,"is_disabled":false,"rental_uris":{"android":"levelo://app?vid=7606ed16-d2a9-497b-99d9-7b5d1a65b776","ios":"levelo://app?vid=7606ed16-d2a9-497b-99d9-7b5d1a65b776"},"vehicle_type_id":"4","last_reported":1742836171,"current_range_meters":9200,"station_id":"ce4bhnh2rcd13ifvqgtg","pricing_plan_id":"cebpf4jnsgd1na2vs0mg"},{"bike_id":"d58d1980-01ab-493a-ac94-43667df0c38c","system_id":"levelo_inurba_marseille","lat":43.24558,"lon":5.39526,"is_reserved":false,"is_disabled":false,"rental_uris":{"android":"levelo://app?vid=d58d1980-01ab-493a-ac94-43667df0c38c","ios":"levelo://app?vid=d58d1980-01ab-493a-ac94-43667df0c38c"},"vehicle_type_id":"4","last_reported":1742836171,"current_range_meters":9200,"station_id":"ce4bhlp2rcd13ifvqgjg","pricing_plan_id":"cebpf4jnsgd1na2vs0mg"},{"bike_id":"bd12cfe3-06c8-4374-9446-3c70a2e69a82","system_id":"levelo_inurba_marseille","lat":43.26564,"lon":5.39006,"is_reserved":false,"is_disabled":false,"rental_uris":{"android":"levelo://app?vid=bd12cfe3-06c8-4374-9446-3c70a2e69a82","ios":"levelo://app?vid=bd12cfe3-06c8-4374-9446-3c70a2e69a82"},"vehicle_type_id":"4","last_reported":1742836171,"current_range_meters":9200,"station_id":"ce4bhe12rcd13ifvqf30","pricing_plan_id":"cebpf4jnsgd1na2vs0mg"},{"bike_id":"ae7aa3dd-7755-481c-9fe1-ef1d518137c2","system_id":"levelo_inurba_marseille","lat":43.28076,"lon":5.39646,"is_reserved":false,"is_disabled":false,"rental_uris":{"android":"levelo://app?vid=ae7aa3dd-7755-481c-9fe1-ef1d518137c2","ios":"levelo://app?vid=ae7aa3dd-7755-481c-9fe1-ef1d518137c2"},"vehicle_type_id":"4","last_reported":1742836171,"current_range_meters":9200,"station_id":"ce4bho12rcd13ifvqh2g","pricing_plan_id":"cebpf4jnsgd1na2vs0mg"},{"bike_id":"31f8dd2d-c09f-4b68-ac61-853e879a36cd","system_id":"levelo_inurba_marseille","lat":43.3014,"lon":5.38765,"is_reserved":false,"is_disabled":false,"rental_uris":{"android":"levelo://app?vid=31f8dd2d-c09f-4b68-ac61-853e879a36cd","ios":"levelo://app?vid=31f8dd2d-c09f-4b68-ac61-853e879a36cd"},"vehicle_type_id":"4","last_reported":1742836171,"current_range_meters":9200,"station_id":"ce4bghh2rcd13ifvqb60","pricing_plan_id":"cebpf4jnsgd1na2vs0mg"},{"bike_id":"ab109a35-cb7d-438b-8db8-1c92b3f80847","system_id":"levelo_inurba_marseille","lat":43.32016,"lon":5.3812,"is_reserved":false,"is_disabled":false,"rental_uris":{"android":"levelo://app?vid=ab109a35-cb7d-438b-8db8-1c92b3f80847","ios":"levelo://app?vid=ab109a35-cb7d-438b-8db8-1c92b3f80847"},"vehicle_type_id":"4","last_reported":1742836171,"current_range_meters":9200,"station_id":"ce4bhr12rcd13ifvqhpg","pricing_plan_id":"cebpf4jnsgd1na2vs0mg"},{"bike_id":"1bf06481-d9a0-4112-85ce-090f0c187592","system_id":"levelo_inurba_marseille","lat":43.30803,"lon":5.43517,"is_reserved":false,"is_disabled":false,"rental_uris":{"android":"levelo://app?vid=1bf06481-d9a0-4112-85ce-090f0c187592","ios":"levelo://app?vid=1bf06481-d9a0-4112-85ce-090f0c187592"},"vehicle_type_id":"4","last_reported":1742836171,"current_range_meters":9600,"station_id":"ce4bhph2rcd13ifvqheg","pricing_plan_id":"cebpf4jnsgd1na2vs0mg"},{"bike_id":"86b056c0-541a-4e34-ba80-cdd6cae4e027","system_id":"levelo_inurba_marseille","lat":43.25734,"lon":5.41119,"is_reserved":false,"is_disabled":false,"rental_uris":{"android":"levelo://app?vid=86b056c0-541a-4e34-ba80-cdd6cae4e027","ios":"levelo://app?vid=86b056c0-541a-4e34-ba80-cdd6cae4e027"},"vehicle_type_id":"4","last_reported":1742836171,"current_range_meters":9600,"station_id":"ce4bhkp2rcd13ifvqgd0","pricing_plan_id":"cebpf4jnsgd1na2vs0mg"},{"bike_id":"5d964be5-a48c-4c90-955e-4953f4d1a178","system_id":"levelo_inurba_marseille","lat":43.2455,"lon":5.39527,"is_reserved":false,"is_disabled":false,"rental_uris":{"android":"levelo://app?vid=5d964be5-a48c-4c90-955e-4953f4d1a178","ios":"levelo://app?vid=5d964be5-a48c-4c90-955e-4953f4d1a178"},"vehicle_type_id":"4","last_reported":1742836171,"current_range_meters":9600,"station_id":"ce4bhlp2rcd13ifvqgjg","pricing_plan_id":"cebpf4jnsgd1na2vs0mg"},{"bike_id":"0645919f-9dda-4ed0-b513-9ca60289b446","system_id":"levelo_inurba_marseille","lat":43.30522,"lon":5.3653,"is_reserved":false,"is_disabled":false,"rental_uris":{"android":"levelo://app?vid=0645919f-9dda-4ed0-b513-9ca60289b446","ios":"levelo://app?vid=0645919f-9dda-4ed0-b513-9ca60289b446"},"vehicle_type_id":"4","last_reported":1742836171,"current_range_meters":9600,"station_id":"","pricing_plan_id":"cebpf4jnsgd1na2vs0mg"},{"bike_id":"42a0b69b-f29a-4ea2-80ed-6573bad37aeb","system_id":"levelo_inurba_marseille","lat":43.2454,"lon":5.39525,"is_reserved":false,"is_disabled":false,"rental_uris":{"android":"levelo://app?vid=42a0b69b-f29a-4ea2-80ed-6573bad37aeb","ios":"levelo://app?vid=42a0b69b-f29a-4ea2-80ed-6573bad37aeb"},"vehicle_type_id":"4","last_reported":1742836171,"current_range_meters":9600,"station_id":"ce4bhlp2rcd13ifvqgjg","pricing_plan_id":"cebpf4jnsgd1na2vs0mg"},{"bike_id":"bd8048a1-6614-474f-9279-3ec4b8330dc0","system_id":"levelo_inurba_marseille","lat":43.32291,"lon":5.38277,"is_reserved":false,"is_disabled":false,"rental_uris":{"android":"levelo://app?vid=bd8048a1-6614-474f-9279-3ec4b8330dc0","ios":"levelo://app?vid=bd8048a1-6614-474f-9279-3ec4b8330dc0"},"vehicle_type_id":"4","last_reported":1742836171,"current_range_meters":9600,"station_id":"ce4bhr12rcd13ifvqhqg","pricing_plan_id":"cebpf4jnsgd1na2vs0mg"},{"bike_id":"4db7f2fa-c3ca-4108-ad58-1644c419963f","system_id":"levelo_inurba_marseille","lat":43.23158,"lon":5.43725,"is_reserved":false,"is_disabled":false,"rental_uris":{"android":"levelo://app?vid=4db7f2fa-c3ca-4108-ad58-1644c419963f","ios":"levelo://app?vid=4db7f2fa-c3ca-4108-ad58-1644c419963f"},"vehicle_type_id":"4","last_reported":1742836171,"current_range_meters":9600,"station_id":"ce4bhmp2rcd13ifvqgog","pricing_plan_id":"cebpf4jnsgd1na2vs0mg"},{"bike_id":"a5282f74-4fae-4145-92e0-0b61390c0994","system_id":"levelo_inurba_marseille","lat":43.23962,"lon":5.36631,"is_reserved":false,"is_disabled":false,"rental_uris":{"android":"levelo://app?vid=a5282f74-4fae-4145-92e0-0b61390c0994","ios":"levelo://app?vid=a5282f74-4fae-4145-92e0-0b61390c0994"},"vehicle_type_id":"4","last_reported":1742836171,"current_range_meters":9600,"station_id":"ce4bhi12rcd13ifvqfp0","pricing_plan_id":"cebpf4jnsgd1na2vs0mg"},{"bike_id":"c094919f-14ee-4ffc-9259-e33190fa310d","system_id":"levelo_inurba_marseille","lat":43.29958,"lon":5.38491,"is_reserved":false,"is_disabled":false,"rental_uris":{"android":"levelo://app?vid=c094919f-14ee-4ffc-9259-e33190fa310d","ios":"levelo://app?vid=c094919f-14ee-4ffc-9259-e33190fa310d"},"vehicle_type_id":"4","last_reported":1742836171,"current_range_meters":9600,"station_id":"ce4bgj92rcd13ifvqbd0","pricing_plan_id":"cebpf4jnsgd1na2vs0mg"},{"bike_id":"99904212-6af7-4dce-b464-f10893f3768b","system_id":"levelo_inurba_marseille","lat":43.25577,"lon":5.38246,"is_reserved":false,"is_disabled":false,"rental_uris":{"android":"levelo://app?vid=99904212-6af7-4dce-b464-f10893f3768b","ios":"levelo://app?vid=99904212-6af7-4dce-b464-f10893f3768b"},"vehicle_type_id":"4","last_reported":1742836171,"current_range_meters":9600,"station_id":"ce4bhih2rcd13ifvqfs0","pricing_plan_id":"cebpf4jnsgd1na2vs0mg"},{"bike_id":"75927f7b-b7af-425d-be41-2c9e710eb30a","system_id":"levelo_inurba_marseille","lat":43.32336,"lon":5.40621,"is_reserved":false,"is_disabled":false,"rental_uris":{"android":"levelo://app?vid=75927f7b-b7af-425d-be41-2c9e710eb30a","ios":"levelo://app?vid=75927f7b-b7af-425d-be41-2c9e710eb30a"},"vehicle_type_id":"4","last_reported":1742836171,"current_range_meters":9600,"station_id":"ce4bhq92rcd13ifvqhjg","pricing_plan_id":"cebpf4jnsgd1na2vs0mg"},{"bike_id":"2462aff4-312c-46a9-ae18-d864ef42c20c","system_id":"levelo_inurba_marseille","lat":43.241709,"lon":5.364023,"is_reserved":false,"is_disabled":false,"rental_uris":{"android":"levelo://app?vid=2462aff4-312c-46a9-ae18-d864ef42c20c","ios":"levelo://app?vid=2462aff4-312c-46a9-ae18-d864ef42c20c"},"vehicle_type_id":"4","last_reported":1742836171,"current_range_meters":10000,"station_id":"cpo36qri1sfpv3e86is0","pricing_plan_id":"cebpf4jnsgd1na2vs0mg"},{"bike_id":"76172c8b-6641-4a8f-a6eb-093ec95ae03a","system_id":"levelo_inurba_marseille","lat":43.2903,"lon":5.38649,"is_reserved":false,"is_disabled":false,"rental_uris":{"android":"levelo://app?vid=76172c8b-6641-4a8f-a6eb-093ec95ae03a","ios":"levelo://app?vid=76172c8b-6641-4a8f-a6eb-093ec95ae03a"},"vehicle_type_id":"4","last_reported":1742836171,"current_range_meters":10000,"station_id":"ce4bh4p2rcd13ifvqe0g","pricing_plan_id":"cebpf4jnsgd1na2vs0mg"},{"bike_id":"1b8779ee-15bd-411f-8230-66fb3b9d06b8","system_id":"levelo_inurba_marseille","lat":43.29904,"lon":5.43586,"is_reserved":false,"is_disabled":false,"rental_uris":{"android":"levelo://app?vid=1b8779ee-15bd-411f-8230-66fb3b9d06b8","ios":"levelo://app?vid=1b8779ee-15bd-411f-8230-66fb3b9d06b8"},"vehicle_type_id":"4","last_reported":1742836171,"current_range_meters":10000,"station_id":"","pricing_plan_id":"cebpf4jnsgd1na2vs0mg"},{"bike_id":"97face66-b732-4957-a972-02e60ed4638c","system_id":"levelo_inurba_marseille","lat":43.23195,"lon":5.35553,"is_reserved":false,"is_disabled":false,"rental_uris":{"android":"levelo://app?vid=97face66-b732-4957-a972-02e60ed4638c","ios":"levelo://app?vid=97face66-b732-4957-a972-02e60ed4638c"},"vehicle_type_id":"4","last_reported":1742836171,"current_range_meters":10000,"station_id":"ce4bhu92rcd13ifvqi70","pricing_plan_id":"cebpf4jnsgd1na2vs0mg"},{"bike_id":"d66d4ddd-d1da-4d00-857a-f37430fc692f","system_id":"levelo_inurba_marseille","lat":43.29609,"lon":5.38096,"is_reserved":false,"is_disabled":false,"rental_uris":{"android":"levelo://app?vid=d66d4ddd-d1da-4d00-857a-f37430fc692f","ios":"levelo://app?vid=d66d4ddd-d1da-4d00-857a-f37430fc692f"},"vehicle_type_id":"4","last_reported":1742836171,"current_range_meters":10000,"station_id":"ce4bgl12rcd13ifvqbo0","pricing_plan_id":"cebpf4jnsgd1na2vs0mg"},{"bike_id":"2ff570d2-4d8e-48ed-9e8e-8a83ca9149b2","system_id":"levelo_inurba_marseille","lat":43.2705,"lon":5.42272,"is_reserved":false,"is_disabled":true,"rental_uris":{"android":"levelo://app?vid=2ff570d2-4d8e-48ed-9e8e-8a83ca9149b2","ios":"levelo://app?vid=2ff570d2-4d8e-48ed-9e8e-8a83ca9149b2"},"vehicle_type_id":"4","last_reported":1742836171,"current_range_meters":10000,"station_id":"ce4bhk92rcd13ifvqgb0","pricing_plan_id":"cebpf4jnsgd1na2vs0mg"},{"bike_id":"30f3104d-0bc9-418a-aed0-26f343dc0cdf","system_id":"levelo_inurba_marseille","lat":43.24176,"lon":5.39741,"is_reserved":false,"is_disabled":false,"rental_uris":{"android":"levelo://app?vid=30f3104d-0bc9-418a-aed0-26f343dc0cdf","ios":"levelo://app?vid=30f3104d-0bc9-418a-aed0-26f343dc0cdf"},"vehicle_type_id":"4","last_reported":1742836171,"current_range_meters":10000,"station_id":"ce4bhn12rcd13ifvqgpg","pricing_plan_id":"cebpf4jnsgd1na2vs0mg"},{"bike_id":"0ac92826-79fa-4891-992f-76f6676093a9","system_id":"levelo_inurba_marseille","lat":43.28,"lon":5.41661,"is_reserved":false,"is_disabled":false,"rental_uris":{"android":"levelo://app?vid=0ac92826-79fa-4891-992f-76f6676093a9","ios":"levelo://app?vid=0ac92826-79fa-4891-992f-76f6676093a9"},"vehicle_type_id":"4","last_reported":1742836171,"current_range_meters":10000,"station_id":"ce4bho12rcd13ifvqh1g","pricing_plan_id":"cebpf4jnsgd1na2vs0mg"},{"bike_id":"d6b9068b-bec0-4f76-9c03-273151aa3d54","system_id":"levelo_inurba_marseille","lat":43.26559,"lon":5.37283,"is_reserved":false,"is_disabled":false,"rental_uris":{"android":"levelo://app?vid=d6b9068b-bec0-4f76-9c03-273151aa3d54","ios":"levelo://app?vid=d6b9068b-bec0-4f76-9c03-273151aa3d54"},"vehicle_type_id":"4","last_reported":1742836171,"current_range_meters":10000,"station_id":"ce4bhg12rcd13ifvqf70","pricing_plan_id":"cebpf4jnsgd1na2vs0mg"},{"bike_id":"1b2054d0-96c6-4335-8f94-0ebcd6f3446b","system_id":"levelo_inurba_marseille","lat":43.27618,"lon":5.36113,"is_reserved":false,"is_disabled":false,"rental_uris":{"android":"levelo://app?vid=1b2054d0-96c6-4335-8f94-0ebcd6f3446b","ios":"levelo://app?vid=1b2054d0-96c6-4335-8f94-0ebcd6f3446b"},"vehicle_type_id":"4","last_reported":1742836171,"current_range_meters":10800,"station_id":"ce4bgj92rcd13ifvqbe0","pricing_plan_id":"cebpf4jnsgd1na2vs0mg"},{"bike_id":"dadc285e-c9a7-47d1-8280-62326358c1b7","system_id":"levelo_inurba_marseille","lat":43.2606,"lon":5.39402,"is_reserved":false,"is_disabled":false,"rental_uris":{"android":"levelo://app?vid=dadc285e-c9a7-47d1-8280-62326358c1b7","ios":"levelo://app?vid=dadc285e-c9a7-47d1-8280-62326358c1b7"},"vehicle_type_id":"4","last_reported":1742836171,"current_range_meters":10800,"station_id":"ce4bhh92rcd13ifvqfj0","pricing_plan_id":"cebpf4jnsgd1na2vs0mg"},{"bike_id":"4a2d27cc-4700-4c00-923b-7bccb7c46c8d","system_id":"levelo_inurba_marseille","lat":43.30653,"lon":5.40085,"is_reserved":false,"is_disabled":false,"rental_uris":{"android":"levelo://app?vid=4a2d27cc-4700-4c00-923b-7bccb7c46c8d","ios":"levelo://app?vid=4a2d27cc-4700-4c00-923b-7bccb7c46c8d"},"vehicle_type_id":"4","last_reported":1742836171,"current_range_meters":10800,"station_id":"ce4bh112rcd13ifvqda0","pricing_plan_id":"cebpf4jnsgd1na2vs0mg"},{"bike_id":"dcf19b71-e419-4131-b366-2b2d698b362d","system_id":"levelo_inurba_marseille","lat":43.29524,"lon":5.39042,"is_reserved":false,"is_disabled":false,"rental_uris":{"android":"levelo://app?vid=dcf19b71-e419-4131-b366-2b2d698b362d","ios":"levelo://app?vid=dcf19b71-e419-4131-b366-2b2d698b362d"},"vehicle_type_id":"4","last_reported":1742836171,"current_range_meters":10800,"station_id":"ce4bh3p2rcd13ifvqdp0","pricing_plan_id":"cebpf4jnsgd1na2vs0mg"},{"bike_id":"8afd5bc5-b494-4596-a2ef-b1cb1f3de531","system_id":"levelo_inurba_marseille","lat":43.28351,"lon":5.38091,"is_reserved":false,"is_disabled":false,"rental_uris":{"android":"levelo://app?vid=8afd5bc5-b494-4596-a2ef-b1cb1f3de531","ios":"levelo://app?vid=8afd5bc5-b494-4596-a2ef-b1cb1f3de531"},"vehicle_type_id":"4","last_reported":1742836171,"current_range_meters":10800,"station_id":"ce4bh412rcd13ifvqdr0","pricing_plan_id":"cebpf4jnsgd1na2vs0mg"},{"bike_id":"9eef2c13-4412-429d-a6b0-e32bea5d5b99","system_id":"levelo_inurba_marseille","lat":43.32481,"lon":5.36572,"is_reserved":false,"is_disabled":false,"rental_uris":{"android":"levelo://app?vid=9eef2c13-4412-429d-a6b0-e32bea5d5b99","ios":"levelo://app?vid=9eef2c13-4412-429d-a6b0-e32bea5d5b99"},"vehicle_type_id":"4","last_reported":1742836171,"current_range_meters":10800,"station_id":"ce4bhs12rcd13ifvqhvg","pricing_plan_id":"cebpf4jnsgd1na2vs0mg"},{"bike_id":"c735b07a-c3d2-4391-8bc6-1f42b1d2dd91","system_id":"levelo_inurba_marseille","lat":43.2908,"lon":5.37171,"is_reserved":false,"is_disabled":false,"rental_uris":{"android":"levelo://app?vid=c735b07a-c3d2-4391-8bc6-1f42b1d2dd91","ios":"levelo://app?vid=c735b07a-c3d2-4391-8bc6-1f42b1d2dd91"},"vehicle_type_id":"4","last_reported":1742836171,"current_range_meters":10800,"station_id":"ce4bh5p2rcd13ifvqe4g","pricing_plan_id":"cebpf4jnsgd1na2vs0mg"},{"bike_id":"f64a5f06-bff4-4284-a64d-ce271f664dc4","system_id":"levelo_inurba_marseille","lat":43.26189,"lon":5.40554,"is_reserved":false,"is_disabled":false,"rental_uris":{"android":"levelo://app?vid=f64a5f06-bff4-4284-a64d-ce271f664dc4","ios":"levelo://app?vid=f64a5f06-bff4-4284-a64d-ce271f664dc4"},"vehicle_type_id":"4","last_reported":1742836171,"current_range_meters":10800,"station_id":"","pricing_plan_id":"cebpf4jnsgd1na2vs0mg"},{"bike_id":"a33ea316-a477-4b21-9e1a-cb1f468813f7","system_id":"levelo_inurba_marseille","lat":43.31318,"lon":5.39698,"is_reserved":false,"is_disabled":false,"rental_uris":{"android":"levelo://app?vid=a33ea316-a477-4b21-9e1a-cb1f468813f7","ios":"levelo://app?vid=a33ea316-a477-4b21-9e1a-cb1f468813f7"},"vehicle_type_id":"4","last_reported":1742836171,"current_range_meters":10800,"station_id":"ce4bgvp2rcd13ifvqcu0","pricing_plan_id":"cebpf4jnsgd1na2vs0mg"},{"bike_id":"a0d4632a-7a87-4031-aeeb-061ca0feaca6","system_id":"levelo_inurba_marseille","lat":43.2396,"lon":5.36617,"is_reserved":false,"is_disabled":false,"rental_uris":{"android":"levelo://app?vid=a0d4632a-7a87-4031-aeeb-061ca0feaca6","ios":"levelo://app?vid=a0d4632a-7a87-4031-aeeb-061ca0feaca6"},"vehicle_type_id":"4","last_reported":1742836171,"current_range_meters":11200,"station_id":"ce4bhi12rcd13ifvqfp0","pricing_plan_id":"cebpf4jnsgd1na2vs0mg"},{"bike_id":"ebf86de8-a3f7-4563-b9cd-62f5316ef4ec","system_id":"levelo_inurba_marseille","lat":43.30932,"lon":5.4016,"is_reserved":false,"is_disabled":true,"rental_uris":{"android":"levelo://app?vid=ebf86de8-a3f7-4563-b9cd-62f5316ef4ec","ios":"levelo://app?vid=ebf86de8-a3f7-4563-b9cd-62f5316ef4ec"},"vehicle_type_id":"4","last_reported":1742836171,"current_range_meters":11200,"station_id":"ce4bgvp2rcd13ifvqct0","pricing_plan_id":"cebpf4jnsgd1na2vs0mg"},{"bike_id":"61810642-2919-410b-af9b-bbbad70089cc","system_id":"levelo_inurba_marseille","lat":43.301399,"lon":5.387803,"is_reserved":false,"is_disabled":false,"rental_uris":{"android":"levelo://app?vid=61810642-2919-410b-af9b-bbbad70089cc","ios":"levelo://app?vid=61810642-2919-410b-af9b-bbbad70089cc"},"vehicle_type_id":"4","last_reported":1742836171,"current_range_meters":11200,"station_id":"ce4bghh2rcd13ifvqb60","pricing_plan_id":"cebpf4jnsgd1na2vs0mg"},{"bike_id":"38b49077-8506-4233-a53f-8924108bbdd1","system_id":"levelo_inurba_marseille","lat":43.292628,"lon":5.409189,"is_reserved":false,"is_disabled":false,"rental_uris":{"android":"levelo://app?vid=38b49077-8506-4233-a53f-8924108bbdd1","ios":"levelo://app?vid=38b49077-8506-4233-a53f-8924108bbdd1"},"vehicle_type_id":"4","last_reported":1742836171,"current_range_meters":11200,"station_id":"ce4bh192rcd13ifvqdc0","pricing_plan_id":"cebpf4jnsgd1na2vs0mg"},{"bike_id":"c9c19aa6-3fe4-401b-ab2c-9612f3df5e72","system_id":"levelo_inurba_marseille","lat":43.30966,"lon":5.39025,"is_reserved":false,"is_disabled":true,"rental_uris":{"android":"levelo://app?vid=c9c19aa6-3fe4-401b-ab2c-9612f3df5e72","ios":"levelo://app?vid=c9c19aa6-3fe4-401b-ab2c-9612f3df5e72"},"vehicle_type_id":"4","last_reported":1742836171,"current_range_meters":11200,"station_id":"ce4bgup2rcd13ifvqco0","pricing_plan_id":"cebpf4jnsgd1na2vs0mg"},{"bike_id":"d7556c01-6d5d-487a-a20c-73081695d43c","system_id":"levelo_inurba_marseille","lat":43.315,"lon":5.37307,"is_reserved":false,"is_disabled":false,"rental_uris":{"android":"levelo://app?vid=d7556c01-6d5d-487a-a20c-73081695d43c","ios":"levelo://app?vid=d7556c01-6d5d-487a-a20c-73081695d43c"},"vehicle_type_id":"4","last_reported":1742836171,"current_range_meters":11200,"station_id":"ce4bgt12rcd13ifvqcd0","pricing_plan_id":"cebpf4jnsgd1na2vs0mg"},{"bike_id":"8284de5c-d227-47cd-b1ac-1bc2e0170d0f","system_id":"levelo_inurba_marseille","lat":43.2783,"lon":5.40724,"is_reserved":false,"is_disabled":true,"rental_uris":{"android":"levelo://app?vid=8284de5c-d227-47cd-b1ac-1bc2e0170d0f","ios":"levelo://app?vid=8284de5c-d227-47cd-b1ac-1bc2e0170d0f"},"vehicle_type_id":"4","last_reported":1742836171,"current_range_meters":11600,"station_id":"ce4bhnh2rcd13ifvqgtg","pricing_plan_id":"cebpf4jnsgd1na2vs0mg"},{"bike_id":"55eee611-dec1-425c-8de2-65bb2ecfc77a","system_id":"levelo_inurba_marseille","lat":43.29099,"lon":5.38122,"is_reserved":false,"is_disabled":false,"rental_uris":{"android":"levelo://app?vid=55eee611-dec1-425c-8de2-65bb2ecfc77a","ios":"levelo://app?vid=55eee611-dec1-425c-8de2-65bb2ecfc77a"},"vehicle_type_id":"4","last_reported":1742836171,"current_range_meters":11200,"station_id":"ce4bh512rcd13ifvqe2g","pricing_plan_id":"cebpf4jnsgd1na2vs0mg"},{"bike_id":"ac9e6ecd-3eec-4bba-83c8-26223ac4b83d","system_id":"levelo_inurba_marseille","lat":43.28444,"lon":5.3919,"is_reserved":false,"is_disabled":false,"rental_uris":{"android":"levelo://app?vid=ac9e6ecd-3eec-4bba-83c8-26223ac4b83d","ios":"levelo://app?vid=ac9e6ecd-3eec-4bba-83c8-26223ac4b83d"},"vehicle_type_id":"4","last_reported":1742836171,"current_range_meters":11600,"station_id":"ce4bhoh2rcd13ifvqh5g","pricing_plan_id":"cebpf4jnsgd1na2vs0mg"},{"bike_id":"4e7895f6-cc0b-495a-8bb0-3ca1a33008ab","system_id":"levelo_inurba_marseille","lat":43.30144,"lon":5.38765,"is_reserved":false,"is_disabled":false,"rental_uris":{"android":"levelo://app?vid=4e7895f6-cc0b-495a-8bb0-3ca1a33008ab","ios":"levelo://app?vid=4e7895f6-cc0b-495a-8bb0-3ca1a33008ab"},"vehicle_type_id":"4","last_reported":1742836171,"current_range_meters":11600,"station_id":"ce4bghh2rcd13ifvqb60","pricing_plan_id":"cebpf4jnsgd1na2vs0mg"},{"bike_id":"177b4d1d-6c27-48e3-b85a-050f7ee17af3","system_id":"levelo_inurba_marseille","lat":43.25938,"lon":5.409176,"is_reserved":false,"is_disabled":false,"rental_uris":{"android":"levelo://app?vid=177b4d1d-6c27-48e3-b85a-050f7ee17af3","ios":"levelo://app?vid=177b4d1d-6c27-48e3-b85a-050f7ee17af3"},"vehicle_type_id":"4","last_reported":1742836171,"current_range_meters":11600,"station_id":"ce4bh692rcd13ifvqea0","pricing_plan_id":"cebpf4jnsgd1na2vs0mg"},{"bike_id":"a0d05f03-0e02-4b04-8fa4-3561235d49f8","system_id":"levelo_inurba_marseille","lat":43.28912,"lon":5.38392,"is_reserved":false,"is_disabled":true,"rental_uris":{"android":"levelo://app?vid=a0d05f03-0e02-4b04-8fa4-3561235d49f8","ios":"levelo://app?vid=a0d05f03-0e02-4b04-8fa4-3561235d49f8"},"vehicle_type_id":"4","last_reported":1742836171,"current_range_meters":12000,"station_id":"ce4bh612rcd13ifvqe6g","pricing_plan_id":"cebpf4jnsgd1na2vs0mg"},{"bike_id":"e1e35c11-11be-4d6b-9a98-3de91e1bd819","system_id":"levelo_inurba_marseille","lat":43.32497,"lon":5.36551,"is_reserved":false,"is_disabled":false,"rental_uris":{"android":"levelo://app?vid=e1e35c11-11be-4d6b-9a98-3de91e1bd819","ios":"levelo://app?vid=e1e35c11-11be-4d6b-9a98-3de91e1bd819"},"vehicle_type_id":"4","last_reported":1742836171,"current_range_meters":12000,"station_id":"ce4bhs12rcd13ifvqhvg","pricing_plan_id":"cebpf4jnsgd1na2vs0mg"},{"bike_id":"c384a728-9dd5-431f-88ab-639354d5385f","system_id":"levelo_inurba_marseille","lat":43.26066,"lon":5.39396,"is_reserved":false,"is_disabled":false,"rental_uris":{"android":"levelo://app?vid=c384a728-9dd5-431f-88ab-639354d5385f","ios":"levelo://app?vid=c384a728-9dd5-431f-88ab-639354d5385f"},"vehicle_type_id":"4","last_reported":1742836171,"current_range_meters":12000,"station_id":"ce4bhh92rcd13ifvqfj0","pricing_plan_id":"cebpf4jnsgd1na2vs0mg"},{"bike_id":"8b939fe7-37e4-4224-a2fa-f22cfbe50705","system_id":"levelo_inurba_marseille","lat":43.30136,"lon":5.39875,"is_reserved":false,"is_disabled":false,"rental_uris":{"android":"levelo://app?vid=8b939fe7-37e4-4224-a2fa-f22cfbe50705","ios":"levelo://app?vid=8b939fe7-37e4-4224-a2fa-f22cfbe50705"},"vehicle_type_id":"4","last_reported":1742836171,"current_range_meters":12000,"station_id":"ce4bh0h2rcd13ifvqd40","pricing_plan_id":"cebpf4jnsgd1na2vs0mg"},{"bike_id":"42e12277-2404-40c1-a358-f3ca2810181d","system_id":"levelo_inurba_marseille","lat":43.29851,"lon":5.36278,"is_reserved":false,"is_disabled":false,"rental_uris":{"android":"levelo://app?vid=42e12277-2404-40c1-a358-f3ca2810181d","ios":"levelo://app?vid=42e12277-2404-40c1-a358-f3ca2810181d"},"vehicle_type_id":"4","last_reported":1742836171,"current_range_meters":12000,"station_id":"ce4bgpp2rcd13ifvqc3g","pricing_plan_id":"cebpf4jnsgd1na2vs0mg"},{"bike_id":"101bc69d-0320-498e-abbd-f015caeb447c","system_id":"levelo_inurba_marseille","lat":43.23066,"lon":5.35508,"is_reserved":false,"is_disabled":false,"rental_uris":{"android":"levelo://app?vid=101bc69d-0320-498e-abbd-f015caeb447c","ios":"levelo://app?vid=101bc69d-0320-498e-abbd-f015caeb447c"},"vehicle_type_id":"4","last_reported":1742836171,"current_range_meters":12000,"station_id":"cpo3342slgdg3j2ifvpg","pricing_plan_id":"cebpf4jnsgd1na2vs0mg"},{"bike_id":"8a4e1b56-3d87-4f3b-964d-a86a28481bfc","system_id":"levelo_inurba_marseille","lat":43.26576,"lon":5.39035,"is_reserved":false,"is_disabled":false,"rental_uris":{"android":"levelo://app?vid=8a4e1b56-3d87-4f3b-964d-a86a28481bfc","ios":"levelo://app?vid=8a4e1b56-3d87-4f3b-964d-a86a28481bfc"},"vehicle_type_id":"4","last_reported":1742836171,"current_range_meters":12000,"station_id":"ce4bhe12rcd13ifvqf30","pricing_plan_id":"cebpf4jnsgd1na2vs0mg"},{"bike_id":"b80cef71-9250-491f-bbd3-83ef9ed785b3","system_id":"levelo_inurba_marseille","lat":43.27661,"lon":5.38841,"is_reserved":false,"is_disabled":false,"rental_uris":{"android":"levelo://app?vid=b80cef71-9250-491f-bbd3-83ef9ed785b3","ios":"levelo://app?vid=b80cef71-9250-491f-bbd3-83ef9ed785b3"},"vehicle_type_id":"4","last_reported":1742836171,"current_range_meters":12000,"station_id":"","pricing_plan_id":"cebpf4jnsgd1na2vs0mg"},{"bike_id":"fbfecbb6-5794-4d9a-9176-1810e4b4a7ef","system_id":"levelo_inurba_marseille","lat":43.23073,"lon":5.35494,"is_reserved":false,"is_disabled":false,"rental_uris":{"android":"levelo://app?vid=fbfecbb6-5794-4d9a-9176-1810e4b4a7ef","ios":"levelo://app?vid=fbfecbb6-5794-4d9a-9176-1810e4b4a7ef"},"vehicle_type_id":"4","last_reported":1742836171,"current_range_meters":12000,"station_id":"cpo3342slgdg3j2ifvpg","pricing_plan_id":"cebpf4jnsgd1na2vs0mg"},{"bike_id":"938c0f4e-65bf-479a-ba6e-fe7a68ff9b08","system_id":"levelo_inurba_marseille","lat":43.26533,"lon":5.37313,"is_reserved":false,"is_disabled":false,"rental_uris":{"android":"levelo://app?vid=938c0f4e-65bf-479a-ba6e-fe7a68ff9b08","ios":"levelo://app?vid=938c0f4e-65bf-479a-ba6e-fe7a68ff9b08"},"vehicle_type_id":"4","last_reported":1742836171,"current_range_meters":12000,"station_id":"ce4bhg12rcd13ifvqf70","pricing_plan_id":"cebpf4jnsgd1na2vs0mg"},{"bike_id":"33a6cce2-0fa5-4538-a99e-e8e1a9c55e18","system_id":"levelo_inurba_marseille","lat":43.25823,"lon":5.3944,"is_reserved":false,"is_disabled":false,"rental_uris":{"android":"levelo://app?vid=33a6cce2-0fa5-4538-a99e-e8e1a9c55e18","ios":"levelo://app?vid=33a6cce2-0fa5-4538-a99e-e8e1a9c55e18"},"vehicle_type_id":"4","last_reported":1742836171,"current_range_meters":12400,"station_id":"ce4bhip2rcd13ifvqft0","pricing_plan_id":"cebpf4jnsgd1na2vs0mg"},{"bike_id":"edb48790-e163-4af8-849a-ba1252cba588","system_id":"levelo_inurba_marseille","lat":43.29592,"lon":5.38091,"is_reserved":false,"is_disabled":false,"rental_uris":{"android":"levelo://app?vid=edb48790-e163-4af8-849a-ba1252cba588","ios":"levelo://app?vid=edb48790-e163-4af8-849a-ba1252cba588"},"vehicle_type_id":"4","last_reported":1742836171,"current_range_meters":12400,"station_id":"ce4bgl12rcd13ifvqbo0","pricing_plan_id":"cebpf4jnsgd1na2vs0mg"},{"bike_id":"a0a460eb-34d7-43d6-85ef-87b30455cbf0","system_id":"levelo_inurba_marseille","lat":43.23962,"lon":5.36628,"is_reserved":false,"is_disabled":false,"rental_uris":{"android":"levelo://app?vid=a0a460eb-34d7-43d6-85ef-87b30455cbf0","ios":"levelo://app?vid=a0a460eb-34d7-43d6-85ef-87b30455cbf0"},"vehicle_type_id":"4","last_reported":1742836171,"current_range_meters":12400,"station_id":"ce4bhi12rcd13ifvqfp0","pricing_plan_id":"cebpf4jnsgd1na2vs0mg"},{"bike_id":"92046bbf-9834-4828-9b8e-81741d3e1a9c","system_id":"levelo_inurba_marseille","lat":43.29981,"lon":5.37181,"is_reserved":false,"is_disabled":false,"rental_uris":{"android":"levelo://app?vid=92046bbf-9834-4828-9b8e-81741d3e1a9c","ios":"levelo://app?vid=92046bbf-9834-4828-9b8e-81741d3e1a9c"},"vehicle_type_id":"4","last_reported":1742836171,"current_range_meters":12400,"station_id":"ce4bgr92rcd13ifvqc7g","pricing_plan_id":"cebpf4jnsgd1na2vs0mg"},{"bike_id":"69956a41-893b-4f1d-bce8-ebdb162481e1","system_id":"levelo_inurba_marseille","lat":43.24559,"lon":5.39542,"is_reserved":false,"is_disabled":false,"rental_uris":{"android":"levelo://app?vid=69956a41-893b-4f1d-bce8-ebdb162481e1","ios":"levelo://app?vid=69956a41-893b-4f1d-bce8-ebdb162481e1"},"vehicle_type_id":"4","last_reported":1742836171,"current_range_meters":12400,"station_id":"ce4bhlp2rcd13ifvqgjg","pricing_plan_id":"cebpf4jnsgd1na2vs0mg"},{"bike_id":"ad0fc362-244e-4e2e-becb-3195eb91e3a8","system_id":"levelo_inurba_marseille","lat":43.25114,"lon":5.4032,"is_reserved":false,"is_disabled":false,"rental_uris":{"android":"levelo://app?vid=ad0fc362-244e-4e2e-becb-3195eb91e3a8","ios":"levelo://app?vid=ad0fc362-244e-4e2e-becb-3195eb91e3a8"},"vehicle_type_id":"4","last_reported":1742836171,"current_range_meters":12400,"station_id":"ce4bhlh2rcd13ifvqgig","pricing_plan_id":"cebpf4jnsgd1na2vs0mg"},{"bike_id":"4af4385b-bd7c-4887-a3da-0d2384494d77","system_id":"levelo_inurba_marseille","lat":43.25931,"lon":5.40946,"is_reserved":false,"is_disabled":false,"rental_uris":{"android":"levelo://app?vid=4af4385b-bd7c-4887-a3da-0d2384494d77","ios":"levelo://app?vid=4af4385b-bd7c-4887-a3da-0d2384494d77"},"vehicle_type_id":"4","last_reported":1742836171,"current_range_meters":12800,"station_id":"ce4bhm92rcd13ifvqglg","pricing_plan_id":"cebpf4jnsgd1na2vs0mg"},{"bike_id":"d3e0f8c8-cc25-4eb0-873a-1104a390d9bd","system_id":"levelo_inurba_marseille","lat":43.28185,"lon":5.40413,"is_reserved":false,"is_disabled":false,"rental_uris":{"android":"levelo://app?vid=d3e0f8c8-cc25-4eb0-873a-1104a390d9bd","ios":"levelo://app?vid=d3e0f8c8-cc25-4eb0-873a-1104a390d9bd"},"vehicle_type_id":"4","last_reported":1742836171,"current_range_meters":12800,"station_id":"","pricing_plan_id":"cebpf4jnsgd1na2vs0mg"},{"bike_id":"fbd693f8-27b3-4c77-b66f-6f49bf575531","system_id":"levelo_inurba_marseille","lat":43.29633,"lon":5.40588,"is_reserved":false,"is_disabled":false,"rental_uris":{"android":"levelo://app?vid=fbd693f8-27b3-4c77-b66f-6f49bf575531","ios":"levelo://app?vid=fbd693f8-27b3-4c77-b66f-6f49bf575531"},"vehicle_type_id":"4","last_reported":1742836171,"current_range_meters":12800,"station_id":"ce4bh0h2rcd13ifvqd60","pricing_plan_id":"cebpf4jnsgd1na2vs0mg"},{"bike_id":"d1347470-dce7-4bf6-b57b-e50d13e6362d","system_id":"levelo_inurba_marseille","lat":43.31075,"lon":5.38357,"is_reserved":false,"is_disabled":false,"rental_uris":{"android":"levelo://app?vid=d1347470-dce7-4bf6-b57b-e50d13e6362d","ios":"levelo://app?vid=d1347470-dce7-4bf6-b57b-e50d13e6362d"},"vehicle_type_id":"4","last_reported":1742836171,"current_range_meters":12800,"station_id":"ce4bgv92rcd13ifvqcr0","pricing_plan_id":"cebpf4jnsgd1na2vs0mg"},{"bike_id":"c353c957-fbb8-408a-9097-46c8d6b68074","system_id":"levelo_inurba_marseille","lat":43.24183,"lon":5.39713,"is_reserved":false,"is_disabled":false,"rental_uris":{"android":"levelo://app?vid=c353c957-fbb8-408a-9097-46c8d6b68074","ios":"levelo://app?vid=c353c957-fbb8-408a-9097-46c8d6b68074"},"vehicle_type_id":"4","last_reported":1742836171,"current_range_meters":12800,"station_id":"ce4bhn12rcd13ifvqgpg","pricing_plan_id":"cebpf4jnsgd1na2vs0mg"},{"bike_id":"6bb6f1fc-5b4f-4f3d-97c1-f093e7e9a8ef","system_id":"levelo_inurba_marseille","lat":43.23067,"lon":5.35521,"is_reserved":false,"is_disabled":false,"rental_uris":{"android":"levelo://app?vid=6bb6f1fc-5b4f-4f3d-97c1-f093e7e9a8ef","ios":"levelo://app?vid=6bb6f1fc-5b4f-4f3d-97c1-f093e7e9a8ef"},"vehicle_type_id":"4","last_reported":1742836171,"current_range_meters":12800,"station_id":"cpo3342slgdg3j2ifvpg","pricing_plan_id":"cebpf4jnsgd1na2vs0mg"},{"bike_id":"e7f08e98-928c-4850-a25d-f091d104e3fb","system_id":"levelo_inurba_marseille","lat":43.28721,"lon":5.36101,"is_reserved":false,"is_disabled":false,"rental_uris":{"android":"levelo://app?vid=e7f08e98-928c-4850-a25d-f091d104e3fb","ios":"levelo://app?vid=e7f08e98-928c-4850-a25d-f091d104e3fb"},"vehicle_type_id":"4","last_reported":1742836171,"current_range_meters":12800,"station_id":"cki0cbj6b192h4jlfktg","pricing_plan_id":"cebpf4jnsgd1na2vs0mg"},{"bike_id":"5e83d74a-9965-4c7a-a982-451f4475e9f5","system_id":"levelo_inurba_marseille","lat":43.27883,"lon":5.37986,"is_reserved":false,"is_disabled":false,"rental_uris":{"android":"levelo://app?vid=5e83d74a-9965-4c7a-a982-451f4475e9f5","ios":"levelo://app?vid=5e83d74a-9965-4c7a-a982-451f4475e9f5"},"vehicle_type_id":"4","last_reported":1742836171,"current_range_meters":13600,"station_id":"ce4bhf92rcd13ifvqf50","pricing_plan_id":"cebpf4jnsgd1na2vs0mg"},{"bike_id":"8871fee1-c30f-4721-bb9f-022f22051a94","system_id":"levelo_inurba_marseille","lat":43.2419,"lon":5.39737,"is_reserved":false,"is_disabled":false,"rental_uris":{"android":"levelo://app?vid=8871fee1-c30f-4721-bb9f-022f22051a94","ios":"levelo://app?vid=8871fee1-c30f-4721-bb9f-022f22051a94"},"vehicle_type_id":"4","last_reported":1742836171,"current_range_meters":13600,"station_id":"ce4bhn12rcd13ifvqgpg","pricing_plan_id":"cebpf4jnsgd1na2vs0mg"},{"bike_id":"fe1816da-da08-4661-8bde-69e34af47cfc","system_id":"levelo_inurba_marseille","lat":43.2845,"lon":5.39204,"is_reserved":false,"is_disabled":false,"rental_uris":{"android":"levelo://app?vid=fe1816da-da08-4661-8bde-69e34af47cfc","ios":"levelo://app?vid=fe1816da-da08-4661-8bde-69e34af47cfc"},"vehicle_type_id":"4","last_reported":1742836171,"current_range_meters":13600,"station_id":"ce4bhoh2rcd13ifvqh5g","pricing_plan_id":"cebpf4jnsgd1na2vs0mg"},{"bike_id":"2a99ecb7-4bf0-4c00-89bb-11ff019b8a6d","system_id":"levelo_inurba_marseille","lat":43.22935,"lon":5.35376,"is_reserved":false,"is_disabled":false,"rental_uris":{"android":"levelo://app?vid=2a99ecb7-4bf0-4c00-89bb-11ff019b8a6d","ios":"levelo://app?vid=2a99ecb7-4bf0-4c00-89bb-11ff019b8a6d"},"vehicle_type_id":"4","last_reported":1742836171,"current_range_meters":13600,"station_id":"cpo3532slgdg3j2ikp40","pricing_plan_id":"cebpf4jnsgd1na2vs0mg"},{"bike_id":"1887fe37-51a0-4284-bd26-ea9ec274ce5e","system_id":"levelo_inurba_marseille","lat":43.25711,"lon":5.41156,"is_reserved":false,"is_disabled":false,"rental_uris":{"android":"levelo://app?vid=1887fe37-51a0-4284-bd26-ea9ec274ce5e","ios":"levelo://app?vid=1887fe37-51a0-4284-bd26-ea9ec274ce5e"},"vehicle_type_id":"4","last_reported":1742836171,"current_range_meters":13600,"station_id":"ce4bhkp2rcd13ifvqgd0","pricing_plan_id":"cebpf4jnsgd1na2vs0mg"},{"bike_id":"0bf54aa5-d8ac-4146-8dc1-0c7bc7825ce7","system_id":"levelo_inurba_marseille","lat":43.286987,"lon":5.399764,"is_reserved":false,"is_disabled":false,"rental_uris":{"android":"levelo://app?vid=0bf54aa5-d8ac-4146-8dc1-0c7bc7825ce7","ios":"levelo://app?vid=0bf54aa5-d8ac-4146-8dc1-0c7bc7825ce7"},"vehicle_type_id":"4","last_reported":1742836171,"current_range_meters":13600,"station_id":"ce4bh2h2rcd13ifvqdh0","pricing_plan_id":"cebpf4jnsgd1na2vs0mg"},{"bike_id":"008c8db6-be2b-43ce-8a53-8af51fd8b577","system_id":"levelo_inurba_marseille","lat":43.24187,"lon":5.39721,"is_reserved":false,"is_disabled":false,"rental_uris":{"android":"levelo://app?vid=008c8db6-be2b-43ce-8a53-8af51fd8b577","ios":"levelo://app?vid=008c8db6-be2b-43ce-8a53-8af51fd8b577"},"vehicle_type_id":"4","last_reported":1742836171,"current_range_meters":13600,"station_id":"ce4bhn12rcd13ifvqgpg","pricing_plan_id":"cebpf4jnsgd1na2vs0mg"},{"bike_id":"b3fea36d-94d7-404f-8016-b29b4da5fbd0","system_id":"levelo_inurba_marseille","lat":43.28936,"lon":5.3664,"is_reserved":false,"is_disabled":false,"rental_uris":{"android":"levelo://app?vid=b3fea36d-94d7-404f-8016-b29b4da5fbd0","ios":"levelo://app?vid=b3fea36d-94d7-404f-8016-b29b4da5fbd0"},"vehicle_type_id":"4","last_reported":1742836171,"current_range_meters":13600,"station_id":"ce4bhap2rcd13ifvqek0","pricing_plan_id":"cebpf4jnsgd1na2vs0mg"},{"bike_id":"f508eea3-d074-440a-9495-c69ccd821811","system_id":"levelo_inurba_marseille","lat":43.29887,"lon":5.39736,"is_reserved":false,"is_disabled":false,"rental_uris":{"android":"levelo://app?vid=f508eea3-d074-440a-9495-c69ccd821811","ios":"levelo://app?vid=f508eea3-d074-440a-9495-c69ccd821811"},"vehicle_type_id":"4","last_reported":1742836171,"current_range_meters":13600,"station_id":"ce4bh0h2rcd13ifvqd50","pricing_plan_id":"cebpf4jnsgd1na2vs0mg"},{"bike_id":"8a9c610a-3350-4cf9-866d-587515cee7c0","system_id":"levelo_inurba_marseille","lat":43.29367,"lon":5.40299,"is_reserved":false,"is_disabled":false,"rental_uris":{"android":"levelo://app?vid=8a9c610a-3350-4cf9-866d-587515cee7c0","ios":"levelo://app?vid=8a9c610a-3350-4cf9-866d-587515cee7c0"},"vehicle_type_id":"4","last_reported":1742836171,"current_range_meters":13600,"station_id":"ce4bh0h2rcd13ifvqd60","pricing_plan_id":"cebpf4jnsgd1na2vs0mg"},{"bike_id":"7da1780c-a707-4e5c-9536-83f171012129","system_id":"levelo_inurba_marseille","lat":43.3108,"lon":5.3836,"is_reserved":false,"is_disabled":false,"rental_uris":{"android":"levelo://app?vid=7da1780c-a707-4e5c-9536-83f171012129","ios":"levelo://app?vid=7da1780c-a707-4e5c-9536-83f171012129"},"vehicle_type_id":"4","last_reported":1742836171,"current_range_meters":14000,"station_id":"ce4bgv92rcd13ifvqcr0","pricing_plan_id":"cebpf4jnsgd1na2vs0mg"},{"bike_id":"2f95d84a-f03d-40d7-98e6-71c071e2bbde","system_id":"levelo_inurba_marseille","lat":43.28079,"lon":5.39647,"is_reserved":false,"is_disabled":false,"rental_uris":{"android":"levelo://app?vid=2f95d84a-f03d-40d7-98e6-71c071e2bbde","ios":"levelo://app?vid=2f95d84a-f03d-40d7-98e6-71c071e2bbde"},"vehicle_type_id":"4","last_reported":1742836171,"current_range_meters":14000,"station_id":"ce4bho12rcd13ifvqh2g","pricing_plan_id":"cebpf4jnsgd1na2vs0mg"},{"bike_id":"73d4ee90-c383-4188-ac42-34bd93d6ff6a","system_id":"levelo_inurba_marseille","lat":43.26225,"lon":5.4045,"is_reserved":false,"is_disabled":false,"rental_uris":{"android":"levelo://app?vid=73d4ee90-c383-4188-ac42-34bd93d6ff6a","ios":"levelo://app?vid=73d4ee90-c383-4188-ac42-34bd93d6ff6a"},"vehicle_type_id":"4","last_reported":1742836171,"current_range_meters":14000,"station_id":"ce4bhmh2rcd13ifvqgmg","pricing_plan_id":"cebpf4jnsgd1na2vs0mg"},{"bike_id":"2c49ac05-b437-4e53-a732-dd335b95df30","system_id":"levelo_inurba_marseille","lat":43.31087,"lon":5.42458,"is_reserved":false,"is_disabled":false,"rental_uris":{"android":"levelo://app?vid=2c49ac05-b437-4e53-a732-dd335b95df30","ios":"levelo://app?vid=2c49ac05-b437-4e53-a732-dd335b95df30"},"vehicle_type_id":"4","last_reported":1742836171,"current_range_meters":14000,"station_id":"ce4bhp92rcd13ifvqhag","pricing_plan_id":"cebpf4jnsgd1na2vs0mg"},{"bike_id":"8f208df7-81e0-45c5-bd98-a49c85a38fa2","system_id":"levelo_inurba_marseille","lat":43.30324,"lon":5.36906,"is_reserved":false,"is_disabled":false,"rental_uris":{"android":"levelo://app?vid=8f208df7-81e0-45c5-bd98-a49c85a38fa2","ios":"levelo://app?vid=8f208df7-81e0-45c5-bd98-a49c85a38fa2"},"vehicle_type_id":"4","last_reported":1742836171,"current_range_meters":14000,"station_id":"ce4bgqh2rcd13ifvqc5g","pricing_plan_id":"cebpf4jnsgd1na2vs0mg"},{"bike_id":"6175ada3-0fe8-4ff7-8a9f-e5d85e3025f5","system_id":"levelo_inurba_marseille","lat":43.30237,"lon":5.40059,"is_reserved":false,"is_disabled":false,"rental_uris":{"android":"levelo://app?vid=6175ada3-0fe8-4ff7-8a9f-e5d85e3025f5","ios":"levelo://app?vid=6175ada3-0fe8-4ff7-8a9f-e5d85e3025f5"},"vehicle_type_id":"4","last_reported":1742836171,"current_range_meters":14000,"station_id":"ce4bgvh2rcd13ifvqcs0","pricing_plan_id":"cebpf4jnsgd1na2vs0mg"},{"bike_id":"0a2fd2bd-0465-4490-8bf0-a948a7c174a7","system_id":"levelo_inurba_marseille","lat":43.26569,"lon":5.39036,"is_reserved":false,"is_disabled":true,"rental_uris":{"android":"levelo://app?vid=0a2fd2bd-0465-4490-8bf0-a948a7c174a7","ios":"levelo://app?vid=0a2fd2bd-0465-4490-8bf0-a948a7c174a7"},"vehicle_type_id":"4","last_reported":1742836171,"current_range_meters":14000,"station_id":"ce4bhe12rcd13ifvqf30","pricing_plan_id":"cebpf4jnsgd1na2vs0mg"},{"bike_id":"d931181c-e226-48e7-8c6e-575b6c6765fe","system_id":"levelo_inurba_marseille","lat":43.29787,"lon":5.3809,"is_reserved":false,"is_disabled":false,"rental_uris":{"android":"levelo://app?vid=d931181c-e226-48e7-8c6e-575b6c6765fe","ios":"levelo://app?vid=d931181c-e226-48e7-8c6e-575b6c6765fe"},"vehicle_type_id":"4","last_reported":1742836171,"current_range_meters":14000,"station_id":"ce4bgip2rcd13ifvqbb0","pricing_plan_id":"cebpf4jnsgd1na2vs0mg"},{"bike_id":"cfba7878-c036-461e-a1a6-18cd6c9a5373","system_id":"levelo_inurba_marseille","lat":43.30245,"lon":5.40055,"is_reserved":false,"is_disabled":false,"rental_uris":{"android":"levelo://app?vid=cfba7878-c036-461e-a1a6-18cd6c9a5373","ios":"levelo://app?vid=cfba7878-c036-461e-a1a6-18cd6c9a5373"},"vehicle_type_id":"4","last_reported":1742836171,"current_range_meters":14000,"station_id":"ce4bgvh2rcd13ifvqcs0","pricing_plan_id":"cebpf4jnsgd1na2vs0mg"},{"bike_id":"f51e4a33-f5d0-4922-ac27-e70c0946456f","system_id":"levelo_inurba_marseille","lat":43.33724,"lon":5.39186,"is_reserved":false,"is_disabled":false,"rental_uris":{"android":"levelo://app?vid=f51e4a33-f5d0-4922-ac27-e70c0946456f","ios":"levelo://app?vid=f51e4a33-f5d0-4922-ac27-e70c0946456f"},"vehicle_type_id":"4","last_reported":1742836171,"current_range_meters":14400,"station_id":"ce4bhr92rcd13ifvqhsg","pricing_plan_id":"cebpf4jnsgd1na2vs0mg"},{"bike_id":"e3f76d45-4904-44a7-aac2-e04832e991bb","system_id":"levelo_inurba_marseille","lat":43.29975,"lon":5.4134,"is_reserved":false,"is_disabled":true,"rental_uris":{"android":"levelo://app?vid=e3f76d45-4904-44a7-aac2-e04832e991bb","ios":"levelo://app?vid=e3f76d45-4904-44a7-aac2-e04832e991bb"},"vehicle_type_id":"4","last_reported":1742836171,"current_range_meters":14400,"station_id":"ce4bhp12rcd13ifvqh9g","pricing_plan_id":"cebpf4jnsgd1na2vs0mg"},{"bike_id":"cee034e8-6412-4a38-ab45-4f8791bf831f","system_id":"levelo_inurba_marseille","lat":43.28708,"lon":5.39977,"is_reserved":false,"is_disabled":false,"rental_uris":{"android":"levelo://app?vid=cee034e8-6412-4a38-ab45-4f8791bf831f","ios":"levelo://app?vid=cee034e8-6412-4a38-ab45-4f8791bf831f"},"vehicle_type_id":"4","last_reported":1742836171,"current_range_meters":14400,"station_id":"ce4bho92rcd13ifvqh3g","pricing_plan_id":"cebpf4jnsgd1na2vs0mg"},{"bike_id":"2f3e2a92-1301-4a27-8eaa-7b0ea525530e","system_id":"levelo_inurba_marseille","lat":43.31738,"lon":5.43717,"is_reserved":false,"is_disabled":false,"rental_uris":{"android":"levelo://app?vid=2f3e2a92-1301-4a27-8eaa-7b0ea525530e","ios":"levelo://app?vid=2f3e2a92-1301-4a27-8eaa-7b0ea525530e"},"vehicle_type_id":"4","last_reported":1742836171,"current_range_meters":14400,"station_id":"ce4bhp92rcd13ifvqhcg","pricing_plan_id":"cebpf4jnsgd1na2vs0mg"},{"bike_id":"f37a3f7e-932c-4a38-b7e7-ea0ffb089ec7","system_id":"levelo_inurba_marseille","lat":43.2721,"lon":5.3918,"is_reserved":false,"is_disabled":false,"rental_uris":{"android":"levelo://app?vid=f37a3f7e-932c-4a38-b7e7-ea0ffb089ec7","ios":"levelo://app?vid=f37a3f7e-932c-4a38-b7e7-ea0ffb089ec7"},"vehicle_type_id":"4","last_reported":1742836171,"current_range_meters":14400,"station_id":"ce4bhhp2rcd13ifvqfm0","pricing_plan_id":"cebpf4jnsgd1na2vs0mg"},{"bike_id":"2231a0d0-ce3a-4f17-8baa-74f11eb88522","system_id":"levelo_inurba_marseille","lat":43.26684,"lon":5.38277,"is_reserved":false,"is_disabled":false,"rental_uris":{"android":"levelo://app?vid=2231a0d0-ce3a-4f17-8baa-74f11eb88522","ios":"levelo://app?vid=2231a0d0-ce3a-4f17-8baa-74f11eb88522"},"vehicle_type_id":"4","last_reported":1742836171,"current_range_meters":14400,"station_id":"ce4bhg92rcd13ifvqf90","pricing_plan_id":"cebpf4jnsgd1na2vs0mg"},{"bike_id":"e2a67466-ee5e-4dbf-95ec-f2ce09f64ea0","system_id":"levelo_inurba_marseille","lat":43.29173,"lon":5.37159,"is_reserved":false,"is_disabled":false,"rental_uris":{"android":"levelo://app?vid=e2a67466-ee5e-4dbf-95ec-f2ce09f64ea0","ios":"levelo://app?vid=e2a67466-ee5e-4dbf-95ec-f2ce09f64ea0"},"vehicle_type_id":"4","last_reported":1742836171,"current_range_meters":14400,"station_id":"ce4bha92rcd13ifvqeh0","pricing_plan_id":"cebpf4jnsgd1na2vs0mg"},{"bike_id":"552fb8ff-98a7-4106-b06d-1880af44f89c","system_id":"levelo_inurba_marseille","lat":43.30104,"lon":5.39076,"is_reserved":false,"is_disabled":false,"rental_uris":{"android":"levelo://app?vid=552fb8ff-98a7-4106-b06d-1880af44f89c","ios":"levelo://app?vid=552fb8ff-98a7-4106-b06d-1880af44f89c"},"vehicle_type_id":"4","last_reported":1742836171,"current_range_meters":14400,"station_id":"ce4bh192rcd13ifvqdb0","pricing_plan_id":"cebpf4jnsgd1na2vs0mg"},{"bike_id":"3acf3c45-a6f2-4ec1-9865-48dbe2d4ec0c","system_id":"levelo_inurba_marseille","lat":43.31277,"lon":5.40169,"is_reserved":false,"is_disabled":false,"rental_uris":{"android":"levelo://app?vid=3acf3c45-a6f2-4ec1-9865-48dbe2d4ec0c","ios":"levelo://app?vid=3acf3c45-a6f2-4ec1-9865-48dbe2d4ec0c"},"vehicle_type_id":"4","last_reported":1742836171,"current_range_meters":14400,"station_id":"ce4bh092rcd13ifvqd30","pricing_plan_id":"cebpf4jnsgd1na2vs0mg"},{"bike_id":"137391ed-0f19-4569-b286-f2576a72a9b2","system_id":"levelo_inurba_marseille","lat":43.290244,"lon":5.38633,"is_reserved":false,"is_disabled":false,"rental_uris":{"android":"levelo://app?vid=137391ed-0f19-4569-b286-f2576a72a9b2","ios":"levelo://app?vid=137391ed-0f19-4569-b286-f2576a72a9b2"},"vehicle_type_id":"4","last_reported":1742836171,"current_range_meters":14400,"station_id":"ce4bh4p2rcd13ifvqe0g","pricing_plan_id":"cebpf4jnsgd1na2vs0mg"},{"bike_id":"6adb5407-e228-44f4-a1da-80d9852b3164","system_id":"levelo_inurba_marseille","lat":43.25015,"lon":5.38926,"is_reserved":false,"is_disabled":false,"rental_uris":{"android":"levelo://app?vid=6adb5407-e228-44f4-a1da-80d9852b3164","ios":"levelo://app?vid=6adb5407-e228-44f4-a1da-80d9852b3164"},"vehicle_type_id":"4","last_reported":1742836171,"current_range_meters":14400,"station_id":"ce4bhgp2rcd13ifvqfd0","pricing_plan_id":"cebpf4jnsgd1na2vs0mg"},{"bike_id":"b28ecb00-2b9b-4665-8ad5-1aeb61554a5a","system_id":"levelo_inurba_marseille","lat":43.29871,"lon":5.39734,"is_reserved":false,"is_disabled":false,"rental_uris":{"android":"levelo://app?vid=b28ecb00-2b9b-4665-8ad5-1aeb61554a5a","ios":"levelo://app?vid=b28ecb00-2b9b-4665-8ad5-1aeb61554a5a"},"vehicle_type_id":"4","last_reported":1742836171,"current_range_meters":14800,"station_id":"ce4bh0h2rcd13ifvqd50","pricing_plan_id":"cebpf4jnsgd1na2vs0mg"},{"bike_id":"134a205d-46ae-4dee-8c1a-5e151dd78ec4","system_id":"levelo_inurba_marseille","lat":43.33027,"lon":5.39042,"is_reserved":false,"is_disabled":false,"rental_uris":{"android":"levelo://app?vid=134a205d-46ae-4dee-8c1a-5e151dd78ec4","ios":"levelo://app?vid=134a205d-46ae-4dee-8c1a-5e151dd78ec4"},"vehicle_type_id":"4","last_reported":1742836171,"current_range_meters":14800,"station_id":"ce4bhr92rcd13ifvqhrg","pricing_plan_id":"cebpf4jnsgd1na2vs0mg"},{"bike_id":"cb1acdd8-2fdc-44c0-865b-532ef2ce4bda","system_id":"levelo_inurba_marseille","lat":43.27942,"lon":5.41046,"is_reserved":false,"is_disabled":false,"rental_uris":{"android":"levelo://app?vid=cb1acdd8-2fdc-44c0-865b-532ef2ce4bda","ios":"levelo://app?vid=cb1acdd8-2fdc-44c0-865b-532ef2ce4bda"},"vehicle_type_id":"4","last_reported":1742836171,"current_range_meters":14800,"station_id":"ce4bhnp2rcd13ifvqh0g","pricing_plan_id":"cebpf4jnsgd1na2vs0mg"},{"bike_id":"b82c062b-ed6f-4114-8bdf-6d996a293c90","system_id":"levelo_inurba_marseille","lat":43.32112,"lon":5.36774,"is_reserved":false,"is_disabled":false,"rental_uris":{"android":"levelo://app?vid=b82c062b-ed6f-4114-8bdf-6d996a293c90","ios":"levelo://app?vid=b82c062b-ed6f-4114-8bdf-6d996a293c90"},"vehicle_type_id":"4","last_reported":1742836171,"current_range_meters":14800,"station_id":"ce4bhrh2rcd13ifvqhug","pricing_plan_id":"cebpf4jnsgd1na2vs0mg"},{"bike_id":"e063b81c-36a2-48dc-8e11-34fbe86ad6ab","system_id":"levelo_inurba_marseille","lat":43.29275,"lon":5.4012,"is_reserved":false,"is_disabled":false,"rental_uris":{"android":"levelo://app?vid=e063b81c-36a2-48dc-8e11-34fbe86ad6ab","ios":"levelo://app?vid=e063b81c-36a2-48dc-8e11-34fbe86ad6ab"},"vehicle_type_id":"4","last_reported":1742836171,"current_range_meters":14800,"station_id":"ce4bh312rcd13ifvqdk0","pricing_plan_id":"cebpf4jnsgd1na2vs0mg"},{"bike_id":"33995a8f-7cc1-47e3-a638-202fff118850","system_id":"levelo_inurba_marseille","lat":43.2973,"lon":5.37638,"is_reserved":false,"is_disabled":false,"rental_uris":{"android":"levelo://app?vid=33995a8f-7cc1-47e3-a638-202fff118850","ios":"levelo://app?vid=33995a8f-7cc1-47e3-a638-202fff118850"},"vehicle_type_id":"4","last_reported":1742836171,"current_range_meters":14800,"station_id":"ce4bgkh2rcd13ifvqbl0","pricing_plan_id":"cebpf4jnsgd1na2vs0mg"},{"bike_id":"89e75ed9-7f20-48f7-ad37-e0033e47c633","system_id":"levelo_inurba_marseille","lat":43.24647,"lon":5.38886,"is_reserved":false,"is_disabled":false,"rental_uris":{"android":"levelo://app?vid=89e75ed9-7f20-48f7-ad37-e0033e47c633","ios":"levelo://app?vid=89e75ed9-7f20-48f7-ad37-e0033e47c633"},"vehicle_type_id":"4","last_reported":1742836171,"current_range_meters":14800,"station_id":"ce4bhg12rcd13ifvqf60","pricing_plan_id":"cebpf4jnsgd1na2vs0mg"},{"bike_id":"3378cd06-7fe1-4c7b-a04d-3fa16fc4a8b1","system_id":"levelo_inurba_marseille","lat":43.30099,"lon":5.39107,"is_reserved":false,"is_disabled":false,"rental_uris":{"android":"levelo://app?vid=3378cd06-7fe1-4c7b-a04d-3fa16fc4a8b1","ios":"levelo://app?vid=3378cd06-7fe1-4c7b-a04d-3fa16fc4a8b1"},"vehicle_type_id":"4","last_reported":1742836171,"current_range_meters":15200,"station_id":"ce4bh192rcd13ifvqdb0","pricing_plan_id":"cebpf4jnsgd1na2vs0mg"},{"bike_id":"1df64daa-8cb3-4111-874f-880a4046fe6c","system_id":"levelo_inurba_marseille","lat":43.30896,"lon":5.3666,"is_reserved":false,"is_disabled":false,"rental_uris":{"android":"levelo://app?vid=1df64daa-8cb3-4111-874f-880a4046fe6c","ios":"levelo://app?vid=1df64daa-8cb3-4111-874f-880a4046fe6c"},"vehicle_type_id":"4","last_reported":1742836171,"current_range_meters":15200,"station_id":"ce4bgn92rcd13ifvqbvg","pricing_plan_id":"cebpf4jnsgd1na2vs0mg"},{"bike_id":"d7c9b119-99cc-4acd-80c4-6ecaf67a26b1","system_id":"levelo_inurba_marseille","lat":43.23067,"lon":5.35483,"is_reserved":false,"is_disabled":false,"rental_uris":{"android":"levelo://app?vid=d7c9b119-99cc-4acd-80c4-6ecaf67a26b1","ios":"levelo://app?vid=d7c9b119-99cc-4acd-80c4-6ecaf67a26b1"},"vehicle_type_id":"4","last_reported":1742836171,"current_range_meters":15200,"station_id":"cpo3342slgdg3j2ifvpg","pricing_plan_id":"cebpf4jnsgd1na2vs0mg"},{"bike_id":"0ccd79b2-51ea-4b93-86a9-89925d01380f","system_id":"levelo_inurba_marseille","lat":43.23962,"lon":5.36633,"is_reserved":false,"is_disabled":false,"rental_uris":{"android":"levelo://app?vid=0ccd79b2-51ea-4b93-86a9-89925d01380f","ios":"levelo://app?vid=0ccd79b2-51ea-4b93-86a9-89925d01380f"},"vehicle_type_id":"4","last_reported":1742836171,"current_range_meters":15200,"station_id":"ce4bhi12rcd13ifvqfp0","pricing_plan_id":"cebpf4jnsgd1na2vs0mg"},{"bike_id":"f9638c1c-0ed1-43bf-ba82-4cfc3fc37b1b","system_id":"levelo_inurba_marseille","lat":43.27621,"lon":5.36103,"is_reserved":false,"is_disabled":false,"rental_uris":{"android":"levelo://app?vid=f9638c1c-0ed1-43bf-ba82-4cfc3fc37b1b","ios":"levelo://app?vid=f9638c1c-0ed1-43bf-ba82-4cfc3fc37b1b"},"vehicle_type_id":"4","last_reported":1742836171,"current_range_meters":15200,"station_id":"ce4bgj92rcd13ifvqbe0","pricing_plan_id":"cebpf4jnsgd1na2vs0mg"},{"bike_id":"9d901bcb-7adf-402a-b67f-43b2cf34de78","system_id":"levelo_inurba_marseille","lat":43.28724,"lon":5.36086,"is_reserved":false,"is_disabled":false,"rental_uris":{"android":"levelo://app?vid=9d901bcb-7adf-402a-b67f-43b2cf34de78","ios":"levelo://app?vid=9d901bcb-7adf-402a-b67f-43b2cf34de78"},"vehicle_type_id":"4","last_reported":1742836171,"current_range_meters":15200,"station_id":"cki0cbj6b192h4jlfktg","pricing_plan_id":"cebpf4jnsgd1na2vs0mg"},{"bike_id":"c2c62d26-10e3-45f8-9c39-f066fba002c4","system_id":"levelo_inurba_marseille","lat":43.2999,"lon":5.38518,"is_reserved":false,"is_disabled":false,"rental_uris":{"android":"levelo://app?vid=c2c62d26-10e3-45f8-9c39-f066fba002c4","ios":"levelo://app?vid=c2c62d26-10e3-45f8-9c39-f066fba002c4"},"vehicle_type_id":"4","last_reported":1742836171,"current_range_meters":15200,"station_id":"ce4bgj92rcd13ifvqbd0","pricing_plan_id":"cebpf4jnsgd1na2vs0mg"},{"bike_id":"11638dcf-c183-4940-bebb-985f736789bf","system_id":"levelo_inurba_marseille","lat":43.27672,"lon":5.38911,"is_reserved":false,"is_disabled":true,"rental_uris":{"android":"levelo://app?vid=11638dcf-c183-4940-bebb-985f736789bf","ios":"levelo://app?vid=11638dcf-c183-4940-bebb-985f736789bf"},"vehicle_type_id":"4","last_reported":1742836171,"current_range_meters":16000,"station_id":"ce4bhi12rcd13ifvqfo0","pricing_plan_id":"cebpf4jnsgd1na2vs0mg"},{"bike_id":"69d45981-61c6-4086-9842-a14152408cb3","system_id":"levelo_inurba_marseille","lat":43.31246,"lon":5.36834,"is_reserved":false,"is_disabled":false,"rental_uris":{"android":"levelo://app?vid=69d45981-61c6-4086-9842-a14152408cb3","ios":"levelo://app?vid=69d45981-61c6-4086-9842-a14152408cb3"},"vehicle_type_id":"4","last_reported":1742836171,"current_range_meters":16000,"station_id":"","pricing_plan_id":"cebpf4jnsgd1na2vs0mg"},{"bike_id":"18a7fec5-cd4f-470b-b4aa-49a452d96c3f","system_id":"levelo_inurba_marseille","lat":43.305968,"lon":5.393539,"is_reserved":false,"is_disabled":true,"rental_uris":{"android":"levelo://app?vid=18a7fec5-cd4f-470b-b4aa-49a452d96c3f","ios":"levelo://app?vid=18a7fec5-cd4f-470b-b4aa-49a452d96c3f"},"vehicle_type_id":"4","last_reported":1742836171,"current_range_meters":16000,"station_id":"ce4bh0p2rcd13ifvqd80","pricing_plan_id":"cebpf4jnsgd1na2vs0mg"},{"bike_id":"9c29cdc0-f627-4230-9d8b-62fcff5f0371","system_id":"levelo_inurba_marseille","lat":43.30546,"lon":5.36704,"is_reserved":false,"is_disabled":false,"rental_uris":{"android":"levelo://app?vid=9c29cdc0-f627-4230-9d8b-62fcff5f0371","ios":"levelo://app?vid=9c29cdc0-f627-4230-9d8b-62fcff5f0371"},"vehicle_type_id":"4","last_reported":1742836171,"current_range_meters":16000,"station_id":"ce4bgrp2rcd13ifvqc9g","pricing_plan_id":"cebpf4jnsgd1na2vs0mg"},{"bike_id":"de8ed37f-1fd3-4667-9518-65e212de4a17","system_id":"levelo_inurba_marseille","lat":43.312404,"lon":5.368659,"is_reserved":false,"is_disabled":false,"rental_uris":{"android":"levelo://app?vid=de8ed37f-1fd3-4667-9518-65e212de4a17","ios":"levelo://app?vid=de8ed37f-1fd3-4667-9518-65e212de4a17"},"vehicle_type_id":"4","last_reported":1742836171,"current_range_meters":16000,"station_id":"ce4bgl92rcd13ifvqbq0","pricing_plan_id":"cebpf4jnsgd1na2vs0mg"},{"bike_id":"74406c35-ee35-437d-be26-2d7711378046","system_id":"levelo_inurba_marseille","lat":43.32355,"lon":5.36743,"is_reserved":false,"is_disabled":false,"rental_uris":{"android":"levelo://app?vid=74406c35-ee35-437d-be26-2d7711378046","ios":"levelo://app?vid=74406c35-ee35-437d-be26-2d7711378046"},"vehicle_type_id":"4","last_reported":1742836171,"current_range_meters":16000,"station_id":"ce4bhsh2rcd13ifvqi2g","pricing_plan_id":"cebpf4jnsgd1na2vs0mg"},{"bike_id":"93949e32-0ff0-487a-86d4-d1650d8e5134","system_id":"levelo_inurba_marseille","lat":43.30543,"lon":5.36512,"is_reserved":false,"is_disabled":false,"rental_uris":{"android":"levelo://app?vid=93949e32-0ff0-487a-86d4-d1650d8e5134","ios":"levelo://app?vid=93949e32-0ff0-487a-86d4-d1650d8e5134"},"vehicle_type_id":"4","last_reported":1742836171,"current_range_meters":16000,"station_id":"ce4bgs12rcd13ifvqcag","pricing_plan_id":"cebpf4jnsgd1na2vs0mg"},{"bike_id":"8c21263d-f59b-4b74-a3e3-63858477ff9c","system_id":"levelo_inurba_marseille","lat":43.26566,"lon":5.39009,"is_reserved":false,"is_disabled":false,"rental_uris":{"android":"levelo://app?vid=8c21263d-f59b-4b74-a3e3-63858477ff9c","ios":"levelo://app?vid=8c21263d-f59b-4b74-a3e3-63858477ff9c"},"vehicle_type_id":"4","last_reported":1742836171,"current_range_meters":16000,"station_id":"ce4bhe12rcd13ifvqf30","pricing_plan_id":"cebpf4jnsgd1na2vs0mg"},{"bike_id":"e2b2b559-fa5d-4ed5-a7e4-e6e417a15825","system_id":"levelo_inurba_marseille","lat":43.31181,"lon":5.38722,"is_reserved":false,"is_disabled":false,"rental_uris":{"android":"levelo://app?vid=e2b2b559-fa5d-4ed5-a7e4-e6e417a15825","ios":"levelo://app?vid=e2b2b559-fa5d-4ed5-a7e4-e6e417a15825"},"vehicle_type_id":"4","last_reported":1742836171,"current_range_meters":16000,"station_id":"","pricing_plan_id":"cebpf4jnsgd1na2vs0mg"},{"bike_id":"0d89eca0-5671-404f-88cc-d263b1555cb5","system_id":"levelo_inurba_marseille","lat":43.257248,"lon":5.411158,"is_reserved":false,"is_disabled":false,"rental_uris":{"android":"levelo://app?vid=0d89eca0-5671-404f-88cc-d263b1555cb5","ios":"levelo://app?vid=0d89eca0-5671-404f-88cc-d263b1555cb5"},"vehicle_type_id":"4","last_reported":1742836171,"current_range_meters":16000,"station_id":"","pricing_plan_id":"cebpf4jnsgd1na2vs0mg"},{"bike_id":"31853493-08cd-48ca-8af6-a1f588cefafe","system_id":"levelo_inurba_marseille","lat":43.25814,"lon":5.39465,"is_reserved":false,"is_disabled":false,"rental_uris":{"android":"levelo://app?vid=31853493-08cd-48ca-8af6-a1f588cefafe","ios":"levelo://app?vid=31853493-08cd-48ca-8af6-a1f588cefafe"},"vehicle_type_id":"4","last_reported":1742836171,"current_range_meters":16000,"station_id":"ce4bhip2rcd13ifvqft0","pricing_plan_id":"cebpf4jnsgd1na2vs0mg"},{"bike_id":"75cb588b-e126-4498-9bca-67a0b81a9063","system_id":"levelo_inurba_marseille","lat":43.31241,"lon":5.36922,"is_reserved":false,"is_disabled":false,"rental_uris":{"android":"levelo://app?vid=75cb588b-e126-4498-9bca-67a0b81a9063","ios":"levelo://app?vid=75cb588b-e126-4498-9bca-67a0b81a9063"},"vehicle_type_id":"4","last_reported":1742836171,"current_range_meters":16400,"station_id":"ce4bgl92rcd13ifvqbq0","pricing_plan_id":"cebpf4jnsgd1na2vs0mg"},{"bike_id":"319fbde0-f02d-47c8-9ea3-00bb37a99bb2","system_id":"levelo_inurba_marseille","lat":43.24553,"lon":5.39535,"is_reserved":false,"is_disabled":false,"rental_uris":{"android":"levelo://app?vid=319fbde0-f02d-47c8-9ea3-00bb37a99bb2","ios":"levelo://app?vid=319fbde0-f02d-47c8-9ea3-00bb37a99bb2"},"vehicle_type_id":"4","last_reported":1742836171,"current_range_meters":16400,"station_id":"ce4bhlp2rcd13ifvqgjg","pricing_plan_id":"cebpf4jnsgd1na2vs0mg"},{"bike_id":"aec28b31-c20a-4ff3-a964-a4e5ed4c60e5","system_id":"levelo_inurba_marseille","lat":43.30543,"lon":5.36503,"is_reserved":false,"is_disabled":false,"rental_uris":{"android":"levelo://app?vid=aec28b31-c20a-4ff3-a964-a4e5ed4c60e5","ios":"levelo://app?vid=aec28b31-c20a-4ff3-a964-a4e5ed4c60e5"},"vehicle_type_id":"4","last_reported":1742836171,"current_range_meters":16400,"station_id":"","pricing_plan_id":"cebpf4jnsgd1na2vs0mg"},{"bike_id":"6e3c1c24-d38f-41f9-bb38-b234a6f2cfb1","system_id":"levelo_inurba_marseille","lat":43.250809,"lon":5.395147,"is_reserved":false,"is_disabled":false,"rental_uris":{"android":"levelo://app?vid=6e3c1c24-d38f-41f9-bb38-b234a6f2cfb1","ios":"levelo://app?vid=6e3c1c24-d38f-41f9-bb38-b234a6f2cfb1"},"vehicle_type_id":"4","last_reported":1742836171,"current_range_meters":16400,"station_id":"ce4bhm12rcd13ifvqgkg","pricing_plan_id":"cebpf4jnsgd1na2vs0mg"},{"bike_id":"dea1f70c-3a59-4563-bb09-a9d3b04a8744","system_id":"levelo_inurba_marseille","lat":43.25857,"lon":5.38887,"is_reserved":false,"is_disabled":false,"rental_uris":{"android":"levelo://app?vid=dea1f70c-3a59-4563-bb09-a9d3b04a8744","ios":"levelo://app?vid=dea1f70c-3a59-4563-bb09-a9d3b04a8744"},"vehicle_type_id":"4","last_reported":1742836171,"current_range_meters":16400,"station_id":"","pricing_plan_id":"cebpf4jnsgd1na2vs0mg"},{"bike_id":"12097c50-112e-48b8-8f28-9f716623d071","system_id":"levelo_inurba_marseille","lat":43.28699,"lon":5.39981,"is_reserved":false,"is_disabled":false,"rental_uris":{"android":"levelo://app?vid=12097c50-112e-48b8-8f28-9f716623d071","ios":"levelo://app?vid=12097c50-112e-48b8-8f28-9f716623d071"},"vehicle_type_id":"4","last_reported":1742836171,"current_range_meters":16400,"station_id":"ce4bho92rcd13ifvqh3g","pricing_plan_id":"cebpf4jnsgd1na2vs0mg"},{"bike_id":"844d3370-21e5-4de2-9d45-2b091e1157d6","system_id":"levelo_inurba_marseille","lat":43.239665,"lon":5.366341,"is_reserved":false,"is_disabled":false,"rental_uris":{"android":"levelo://app?vid=844d3370-21e5-4de2-9d45-2b091e1157d6","ios":"levelo://app?vid=844d3370-21e5-4de2-9d45-2b091e1157d6"},"vehicle_type_id":"4","last_reported":1742836171,"current_range_meters":16400,"station_id":"ce4bhi12rcd13ifvqfp0","pricing_plan_id":"cebpf4jnsgd1na2vs0mg"},{"bike_id":"04357187-31a2-4621-9b88-fc476381d72a","system_id":"levelo_inurba_marseille","lat":43.25823,"lon":5.39428,"is_reserved":false,"is_disabled":false,"rental_uris":{"android":"levelo://app?vid=04357187-31a2-4621-9b88-fc476381d72a","ios":"levelo://app?vid=04357187-31a2-4621-9b88-fc476381d72a"},"vehicle_type_id":"4","last_reported":1742836171,"current_range_meters":16400,"station_id":"ce4bhip2rcd13ifvqft0","pricing_plan_id":"cebpf4jnsgd1na2vs0mg"},{"bike_id":"4aaa7b44-e996-43a7-b327-a3bfb09a2367","system_id":"levelo_inurba_marseille","lat":43.23184,"lon":5.39993,"is_reserved":false,"is_disabled":false,"rental_uris":{"android":"levelo://app?vid=4aaa7b44-e996-43a7-b327-a3bfb09a2367","ios":"levelo://app?vid=4aaa7b44-e996-43a7-b327-a3bfb09a2367"},"vehicle_type_id":"4","last_reported":1742836171,"current_range_meters":16400,"station_id":"ce4bhn12rcd13ifvqgqg","pricing_plan_id":"cebpf4jnsgd1na2vs0mg"},{"bike_id":"30e2ab5d-a04b-446d-86cf-3119b9c33cad","system_id":"levelo_inurba_marseille","lat":43.296115,"lon":5.405484,"is_reserved":false,"is_disabled":false,"rental_uris":{"android":"levelo://app?vid=30e2ab5d-a04b-446d-86cf-3119b9c33cad","ios":"levelo://app?vid=30e2ab5d-a04b-446d-86cf-3119b9c33cad"},"vehicle_type_id":"4","last_reported":1742836171,"current_range_meters":16400,"station_id":"ce4bh0h2rcd13ifvqd60","pricing_plan_id":"cebpf4jnsgd1na2vs0mg"},{"bike_id":"9b4cd04c-3210-4573-a639-423ef9aba72a","system_id":"levelo_inurba_marseille","lat":43.29983,"lon":5.3719,"is_reserved":false,"is_disabled":false,"rental_uris":{"android":"levelo://app?vid=9b4cd04c-3210-4573-a639-423ef9aba72a","ios":"levelo://app?vid=9b4cd04c-3210-4573-a639-423ef9aba72a"},"vehicle_type_id":"4","last_reported":1742836171,"current_range_meters":16400,"station_id":"ce4bgr92rcd13ifvqc7g","pricing_plan_id":"cebpf4jnsgd1na2vs0mg"},{"bike_id":"448d38b8-ae55-4a05-b565-4e160284f757","system_id":"levelo_inurba_marseille","lat":43.29423,"lon":5.38623,"is_reserved":false,"is_disabled":false,"rental_uris":{"android":"levelo://app?vid=448d38b8-ae55-4a05-b565-4e160284f757","ios":"levelo://app?vid=448d38b8-ae55-4a05-b565-4e160284f757"},"vehicle_type_id":"4","last_reported":1742836171,"current_range_meters":16400,"station_id":"ce4bh2h2rcd13ifvqdh0","pricing_plan_id":"cebpf4jnsgd1na2vs0mg"},{"bike_id":"71d053fe-72cd-4674-8064-9f91eaaa9762","system_id":"levelo_inurba_marseille","lat":43.28487,"lon":5.38561,"is_reserved":false,"is_disabled":true,"rental_uris":{"android":"levelo://app?vid=71d053fe-72cd-4674-8064-9f91eaaa9762","ios":"levelo://app?vid=71d053fe-72cd-4674-8064-9f91eaaa9762"},"vehicle_type_id":"4","last_reported":1742836171,"current_range_meters":16400,"station_id":"ce4bh8p2rcd13ifvqeb0","pricing_plan_id":"cebpf4jnsgd1na2vs0mg"},{"bike_id":"12ae23dc-6bf6-42d3-9b0b-d314db395f4d","system_id":"levelo_inurba_marseille","lat":43.28005,"lon":5.40013,"is_reserved":false,"is_disabled":false,"rental_uris":{"android":"levelo://app?vid=12ae23dc-6bf6-42d3-9b0b-d314db395f4d","ios":"levelo://app?vid=12ae23dc-6bf6-42d3-9b0b-d314db395f4d"},"vehicle_type_id":"4","last_reported":1742836171,"current_range_meters":16800,"station_id":"ce4bho92rcd13ifvqh4g","pricing_plan_id":"cebpf4jnsgd1na2vs0mg"},{"bike_id":"3a507784-1e32-42f9-9210-f04a2955b962","system_id":"levelo_inurba_marseille","lat":43.28079,"lon":5.39644,"is_reserved":false,"is_disabled":false,"rental_uris":{"android":"levelo://app?vid=3a507784-1e32-42f9-9210-f04a2955b962","ios":"levelo://app?vid=3a507784-1e32-42f9-9210-f04a2955b962"},"vehicle_type_id":"4","last_reported":1742836171,"current_range_meters":16800,"station_id":"ce4bho12rcd13ifvqh2g","pricing_plan_id":"cebpf4jnsgd1na2vs0mg"},{"bike_id":"c17e766d-72fd-4570-b62c-2beb5e983b80","system_id":"levelo_inurba_marseille","lat":43.287,"lon":5.37379,"is_reserved":false,"is_disabled":false,"rental_uris":{"android":"levelo://app?vid=c17e766d-72fd-4570-b62c-2beb5e983b80","ios":"levelo://app?vid=c17e766d-72fd-4570-b62c-2beb5e983b80"},"vehicle_type_id":"4","last_reported":1742836171,"current_range_meters":16800,"station_id":"ce4bh3p2rcd13ifvqdq0","pricing_plan_id":"cebpf4jnsgd1na2vs0mg"},