{"last_updated":1717340803,"ttl":30,"version":"2.2","data":{"bikes":[{"bike_id":"d13b299e-c211-456b-9d3c-9264e366259b","system_id":"levelo_inurba_marseille","lat":43.312239,"lon":5.368562,"is_reserved":false,"is_disabled":false,"rental_uris":{"android":"levelo://app?vid=d13b299e-c211-456b-9d3c-9264e366259b","ios":"levelo://app?vid=d13b299e-c211-456b-9d3c-9264e366259b"},"vehicle_type_id":"4","last_reported":1717340803,"current_range_meters":15600,"station_id":"ce4bgl92rcd13ifvqbq0","pricing_plan_id":"cebpf4jnsgd1na2vs0mg"},{"bike_id":"3174649d-2550-4fe6-81c2-64c7951c9259","system_id":"levelo_inurba_marseille","lat":43.312221,"lon":5.36854,"is_reserved":false,"is_disabled":false,"rental_uris":{"android":"levelo://app?vid=3174649d-2550-4fe6-81c2-64c7951c9259","ios":"levelo://app?vid=3174649d-2550-4fe6-81c2-64c7951c9259"},"vehicle_type_id":"4","last_reported":1717340803,"current_range_meters":9600,"station_id":"ce4bgl92rcd13ifvqbq0","pricing_plan_id":"cebpf4jnsgd1na2vs0mg"},{"bike_id":"7aa58605-45e1-4889-b9b3-f69b14e95a0a","system_id":"levelo_inurba_marseille","lat":43.309076,"lon":5.368465,"is_reserved":false,"is_disabled":false,"rental_uris":{"android":"levelo://app?vid=7aa58605-45e1-4889-b9b3-f69b14e95a0a","ios":"levelo://app?vid=7aa58605-45e1-4889-b9b3-f69b14e95a0a"},"vehicle_type_id":"4","last_reported":1717340803,"current_range_meters":9200,"station_id":"ce4bgn92rcd13ifvqbvg","pricing_plan_id":"cebpf4jnsgd1na2vs0mg"},{"bike_id":"42647289-edca-4066-8dd7-18fe8809a9fd","system_id":"levelo_inurba_marseille","lat":43.309076,"lon":5.368465,"is_reserved":false,"is_disabled":false,"rental_uris":{"android":"levelo://app?vid=42647289-edca-4066-8dd7-18fe8809a9fd","ios":"levelo://app?vid=42647289-edca-4066-8dd7-18fe8809a9fd"},"vehicle_type_id":"4","last_reported":1717340803,"current_range_meters":5200,"station_id":"ce4bgn92rcd13ifvqbvg","pricing_plan_id":"cebpf4jnsgd1na2vs0mg"},{"bike_id":"94a69a7c-f46d-4db9-b967-c845e82a3590","system_id":"levelo_inurba_marseille","lat":43.314811,"lon":5.373104,"is_reserved":false,"is_disabled":false,"rental_uris":{"android":"levelo://app?vid=94a69a7c-f46d-4db9-b967-c845e82a3590","ios":"levelo://app?vid=94a69a7c-f46d-4db9-b967-c845e82a3590"},"vehicle_type_id":"4","last_reported":1717340803,"current_range_meters":27600,"station_id":"ce4bgt12rcd13ifvqcd0","pricing_plan_id":"cebpf4jnsgd1na2vs0mg"},{"bike_id":"14d75fe7-c73c-4ac0-b2ed-f88115fec0cf","system_id":"levelo_inurba_marseille","lat":43.309039,"lon":5.371797,"is_reserved":false,"is_disabled":false,"rental_uris":{"android":"levelo://app?vid=14d75fe7-c73c-4ac0-b2ed-f88115fec0cf","ios":"levelo://app?vid=14d75fe7-c73c-4ac0-b2ed-f88115fec0cf"},"vehicle_type_id":"4","last_reported":1717340803,"current_range_meters":24000,"station_id":"ce4bguh2rcd13ifvqckg","pricing_plan_id":"cebpf4jnsgd1na2vs0mg"},{"bike_id":"702bce9a-9773-4c4e-9440-421145980051","system_id":"levelo_inurba_marseille","lat":43.309039,"lon":5.371797,"is_reserved":false,"is_disabled":false,"rental_uris":{"android":"levelo://app?vid=702bce9a-9773-4c4e-9440-421145980051","ios":"levelo://app?vid=702bce9a-9773-4c4e-9440-421145980051"},"vehicle_type_id":"4","last_reported":1717340803,"current_range_meters":28800,"station_id":"ce4bguh2rcd13ifvqckg","pricing_plan_id":"cebpf4jnsgd1na2vs0mg"},{"bike_id":"27f87095-b747-4f66-9c28-bab83914a979","system_id":"levelo_inurba_marseille","lat":43.305368,"lon":5.367343,"is_reserved":false,"is_disabled":false,"rental_uris":{"android":"levelo://app?vid=27f87095-b747-4f66-9c28-bab83914a979","ios":"levelo://app?vid=27f87095-b747-4f66-9c28-bab83914a979"},"vehicle_type_id":"4","last_reported":1717340803,"current_range_meters":7200,"station_id":"ce4bgrp2rcd13ifvqc9g","pricing_plan_id":"cebpf4jnsgd1na2vs0mg"},{"bike_id":"df00d184-59cd-414b-9241-9224d880ab7c","system_id":"levelo_inurba_marseille","lat":43.305714,"lon":5.365633,"is_reserved":false,"is_disabled":false,"rental_uris":{"android":"levelo://app?vid=df00d184-59cd-414b-9241-9224d880ab7c","ios":"levelo://app?vid=df00d184-59cd-414b-9241-9224d880ab7c"},"vehicle_type_id":"4","last_reported":1717340803,"current_range_meters":28400,"station_id":"ce4bgs12rcd13ifvqcag","pricing_plan_id":"cebpf4jnsgd1na2vs0mg"},{"bike_id":"89ec606c-32c7-49b6-a8f8-e8e2ba892353","system_id":"levelo_inurba_marseille","lat":43.305389,"lon":5.367011,"is_reserved":false,"is_disabled":false,"rental_uris":{"android":"levelo://app?vid=89ec606c-32c7-49b6-a8f8-e8e2ba892353","ios":"levelo://app?vid=89ec606c-32c7-49b6-a8f8-e8e2ba892353"},"vehicle_type_id":"4","last_reported":1717340803,"current_range_meters":25600,"station_id":"ce4bgrp2rcd13ifvqc9g","pricing_plan_id":"cebpf4jnsgd1na2vs0mg"},{"bike_id":"04c57837-cd83-4a10-b39e-22c9a7716535","system_id":"levelo_inurba_marseille","lat":43.30543,"lon":5.3655,"is_reserved":false,"is_disabled":false,"rental_uris":{"android":"levelo://app?vid=04c57837-cd83-4a10-b39e-22c9a7716535","ios":"levelo://app?vid=04c57837-cd83-4a10-b39e-22c9a7716535"},"vehicle_type_id":"4","last_reported":1717340803,"current_range_meters":4800,"station_id":"ce4bgs12rcd13ifvqcag","pricing_plan_id":"cebpf4jnsgd1na2vs0mg"},{"bike_id":"c3eb85ba-031f-4ecb-88e3-578f6011cef1","system_id":"levelo_inurba_marseille","lat":43.305368,"lon":5.367343,"is_reserved":false,"is_disabled":false,"rental_uris":{"android":"levelo://app?vid=c3eb85ba-031f-4ecb-88e3-578f6011cef1","ios":"levelo://app?vid=c3eb85ba-031f-4ecb-88e3-578f6011cef1"},"vehicle_type_id":"4","last_reported":1717340803,"current_range_meters":10000,"station_id":"ce4bgrp2rcd13ifvqc9g","pricing_plan_id":"cebpf4jnsgd1na2vs0mg"},{"bike_id":"c18d2cbd-1676-485b-af5e-716b777128ea","system_id":"levelo_inurba_marseille","lat":43.30537,"lon":5.367345,"is_reserved":false,"is_disabled":false,"rental_uris":{"android":"levelo://app?vid=c18d2cbd-1676-485b-af5e-716b777128ea","ios":"levelo://app?vid=c18d2cbd-1676-485b-af5e-716b777128ea"},"vehicle_type_id":"4","last_reported":1717340803,"current_range_meters":12400,"station_id":"ce4bgrp2rcd13ifvqc9g","pricing_plan_id":"cebpf4jnsgd1na2vs0mg"},{"bike_id":"530f770f-33cf-42cf-ac5a-20c197c168cb","system_id":"levelo_inurba_marseille","lat":43.30537,"lon":5.367345,"is_reserved":false,"is_disabled":false,"rental_uris":{"android":"levelo://app?vid=530f770f-33cf-42cf-ac5a-20c197c168cb","ios":"levelo://app?vid=530f770f-33cf-42cf-ac5a-20c197c168cb"},"vehicle_type_id":"4","last_reported":1717340803,"current_range_meters":13200,"station_id":"ce4bgrp2rcd13ifvqc9g","pricing_plan_id":"cebpf4jnsgd1na2vs0mg"},{"bike_id":"16ab1865-d9d6-493b-9780-efec33061245","system_id":"levelo_inurba_marseille","lat":43.305714,"lon":5.365633,"is_reserved":false,"is_disabled":false,"rental_uris":{"android":"levelo://app?vid=16ab1865-d9d6-493b-9780-efec33061245","ios":"levelo://app?vid=16ab1865-d9d6-493b-9780-efec33061245"},"vehicle_type_id":"4","last_reported":1717340803,"current_range_meters":26400,"station_id":"ce4bgs12rcd13ifvqcag","pricing_plan_id":"cebpf4jnsgd1na2vs0mg"},{"bike_id":"372fa877-f037-49cd-b842-c54da437a0e4","system_id":"levelo_inurba_marseille","lat":43.305149,"lon":5.366154,"is_reserved":false,"is_disabled":false,"rental_uris":{"android":"levelo://app?vid=372fa877-f037-49cd-b842-c54da437a0e4","ios":"levelo://app?vid=372fa877-f037-49cd-b842-c54da437a0e4"},"vehicle_type_id":"4","last_reported":1717340803,"current_range_meters":10400,"station_id":"ce4bgs12rcd13ifvqcag","pricing_plan_id":"cebpf4jnsgd1na2vs0mg"},{"bike_id":"9e7ddd61-5c88-42b5-8b55-ca142c64de38","system_id":"levelo_inurba_marseille","lat":43.305132,"lon":5.365468,"is_reserved":false,"is_disabled":false,"rental_uris":{"android":"levelo://app?vid=9e7ddd61-5c88-42b5-8b55-ca142c64de38","ios":"levelo://app?vid=9e7ddd61-5c88-42b5-8b55-ca142c64de38"},"vehicle_type_id":"4","last_reported":1717340803,"current_range_meters":16000,"station_id":"ce4bgs12rcd13ifvqcag","pricing_plan_id":"cebpf4jnsgd1na2vs0mg"},{"bike_id":"e69a616b-7fa5-4376-b722-8522a39a109b","system_id":"levelo_inurba_marseille","lat":43.311125,"lon":5.377624,"is_reserved":false,"is_disabled":false,"rental_uris":{"android":"levelo://app?vid=e69a616b-7fa5-4376-b722-8522a39a109b","ios":"levelo://app?vid=e69a616b-7fa5-4376-b722-8522a39a109b"},"vehicle_type_id":"4","last_reported":1717340803,"current_range_meters":2400,"station_id":"ce4bgt92rcd13ifvqcg0","pricing_plan_id":"cebpf4jnsgd1na2vs0mg"},{"bike_id":"eebdedde-51fd-450c-b505-999c1c253bf3","system_id":"levelo_inurba_marseille","lat":43.305989,"lon":5.37225,"is_reserved":false,"is_disabled":false,"rental_uris":{"android":"levelo://app?vid=eebdedde-51fd-450c-b505-999c1c253bf3","ios":"levelo://app?vid=eebdedde-51fd-450c-b505-999c1c253bf3"},"vehicle_type_id":"4","last_reported":1717340803,"current_range_meters":14400,"station_id":"ce4bgqh2rcd13ifvqc4g","pricing_plan_id":"cebpf4jnsgd1na2vs0mg"},{"bike_id":"530e5f00-4ee1-4291-a4f8-27c00d08f230","system_id":"levelo_inurba_marseille","lat":43.305989,"lon":5.37225,"is_reserved":false,"is_disabled":false,"rental_uris":{"android":"levelo://app?vid=530e5f00-4ee1-4291-a4f8-27c00d08f230","ios":"levelo://app?vid=530e5f00-4ee1-4291-a4f8-27c00d08f230"},"vehicle_type_id":"4","last_reported":1717340803,"current_range_meters":26400,"station_id":"ce4bgqh2rcd13ifvqc4g","pricing_plan_id":"cebpf4jnsgd1na2vs0mg"},{"bike_id":"f3442c31-cc6e-4fb7-b566-c26961160a29","system_id":"levelo_inurba_marseille","lat":43.31851,"lon":5.37406,"is_reserved":false,"is_disabled":false,"rental_uris":{"android":"levelo://app?vid=f3442c31-cc6e-4fb7-b566-c26961160a29","ios":"levelo://app?vid=f3442c31-cc6e-4fb7-b566-c26961160a29"},"vehicle_type_id":"4","last_reported":1717340803,"current_range_meters":11600,"station_id":"","pricing_plan_id":"cebpf4jnsgd1na2vs0mg"},{"bike_id":"2762157c-c30b-47aa-90ff-ddabc730d189","system_id":"levelo_inurba_marseille","lat":43.30599,"lon":5.3722,"is_reserved":false,"is_disabled":false,"rental_uris":{"android":"levelo://app?vid=2762157c-c30b-47aa-90ff-ddabc730d189","ios":"levelo://app?vid=2762157c-c30b-47aa-90ff-ddabc730d189"},"vehicle_type_id":"4","last_reported":1717340803,"current_range_meters":800,"station_id":"ce4bgqh2rcd13ifvqc4g","pricing_plan_id":"cebpf4jnsgd1na2vs0mg"},{"bike_id":"0ae2607b-c951-43f9-a7fd-9a0ff48af997","system_id":"levelo_inurba_marseille","lat":43.31122,"lon":5.3776,"is_reserved":false,"is_disabled":false,"rental_uris":{"android":"levelo://app?vid=0ae2607b-c951-43f9-a7fd-9a0ff48af997","ios":"levelo://app?vid=0ae2607b-c951-43f9-a7fd-9a0ff48af997"},"vehicle_type_id":"4","last_reported":1717340803,"current_range_meters":0,"station_id":"ce4bgt92rcd13ifvqcg0","pricing_plan_id":"cebpf4jnsgd1na2vs0mg"},{"bike_id":"c90a13e9-97ef-4925-90a1-101393650e88","system_id":"levelo_inurba_marseille","lat":43.311125,"lon":5.377624,"is_reserved":false,"is_disabled":false,"rental_uris":{"android":"levelo://app?vid=c90a13e9-97ef-4925-90a1-101393650e88","ios":"levelo://app?vid=c90a13e9-97ef-4925-90a1-101393650e88"},"vehicle_type_id":"4","last_reported":1717340803,"current_range_meters":12800,"station_id":"ce4bgt92rcd13ifvqcg0","pricing_plan_id":"cebpf4jnsgd1na2vs0mg"},{"bike_id":"7e9a8630-fa1c-46c5-a0b3-9dc36df1997d","system_id":"levelo_inurba_marseille","lat":43.31119,"lon":5.37762,"is_reserved":false,"is_disabled":false,"rental_uris":{"android":"levelo://app?vid=7e9a8630-fa1c-46c5-a0b3-9dc36df1997d","ios":"levelo://app?vid=7e9a8630-fa1c-46c5-a0b3-9dc36df1997d"},"vehicle_type_id":"4","last_reported":1717340803,"current_range_meters":6000,"station_id":"ce4bgt92rcd13ifvqcg0","pricing_plan_id":"cebpf4jnsgd1na2vs0mg"},{"bike_id":"50d80437-177a-470d-a397-2444e0ed5214","system_id":"levelo_inurba_marseille","lat":43.311131,"lon":5.377651,"is_reserved":false,"is_disabled":false,"rental_uris":{"android":"levelo://app?vid=50d80437-177a-470d-a397-2444e0ed5214","ios":"levelo://app?vid=50d80437-177a-470d-a397-2444e0ed5214"},"vehicle_type_id":"4","last_reported":1717340803,"current_range_meters":5200,"station_id":"ce4bgt92rcd13ifvqcg0","pricing_plan_id":"cebpf4jnsgd1na2vs0mg"},{"bike_id":"483cfa47-dc3d-4289-83b9-5d8f0baeb9c8","system_id":"levelo_inurba_marseille","lat":43.305368,"lon":5.367343,"is_reserved":false,"is_disabled":false,"rental_uris":{"android":"levelo://app?vid=483cfa47-dc3d-4289-83b9-5d8f0baeb9c8","ios":"levelo://app?vid=483cfa47-dc3d-4289-83b9-5d8f0baeb9c8"},"vehicle_type_id":"4","last_reported":1717340803,"current_range_meters":22800,"station_id":"ce4bgrp2rcd13ifvqc9g","pricing_plan_id":"cebpf4jnsgd1na2vs0mg"},{"bike_id":"75d2a464-afc4-427d-aa2f-184013d7714a","system_id":"levelo_inurba_marseille","lat":43.304478,"lon":5.367389,"is_reserved":false,"is_disabled":false,"rental_uris":{"android":"levelo://app?vid=75d2a464-afc4-427d-aa2f-184013d7714a","ios":"levelo://app?vid=75d2a464-afc4-427d-aa2f-184013d7714a"},"vehicle_type_id":"4","last_reported":1717340803,"current_range_meters":0,"station_id":"ce4bgrp2rcd13ifvqc9g","pricing_plan_id":"cebpf4jnsgd1na2vs0mg"},{"bike_id":"911fac4f-8943-4a50-b10e-454ce67bc21c","system_id":"levelo_inurba_marseille","lat":43.317075,"lon":5.377367,"is_reserved":false,"is_disabled":false,"rental_uris":{"android":"levelo://app?vid=911fac4f-8943-4a50-b10e-454ce67bc21c","ios":"levelo://app?vid=911fac4f-8943-4a50-b10e-454ce67bc21c"},"vehicle_type_id":"4","last_reported":1717340803,"current_range_meters":13600,"station_id":"ce4bgth2rcd13ifvqch0","pricing_plan_id":"cebpf4jnsgd1na2vs0mg"},{"bike_id":"511477f7-ed0d-43bd-9f9e-d567ce35d00a","system_id":"levelo_inurba_marseille","lat":43.317075,"lon":5.377367,"is_reserved":false,"is_disabled":false,"rental_uris":{"android":"levelo://app?vid=511477f7-ed0d-43bd-9f9e-d567ce35d00a","ios":"levelo://app?vid=511477f7-ed0d-43bd-9f9e-d567ce35d00a"},"vehicle_type_id":"4","last_reported":1717340803,"current_range_meters":23600,"station_id":"ce4bgth2rcd13ifvqch0","pricing_plan_id":"cebpf4jnsgd1na2vs0mg"},{"bike_id":"dfc7254d-324f-4e8a-a0e2-73f5b7df5343","system_id":"levelo_inurba_marseille","lat":43.305989,"lon":5.37225,"is_reserved":false,"is_disabled":false,"rental_uris":{"android":"levelo://app?vid=dfc7254d-324f-4e8a-a0e2-73f5b7df5343","ios":"levelo://app?vid=dfc7254d-324f-4e8a-a0e2-73f5b7df5343"},"vehicle_type_id":"4","last_reported":1717340803,"current_range_meters":27200,"station_id":"ce4bgqh2rcd13ifvqc4g","pricing_plan_id":"cebpf4jnsgd1na2vs0mg"},{"bike_id":"23f021d1-a48f-4fb4-80b5-414ac8fbba54","system_id":"levelo_inurba_marseille","lat":43.310942,"lon":5.378524,"is_reserved":false,"is_disabled":false,"rental_uris":{"android":"levelo://app?vid=23f021d1-a48f-4fb4-80b5-414ac8fbba54","ios":"levelo://app?vid=23f021d1-a48f-4fb4-80b5-414ac8fbba54"},"vehicle_type_id":"4","last_reported":1717340803,"current_range_meters":24000,"station_id":"ce4bgv92rcd13ifvqcr0","pricing_plan_id":"cebpf4jnsgd1na2vs0mg"},{"bike_id":"6fb9986b-9566-4fec-87be-9a6b04f02de6","system_id":"levelo_inurba_marseille","lat":43.317075,"lon":5.377367,"is_reserved":false,"is_disabled":false,"rental_uris":{"android":"levelo://app?vid=6fb9986b-9566-4fec-87be-9a6b04f02de6","ios":"levelo://app?vid=6fb9986b-9566-4fec-87be-9a6b04f02de6"},"vehicle_type_id":"4","last_reported":1717340803,"current_range_meters":20800,"station_id":"ce4bgth2rcd13ifvqch0","pricing_plan_id":"cebpf4jnsgd1na2vs0mg"},{"bike_id":"b2b428c2-49b7-4df6-83c0-a15ea29c626c","system_id":"levelo_inurba_marseille","lat":43.30308,"lon":5.36886,"is_reserved":false,"is_disabled":false,"rental_uris":{"android":"levelo://app?vid=b2b428c2-49b7-4df6-83c0-a15ea29c626c","ios":"levelo://app?vid=b2b428c2-49b7-4df6-83c0-a15ea29c626c"},"vehicle_type_id":"4","last_reported":1717340803,"current_range_meters":24000,"station_id":"ce4bgqh2rcd13ifvqc5g","pricing_plan_id":"cebpf4jnsgd1na2vs0mg"},{"bike_id":"543f6d84-f7e5-423f-a0ca-12d513db8803","system_id":"levelo_inurba_marseille","lat":43.303046,"lon":5.368981,"is_reserved":false,"is_disabled":false,"rental_uris":{"android":"levelo://app?vid=543f6d84-f7e5-423f-a0ca-12d513db8803","ios":"levelo://app?vid=543f6d84-f7e5-423f-a0ca-12d513db8803"},"vehicle_type_id":"4","last_reported":1717340803,"current_range_meters":11200,"station_id":"ce4bgqh2rcd13ifvqc5g","pricing_plan_id":"cebpf4jnsgd1na2vs0mg"},{"bike_id":"61ce56f3-8c27-423d-bbf1-b00ccc6cf763","system_id":"levelo_inurba_marseille","lat":43.315293,"lon":5.380349,"is_reserved":false,"is_disabled":false,"rental_uris":{"android":"levelo://app?vid=61ce56f3-8c27-423d-bbf1-b00ccc6cf763","ios":"levelo://app?vid=61ce56f3-8c27-423d-bbf1-b00ccc6cf763"},"vehicle_type_id":"4","last_reported":1717340803,"current_range_meters":400,"station_id":"ce4bhsp2rcd13ifvqi50","pricing_plan_id":"cebpf4jnsgd1na2vs0mg"},{"bike_id":"9f8e269b-9d26-44ff-b7db-147ec6fff265","system_id":"levelo_inurba_marseille","lat":43.301939,"lon":5.366286,"is_reserved":false,"is_disabled":false,"rental_uris":{"android":"levelo://app?vid=9f8e269b-9d26-44ff-b7db-147ec6fff265","ios":"levelo://app?vid=9f8e269b-9d26-44ff-b7db-147ec6fff265"},"vehicle_type_id":"4","last_reported":1717340803,"current_range_meters":8800,"station_id":"ce4bgrh2rcd13ifvqc8g","pricing_plan_id":"cebpf4jnsgd1na2vs0mg"},{"bike_id":"540c8c65-1c7e-44e8-b740-13a4130afdc4","system_id":"levelo_inurba_marseille","lat":43.304606,"lon":5.379026,"is_reserved":false,"is_disabled":false,"rental_uris":{"android":"levelo://app?vid=540c8c65-1c7e-44e8-b740-13a4130afdc4","ios":"levelo://app?vid=540c8c65-1c7e-44e8-b740-13a4130afdc4"},"vehicle_type_id":"4","last_reported":1717340803,"current_range_meters":11200,"station_id":"ce4bgup2rcd13ifvqcn0","pricing_plan_id":"cebpf4jnsgd1na2vs0mg"},{"bike_id":"cf434fde-e260-4dd6-aa84-f3036eb9872a","system_id":"levelo_inurba_marseille","lat":43.324727,"lon":5.366346,"is_reserved":false,"is_disabled":false,"rental_uris":{"android":"levelo://app?vid=cf434fde-e260-4dd6-aa84-f3036eb9872a","ios":"levelo://app?vid=cf434fde-e260-4dd6-aa84-f3036eb9872a"},"vehicle_type_id":"4","last_reported":1717340803,"current_range_meters":11600,"station_id":"ce4bhs12rcd13ifvqhvg","pricing_plan_id":"cebpf4jnsgd1na2vs0mg"},{"bike_id":"df105ac0-70fb-4702-9b6a-f361ecfce361","system_id":"levelo_inurba_marseille","lat":43.304606,"lon":5.379026,"is_reserved":false,"is_disabled":false,"rental_uris":{"android":"levelo://app?vid=df105ac0-70fb-4702-9b6a-f361ecfce361","ios":"levelo://app?vid=df105ac0-70fb-4702-9b6a-f361ecfce361"},"vehicle_type_id":"4","last_reported":1717340803,"current_range_meters":29200,"station_id":"ce4bgup2rcd13ifvqcn0","pricing_plan_id":"cebpf4jnsgd1na2vs0mg"},{"bike_id":"265e59ed-d38b-47a5-82ac-bd2009bffb86","system_id":"levelo_inurba_marseille","lat":43.304457,"lon":5.379032,"is_reserved":false,"is_disabled":false,"rental_uris":{"android":"levelo://app?vid=265e59ed-d38b-47a5-82ac-bd2009bffb86","ios":"levelo://app?vid=265e59ed-d38b-47a5-82ac-bd2009bffb86"},"vehicle_type_id":"4","last_reported":1717340803,"current_range_meters":31600,"station_id":"","pricing_plan_id":"cebpf4jnsgd1na2vs0mg"},{"bike_id":"6b38e5ec-0823-4a11-b2ee-a5ca54fd0ebc","system_id":"levelo_inurba_marseille","lat":43.3248,"lon":5.36558,"is_reserved":false,"is_disabled":false,"rental_uris":{"android":"levelo://app?vid=6b38e5ec-0823-4a11-b2ee-a5ca54fd0ebc","ios":"levelo://app?vid=6b38e5ec-0823-4a11-b2ee-a5ca54fd0ebc"},"vehicle_type_id":"4","last_reported":1717340803,"current_range_meters":18800,"station_id":"ce4bhs12rcd13ifvqhvg","pricing_plan_id":"cebpf4jnsgd1na2vs0mg"},{"bike_id":"42c7a295-36d5-4ecb-a515-edff7e61f781","system_id":"levelo_inurba_marseille","lat":43.324771,"lon":5.36557,"is_reserved":false,"is_disabled":false,"rental_uris":{"android":"levelo://app?vid=42c7a295-36d5-4ecb-a515-edff7e61f781","ios":"levelo://app?vid=42c7a295-36d5-4ecb-a515-edff7e61f781"},"vehicle_type_id":"4","last_reported":1717340803,"current_range_meters":24800,"station_id":"ce4bhs12rcd13ifvqhvg","pricing_plan_id":"cebpf4jnsgd1na2vs0mg"},{"bike_id":"8cbc0fc6-918d-4c69-8fdd-df42854ea7e1","system_id":"levelo_inurba_marseille","lat":43.32486,"lon":5.36567,"is_reserved":false,"is_disabled":false,"rental_uris":{"android":"levelo://app?vid=8cbc0fc6-918d-4c69-8fdd-df42854ea7e1","ios":"levelo://app?vid=8cbc0fc6-918d-4c69-8fdd-df42854ea7e1"},"vehicle_type_id":"4","last_reported":1717340803,"current_range_meters":16000,"station_id":"ce4bhs12rcd13ifvqhvg","pricing_plan_id":"cebpf4jnsgd1na2vs0mg"},{"bike_id":"760a3dff-4fd3-478b-bcb8-a8df2ebdcda7","system_id":"levelo_inurba_marseille","lat":43.32487,"lon":5.36573,"is_reserved":false,"is_disabled":false,"rental_uris":{"android":"levelo://app?vid=760a3dff-4fd3-478b-bcb8-a8df2ebdcda7","ios":"levelo://app?vid=760a3dff-4fd3-478b-bcb8-a8df2ebdcda7"},"vehicle_type_id":"4","last_reported":1717340803,"current_range_meters":17200,"station_id":"ce4bhs12rcd13ifvqhvg","pricing_plan_id":"cebpf4jnsgd1na2vs0mg"},{"bike_id":"73e2b1d6-164d-4471-acfb-11ca921037cc","system_id":"levelo_inurba_marseille","lat":43.29529,"lon":5.385581,"is_reserved":false,"is_disabled":false,"rental_uris":{"android":"levelo://app?vid=73e2b1d6-164d-4471-acfb-11ca921037cc","ios":"levelo://app?vid=73e2b1d6-164d-4471-acfb-11ca921037cc"},"vehicle_type_id":"4","last_reported":1717340803,"current_range_meters":8400,"station_id":"ce4bgih2rcd13ifvqba0","pricing_plan_id":"cebpf4jnsgd1na2vs0mg"},{"bike_id":"03ee69f2-e53d-4c3f-b13f-f29e5bcc08c5","system_id":"levelo_inurba_marseille","lat":43.310804,"lon":5.38359,"is_reserved":false,"is_disabled":false,"rental_uris":{"android":"levelo://app?vid=03ee69f2-e53d-4c3f-b13f-f29e5bcc08c5","ios":"levelo://app?vid=03ee69f2-e53d-4c3f-b13f-f29e5bcc08c5"},"vehicle_type_id":"4","last_reported":1717340803,"current_range_meters":6000,"station_id":"ce4bgv92rcd13ifvqcr0","pricing_plan_id":"cebpf4jnsgd1na2vs0mg"},{"bike_id":"cff8cf21-bf48-42e9-a975-ee10dcff8f03","system_id":"levelo_inurba_marseille","lat":43.30143,"lon":5.37413,"is_reserved":false,"is_disabled":false,"rental_uris":{"android":"levelo://app?vid=cff8cf21-bf48-42e9-a975-ee10dcff8f03","ios":"levelo://app?vid=cff8cf21-bf48-42e9-a975-ee10dcff8f03"},"vehicle_type_id":"4","last_reported":1717340803,"current_range_meters":7600,"station_id":"ce4bgs92rcd13ifvqcc0","pricing_plan_id":"cebpf4jnsgd1na2vs0mg"},{"bike_id":"1d5baf99-1ccc-4b3d-9336-8618469b5890","system_id":"levelo_inurba_marseille","lat":43.30143,"lon":5.37413,"is_reserved":false,"is_disabled":false,"rental_uris":{"android":"levelo://app?vid=1d5baf99-1ccc-4b3d-9336-8618469b5890","ios":"levelo://app?vid=1d5baf99-1ccc-4b3d-9336-8618469b5890"},"vehicle_type_id":"4","last_reported":1717340803,"current_range_meters":30800,"station_id":"ce4bgs92rcd13ifvqcc0","pricing_plan_id":"cebpf4jnsgd1na2vs0mg"},{"bike_id":"000fe32e-a3e0-4a08-b6c4-dec4f1e4d46b","system_id":"levelo_inurba_marseille","lat":43.302784,"lon":5.377158,"is_reserved":false,"is_disabled":false,"rental_uris":{"android":"levelo://app?vid=000fe32e-a3e0-4a08-b6c4-dec4f1e4d46b","ios":"levelo://app?vid=000fe32e-a3e0-4a08-b6c4-dec4f1e4d46b"},"vehicle_type_id":"4","last_reported":1717340803,"current_range_meters":800,"station_id":"ce4bguh2rcd13ifvqcj0","pricing_plan_id":"cebpf4jnsgd1na2vs0mg"},{"bike_id":"a1b324c3-4672-4178-8f46-8f15d360dea8","system_id":"levelo_inurba_marseille","lat":43.303256,"lon":5.379262,"is_reserved":false,"is_disabled":false,"rental_uris":{"android":"levelo://app?vid=a1b324c3-4672-4178-8f46-8f15d360dea8","ios":"levelo://app?vid=a1b324c3-4672-4178-8f46-8f15d360dea8"},"vehicle_type_id":"4","last_reported":1717340803,"current_range_meters":16800,"station_id":"","pricing_plan_id":"cebpf4jnsgd1na2vs0mg"},{"bike_id":"cc4b0899-079e-4267-ae5a-3e0861392f73","system_id":"levelo_inurba_marseille","lat":43.299222,"lon":5.365554,"is_reserved":false,"is_disabled":false,"rental_uris":{"android":"levelo://app?vid=cc4b0899-079e-4267-ae5a-3e0861392f73","ios":"levelo://app?vid=cc4b0899-079e-4267-ae5a-3e0861392f73"},"vehicle_type_id":"4","last_reported":1717340803,"current_range_meters":0,"station_id":"ce4bgm92rcd13ifvqbr0","pricing_plan_id":"cebpf4jnsgd1na2vs0mg"},{"bike_id":"5e950b46-fa3f-4a9b-9295-d9eda94fcfeb","system_id":"levelo_inurba_marseille","lat":43.299724,"lon":5.371829,"is_reserved":false,"is_disabled":false,"rental_uris":{"android":"levelo://app?vid=5e950b46-fa3f-4a9b-9295-d9eda94fcfeb","ios":"levelo://app?vid=5e950b46-fa3f-4a9b-9295-d9eda94fcfeb"},"vehicle_type_id":"4","last_reported":1717340803,"current_range_meters":2400,"station_id":"ce4bgr92rcd13ifvqc7g","pricing_plan_id":"cebpf4jnsgd1na2vs0mg"},{"bike_id":"4ee55567-b174-4a52-851a-b95bbef7c2b3","system_id":"levelo_inurba_marseille","lat":43.305364,"lon":5.384119,"is_reserved":false,"is_disabled":false,"rental_uris":{"android":"levelo://app?vid=4ee55567-b174-4a52-851a-b95bbef7c2b3","ios":"levelo://app?vid=4ee55567-b174-4a52-851a-b95bbef7c2b3"},"vehicle_type_id":"4","last_reported":1717340803,"current_range_meters":20000,"station_id":"ce4bgg92rcd13ifvqb30","pricing_plan_id":"cebpf4jnsgd1na2vs0mg"},{"bike_id":"7c0279c4-785e-41cc-9875-11b1aa5697b0","system_id":"levelo_inurba_marseille","lat":43.298433,"lon":5.362774,"is_reserved":false,"is_disabled":false,"rental_uris":{"android":"levelo://app?vid=7c0279c4-785e-41cc-9875-11b1aa5697b0","ios":"levelo://app?vid=7c0279c4-785e-41cc-9875-11b1aa5697b0"},"vehicle_type_id":"4","last_reported":1717340803,"current_range_meters":30400,"station_id":"ce4bgpp2rcd13ifvqc3g","pricing_plan_id":"cebpf4jnsgd1na2vs0mg"},{"bike_id":"04097bae-24fc-4111-bfcb-6e2bc5287007","system_id":"levelo_inurba_marseille","lat":43.299243,"lon":5.374807,"is_reserved":false,"is_disabled":false,"rental_uris":{"android":"levelo://app?vid=04097bae-24fc-4111-bfcb-6e2bc5287007","ios":"levelo://app?vid=04097bae-24fc-4111-bfcb-6e2bc5287007"},"vehicle_type_id":"4","last_reported":1717340803,"current_range_meters":28800,"station_id":"ce4bgjh2rcd13ifvqbg0","pricing_plan_id":"cebpf4jnsgd1na2vs0mg"},{"bike_id":"72f163b3-88a9-43aa-9898-85e4b5589800","system_id":"levelo_inurba_marseille","lat":43.30149,"lon":5.38073,"is_reserved":false,"is_disabled":false,"rental_uris":{"android":"levelo://app?vid=72f163b3-88a9-43aa-9898-85e4b5589800","ios":"levelo://app?vid=72f163b3-88a9-43aa-9898-85e4b5589800"},"vehicle_type_id":"4","last_reported":1717340803,"current_range_meters":6400,"station_id":"","pricing_plan_id":"cebpf4jnsgd1na2vs0mg"},{"bike_id":"41c2abb9-e7ce-419f-b825-057a0dd7dfc7","system_id":"levelo_inurba_marseille","lat":43.297774,"lon":5.370875,"is_reserved":false,"is_disabled":false,"rental_uris":{"android":"levelo://app?vid=41c2abb9-e7ce-419f-b825-057a0dd7dfc7","ios":"levelo://app?vid=41c2abb9-e7ce-419f-b825-057a0dd7dfc7"},"vehicle_type_id":"4","last_reported":1717340803,"current_range_meters":10000,"station_id":"ce4bgop2rcd13ifvqc1g","pricing_plan_id":"cebpf4jnsgd1na2vs0mg"},{"bike_id":"b32012a9-a1ab-4fd8-a44a-72f74ec94e78","system_id":"levelo_inurba_marseille","lat":43.297798,"lon":5.371027,"is_reserved":false,"is_disabled":false,"rental_uris":{"android":"levelo://app?vid=b32012a9-a1ab-4fd8-a44a-72f74ec94e78","ios":"levelo://app?vid=b32012a9-a1ab-4fd8-a44a-72f74ec94e78"},"vehicle_type_id":"4","last_reported":1717340803,"current_range_meters":31200,"station_id":"","pricing_plan_id":"cebpf4jnsgd1na2vs0mg"},{"bike_id":"10fb4334-c940-4455-979b-d3f1ca32e262","system_id":"levelo_inurba_marseille","lat":43.297774,"lon":5.370875,"is_reserved":false,"is_disabled":false,"rental_uris":{"android":"levelo://app?vid=10fb4334-c940-4455-979b-d3f1ca32e262","ios":"levelo://app?vid=10fb4334-c940-4455-979b-d3f1ca32e262"},"vehicle_type_id":"4","last_reported":1717340803,"current_range_meters":29600,"station_id":"ce4bgop2rcd13ifvqc1g","pricing_plan_id":"cebpf4jnsgd1na2vs0mg"},{"bike_id":"2935268e-b2a7-4f3d-8748-23455793256c","system_id":"levelo_inurba_marseille","lat":43.322872,"lon":5.382756,"is_reserved":false,"is_disabled":false,"rental_uris":{"android":"levelo://app?vid=2935268e-b2a7-4f3d-8748-23455793256c","ios":"levelo://app?vid=2935268e-b2a7-4f3d-8748-23455793256c"},"vehicle_type_id":"4","last_reported":1717340803,"current_range_meters":28400,"station_id":"ce4bhr12rcd13ifvqhqg","pricing_plan_id":"cebpf4jnsgd1na2vs0mg"},{"bike_id":"2fd2e74e-e2a1-40c1-b088-c5d706721fd8","system_id":"levelo_inurba_marseille","lat":43.322872,"lon":5.382756,"is_reserved":false,"is_disabled":false,"rental_uris":{"android":"levelo://app?vid=2fd2e74e-e2a1-40c1-b088-c5d706721fd8","ios":"levelo://app?vid=2fd2e74e-e2a1-40c1-b088-c5d706721fd8"},"vehicle_type_id":"4","last_reported":1717340803,"current_range_meters":6000,"station_id":"ce4bhr12rcd13ifvqhqg","pricing_plan_id":"cebpf4jnsgd1na2vs0mg"},{"bike_id":"1659ce0c-fafb-47a0-b4bf-e6264ebd5cf0","system_id":"levelo_inurba_marseille","lat":43.322872,"lon":5.382756,"is_reserved":false,"is_disabled":false,"rental_uris":{"android":"levelo://app?vid=1659ce0c-fafb-47a0-b4bf-e6264ebd5cf0","ios":"levelo://app?vid=1659ce0c-fafb-47a0-b4bf-e6264ebd5cf0"},"vehicle_type_id":"4","last_reported":1717340803,"current_range_meters":2400,"station_id":"ce4bhr12rcd13ifvqhqg","pricing_plan_id":"cebpf4jnsgd1na2vs0mg"},{"bike_id":"27ff9bcd-6c6c-4a86-8120-d7062432279d","system_id":"levelo_inurba_marseille","lat":43.297163,"lon":5.365866,"is_reserved":false,"is_disabled":false,"rental_uris":{"android":"levelo://app?vid=27ff9bcd-6c6c-4a86-8120-d7062432279d","ios":"levelo://app?vid=27ff9bcd-6c6c-4a86-8120-d7062432279d"},"vehicle_type_id":"4","last_reported":1717340803,"current_range_meters":24400,"station_id":"ce4bgn12rcd13ifvqbt0","pricing_plan_id":"cebpf4jnsgd1na2vs0mg"},{"bike_id":"5e052dd9-37b9-41ef-8fca-3aa92859e054","system_id":"levelo_inurba_marseille","lat":43.297163,"lon":5.365866,"is_reserved":false,"is_disabled":false,"rental_uris":{"android":"levelo://app?vid=5e052dd9-37b9-41ef-8fca-3aa92859e054","ios":"levelo://app?vid=5e052dd9-37b9-41ef-8fca-3aa92859e054"},"vehicle_type_id":"4","last_reported":1717340803,"current_range_meters":8800,"station_id":"ce4bgn12rcd13ifvqbt0","pricing_plan_id":"cebpf4jnsgd1na2vs0mg"},{"bike_id":"d340a6bd-16d6-4960-a521-947c6fc2c19e","system_id":"levelo_inurba_marseille","lat":43.297163,"lon":5.365866,"is_reserved":false,"is_disabled":false,"rental_uris":{"android":"levelo://app?vid=d340a6bd-16d6-4960-a521-947c6fc2c19e","ios":"levelo://app?vid=d340a6bd-16d6-4960-a521-947c6fc2c19e"},"vehicle_type_id":"4","last_reported":1717340803,"current_range_meters":11600,"station_id":"ce4bgn12rcd13ifvqbt0","pricing_plan_id":"cebpf4jnsgd1na2vs0mg"},{"bike_id":"c1849fdb-e1d3-475e-b4ac-a347bcdb3670","system_id":"levelo_inurba_marseille","lat":43.297163,"lon":5.365866,"is_reserved":false,"is_disabled":false,"rental_uris":{"android":"levelo://app?vid=c1849fdb-e1d3-475e-b4ac-a347bcdb3670","ios":"levelo://app?vid=c1849fdb-e1d3-475e-b4ac-a347bcdb3670"},"vehicle_type_id":"4","last_reported":1717340803,"current_range_meters":10400,"station_id":"ce4bgn12rcd13ifvqbt0","pricing_plan_id":"cebpf4jnsgd1na2vs0mg"},{"bike_id":"86faf908-cd72-4efe-8d63-50407d5c125c","system_id":"levelo_inurba_marseille","lat":43.2963,"lon":5.37174,"is_reserved":false,"is_disabled":false,"rental_uris":{"android":"levelo://app?vid=86faf908-cd72-4efe-8d63-50407d5c125c","ios":"levelo://app?vid=86faf908-cd72-4efe-8d63-50407d5c125c"},"vehicle_type_id":"4","last_reported":1717340803,"current_range_meters":5600,"station_id":"ce4bgnh2rcd13ifvqc0g","pricing_plan_id":"cebpf4jnsgd1na2vs0mg"},{"bike_id":"f8e5bce5-ad80-437b-b43d-c237261c19f0","system_id":"levelo_inurba_marseille","lat":43.29623,"lon":5.37162,"is_reserved":false,"is_disabled":false,"rental_uris":{"android":"levelo://app?vid=f8e5bce5-ad80-437b-b43d-c237261c19f0","ios":"levelo://app?vid=f8e5bce5-ad80-437b-b43d-c237261c19f0"},"vehicle_type_id":"4","last_reported":1717340803,"current_range_meters":1200,"station_id":"ce4bgnh2rcd13ifvqc0g","pricing_plan_id":"cebpf4jnsgd1na2vs0mg"},{"bike_id":"631f6bd2-a731-4df0-8509-f248ba5cdcdc","system_id":"levelo_inurba_marseille","lat":43.296129,"lon":5.370777,"is_reserved":false,"is_disabled":false,"rental_uris":{"android":"levelo://app?vid=631f6bd2-a731-4df0-8509-f248ba5cdcdc","ios":"levelo://app?vid=631f6bd2-a731-4df0-8509-f248ba5cdcdc"},"vehicle_type_id":"4","last_reported":1717340803,"current_range_meters":0,"station_id":"ce4bgnh2rcd13ifvqc0g","pricing_plan_id":"cebpf4jnsgd1na2vs0mg"},{"bike_id":"4692fb08-ddff-43ef-944f-7374ca4dfd17","system_id":"levelo_inurba_marseille","lat":43.296151,"lon":5.371624,"is_reserved":false,"is_disabled":false,"rental_uris":{"android":"levelo://app?vid=4692fb08-ddff-43ef-944f-7374ca4dfd17","ios":"levelo://app?vid=4692fb08-ddff-43ef-944f-7374ca4dfd17"},"vehicle_type_id":"4","last_reported":1717340803,"current_range_meters":4800,"station_id":"ce4bgnh2rcd13ifvqc0g","pricing_plan_id":"cebpf4jnsgd1na2vs0mg"},{"bike_id":"9fe3ecc3-a768-4840-9df3-b8b2cca6ee83","system_id":"levelo_inurba_marseille","lat":43.29575,"lon":5.36746,"is_reserved":false,"is_disabled":false,"rental_uris":{"android":"levelo://app?vid=9fe3ecc3-a768-4840-9df3-b8b2cca6ee83","ios":"levelo://app?vid=9fe3ecc3-a768-4840-9df3-b8b2cca6ee83"},"vehicle_type_id":"4","last_reported":1717340803,"current_range_meters":29200,"station_id":"","pricing_plan_id":"cebpf4jnsgd1na2vs0mg"},{"bike_id":"3160803d-d629-4f4c-a9e4-28ea2d3fc103","system_id":"levelo_inurba_marseille","lat":43.29573,"lon":5.367355,"is_reserved":false,"is_disabled":false,"rental_uris":{"android":"levelo://app?vid=3160803d-d629-4f4c-a9e4-28ea2d3fc103","ios":"levelo://app?vid=3160803d-d629-4f4c-a9e4-28ea2d3fc103"},"vehicle_type_id":"4","last_reported":1717340803,"current_range_meters":18400,"station_id":"ce4bgph2rcd13ifvqc2g","pricing_plan_id":"cebpf4jnsgd1na2vs0mg"},{"bike_id":"0a8b1c1b-8bc6-4b86-a715-29e0691f026c","system_id":"levelo_inurba_marseille","lat":43.299028,"lon":5.381509,"is_reserved":false,"is_disabled":false,"rental_uris":{"android":"levelo://app?vid=0a8b1c1b-8bc6-4b86-a715-29e0691f026c","ios":"levelo://app?vid=0a8b1c1b-8bc6-4b86-a715-29e0691f026c"},"vehicle_type_id":"4","last_reported":1717340803,"current_range_meters":10800,"station_id":"ce4bgj12rcd13ifvqbc0","pricing_plan_id":"cebpf4jnsgd1na2vs0mg"},{"bike_id":"561dc7d8-f293-4770-aeae-ff7ead5b94f3","system_id":"levelo_inurba_marseille","lat":43.309589,"lon":5.390258,"is_reserved":false,"is_disabled":false,"rental_uris":{"android":"levelo://app?vid=561dc7d8-f293-4770-aeae-ff7ead5b94f3","ios":"levelo://app?vid=561dc7d8-f293-4770-aeae-ff7ead5b94f3"},"vehicle_type_id":"4","last_reported":1717340803,"current_range_meters":18000,"station_id":"ce4bgup2rcd13ifvqco0","pricing_plan_id":"cebpf4jnsgd1na2vs0mg"},{"bike_id":"1acbbe42-8e6e-4902-8cd1-1da40ce2e371","system_id":"levelo_inurba_marseille","lat":43.296935,"lon":5.376544,"is_reserved":false,"is_disabled":false,"rental_uris":{"android":"levelo://app?vid=1acbbe42-8e6e-4902-8cd1-1da40ce2e371","ios":"levelo://app?vid=1acbbe42-8e6e-4902-8cd1-1da40ce2e371"},"vehicle_type_id":"4","last_reported":1717340803,"current_range_meters":2400,"station_id":"ce4bgkh2rcd13ifvqbl0","pricing_plan_id":"cebpf4jnsgd1na2vs0mg"},{"bike_id":"19b23520-9dc4-4a6a-9e33-9468dbb2dbf5","system_id":"levelo_inurba_marseille","lat":43.309589,"lon":5.390258,"is_reserved":false,"is_disabled":false,"rental_uris":{"android":"levelo://app?vid=19b23520-9dc4-4a6a-9e33-9468dbb2dbf5","ios":"levelo://app?vid=19b23520-9dc4-4a6a-9e33-9468dbb2dbf5"},"vehicle_type_id":"4","last_reported":1717340803,"current_range_meters":28800,"station_id":"ce4bgup2rcd13ifvqco0","pricing_plan_id":"cebpf4jnsgd1na2vs0mg"},{"bike_id":"bdbe0afe-a86e-492a-aba9-3df169741009","system_id":"levelo_inurba_marseille","lat":43.29892,"lon":5.3813,"is_reserved":false,"is_disabled":false,"rental_uris":{"android":"levelo://app?vid=bdbe0afe-a86e-492a-aba9-3df169741009","ios":"levelo://app?vid=bdbe0afe-a86e-492a-aba9-3df169741009"},"vehicle_type_id":"4","last_reported":1717340803,"current_range_meters":17200,"station_id":"ce4bgj12rcd13ifvqbc0","pricing_plan_id":"cebpf4jnsgd1na2vs0mg"},{"bike_id":"caa90e28-a71b-482f-8972-381ba31c0c1a","system_id":"levelo_inurba_marseille","lat":43.296921,"lon":5.376579,"is_reserved":false,"is_disabled":false,"rental_uris":{"android":"levelo://app?vid=caa90e28-a71b-482f-8972-381ba31c0c1a","ios":"levelo://app?vid=caa90e28-a71b-482f-8972-381ba31c0c1a"},"vehicle_type_id":"4","last_reported":1717340803,"current_range_meters":18400,"station_id":"ce4bgkh2rcd13ifvqbl0","pricing_plan_id":"cebpf4jnsgd1na2vs0mg"},{"bike_id":"9e18a7e3-ce74-4b89-9064-e2823ce82b9c","system_id":"levelo_inurba_marseille","lat":43.304278,"lon":5.388868,"is_reserved":false,"is_disabled":false,"rental_uris":{"android":"levelo://app?vid=9e18a7e3-ce74-4b89-9064-e2823ce82b9c","ios":"levelo://app?vid=9e18a7e3-ce74-4b89-9064-e2823ce82b9c"},"vehicle_type_id":"4","last_reported":1717340803,"current_range_meters":6000,"station_id":"ce4bgk12rcd13ifvqbi0","pricing_plan_id":"cebpf4jnsgd1na2vs0mg"},{"bike_id":"0b1645f8-625b-4eb8-81be-cd20ad13c0cb","system_id":"levelo_inurba_marseille","lat":43.298037,"lon":5.381066,"is_reserved":false,"is_disabled":false,"rental_uris":{"android":"levelo://app?vid=0b1645f8-625b-4eb8-81be-cd20ad13c0cb","ios":"levelo://app?vid=0b1645f8-625b-4eb8-81be-cd20ad13c0cb"},"vehicle_type_id":"4","last_reported":1717340803,"current_range_meters":30800,"station_id":"ce4bgip2rcd13ifvqbb0","pricing_plan_id":"cebpf4jnsgd1na2vs0mg"},{"bike_id":"e96e6ae6-db6d-4759-b412-59b833e48cfe","system_id":"levelo_inurba_marseille","lat":43.298037,"lon":5.381066,"is_reserved":false,"is_disabled":false,"rental_uris":{"android":"levelo://app?vid=e96e6ae6-db6d-4759-b412-59b833e48cfe","ios":"levelo://app?vid=e96e6ae6-db6d-4759-b412-59b833e48cfe"},"vehicle_type_id":"4","last_reported":1717340803,"current_range_meters":20400,"station_id":"ce4bgip2rcd13ifvqbb0","pricing_plan_id":"cebpf4jnsgd1na2vs0mg"},{"bike_id":"c0096b97-3d7f-4712-b145-de0a2bfd2656","system_id":"levelo_inurba_marseille","lat":43.298037,"lon":5.381066,"is_reserved":false,"is_disabled":false,"rental_uris":{"android":"levelo://app?vid=c0096b97-3d7f-4712-b145-de0a2bfd2656","ios":"levelo://app?vid=c0096b97-3d7f-4712-b145-de0a2bfd2656"},"vehicle_type_id":"4","last_reported":1717340803,"current_range_meters":26400,"station_id":"ce4bgip2rcd13ifvqbb0","pricing_plan_id":"cebpf4jnsgd1na2vs0mg"},{"bike_id":"5b87365d-3e1b-42cc-b678-bbc8b39ae3ed","system_id":"levelo_inurba_marseille","lat":43.298037,"lon":5.381066,"is_reserved":false,"is_disabled":false,"rental_uris":{"android":"levelo://app?vid=5b87365d-3e1b-42cc-b678-bbc8b39ae3ed","ios":"levelo://app?vid=5b87365d-3e1b-42cc-b678-bbc8b39ae3ed"},"vehicle_type_id":"4","last_reported":1717340803,"current_range_meters":24400,"station_id":"ce4bgip2rcd13ifvqbb0","pricing_plan_id":"cebpf4jnsgd1na2vs0mg"},{"bike_id":"89d17646-2b95-47e8-af36-e66cb7620858","system_id":"levelo_inurba_marseille","lat":43.304278,"lon":5.388868,"is_reserved":false,"is_disabled":false,"rental_uris":{"android":"levelo://app?vid=89d17646-2b95-47e8-af36-e66cb7620858","ios":"levelo://app?vid=89d17646-2b95-47e8-af36-e66cb7620858"},"vehicle_type_id":"4","last_reported":1717340803,"current_range_meters":7600,"station_id":"ce4bgk12rcd13ifvqbi0","pricing_plan_id":"cebpf4jnsgd1na2vs0mg"},{"bike_id":"aff85b72-8df8-48e9-a4b5-3d72dbe68096","system_id":"levelo_inurba_marseille","lat":43.304278,"lon":5.388868,"is_reserved":false,"is_disabled":false,"rental_uris":{"android":"levelo://app?vid=aff85b72-8df8-48e9-a4b5-3d72dbe68096","ios":"levelo://app?vid=aff85b72-8df8-48e9-a4b5-3d72dbe68096"},"vehicle_type_id":"4","last_reported":1717340803,"current_range_meters":12400,"station_id":"ce4bgk12rcd13ifvqbi0","pricing_plan_id":"cebpf4jnsgd1na2vs0mg"},{"bike_id":"9fafa9af-2b9b-4a3f-9039-e8ff3bb31867","system_id":"levelo_inurba_marseille","lat":43.304274,"lon":5.388873,"is_reserved":false,"is_disabled":false,"rental_uris":{"android":"levelo://app?vid=9fafa9af-2b9b-4a3f-9039-e8ff3bb31867","ios":"levelo://app?vid=9fafa9af-2b9b-4a3f-9039-e8ff3bb31867"},"vehicle_type_id":"4","last_reported":1717340803,"current_range_meters":9200,"station_id":"ce4bgk12rcd13ifvqbi0","pricing_plan_id":"cebpf4jnsgd1na2vs0mg"},{"bike_id":"eef836b0-e921-41eb-8fac-eca9c9f9f6a9","system_id":"levelo_inurba_marseille","lat":43.304274,"lon":5.388873,"is_reserved":false,"is_disabled":false,"rental_uris":{"android":"levelo://app?vid=eef836b0-e921-41eb-8fac-eca9c9f9f6a9","ios":"levelo://app?vid=eef836b0-e921-41eb-8fac-eca9c9f9f6a9"},"vehicle_type_id":"4","last_reported":1717340803,"current_range_meters":14000,"station_id":"ce4bgk12rcd13ifvqbi0","pricing_plan_id":"cebpf4jnsgd1na2vs0mg"},{"bike_id":"30bda9f9-4955-4226-8abc-f4c9b39b154f","system_id":"levelo_inurba_marseille","lat":43.29783,"lon":5.38109,"is_reserved":false,"is_disabled":false,"rental_uris":{"android":"levelo://app?vid=30bda9f9-4955-4226-8abc-f4c9b39b154f","ios":"levelo://app?vid=30bda9f9-4955-4226-8abc-f4c9b39b154f"},"vehicle_type_id":"4","last_reported":1717340803,"current_range_meters":30800,"station_id":"ce4bgip2rcd13ifvqbb0","pricing_plan_id":"cebpf4jnsgd1na2vs0mg"},{"bike_id":"1b463e33-ce10-4e03-bddd-414d7fe54958","system_id":"levelo_inurba_marseille","lat":43.29731,"lon":5.38008,"is_reserved":false,"is_disabled":false,"rental_uris":{"android":"levelo://app?vid=1b463e33-ce10-4e03-bddd-414d7fe54958","ios":"levelo://app?vid=1b463e33-ce10-4e03-bddd-414d7fe54958"},"vehicle_type_id":"4","last_reported":1717340803,"current_range_meters":10400,"station_id":"","pricing_plan_id":"cebpf4jnsgd1na2vs0mg"},{"bike_id":"c7a4513b-a250-4974-836e-341796c7a07c","system_id":"levelo_inurba_marseille","lat":43.300604,"lon":5.385612,"is_reserved":false,"is_disabled":false,"rental_uris":{"android":"levelo://app?vid=c7a4513b-a250-4974-836e-341796c7a07c","ios":"levelo://app?vid=c7a4513b-a250-4974-836e-341796c7a07c"},"vehicle_type_id":"4","last_reported":1717340803,"current_range_meters":20000,"station_id":"","pricing_plan_id":"cebpf4jnsgd1na2vs0mg"},{"bike_id":"c935c4ef-101f-4f57-9a32-8f4eeceed3b3","system_id":"levelo_inurba_marseille","lat":43.295781,"lon":5.376339,"is_reserved":false,"is_disabled":false,"rental_uris":{"android":"levelo://app?vid=c935c4ef-101f-4f57-9a32-8f4eeceed3b3","ios":"levelo://app?vid=c935c4ef-101f-4f57-9a32-8f4eeceed3b3"},"vehicle_type_id":"4","last_reported":1717340803,"current_range_meters":0,"station_id":"ce4bgi92rcd13ifvqb90","pricing_plan_id":"cebpf4jnsgd1na2vs0mg"},{"bike_id":"b1705730-a38e-47a3-b9a3-f88859096e0d","system_id":"levelo_inurba_marseille","lat":43.29609,"lon":5.37736,"is_reserved":false,"is_disabled":false,"rental_uris":{"android":"levelo://app?vid=b1705730-a38e-47a3-b9a3-f88859096e0d","ios":"levelo://app?vid=b1705730-a38e-47a3-b9a3-f88859096e0d"},"vehicle_type_id":"4","last_reported":1717340803,"current_range_meters":22800,"station_id":"ce4bgi92rcd13ifvqb90","pricing_plan_id":"cebpf4jnsgd1na2vs0mg"},{"bike_id":"104f1c54-b9fe-4473-a87c-958ac78636f3","system_id":"levelo_inurba_marseille","lat":43.299747,"lon":5.384817,"is_reserved":false,"is_disabled":false,"rental_uris":{"android":"levelo://app?vid=104f1c54-b9fe-4473-a87c-958ac78636f3","ios":"levelo://app?vid=104f1c54-b9fe-4473-a87c-958ac78636f3"},"vehicle_type_id":"4","last_reported":1717340803,"current_range_meters":24000,"station_id":"","pricing_plan_id":"cebpf4jnsgd1na2vs0mg"},{"bike_id":"96182c83-9f53-4fd2-af0e-2fe5d58ed2f6","system_id":"levelo_inurba_marseille","lat":43.29521,"lon":5.37492,"is_reserved":false,"is_disabled":false,"rental_uris":{"android":"levelo://app?vid=96182c83-9f53-4fd2-af0e-2fe5d58ed2f6","ios":"levelo://app?vid=96182c83-9f53-4fd2-af0e-2fe5d58ed2f6"},"vehicle_type_id":"4","last_reported":1717340803,"current_range_meters":0,"station_id":"ce4bgkp2rcd13ifvqbmg","pricing_plan_id":"cebpf4jnsgd1na2vs0mg"},{"bike_id":"a094ab65-58cb-48de-94a7-43aad2415b65","system_id":"levelo_inurba_marseille","lat":43.299724,"lon":5.384848,"is_reserved":false,"is_disabled":false,"rental_uris":{"android":"levelo://app?vid=a094ab65-58cb-48de-94a7-43aad2415b65","ios":"levelo://app?vid=a094ab65-58cb-48de-94a7-43aad2415b65"},"vehicle_type_id":"4","last_reported":1717340803,"current_range_meters":22000,"station_id":"ce4bgj92rcd13ifvqbd0","pricing_plan_id":"cebpf4jnsgd1na2vs0mg"},{"bike_id":"e4afca05-760b-4e63-b6fe-8935e6b67ee3","system_id":"levelo_inurba_marseille","lat":43.295279,"lon":5.375048,"is_reserved":false,"is_disabled":false,"rental_uris":{"android":"levelo://app?vid=e4afca05-760b-4e63-b6fe-8935e6b67ee3","ios":"levelo://app?vid=e4afca05-760b-4e63-b6fe-8935e6b67ee3"},"vehicle_type_id":"4","last_reported":1717340803,"current_range_meters":2000,"station_id":"ce4bgkp2rcd13ifvqbmg","pricing_plan_id":"cebpf4jnsgd1na2vs0mg"},{"bike_id":"dd6227b5-10c9-474f-b012-7565d64e7a12","system_id":"levelo_inurba_marseille","lat":43.29965,"lon":5.38494,"is_reserved":false,"is_disabled":false,"rental_uris":{"android":"levelo://app?vid=dd6227b5-10c9-474f-b012-7565d64e7a12","ios":"levelo://app?vid=dd6227b5-10c9-474f-b012-7565d64e7a12"},"vehicle_type_id":"4","last_reported":1717340803,"current_range_meters":0,"station_id":"ce4bgj92rcd13ifvqbd0","pricing_plan_id":"cebpf4jnsgd1na2vs0mg"},{"bike_id":"9aa1512e-b374-4bff-8f2a-e14765e35085","system_id":"levelo_inurba_marseille","lat":43.295279,"lon":5.375048,"is_reserved":false,"is_disabled":false,"rental_uris":{"android":"levelo://app?vid=9aa1512e-b374-4bff-8f2a-e14765e35085","ios":"levelo://app?vid=9aa1512e-b374-4bff-8f2a-e14765e35085"},"vehicle_type_id":"4","last_reported":1717340803,"current_range_meters":2400,"station_id":"ce4bgkp2rcd13ifvqbmg","pricing_plan_id":"cebpf4jnsgd1na2vs0mg"},{"bike_id":"ec2253f7-e581-464e-b31b-6149730edb04","system_id":"levelo_inurba_marseille","lat":43.294769,"lon":5.374674,"is_reserved":false,"is_disabled":false,"rental_uris":{"android":"levelo://app?vid=ec2253f7-e581-464e-b31b-6149730edb04","ios":"levelo://app?vid=ec2253f7-e581-464e-b31b-6149730edb04"},"vehicle_type_id":"4","last_reported":1717340803,"current_range_meters":20800,"station_id":"ce4bgkp2rcd13ifvqbmg","pricing_plan_id":"cebpf4jnsgd1na2vs0mg"},{"bike_id":"9fe8b4a2-f28d-41e3-a110-30ef1aa2d884","system_id":"levelo_inurba_marseille","lat":43.32367,"lon":5.388836,"is_reserved":false,"is_disabled":false,"rental_uris":{"android":"levelo://app?vid=9fe8b4a2-f28d-41e3-a110-30ef1aa2d884","ios":"levelo://app?vid=9fe8b4a2-f28d-41e3-a110-30ef1aa2d884"},"vehicle_type_id":"4","last_reported":1717340803,"current_range_meters":18400,"station_id":"ce4bhqp2rcd13ifvqhog","pricing_plan_id":"cebpf4jnsgd1na2vs0mg"},{"bike_id":"9acb491e-1894-4897-a5ff-a493317cbe92","system_id":"levelo_inurba_marseille","lat":43.32365,"lon":5.38879,"is_reserved":false,"is_disabled":false,"rental_uris":{"android":"levelo://app?vid=9acb491e-1894-4897-a5ff-a493317cbe92","ios":"levelo://app?vid=9acb491e-1894-4897-a5ff-a493317cbe92"},"vehicle_type_id":"4","last_reported":1717340803,"current_range_meters":0,"station_id":"ce4bhqp2rcd13ifvqhog","pricing_plan_id":"cebpf4jnsgd1na2vs0mg"},{"bike_id":"091d4a0a-ccf9-40b9-887b-af0094d0dfc9","system_id":"levelo_inurba_marseille","lat":43.32367,"lon":5.388836,"is_reserved":false,"is_disabled":false,"rental_uris":{"android":"levelo://app?vid=091d4a0a-ccf9-40b9-887b-af0094d0dfc9","ios":"levelo://app?vid=091d4a0a-ccf9-40b9-887b-af0094d0dfc9"},"vehicle_type_id":"4","last_reported":1717340803,"current_range_meters":21600,"station_id":"ce4bhqp2rcd13ifvqhog","pricing_plan_id":"cebpf4jnsgd1na2vs0mg"},{"bike_id":"0d2a945e-3403-4979-a0e2-3df106f16ab0","system_id":"levelo_inurba_marseille","lat":43.294162,"lon":5.386292,"is_reserved":false,"is_disabled":false,"rental_uris":{"android":"levelo://app?vid=0d2a945e-3403-4979-a0e2-3df106f16ab0","ios":"levelo://app?vid=0d2a945e-3403-4979-a0e2-3df106f16ab0"},"vehicle_type_id":"4","last_reported":1717340803,"current_range_meters":18400,"station_id":"ce4bh2h2rcd13ifvqdh0","pricing_plan_id":"cebpf4jnsgd1na2vs0mg"},{"bike_id":"a4543429-31de-4971-b041-6bf64adeb21e","system_id":"levelo_inurba_marseille","lat":43.29606,"lon":5.38111,"is_reserved":false,"is_disabled":false,"rental_uris":{"android":"levelo://app?vid=a4543429-31de-4971-b041-6bf64adeb21e","ios":"levelo://app?vid=a4543429-31de-4971-b041-6bf64adeb21e"},"vehicle_type_id":"4","last_reported":1717340803,"current_range_meters":10000,"station_id":"ce4bgl12rcd13ifvqbo0","pricing_plan_id":"cebpf4jnsgd1na2vs0mg"},{"bike_id":"24a0ccd9-3cea-405d-a800-96a15f725f19","system_id":"levelo_inurba_marseille","lat":43.29602,"lon":5.381084,"is_reserved":false,"is_disabled":false,"rental_uris":{"android":"levelo://app?vid=24a0ccd9-3cea-405d-a800-96a15f725f19","ios":"levelo://app?vid=24a0ccd9-3cea-405d-a800-96a15f725f19"},"vehicle_type_id":"4","last_reported":1717340803,"current_range_meters":19200,"station_id":"ce4bgl12rcd13ifvqbo0","pricing_plan_id":"cebpf4jnsgd1na2vs0mg"},{"bike_id":"d65d70c2-33e3-4d07-85d6-ac438e11a210","system_id":"levelo_inurba_marseille","lat":43.293259,"lon":5.371586,"is_reserved":false,"is_disabled":false,"rental_uris":{"android":"levelo://app?vid=d65d70c2-33e3-4d07-85d6-ac438e11a210","ios":"levelo://app?vid=d65d70c2-33e3-4d07-85d6-ac438e11a210"},"vehicle_type_id":"4","last_reported":1717340803,"current_range_meters":14000,"station_id":"ce4bgh92rcd13ifvqb40","pricing_plan_id":"cebpf4jnsgd1na2vs0mg"},{"bike_id":"e41e0336-6847-49b8-a04a-dac26fa61d92","system_id":"levelo_inurba_marseille","lat":43.293009,"lon":5.374584,"is_reserved":false,"is_disabled":false,"rental_uris":{"android":"levelo://app?vid=e41e0336-6847-49b8-a04a-dac26fa61d92","ios":"levelo://app?vid=e41e0336-6847-49b8-a04a-dac26fa61d92"},"vehicle_type_id":"4","last_reported":1717340803,"current_range_meters":5200,"station_id":"ce4bgi12rcd13ifvqb70","pricing_plan_id":"cebpf4jnsgd1na2vs0mg"},{"bike_id":"8f82a955-97b6-47b1-92b4-366d4eb6eb97","system_id":"levelo_inurba_marseille","lat":43.293259,"lon":5.371586,"is_reserved":false,"is_disabled":false,"rental_uris":{"android":"levelo://app?vid=8f82a955-97b6-47b1-92b4-366d4eb6eb97","ios":"levelo://app?vid=8f82a955-97b6-47b1-92b4-366d4eb6eb97"},"vehicle_type_id":"4","last_reported":1717340803,"current_range_meters":7600,"station_id":"ce4bgh92rcd13ifvqb40","pricing_plan_id":"cebpf4jnsgd1na2vs0mg"},{"bike_id":"34fc0739-6670-4cb2-a415-629d6d97ee9c","system_id":"levelo_inurba_marseille","lat":43.293259,"lon":5.371586,"is_reserved":false,"is_disabled":false,"rental_uris":{"android":"levelo://app?vid=34fc0739-6670-4cb2-a415-629d6d97ee9c","ios":"levelo://app?vid=34fc0739-6670-4cb2-a415-629d6d97ee9c"},"vehicle_type_id":"4","last_reported":1717340803,"current_range_meters":6400,"station_id":"ce4bgh92rcd13ifvqb40","pricing_plan_id":"cebpf4jnsgd1na2vs0mg"},{"bike_id":"0616d569-9674-4777-b01f-2876f04424e1","system_id":"levelo_inurba_marseille","lat":43.292749,"lon":5.368398,"is_reserved":false,"is_disabled":false,"rental_uris":{"android":"levelo://app?vid=0616d569-9674-4777-b01f-2876f04424e1","ios":"levelo://app?vid=0616d569-9674-4777-b01f-2876f04424e1"},"vehicle_type_id":"4","last_reported":1717340803,"current_range_meters":0,"station_id":"ce4bhbp2rcd13ifvqesg","pricing_plan_id":"cebpf4jnsgd1na2vs0mg"},{"bike_id":"1fff14f4-06be-4686-bf67-1c8613d023d3","system_id":"levelo_inurba_marseille","lat":43.293259,"lon":5.371586,"is_reserved":false,"is_disabled":false,"rental_uris":{"android":"levelo://app?vid=1fff14f4-06be-4686-bf67-1c8613d023d3","ios":"levelo://app?vid=1fff14f4-06be-4686-bf67-1c8613d023d3"},"vehicle_type_id":"4","last_reported":1717340803,"current_range_meters":14400,"station_id":"ce4bgh92rcd13ifvqb40","pricing_plan_id":"cebpf4jnsgd1na2vs0mg"},{"bike_id":"75389df1-454f-40c9-948f-dab3a5df5f10","system_id":"levelo_inurba_marseille","lat":43.292769,"lon":5.368459,"is_reserved":false,"is_disabled":false,"rental_uris":{"android":"levelo://app?vid=75389df1-454f-40c9-948f-dab3a5df5f10","ios":"levelo://app?vid=75389df1-454f-40c9-948f-dab3a5df5f10"},"vehicle_type_id":"4","last_reported":1717340803,"current_range_meters":0,"station_id":"ce4bhbp2rcd13ifvqesg","pricing_plan_id":"cebpf4jnsgd1na2vs0mg"},{"bike_id":"9179cd6f-7b25-492f-81bb-acc1d661597e","system_id":"levelo_inurba_marseille","lat":43.293009,"lon":5.374584,"is_reserved":false,"is_disabled":false,"rental_uris":{"android":"levelo://app?vid=9179cd6f-7b25-492f-81bb-acc1d661597e","ios":"levelo://app?vid=9179cd6f-7b25-492f-81bb-acc1d661597e"},"vehicle_type_id":"4","last_reported":1717340803,"current_range_meters":2400,"station_id":"ce4bgi12rcd13ifvqb70","pricing_plan_id":"cebpf4jnsgd1na2vs0mg"},{"bike_id":"0fa99aa6-a916-455a-9bc7-ea17f926b8b4","system_id":"levelo_inurba_marseille","lat":43.293009,"lon":5.374584,"is_reserved":false,"is_disabled":false,"rental_uris":{"android":"levelo://app?vid=0fa99aa6-a916-455a-9bc7-ea17f926b8b4","ios":"levelo://app?vid=0fa99aa6-a916-455a-9bc7-ea17f926b8b4"},"vehicle_type_id":"4","last_reported":1717340803,"current_range_meters":22400,"station_id":"ce4bgi12rcd13ifvqb70","pricing_plan_id":"cebpf4jnsgd1na2vs0mg"},{"bike_id":"e9da57fa-b7a6-4d63-a8d4-16a2f96ddaf1","system_id":"levelo_inurba_marseille","lat":43.293009,"lon":5.374584,"is_reserved":false,"is_disabled":false,"rental_uris":{"android":"levelo://app?vid=e9da57fa-b7a6-4d63-a8d4-16a2f96ddaf1","ios":"levelo://app?vid=e9da57fa-b7a6-4d63-a8d4-16a2f96ddaf1"},"vehicle_type_id":"4","last_reported":1717340803,"current_range_meters":18000,"station_id":"ce4bgi12rcd13ifvqb70","pricing_plan_id":"cebpf4jnsgd1na2vs0mg"},{"bike_id":"004fdcb7-cade-4034-b229-f5cc9654896b","system_id":"levelo_inurba_marseille","lat":43.302992,"lon":5.392136,"is_reserved":false,"is_disabled":false,"rental_uris":{"android":"levelo://app?vid=004fdcb7-cade-4034-b229-f5cc9654896b","ios":"levelo://app?vid=004fdcb7-cade-4034-b229-f5cc9654896b"},"vehicle_type_id":"4","last_reported":1717340803,"current_range_meters":2000,"station_id":"ce4bgkh2rcd13ifvqbk0","pricing_plan_id":"cebpf4jnsgd1na2vs0mg"},{"bike_id":"541c7351-8df5-4b93-9c52-a1f630411d67","system_id":"levelo_inurba_marseille","lat":43.29215,"lon":5.36326,"is_reserved":false,"is_disabled":false,"rental_uris":{"android":"levelo://app?vid=541c7351-8df5-4b93-9c52-a1f630411d67","ios":"levelo://app?vid=541c7351-8df5-4b93-9c52-a1f630411d67"},"vehicle_type_id":"4","last_reported":1717340803,"current_range_meters":0,"station_id":"","pricing_plan_id":"cebpf4jnsgd1na2vs0mg"},{"bike_id":"cc691fdb-098c-4947-a357-24c02d1edcc2","system_id":"levelo_inurba_marseille","lat":43.304278,"lon":5.388868,"is_reserved":false,"is_disabled":false,"rental_uris":{"android":"levelo://app?vid=cc691fdb-098c-4947-a357-24c02d1edcc2","ios":"levelo://app?vid=cc691fdb-098c-4947-a357-24c02d1edcc2"},"vehicle_type_id":"4","last_reported":1717340803,"current_range_meters":9600,"station_id":"ce4bgk12rcd13ifvqbi0","pricing_plan_id":"cebpf4jnsgd1na2vs0mg"},{"bike_id":"91307715-370a-4fe8-9635-0baa6f538bcd","system_id":"levelo_inurba_marseille","lat":43.2936,"lon":5.37835,"is_reserved":false,"is_disabled":false,"rental_uris":{"android":"levelo://app?vid=91307715-370a-4fe8-9635-0baa6f538bcd","ios":"levelo://app?vid=91307715-370a-4fe8-9635-0baa6f538bcd"},"vehicle_type_id":"4","last_reported":1717340803,"current_range_meters":16800,"station_id":"ce4bgjh2rcd13ifvqbf0","pricing_plan_id":"cebpf4jnsgd1na2vs0mg"},{"bike_id":"818c89b5-77c1-4c68-b86f-18f902612346","system_id":"levelo_inurba_marseille","lat":43.300852,"lon":5.390859,"is_reserved":false,"is_disabled":false,"rental_uris":{"android":"levelo://app?vid=818c89b5-77c1-4c68-b86f-18f902612346","ios":"levelo://app?vid=818c89b5-77c1-4c68-b86f-18f902612346"},"vehicle_type_id":"4","last_reported":1717340803,"current_range_meters":24000,"station_id":"ce4bh192rcd13ifvqdb0","pricing_plan_id":"cebpf4jnsgd1na2vs0mg"},{"bike_id":"bc2d803a-9afc-4cfb-b57c-fd3cb6b8cb60","system_id":"levelo_inurba_marseille","lat":43.298764,"lon":5.388973,"is_reserved":false,"is_disabled":false,"rental_uris":{"android":"levelo://app?vid=bc2d803a-9afc-4cfb-b57c-fd3cb6b8cb60","ios":"levelo://app?vid=bc2d803a-9afc-4cfb-b57c-fd3cb6b8cb60"},"vehicle_type_id":"4","last_reported":1717340803,"current_range_meters":2800,"station_id":"ce4bh392rcd13ifvqdl0","pricing_plan_id":"cebpf4jnsgd1na2vs0mg"},{"bike_id":"20e2f994-3dd6-4710-9074-c6c2b8ac0f46","system_id":"levelo_inurba_marseille","lat":43.297923,"lon":5.387904,"is_reserved":false,"is_disabled":false,"rental_uris":{"android":"levelo://app?vid=20e2f994-3dd6-4710-9074-c6c2b8ac0f46","ios":"levelo://app?vid=20e2f994-3dd6-4710-9074-c6c2b8ac0f46"},"vehicle_type_id":"4","last_reported":1717340803,"current_range_meters":20000,"station_id":"ce4bh392rcd13ifvqdl0","pricing_plan_id":"cebpf4jnsgd1na2vs0mg"},{"bike_id":"8bf17f8f-2041-444d-9749-c67b7a3f9c98","system_id":"levelo_inurba_marseille","lat":43.30537,"lon":5.367345,"is_reserved":false,"is_disabled":false,"rental_uris":{"android":"levelo://app?vid=8bf17f8f-2041-444d-9749-c67b7a3f9c98","ios":"levelo://app?vid=8bf17f8f-2041-444d-9749-c67b7a3f9c98"},"vehicle_type_id":"4","last_reported":1717340803,"current_range_meters":7200,"station_id":"ce4bgrp2rcd13ifvqc9g","pricing_plan_id":"cebpf4jnsgd1na2vs0mg"},{"bike_id":"14027279-adb1-4c13-94df-082f2cba02a7","system_id":"levelo_inurba_marseille","lat":43.298764,"lon":5.388973,"is_reserved":false,"is_disabled":false,"rental_uris":{"android":"levelo://app?vid=14027279-adb1-4c13-94df-082f2cba02a7","ios":"levelo://app?vid=14027279-adb1-4c13-94df-082f2cba02a7"},"vehicle_type_id":"4","last_reported":1717340803,"current_range_meters":19600,"station_id":"ce4bh392rcd13ifvqdl0","pricing_plan_id":"cebpf4jnsgd1na2vs0mg"},{"bike_id":"d7bc57a2-a90f-4dda-bee9-a21e8c05ad06","system_id":"levelo_inurba_marseille","lat":43.298764,"lon":5.388973,"is_reserved":false,"is_disabled":false,"rental_uris":{"android":"levelo://app?vid=d7bc57a2-a90f-4dda-bee9-a21e8c05ad06","ios":"levelo://app?vid=d7bc57a2-a90f-4dda-bee9-a21e8c05ad06"},"vehicle_type_id":"4","last_reported":1717340803,"current_range_meters":12400,"station_id":"ce4bh392rcd13ifvqdl0","pricing_plan_id":"cebpf4jnsgd1na2vs0mg"},{"bike_id":"3f331e45-8074-4d71-9ea8-21693cab17de","system_id":"levelo_inurba_marseille","lat":43.291671,"lon":5.371575,"is_reserved":false,"is_disabled":false,"rental_uris":{"android":"levelo://app?vid=3f331e45-8074-4d71-9ea8-21693cab17de","ios":"levelo://app?vid=3f331e45-8074-4d71-9ea8-21693cab17de"},"vehicle_type_id":"4","last_reported":1717340803,"current_range_meters":12800,"station_id":"ce4bha92rcd13ifvqeh0","pricing_plan_id":"cebpf4jnsgd1na2vs0mg"},{"bike_id":"ec216ce6-5c0a-4a27-af33-60f3c725e272","system_id":"levelo_inurba_marseille","lat":43.313291,"lon":5.396838,"is_reserved":false,"is_disabled":false,"rental_uris":{"android":"levelo://app?vid=ec216ce6-5c0a-4a27-af33-60f3c725e272","ios":"levelo://app?vid=ec216ce6-5c0a-4a27-af33-60f3c725e272"},"vehicle_type_id":"4","last_reported":1717340803,"current_range_meters":0,"station_id":"ce4bgvp2rcd13ifvqcu0","pricing_plan_id":"cebpf4jnsgd1na2vs0mg"},{"bike_id":"88d85188-9462-4941-8600-f60d2bfd0bdf","system_id":"levelo_inurba_marseille","lat":43.3132,"lon":5.39688,"is_reserved":false,"is_disabled":false,"rental_uris":{"android":"levelo://app?vid=88d85188-9462-4941-8600-f60d2bfd0bdf","ios":"levelo://app?vid=88d85188-9462-4941-8600-f60d2bfd0bdf"},"vehicle_type_id":"4","last_reported":1717340803,"current_range_meters":18400,"station_id":"","pricing_plan_id":"cebpf4jnsgd1na2vs0mg"},{"bike_id":"8a70e2ca-1c1f-4416-a7b8-577c7052f57e","system_id":"levelo_inurba_marseille","lat":43.313291,"lon":5.396838,"is_reserved":false,"is_disabled":false,"rental_uris":{"android":"levelo://app?vid=8a70e2ca-1c1f-4416-a7b8-577c7052f57e","ios":"levelo://app?vid=8a70e2ca-1c1f-4416-a7b8-577c7052f57e"},"vehicle_type_id":"4","last_reported":1717340803,"current_range_meters":24400,"station_id":"ce4bgvp2rcd13ifvqcu0","pricing_plan_id":"cebpf4jnsgd1na2vs0mg"},{"bike_id":"4d3c82a3-c6c6-4d5c-a61a-301f82f9bcdc","system_id":"levelo_inurba_marseille","lat":43.31333,"lon":5.39692,"is_reserved":false,"is_disabled":false,"rental_uris":{"android":"levelo://app?vid=4d3c82a3-c6c6-4d5c-a61a-301f82f9bcdc","ios":"levelo://app?vid=4d3c82a3-c6c6-4d5c-a61a-301f82f9bcdc"},"vehicle_type_id":"4","last_reported":1717340803,"current_range_meters":28000,"station_id":"ce4bgvp2rcd13ifvqcu0","pricing_plan_id":"cebpf4jnsgd1na2vs0mg"},{"bike_id":"858aac4c-97bb-4463-9f42-21bf1fe4caa1","system_id":"levelo_inurba_marseille","lat":43.309047,"lon":5.396551,"is_reserved":false,"is_disabled":false,"rental_uris":{"android":"levelo://app?vid=858aac4c-97bb-4463-9f42-21bf1fe4caa1","ios":"levelo://app?vid=858aac4c-97bb-4463-9f42-21bf1fe4caa1"},"vehicle_type_id":"4","last_reported":1717340803,"current_range_meters":5200,"station_id":"ce4bh012rcd13ifvqcv0","pricing_plan_id":"cebpf4jnsgd1na2vs0mg"},{"bike_id":"f2d4b885-fdcb-4129-a91e-e7970cd5b8fa","system_id":"levelo_inurba_marseille","lat":43.309038,"lon":5.396546,"is_reserved":false,"is_disabled":false,"rental_uris":{"android":"levelo://app?vid=f2d4b885-fdcb-4129-a91e-e7970cd5b8fa","ios":"levelo://app?vid=f2d4b885-fdcb-4129-a91e-e7970cd5b8fa"},"vehicle_type_id":"4","last_reported":1717340803,"current_range_meters":18800,"station_id":"ce4bh012rcd13ifvqcv0","pricing_plan_id":"cebpf4jnsgd1na2vs0mg"},{"bike_id":"1caa6435-09bb-426b-9241-014af95b4312","system_id":"levelo_inurba_marseille","lat":43.309047,"lon":5.396551,"is_reserved":false,"is_disabled":false,"rental_uris":{"android":"levelo://app?vid=1caa6435-09bb-426b-9241-014af95b4312","ios":"levelo://app?vid=1caa6435-09bb-426b-9241-014af95b4312"},"vehicle_type_id":"4","last_reported":1717340803,"current_range_meters":9200,"station_id":"ce4bh012rcd13ifvqcv0","pricing_plan_id":"cebpf4jnsgd1na2vs0mg"},{"bike_id":"bfbf3437-2bc4-438b-b8da-95e4014ecadf","system_id":"levelo_inurba_marseille","lat":43.29529,"lon":5.385581,"is_reserved":false,"is_disabled":false,"rental_uris":{"android":"levelo://app?vid=bfbf3437-2bc4-438b-b8da-95e4014ecadf","ios":"levelo://app?vid=bfbf3437-2bc4-438b-b8da-95e4014ecadf"},"vehicle_type_id":"4","last_reported":1717340803,"current_range_meters":5600,"station_id":"ce4bgih2rcd13ifvqba0","pricing_plan_id":"cebpf4jnsgd1na2vs0mg"},{"bike_id":"599d48bd-5279-44f0-979b-3ece63655c31","system_id":"levelo_inurba_marseille","lat":43.291783,"lon":5.357817,"is_reserved":false,"is_disabled":false,"rental_uris":{"android":"levelo://app?vid=599d48bd-5279-44f0-979b-3ece63655c31","ios":"levelo://app?vid=599d48bd-5279-44f0-979b-3ece63655c31"},"vehicle_type_id":"4","last_reported":1717340803,"current_range_meters":0,"station_id":"","pricing_plan_id":"cebpf4jnsgd1na2vs0mg"},{"bike_id":"92d90cdc-297c-44d4-a692-694d9bd2f42b","system_id":"levelo_inurba_marseille","lat":43.29529,"lon":5.385581,"is_reserved":false,"is_disabled":false,"rental_uris":{"android":"levelo://app?vid=92d90cdc-297c-44d4-a692-694d9bd2f42b","ios":"levelo://app?vid=92d90cdc-297c-44d4-a692-694d9bd2f42b"},"vehicle_type_id":"4","last_reported":1717340803,"current_range_meters":22400,"station_id":"ce4bgih2rcd13ifvqba0","pricing_plan_id":"cebpf4jnsgd1na2vs0mg"},{"bike_id":"5d9aedb5-4c94-421e-8926-3a63945bee51","system_id":"levelo_inurba_marseille","lat":43.29529,"lon":5.385581,"is_reserved":false,"is_disabled":false,"rental_uris":{"android":"levelo://app?vid=5d9aedb5-4c94-421e-8926-3a63945bee51","ios":"levelo://app?vid=5d9aedb5-4c94-421e-8926-3a63945bee51"},"vehicle_type_id":"4","last_reported":1717340803,"current_range_meters":5200,"station_id":"ce4bgih2rcd13ifvqba0","pricing_plan_id":"cebpf4jnsgd1na2vs0mg"},{"bike_id":"d16e81ff-d18c-467e-a344-3e2568ad8872","system_id":"levelo_inurba_marseille","lat":43.29529,"lon":5.385581,"is_reserved":false,"is_disabled":false,"rental_uris":{"android":"levelo://app?vid=d16e81ff-d18c-467e-a344-3e2568ad8872","ios":"levelo://app?vid=d16e81ff-d18c-467e-a344-3e2568ad8872"},"vehicle_type_id":"4","last_reported":1717340803,"current_range_meters":22000,"station_id":"ce4bgih2rcd13ifvqba0","pricing_plan_id":"cebpf4jnsgd1na2vs0mg"},{"bike_id":"92d24f48-a60d-4e87-95e2-81c7e0329e9a","system_id":"levelo_inurba_marseille","lat":43.29529,"lon":5.385581,"is_reserved":false,"is_disabled":false,"rental_uris":{"android":"levelo://app?vid=92d24f48-a60d-4e87-95e2-81c7e0329e9a","ios":"levelo://app?vid=92d24f48-a60d-4e87-95e2-81c7e0329e9a"},"vehicle_type_id":"4","last_reported":1717340803,"current_range_meters":21600,"station_id":"ce4bgih2rcd13ifvqba0","pricing_plan_id":"cebpf4jnsgd1na2vs0mg"},{"bike_id":"b087948c-74b0-41d3-af11-f011327b8779","system_id":"levelo_inurba_marseille","lat":43.29529,"lon":5.385581,"is_reserved":false,"is_disabled":false,"rental_uris":{"android":"levelo://app?vid=b087948c-74b0-41d3-af11-f011327b8779","ios":"levelo://app?vid=b087948c-74b0-41d3-af11-f011327b8779"},"vehicle_type_id":"4","last_reported":1717340803,"current_range_meters":24000,"station_id":"ce4bgih2rcd13ifvqba0","pricing_plan_id":"cebpf4jnsgd1na2vs0mg"},{"bike_id":"9c9cea46-84ad-482d-bcda-3b8739cfeac5","system_id":"levelo_inurba_marseille","lat":43.29529,"lon":5.385581,"is_reserved":false,"is_disabled":false,"rental_uris":{"android":"levelo://app?vid=9c9cea46-84ad-482d-bcda-3b8739cfeac5","ios":"levelo://app?vid=9c9cea46-84ad-482d-bcda-3b8739cfeac5"},"vehicle_type_id":"4","last_reported":1717340803,"current_range_meters":18800,"station_id":"ce4bgih2rcd13ifvqba0","pricing_plan_id":"cebpf4jnsgd1na2vs0mg"},{"bike_id":"91b3afc9-dda8-4492-9d7f-dd4be87768b0","system_id":"levelo_inurba_marseille","lat":43.290779,"lon":5.371482,"is_reserved":false,"is_disabled":false,"rental_uris":{"android":"levelo://app?vid=91b3afc9-dda8-4492-9d7f-dd4be87768b0","ios":"levelo://app?vid=91b3afc9-dda8-4492-9d7f-dd4be87768b0"},"vehicle_type_id":"4","last_reported":1717340803,"current_range_meters":8400,"station_id":"ce4bh5p2rcd13ifvqe4g","pricing_plan_id":"cebpf4jnsgd1na2vs0mg"},{"bike_id":"a84b0105-412d-49cf-a639-e38d0ff99e83","system_id":"levelo_inurba_marseille","lat":43.302008,"lon":5.394694,"is_reserved":false,"is_disabled":false,"rental_uris":{"android":"levelo://app?vid=a84b0105-412d-49cf-a639-e38d0ff99e83","ios":"levelo://app?vid=a84b0105-412d-49cf-a639-e38d0ff99e83"},"vehicle_type_id":"4","last_reported":1717340803,"current_range_meters":24800,"station_id":"ce4bh0p2rcd13ifvqd70","pricing_plan_id":"cebpf4jnsgd1na2vs0mg"},{"bike_id":"a4377a5f-d3c1-48f5-81e4-0587b18ab98b","system_id":"levelo_inurba_marseille","lat":43.289184,"lon":5.366408,"is_reserved":false,"is_disabled":false,"rental_uris":{"android":"levelo://app?vid=a4377a5f-d3c1-48f5-81e4-0587b18ab98b","ios":"levelo://app?vid=a4377a5f-d3c1-48f5-81e4-0587b18ab98b"},"vehicle_type_id":"4","last_reported":1717340803,"current_range_meters":1200,"station_id":"ce4bhap2rcd13ifvqek0","pricing_plan_id":"cebpf4jnsgd1na2vs0mg"},{"bike_id":"75d8babc-02ae-4523-89e7-216d2817b66a","system_id":"levelo_inurba_marseille","lat":43.298764,"lon":5.388973,"is_reserved":false,"is_disabled":false,"rental_uris":{"android":"levelo://app?vid=75d8babc-02ae-4523-89e7-216d2817b66a","ios":"levelo://app?vid=75d8babc-02ae-4523-89e7-216d2817b66a"},"vehicle_type_id":"4","last_reported":1717340803,"current_range_meters":0,"station_id":"ce4bh392rcd13ifvqdl0","pricing_plan_id":"cebpf4jnsgd1na2vs0mg"},{"bike_id":"6f9a1a87-c478-4a9f-838d-8816276cb841","system_id":"levelo_inurba_marseille","lat":43.302008,"lon":5.394694,"is_reserved":false,"is_disabled":false,"rental_uris":{"android":"levelo://app?vid=6f9a1a87-c478-4a9f-838d-8816276cb841","ios":"levelo://app?vid=6f9a1a87-c478-4a9f-838d-8816276cb841"},"vehicle_type_id":"4","last_reported":1717340803,"current_range_meters":2000,"station_id":"ce4bh0p2rcd13ifvqd70","pricing_plan_id":"cebpf4jnsgd1na2vs0mg"},{"bike_id":"cb673d92-09cb-4e6c-987f-ed00eabfb2f8","system_id":"levelo_inurba_marseille","lat":43.28998,"lon":5.37265,"is_reserved":false,"is_disabled":false,"rental_uris":{"android":"levelo://app?vid=cb673d92-09cb-4e6c-987f-ed00eabfb2f8","ios":"levelo://app?vid=cb673d92-09cb-4e6c-987f-ed00eabfb2f8"},"vehicle_type_id":"4","last_reported":1717340803,"current_range_meters":0,"station_id":"","pricing_plan_id":"cebpf4jnsgd1na2vs0mg"},{"bike_id":"d5b63451-054d-48eb-92d5-f2f8de6eece7","system_id":"levelo_inurba_marseille","lat":43.294162,"lon":5.386292,"is_reserved":false,"is_disabled":false,"rental_uris":{"android":"levelo://app?vid=d5b63451-054d-48eb-92d5-f2f8de6eece7","ios":"levelo://app?vid=d5b63451-054d-48eb-92d5-f2f8de6eece7"},"vehicle_type_id":"4","last_reported":1717340803,"current_range_meters":3600,"station_id":"ce4bh2h2rcd13ifvqdh0","pricing_plan_id":"cebpf4jnsgd1na2vs0mg"},{"bike_id":"9745f3e4-62e2-4f88-9b31-c01734391e85","system_id":"levelo_inurba_marseille","lat":43.290327,"lon":5.375711,"is_reserved":false,"is_disabled":false,"rental_uris":{"android":"levelo://app?vid=9745f3e4-62e2-4f88-9b31-c01734391e85","ios":"levelo://app?vid=9745f3e4-62e2-4f88-9b31-c01734391e85"},"vehicle_type_id":"4","last_reported":1717340803,"current_range_meters":0,"station_id":"ce4bh692rcd13ifvqe90","pricing_plan_id":"cebpf4jnsgd1na2vs0mg"},{"bike_id":"92b403de-9263-405d-9db9-9fe7e80423f3","system_id":"levelo_inurba_marseille","lat":43.290319,"lon":5.375732,"is_reserved":false,"is_disabled":false,"rental_uris":{"android":"levelo://app?vid=92b403de-9263-405d-9db9-9fe7e80423f3","ios":"levelo://app?vid=92b403de-9263-405d-9db9-9fe7e80423f3"},"vehicle_type_id":"4","last_reported":1717340803,"current_range_meters":14800,"station_id":"ce4bh692rcd13ifvqe90","pricing_plan_id":"cebpf4jnsgd1na2vs0mg"},{"bike_id":"580131cd-1088-4958-aefc-a7594e72a11e","system_id":"levelo_inurba_marseille","lat":43.29419,"lon":5.38621,"is_reserved":false,"is_disabled":false,"rental_uris":{"android":"levelo://app?vid=580131cd-1088-4958-aefc-a7594e72a11e","ios":"levelo://app?vid=580131cd-1088-4958-aefc-a7594e72a11e"},"vehicle_type_id":"4","last_reported":1717340803,"current_range_meters":2800,"station_id":"ce4bh2h2rcd13ifvqdh0","pricing_plan_id":"cebpf4jnsgd1na2vs0mg"},{"bike_id":"e6b5c813-3bbf-4154-8ec6-ff9d30b79eaa","system_id":"levelo_inurba_marseille","lat":43.294162,"lon":5.386292,"is_reserved":false,"is_disabled":false,"rental_uris":{"android":"levelo://app?vid=e6b5c813-3bbf-4154-8ec6-ff9d30b79eaa","ios":"levelo://app?vid=e6b5c813-3bbf-4154-8ec6-ff9d30b79eaa"},"vehicle_type_id":"4","last_reported":1717340803,"current_range_meters":16000,"station_id":"ce4bh2h2rcd13ifvqdh0","pricing_plan_id":"cebpf4jnsgd1na2vs0mg"},{"bike_id":"0c8ad62c-102d-45ee-b06d-c9581e601200","system_id":"levelo_inurba_marseille","lat":43.290319,"lon":5.375732,"is_reserved":false,"is_disabled":false,"rental_uris":{"android":"levelo://app?vid=0c8ad62c-102d-45ee-b06d-c9581e601200","ios":"levelo://app?vid=0c8ad62c-102d-45ee-b06d-c9581e601200"},"vehicle_type_id":"4","last_reported":1717340803,"current_range_meters":5200,"station_id":"ce4bh692rcd13ifvqe90","pricing_plan_id":"cebpf4jnsgd1na2vs0mg"},{"bike_id":"bd83b6cd-d578-495b-a2c2-f8cf4065df6c","system_id":"levelo_inurba_marseille","lat":43.294196,"lon":5.386234,"is_reserved":false,"is_disabled":false,"rental_uris":{"android":"levelo://app?vid=bd83b6cd-d578-495b-a2c2-f8cf4065df6c","ios":"levelo://app?vid=bd83b6cd-d578-495b-a2c2-f8cf4065df6c"},"vehicle_type_id":"4","last_reported":1717340803,"current_range_meters":0,"station_id":"ce4bh2h2rcd13ifvqdh0","pricing_plan_id":"cebpf4jnsgd1na2vs0mg"},{"bike_id":"6cc137b9-3245-4b13-9c48-93b4a371511c","system_id":"levelo_inurba_marseille","lat":43.294162,"lon":5.386292,"is_reserved":false,"is_disabled":false,"rental_uris":{"android":"levelo://app?vid=6cc137b9-3245-4b13-9c48-93b4a371511c","ios":"levelo://app?vid=6cc137b9-3245-4b13-9c48-93b4a371511c"},"vehicle_type_id":"4","last_reported":1717340803,"current_range_meters":8800,"station_id":"ce4bh2h2rcd13ifvqdh0","pricing_plan_id":"cebpf4jnsgd1na2vs0mg"},{"bike_id":"ba29c1b4-15a7-4e7c-bd61-46a30b09de29","system_id":"levelo_inurba_marseille","lat":43.28951,"lon":5.3641,"is_reserved":false,"is_disabled":false,"rental_uris":{"android":"levelo://app?vid=ba29c1b4-15a7-4e7c-bd61-46a30b09de29","ios":"levelo://app?vid=ba29c1b4-15a7-4e7c-bd61-46a30b09de29"},"vehicle_type_id":"4","last_reported":1717340803,"current_range_meters":2000,"station_id":"ce4bgvh2rcd13ifvqcs0","pricing_plan_id":"cebpf4jnsgd1na2vs0mg"},{"bike_id":"9bc85cd7-8a53-45d9-a385-15804538b2d2","system_id":"levelo_inurba_marseille","lat":43.294162,"lon":5.386292,"is_reserved":false,"is_disabled":false,"rental_uris":{"android":"levelo://app?vid=9bc85cd7-8a53-45d9-a385-15804538b2d2","ios":"levelo://app?vid=9bc85cd7-8a53-45d9-a385-15804538b2d2"},"vehicle_type_id":"4","last_reported":1717340803,"current_range_meters":18800,"station_id":"ce4bh2h2rcd13ifvqdh0","pricing_plan_id":"cebpf4jnsgd1na2vs0mg"},{"bike_id":"93aefd70-6210-44e4-a8fb-7e8976030341","system_id":"levelo_inurba_marseille","lat":43.289468,"lon":5.363719,"is_reserved":false,"is_disabled":false,"rental_uris":{"android":"levelo://app?vid=93aefd70-6210-44e4-a8fb-7e8976030341","ios":"levelo://app?vid=93aefd70-6210-44e4-a8fb-7e8976030341"},"vehicle_type_id":"4","last_reported":1717340803,"current_range_meters":4400,"station_id":"ce4bhc92rcd13ifvqetg","pricing_plan_id":"cebpf4jnsgd1na2vs0mg"},{"bike_id":"b7bee511-9494-41a6-8a18-1b413398dc2b","system_id":"levelo_inurba_marseille","lat":43.289184,"lon":5.366408,"is_reserved":false,"is_disabled":false,"rental_uris":{"android":"levelo://app?vid=b7bee511-9494-41a6-8a18-1b413398dc2b","ios":"levelo://app?vid=b7bee511-9494-41a6-8a18-1b413398dc2b"},"vehicle_type_id":"4","last_reported":1717340803,"current_range_meters":10400,"station_id":"ce4bhap2rcd13ifvqek0","pricing_plan_id":"cebpf4jnsgd1na2vs0mg"},{"bike_id":"c96ddffb-81bd-4a70-b3f0-3c949ddfc57f","system_id":"levelo_inurba_marseille","lat":43.290206,"lon":5.357324,"is_reserved":false,"is_disabled":false,"rental_uris":{"android":"levelo://app?vid=c96ddffb-81bd-4a70-b3f0-3c949ddfc57f","ios":"levelo://app?vid=c96ddffb-81bd-4a70-b3f0-3c949ddfc57f"},"vehicle_type_id":"4","last_reported":1717340803,"current_range_meters":0,"station_id":"ce4bhch2rcd13ifvqeug","pricing_plan_id":"cebpf4jnsgd1na2vs0mg"},{"bike_id":"577ffd9b-9679-49b7-9f3e-f1c6485fa084","system_id":"levelo_inurba_marseille","lat":43.292642,"lon":5.384254,"is_reserved":false,"is_disabled":false,"rental_uris":{"android":"levelo://app?vid=577ffd9b-9679-49b7-9f3e-f1c6485fa084","ios":"levelo://app?vid=577ffd9b-9679-49b7-9f3e-f1c6485fa084"},"vehicle_type_id":"4","last_reported":1717340803,"current_range_meters":10000,"station_id":"ce4bh692rcd13ifvqea0","pricing_plan_id":"cebpf4jnsgd1na2vs0mg"},{"bike_id":"71e74470-15a5-4e56-a998-dfe0162d86fa","system_id":"levelo_inurba_marseille","lat":43.330442,"lon":5.389148,"is_reserved":false,"is_disabled":false,"rental_uris":{"android":"levelo://app?vid=71e74470-15a5-4e56-a998-dfe0162d86fa","ios":"levelo://app?vid=71e74470-15a5-4e56-a998-dfe0162d86fa"},"vehicle_type_id":"4","last_reported":1717340803,"current_range_meters":10000,"station_id":"ce4bhr92rcd13ifvqhrg","pricing_plan_id":"cebpf4jnsgd1na2vs0mg"},{"bike_id":"dd4ef95f-410a-4b1b-9c5f-63d26f75f591","system_id":"levelo_inurba_marseille","lat":43.306412,"lon":5.401035,"is_reserved":false,"is_disabled":false,"rental_uris":{"android":"levelo://app?vid=dd4ef95f-410a-4b1b-9c5f-63d26f75f591","ios":"levelo://app?vid=dd4ef95f-410a-4b1b-9c5f-63d26f75f591"},"vehicle_type_id":"4","last_reported":1717340803,"current_range_meters":16000,"station_id":"ce4bh112rcd13ifvqda0","pricing_plan_id":"cebpf4jnsgd1na2vs0mg"},{"bike_id":"eda1e853-73f0-48c8-b51e-161a2e3952a9","system_id":"levelo_inurba_marseille","lat":43.2926,"lon":5.38436,"is_reserved":false,"is_disabled":false,"rental_uris":{"android":"levelo://app?vid=eda1e853-73f0-48c8-b51e-161a2e3952a9","ios":"levelo://app?vid=eda1e853-73f0-48c8-b51e-161a2e3952a9"},"vehicle_type_id":"4","last_reported":1717340803,"current_range_meters":0,"station_id":"ce4bh692rcd13ifvqea0","pricing_plan_id":"cebpf4jnsgd1na2vs0mg"},{"bike_id":"06dcef17-7e22-479b-8082-a98fd29caec5","system_id":"levelo_inurba_marseille","lat":43.292562,"lon":5.384279,"is_reserved":false,"is_disabled":false,"rental_uris":{"android":"levelo://app?vid=06dcef17-7e22-479b-8082-a98fd29caec5","ios":"levelo://app?vid=06dcef17-7e22-479b-8082-a98fd29caec5"},"vehicle_type_id":"4","last_reported":1717340803,"current_range_meters":0,"station_id":"ce4bh692rcd13ifvqea0","pricing_plan_id":"cebpf4jnsgd1na2vs0mg"},{"bike_id":"c7339a13-d1e6-4c09-85a7-2c580bdad0d8","system_id":"levelo_inurba_marseille","lat":43.292644,"lon":5.384257,"is_reserved":false,"is_disabled":false,"rental_uris":{"android":"levelo://app?vid=c7339a13-d1e6-4c09-85a7-2c580bdad0d8","ios":"levelo://app?vid=c7339a13-d1e6-4c09-85a7-2c580bdad0d8"},"vehicle_type_id":"4","last_reported":1717340803,"current_range_meters":27600,"station_id":"ce4bh692rcd13ifvqea0","pricing_plan_id":"cebpf4jnsgd1na2vs0mg"},{"bike_id":"5ce548f3-7825-4e20-a250-a78569e0c1f8","system_id":"levelo_inurba_marseille","lat":43.292642,"lon":5.384254,"is_reserved":false,"is_disabled":false,"rental_uris":{"android":"levelo://app?vid=5ce548f3-7825-4e20-a250-a78569e0c1f8","ios":"levelo://app?vid=5ce548f3-7825-4e20-a250-a78569e0c1f8"},"vehicle_type_id":"4","last_reported":1717340803,"current_range_meters":25200,"station_id":"ce4bh692rcd13ifvqea0","pricing_plan_id":"cebpf4jnsgd1na2vs0mg"},{"bike_id":"0c483774-b81a-407a-be59-580c916a993a","system_id":"levelo_inurba_marseille","lat":43.306412,"lon":5.401035,"is_reserved":false,"is_disabled":false,"rental_uris":{"android":"levelo://app?vid=0c483774-b81a-407a-be59-580c916a993a","ios":"levelo://app?vid=0c483774-b81a-407a-be59-580c916a993a"},"vehicle_type_id":"4","last_reported":1717340803,"current_range_meters":20400,"station_id":"ce4bh112rcd13ifvqda0","pricing_plan_id":"cebpf4jnsgd1na2vs0mg"},{"bike_id":"19f3059c-e634-4b73-80fd-ece0ff0ab76a","system_id":"levelo_inurba_marseille","lat":43.304296,"lon":5.397513,"is_reserved":false,"is_disabled":false,"rental_uris":{"android":"levelo://app?vid=19f3059c-e634-4b73-80fd-ece0ff0ab76a","ios":"levelo://app?vid=19f3059c-e634-4b73-80fd-ece0ff0ab76a"},"vehicle_type_id":"4","last_reported":1717340803,"current_range_meters":4400,"station_id":"ce4bh092rcd13ifvqd20","pricing_plan_id":"cebpf4jnsgd1na2vs0mg"},{"bike_id":"06a5f9f9-6465-4caa-878f-4ae90880cc0b","system_id":"levelo_inurba_marseille","lat":43.330442,"lon":5.389148,"is_reserved":false,"is_disabled":false,"rental_uris":{"android":"levelo://app?vid=06a5f9f9-6465-4caa-878f-4ae90880cc0b","ios":"levelo://app?vid=06a5f9f9-6465-4caa-878f-4ae90880cc0b"},"vehicle_type_id":"4","last_reported":1717340803,"current_range_meters":800,"station_id":"ce4bhr92rcd13ifvqhrg","pricing_plan_id":"cebpf4jnsgd1na2vs0mg"},{"bike_id":"f81bbc14-ef49-436e-be95-1a39d83446de","system_id":"levelo_inurba_marseille","lat":43.29241,"lon":5.3844,"is_reserved":false,"is_disabled":false,"rental_uris":{"android":"levelo://app?vid=f81bbc14-ef49-436e-be95-1a39d83446de","ios":"levelo://app?vid=f81bbc14-ef49-436e-be95-1a39d83446de"},"vehicle_type_id":"4","last_reported":1717340803,"current_range_meters":7200,"station_id":"ce4bh692rcd13ifvqea0","pricing_plan_id":"cebpf4jnsgd1na2vs0mg"},{"bike_id":"091ce941-fb9a-4313-bb40-313aca3f02ca","system_id":"levelo_inurba_marseille","lat":43.290103,"lon":5.356114,"is_reserved":false,"is_disabled":false,"rental_uris":{"android":"levelo://app?vid=091ce941-fb9a-4313-bb40-313aca3f02ca","ios":"levelo://app?vid=091ce941-fb9a-4313-bb40-313aca3f02ca"},"vehicle_type_id":"4","last_reported":1717340803,"current_range_meters":800,"station_id":"ce4bhb92rcd13ifvqen0","pricing_plan_id":"cebpf4jnsgd1na2vs0mg"},{"bike_id":"0ee3d9c1-1571-488e-a27d-431b1bc42176","system_id":"levelo_inurba_marseille","lat":43.290995,"lon":5.381361,"is_reserved":false,"is_disabled":false,"rental_uris":{"android":"levelo://app?vid=0ee3d9c1-1571-488e-a27d-431b1bc42176","ios":"levelo://app?vid=0ee3d9c1-1571-488e-a27d-431b1bc42176"},"vehicle_type_id":"4","last_reported":1717340803,"current_range_meters":800,"station_id":"ce4bh512rcd13ifvqe2g","pricing_plan_id":"cebpf4jnsgd1na2vs0mg"},{"bike_id":"c9cc28d5-4f9f-49ab-b0be-6cca7aab6562","system_id":"levelo_inurba_marseille","lat":43.290995,"lon":5.381361,"is_reserved":false,"is_disabled":false,"rental_uris":{"android":"levelo://app?vid=c9cc28d5-4f9f-49ab-b0be-6cca7aab6562","ios":"levelo://app?vid=c9cc28d5-4f9f-49ab-b0be-6cca7aab6562"},"vehicle_type_id":"4","last_reported":1717340803,"current_range_meters":15600,"station_id":"ce4bh512rcd13ifvqe2g","pricing_plan_id":"cebpf4jnsgd1na2vs0mg"},{"bike_id":"fe80ff13-f84d-42bd-a734-c9efe208c7e6","system_id":"levelo_inurba_marseille","lat":43.29106,"lon":5.381387,"is_reserved":false,"is_disabled":false,"rental_uris":{"android":"levelo://app?vid=fe80ff13-f84d-42bd-a734-c9efe208c7e6","ios":"levelo://app?vid=fe80ff13-f84d-42bd-a734-c9efe208c7e6"},"vehicle_type_id":"4","last_reported":1717340803,"current_range_meters":13200,"station_id":"","pricing_plan_id":"cebpf4jnsgd1na2vs0mg"},{"bike_id":"72ecd401-cb06-44af-b862-ff8e7a654943","system_id":"levelo_inurba_marseille","lat":43.29092,"lon":5.38137,"is_reserved":false,"is_disabled":false,"rental_uris":{"android":"levelo://app?vid=72ecd401-cb06-44af-b862-ff8e7a654943","ios":"levelo://app?vid=72ecd401-cb06-44af-b862-ff8e7a654943"},"vehicle_type_id":"4","last_reported":1717340803,"current_range_meters":20800,"station_id":"ce4bh512rcd13ifvqe2g","pricing_plan_id":"cebpf4jnsgd1na2vs0mg"},{"bike_id":"93831526-9fc9-4b14-9e59-c159fead93d7","system_id":"levelo_inurba_marseille","lat":43.290995,"lon":5.381361,"is_reserved":false,"is_disabled":false,"rental_uris":{"android":"levelo://app?vid=93831526-9fc9-4b14-9e59-c159fead93d7","ios":"levelo://app?vid=93831526-9fc9-4b14-9e59-c159fead93d7"},"vehicle_type_id":"4","last_reported":1717340803,"current_range_meters":20000,"station_id":"ce4bh512rcd13ifvqe2g","pricing_plan_id":"cebpf4jnsgd1na2vs0mg"},{"bike_id":"bd2cc080-745f-47b1-b7e0-9b0d1a5f693f","system_id":"levelo_inurba_marseille","lat":43.29796,"lon":5.39338,"is_reserved":false,"is_disabled":false,"rental_uris":{"android":"levelo://app?vid=bd2cc080-745f-47b1-b7e0-9b0d1a5f693f","ios":"levelo://app?vid=bd2cc080-745f-47b1-b7e0-9b0d1a5f693f"},"vehicle_type_id":"4","last_reported":1717340803,"current_range_meters":3200,"station_id":"chh1huq6cuj3fo74tm60","pricing_plan_id":"cebpf4jnsgd1na2vs0mg"},{"bike_id":"44623a76-ae1d-4b4d-8f88-47b5c1bb0ba7","system_id":"levelo_inurba_marseille","lat":43.289743,"lon":5.378304,"is_reserved":false,"is_disabled":false,"rental_uris":{"android":"levelo://app?vid=44623a76-ae1d-4b4d-8f88-47b5c1bb0ba7","ios":"levelo://app?vid=44623a76-ae1d-4b4d-8f88-47b5c1bb0ba7"},"vehicle_type_id":"4","last_reported":1717340803,"current_range_meters":21200,"station_id":"ce4bh9p2rcd13ifvqed0","pricing_plan_id":"cebpf4jnsgd1na2vs0mg"},{"bike_id":"1ee9ffb6-8393-4dc1-893e-bf92f30f0d36","system_id":"levelo_inurba_marseille","lat":43.330442,"lon":5.389148,"is_reserved":false,"is_disabled":false,"rental_uris":{"android":"levelo://app?vid=1ee9ffb6-8393-4dc1-893e-bf92f30f0d36","ios":"levelo://app?vid=1ee9ffb6-8393-4dc1-893e-bf92f30f0d36"},"vehicle_type_id":"4","last_reported":1717340803,"current_range_meters":20400,"station_id":"ce4bhr92rcd13ifvqhrg","pricing_plan_id":"cebpf4jnsgd1na2vs0mg"},{"bike_id":"b1246e85-a1a4-4422-be85-3457e721268a","system_id":"levelo_inurba_marseille","lat":43.2901,"lon":5.381269,"is_reserved":false,"is_disabled":false,"rental_uris":{"android":"levelo://app?vid=b1246e85-a1a4-4422-be85-3457e721268a","ios":"levelo://app?vid=b1246e85-a1a4-4422-be85-3457e721268a"},"vehicle_type_id":"4","last_reported":1717340803,"current_range_meters":13600,"station_id":"ce4bh4p2rcd13ifvqe1g","pricing_plan_id":"cebpf4jnsgd1na2vs0mg"},{"bike_id":"141a115d-8f2f-4bff-9f31-bbb87ee9f101","system_id":"levelo_inurba_marseille","lat":43.295533,"lon":5.390827,"is_reserved":false,"is_disabled":false,"rental_uris":{"android":"levelo://app?vid=141a115d-8f2f-4bff-9f31-bbb87ee9f101","ios":"levelo://app?vid=141a115d-8f2f-4bff-9f31-bbb87ee9f101"},"vehicle_type_id":"4","last_reported":1717340803,"current_range_meters":29200,"station_id":"ce4bh3p2rcd13ifvqdp0","pricing_plan_id":"cebpf4jnsgd1na2vs0mg"},{"bike_id":"b9f91130-309b-4959-a240-00bc4147952a","system_id":"levelo_inurba_marseille","lat":43.295169,"lon":5.390426,"is_reserved":false,"is_disabled":false,"rental_uris":{"android":"levelo://app?vid=b9f91130-309b-4959-a240-00bc4147952a","ios":"levelo://app?vid=b9f91130-309b-4959-a240-00bc4147952a"},"vehicle_type_id":"4","last_reported":1717340803,"current_range_meters":4800,"station_id":"ce4bh3p2rcd13ifvqdp0","pricing_plan_id":"cebpf4jnsgd1na2vs0mg"},{"bike_id":"baf549bc-1780-4a66-885e-8162d19fe62a","system_id":"levelo_inurba_marseille","lat":43.2901,"lon":5.381269,"is_reserved":false,"is_disabled":false,"rental_uris":{"android":"levelo://app?vid=baf549bc-1780-4a66-885e-8162d19fe62a","ios":"levelo://app?vid=baf549bc-1780-4a66-885e-8162d19fe62a"},"vehicle_type_id":"4","last_reported":1717340803,"current_range_meters":21600,"station_id":"ce4bh4p2rcd13ifvqe1g","pricing_plan_id":"cebpf4jnsgd1na2vs0mg"},{"bike_id":"9390b9ff-d2b5-4671-a71a-04a161cfb980","system_id":"levelo_inurba_marseille","lat":43.330269,"lon":5.390431,"is_reserved":false,"is_disabled":false,"rental_uris":{"android":"levelo://app?vid=9390b9ff-d2b5-4671-a71a-04a161cfb980","ios":"levelo://app?vid=9390b9ff-d2b5-4671-a71a-04a161cfb980"},"vehicle_type_id":"4","last_reported":1717340803,"current_range_meters":24000,"station_id":"","pricing_plan_id":"cebpf4jnsgd1na2vs0mg"},{"bike_id":"a1b329ed-0905-443f-a6ce-70310aceb21a","system_id":"levelo_inurba_marseille","lat":43.295169,"lon":5.390426,"is_reserved":false,"is_disabled":false,"rental_uris":{"android":"levelo://app?vid=a1b329ed-0905-443f-a6ce-70310aceb21a","ios":"levelo://app?vid=a1b329ed-0905-443f-a6ce-70310aceb21a"},"vehicle_type_id":"4","last_reported":1717340803,"current_range_meters":2000,"station_id":"ce4bh3p2rcd13ifvqdp0","pricing_plan_id":"cebpf4jnsgd1na2vs0mg"},{"bike_id":"b94e8707-5c45-49b8-95b5-92912e159473","system_id":"levelo_inurba_marseille","lat":43.290094,"lon":5.381264,"is_reserved":false,"is_disabled":false,"rental_uris":{"android":"levelo://app?vid=b94e8707-5c45-49b8-95b5-92912e159473","ios":"levelo://app?vid=b94e8707-5c45-49b8-95b5-92912e159473"},"vehicle_type_id":"4","last_reported":1717340803,"current_range_meters":6800,"station_id":"ce4bh4p2rcd13ifvqe1g","pricing_plan_id":"cebpf4jnsgd1na2vs0mg"},{"bike_id":"fe57313f-a83c-4904-8945-319db131376d","system_id":"levelo_inurba_marseille","lat":43.2901,"lon":5.381269,"is_reserved":false,"is_disabled":false,"rental_uris":{"android":"levelo://app?vid=fe57313f-a83c-4904-8945-319db131376d","ios":"levelo://app?vid=fe57313f-a83c-4904-8945-319db131376d"},"vehicle_type_id":"4","last_reported":1717340803,"current_range_meters":25200,"station_id":"ce4bh4p2rcd13ifvqe1g","pricing_plan_id":"cebpf4jnsgd1na2vs0mg"},{"bike_id":"9fc57c7f-97ce-4c38-9862-4207dcb01a3b","system_id":"levelo_inurba_marseille","lat":43.290094,"lon":5.381264,"is_reserved":false,"is_disabled":false,"rental_uris":{"android":"levelo://app?vid=9fc57c7f-97ce-4c38-9862-4207dcb01a3b","ios":"levelo://app?vid=9fc57c7f-97ce-4c38-9862-4207dcb01a3b"},"vehicle_type_id":"4","last_reported":1717340803,"current_range_meters":16400,"station_id":"ce4bh4p2rcd13ifvqe1g","pricing_plan_id":"cebpf4jnsgd1na2vs0mg"},{"bike_id":"18465449-fac5-4e23-8b86-d7c847de669f","system_id":"levelo_inurba_marseille","lat":43.288655,"lon":5.35785,"is_reserved":false,"is_disabled":false,"rental_uris":{"android":"levelo://app?vid=18465449-fac5-4e23-8b86-d7c847de669f","ios":"levelo://app?vid=18465449-fac5-4e23-8b86-d7c847de669f"},"vehicle_type_id":"4","last_reported":1717340803,"current_range_meters":16000,"station_id":"ce4bhb12rcd13ifvqem0","pricing_plan_id":"cebpf4jnsgd1na2vs0mg"},{"bike_id":"94241b89-be14-4ed4-9e17-e498b3a99b2f","system_id":"levelo_inurba_marseille","lat":43.33148,"lon":5.38987,"is_reserved":false,"is_disabled":false,"rental_uris":{"android":"levelo://app?vid=94241b89-be14-4ed4-9e17-e498b3a99b2f","ios":"levelo://app?vid=94241b89-be14-4ed4-9e17-e498b3a99b2f"},"vehicle_type_id":"4","last_reported":1717340803,"current_range_meters":5600,"station_id":"","pricing_plan_id":"cebpf4jnsgd1na2vs0mg"},{"bike_id":"ae7dcf30-c13f-4dce-8b1c-ad19772898e1","system_id":"levelo_inurba_marseille","lat":43.301117,"lon":5.398795,"is_reserved":false,"is_disabled":false,"rental_uris":{"android":"levelo://app?vid=ae7dcf30-c13f-4dce-8b1c-ad19772898e1","ios":"levelo://app?vid=ae7dcf30-c13f-4dce-8b1c-ad19772898e1"},"vehicle_type_id":"4","last_reported":1717340803,"current_range_meters":6000,"station_id":"ce4bh0h2rcd13ifvqd40","pricing_plan_id":"cebpf4jnsgd1na2vs0mg"},{"bike_id":"275c9a7f-5449-4727-b0db-1afd7fe95720","system_id":"levelo_inurba_marseille","lat":43.309371,"lon":5.401449,"is_reserved":false,"is_disabled":false,"rental_uris":{"android":"levelo://app?vid=275c9a7f-5449-4727-b0db-1afd7fe95720","ios":"levelo://app?vid=275c9a7f-5449-4727-b0db-1afd7fe95720"},"vehicle_type_id":"4","last_reported":1717340803,"current_range_meters":9600,"station_id":"ce4bgvp2rcd13ifvqct0","pricing_plan_id":"cebpf4jnsgd1na2vs0mg"},{"bike_id":"710e39bb-0111-4050-8a95-40afb9c318d5","system_id":"levelo_inurba_marseille","lat":43.306412,"lon":5.401035,"is_reserved":false,"is_disabled":false,"rental_uris":{"android":"levelo://app?vid=710e39bb-0111-4050-8a95-40afb9c318d5","ios":"levelo://app?vid=710e39bb-0111-4050-8a95-40afb9c318d5"},"vehicle_type_id":"4","last_reported":1717340803,"current_range_meters":4800,"station_id":"ce4bh112rcd13ifvqda0","pricing_plan_id":"cebpf4jnsgd1na2vs0mg"},{"bike_id":"698b3dbd-6bd6-4d41-9803-fc3df903768e","system_id":"levelo_inurba_marseille","lat":43.309371,"lon":5.401449,"is_reserved":false,"is_disabled":false,"rental_uris":{"android":"levelo://app?vid=698b3dbd-6bd6-4d41-9803-fc3df903768e","ios":"levelo://app?vid=698b3dbd-6bd6-4d41-9803-fc3df903768e"},"vehicle_type_id":"4","last_reported":1717340803,"current_range_meters":8000,"station_id":"ce4bgvp2rcd13ifvqct0","pricing_plan_id":"cebpf4jnsgd1na2vs0mg"},{"bike_id":"26e88c15-1ebf-4978-814d-f8bc280f73dc","system_id":"levelo_inurba_marseille","lat":43.337434,"lon":5.374839,"is_reserved":false,"is_disabled":false,"rental_uris":{"android":"levelo://app?vid=26e88c15-1ebf-4978-814d-f8bc280f73dc","ios":"levelo://app?vid=26e88c15-1ebf-4978-814d-f8bc280f73dc"},"vehicle_type_id":"4","last_reported":1717340803,"current_range_meters":27200,"station_id":"","pricing_plan_id":"cebpf4jnsgd1na2vs0mg"},{"bike_id":"20731d5d-a874-4436-8477-3bb845efbeda","system_id":"levelo_inurba_marseille","lat":43.286039,"lon":5.370681,"is_reserved":false,"is_disabled":false,"rental_uris":{"android":"levelo://app?vid=20731d5d-a874-4436-8477-3bb845efbeda","ios":"levelo://app?vid=20731d5d-a874-4436-8477-3bb845efbeda"},"vehicle_type_id":"4","last_reported":1717340803,"current_range_meters":2800,"station_id":"ce4bht12rcd13ifvqi60","pricing_plan_id":"cebpf4jnsgd1na2vs0mg"},{"bike_id":"5e4a7bbd-79ec-4d01-b4bd-a67b4f24cdb1","system_id":"levelo_inurba_marseille","lat":43.28868,"lon":5.35553,"is_reserved":false,"is_disabled":false,"rental_uris":{"android":"levelo://app?vid=5e4a7bbd-79ec-4d01-b4bd-a67b4f24cdb1","ios":"levelo://app?vid=5e4a7bbd-79ec-4d01-b4bd-a67b4f24cdb1"},"vehicle_type_id":"4","last_reported":1717340803,"current_range_meters":29600,"station_id":"","pricing_plan_id":"cebpf4jnsgd1na2vs0mg"},{"bike_id":"f5d7b03c-d700-4fa9-95be-7b92b9f2ba66","system_id":"levelo_inurba_marseille","lat":43.286961,"lon":5.373785,"is_reserved":false,"is_disabled":false,"rental_uris":{"android":"levelo://app?vid=f5d7b03c-d700-4fa9-95be-7b92b9f2ba66","ios":"levelo://app?vid=f5d7b03c-d700-4fa9-95be-7b92b9f2ba66"},"vehicle_type_id":"4","last_reported":1717340803,"current_range_meters":0,"station_id":"ce4bh3p2rcd13ifvqdq0","pricing_plan_id":"cebpf4jnsgd1na2vs0mg"},{"bike_id":"a1af9ef3-c8cc-401f-8539-08ef403db372","system_id":"levelo_inurba_marseille","lat":43.306412,"lon":5.401035,"is_reserved":false,"is_disabled":false,"rental_uris":{"android":"levelo://app?vid=a1af9ef3-c8cc-401f-8539-08ef403db372","ios":"levelo://app?vid=a1af9ef3-c8cc-401f-8539-08ef403db372"},"vehicle_type_id":"4","last_reported":1717340803,"current_range_meters":25600,"station_id":"ce4bh112rcd13ifvqda0","pricing_plan_id":"cebpf4jnsgd1na2vs0mg"},{"bike_id":"fea423a8-54c3-46e9-9402-64bf7170b377","system_id":"levelo_inurba_marseille","lat":43.306412,"lon":5.401035,"is_reserved":false,"is_disabled":false,"rental_uris":{"android":"levelo://app?vid=fea423a8-54c3-46e9-9402-64bf7170b377","ios":"levelo://app?vid=fea423a8-54c3-46e9-9402-64bf7170b377"},"vehicle_type_id":"4","last_reported":1717340803,"current_range_meters":12000,"station_id":"ce4bh112rcd13ifvqda0","pricing_plan_id":"cebpf4jnsgd1na2vs0mg"},{"bike_id":"e66d99c6-8f34-48fe-b7f0-4c4c2ec33236","system_id":"levelo_inurba_marseille","lat":43.301117,"lon":5.398795,"is_reserved":false,"is_disabled":false,"rental_uris":{"android":"levelo://app?vid=e66d99c6-8f34-48fe-b7f0-4c4c2ec33236","ios":"levelo://app?vid=e66d99c6-8f34-48fe-b7f0-4c4c2ec33236"},"vehicle_type_id":"4","last_reported":1717340803,"current_range_meters":17200,"station_id":"ce4bh0h2rcd13ifvqd40","pricing_plan_id":"cebpf4jnsgd1na2vs0mg"},{"bike_id":"8b117ce0-d5e1-4984-b770-98621cca74d7","system_id":"levelo_inurba_marseille","lat":43.306412,"lon":5.401035,"is_reserved":false,"is_disabled":false,"rental_uris":{"android":"levelo://app?vid=8b117ce0-d5e1-4984-b770-98621cca74d7","ios":"levelo://app?vid=8b117ce0-d5e1-4984-b770-98621cca74d7"},"vehicle_type_id":"4","last_reported":1717340803,"current_range_meters":4800,"station_id":"ce4bh112rcd13ifvqda0","pricing_plan_id":"cebpf4jnsgd1na2vs0mg"},{"bike_id":"39a1f0ac-f551-497b-ab0d-e0eb1b9e21fb","system_id":"levelo_inurba_marseille","lat":43.290336,"lon":5.386425,"is_reserved":false,"is_disabled":false,"rental_uris":{"android":"levelo://app?vid=39a1f0ac-f551-497b-ab0d-e0eb1b9e21fb","ios":"levelo://app?vid=39a1f0ac-f551-497b-ab0d-e0eb1b9e21fb"},"vehicle_type_id":"4","last_reported":1717340803,"current_range_meters":29600,"station_id":"ce4bh4p2rcd13ifvqe0g","pricing_plan_id":"cebpf4jnsgd1na2vs0mg"},{"bike_id":"ccc96030-b99e-485a-b34e-21aff057f536","system_id":"levelo_inurba_marseille","lat":43.301117,"lon":5.398795,"is_reserved":false,"is_disabled":false,"rental_uris":{"android":"levelo://app?vid=ccc96030-b99e-485a-b34e-21aff057f536","ios":"levelo://app?vid=ccc96030-b99e-485a-b34e-21aff057f536"},"vehicle_type_id":"4","last_reported":1717340803,"current_range_meters":1200,"station_id":"ce4bh0h2rcd13ifvqd40","pricing_plan_id":"cebpf4jnsgd1na2vs0mg"},{"bike_id":"d7566d30-3da4-45cb-9863-bfe8fd0ddeb4","system_id":"levelo_inurba_marseille","lat":43.301117,"lon":5.398795,"is_reserved":false,"is_disabled":false,"rental_uris":{"android":"levelo://app?vid=d7566d30-3da4-45cb-9863-bfe8fd0ddeb4","ios":"levelo://app?vid=d7566d30-3da4-45cb-9863-bfe8fd0ddeb4"},"vehicle_type_id":"4","last_reported":1717340803,"current_range_meters":8800,"station_id":"ce4bh0h2rcd13ifvqd40","pricing_plan_id":"cebpf4jnsgd1na2vs0mg"},{"bike_id":"09a725d3-d2ad-4ca6-95a8-256a90041c1c","system_id":"levelo_inurba_marseille","lat":43.301117,"lon":5.398795,"is_reserved":false,"is_disabled":false,"rental_uris":{"android":"levelo://app?vid=09a725d3-d2ad-4ca6-95a8-256a90041c1c","ios":"levelo://app?vid=09a725d3-d2ad-4ca6-95a8-256a90041c1c"},"vehicle_type_id":"4","last_reported":1717340803,"current_range_meters":0,"station_id":"ce4bh0h2rcd13ifvqd40","pricing_plan_id":"cebpf4jnsgd1na2vs0mg"},{"bike_id":"916ab4f7-a032-46aa-9ce2-0db19005a788","system_id":"levelo_inurba_marseille","lat":43.301434,"lon":5.398804,"is_reserved":false,"is_disabled":false,"rental_uris":{"android":"levelo://app?vid=916ab4f7-a032-46aa-9ce2-0db19005a788","ios":"levelo://app?vid=916ab4f7-a032-46aa-9ce2-0db19005a788"},"vehicle_type_id":"4","last_reported":1717340803,"current_range_meters":14800,"station_id":"ce4bh0h2rcd13ifvqd40","pricing_plan_id":"cebpf4jnsgd1na2vs0mg"},{"bike_id":"bf2e61c2-765c-48ce-b8d9-a77433c74ad1","system_id":"levelo_inurba_marseille","lat":43.28727,"lon":5.36078,"is_reserved":false,"is_disabled":false,"rental_uris":{"android":"levelo://app?vid=bf2e61c2-765c-48ce-b8d9-a77433c74ad1","ios":"levelo://app?vid=bf2e61c2-765c-48ce-b8d9-a77433c74ad1"},"vehicle_type_id":"4","last_reported":1717340803,"current_range_meters":25200,"station_id":"cki0cbj6b192h4jlfktg","pricing_plan_id":"cebpf4jnsgd1na2vs0mg"},{"bike_id":"6516992b-d778-41be-8bcb-75bf9935256e","system_id":"levelo_inurba_marseille","lat":43.28727,"lon":5.36078,"is_reserved":false,"is_disabled":false,"rental_uris":{"android":"levelo://app?vid=6516992b-d778-41be-8bcb-75bf9935256e","ios":"levelo://app?vid=6516992b-d778-41be-8bcb-75bf9935256e"},"vehicle_type_id":"4","last_reported":1717340803,"current_range_meters":30400,"station_id":"cki0cbj6b192h4jlfktg","pricing_plan_id":"cebpf4jnsgd1na2vs0mg"},{"bike_id":"640d62a5-12e0-4419-8667-faac50828d02","system_id":"levelo_inurba_marseille","lat":43.28727,"lon":5.36078,"is_reserved":false,"is_disabled":false,"rental_uris":{"android":"levelo://app?vid=640d62a5-12e0-4419-8667-faac50828d02","ios":"levelo://app?vid=640d62a5-12e0-4419-8667-faac50828d02"},"vehicle_type_id":"4","last_reported":1717340803,"current_range_meters":23600,"station_id":"cki0cbj6b192h4jlfktg","pricing_plan_id":"cebpf4jnsgd1na2vs0mg"},{"bike_id":"73bc00c6-b818-4b62-a0b6-82d04dbaba75","system_id":"levelo_inurba_marseille","lat":43.295194,"lon":5.39397,"is_reserved":false,"is_disabled":false,"rental_uris":{"android":"levelo://app?vid=73bc00c6-b818-4b62-a0b6-82d04dbaba75","ios":"levelo://app?vid=73bc00c6-b818-4b62-a0b6-82d04dbaba75"},"vehicle_type_id":"4","last_reported":1717340803,"current_range_meters":16000,"station_id":"ce4bh292rcd13ifvqdf0","pricing_plan_id":"cebpf4jnsgd1na2vs0mg"},{"bike_id":"4febc2d3-afbc-4436-b87a-6e5feda3a5a7","system_id":"levelo_inurba_marseille","lat":43.301117,"lon":5.398795,"is_reserved":false,"is_disabled":false,"rental_uris":{"android":"levelo://app?vid=4febc2d3-afbc-4436-b87a-6e5feda3a5a7","ios":"levelo://app?vid=4febc2d3-afbc-4436-b87a-6e5feda3a5a7"},"vehicle_type_id":"4","last_reported":1717340803,"current_range_meters":2800,"station_id":"ce4bh0h2rcd13ifvqd40","pricing_plan_id":"cebpf4jnsgd1na2vs0mg"},{"bike_id":"12644fcb-5dae-4b46-8e5f-c41f07f3feb1","system_id":"levelo_inurba_marseille","lat":43.286593,"lon":5.363346,"is_reserved":false,"is_disabled":false,"rental_uris":{"android":"levelo://app?vid=12644fcb-5dae-4b46-8e5f-c41f07f3feb1","ios":"levelo://app?vid=12644fcb-5dae-4b46-8e5f-c41f07f3feb1"},"vehicle_type_id":"4","last_reported":1717340803,"current_range_meters":11600,"station_id":"ce4bhah2rcd13ifvqej0","pricing_plan_id":"cebpf4jnsgd1na2vs0mg"},{"bike_id":"c97600b1-dda5-466e-ba55-1bb8c5609c1d","system_id":"levelo_inurba_marseille","lat":43.286961,"lon":5.373785,"is_reserved":false,"is_disabled":false,"rental_uris":{"android":"levelo://app?vid=c97600b1-dda5-466e-ba55-1bb8c5609c1d","ios":"levelo://app?vid=c97600b1-dda5-466e-ba55-1bb8c5609c1d"},"vehicle_type_id":"4","last_reported":1717340803,"current_range_meters":9600,"station_id":"ce4bh3p2rcd13ifvqdq0","pricing_plan_id":"cebpf4jnsgd1na2vs0mg"},{"bike_id":"8f2b0b5d-84f7-4348-aa9d-26c85f33992e","system_id":"levelo_inurba_marseille","lat":43.298681,"lon":5.397225,"is_reserved":false,"is_disabled":false,"rental_uris":{"android":"levelo://app?vid=8f2b0b5d-84f7-4348-aa9d-26c85f33992e","ios":"levelo://app?vid=8f2b0b5d-84f7-4348-aa9d-26c85f33992e"},"vehicle_type_id":"4","last_reported":1717340803,"current_range_meters":4400,"station_id":"ce4bh0h2rcd13ifvqd50","pricing_plan_id":"cebpf4jnsgd1na2vs0mg"},{"bike_id":"a327587a-8ed1-4f8e-a5d6-8900e7bcee29","system_id":"levelo_inurba_marseille","lat":43.286593,"lon":5.363346,"is_reserved":false,"is_disabled":false,"rental_uris":{"android":"levelo://app?vid=a327587a-8ed1-4f8e-a5d6-8900e7bcee29","ios":"levelo://app?vid=a327587a-8ed1-4f8e-a5d6-8900e7bcee29"},"vehicle_type_id":"4","last_reported":1717340803,"current_range_meters":23200,"station_id":"ce4bhah2rcd13ifvqej0","pricing_plan_id":"cebpf4jnsgd1na2vs0mg"},{"bike_id":"a3e02cae-769b-4a8a-a58b-a4e19b4c24f6","system_id":"levelo_inurba_marseille","lat":43.286961,"lon":5.373785,"is_reserved":false,"is_disabled":false,"rental_uris":{"android":"levelo://app?vid=a3e02cae-769b-4a8a-a58b-a4e19b4c24f6","ios":"levelo://app?vid=a3e02cae-769b-4a8a-a58b-a4e19b4c24f6"},"vehicle_type_id":"4","last_reported":1717340803,"current_range_meters":21200,"station_id":"ce4bh3p2rcd13ifvqdq0","pricing_plan_id":"cebpf4jnsgd1na2vs0mg"},