{"last_updated":1727946551,"ttl":60,"version":"2.2","data":{"bikes":[{"bike_id":"026fe9bf-ce88-4fa9-8299-3d233227d68c","system_id":"levelo_inurba_marseille","lat":43.292154,"lon":5.360516,"is_reserved":false,"is_disabled":false,"rental_uris":{"android":"levelo://app?vid=026fe9bf-ce88-4fa9-8299-3d233227d68c","ios":"levelo://app?vid=026fe9bf-ce88-4fa9-8299-3d233227d68c"},"vehicle_type_id":"4","last_reported":1727946551,"current_range_meters":38800,"station_id":"ce4bhbh2rcd13ifvqeqg","pricing_plan_id":"cebpf4jnsgd1na2vs0mg"},{"bike_id":"8bc0aa01-1d61-49ab-973d-784704f64634","system_id":"levelo_inurba_marseille","lat":43.29943,"lon":5.36508,"is_reserved":false,"is_disabled":false,"rental_uris":{"android":"levelo://app?vid=8bc0aa01-1d61-49ab-973d-784704f64634","ios":"levelo://app?vid=8bc0aa01-1d61-49ab-973d-784704f64634"},"vehicle_type_id":"4","last_reported":1727946551,"current_range_meters":38800,"station_id":"ce4bgm92rcd13ifvqbr0","pricing_plan_id":"cebpf4jnsgd1na2vs0mg"},{"bike_id":"972a785d-387e-4048-99c1-fc368af7fc9a","system_id":"levelo_inurba_marseille","lat":43.294417,"lon":5.397426,"is_reserved":false,"is_disabled":false,"rental_uris":{"android":"levelo://app?vid=972a785d-387e-4048-99c1-fc368af7fc9a","ios":"levelo://app?vid=972a785d-387e-4048-99c1-fc368af7fc9a"},"vehicle_type_id":"4","last_reported":1727946551,"current_range_meters":22400,"station_id":"ce4bh3h2rcd13ifvqdo0","pricing_plan_id":"cebpf4jnsgd1na2vs0mg"},{"bike_id":"14e3148b-eb6c-41c6-981c-d398f4db85af","system_id":"levelo_inurba_marseille","lat":43.27488,"lon":5.42466,"is_reserved":false,"is_disabled":false,"rental_uris":{"android":"levelo://app?vid=14e3148b-eb6c-41c6-981c-d398f4db85af","ios":"levelo://app?vid=14e3148b-eb6c-41c6-981c-d398f4db85af"},"vehicle_type_id":"4","last_reported":1727946551,"current_range_meters":19200,"station_id":"ce4bhn92rcd13ifvqgrg","pricing_plan_id":"cebpf4jnsgd1na2vs0mg"},{"bike_id":"6c46a732-fe6e-4be6-b11d-1aa7e9e133e2","system_id":"levelo_inurba_marseille","lat":43.30335,"lon":5.40426,"is_reserved":false,"is_disabled":false,"rental_uris":{"android":"levelo://app?vid=6c46a732-fe6e-4be6-b11d-1aa7e9e133e2","ios":"levelo://app?vid=6c46a732-fe6e-4be6-b11d-1aa7e9e133e2"},"vehicle_type_id":"4","last_reported":1727946551,"current_range_meters":22000,"station_id":"ce4bh012rcd13ifvqd10","pricing_plan_id":"cebpf4jnsgd1na2vs0mg"},{"bike_id":"bc374655-6eae-4ab6-bb05-dda63ed6e782","system_id":"levelo_inurba_marseille","lat":43.30534,"lon":5.36533,"is_reserved":false,"is_disabled":false,"rental_uris":{"android":"levelo://app?vid=bc374655-6eae-4ab6-bb05-dda63ed6e782","ios":"levelo://app?vid=bc374655-6eae-4ab6-bb05-dda63ed6e782"},"vehicle_type_id":"4","last_reported":1727946551,"current_range_meters":38800,"station_id":"ce4bgs12rcd13ifvqcag","pricing_plan_id":"cebpf4jnsgd1na2vs0mg"},{"bike_id":"dfa316ed-31fe-4eb7-ae98-3312a562d760","system_id":"levelo_inurba_marseille","lat":43.27181,"lon":5.40989,"is_reserved":false,"is_disabled":false,"rental_uris":{"android":"levelo://app?vid=dfa316ed-31fe-4eb7-ae98-3312a562d760","ios":"levelo://app?vid=dfa316ed-31fe-4eb7-ae98-3312a562d760"},"vehicle_type_id":"4","last_reported":1727946551,"current_range_meters":36400,"station_id":"ce4bhl12rcd13ifvqgf0","pricing_plan_id":"cebpf4jnsgd1na2vs0mg"},{"bike_id":"df4ec099-b188-48ab-96c7-11a1ce7c7011","system_id":"levelo_inurba_marseille","lat":43.246567,"lon":5.38908,"is_reserved":false,"is_disabled":false,"rental_uris":{"android":"levelo://app?vid=df4ec099-b188-48ab-96c7-11a1ce7c7011","ios":"levelo://app?vid=df4ec099-b188-48ab-96c7-11a1ce7c7011"},"vehicle_type_id":"4","last_reported":1727946551,"current_range_meters":10000,"station_id":"ce4bhg12rcd13ifvqf60","pricing_plan_id":"cebpf4jnsgd1na2vs0mg"},{"bike_id":"2f2dac1b-1a7c-4a46-91b4-ab01373de409","system_id":"levelo_inurba_marseille","lat":43.2619,"lon":5.37457,"is_reserved":false,"is_disabled":false,"rental_uris":{"android":"levelo://app?vid=2f2dac1b-1a7c-4a46-91b4-ab01373de409","ios":"levelo://app?vid=2f2dac1b-1a7c-4a46-91b4-ab01373de409"},"vehicle_type_id":"4","last_reported":1727946551,"current_range_meters":28400,"station_id":"ce4bhgp2rcd13ifvqfc0","pricing_plan_id":"cebpf4jnsgd1na2vs0mg"},{"bike_id":"91dd8c22-d1e9-4d71-ae55-5dd7e65d7d5a","system_id":"levelo_inurba_marseille","lat":43.23144,"lon":5.43707,"is_reserved":false,"is_disabled":false,"rental_uris":{"android":"levelo://app?vid=91dd8c22-d1e9-4d71-ae55-5dd7e65d7d5a","ios":"levelo://app?vid=91dd8c22-d1e9-4d71-ae55-5dd7e65d7d5a"},"vehicle_type_id":"4","last_reported":1727946551,"current_range_meters":20800,"station_id":"ce4bhmp2rcd13ifvqgog","pricing_plan_id":"cebpf4jnsgd1na2vs0mg"},{"bike_id":"ff89b7e6-8dbb-4502-ae6b-954b46feae02","system_id":"levelo_inurba_marseille","lat":43.24996,"lon":5.38918,"is_reserved":false,"is_disabled":false,"rental_uris":{"android":"levelo://app?vid=ff89b7e6-8dbb-4502-ae6b-954b46feae02","ios":"levelo://app?vid=ff89b7e6-8dbb-4502-ae6b-954b46feae02"},"vehicle_type_id":"4","last_reported":1727946551,"current_range_meters":37600,"station_id":"ce4bhgp2rcd13ifvqfd0","pricing_plan_id":"cebpf4jnsgd1na2vs0mg"},{"bike_id":"bc41810d-3fc6-4e9c-bcc1-3b1d7bce3ce2","system_id":"levelo_inurba_marseille","lat":43.23193,"lon":5.39976,"is_reserved":false,"is_disabled":false,"rental_uris":{"android":"levelo://app?vid=bc41810d-3fc6-4e9c-bcc1-3b1d7bce3ce2","ios":"levelo://app?vid=bc41810d-3fc6-4e9c-bcc1-3b1d7bce3ce2"},"vehicle_type_id":"4","last_reported":1727946551,"current_range_meters":24800,"station_id":"ce4bhn12rcd13ifvqgqg","pricing_plan_id":"cebpf4jnsgd1na2vs0mg"},{"bike_id":"5be27cfd-2f51-431f-abf2-51279afe0380","system_id":"levelo_inurba_marseille","lat":43.30558,"lon":5.36549,"is_reserved":false,"is_disabled":false,"rental_uris":{"android":"levelo://app?vid=5be27cfd-2f51-431f-abf2-51279afe0380","ios":"levelo://app?vid=5be27cfd-2f51-431f-abf2-51279afe0380"},"vehicle_type_id":"4","last_reported":1727946551,"current_range_meters":23200,"station_id":"ce4bgs12rcd13ifvqcag","pricing_plan_id":"cebpf4jnsgd1na2vs0mg"},{"bike_id":"4b6721b8-1a28-4ce5-a9fa-1b893f7f0ac0","system_id":"levelo_inurba_marseille","lat":43.32478,"lon":5.36556,"is_reserved":false,"is_disabled":false,"rental_uris":{"android":"levelo://app?vid=4b6721b8-1a28-4ce5-a9fa-1b893f7f0ac0","ios":"levelo://app?vid=4b6721b8-1a28-4ce5-a9fa-1b893f7f0ac0"},"vehicle_type_id":"4","last_reported":1727946551,"current_range_meters":38800,"station_id":"ce4bhs12rcd13ifvqhvg","pricing_plan_id":"cebpf4jnsgd1na2vs0mg"},{"bike_id":"f0402554-d250-4a9b-bf9e-46e99b7d10ef","system_id":"levelo_inurba_marseille","lat":43.27487,"lon":5.42454,"is_reserved":false,"is_disabled":false,"rental_uris":{"android":"levelo://app?vid=f0402554-d250-4a9b-bf9e-46e99b7d10ef","ios":"levelo://app?vid=f0402554-d250-4a9b-bf9e-46e99b7d10ef"},"vehicle_type_id":"4","last_reported":1727946551,"current_range_meters":9600,"station_id":"ce4bhn92rcd13ifvqgrg","pricing_plan_id":"cebpf4jnsgd1na2vs0mg"},{"bike_id":"bfe13f60-5ded-4017-814c-ac0ccc38bff4","system_id":"levelo_inurba_marseille","lat":43.240936,"lon":5.37723,"is_reserved":false,"is_disabled":false,"rental_uris":{"android":"levelo://app?vid=bfe13f60-5ded-4017-814c-ac0ccc38bff4","ios":"levelo://app?vid=bfe13f60-5ded-4017-814c-ac0ccc38bff4"},"vehicle_type_id":"4","last_reported":1727946551,"current_range_meters":18800,"station_id":"ce4bhgh2rcd13ifvqfb0","pricing_plan_id":"cebpf4jnsgd1na2vs0mg"},{"bike_id":"fce3b950-3129-4c18-b71f-68a0776e78dc","system_id":"levelo_inurba_marseille","lat":43.27965,"lon":5.38734,"is_reserved":false,"is_disabled":false,"rental_uris":{"android":"levelo://app?vid=fce3b950-3129-4c18-b71f-68a0776e78dc","ios":"levelo://app?vid=fce3b950-3129-4c18-b71f-68a0776e78dc"},"vehicle_type_id":"4","last_reported":1727946551,"current_range_meters":23200,"station_id":"ce4bhg12rcd13ifvqf80","pricing_plan_id":"cebpf4jnsgd1na2vs0mg"},{"bike_id":"58bdc306-5dae-4496-9cf1-abc7a1bd6a77","system_id":"levelo_inurba_marseille","lat":43.30892,"lon":5.37176,"is_reserved":false,"is_disabled":false,"rental_uris":{"android":"levelo://app?vid=58bdc306-5dae-4496-9cf1-abc7a1bd6a77","ios":"levelo://app?vid=58bdc306-5dae-4496-9cf1-abc7a1bd6a77"},"vehicle_type_id":"4","last_reported":1727946551,"current_range_meters":40000,"station_id":"ce4bguh2rcd13ifvqckg","pricing_plan_id":"cebpf4jnsgd1na2vs0mg"},{"bike_id":"5de7697b-ade3-4580-8008-2407cb9cb03c","system_id":"levelo_inurba_marseille","lat":43.3055,"lon":5.36546,"is_reserved":false,"is_disabled":false,"rental_uris":{"android":"levelo://app?vid=5de7697b-ade3-4580-8008-2407cb9cb03c","ios":"levelo://app?vid=5de7697b-ade3-4580-8008-2407cb9cb03c"},"vehicle_type_id":"4","last_reported":1727946551,"current_range_meters":36800,"station_id":"ce4bgs12rcd13ifvqcag","pricing_plan_id":"cebpf4jnsgd1na2vs0mg"},{"bike_id":"0a9918d7-41e5-40b7-a2f3-9509ab8baede","system_id":"levelo_inurba_marseille","lat":43.28341,"lon":5.41277,"is_reserved":false,"is_disabled":false,"rental_uris":{"android":"levelo://app?vid=0a9918d7-41e5-40b7-a2f3-9509ab8baede","ios":"levelo://app?vid=0a9918d7-41e5-40b7-a2f3-9509ab8baede"},"vehicle_type_id":"4","last_reported":1727946551,"current_range_meters":18800,"station_id":"","pricing_plan_id":"cebpf4jnsgd1na2vs0mg"},{"bike_id":"fd802ec6-87e9-40f7-8a8b-86140cac3ad3","system_id":"levelo_inurba_marseille","lat":43.29582,"lon":5.36744,"is_reserved":false,"is_disabled":false,"rental_uris":{"android":"levelo://app?vid=fd802ec6-87e9-40f7-8a8b-86140cac3ad3","ios":"levelo://app?vid=fd802ec6-87e9-40f7-8a8b-86140cac3ad3"},"vehicle_type_id":"4","last_reported":1727946551,"current_range_meters":38800,"station_id":"ce4bgph2rcd13ifvqc2g","pricing_plan_id":"cebpf4jnsgd1na2vs0mg"},{"bike_id":"16a714d4-56a8-49e7-92a3-debf531ddf74","system_id":"levelo_inurba_marseille","lat":43.24181,"lon":5.39732,"is_reserved":false,"is_disabled":false,"rental_uris":{"android":"levelo://app?vid=16a714d4-56a8-49e7-92a3-debf531ddf74","ios":"levelo://app?vid=16a714d4-56a8-49e7-92a3-debf531ddf74"},"vehicle_type_id":"4","last_reported":1727946551,"current_range_meters":25200,"station_id":"ce4bhn12rcd13ifvqgpg","pricing_plan_id":"cebpf4jnsgd1na2vs0mg"},{"bike_id":"751c7706-ef78-4c66-9f0c-4386128f0ef6","system_id":"levelo_inurba_marseille","lat":43.28674,"lon":5.38654,"is_reserved":false,"is_disabled":false,"rental_uris":{"android":"levelo://app?vid=751c7706-ef78-4c66-9f0c-4386128f0ef6","ios":"levelo://app?vid=751c7706-ef78-4c66-9f0c-4386128f0ef6"},"vehicle_type_id":"4","last_reported":1727946551,"current_range_meters":19600,"station_id":"ce4bh492rcd13ifvqdug","pricing_plan_id":"cebpf4jnsgd1na2vs0mg"},{"bike_id":"25454cee-75e1-4829-863e-96eae8fc3747","system_id":"levelo_inurba_marseille","lat":43.34137,"lon":5.40909,"is_reserved":false,"is_disabled":false,"rental_uris":{"android":"levelo://app?vid=25454cee-75e1-4829-863e-96eae8fc3747","ios":"levelo://app?vid=25454cee-75e1-4829-863e-96eae8fc3747"},"vehicle_type_id":"4","last_reported":1727946551,"current_range_meters":40000,"station_id":"ce4bhqh2rcd13ifvqhlg","pricing_plan_id":"cebpf4jnsgd1na2vs0mg"},{"bike_id":"3420bd34-edf4-4eb5-8c58-eee5e2170f9d","system_id":"levelo_inurba_marseille","lat":43.24066,"lon":5.37759,"is_reserved":false,"is_disabled":false,"rental_uris":{"android":"levelo://app?vid=3420bd34-edf4-4eb5-8c58-eee5e2170f9d","ios":"levelo://app?vid=3420bd34-edf4-4eb5-8c58-eee5e2170f9d"},"vehicle_type_id":"4","last_reported":1727946551,"current_range_meters":36400,"station_id":"ce4bhnp2rcd13ifvqgvg","pricing_plan_id":"cebpf4jnsgd1na2vs0mg"},{"bike_id":"d7d577c8-4fea-4a4d-9752-abdc85f6da3a","system_id":"levelo_inurba_marseille","lat":43.29618,"lon":5.37725,"is_reserved":false,"is_disabled":false,"rental_uris":{"android":"levelo://app?vid=d7d577c8-4fea-4a4d-9752-abdc85f6da3a","ios":"levelo://app?vid=d7d577c8-4fea-4a4d-9752-abdc85f6da3a"},"vehicle_type_id":"4","last_reported":1727946551,"current_range_meters":22800,"station_id":"ce4bgi92rcd13ifvqb90","pricing_plan_id":"cebpf4jnsgd1na2vs0mg"},{"bike_id":"4742c689-0d3e-45a9-b482-2c8459a45220","system_id":"levelo_inurba_marseille","lat":43.29218,"lon":5.36064,"is_reserved":false,"is_disabled":false,"rental_uris":{"android":"levelo://app?vid=4742c689-0d3e-45a9-b482-2c8459a45220","ios":"levelo://app?vid=4742c689-0d3e-45a9-b482-2c8459a45220"},"vehicle_type_id":"4","last_reported":1727946551,"current_range_meters":38400,"station_id":"ce4bhbh2rcd13ifvqeqg","pricing_plan_id":"cebpf4jnsgd1na2vs0mg"},{"bike_id":"5f97bd6c-b8eb-448b-a67e-6e10274f5e76","system_id":"levelo_inurba_marseille","lat":43.33608,"lon":5.41033,"is_reserved":false,"is_disabled":false,"rental_uris":{"android":"levelo://app?vid=5f97bd6c-b8eb-448b-a67e-6e10274f5e76","ios":"levelo://app?vid=5f97bd6c-b8eb-448b-a67e-6e10274f5e76"},"vehicle_type_id":"4","last_reported":1727946551,"current_range_meters":36400,"station_id":"ce4bhqh2rcd13ifvqhmg","pricing_plan_id":"cebpf4jnsgd1na2vs0mg"},{"bike_id":"22979c0b-5a3a-474e-ba86-127e99bb2485","system_id":"levelo_inurba_marseille","lat":43.25586,"lon":5.38228,"is_reserved":false,"is_disabled":false,"rental_uris":{"android":"levelo://app?vid=22979c0b-5a3a-474e-ba86-127e99bb2485","ios":"levelo://app?vid=22979c0b-5a3a-474e-ba86-127e99bb2485"},"vehicle_type_id":"4","last_reported":1727946551,"current_range_meters":9200,"station_id":"ce4bhih2rcd13ifvqfs0","pricing_plan_id":"cebpf4jnsgd1na2vs0mg"},{"bike_id":"b3a7c2f6-1668-4057-b356-1fe10368e8b7","system_id":"levelo_inurba_marseille","lat":43.30532,"lon":5.36552,"is_reserved":false,"is_disabled":false,"rental_uris":{"android":"levelo://app?vid=b3a7c2f6-1668-4057-b356-1fe10368e8b7","ios":"levelo://app?vid=b3a7c2f6-1668-4057-b356-1fe10368e8b7"},"vehicle_type_id":"4","last_reported":1727946551,"current_range_meters":11600,"station_id":"ce4bgs12rcd13ifvqcag","pricing_plan_id":"cebpf4jnsgd1na2vs0mg"},{"bike_id":"add76ba5-8541-479d-987c-2674a769bf7a","system_id":"levelo_inurba_marseille","lat":43.27481,"lon":5.42468,"is_reserved":false,"is_disabled":false,"rental_uris":{"android":"levelo://app?vid=add76ba5-8541-479d-987c-2674a769bf7a","ios":"levelo://app?vid=add76ba5-8541-479d-987c-2674a769bf7a"},"vehicle_type_id":"4","last_reported":1727946551,"current_range_meters":11600,"station_id":"ce4bhn92rcd13ifvqgrg","pricing_plan_id":"cebpf4jnsgd1na2vs0mg"},{"bike_id":"97c413f0-0499-425d-bfab-2f45162826bf","system_id":"levelo_inurba_marseille","lat":43.25488,"lon":5.37645,"is_reserved":false,"is_disabled":false,"rental_uris":{"android":"levelo://app?vid=97c413f0-0499-425d-bfab-2f45162826bf","ios":"levelo://app?vid=97c413f0-0499-425d-bfab-2f45162826bf"},"vehicle_type_id":"4","last_reported":1727946551,"current_range_meters":36800,"station_id":"ce4bhh12rcd13ifvqff0","pricing_plan_id":"cebpf4jnsgd1na2vs0mg"},{"bike_id":"78f485d1-bf5b-445b-a57f-ee387d423c2a","system_id":"levelo_inurba_marseille","lat":43.24644,"lon":5.38901,"is_reserved":false,"is_disabled":false,"rental_uris":{"android":"levelo://app?vid=78f485d1-bf5b-445b-a57f-ee387d423c2a","ios":"levelo://app?vid=78f485d1-bf5b-445b-a57f-ee387d423c2a"},"vehicle_type_id":"4","last_reported":1727946551,"current_range_meters":36800,"station_id":"ce4bhg12rcd13ifvqf60","pricing_plan_id":"cebpf4jnsgd1na2vs0mg"},{"bike_id":"8445384f-8594-4cac-b048-868bf74515e7","system_id":"levelo_inurba_marseille","lat":43.29168,"lon":5.37152,"is_reserved":false,"is_disabled":false,"rental_uris":{"android":"levelo://app?vid=8445384f-8594-4cac-b048-868bf74515e7","ios":"levelo://app?vid=8445384f-8594-4cac-b048-868bf74515e7"},"vehicle_type_id":"4","last_reported":1727946551,"current_range_meters":36800,"station_id":"ce4bha92rcd13ifvqeh0","pricing_plan_id":"cebpf4jnsgd1na2vs0mg"},{"bike_id":"5ae00acb-b644-4b4e-b6ca-99b1a5dfcf2c","system_id":"levelo_inurba_marseille","lat":43.31352,"lon":5.38501,"is_reserved":false,"is_disabled":false,"rental_uris":{"android":"levelo://app?vid=5ae00acb-b644-4b4e-b6ca-99b1a5dfcf2c","ios":"levelo://app?vid=5ae00acb-b644-4b4e-b6ca-99b1a5dfcf2c"},"vehicle_type_id":"4","last_reported":1727946551,"current_range_meters":38400,"station_id":"ce4bgt92rcd13ifvqcf0","pricing_plan_id":"cebpf4jnsgd1na2vs0mg"},{"bike_id":"49d3e753-cd24-4ef3-8d08-09b0cc79ef94","system_id":"levelo_inurba_marseille","lat":43.26682,"lon":5.38269,"is_reserved":false,"is_disabled":false,"rental_uris":{"android":"levelo://app?vid=49d3e753-cd24-4ef3-8d08-09b0cc79ef94","ios":"levelo://app?vid=49d3e753-cd24-4ef3-8d08-09b0cc79ef94"},"vehicle_type_id":"4","last_reported":1727946551,"current_range_meters":18800,"station_id":"ce4bhg92rcd13ifvqf90","pricing_plan_id":"cebpf4jnsgd1na2vs0mg"},{"bike_id":"fc021ab7-40f6-44e8-a2c9-20356de1abe4","system_id":"levelo_inurba_marseille","lat":43.254992,"lon":5.3765,"is_reserved":false,"is_disabled":false,"rental_uris":{"android":"levelo://app?vid=fc021ab7-40f6-44e8-a2c9-20356de1abe4","ios":"levelo://app?vid=fc021ab7-40f6-44e8-a2c9-20356de1abe4"},"vehicle_type_id":"4","last_reported":1727946551,"current_range_meters":30400,"station_id":"ce4bhi12rcd13ifvqfp0","pricing_plan_id":"cebpf4jnsgd1na2vs0mg"},{"bike_id":"52cbff26-46f2-4ff8-880e-528cf396d7a2","system_id":"levelo_inurba_marseille","lat":43.33604,"lon":5.41033,"is_reserved":false,"is_disabled":false,"rental_uris":{"android":"levelo://app?vid=52cbff26-46f2-4ff8-880e-528cf396d7a2","ios":"levelo://app?vid=52cbff26-46f2-4ff8-880e-528cf396d7a2"},"vehicle_type_id":"4","last_reported":1727946551,"current_range_meters":9200,"station_id":"ce4bhqh2rcd13ifvqhmg","pricing_plan_id":"cebpf4jnsgd1na2vs0mg"},{"bike_id":"0254b970-14d7-4dfc-8d38-0171ca9ae025","system_id":"levelo_inurba_marseille","lat":43.26682,"lon":5.38268,"is_reserved":false,"is_disabled":false,"rental_uris":{"android":"levelo://app?vid=0254b970-14d7-4dfc-8d38-0171ca9ae025","ios":"levelo://app?vid=0254b970-14d7-4dfc-8d38-0171ca9ae025"},"vehicle_type_id":"4","last_reported":1727946551,"current_range_meters":20800,"station_id":"ce4bhg92rcd13ifvqf90","pricing_plan_id":"cebpf4jnsgd1na2vs0mg"},{"bike_id":"b507c12a-bf18-412f-9cd0-6aa3f3e47a23","system_id":"levelo_inurba_marseille","lat":43.30547,"lon":5.36541,"is_reserved":false,"is_disabled":false,"rental_uris":{"android":"levelo://app?vid=b507c12a-bf18-412f-9cd0-6aa3f3e47a23","ios":"levelo://app?vid=b507c12a-bf18-412f-9cd0-6aa3f3e47a23"},"vehicle_type_id":"4","last_reported":1727946551,"current_range_meters":12400,"station_id":"ce4bgs12rcd13ifvqcag","pricing_plan_id":"cebpf4jnsgd1na2vs0mg"},{"bike_id":"f3ded537-2d94-4bf0-b696-14a43ed73f3a","system_id":"levelo_inurba_marseille","lat":43.31206,"lon":5.36848,"is_reserved":false,"is_disabled":false,"rental_uris":{"android":"levelo://app?vid=f3ded537-2d94-4bf0-b696-14a43ed73f3a","ios":"levelo://app?vid=f3ded537-2d94-4bf0-b696-14a43ed73f3a"},"vehicle_type_id":"4","last_reported":1727946551,"current_range_meters":30000,"station_id":"ce4bgl92rcd13ifvqbq0","pricing_plan_id":"cebpf4jnsgd1na2vs0mg"},{"bike_id":"5077e3da-46af-40a3-8277-cca140db96d3","system_id":"levelo_inurba_marseille","lat":43.33612,"lon":5.4103,"is_reserved":false,"is_disabled":false,"rental_uris":{"android":"levelo://app?vid=5077e3da-46af-40a3-8277-cca140db96d3","ios":"levelo://app?vid=5077e3da-46af-40a3-8277-cca140db96d3"},"vehicle_type_id":"4","last_reported":1727946551,"current_range_meters":24000,"station_id":"ce4bhqh2rcd13ifvqhmg","pricing_plan_id":"cebpf4jnsgd1na2vs0mg"},{"bike_id":"d14d08e2-2a49-40d1-aa33-1a446462fb20","system_id":"levelo_inurba_marseille","lat":43.28357,"lon":5.38635,"is_reserved":false,"is_disabled":false,"rental_uris":{"android":"levelo://app?vid=d14d08e2-2a49-40d1-aa33-1a446462fb20","ios":"levelo://app?vid=d14d08e2-2a49-40d1-aa33-1a446462fb20"},"vehicle_type_id":"4","last_reported":1727946551,"current_range_meters":26000,"station_id":"ce4bh492rcd13ifvqdvg","pricing_plan_id":"cebpf4jnsgd1na2vs0mg"},{"bike_id":"22094e14-fe04-4f6d-940c-3e57c3ad82a9","system_id":"levelo_inurba_marseille","lat":43.23154,"lon":5.43706,"is_reserved":false,"is_disabled":false,"rental_uris":{"android":"levelo://app?vid=22094e14-fe04-4f6d-940c-3e57c3ad82a9","ios":"levelo://app?vid=22094e14-fe04-4f6d-940c-3e57c3ad82a9"},"vehicle_type_id":"4","last_reported":1727946551,"current_range_meters":26000,"station_id":"ce4bhmp2rcd13ifvqgog","pricing_plan_id":"cebpf4jnsgd1na2vs0mg"},{"bike_id":"713879b1-16a3-417a-be94-383dd0723ace","system_id":"levelo_inurba_marseille","lat":43.23151,"lon":5.43709,"is_reserved":false,"is_disabled":false,"rental_uris":{"android":"levelo://app?vid=713879b1-16a3-417a-be94-383dd0723ace","ios":"levelo://app?vid=713879b1-16a3-417a-be94-383dd0723ace"},"vehicle_type_id":"4","last_reported":1727946551,"current_range_meters":5600,"station_id":"ce4bhmp2rcd13ifvqgog","pricing_plan_id":"cebpf4jnsgd1na2vs0mg"},{"bike_id":"48d8e209-6dbd-4e89-89f5-acceb8bc2a66","system_id":"levelo_inurba_marseille","lat":43.31358,"lon":5.36671,"is_reserved":false,"is_disabled":false,"rental_uris":{"android":"levelo://app?vid=48d8e209-6dbd-4e89-89f5-acceb8bc2a66","ios":"levelo://app?vid=48d8e209-6dbd-4e89-89f5-acceb8bc2a66"},"vehicle_type_id":"4","last_reported":1727946551,"current_range_meters":14800,"station_id":"","pricing_plan_id":"cebpf4jnsgd1na2vs0mg"},{"bike_id":"b7046bd9-0899-4f40-956c-57be7242e42a","system_id":"levelo_inurba_marseille","lat":43.29176,"lon":5.36904,"is_reserved":false,"is_disabled":false,"rental_uris":{"android":"levelo://app?vid=b7046bd9-0899-4f40-956c-57be7242e42a","ios":"levelo://app?vid=b7046bd9-0899-4f40-956c-57be7242e42a"},"vehicle_type_id":"4","last_reported":1727946551,"current_range_meters":32000,"station_id":"","pricing_plan_id":"cebpf4jnsgd1na2vs0mg"},{"bike_id":"0d38caac-4e1b-4bc6-8634-fba8549655ca","system_id":"levelo_inurba_marseille","lat":43.32109,"lon":5.36767,"is_reserved":false,"is_disabled":false,"rental_uris":{"android":"levelo://app?vid=0d38caac-4e1b-4bc6-8634-fba8549655ca","ios":"levelo://app?vid=0d38caac-4e1b-4bc6-8634-fba8549655ca"},"vehicle_type_id":"4","last_reported":1727946551,"current_range_meters":36800,"station_id":"ce4bhrh2rcd13ifvqhug","pricing_plan_id":"cebpf4jnsgd1na2vs0mg"},{"bike_id":"bbb27d72-0252-43c1-8bee-677ba4f1e987","system_id":"levelo_inurba_marseille","lat":43.23149,"lon":5.43716,"is_reserved":false,"is_disabled":false,"rental_uris":{"android":"levelo://app?vid=bbb27d72-0252-43c1-8bee-677ba4f1e987","ios":"levelo://app?vid=bbb27d72-0252-43c1-8bee-677ba4f1e987"},"vehicle_type_id":"4","last_reported":1727946551,"current_range_meters":11600,"station_id":"ce4bhmp2rcd13ifvqgog","pricing_plan_id":"cebpf4jnsgd1na2vs0mg"},{"bike_id":"e8672348-940b-4992-a324-6d9d667c6321","system_id":"levelo_inurba_marseille","lat":43.27205,"lon":5.39172,"is_reserved":false,"is_disabled":false,"rental_uris":{"android":"levelo://app?vid=e8672348-940b-4992-a324-6d9d667c6321","ios":"levelo://app?vid=e8672348-940b-4992-a324-6d9d667c6321"},"vehicle_type_id":"4","last_reported":1727946551,"current_range_meters":5600,"station_id":"ce4bhhp2rcd13ifvqfm0","pricing_plan_id":"cebpf4jnsgd1na2vs0mg"},{"bike_id":"4f012cc6-31d2-4caa-8f39-337ae9626f04","system_id":"levelo_inurba_marseille","lat":43.23145,"lon":5.43726,"is_reserved":false,"is_disabled":false,"rental_uris":{"android":"levelo://app?vid=4f012cc6-31d2-4caa-8f39-337ae9626f04","ios":"levelo://app?vid=4f012cc6-31d2-4caa-8f39-337ae9626f04"},"vehicle_type_id":"4","last_reported":1727946551,"current_range_meters":8800,"station_id":"ce4bhmp2rcd13ifvqgog","pricing_plan_id":"cebpf4jnsgd1na2vs0mg"},{"bike_id":"39a282a7-0607-4c61-97ee-36c5e7310441","system_id":"levelo_inurba_marseille","lat":43.29552,"lon":5.42284,"is_reserved":false,"is_disabled":false,"rental_uris":{"android":"levelo://app?vid=39a282a7-0607-4c61-97ee-36c5e7310441","ios":"levelo://app?vid=39a282a7-0607-4c61-97ee-36c5e7310441"},"vehicle_type_id":"4","last_reported":1727946551,"current_range_meters":38800,"station_id":"ce4bhph2rcd13ifvqhdg","pricing_plan_id":"cebpf4jnsgd1na2vs0mg"},{"bike_id":"3c7ad232-3a27-488f-9a95-36ebb8728742","system_id":"levelo_inurba_marseille","lat":43.31097,"lon":5.37771,"is_reserved":false,"is_disabled":false,"rental_uris":{"android":"levelo://app?vid=3c7ad232-3a27-488f-9a95-36ebb8728742","ios":"levelo://app?vid=3c7ad232-3a27-488f-9a95-36ebb8728742"},"vehicle_type_id":"4","last_reported":1727946551,"current_range_meters":24800,"station_id":"ce4bgt92rcd13ifvqcg0","pricing_plan_id":"cebpf4jnsgd1na2vs0mg"},{"bike_id":"00509870-9879-4a7b-9570-947399eae874","system_id":"levelo_inurba_marseille","lat":43.30907,"lon":5.36848,"is_reserved":false,"is_disabled":false,"rental_uris":{"android":"levelo://app?vid=00509870-9879-4a7b-9570-947399eae874","ios":"levelo://app?vid=00509870-9879-4a7b-9570-947399eae874"},"vehicle_type_id":"4","last_reported":1727946551,"current_range_meters":25200,"station_id":"ce4bgn92rcd13ifvqbvg","pricing_plan_id":"cebpf4jnsgd1na2vs0mg"},{"bike_id":"62858515-e13a-4648-bb13-18f7d9446e70","system_id":"levelo_inurba_marseille","lat":43.30196,"lon":5.39473,"is_reserved":false,"is_disabled":false,"rental_uris":{"android":"levelo://app?vid=62858515-e13a-4648-bb13-18f7d9446e70","ios":"levelo://app?vid=62858515-e13a-4648-bb13-18f7d9446e70"},"vehicle_type_id":"4","last_reported":1727946551,"current_range_meters":37600,"station_id":"ce4bh0p2rcd13ifvqd70","pricing_plan_id":"cebpf4jnsgd1na2vs0mg"},{"bike_id":"499cb64c-6fb8-4407-89d8-a118e3c5c28d","system_id":"levelo_inurba_marseille","lat":43.27989,"lon":5.4002,"is_reserved":false,"is_disabled":false,"rental_uris":{"android":"levelo://app?vid=499cb64c-6fb8-4407-89d8-a118e3c5c28d","ios":"levelo://app?vid=499cb64c-6fb8-4407-89d8-a118e3c5c28d"},"vehicle_type_id":"4","last_reported":1727946551,"current_range_meters":20800,"station_id":"ce4bho92rcd13ifvqh4g","pricing_plan_id":"cebpf4jnsgd1na2vs0mg"},{"bike_id":"fb4eee61-661c-4ed2-8cbf-7bca07075a53","system_id":"levelo_inurba_marseille","lat":43.27917,"lon":5.39577,"is_reserved":false,"is_disabled":false,"rental_uris":{"android":"levelo://app?vid=fb4eee61-661c-4ed2-8cbf-7bca07075a53","ios":"levelo://app?vid=fb4eee61-661c-4ed2-8cbf-7bca07075a53"},"vehicle_type_id":"4","last_reported":1727946551,"current_range_meters":19600,"station_id":"ce4bhf92rcd13ifvqf40","pricing_plan_id":"cebpf4jnsgd1na2vs0mg"},{"bike_id":"73f66102-21cd-4be5-9fb3-258e3aabfc34","system_id":"levelo_inurba_marseille","lat":43.3122,"lon":5.36847,"is_reserved":false,"is_disabled":false,"rental_uris":{"android":"levelo://app?vid=73f66102-21cd-4be5-9fb3-258e3aabfc34","ios":"levelo://app?vid=73f66102-21cd-4be5-9fb3-258e3aabfc34"},"vehicle_type_id":"4","last_reported":1727946551,"current_range_meters":24800,"station_id":"ce4bgl92rcd13ifvqbq0","pricing_plan_id":"cebpf4jnsgd1na2vs0mg"},{"bike_id":"f7c05daa-8dda-4170-93cb-556355d49416","system_id":"levelo_inurba_marseille","lat":43.303184,"lon":5.392027,"is_reserved":false,"is_disabled":false,"rental_uris":{"android":"levelo://app?vid=f7c05daa-8dda-4170-93cb-556355d49416","ios":"levelo://app?vid=f7c05daa-8dda-4170-93cb-556355d49416"},"vehicle_type_id":"4","last_reported":1727946551,"current_range_meters":10000,"station_id":"ce4bgkh2rcd13ifvqbk0","pricing_plan_id":"cebpf4jnsgd1na2vs0mg"},{"bike_id":"3e2daf70-0524-4e71-8de4-0ed4b5df5a53","system_id":"levelo_inurba_marseille","lat":43.25499,"lon":5.37645,"is_reserved":false,"is_disabled":false,"rental_uris":{"android":"levelo://app?vid=3e2daf70-0524-4e71-8de4-0ed4b5df5a53","ios":"levelo://app?vid=3e2daf70-0524-4e71-8de4-0ed4b5df5a53"},"vehicle_type_id":"4","last_reported":1727946551,"current_range_meters":24000,"station_id":"ce4bhh12rcd13ifvqff0","pricing_plan_id":"cebpf4jnsgd1na2vs0mg"},{"bike_id":"893a33ca-4d5e-4098-ae63-d5992779e7f0","system_id":"levelo_inurba_marseille","lat":43.28257,"lon":5.35077,"is_reserved":false,"is_disabled":false,"rental_uris":{"android":"levelo://app?vid=893a33ca-4d5e-4098-ae63-d5992779e7f0","ios":"levelo://app?vid=893a33ca-4d5e-4098-ae63-d5992779e7f0"},"vehicle_type_id":"4","last_reported":1727946551,"current_range_meters":38800,"station_id":"ce4bhbp2rcd13ifvqerg","pricing_plan_id":"cebpf4jnsgd1na2vs0mg"},{"bike_id":"a8edbae9-085d-40e4-91c8-4030fc88999a","system_id":"levelo_inurba_marseille","lat":43.29621,"lon":5.37167,"is_reserved":false,"is_disabled":false,"rental_uris":{"android":"levelo://app?vid=a8edbae9-085d-40e4-91c8-4030fc88999a","ios":"levelo://app?vid=a8edbae9-085d-40e4-91c8-4030fc88999a"},"vehicle_type_id":"4","last_reported":1727946551,"current_range_meters":32000,"station_id":"ce4bgnh2rcd13ifvqc0g","pricing_plan_id":"cebpf4jnsgd1na2vs0mg"},{"bike_id":"24461a75-e69e-4031-af52-6a797770636d","system_id":"levelo_inurba_marseille","lat":43.29193,"lon":5.35795,"is_reserved":false,"is_disabled":false,"rental_uris":{"android":"levelo://app?vid=24461a75-e69e-4031-af52-6a797770636d","ios":"levelo://app?vid=24461a75-e69e-4031-af52-6a797770636d"},"vehicle_type_id":"4","last_reported":1727946551,"current_range_meters":28800,"station_id":"ce4bhb12rcd13ifvqel0","pricing_plan_id":"cebpf4jnsgd1na2vs0mg"},{"bike_id":"b3cb6fd8-ec99-4b53-bf4d-1a253cf58a80","system_id":"levelo_inurba_marseille","lat":43.28263,"lon":5.35068,"is_reserved":false,"is_disabled":false,"rental_uris":{"android":"levelo://app?vid=b3cb6fd8-ec99-4b53-bf4d-1a253cf58a80","ios":"levelo://app?vid=b3cb6fd8-ec99-4b53-bf4d-1a253cf58a80"},"vehicle_type_id":"4","last_reported":1727946551,"current_range_meters":30000,"station_id":"ce4bhbp2rcd13ifvqerg","pricing_plan_id":"cebpf4jnsgd1na2vs0mg"},{"bike_id":"7bfb5721-baf3-4893-bbf9-7c8112a113a1","system_id":"levelo_inurba_marseille","lat":43.27992,"lon":5.40009,"is_reserved":false,"is_disabled":false,"rental_uris":{"android":"levelo://app?vid=7bfb5721-baf3-4893-bbf9-7c8112a113a1","ios":"levelo://app?vid=7bfb5721-baf3-4893-bbf9-7c8112a113a1"},"vehicle_type_id":"4","last_reported":1727946551,"current_range_meters":35200,"station_id":"ce4bho92rcd13ifvqh4g","pricing_plan_id":"cebpf4jnsgd1na2vs0mg"},{"bike_id":"d687c7b2-af5d-49dd-ad55-0c16055ab42e","system_id":"levelo_inurba_marseille","lat":43.29298,"lon":5.37178,"is_reserved":false,"is_disabled":false,"rental_uris":{"android":"levelo://app?vid=d687c7b2-af5d-49dd-ad55-0c16055ab42e","ios":"levelo://app?vid=d687c7b2-af5d-49dd-ad55-0c16055ab42e"},"vehicle_type_id":"4","last_reported":1727946551,"current_range_meters":24800,"station_id":"ce4bgh92rcd13ifvqb40","pricing_plan_id":"cebpf4jnsgd1na2vs0mg"},{"bike_id":"552bf509-b6e1-4ac9-9428-630f86708366","system_id":"levelo_inurba_marseille","lat":43.30902,"lon":5.36847,"is_reserved":false,"is_disabled":false,"rental_uris":{"android":"levelo://app?vid=552bf509-b6e1-4ac9-9428-630f86708366","ios":"levelo://app?vid=552bf509-b6e1-4ac9-9428-630f86708366"},"vehicle_type_id":"4","last_reported":1727946551,"current_range_meters":38400,"station_id":"ce4bgn92rcd13ifvqbvg","pricing_plan_id":"cebpf4jnsgd1na2vs0mg"},{"bike_id":"69fdf13e-e66d-48a5-9ff4-6d874fa48a59","system_id":"levelo_inurba_marseille","lat":43.325385,"lon":5.414426,"is_reserved":false,"is_disabled":false,"rental_uris":{"android":"levelo://app?vid=69fdf13e-e66d-48a5-9ff4-6d874fa48a59","ios":"levelo://app?vid=69fdf13e-e66d-48a5-9ff4-6d874fa48a59"},"vehicle_type_id":"4","last_reported":1727946551,"current_range_meters":39200,"station_id":"ce4bhq12rcd13ifvqhhg","pricing_plan_id":"cebpf4jnsgd1na2vs0mg"},{"bike_id":"63da3757-c3d3-4b57-a2ed-d8bca15ede83","system_id":"levelo_inurba_marseille","lat":43.29927,"lon":5.36545,"is_reserved":false,"is_disabled":false,"rental_uris":{"android":"levelo://app?vid=63da3757-c3d3-4b57-a2ed-d8bca15ede83","ios":"levelo://app?vid=63da3757-c3d3-4b57-a2ed-d8bca15ede83"},"vehicle_type_id":"4","last_reported":1727946551,"current_range_meters":38800,"station_id":"ce4bgm92rcd13ifvqbr0","pricing_plan_id":"cebpf4jnsgd1na2vs0mg"},{"bike_id":"aa7b18e1-6672-4c2b-a14b-b596f410ac2a","system_id":"levelo_inurba_marseille","lat":43.27897,"lon":5.39593,"is_reserved":false,"is_disabled":false,"rental_uris":{"android":"levelo://app?vid=aa7b18e1-6672-4c2b-a14b-b596f410ac2a","ios":"levelo://app?vid=aa7b18e1-6672-4c2b-a14b-b596f410ac2a"},"vehicle_type_id":"4","last_reported":1727946551,"current_range_meters":23200,"station_id":"ce4bhf92rcd13ifvqf40","pricing_plan_id":"cebpf4jnsgd1na2vs0mg"},{"bike_id":"71df8d68-d681-474c-bc91-c17849864970","system_id":"levelo_inurba_marseille","lat":43.31221,"lon":5.36879,"is_reserved":false,"is_disabled":false,"rental_uris":{"android":"levelo://app?vid=71df8d68-d681-474c-bc91-c17849864970","ios":"levelo://app?vid=71df8d68-d681-474c-bc91-c17849864970"},"vehicle_type_id":"4","last_reported":1727946551,"current_range_meters":22000,"station_id":"ce4bgl92rcd13ifvqbq0","pricing_plan_id":"cebpf4jnsgd1na2vs0mg"},{"bike_id":"401a8c63-bb8b-4aa5-aa33-0a9c9632f453","system_id":"levelo_inurba_marseille","lat":43.31077,"lon":5.38344,"is_reserved":false,"is_disabled":false,"rental_uris":{"android":"levelo://app?vid=401a8c63-bb8b-4aa5-aa33-0a9c9632f453","ios":"levelo://app?vid=401a8c63-bb8b-4aa5-aa33-0a9c9632f453"},"vehicle_type_id":"4","last_reported":1727946551,"current_range_meters":11200,"station_id":"ce4bgv92rcd13ifvqcr0","pricing_plan_id":"cebpf4jnsgd1na2vs0mg"},{"bike_id":"19aadcaf-f9de-428e-a247-c1c7d3e1253e","system_id":"levelo_inurba_marseille","lat":43.26952,"lon":5.38638,"is_reserved":false,"is_disabled":false,"rental_uris":{"android":"levelo://app?vid=19aadcaf-f9de-428e-a247-c1c7d3e1253e","ios":"levelo://app?vid=19aadcaf-f9de-428e-a247-c1c7d3e1253e"},"vehicle_type_id":"4","last_reported":1727946551,"current_range_meters":38000,"station_id":"ce4bhh92rcd13ifvqfh0","pricing_plan_id":"cebpf4jnsgd1na2vs0mg"},{"bike_id":"6723a072-3ad5-47da-99be-bd70037c1ad4","system_id":"levelo_inurba_marseille","lat":43.27489,"lon":5.42457,"is_reserved":false,"is_disabled":false,"rental_uris":{"android":"levelo://app?vid=6723a072-3ad5-47da-99be-bd70037c1ad4","ios":"levelo://app?vid=6723a072-3ad5-47da-99be-bd70037c1ad4"},"vehicle_type_id":"4","last_reported":1727946551,"current_range_meters":23200,"station_id":"ce4bhn92rcd13ifvqgrg","pricing_plan_id":"cebpf4jnsgd1na2vs0mg"},{"bike_id":"4b717922-31ca-4f4b-9255-e35f9c805aa1","system_id":"levelo_inurba_marseille","lat":43.30541,"lon":5.36552,"is_reserved":false,"is_disabled":false,"rental_uris":{"android":"levelo://app?vid=4b717922-31ca-4f4b-9255-e35f9c805aa1","ios":"levelo://app?vid=4b717922-31ca-4f4b-9255-e35f9c805aa1"},"vehicle_type_id":"4","last_reported":1727946551,"current_range_meters":25200,"station_id":"ce4bgs12rcd13ifvqcag","pricing_plan_id":"cebpf4jnsgd1na2vs0mg"},{"bike_id":"3c98abdc-d787-4a22-bf72-59a990ee8d29","system_id":"levelo_inurba_marseille","lat":43.26943,"lon":5.38631,"is_reserved":false,"is_disabled":false,"rental_uris":{"android":"levelo://app?vid=3c98abdc-d787-4a22-bf72-59a990ee8d29","ios":"levelo://app?vid=3c98abdc-d787-4a22-bf72-59a990ee8d29"},"vehicle_type_id":"4","last_reported":1727946551,"current_range_meters":28400,"station_id":"ce4bhh92rcd13ifvqfh0","pricing_plan_id":"cebpf4jnsgd1na2vs0mg"},{"bike_id":"418a1e41-1e04-4f17-85ac-6c551299276f","system_id":"levelo_inurba_marseille","lat":43.3361,"lon":5.41028,"is_reserved":false,"is_disabled":false,"rental_uris":{"android":"levelo://app?vid=418a1e41-1e04-4f17-85ac-6c551299276f","ios":"levelo://app?vid=418a1e41-1e04-4f17-85ac-6c551299276f"},"vehicle_type_id":"4","last_reported":1727946551,"current_range_meters":35600,"station_id":"ce4bhqh2rcd13ifvqhmg","pricing_plan_id":"cebpf4jnsgd1na2vs0mg"},{"bike_id":"d8e3b8a2-e7e1-441c-8e29-fd0413f83165","system_id":"levelo_inurba_marseille","lat":43.25938,"lon":5.40902,"is_reserved":false,"is_disabled":false,"rental_uris":{"android":"levelo://app?vid=d8e3b8a2-e7e1-441c-8e29-fd0413f83165","ios":"levelo://app?vid=d8e3b8a2-e7e1-441c-8e29-fd0413f83165"},"vehicle_type_id":"4","last_reported":1727946551,"current_range_meters":20800,"station_id":"ce4bhm92rcd13ifvqglg","pricing_plan_id":"cebpf4jnsgd1na2vs0mg"},{"bike_id":"b850c456-5a0a-4ea2-aee7-72e9ac255d43","system_id":"levelo_inurba_marseille","lat":43.28461,"lon":5.38426,"is_reserved":false,"is_disabled":false,"rental_uris":{"android":"levelo://app?vid=b850c456-5a0a-4ea2-aee7-72e9ac255d43","ios":"levelo://app?vid=b850c456-5a0a-4ea2-aee7-72e9ac255d43"},"vehicle_type_id":"4","last_reported":1727946551,"current_range_meters":37600,"station_id":"ce4bh512rcd13ifvqe3g","pricing_plan_id":"cebpf4jnsgd1na2vs0mg"},{"bike_id":"5a8f87e0-a3b1-4908-8af3-3627df3a58f1","system_id":"levelo_inurba_marseille","lat":43.231543,"lon":5.436987,"is_reserved":false,"is_disabled":false,"rental_uris":{"android":"levelo://app?vid=5a8f87e0-a3b1-4908-8af3-3627df3a58f1","ios":"levelo://app?vid=5a8f87e0-a3b1-4908-8af3-3627df3a58f1"},"vehicle_type_id":"4","last_reported":1727946551,"current_range_meters":6000,"station_id":"ce4bhmp2rcd13ifvqgog","pricing_plan_id":"cebpf4jnsgd1na2vs0mg"},{"bike_id":"d422d47c-ac21-471d-8cdd-ba47a7b92a76","system_id":"levelo_inurba_marseille","lat":43.29919,"lon":5.3746,"is_reserved":false,"is_disabled":false,"rental_uris":{"android":"levelo://app?vid=d422d47c-ac21-471d-8cdd-ba47a7b92a76","ios":"levelo://app?vid=d422d47c-ac21-471d-8cdd-ba47a7b92a76"},"vehicle_type_id":"4","last_reported":1727946551,"current_range_meters":34000,"station_id":"ce4bgjh2rcd13ifvqbg0","pricing_plan_id":"cebpf4jnsgd1na2vs0mg"},{"bike_id":"e5b747aa-9c65-403d-8f10-52d207d6aa78","system_id":"levelo_inurba_marseille","lat":43.29575,"lon":5.37511,"is_reserved":false,"is_disabled":false,"rental_uris":{"android":"levelo://app?vid=e5b747aa-9c65-403d-8f10-52d207d6aa78","ios":"levelo://app?vid=e5b747aa-9c65-403d-8f10-52d207d6aa78"},"vehicle_type_id":"4","last_reported":1727946551,"current_range_meters":24000,"station_id":"ce4bgh92rcd13ifvqb50","pricing_plan_id":"cebpf4jnsgd1na2vs0mg"},{"bike_id":"34035cb3-8ff9-4eb1-a981-e0964c96626b","system_id":"levelo_inurba_marseille","lat":43.23052,"lon":5.35496,"is_reserved":false,"is_disabled":false,"rental_uris":{"android":"levelo://app?vid=34035cb3-8ff9-4eb1-a981-e0964c96626b","ios":"levelo://app?vid=34035cb3-8ff9-4eb1-a981-e0964c96626b"},"vehicle_type_id":"4","last_reported":1727946551,"current_range_meters":34800,"station_id":"cpo3342slgdg3j2ifvpg","pricing_plan_id":"cebpf4jnsgd1na2vs0mg"},{"bike_id":"422a7c4b-04a2-4d7a-bb60-e21896c982e3","system_id":"levelo_inurba_marseille","lat":43.26676,"lon":5.38258,"is_reserved":false,"is_disabled":false,"rental_uris":{"android":"levelo://app?vid=422a7c4b-04a2-4d7a-bb60-e21896c982e3","ios":"levelo://app?vid=422a7c4b-04a2-4d7a-bb60-e21896c982e3"},"vehicle_type_id":"4","last_reported":1727946551,"current_range_meters":8800,"station_id":"ce4bhg92rcd13ifvqf90","pricing_plan_id":"cebpf4jnsgd1na2vs0mg"},{"bike_id":"8f916233-098e-40cf-937a-aae82b8feed7","system_id":"levelo_inurba_marseille","lat":43.28347,"lon":5.38112,"is_reserved":false,"is_disabled":false,"rental_uris":{"android":"levelo://app?vid=8f916233-098e-40cf-937a-aae82b8feed7","ios":"levelo://app?vid=8f916233-098e-40cf-937a-aae82b8feed7"},"vehicle_type_id":"4","last_reported":1727946551,"current_range_meters":39200,"station_id":"ce4bh412rcd13ifvqdr0","pricing_plan_id":"cebpf4jnsgd1na2vs0mg"},{"bike_id":"5a0f938e-7252-4534-8bff-a4a5d62e0bce","system_id":"levelo_inurba_marseille","lat":43.32529,"lon":5.41459,"is_reserved":false,"is_disabled":false,"rental_uris":{"android":"levelo://app?vid=5a0f938e-7252-4534-8bff-a4a5d62e0bce","ios":"levelo://app?vid=5a0f938e-7252-4534-8bff-a4a5d62e0bce"},"vehicle_type_id":"4","last_reported":1727946551,"current_range_meters":33600,"station_id":"ce4bhq12rcd13ifvqhhg","pricing_plan_id":"cebpf4jnsgd1na2vs0mg"},{"bike_id":"6e9b0c54-5763-4428-9926-90e1ad4eb660","system_id":"levelo_inurba_marseille","lat":43.31699,"lon":5.37751,"is_reserved":false,"is_disabled":false,"rental_uris":{"android":"levelo://app?vid=6e9b0c54-5763-4428-9926-90e1ad4eb660","ios":"levelo://app?vid=6e9b0c54-5763-4428-9926-90e1ad4eb660"},"vehicle_type_id":"4","last_reported":1727946551,"current_range_meters":38000,"station_id":"ce4bgth2rcd13ifvqch0","pricing_plan_id":"cebpf4jnsgd1na2vs0mg"},{"bike_id":"085a7bee-7e09-4679-b1fc-007be1b2df7f","system_id":"levelo_inurba_marseille","lat":43.29639,"lon":5.37151,"is_reserved":false,"is_disabled":false,"rental_uris":{"android":"levelo://app?vid=085a7bee-7e09-4679-b1fc-007be1b2df7f","ios":"levelo://app?vid=085a7bee-7e09-4679-b1fc-007be1b2df7f"},"vehicle_type_id":"4","last_reported":1727946551,"current_range_meters":16400,"station_id":"ce4bgnh2rcd13ifvqc0g","pricing_plan_id":"cebpf4jnsgd1na2vs0mg"},{"bike_id":"f0977988-0c21-4154-a4b0-ad84009dd1bd","system_id":"levelo_inurba_marseille","lat":43.29521,"lon":5.39028,"is_reserved":false,"is_disabled":false,"rental_uris":{"android":"levelo://app?vid=f0977988-0c21-4154-a4b0-ad84009dd1bd","ios":"levelo://app?vid=f0977988-0c21-4154-a4b0-ad84009dd1bd"},"vehicle_type_id":"4","last_reported":1727946551,"current_range_meters":34000,"station_id":"ce4bh3p2rcd13ifvqdp0","pricing_plan_id":"cebpf4jnsgd1na2vs0mg"},{"bike_id":"89c13eae-fe12-42a7-9d2d-2d3eb5237e01","system_id":"levelo_inurba_marseille","lat":43.27493,"lon":5.42445,"is_reserved":false,"is_disabled":false,"rental_uris":{"android":"levelo://app?vid=89c13eae-fe12-42a7-9d2d-2d3eb5237e01","ios":"levelo://app?vid=89c13eae-fe12-42a7-9d2d-2d3eb5237e01"},"vehicle_type_id":"4","last_reported":1727946551,"current_range_meters":23200,"station_id":"ce4bhn92rcd13ifvqgrg","pricing_plan_id":"cebpf4jnsgd1na2vs0mg"},{"bike_id":"99be9f83-4a9c-46cc-9a45-fda9573ca4b0","system_id":"levelo_inurba_marseille","lat":43.3137,"lon":5.36656,"is_reserved":false,"is_disabled":false,"rental_uris":{"android":"levelo://app?vid=99be9f83-4a9c-46cc-9a45-fda9573ca4b0","ios":"levelo://app?vid=99be9f83-4a9c-46cc-9a45-fda9573ca4b0"},"vehicle_type_id":"4","last_reported":1727946551,"current_range_meters":25200,"station_id":"","pricing_plan_id":"cebpf4jnsgd1na2vs0mg"},{"bike_id":"80e10b6b-b930-4216-a26e-cfd3b6068366","system_id":"levelo_inurba_marseille","lat":43.305429,"lon":5.367096,"is_reserved":false,"is_disabled":false,"rental_uris":{"android":"levelo://app?vid=80e10b6b-b930-4216-a26e-cfd3b6068366","ios":"levelo://app?vid=80e10b6b-b930-4216-a26e-cfd3b6068366"},"vehicle_type_id":"4","last_reported":1727946551,"current_range_meters":32000,"station_id":"ce4bgrp2rcd13ifvqc9g","pricing_plan_id":"cebpf4jnsgd1na2vs0mg"},{"bike_id":"98406b53-1363-4157-8ea4-3308e017b080","system_id":"levelo_inurba_marseille","lat":43.29422,"lon":5.38614,"is_reserved":false,"is_disabled":false,"rental_uris":{"android":"levelo://app?vid=98406b53-1363-4157-8ea4-3308e017b080","ios":"levelo://app?vid=98406b53-1363-4157-8ea4-3308e017b080"},"vehicle_type_id":"4","last_reported":1727946551,"current_range_meters":39200,"station_id":"ce4bh2h2rcd13ifvqdh0","pricing_plan_id":"cebpf4jnsgd1na2vs0mg"},{"bike_id":"a292cc6b-0b15-4b33-8f09-f41be692a4eb","system_id":"levelo_inurba_marseille","lat":43.24392,"lon":5.37058,"is_reserved":false,"is_disabled":false,"rental_uris":{"android":"levelo://app?vid=a292cc6b-0b15-4b33-8f09-f41be692a4eb","ios":"levelo://app?vid=a292cc6b-0b15-4b33-8f09-f41be692a4eb"},"vehicle_type_id":"4","last_reported":1727946551,"current_range_meters":38400,"station_id":"ce4bhhh2rcd13ifvqfk0","pricing_plan_id":"cebpf4jnsgd1na2vs0mg"},{"bike_id":"85ec660c-eef7-4d66-9c5e-4f3b3c272755","system_id":"levelo_inurba_marseille","lat":43.27314,"lon":5.39111,"is_reserved":false,"is_disabled":false,"rental_uris":{"android":"levelo://app?vid=85ec660c-eef7-4d66-9c5e-4f3b3c272755","ios":"levelo://app?vid=85ec660c-eef7-4d66-9c5e-4f3b3c272755"},"vehicle_type_id":"4","last_reported":1727946551,"current_range_meters":2800,"station_id":"ce4bhgp2rcd13ifvqfe0","pricing_plan_id":"cebpf4jnsgd1na2vs0mg"},{"bike_id":"c8679ab1-cd72-42e5-b36f-50f88f373f48","system_id":"levelo_inurba_marseille","lat":43.33756,"lon":5.37447,"is_reserved":false,"is_disabled":false,"rental_uris":{"android":"levelo://app?vid=c8679ab1-cd72-42e5-b36f-50f88f373f48","ios":"levelo://app?vid=c8679ab1-cd72-42e5-b36f-50f88f373f48"},"vehicle_type_id":"4","last_reported":1727946551,"current_range_meters":37600,"station_id":"","pricing_plan_id":"cebpf4jnsgd1na2vs0mg"},{"bike_id":"12d219fd-45bf-4813-a2fd-3ba51244ef60","system_id":"levelo_inurba_marseille","lat":43.30286,"lon":5.37692,"is_reserved":false,"is_disabled":false,"rental_uris":{"android":"levelo://app?vid=12d219fd-45bf-4813-a2fd-3ba51244ef60","ios":"levelo://app?vid=12d219fd-45bf-4813-a2fd-3ba51244ef60"},"vehicle_type_id":"4","last_reported":1727946551,"current_range_meters":25200,"station_id":"ce4bguh2rcd13ifvqcj0","pricing_plan_id":"cebpf4jnsgd1na2vs0mg"},{"bike_id":"3cf74a3f-8222-4d03-b2e6-c9d25d38cf35","system_id":"levelo_inurba_marseille","lat":43.24998,"lon":5.38928,"is_reserved":false,"is_disabled":false,"rental_uris":{"android":"levelo://app?vid=3cf74a3f-8222-4d03-b2e6-c9d25d38cf35","ios":"levelo://app?vid=3cf74a3f-8222-4d03-b2e6-c9d25d38cf35"},"vehicle_type_id":"4","last_reported":1727946551,"current_range_meters":38000,"station_id":"ce4bhgp2rcd13ifvqfd0","pricing_plan_id":"cebpf4jnsgd1na2vs0mg"},{"bike_id":"df35103d-0afb-4a29-bcb0-3d33b933f0f7","system_id":"levelo_inurba_marseille","lat":43.30549,"lon":5.36707,"is_reserved":false,"is_disabled":false,"rental_uris":{"android":"levelo://app?vid=df35103d-0afb-4a29-bcb0-3d33b933f0f7","ios":"levelo://app?vid=df35103d-0afb-4a29-bcb0-3d33b933f0f7"},"vehicle_type_id":"4","last_reported":1727946551,"current_range_meters":38000,"station_id":"ce4bgrp2rcd13ifvqc9g","pricing_plan_id":"cebpf4jnsgd1na2vs0mg"},{"bike_id":"fc2906d0-db21-4fe8-851a-5aa5ec9b580a","system_id":"levelo_inurba_marseille","lat":43.33611,"lon":5.41034,"is_reserved":false,"is_disabled":false,"rental_uris":{"android":"levelo://app?vid=fc2906d0-db21-4fe8-851a-5aa5ec9b580a","ios":"levelo://app?vid=fc2906d0-db21-4fe8-851a-5aa5ec9b580a"},"vehicle_type_id":"4","last_reported":1727946551,"current_range_meters":22800,"station_id":"ce4bhqh2rcd13ifvqhmg","pricing_plan_id":"cebpf4jnsgd1na2vs0mg"},{"bike_id":"de302269-fdda-4ef3-9935-87f4834e17d5","system_id":"levelo_inurba_marseille","lat":43.25932,"lon":5.40908,"is_reserved":false,"is_disabled":false,"rental_uris":{"android":"levelo://app?vid=de302269-fdda-4ef3-9935-87f4834e17d5","ios":"levelo://app?vid=de302269-fdda-4ef3-9935-87f4834e17d5"},"vehicle_type_id":"4","last_reported":1727946551,"current_range_meters":9600,"station_id":"ce4bhm92rcd13ifvqglg","pricing_plan_id":"cebpf4jnsgd1na2vs0mg"},{"bike_id":"56715d0f-b93d-4967-837c-32f1303df248","system_id":"levelo_inurba_marseille","lat":43.34134,"lon":5.40904,"is_reserved":false,"is_disabled":false,"rental_uris":{"android":"levelo://app?vid=56715d0f-b93d-4967-837c-32f1303df248","ios":"levelo://app?vid=56715d0f-b93d-4967-837c-32f1303df248"},"vehicle_type_id":"4","last_reported":1727946551,"current_range_meters":31200,"station_id":"ce4bhqh2rcd13ifvqhlg","pricing_plan_id":"cebpf4jnsgd1na2vs0mg"},{"bike_id":"fbca8f14-1f5c-4ab4-933a-7af7fc9b4c2b","system_id":"levelo_inurba_marseille","lat":43.28031,"lon":5.36938,"is_reserved":false,"is_disabled":false,"rental_uris":{"android":"levelo://app?vid=fbca8f14-1f5c-4ab4-933a-7af7fc9b4c2b","ios":"levelo://app?vid=fbca8f14-1f5c-4ab4-933a-7af7fc9b4c2b"},"vehicle_type_id":"4","last_reported":1727946551,"current_range_meters":24800,"station_id":"ce4bha12rcd13ifvqef0","pricing_plan_id":"cebpf4jnsgd1na2vs0mg"},{"bike_id":"086469e0-3a4c-449b-823f-3ab025193336","system_id":"levelo_inurba_marseille","lat":43.30138,"lon":5.38093,"is_reserved":false,"is_disabled":false,"rental_uris":{"android":"levelo://app?vid=086469e0-3a4c-449b-823f-3ab025193336","ios":"levelo://app?vid=086469e0-3a4c-449b-823f-3ab025193336"},"vehicle_type_id":"4","last_reported":1727946551,"current_range_meters":28000,"station_id":"ce4bgjp2rcd13ifvqbh0","pricing_plan_id":"cebpf4jnsgd1na2vs0mg"},{"bike_id":"fde1a248-2072-4dff-9f45-162d1b347b92","system_id":"levelo_inurba_marseille","lat":43.33605,"lon":5.41033,"is_reserved":false,"is_disabled":false,"rental_uris":{"android":"levelo://app?vid=fde1a248-2072-4dff-9f45-162d1b347b92","ios":"levelo://app?vid=fde1a248-2072-4dff-9f45-162d1b347b92"},"vehicle_type_id":"4","last_reported":1727946551,"current_range_meters":25600,"station_id":"ce4bhqh2rcd13ifvqhmg","pricing_plan_id":"cebpf4jnsgd1na2vs0mg"},{"bike_id":"2b58fe52-cecf-4d77-847f-b40d2ae6cb7d","system_id":"levelo_inurba_marseille","lat":43.31364,"lon":5.36693,"is_reserved":false,"is_disabled":false,"rental_uris":{"android":"levelo://app?vid=2b58fe52-cecf-4d77-847f-b40d2ae6cb7d","ios":"levelo://app?vid=2b58fe52-cecf-4d77-847f-b40d2ae6cb7d"},"vehicle_type_id":"4","last_reported":1727946551,"current_range_meters":4800,"station_id":"ce4bgr92rcd13ifvqc6g","pricing_plan_id":"cebpf4jnsgd1na2vs0mg"},{"bike_id":"1815b4d6-3172-47a4-bdf3-7e813b4c1840","system_id":"levelo_inurba_marseille","lat":43.231636,"lon":5.436774,"is_reserved":false,"is_disabled":false,"rental_uris":{"android":"levelo://app?vid=1815b4d6-3172-47a4-bdf3-7e813b4c1840","ios":"levelo://app?vid=1815b4d6-3172-47a4-bdf3-7e813b4c1840"},"vehicle_type_id":"4","last_reported":1727946551,"current_range_meters":15200,"station_id":"ce4bhmp2rcd13ifvqgog","pricing_plan_id":"cebpf4jnsgd1na2vs0mg"},{"bike_id":"563810eb-a038-4837-9e82-0693fa5230ae","system_id":"levelo_inurba_marseille","lat":43.30559,"lon":5.36541,"is_reserved":false,"is_disabled":false,"rental_uris":{"android":"levelo://app?vid=563810eb-a038-4837-9e82-0693fa5230ae","ios":"levelo://app?vid=563810eb-a038-4837-9e82-0693fa5230ae"},"vehicle_type_id":"4","last_reported":1727946551,"current_range_meters":38000,"station_id":"ce4bgs12rcd13ifvqcag","pricing_plan_id":"cebpf4jnsgd1na2vs0mg"},{"bike_id":"335c7a89-1d55-4ce1-b241-42587a78fd1b","system_id":"levelo_inurba_marseille","lat":43.25576,"lon":5.38239,"is_reserved":false,"is_disabled":false,"rental_uris":{"android":"levelo://app?vid=335c7a89-1d55-4ce1-b241-42587a78fd1b","ios":"levelo://app?vid=335c7a89-1d55-4ce1-b241-42587a78fd1b"},"vehicle_type_id":"4","last_reported":1727946551,"current_range_meters":38800,"station_id":"ce4bhih2rcd13ifvqfs0","pricing_plan_id":"cebpf4jnsgd1na2vs0mg"},{"bike_id":"a207a2e0-0743-42a0-975e-ecf8612de529","system_id":"levelo_inurba_marseille","lat":43.30946,"lon":5.39058,"is_reserved":false,"is_disabled":false,"rental_uris":{"android":"levelo://app?vid=a207a2e0-0743-42a0-975e-ecf8612de529","ios":"levelo://app?vid=a207a2e0-0743-42a0-975e-ecf8612de529"},"vehicle_type_id":"4","last_reported":1727946551,"current_range_meters":39200,"station_id":"ce4bgup2rcd13ifvqco0","pricing_plan_id":"cebpf4jnsgd1na2vs0mg"},{"bike_id":"4950b0d2-6f0c-4b08-8a52-9ea03f9a19c9","system_id":"levelo_inurba_marseille","lat":43.28718,"lon":5.37934,"is_reserved":false,"is_disabled":false,"rental_uris":{"android":"levelo://app?vid=4950b0d2-6f0c-4b08-8a52-9ea03f9a19c9","ios":"levelo://app?vid=4950b0d2-6f0c-4b08-8a52-9ea03f9a19c9"},"vehicle_type_id":"4","last_reported":1727946551,"current_range_meters":35200,"station_id":"ce4bh9p2rcd13ifvqec0","pricing_plan_id":"cebpf4jnsgd1na2vs0mg"},{"bike_id":"0bf000b2-613c-487b-9f2e-bcc1947a452c","system_id":"levelo_inurba_marseille","lat":43.29582,"lon":5.36742,"is_reserved":false,"is_disabled":false,"rental_uris":{"android":"levelo://app?vid=0bf000b2-613c-487b-9f2e-bcc1947a452c","ios":"levelo://app?vid=0bf000b2-613c-487b-9f2e-bcc1947a452c"},"vehicle_type_id":"4","last_reported":1727946551,"current_range_meters":38000,"station_id":"ce4bgph2rcd13ifvqc2g","pricing_plan_id":"cebpf4jnsgd1na2vs0mg"},{"bike_id":"137d56b1-cdc7-4f99-ba23-c424b109461a","system_id":"levelo_inurba_marseille","lat":43.30141,"lon":5.3741,"is_reserved":false,"is_disabled":false,"rental_uris":{"android":"levelo://app?vid=137d56b1-cdc7-4f99-ba23-c424b109461a","ios":"levelo://app?vid=137d56b1-cdc7-4f99-ba23-c424b109461a"},"vehicle_type_id":"4","last_reported":1727946551,"current_range_meters":22800,"station_id":"ce4bgs92rcd13ifvqcc0","pricing_plan_id":"cebpf4jnsgd1na2vs0mg"},{"bike_id":"ecffaa5b-31f4-4604-ad8f-7aa5a4746729","system_id":"levelo_inurba_marseille","lat":43.29525,"lon":5.37482,"is_reserved":false,"is_disabled":false,"rental_uris":{"android":"levelo://app?vid=ecffaa5b-31f4-4604-ad8f-7aa5a4746729","ios":"levelo://app?vid=ecffaa5b-31f4-4604-ad8f-7aa5a4746729"},"vehicle_type_id":"4","last_reported":1727946551,"current_range_meters":5600,"station_id":"","pricing_plan_id":"cebpf4jnsgd1na2vs0mg"},{"bike_id":"7d1b0a18-26e3-4b52-8a52-5424e1b3a5de","system_id":"levelo_inurba_marseille","lat":43.27485,"lon":5.42457,"is_reserved":false,"is_disabled":false,"rental_uris":{"android":"levelo://app?vid=7d1b0a18-26e3-4b52-8a52-5424e1b3a5de","ios":"levelo://app?vid=7d1b0a18-26e3-4b52-8a52-5424e1b3a5de"},"vehicle_type_id":"4","last_reported":1727946551,"current_range_meters":26800,"station_id":"ce4bhn92rcd13ifvqgrg","pricing_plan_id":"cebpf4jnsgd1na2vs0mg"},{"bike_id":"b482df99-7ee8-4eea-8d8b-1d22667db679","system_id":"levelo_inurba_marseille","lat":43.29343,"lon":5.4284,"is_reserved":false,"is_disabled":false,"rental_uris":{"android":"levelo://app?vid=b482df99-7ee8-4eea-8d8b-1d22667db679","ios":"levelo://app?vid=b482df99-7ee8-4eea-8d8b-1d22667db679"},"vehicle_type_id":"4","last_reported":1727946551,"current_range_meters":17200,"station_id":"","pricing_plan_id":"cebpf4jnsgd1na2vs0mg"},{"bike_id":"244b6997-38fb-47f1-be1e-1227dcbf11cf","system_id":"levelo_inurba_marseille","lat":43.25577,"lon":5.38236,"is_reserved":false,"is_disabled":false,"rental_uris":{"android":"levelo://app?vid=244b6997-38fb-47f1-be1e-1227dcbf11cf","ios":"levelo://app?vid=244b6997-38fb-47f1-be1e-1227dcbf11cf"},"vehicle_type_id":"4","last_reported":1727946551,"current_range_meters":34800,"station_id":"ce4bhih2rcd13ifvqfs0","pricing_plan_id":"cebpf4jnsgd1na2vs0mg"},{"bike_id":"71e3a2e5-1420-47f2-96a7-56b34a6616a6","system_id":"levelo_inurba_marseille","lat":43.29983,"lon":5.37176,"is_reserved":false,"is_disabled":false,"rental_uris":{"android":"levelo://app?vid=71e3a2e5-1420-47f2-96a7-56b34a6616a6","ios":"levelo://app?vid=71e3a2e5-1420-47f2-96a7-56b34a6616a6"},"vehicle_type_id":"4","last_reported":1727946551,"current_range_meters":26000,"station_id":"ce4bgr92rcd13ifvqc7g","pricing_plan_id":"cebpf4jnsgd1na2vs0mg"},{"bike_id":"b5af711b-6987-49f5-b695-0254279b63f4","system_id":"levelo_inurba_marseille","lat":43.30311,"lon":5.36903,"is_reserved":false,"is_disabled":false,"rental_uris":{"android":"levelo://app?vid=b5af711b-6987-49f5-b695-0254279b63f4","ios":"levelo://app?vid=b5af711b-6987-49f5-b695-0254279b63f4"},"vehicle_type_id":"4","last_reported":1727946551,"current_range_meters":35600,"station_id":"ce4bgqh2rcd13ifvqc5g","pricing_plan_id":"cebpf4jnsgd1na2vs0mg"},{"bike_id":"aaab4d69-96e7-44c5-a785-74151f1e0995","system_id":"levelo_inurba_marseille","lat":43.29303,"lon":5.37178,"is_reserved":false,"is_disabled":false,"rental_uris":{"android":"levelo://app?vid=aaab4d69-96e7-44c5-a785-74151f1e0995","ios":"levelo://app?vid=aaab4d69-96e7-44c5-a785-74151f1e0995"},"vehicle_type_id":"4","last_reported":1727946551,"current_range_meters":27600,"station_id":"ce4bgh92rcd13ifvqb40","pricing_plan_id":"cebpf4jnsgd1na2vs0mg"},{"bike_id":"7e2c5630-b79c-4b21-bae5-6341647ed023","system_id":"levelo_inurba_marseille","lat":43.23147,"lon":5.43703,"is_reserved":false,"is_disabled":false,"rental_uris":{"android":"levelo://app?vid=7e2c5630-b79c-4b21-bae5-6341647ed023","ios":"levelo://app?vid=7e2c5630-b79c-4b21-bae5-6341647ed023"},"vehicle_type_id":"4","last_reported":1727946551,"current_range_meters":10000,"station_id":"ce4bhmp2rcd13ifvqgog","pricing_plan_id":"cebpf4jnsgd1na2vs0mg"},{"bike_id":"0a5ce12f-aef2-4655-86eb-0e4f89c69da4","system_id":"levelo_inurba_marseille","lat":43.26197,"lon":5.37922,"is_reserved":false,"is_disabled":false,"rental_uris":{"android":"levelo://app?vid=0a5ce12f-aef2-4655-86eb-0e4f89c69da4","ios":"levelo://app?vid=0a5ce12f-aef2-4655-86eb-0e4f89c69da4"},"vehicle_type_id":"4","last_reported":1727946551,"current_range_meters":27200,"station_id":"ce4bhjp2rcd13ifvqg90","pricing_plan_id":"cebpf4jnsgd1na2vs0mg"},{"bike_id":"97f69b04-580a-47fc-86b4-124ed7d7731e","system_id":"levelo_inurba_marseille","lat":43.3078,"lon":5.37647,"is_reserved":false,"is_disabled":false,"rental_uris":{"android":"levelo://app?vid=97f69b04-580a-47fc-86b4-124ed7d7731e","ios":"levelo://app?vid=97f69b04-580a-47fc-86b4-124ed7d7731e"},"vehicle_type_id":"4","last_reported":1727946551,"current_range_meters":18800,"station_id":"ce4bgv92rcd13ifvqcq0","pricing_plan_id":"cebpf4jnsgd1na2vs0mg"},{"bike_id":"fc4827cf-1384-4474-9e81-eba80f8ad490","system_id":"levelo_inurba_marseille","lat":43.33745,"lon":5.37458,"is_reserved":false,"is_disabled":false,"rental_uris":{"android":"levelo://app?vid=fc4827cf-1384-4474-9e81-eba80f8ad490","ios":"levelo://app?vid=fc4827cf-1384-4474-9e81-eba80f8ad490"},"vehicle_type_id":"4","last_reported":1727946551,"current_range_meters":37600,"station_id":"","pricing_plan_id":"cebpf4jnsgd1na2vs0mg"},{"bike_id":"43215cd2-65e6-47b8-9f40-8388f8c8b262","system_id":"levelo_inurba_marseille","lat":43.25932,"lon":5.40905,"is_reserved":false,"is_disabled":false,"rental_uris":{"android":"levelo://app?vid=43215cd2-65e6-47b8-9f40-8388f8c8b262","ios":"levelo://app?vid=43215cd2-65e6-47b8-9f40-8388f8c8b262"},"vehicle_type_id":"4","last_reported":1727946551,"current_range_meters":24800,"station_id":"ce4bhm92rcd13ifvqglg","pricing_plan_id":"cebpf4jnsgd1na2vs0mg"},{"bike_id":"53c6fe7a-c5f0-4c29-bdb6-08c6c7db5c71","system_id":"levelo_inurba_marseille","lat":43.32102,"lon":5.36765,"is_reserved":false,"is_disabled":false,"rental_uris":{"android":"levelo://app?vid=53c6fe7a-c5f0-4c29-bdb6-08c6c7db5c71","ios":"levelo://app?vid=53c6fe7a-c5f0-4c29-bdb6-08c6c7db5c71"},"vehicle_type_id":"4","last_reported":1727946551,"current_range_meters":10000,"station_id":"ce4bhrh2rcd13ifvqhug","pricing_plan_id":"cebpf4jnsgd1na2vs0mg"},{"bike_id":"8cd4967a-5c3b-494d-8d94-4caf3da84f74","system_id":"levelo_inurba_marseille","lat":43.25933,"lon":5.40911,"is_reserved":false,"is_disabled":false,"rental_uris":{"android":"levelo://app?vid=8cd4967a-5c3b-494d-8d94-4caf3da84f74","ios":"levelo://app?vid=8cd4967a-5c3b-494d-8d94-4caf3da84f74"},"vehicle_type_id":"4","last_reported":1727946551,"current_range_meters":8000,"station_id":"ce4bhm92rcd13ifvqglg","pricing_plan_id":"cebpf4jnsgd1na2vs0mg"},{"bike_id":"3bfeb359-d5a3-4e82-a8c1-2660f47a3245","system_id":"levelo_inurba_marseille","lat":43.30136,"lon":5.37419,"is_reserved":false,"is_disabled":false,"rental_uris":{"android":"levelo://app?vid=3bfeb359-d5a3-4e82-a8c1-2660f47a3245","ios":"levelo://app?vid=3bfeb359-d5a3-4e82-a8c1-2660f47a3245"},"vehicle_type_id":"4","last_reported":1727946551,"current_range_meters":20800,"station_id":"ce4bgs92rcd13ifvqcc0","pricing_plan_id":"cebpf4jnsgd1na2vs0mg"},{"bike_id":"6ce60676-3f86-4aaa-a5df-572436c32ad4","system_id":"levelo_inurba_marseille","lat":43.23193,"lon":5.35543,"is_reserved":false,"is_disabled":false,"rental_uris":{"android":"levelo://app?vid=6ce60676-3f86-4aaa-a5df-572436c32ad4","ios":"levelo://app?vid=6ce60676-3f86-4aaa-a5df-572436c32ad4"},"vehicle_type_id":"4","last_reported":1727946551,"current_range_meters":20400,"station_id":"ce4bhu92rcd13ifvqi70","pricing_plan_id":"cebpf4jnsgd1na2vs0mg"},{"bike_id":"87d19301-70bc-477b-bfbb-938aa7da67ee","system_id":"levelo_inurba_marseille","lat":43.29841,"lon":5.36278,"is_reserved":false,"is_disabled":false,"rental_uris":{"android":"levelo://app?vid=87d19301-70bc-477b-bfbb-938aa7da67ee","ios":"levelo://app?vid=87d19301-70bc-477b-bfbb-938aa7da67ee"},"vehicle_type_id":"4","last_reported":1727946551,"current_range_meters":30400,"station_id":"ce4bgpp2rcd13ifvqc3g","pricing_plan_id":"cebpf4jnsgd1na2vs0mg"},{"bike_id":"f1a6c662-1f2f-43d3-bba4-20a506ee3ee3","system_id":"levelo_inurba_marseille","lat":43.3014,"lon":5.37425,"is_reserved":false,"is_disabled":false,"rental_uris":{"android":"levelo://app?vid=f1a6c662-1f2f-43d3-bba4-20a506ee3ee3","ios":"levelo://app?vid=f1a6c662-1f2f-43d3-bba4-20a506ee3ee3"},"vehicle_type_id":"4","last_reported":1727946551,"current_range_meters":31200,"station_id":"ce4bgs92rcd13ifvqcc0","pricing_plan_id":"cebpf4jnsgd1na2vs0mg"},{"bike_id":"aa2177c6-fefe-41c2-91b5-67ba02b633dc","system_id":"levelo_inurba_marseille","lat":43.26501,"lon":5.39533,"is_reserved":false,"is_disabled":false,"rental_uris":{"android":"levelo://app?vid=aa2177c6-fefe-41c2-91b5-67ba02b633dc","ios":"levelo://app?vid=aa2177c6-fefe-41c2-91b5-67ba02b633dc"},"vehicle_type_id":"4","last_reported":1727946551,"current_range_meters":8000,"station_id":"ce4bhi12rcd13ifvqfq0","pricing_plan_id":"cebpf4jnsgd1na2vs0mg"},{"bike_id":"3698a977-a7b5-4b94-af60-6886ee2a328a","system_id":"levelo_inurba_marseille","lat":43.2315,"lon":5.43716,"is_reserved":false,"is_disabled":false,"rental_uris":{"android":"levelo://app?vid=3698a977-a7b5-4b94-af60-6886ee2a328a","ios":"levelo://app?vid=3698a977-a7b5-4b94-af60-6886ee2a328a"},"vehicle_type_id":"4","last_reported":1727946551,"current_range_meters":20000,"station_id":"ce4bhmp2rcd13ifvqgog","pricing_plan_id":"cebpf4jnsgd1na2vs0mg"},{"bike_id":"c44517f6-e519-4b9a-af41-7bba70751b24","system_id":"levelo_inurba_marseille","lat":43.24173,"lon":5.39735,"is_reserved":false,"is_disabled":false,"rental_uris":{"android":"levelo://app?vid=c44517f6-e519-4b9a-af41-7bba70751b24","ios":"levelo://app?vid=c44517f6-e519-4b9a-af41-7bba70751b24"},"vehicle_type_id":"4","last_reported":1727946551,"current_range_meters":35600,"station_id":"ce4bhn12rcd13ifvqgpg","pricing_plan_id":"cebpf4jnsgd1na2vs0mg"},{"bike_id":"18546fdf-b8ba-4aec-a245-1c584b1703fb","system_id":"levelo_inurba_marseille","lat":43.30149,"lon":5.38081,"is_reserved":false,"is_disabled":false,"rental_uris":{"android":"levelo://app?vid=18546fdf-b8ba-4aec-a245-1c584b1703fb","ios":"levelo://app?vid=18546fdf-b8ba-4aec-a245-1c584b1703fb"},"vehicle_type_id":"4","last_reported":1727946551,"current_range_meters":36000,"station_id":"ce4bgjp2rcd13ifvqbh0","pricing_plan_id":"cebpf4jnsgd1na2vs0mg"},{"bike_id":"2bd41e8f-595a-48d8-87d1-c39e3b02765b","system_id":"levelo_inurba_marseille","lat":43.33746,"lon":5.37437,"is_reserved":false,"is_disabled":false,"rental_uris":{"android":"levelo://app?vid=2bd41e8f-595a-48d8-87d1-c39e3b02765b","ios":"levelo://app?vid=2bd41e8f-595a-48d8-87d1-c39e3b02765b"},"vehicle_type_id":"4","last_reported":1727946551,"current_range_meters":36000,"station_id":"","pricing_plan_id":"cebpf4jnsgd1na2vs0mg"},{"bike_id":"1dc2281c-13e2-4912-83ce-c99fdc02def2","system_id":"levelo_inurba_marseille","lat":43.31357,"lon":5.36703,"is_reserved":false,"is_disabled":false,"rental_uris":{"android":"levelo://app?vid=1dc2281c-13e2-4912-83ce-c99fdc02def2","ios":"levelo://app?vid=1dc2281c-13e2-4912-83ce-c99fdc02def2"},"vehicle_type_id":"4","last_reported":1727946551,"current_range_meters":34000,"station_id":"ce4bgr92rcd13ifvqc6g","pricing_plan_id":"cebpf4jnsgd1na2vs0mg"},{"bike_id":"a5f09958-d5f7-434a-b440-c490259f983c","system_id":"levelo_inurba_marseille","lat":43.29601,"lon":5.37734,"is_reserved":false,"is_disabled":false,"rental_uris":{"android":"levelo://app?vid=a5f09958-d5f7-434a-b440-c490259f983c","ios":"levelo://app?vid=a5f09958-d5f7-434a-b440-c490259f983c"},"vehicle_type_id":"4","last_reported":1727946551,"current_range_meters":32000,"station_id":"ce4bgi92rcd13ifvqb90","pricing_plan_id":"cebpf4jnsgd1na2vs0mg"},{"bike_id":"83479c98-7be8-4719-a7f8-b4b72c598228","system_id":"levelo_inurba_marseille","lat":43.29594,"lon":5.38096,"is_reserved":false,"is_disabled":false,"rental_uris":{"android":"levelo://app?vid=83479c98-7be8-4719-a7f8-b4b72c598228","ios":"levelo://app?vid=83479c98-7be8-4719-a7f8-b4b72c598228"},"vehicle_type_id":"4","last_reported":1727946551,"current_range_meters":25600,"station_id":"ce4bgl12rcd13ifvqbo0","pricing_plan_id":"cebpf4jnsgd1na2vs0mg"},{"bike_id":"3bd9604a-7a24-493e-a7d6-ba4d8475e091","system_id":"levelo_inurba_marseille","lat":43.30642,"lon":5.40086,"is_reserved":false,"is_disabled":false,"rental_uris":{"android":"levelo://app?vid=3bd9604a-7a24-493e-a7d6-ba4d8475e091","ios":"levelo://app?vid=3bd9604a-7a24-493e-a7d6-ba4d8475e091"},"vehicle_type_id":"4","last_reported":1727946551,"current_range_meters":26000,"station_id":"ce4bh112rcd13ifvqda0","pricing_plan_id":"cebpf4jnsgd1na2vs0mg"},{"bike_id":"10f339b2-115d-4118-9cc4-74e205eb805c","system_id":"levelo_inurba_marseille","lat":43.28473,"lon":5.38416,"is_reserved":false,"is_disabled":false,"rental_uris":{"android":"levelo://app?vid=10f339b2-115d-4118-9cc4-74e205eb805c","ios":"levelo://app?vid=10f339b2-115d-4118-9cc4-74e205eb805c"},"vehicle_type_id":"4","last_reported":1727946551,"current_range_meters":18800,"station_id":"ce4bh512rcd13ifvqe3g","pricing_plan_id":"cebpf4jnsgd1na2vs0mg"},{"bike_id":"626473b8-1234-4a02-b712-2c8ca9913b13","system_id":"levelo_inurba_marseille","lat":43.24995,"lon":5.38929,"is_reserved":false,"is_disabled":false,"rental_uris":{"android":"levelo://app?vid=626473b8-1234-4a02-b712-2c8ca9913b13","ios":"levelo://app?vid=626473b8-1234-4a02-b712-2c8ca9913b13"},"vehicle_type_id":"4","last_reported":1727946551,"current_range_meters":7200,"station_id":"ce4bhgp2rcd13ifvqfd0","pricing_plan_id":"cebpf4jnsgd1na2vs0mg"},{"bike_id":"78a527bc-ae94-4cf4-9f36-964893bc6d4b","system_id":"levelo_inurba_marseille","lat":43.24668,"lon":5.38151,"is_reserved":false,"is_disabled":false,"rental_uris":{"android":"levelo://app?vid=78a527bc-ae94-4cf4-9f36-964893bc6d4b","ios":"levelo://app?vid=78a527bc-ae94-4cf4-9f36-964893bc6d4b"},"vehicle_type_id":"4","last_reported":1727946551,"current_range_meters":9200,"station_id":"ce4bhih2rcd13ifvqfr0","pricing_plan_id":"cebpf4jnsgd1na2vs0mg"},{"bike_id":"9e0f3fae-960a-459e-9544-640ffabb4848","system_id":"levelo_inurba_marseille","lat":43.31995,"lon":5.38145,"is_reserved":false,"is_disabled":false,"rental_uris":{"android":"levelo://app?vid=9e0f3fae-960a-459e-9544-640ffabb4848","ios":"levelo://app?vid=9e0f3fae-960a-459e-9544-640ffabb4848"},"vehicle_type_id":"4","last_reported":1727946551,"current_range_meters":36000,"station_id":"ce4bhr12rcd13ifvqhpg","pricing_plan_id":"cebpf4jnsgd1na2vs0mg"},{"bike_id":"168d9590-b9f2-4a28-8e6e-a32e90d2dac8","system_id":"levelo_inurba_marseille","lat":43.29258,"lon":5.38442,"is_reserved":false,"is_disabled":false,"rental_uris":{"android":"levelo://app?vid=168d9590-b9f2-4a28-8e6e-a32e90d2dac8","ios":"levelo://app?vid=168d9590-b9f2-4a28-8e6e-a32e90d2dac8"},"vehicle_type_id":"4","last_reported":1727946551,"current_range_meters":28400,"station_id":"ce4bh692rcd13ifvqea0","pricing_plan_id":"cebpf4jnsgd1na2vs0mg"},{"bike_id":"2a37f42d-a3d1-4b8d-9a40-585ee221cd89","system_id":"levelo_inurba_marseille","lat":43.27206,"lon":5.39176,"is_reserved":false,"is_disabled":false,"rental_uris":{"android":"levelo://app?vid=2a37f42d-a3d1-4b8d-9a40-585ee221cd89","ios":"levelo://app?vid=2a37f42d-a3d1-4b8d-9a40-585ee221cd89"},"vehicle_type_id":"4","last_reported":1727946551,"current_range_meters":28400,"station_id":"ce4bhhp2rcd13ifvqfm0","pricing_plan_id":"cebpf4jnsgd1na2vs0mg"},{"bike_id":"0066c6b0-1057-4400-85b9-4677ce2f8905","system_id":"levelo_inurba_marseille","lat":43.29842,"lon":5.36261,"is_reserved":false,"is_disabled":false,"rental_uris":{"android":"levelo://app?vid=0066c6b0-1057-4400-85b9-4677ce2f8905","ios":"levelo://app?vid=0066c6b0-1057-4400-85b9-4677ce2f8905"},"vehicle_type_id":"4","last_reported":1727946551,"current_range_meters":17200,"station_id":"ce4bgpp2rcd13ifvqc3g","pricing_plan_id":"cebpf4jnsgd1na2vs0mg"},{"bike_id":"abfa74ce-ac56-4bd7-af8d-9fbafd2dc3d5","system_id":"levelo_inurba_marseille","lat":43.2396,"lon":5.36636,"is_reserved":false,"is_disabled":false,"rental_uris":{"android":"levelo://app?vid=abfa74ce-ac56-4bd7-af8d-9fbafd2dc3d5","ios":"levelo://app?vid=abfa74ce-ac56-4bd7-af8d-9fbafd2dc3d5"},"vehicle_type_id":"4","last_reported":1727946551,"current_range_meters":21600,"station_id":"ce4bhi12rcd13ifvqfp0","pricing_plan_id":"cebpf4jnsgd1na2vs0mg"},{"bike_id":"e1a289e3-9a3b-48ca-8adb-3428ce215cfc","system_id":"levelo_inurba_marseille","lat":43.26204,"lon":5.37927,"is_reserved":false,"is_disabled":false,"rental_uris":{"android":"levelo://app?vid=e1a289e3-9a3b-48ca-8adb-3428ce215cfc","ios":"levelo://app?vid=e1a289e3-9a3b-48ca-8adb-3428ce215cfc"},"vehicle_type_id":"4","last_reported":1727946551,"current_range_meters":37600,"station_id":"ce4bhjp2rcd13ifvqg90","pricing_plan_id":"cebpf4jnsgd1na2vs0mg"},{"bike_id":"0c676cd2-0d94-4edc-a46a-f3a3e253141b","system_id":"levelo_inurba_marseille","lat":43.2953,"lon":5.38539,"is_reserved":false,"is_disabled":false,"rental_uris":{"android":"levelo://app?vid=0c676cd2-0d94-4edc-a46a-f3a3e253141b","ios":"levelo://app?vid=0c676cd2-0d94-4edc-a46a-f3a3e253141b"},"vehicle_type_id":"4","last_reported":1727946551,"current_range_meters":10000,"station_id":"ce4bgih2rcd13ifvqba0","pricing_plan_id":"cebpf4jnsgd1na2vs0mg"},{"bike_id":"1df334bf-3cad-41a3-ace7-9786f37bacb4","system_id":"levelo_inurba_marseille","lat":43.29774,"lon":5.37117,"is_reserved":false,"is_disabled":false,"rental_uris":{"android":"levelo://app?vid=1df334bf-3cad-41a3-ace7-9786f37bacb4","ios":"levelo://app?vid=1df334bf-3cad-41a3-ace7-9786f37bacb4"},"vehicle_type_id":"4","last_reported":1727946551,"current_range_meters":27200,"station_id":"ce4bgop2rcd13ifvqc1g","pricing_plan_id":"cebpf4jnsgd1na2vs0mg"},{"bike_id":"f9a001dd-dda8-4793-9023-c66ab8dc3b99","system_id":"levelo_inurba_marseille","lat":43.31708,"lon":5.37769,"is_reserved":false,"is_disabled":false,"rental_uris":{"android":"levelo://app?vid=f9a001dd-dda8-4793-9023-c66ab8dc3b99","ios":"levelo://app?vid=f9a001dd-dda8-4793-9023-c66ab8dc3b99"},"vehicle_type_id":"4","last_reported":1727946551,"current_range_meters":39200,"station_id":"ce4bgth2rcd13ifvqch0","pricing_plan_id":"cebpf4jnsgd1na2vs0mg"},{"bike_id":"eff113c7-59b9-441e-aff3-5dd68542a590","system_id":"levelo_inurba_marseille","lat":43.24668,"lon":5.38149,"is_reserved":false,"is_disabled":false,"rental_uris":{"android":"levelo://app?vid=eff113c7-59b9-441e-aff3-5dd68542a590","ios":"levelo://app?vid=eff113c7-59b9-441e-aff3-5dd68542a590"},"vehicle_type_id":"4","last_reported":1727946551,"current_range_meters":29600,"station_id":"ce4bhih2rcd13ifvqfr0","pricing_plan_id":"cebpf4jnsgd1na2vs0mg"},{"bike_id":"6c5a26eb-ee07-4d34-9b92-1ad63d0731a1","system_id":"levelo_inurba_marseille","lat":43.30284,"lon":5.37696,"is_reserved":false,"is_disabled":false,"rental_uris":{"android":"levelo://app?vid=6c5a26eb-ee07-4d34-9b92-1ad63d0731a1","ios":"levelo://app?vid=6c5a26eb-ee07-4d34-9b92-1ad63d0731a1"},"vehicle_type_id":"4","last_reported":1727946551,"current_range_meters":35600,"station_id":"ce4bguh2rcd13ifvqcj0","pricing_plan_id":"cebpf4jnsgd1na2vs0mg"},{"bike_id":"7222d66c-4074-45e2-8c20-6c648bc26aa7","system_id":"levelo_inurba_marseille","lat":43.28153,"lon":5.42638,"is_reserved":false,"is_disabled":false,"rental_uris":{"android":"levelo://app?vid=7222d66c-4074-45e2-8c20-6c648bc26aa7","ios":"levelo://app?vid=7222d66c-4074-45e2-8c20-6c648bc26aa7"},"vehicle_type_id":"4","last_reported":1727946551,"current_range_meters":30800,"station_id":"ce4bhnh2rcd13ifvqgug","pricing_plan_id":"cebpf4jnsgd1na2vs0mg"},{"bike_id":"d8230b2f-4bc1-4fe6-9bf9-9980dcc98508","system_id":"levelo_inurba_marseille","lat":43.29886,"lon":5.38145,"is_reserved":false,"is_disabled":false,"rental_uris":{"android":"levelo://app?vid=d8230b2f-4bc1-4fe6-9bf9-9980dcc98508","ios":"levelo://app?vid=d8230b2f-4bc1-4fe6-9bf9-9980dcc98508"},"vehicle_type_id":"4","last_reported":1727946551,"current_range_meters":24800,"station_id":"ce4bgj12rcd13ifvqbc0","pricing_plan_id":"cebpf4jnsgd1na2vs0mg"},{"bike_id":"6dd2b575-c207-4052-ab09-baf0b6523a89","system_id":"levelo_inurba_marseille","lat":43.2606,"lon":5.39395,"is_reserved":false,"is_disabled":false,"rental_uris":{"android":"levelo://app?vid=6dd2b575-c207-4052-ab09-baf0b6523a89","ios":"levelo://app?vid=6dd2b575-c207-4052-ab09-baf0b6523a89"},"vehicle_type_id":"4","last_reported":1727946551,"current_range_meters":7200,"station_id":"ce4bhh92rcd13ifvqfj0","pricing_plan_id":"cebpf4jnsgd1na2vs0mg"},{"bike_id":"f1b77f1c-f8b4-479c-b528-63fa5ae1317f","system_id":"levelo_inurba_marseille","lat":43.31105,"lon":5.37765,"is_reserved":false,"is_disabled":false,"rental_uris":{"android":"levelo://app?vid=f1b77f1c-f8b4-479c-b528-63fa5ae1317f","ios":"levelo://app?vid=f1b77f1c-f8b4-479c-b528-63fa5ae1317f"},"vehicle_type_id":"4","last_reported":1727946551,"current_range_meters":38000,"station_id":"ce4bgt92rcd13ifvqcg0","pricing_plan_id":"cebpf4jnsgd1na2vs0mg"},{"bike_id":"c8e4ff73-620c-4248-92f7-758d5098242c","system_id":"levelo_inurba_marseille","lat":43.22919,"lon":5.35354,"is_reserved":false,"is_disabled":false,"rental_uris":{"android":"levelo://app?vid=c8e4ff73-620c-4248-92f7-758d5098242c","ios":"levelo://app?vid=c8e4ff73-620c-4248-92f7-758d5098242c"},"vehicle_type_id":"4","last_reported":1727946551,"current_range_meters":28000,"station_id":"cpo3532slgdg3j2ikp40","pricing_plan_id":"cebpf4jnsgd1na2vs0mg"},{"bike_id":"62e950a4-e2af-4baf-8154-6456f1693200","system_id":"levelo_inurba_marseille","lat":43.29556,"lon":5.42289,"is_reserved":false,"is_disabled":false,"rental_uris":{"android":"levelo://app?vid=62e950a4-e2af-4baf-8154-6456f1693200","ios":"levelo://app?vid=62e950a4-e2af-4baf-8154-6456f1693200"},"vehicle_type_id":"4","last_reported":1727946551,"current_range_meters":24800,"station_id":"ce4bhph2rcd13ifvqhdg","pricing_plan_id":"cebpf4jnsgd1na2vs0mg"},{"bike_id":"452ceee9-4ce2-411d-a2e7-7c7827494cc5","system_id":"levelo_inurba_marseille","lat":43.30184,"lon":5.36622,"is_reserved":false,"is_disabled":false,"rental_uris":{"android":"levelo://app?vid=452ceee9-4ce2-411d-a2e7-7c7827494cc5","ios":"levelo://app?vid=452ceee9-4ce2-411d-a2e7-7c7827494cc5"},"vehicle_type_id":"4","last_reported":1727946551,"current_range_meters":32800,"station_id":"ce4bgrh2rcd13ifvqc8g","pricing_plan_id":"cebpf4jnsgd1na2vs0mg"},{"bike_id":"5fd74767-be89-4d70-934d-0d640f37cdd6","system_id":"levelo_inurba_marseille","lat":43.23148,"lon":5.43706,"is_reserved":false,"is_disabled":false,"rental_uris":{"android":"levelo://app?vid=5fd74767-be89-4d70-934d-0d640f37cdd6","ios":"levelo://app?vid=5fd74767-be89-4d70-934d-0d640f37cdd6"},"vehicle_type_id":"4","last_reported":1727946551,"current_range_meters":18000,"station_id":"ce4bhmp2rcd13ifvqgog","pricing_plan_id":"cebpf4jnsgd1na2vs0mg"},{"bike_id":"7cb2765a-28eb-4267-aad1-8bc862f4be37","system_id":"levelo_inurba_marseille","lat":43.26679,"lon":5.38261,"is_reserved":false,"is_disabled":false,"rental_uris":{"android":"levelo://app?vid=7cb2765a-28eb-4267-aad1-8bc862f4be37","ios":"levelo://app?vid=7cb2765a-28eb-4267-aad1-8bc862f4be37"},"vehicle_type_id":"4","last_reported":1727946551,"current_range_meters":12400,"station_id":"ce4bhg92rcd13ifvqf90","pricing_plan_id":"cebpf4jnsgd1na2vs0mg"},{"bike_id":"d9db239b-fde2-4cf3-b873-e13b09aa0304","system_id":"levelo_inurba_marseille","lat":43.31346,"lon":5.36709,"is_reserved":false,"is_disabled":false,"rental_uris":{"android":"levelo://app?vid=d9db239b-fde2-4cf3-b873-e13b09aa0304","ios":"levelo://app?vid=d9db239b-fde2-4cf3-b873-e13b09aa0304"},"vehicle_type_id":"4","last_reported":1727946551,"current_range_meters":36400,"station_id":"ce4bgr92rcd13ifvqc6g","pricing_plan_id":"cebpf4jnsgd1na2vs0mg"},{"bike_id":"2828d600-cada-4286-b851-a226d9ca67d5","system_id":"levelo_inurba_marseille","lat":43.32529,"lon":5.41452,"is_reserved":false,"is_disabled":false,"rental_uris":{"android":"levelo://app?vid=2828d600-cada-4286-b851-a226d9ca67d5","ios":"levelo://app?vid=2828d600-cada-4286-b851-a226d9ca67d5"},"vehicle_type_id":"4","last_reported":1727946551,"current_range_meters":27200,"station_id":"ce4bhq12rcd13ifvqhhg","pricing_plan_id":"cebpf4jnsgd1na2vs0mg"},{"bike_id":"6e343b3e-04b7-4bcf-a01e-b172349825df","system_id":"levelo_inurba_marseille","lat":43.32357,"lon":5.38888,"is_reserved":false,"is_disabled":false,"rental_uris":{"android":"levelo://app?vid=6e343b3e-04b7-4bcf-a01e-b172349825df","ios":"levelo://app?vid=6e343b3e-04b7-4bcf-a01e-b172349825df"},"vehicle_type_id":"4","last_reported":1727946551,"current_range_meters":9200,"station_id":"ce4bhqp2rcd13ifvqhog","pricing_plan_id":"cebpf4jnsgd1na2vs0mg"},{"bike_id":"dbf66c04-a155-49c8-884d-e33cb954e957","system_id":"levelo_inurba_marseille","lat":43.23152,"lon":5.43711,"is_reserved":false,"is_disabled":false,"rental_uris":{"android":"levelo://app?vid=dbf66c04-a155-49c8-884d-e33cb954e957","ios":"levelo://app?vid=dbf66c04-a155-49c8-884d-e33cb954e957"},"vehicle_type_id":"4","last_reported":1727946551,"current_range_meters":33200,"station_id":"ce4bhmp2rcd13ifvqgog","pricing_plan_id":"cebpf4jnsgd1na2vs0mg"},{"bike_id":"cb062a12-8a14-46a2-a748-dc0d1f44d078","system_id":"levelo_inurba_marseille","lat":43.24385,"lon":5.37053,"is_reserved":false,"is_disabled":false,"rental_uris":{"android":"levelo://app?vid=cb062a12-8a14-46a2-a748-dc0d1f44d078","ios":"levelo://app?vid=cb062a12-8a14-46a2-a748-dc0d1f44d078"},"vehicle_type_id":"4","last_reported":1727946551,"current_range_meters":37600,"station_id":"ce4bhhh2rcd13ifvqfk0","pricing_plan_id":"cebpf4jnsgd1na2vs0mg"},{"bike_id":"279deea5-d960-4cac-a348-cfd072a8fdd8","system_id":"levelo_inurba_marseille","lat":43.30901,"lon":5.36849,"is_reserved":false,"is_disabled":false,"rental_uris":{"android":"levelo://app?vid=279deea5-d960-4cac-a348-cfd072a8fdd8","ios":"levelo://app?vid=279deea5-d960-4cac-a348-cfd072a8fdd8"},"vehicle_type_id":"4","last_reported":1727946551,"current_range_meters":30800,"station_id":"ce4bgn92rcd13ifvqbvg","pricing_plan_id":"cebpf4jnsgd1na2vs0mg"},{"bike_id":"ae2c0fe3-3ce0-4ea7-8f94-a6382bf1ccfb","system_id":"levelo_inurba_marseille","lat":43.30461,"lon":5.37897,"is_reserved":false,"is_disabled":false,"rental_uris":{"android":"levelo://app?vid=ae2c0fe3-3ce0-4ea7-8f94-a6382bf1ccfb","ios":"levelo://app?vid=ae2c0fe3-3ce0-4ea7-8f94-a6382bf1ccfb"},"vehicle_type_id":"4","last_reported":1727946551,"current_range_meters":36800,"station_id":"ce4bgup2rcd13ifvqcn0","pricing_plan_id":"cebpf4jnsgd1na2vs0mg"},{"bike_id":"745217f8-70f1-4044-8150-392040e02af5","system_id":"levelo_inurba_marseille","lat":43.231903,"lon":5.355514,"is_reserved":false,"is_disabled":false,"rental_uris":{"android":"levelo://app?vid=745217f8-70f1-4044-8150-392040e02af5","ios":"levelo://app?vid=745217f8-70f1-4044-8150-392040e02af5"},"vehicle_type_id":"4","last_reported":1727946551,"current_range_meters":28000,"station_id":"ce4bhu92rcd13ifvqi70","pricing_plan_id":"cebpf4jnsgd1na2vs0mg"},{"bike_id":"11f82713-584b-4be0-b631-a50b1fdc6fb6","system_id":"levelo_inurba_marseille","lat":43.30906,"lon":5.36861,"is_reserved":false,"is_disabled":false,"rental_uris":{"android":"levelo://app?vid=11f82713-584b-4be0-b631-a50b1fdc6fb6","ios":"levelo://app?vid=11f82713-584b-4be0-b631-a50b1fdc6fb6"},"vehicle_type_id":"4","last_reported":1727946551,"current_range_meters":36800,"station_id":"ce4bgn92rcd13ifvqbvg","pricing_plan_id":"cebpf4jnsgd1na2vs0mg"},{"bike_id":"75b6d23c-8e6a-4f18-bb07-ff063c93e683","system_id":"levelo_inurba_marseille","lat":43.30909,"lon":5.36852,"is_reserved":false,"is_disabled":false,"rental_uris":{"android":"levelo://app?vid=75b6d23c-8e6a-4f18-bb07-ff063c93e683","ios":"levelo://app?vid=75b6d23c-8e6a-4f18-bb07-ff063c93e683"},"vehicle_type_id":"4","last_reported":1727946551,"current_range_meters":38800,"station_id":"ce4bgn92rcd13ifvqbvg","pricing_plan_id":"cebpf4jnsgd1na2vs0mg"},{"bike_id":"499dc340-c172-4ad4-832d-6490b563aa82","system_id":"levelo_inurba_marseille","lat":43.26484,"lon":5.39544,"is_reserved":false,"is_disabled":false,"rental_uris":{"android":"levelo://app?vid=499dc340-c172-4ad4-832d-6490b563aa82","ios":"levelo://app?vid=499dc340-c172-4ad4-832d-6490b563aa82"},"vehicle_type_id":"4","last_reported":1727946551,"current_range_meters":37600,"station_id":"ce4bhi12rcd13ifvqfq0","pricing_plan_id":"cebpf4jnsgd1na2vs0mg"},{"bike_id":"41a8569d-8b64-4720-9c16-3bf3446a76f2","system_id":"levelo_inurba_marseille","lat":43.27973,"lon":5.38735,"is_reserved":false,"is_disabled":false,"rental_uris":{"android":"levelo://app?vid=41a8569d-8b64-4720-9c16-3bf3446a76f2","ios":"levelo://app?vid=41a8569d-8b64-4720-9c16-3bf3446a76f2"},"vehicle_type_id":"4","last_reported":1727946551,"current_range_meters":6000,"station_id":"ce4bhg12rcd13ifvqf80","pricing_plan_id":"cebpf4jnsgd1na2vs0mg"},{"bike_id":"1fca1758-50fe-482c-9c88-42c4d06eb077","system_id":"levelo_inurba_marseille","lat":43.26192,"lon":5.37445,"is_reserved":false,"is_disabled":false,"rental_uris":{"android":"levelo://app?vid=1fca1758-50fe-482c-9c88-42c4d06eb077","ios":"levelo://app?vid=1fca1758-50fe-482c-9c88-42c4d06eb077"},"vehicle_type_id":"4","last_reported":1727946551,"current_range_meters":21600,"station_id":"ce4bhgp2rcd13ifvqfc0","pricing_plan_id":"cebpf4jnsgd1na2vs0mg"},{"bike_id":"ea6d897c-0aa3-4a37-861b-a832c9b406fe","system_id":"levelo_inurba_marseille","lat":43.26946,"lon":5.38637,"is_reserved":false,"is_disabled":false,"rental_uris":{"android":"levelo://app?vid=ea6d897c-0aa3-4a37-861b-a832c9b406fe","ios":"levelo://app?vid=ea6d897c-0aa3-4a37-861b-a832c9b406fe"},"vehicle_type_id":"4","last_reported":1727946551,"current_range_meters":36800,"station_id":"ce4bhh92rcd13ifvqfh0","pricing_plan_id":"cebpf4jnsgd1na2vs0mg"},{"bike_id":"b02e052a-761f-4ac4-8b08-349a22c0bd55","system_id":"levelo_inurba_marseille","lat":43.33022,"lon":5.39032,"is_reserved":false,"is_disabled":false,"rental_uris":{"android":"levelo://app?vid=b02e052a-761f-4ac4-8b08-349a22c0bd55","ios":"levelo://app?vid=b02e052a-761f-4ac4-8b08-349a22c0bd55"},"vehicle_type_id":"4","last_reported":1727946551,"current_range_meters":11200,"station_id":"ce4bhr92rcd13ifvqhrg","pricing_plan_id":"cebpf4jnsgd1na2vs0mg"},{"bike_id":"4a18e28e-9bad-4e5c-9538-59a77d5e7b0c","system_id":"levelo_inurba_marseille","lat":43.23147,"lon":5.43718,"is_reserved":false,"is_disabled":false,"rental_uris":{"android":"levelo://app?vid=4a18e28e-9bad-4e5c-9538-59a77d5e7b0c","ios":"levelo://app?vid=4a18e28e-9bad-4e5c-9538-59a77d5e7b0c"},"vehicle_type_id":"4","last_reported":1727946551,"current_range_meters":8400,"station_id":"ce4bhmp2rcd13ifvqgog","pricing_plan_id":"cebpf4jnsgd1na2vs0mg"},{"bike_id":"7e7091a9-a999-4555-bb09-8dd2d9ae0734","system_id":"levelo_inurba_marseille","lat":43.29259,"lon":5.3845,"is_reserved":false,"is_disabled":false,"rental_uris":{"android":"levelo://app?vid=7e7091a9-a999-4555-bb09-8dd2d9ae0734","ios":"levelo://app?vid=7e7091a9-a999-4555-bb09-8dd2d9ae0734"},"vehicle_type_id":"4","last_reported":1727946551,"current_range_meters":40000,"station_id":"ce4bh692rcd13ifvqea0","pricing_plan_id":"cebpf4jnsgd1na2vs0mg"},{"bike_id":"2b7b0848-4c2d-4d4e-ba86-9dcf7971875c","system_id":"levelo_inurba_marseille","lat":43.33747,"lon":5.37455,"is_reserved":false,"is_disabled":false,"rental_uris":{"android":"levelo://app?vid=2b7b0848-4c2d-4d4e-ba86-9dcf7971875c","ios":"levelo://app?vid=2b7b0848-4c2d-4d4e-ba86-9dcf7971875c"},"vehicle_type_id":"4","last_reported":1727946551,"current_range_meters":38000,"station_id":"","pricing_plan_id":"cebpf4jnsgd1na2vs0mg"},{"bike_id":"b6bf681e-ebb8-4c29-a568-b40a56d3b882","system_id":"levelo_inurba_marseille","lat":43.26062,"lon":5.39386,"is_reserved":false,"is_disabled":false,"rental_uris":{"android":"levelo://app?vid=b6bf681e-ebb8-4c29-a568-b40a56d3b882","ios":"levelo://app?vid=b6bf681e-ebb8-4c29-a568-b40a56d3b882"},"vehicle_type_id":"4","last_reported":1727946551,"current_range_meters":17200,"station_id":"ce4bhh92rcd13ifvqfj0","pricing_plan_id":"cebpf4jnsgd1na2vs0mg"},{"bike_id":"b4a3fa33-095e-4394-bb7c-ddc83eb83ed8","system_id":"levelo_inurba_marseille","lat":43.32485,"lon":5.36568,"is_reserved":false,"is_disabled":false,"rental_uris":{"android":"levelo://app?vid=b4a3fa33-095e-4394-bb7c-ddc83eb83ed8","ios":"levelo://app?vid=b4a3fa33-095e-4394-bb7c-ddc83eb83ed8"},"vehicle_type_id":"4","last_reported":1727946551,"current_range_meters":34800,"station_id":"ce4bhs12rcd13ifvqhvg","pricing_plan_id":"cebpf4jnsgd1na2vs0mg"},{"bike_id":"9fec9171-ecc3-4458-a490-f5c3b2300c5d","system_id":"levelo_inurba_marseille","lat":43.29259,"lon":5.40902,"is_reserved":false,"is_disabled":false,"rental_uris":{"android":"levelo://app?vid=9fec9171-ecc3-4458-a490-f5c3b2300c5d","ios":"levelo://app?vid=9fec9171-ecc3-4458-a490-f5c3b2300c5d"},"vehicle_type_id":"4","last_reported":1727946551,"current_range_meters":10800,"station_id":"ce4bh192rcd13ifvqdc0","pricing_plan_id":"cebpf4jnsgd1na2vs0mg"},{"bike_id":"81eda3eb-33d3-4cc5-8db3-507a0008778d","system_id":"levelo_inurba_marseille","lat":43.31358,"lon":5.36704,"is_reserved":false,"is_disabled":false,"rental_uris":{"android":"levelo://app?vid=81eda3eb-33d3-4cc5-8db3-507a0008778d","ios":"levelo://app?vid=81eda3eb-33d3-4cc5-8db3-507a0008778d"},"vehicle_type_id":"4","last_reported":1727946551,"current_range_meters":21600,"station_id":"ce4bgr92rcd13ifvqc6g","pricing_plan_id":"cebpf4jnsgd1na2vs0mg"},{"bike_id":"9005e603-eaee-4b75-8194-67715ec7fc55","system_id":"levelo_inurba_marseille","lat":43.3171,"lon":5.43702,"is_reserved":false,"is_disabled":false,"rental_uris":{"android":"levelo://app?vid=9005e603-eaee-4b75-8194-67715ec7fc55","ios":"levelo://app?vid=9005e603-eaee-4b75-8194-67715ec7fc55"},"vehicle_type_id":"4","last_reported":1727946551,"current_range_meters":30000,"station_id":"ce4bhp92rcd13ifvqhcg","pricing_plan_id":"cebpf4jnsgd1na2vs0mg"},{"bike_id":"b868d0a8-f18c-40e0-8a49-27f27af68cda","system_id":"levelo_inurba_marseille","lat":43.30157,"lon":5.37398,"is_reserved":false,"is_disabled":false,"rental_uris":{"android":"levelo://app?vid=b868d0a8-f18c-40e0-8a49-27f27af68cda","ios":"levelo://app?vid=b868d0a8-f18c-40e0-8a49-27f27af68cda"},"vehicle_type_id":"4","last_reported":1727946551,"current_range_meters":27600,"station_id":"ce4bgs92rcd13ifvqcc0","pricing_plan_id":"cebpf4jnsgd1na2vs0mg"},{"bike_id":"23fcd5dc-52e3-40b6-b601-8da82c35b64a","system_id":"levelo_inurba_marseille","lat":43.23195,"lon":5.35543,"is_reserved":false,"is_disabled":false,"rental_uris":{"android":"levelo://app?vid=23fcd5dc-52e3-40b6-b601-8da82c35b64a","ios":"levelo://app?vid=23fcd5dc-52e3-40b6-b601-8da82c35b64a"},"vehicle_type_id":"4","last_reported":1727946551,"current_range_meters":38400,"station_id":"ce4bhu92rcd13ifvqi70","pricing_plan_id":"cebpf4jnsgd1na2vs0mg"},{"bike_id":"4e96f5e5-51ad-40c7-a3fb-c7bccd283bdd","system_id":"levelo_inurba_marseille","lat":43.24533,"lon":5.39536,"is_reserved":false,"is_disabled":false,"rental_uris":{"android":"levelo://app?vid=4e96f5e5-51ad-40c7-a3fb-c7bccd283bdd","ios":"levelo://app?vid=4e96f5e5-51ad-40c7-a3fb-c7bccd283bdd"},"vehicle_type_id":"4","last_reported":1727946551,"current_range_meters":37600,"station_id":"ce4bhlp2rcd13ifvqgjg","pricing_plan_id":"cebpf4jnsgd1na2vs0mg"},{"bike_id":"f4d1402d-e441-432d-a09a-a111f1847214","system_id":"levelo_inurba_marseille","lat":43.31217,"lon":5.36871,"is_reserved":false,"is_disabled":false,"rental_uris":{"android":"levelo://app?vid=f4d1402d-e441-432d-a09a-a111f1847214","ios":"levelo://app?vid=f4d1402d-e441-432d-a09a-a111f1847214"},"vehicle_type_id":"4","last_reported":1727946551,"current_range_meters":26000,"station_id":"ce4bgl92rcd13ifvqbq0","pricing_plan_id":"cebpf4jnsgd1na2vs0mg"},{"bike_id":"c68bef59-90a1-4a73-a5bb-89bf003d66f4","system_id":"levelo_inurba_marseille","lat":43.288488,"lon":5.3932,"is_reserved":false,"is_disabled":false,"rental_uris":{"android":"levelo://app?vid=c68bef59-90a1-4a73-a5bb-89bf003d66f4","ios":"levelo://app?vid=c68bef59-90a1-4a73-a5bb-89bf003d66f4"},"vehicle_type_id":"4","last_reported":1727946551,"current_range_meters":34800,"station_id":"ce4bh2p2rcd13ifvqdi0","pricing_plan_id":"cebpf4jnsgd1na2vs0mg"},{"bike_id":"191b19a8-b761-40e7-819b-f3363e135386","system_id":"levelo_inurba_marseille","lat":43.28361,"lon":5.38631,"is_reserved":false,"is_disabled":false,"rental_uris":{"android":"levelo://app?vid=191b19a8-b761-40e7-819b-f3363e135386","ios":"levelo://app?vid=191b19a8-b761-40e7-819b-f3363e135386"},"vehicle_type_id":"4","last_reported":1727946551,"current_range_meters":32800,"station_id":"ce4bh492rcd13ifvqdvg","pricing_plan_id":"cebpf4jnsgd1na2vs0mg"},{"bike_id":"7d3e0c4d-ca7c-4de4-b417-1505937c7044","system_id":"levelo_inurba_marseille","lat":43.24391,"lon":5.37052,"is_reserved":false,"is_disabled":false,"rental_uris":{"android":"levelo://app?vid=7d3e0c4d-ca7c-4de4-b417-1505937c7044","ios":"levelo://app?vid=7d3e0c4d-ca7c-4de4-b417-1505937c7044"},"vehicle_type_id":"4","last_reported":1727946551,"current_range_meters":24400,"station_id":"ce4bhhh2rcd13ifvqfk0","pricing_plan_id":"cebpf4jnsgd1na2vs0mg"},{"bike_id":"b7e045a6-eed6-4838-826a-94999007f0a9","system_id":"levelo_inurba_marseille","lat":43.24067,"lon":5.37756,"is_reserved":false,"is_disabled":false,"rental_uris":{"android":"levelo://app?vid=b7e045a6-eed6-4838-826a-94999007f0a9","ios":"levelo://app?vid=b7e045a6-eed6-4838-826a-94999007f0a9"},"vehicle_type_id":"4","last_reported":1727946551,"current_range_meters":2800,"station_id":"ce4bhnp2rcd13ifvqgvg","pricing_plan_id":"cebpf4jnsgd1na2vs0mg"},{"bike_id":"d8046d6f-1cc4-499e-a281-c3325bd562b1","system_id":"levelo_inurba_marseille","lat":43.30802,"lon":5.38156,"is_reserved":false,"is_disabled":false,"rental_uris":{"android":"levelo://app?vid=d8046d6f-1cc4-499e-a281-c3325bd562b1","ios":"levelo://app?vid=d8046d6f-1cc4-499e-a281-c3325bd562b1"},"vehicle_type_id":"4","last_reported":1727946551,"current_range_meters":33200,"station_id":"ce4bgt12rcd13ifvqce0","pricing_plan_id":"cebpf4jnsgd1na2vs0mg"},{"bike_id":"b84c68c7-5cea-40fa-b6da-79f4dfc59a08","system_id":"levelo_inurba_marseille","lat":43.30539,"lon":5.36541,"is_reserved":false,"is_disabled":false,"rental_uris":{"android":"levelo://app?vid=b84c68c7-5cea-40fa-b6da-79f4dfc59a08","ios":"levelo://app?vid=b84c68c7-5cea-40fa-b6da-79f4dfc59a08"},"vehicle_type_id":"4","last_reported":1727946551,"current_range_meters":17200,"station_id":"ce4bgs12rcd13ifvqcag","pricing_plan_id":"cebpf4jnsgd1na2vs0mg"},{"bike_id":"5ee86fda-249e-4adc-9604-2116dd11e74b","system_id":"levelo_inurba_marseille","lat":43.3046,"lon":5.37904,"is_reserved":false,"is_disabled":false,"rental_uris":{"android":"levelo://app?vid=5ee86fda-249e-4adc-9604-2116dd11e74b","ios":"levelo://app?vid=5ee86fda-249e-4adc-9604-2116dd11e74b"},"vehicle_type_id":"4","last_reported":1727946551,"current_range_meters":9200,"station_id":"ce4bgup2rcd13ifvqcn0","pricing_plan_id":"cebpf4jnsgd1na2vs0mg"},{"bike_id":"fcc81f5e-6bec-497c-9e15-c43c05346028","system_id":"levelo_inurba_marseille","lat":43.26683,"lon":5.38266,"is_reserved":false,"is_disabled":false,"rental_uris":{"android":"levelo://app?vid=fcc81f5e-6bec-497c-9e15-c43c05346028","ios":"levelo://app?vid=fcc81f5e-6bec-497c-9e15-c43c05346028"},"vehicle_type_id":"4","last_reported":1727946551,"current_range_meters":39200,"station_id":"ce4bhg92rcd13ifvqf90","pricing_plan_id":"cebpf4jnsgd1na2vs0mg"},{"bike_id":"97eb5edc-36e5-49cb-80b9-7628fc0c7cdd","system_id":"levelo_inurba_marseille","lat":43.23962,"lon":5.36626,"is_reserved":false,"is_disabled":false,"rental_uris":{"android":"levelo://app?vid=97eb5edc-36e5-49cb-80b9-7628fc0c7cdd","ios":"levelo://app?vid=97eb5edc-36e5-49cb-80b9-7628fc0c7cdd"},"vehicle_type_id":"4","last_reported":1727946551,"current_range_meters":24800,"station_id":"ce4bhi12rcd13ifvqfp0","pricing_plan_id":"cebpf4jnsgd1na2vs0mg"},{"bike_id":"afee6bf6-8074-4b9b-9ab2-ccdb5b4ae612","system_id":"levelo_inurba_marseille","lat":43.26951,"lon":5.38636,"is_reserved":false,"is_disabled":false,"rental_uris":{"android":"levelo://app?vid=afee6bf6-8074-4b9b-9ab2-ccdb5b4ae612","ios":"levelo://app?vid=afee6bf6-8074-4b9b-9ab2-ccdb5b4ae612"},"vehicle_type_id":"4","last_reported":1727946551,"current_range_meters":31200,"station_id":"ce4bhh92rcd13ifvqfh0","pricing_plan_id":"cebpf4jnsgd1na2vs0mg"},{"bike_id":"53c0cac3-947b-4cb1-a27f-49a1b43a7af3","system_id":"levelo_inurba_marseille","lat":43.31343,"lon":5.36687,"is_reserved":false,"is_disabled":false,"rental_uris":{"android":"levelo://app?vid=53c0cac3-947b-4cb1-a27f-49a1b43a7af3","ios":"levelo://app?vid=53c0cac3-947b-4cb1-a27f-49a1b43a7af3"},"vehicle_type_id":"4","last_reported":1727946551,"current_range_meters":5600,"station_id":"","pricing_plan_id":"cebpf4jnsgd1na2vs0mg"},{"bike_id":"047222e4-208c-4910-9412-03e16105698a","system_id":"levelo_inurba_marseille","lat":43.258458,"lon":5.394365,"is_reserved":false,"is_disabled":false,"rental_uris":{"android":"levelo://app?vid=047222e4-208c-4910-9412-03e16105698a","ios":"levelo://app?vid=047222e4-208c-4910-9412-03e16105698a"},"vehicle_type_id":"4","last_reported":1727946551,"current_range_meters":23200,"station_id":"ce4bhip2rcd13ifvqft0","pricing_plan_id":"cebpf4jnsgd1na2vs0mg"},{"bike_id":"b19a95d0-4f06-48c7-a685-218383959f98","system_id":"levelo_inurba_marseille","lat":43.30944,"lon":5.39054,"is_reserved":false,"is_disabled":false,"rental_uris":{"android":"levelo://app?vid=b19a95d0-4f06-48c7-a685-218383959f98","ios":"levelo://app?vid=b19a95d0-4f06-48c7-a685-218383959f98"},"vehicle_type_id":"4","last_reported":1727946551,"current_range_meters":24000,"station_id":"ce4bgup2rcd13ifvqco0","pricing_plan_id":"cebpf4jnsgd1na2vs0mg"},{"bike_id":"0200794a-de98-4010-a486-a2288ee10edd","system_id":"levelo_inurba_marseille","lat":43.31341,"lon":5.36684,"is_reserved":false,"is_disabled":false,"rental_uris":{"android":"levelo://app?vid=0200794a-de98-4010-a486-a2288ee10edd","ios":"levelo://app?vid=0200794a-de98-4010-a486-a2288ee10edd"},"vehicle_type_id":"4","last_reported":1727946551,"current_range_meters":36400,"station_id":"","pricing_plan_id":"cebpf4jnsgd1na2vs0mg"},{"bike_id":"d9513a24-3235-43a7-b9a5-1c5cfe37603f","system_id":"levelo_inurba_marseille","lat":43.23058,"lon":5.35495,"is_reserved":false,"is_disabled":false,"rental_uris":{"android":"levelo://app?vid=d9513a24-3235-43a7-b9a5-1c5cfe37603f","ios":"levelo://app?vid=d9513a24-3235-43a7-b9a5-1c5cfe37603f"},"vehicle_type_id":"4","last_reported":1727946551,"current_range_meters":30400,"station_id":"cpo3342slgdg3j2ifvpg","pricing_plan_id":"cebpf4jnsgd1na2vs0mg"},{"bike_id":"f286867f-d26f-4f6a-8bdb-416a3f805843","system_id":"levelo_inurba_marseille","lat":43.30944,"lon":5.39054,"is_reserved":false,"is_disabled":false,"rental_uris":{"android":"levelo://app?vid=f286867f-d26f-4f6a-8bdb-416a3f805843","ios":"levelo://app?vid=f286867f-d26f-4f6a-8bdb-416a3f805843"},"vehicle_type_id":"4","last_reported":1727946551,"current_range_meters":35600,"station_id":"ce4bgup2rcd13ifvqco0","pricing_plan_id":"cebpf4jnsgd1na2vs0mg"},{"bike_id":"89f79560-9417-4d80-afea-9f3796d9baaf","system_id":"levelo_inurba_marseille","lat":43.337444,"lon":5.374475,"is_reserved":false,"is_disabled":false,"rental_uris":{"android":"levelo://app?vid=89f79560-9417-4d80-afea-9f3796d9baaf","ios":"levelo://app?vid=89f79560-9417-4d80-afea-9f3796d9baaf"},"vehicle_type_id":"4","last_reported":1727946551,"current_range_meters":11200,"station_id":"","pricing_plan_id":"cebpf4jnsgd1na2vs0mg"},{"bike_id":"61e68fff-f6b7-483a-af62-5dc656cc9f3b","system_id":"levelo_inurba_marseille","lat":43.30127,"lon":5.37431,"is_reserved":false,"is_disabled":false,"rental_uris":{"android":"levelo://app?vid=61e68fff-f6b7-483a-af62-5dc656cc9f3b","ios":"levelo://app?vid=61e68fff-f6b7-483a-af62-5dc656cc9f3b"},"vehicle_type_id":"4","last_reported":1727946551,"current_range_meters":38800,"station_id":"ce4bgs92rcd13ifvqcc0","pricing_plan_id":"cebpf4jnsgd1na2vs0mg"},{"bike_id":"7a6b4e75-1cb2-4959-8187-5691b78f74e7","system_id":"levelo_inurba_marseille","lat":43.32528,"lon":5.4146,"is_reserved":false,"is_disabled":false,"rental_uris":{"android":"levelo://app?vid=7a6b4e75-1cb2-4959-8187-5691b78f74e7","ios":"levelo://app?vid=7a6b4e75-1cb2-4959-8187-5691b78f74e7"},"vehicle_type_id":"4","last_reported":1727946551,"current_range_meters":39200,"station_id":"ce4bhq12rcd13ifvqhhg","pricing_plan_id":"cebpf4jnsgd1na2vs0mg"},{"bike_id":"74028ec2-d949-4cd6-992a-dd775d0088be","system_id":"levelo_inurba_marseille","lat":43.26057,"lon":5.39396,"is_reserved":false,"is_disabled":false,"rental_uris":{"android":"levelo://app?vid=74028ec2-d949-4cd6-992a-dd775d0088be","ios":"levelo://app?vid=74028ec2-d949-4cd6-992a-dd775d0088be"},"vehicle_type_id":"4","last_reported":1727946551,"current_range_meters":20400,"station_id":"ce4bhh92rcd13ifvqfj0","pricing_plan_id":"cebpf4jnsgd1na2vs0mg"},{"bike_id":"764c6c33-8c6d-4196-afca-b4f9d900a3fe","system_id":"levelo_inurba_marseille","lat":43.30139,"lon":5.37417,"is_reserved":false,"is_disabled":false,"rental_uris":{"android":"levelo://app?vid=764c6c33-8c6d-4196-afca-b4f9d900a3fe","ios":"levelo://app?vid=764c6c33-8c6d-4196-afca-b4f9d900a3fe"},"vehicle_type_id":"4","last_reported":1727946551,"current_range_meters":32400,"station_id":"ce4bgs92rcd13ifvqcc0","pricing_plan_id":"cebpf4jnsgd1na2vs0mg"},{"bike_id":"1f558af3-b91b-4ef6-b7f7-8674c58ea123","system_id":"levelo_inurba_marseille","lat":43.28365,"lon":5.38635,"is_reserved":false,"is_disabled":false,"rental_uris":{"android":"levelo://app?vid=1f558af3-b91b-4ef6-b7f7-8674c58ea123","ios":"levelo://app?vid=1f558af3-b91b-4ef6-b7f7-8674c58ea123"},"vehicle_type_id":"4","last_reported":1727946551,"current_range_meters":39200,"station_id":"ce4bh492rcd13ifvqdvg","pricing_plan_id":"cebpf4jnsgd1na2vs0mg"},{"bike_id":"edaeb330-7297-4118-983e-f0bbda19039c","system_id":"levelo_inurba_marseille","lat":43.24666,"lon":5.38159,"is_reserved":false,"is_disabled":false,"rental_uris":{"android":"levelo://app?vid=edaeb330-7297-4118-983e-f0bbda19039c","ios":"levelo://app?vid=edaeb330-7297-4118-983e-f0bbda19039c"},"vehicle_type_id":"4","last_reported":1727946551,"current_range_meters":8000,"station_id":"ce4bhih2rcd13ifvqfr0","pricing_plan_id":"cebpf4jnsgd1na2vs0mg"},{"bike_id":"9bf124ee-5cc5-4a86-aaf0-0555a3177f69","system_id":"levelo_inurba_marseille","lat":43.30559,"lon":5.36546,"is_reserved":false,"is_disabled":false,"rental_uris":{"android":"levelo://app?vid=9bf124ee-5cc5-4a86-aaf0-0555a3177f69","ios":"levelo://app?vid=9bf124ee-5cc5-4a86-aaf0-0555a3177f69"},"vehicle_type_id":"4","last_reported":1727946551,"current_range_meters":9600,"station_id":"ce4bgs12rcd13ifvqcag","pricing_plan_id":"cebpf4jnsgd1na2vs0mg"},{"bike_id":"4cd4ba35-fcc6-4b78-ba23-2f7989c45f8d","system_id":"levelo_inurba_marseille","lat":43.31112,"lon":5.3776,"is_reserved":false,"is_disabled":false,"rental_uris":{"android":"levelo://app?vid=4cd4ba35-fcc6-4b78-ba23-2f7989c45f8d","ios":"levelo://app?vid=4cd4ba35-fcc6-4b78-ba23-2f7989c45f8d"},"vehicle_type_id":"4","last_reported":1727946551,"current_range_meters":36800,"station_id":"ce4bgt92rcd13ifvqcg0","pricing_plan_id":"cebpf4jnsgd1na2vs0mg"},{"bike_id":"0f0f5130-87c2-4f06-aa07-b0d0de3a37a9","system_id":"levelo_inurba_marseille","lat":43.30937,"lon":5.39049,"is_reserved":false,"is_disabled":false,"rental_uris":{"android":"levelo://app?vid=0f0f5130-87c2-4f06-aa07-b0d0de3a37a9","ios":"levelo://app?vid=0f0f5130-87c2-4f06-aa07-b0d0de3a37a9"},"vehicle_type_id":"4","last_reported":1727946551,"current_range_meters":40000,"station_id":"ce4bgup2rcd13ifvqco0","pricing_plan_id":"cebpf4jnsgd1na2vs0mg"},{"bike_id":"990f5625-8ffc-4469-9ea2-f288902d19fe","system_id":"levelo_inurba_marseille","lat":43.31479,"lon":5.37307,"is_reserved":false,"is_disabled":false,"rental_uris":{"android":"levelo://app?vid=990f5625-8ffc-4469-9ea2-f288902d19fe","ios":"levelo://app?vid=990f5625-8ffc-4469-9ea2-f288902d19fe"},"vehicle_type_id":"4","last_reported":1727946551,"current_range_meters":16000,"station_id":"ce4bgt12rcd13ifvqcd0","pricing_plan_id":"cebpf4jnsgd1na2vs0mg"},{"bike_id":"c11e4bd0-e2c3-48ea-a4b3-91464161cb45","system_id":"levelo_inurba_marseille","lat":43.23965,"lon":5.36633,"is_reserved":false,"is_disabled":false,"rental_uris":{"android":"levelo://app?vid=c11e4bd0-e2c3-48ea-a4b3-91464161cb45","ios":"levelo://app?vid=c11e4bd0-e2c3-48ea-a4b3-91464161cb45"},"vehicle_type_id":"4","last_reported":1727946551,"current_range_meters":38800,"station_id":"ce4bhi12rcd13ifvqfp0","pricing_plan_id":"cebpf4jnsgd1na2vs0mg"},{"bike_id":"6969f528-4a62-42e3-84a6-9475bef01981","system_id":"levelo_inurba_marseille","lat":43.33611,"lon":5.41035,"is_reserved":false,"is_disabled":false,"rental_uris":{"android":"levelo://app?vid=6969f528-4a62-42e3-84a6-9475bef01981","ios":"levelo://app?vid=6969f528-4a62-42e3-84a6-9475bef01981"},"vehicle_type_id":"4","last_reported":1727946551,"current_range_meters":34000,"station_id":"ce4bhqh2rcd13ifvqhmg","pricing_plan_id":"cebpf4jnsgd1na2vs0mg"},