{"last_updated":1742289048,"ttl":60,"version":"2.2","data":{"bikes":[{"bike_id":"a3f097d4-10fd-4983-8fad-28cc4603e18d","system_id":"levelo_inurba_marseille","lat":43.24808,"lon":5.37456,"is_reserved":false,"is_disabled":false,"rental_uris":{"android":"levelo://app?vid=a3f097d4-10fd-4983-8fad-28cc4603e18d","ios":"levelo://app?vid=a3f097d4-10fd-4983-8fad-28cc4603e18d"},"vehicle_type_id":"4","last_reported":1742289048,"current_range_meters":2800,"station_id":"ce4bhgh2rcd13ifvqfb0","pricing_plan_id":"cebpf4jnsgd1na2vs0mg"},{"bike_id":"ab71e2fc-eceb-4ed3-973b-3a37e2302c79","system_id":"levelo_inurba_marseille","lat":43.29802,"lon":5.38107,"is_reserved":false,"is_disabled":false,"rental_uris":{"android":"levelo://app?vid=ab71e2fc-eceb-4ed3-973b-3a37e2302c79","ios":"levelo://app?vid=ab71e2fc-eceb-4ed3-973b-3a37e2302c79"},"vehicle_type_id":"4","last_reported":1742289048,"current_range_meters":2800,"station_id":"ce4bgip2rcd13ifvqbb0","pricing_plan_id":"cebpf4jnsgd1na2vs0mg"},{"bike_id":"bf4d20bd-647a-4445-bf45-847bb5bfcd3c","system_id":"levelo_inurba_marseille","lat":43.31369,"lon":5.36743,"is_reserved":false,"is_disabled":false,"rental_uris":{"android":"levelo://app?vid=bf4d20bd-647a-4445-bf45-847bb5bfcd3c","ios":"levelo://app?vid=bf4d20bd-647a-4445-bf45-847bb5bfcd3c"},"vehicle_type_id":"4","last_reported":1742289048,"current_range_meters":2800,"station_id":"ce4bgr92rcd13ifvqc6g","pricing_plan_id":"cebpf4jnsgd1na2vs0mg"},{"bike_id":"539a7915-6aec-45a2-88b2-da9d6c6b9fa9","system_id":"levelo_inurba_marseille","lat":43.29623,"lon":5.37161,"is_reserved":false,"is_disabled":false,"rental_uris":{"android":"levelo://app?vid=539a7915-6aec-45a2-88b2-da9d6c6b9fa9","ios":"levelo://app?vid=539a7915-6aec-45a2-88b2-da9d6c6b9fa9"},"vehicle_type_id":"4","last_reported":1742289048,"current_range_meters":2000,"station_id":"ce4bgnh2rcd13ifvqc0g","pricing_plan_id":"cebpf4jnsgd1na2vs0mg"},{"bike_id":"4bc9a97c-7416-4b10-9d31-f444bb1fad22","system_id":"levelo_inurba_marseille","lat":43.28722,"lon":5.37369,"is_reserved":false,"is_disabled":true,"rental_uris":{"android":"levelo://app?vid=4bc9a97c-7416-4b10-9d31-f444bb1fad22","ios":"levelo://app?vid=4bc9a97c-7416-4b10-9d31-f444bb1fad22"},"vehicle_type_id":"4","last_reported":1742289048,"current_range_meters":2000,"station_id":"ce4bh3p2rcd13ifvqdq0","pricing_plan_id":"cebpf4jnsgd1na2vs0mg"},{"bike_id":"3593a90d-b603-416f-b9d3-d7deec12b6d4","system_id":"levelo_inurba_marseille","lat":43.292284,"lon":5.360531,"is_reserved":false,"is_disabled":true,"rental_uris":{"android":"levelo://app?vid=3593a90d-b603-416f-b9d3-d7deec12b6d4","ios":"levelo://app?vid=3593a90d-b603-416f-b9d3-d7deec12b6d4"},"vehicle_type_id":"4","last_reported":1742289048,"current_range_meters":3200,"station_id":"ce4bha92rcd13ifvqeg0","pricing_plan_id":"cebpf4jnsgd1na2vs0mg"},{"bike_id":"87c8e88f-da97-484b-821d-9f5ba7bb2c46","system_id":"levelo_inurba_marseille","lat":43.29573,"lon":5.39971,"is_reserved":false,"is_disabled":false,"rental_uris":{"android":"levelo://app?vid=87c8e88f-da97-484b-821d-9f5ba7bb2c46","ios":"levelo://app?vid=87c8e88f-da97-484b-821d-9f5ba7bb2c46"},"vehicle_type_id":"4","last_reported":1742289048,"current_range_meters":2800,"station_id":"ce4bh312rcd13ifvqdj0","pricing_plan_id":"cebpf4jnsgd1na2vs0mg"},{"bike_id":"c9d53861-12ba-4edc-a002-a997cc309e1b","system_id":"levelo_inurba_marseille","lat":43.29799,"lon":5.38085,"is_reserved":false,"is_disabled":false,"rental_uris":{"android":"levelo://app?vid=c9d53861-12ba-4edc-a002-a997cc309e1b","ios":"levelo://app?vid=c9d53861-12ba-4edc-a002-a997cc309e1b"},"vehicle_type_id":"4","last_reported":1742289048,"current_range_meters":3200,"station_id":"ce4bgip2rcd13ifvqbb0","pricing_plan_id":"cebpf4jnsgd1na2vs0mg"},{"bike_id":"b6cdf110-b816-4043-a17c-0c205b85ffed","system_id":"levelo_inurba_marseille","lat":43.25588,"lon":5.38225,"is_reserved":false,"is_disabled":false,"rental_uris":{"android":"levelo://app?vid=b6cdf110-b816-4043-a17c-0c205b85ffed","ios":"levelo://app?vid=b6cdf110-b816-4043-a17c-0c205b85ffed"},"vehicle_type_id":"4","last_reported":1742289048,"current_range_meters":3200,"station_id":"ce4bhih2rcd13ifvqfs0","pricing_plan_id":"cebpf4jnsgd1na2vs0mg"},{"bike_id":"784d9120-add7-4963-ab75-e1eb7c983ec3","system_id":"levelo_inurba_marseille","lat":43.32485,"lon":5.36595,"is_reserved":false,"is_disabled":false,"rental_uris":{"android":"levelo://app?vid=784d9120-add7-4963-ab75-e1eb7c983ec3","ios":"levelo://app?vid=784d9120-add7-4963-ab75-e1eb7c983ec3"},"vehicle_type_id":"4","last_reported":1742289048,"current_range_meters":3600,"station_id":"ce4bhs12rcd13ifvqhvg","pricing_plan_id":"cebpf4jnsgd1na2vs0mg"},{"bike_id":"abd48a52-c8cc-4abb-a801-8dce64155a4a","system_id":"levelo_inurba_marseille","lat":43.25007,"lon":5.38952,"is_reserved":false,"is_disabled":false,"rental_uris":{"android":"levelo://app?vid=abd48a52-c8cc-4abb-a801-8dce64155a4a","ios":"levelo://app?vid=abd48a52-c8cc-4abb-a801-8dce64155a4a"},"vehicle_type_id":"4","last_reported":1742289048,"current_range_meters":3600,"station_id":"ce4bhgp2rcd13ifvqfd0","pricing_plan_id":"cebpf4jnsgd1na2vs0mg"},{"bike_id":"e39f083d-4542-4f7b-9173-1e8fe9e09597","system_id":"levelo_inurba_marseille","lat":43.27493,"lon":5.42467,"is_reserved":false,"is_disabled":true,"rental_uris":{"android":"levelo://app?vid=e39f083d-4542-4f7b-9173-1e8fe9e09597","ios":"levelo://app?vid=e39f083d-4542-4f7b-9173-1e8fe9e09597"},"vehicle_type_id":"4","last_reported":1742289048,"current_range_meters":3600,"station_id":"ce4bhn92rcd13ifvqgrg","pricing_plan_id":"cebpf4jnsgd1na2vs0mg"},{"bike_id":"e716de96-f6ed-4cd4-9be4-3d143eeaac14","system_id":"levelo_inurba_marseille","lat":43.24084,"lon":5.37741,"is_reserved":false,"is_disabled":false,"rental_uris":{"android":"levelo://app?vid=e716de96-f6ed-4cd4-9be4-3d143eeaac14","ios":"levelo://app?vid=e716de96-f6ed-4cd4-9be4-3d143eeaac14"},"vehicle_type_id":"4","last_reported":1742289048,"current_range_meters":3600,"station_id":"ce4bhnp2rcd13ifvqgvg","pricing_plan_id":"cebpf4jnsgd1na2vs0mg"},{"bike_id":"8fe397d1-0f69-4faf-95d9-5ccc5e1a02c4","system_id":"levelo_inurba_marseille","lat":43.24986,"lon":5.38929,"is_reserved":false,"is_disabled":false,"rental_uris":{"android":"levelo://app?vid=8fe397d1-0f69-4faf-95d9-5ccc5e1a02c4","ios":"levelo://app?vid=8fe397d1-0f69-4faf-95d9-5ccc5e1a02c4"},"vehicle_type_id":"4","last_reported":1742289048,"current_range_meters":3200,"station_id":"ce4bhgp2rcd13ifvqfd0","pricing_plan_id":"cebpf4jnsgd1na2vs0mg"},{"bike_id":"3321b332-d0a2-4d1d-8681-1afa7f086e3f","system_id":"levelo_inurba_marseille","lat":43.26192,"lon":5.37959,"is_reserved":false,"is_disabled":false,"rental_uris":{"android":"levelo://app?vid=3321b332-d0a2-4d1d-8681-1afa7f086e3f","ios":"levelo://app?vid=3321b332-d0a2-4d1d-8681-1afa7f086e3f"},"vehicle_type_id":"4","last_reported":1742289048,"current_range_meters":4000,"station_id":"ce4bhjp2rcd13ifvqg90","pricing_plan_id":"cebpf4jnsgd1na2vs0mg"},{"bike_id":"9db33768-0edf-4f21-9edd-ac42a5ac13c9","system_id":"levelo_inurba_marseille","lat":43.27499,"lon":5.42462,"is_reserved":false,"is_disabled":false,"rental_uris":{"android":"levelo://app?vid=9db33768-0edf-4f21-9edd-ac42a5ac13c9","ios":"levelo://app?vid=9db33768-0edf-4f21-9edd-ac42a5ac13c9"},"vehicle_type_id":"4","last_reported":1742289048,"current_range_meters":4000,"station_id":"ce4bhn92rcd13ifvqgrg","pricing_plan_id":"cebpf4jnsgd1na2vs0mg"},{"bike_id":"502301ce-d1b1-47b7-8584-cc97069d4398","system_id":"levelo_inurba_marseille","lat":43.28699,"lon":5.37394,"is_reserved":false,"is_disabled":false,"rental_uris":{"android":"levelo://app?vid=502301ce-d1b1-47b7-8584-cc97069d4398","ios":"levelo://app?vid=502301ce-d1b1-47b7-8584-cc97069d4398"},"vehicle_type_id":"4","last_reported":1742289048,"current_range_meters":4000,"station_id":"ce4bh3p2rcd13ifvqdq0","pricing_plan_id":"cebpf4jnsgd1na2vs0mg"},{"bike_id":"6457a333-7dd0-40a6-91ad-6e9b8b134cbe","system_id":"levelo_inurba_marseille","lat":43.24069,"lon":5.37751,"is_reserved":false,"is_disabled":false,"rental_uris":{"android":"levelo://app?vid=6457a333-7dd0-40a6-91ad-6e9b8b134cbe","ios":"levelo://app?vid=6457a333-7dd0-40a6-91ad-6e9b8b134cbe"},"vehicle_type_id":"4","last_reported":1742289048,"current_range_meters":4000,"station_id":"ce4bhnp2rcd13ifvqgvg","pricing_plan_id":"cebpf4jnsgd1na2vs0mg"},{"bike_id":"f400a41d-90ce-412e-a1a3-fdba722936d0","system_id":"levelo_inurba_marseille","lat":43.24076,"lon":5.37762,"is_reserved":false,"is_disabled":false,"rental_uris":{"android":"levelo://app?vid=f400a41d-90ce-412e-a1a3-fdba722936d0","ios":"levelo://app?vid=f400a41d-90ce-412e-a1a3-fdba722936d0"},"vehicle_type_id":"4","last_reported":1742289048,"current_range_meters":4000,"station_id":"ce4bhnp2rcd13ifvqgvg","pricing_plan_id":"cebpf4jnsgd1na2vs0mg"},{"bike_id":"6b8ffa9f-0e09-4bfb-a7c9-f730a8d18a65","system_id":"levelo_inurba_marseille","lat":43.24344,"lon":5.36996,"is_reserved":false,"is_disabled":false,"rental_uris":{"android":"levelo://app?vid=6b8ffa9f-0e09-4bfb-a7c9-f730a8d18a65","ios":"levelo://app?vid=6b8ffa9f-0e09-4bfb-a7c9-f730a8d18a65"},"vehicle_type_id":"4","last_reported":1742289048,"current_range_meters":4000,"station_id":"","pricing_plan_id":"cebpf4jnsgd1na2vs0mg"},{"bike_id":"42a7ecad-a6aa-45df-8947-506724db7f74","system_id":"levelo_inurba_marseille","lat":43.27925,"lon":5.39599,"is_reserved":false,"is_disabled":false,"rental_uris":{"android":"levelo://app?vid=42a7ecad-a6aa-45df-8947-506724db7f74","ios":"levelo://app?vid=42a7ecad-a6aa-45df-8947-506724db7f74"},"vehicle_type_id":"4","last_reported":1742289048,"current_range_meters":4000,"station_id":"ce4bhf92rcd13ifvqf40","pricing_plan_id":"cebpf4jnsgd1na2vs0mg"},{"bike_id":"a9a2521c-06b5-4b24-8608-95e056675135","system_id":"levelo_inurba_marseille","lat":43.27421,"lon":5.39445,"is_reserved":false,"is_disabled":false,"rental_uris":{"android":"levelo://app?vid=a9a2521c-06b5-4b24-8608-95e056675135","ios":"levelo://app?vid=a9a2521c-06b5-4b24-8608-95e056675135"},"vehicle_type_id":"4","last_reported":1742289048,"current_range_meters":4400,"station_id":"ce4bhdp2rcd13ifvqf20","pricing_plan_id":"cebpf4jnsgd1na2vs0mg"},{"bike_id":"a561f3af-dc1c-4af4-b9a4-ead55b35e495","system_id":"levelo_inurba_marseille","lat":43.23189,"lon":5.3556,"is_reserved":false,"is_disabled":false,"rental_uris":{"android":"levelo://app?vid=a561f3af-dc1c-4af4-b9a4-ead55b35e495","ios":"levelo://app?vid=a561f3af-dc1c-4af4-b9a4-ead55b35e495"},"vehicle_type_id":"4","last_reported":1742289048,"current_range_meters":4400,"station_id":"ce4bhu92rcd13ifvqi70","pricing_plan_id":"cebpf4jnsgd1na2vs0mg"},{"bike_id":"86cd9e90-44cb-4b43-9437-e8fdd60d4ad0","system_id":"levelo_inurba_marseille","lat":43.274947,"lon":5.424547,"is_reserved":false,"is_disabled":false,"rental_uris":{"android":"levelo://app?vid=86cd9e90-44cb-4b43-9437-e8fdd60d4ad0","ios":"levelo://app?vid=86cd9e90-44cb-4b43-9437-e8fdd60d4ad0"},"vehicle_type_id":"4","last_reported":1742289048,"current_range_meters":4400,"station_id":"ce4bhn92rcd13ifvqgrg","pricing_plan_id":"cebpf4jnsgd1na2vs0mg"},{"bike_id":"9498b8d1-1a26-4adb-94b7-abf5278caff7","system_id":"levelo_inurba_marseille","lat":43.25877,"lon":5.39894,"is_reserved":false,"is_disabled":false,"rental_uris":{"android":"levelo://app?vid=9498b8d1-1a26-4adb-94b7-abf5278caff7","ios":"levelo://app?vid=9498b8d1-1a26-4adb-94b7-abf5278caff7"},"vehicle_type_id":"4","last_reported":1742289048,"current_range_meters":4400,"station_id":"ce4bhl92rcd13ifvqghg","pricing_plan_id":"cebpf4jnsgd1na2vs0mg"},{"bike_id":"43c8207c-26dc-456c-a71a-f9eb93c79664","system_id":"levelo_inurba_marseille","lat":43.30221,"lon":5.39441,"is_reserved":false,"is_disabled":true,"rental_uris":{"android":"levelo://app?vid=43c8207c-26dc-456c-a71a-f9eb93c79664","ios":"levelo://app?vid=43c8207c-26dc-456c-a71a-f9eb93c79664"},"vehicle_type_id":"4","last_reported":1742289048,"current_range_meters":4400,"station_id":"ce4bh0p2rcd13ifvqd70","pricing_plan_id":"cebpf4jnsgd1na2vs0mg"},{"bike_id":"3c0dabc6-0847-4951-ac26-af01521265d8","system_id":"levelo_inurba_marseille","lat":43.31686,"lon":5.369703,"is_reserved":false,"is_disabled":false,"rental_uris":{"android":"levelo://app?vid=3c0dabc6-0847-4951-ac26-af01521265d8","ios":"levelo://app?vid=3c0dabc6-0847-4951-ac26-af01521265d8"},"vehicle_type_id":"4","last_reported":1742289048,"current_range_meters":4400,"station_id":"ce4bhrh2rcd13ifvqhug","pricing_plan_id":"cebpf4jnsgd1na2vs0mg"},{"bike_id":"74620aff-b1f0-4b60-8841-bc8a0a2edc3e","system_id":"levelo_inurba_marseille","lat":43.23199,"lon":5.35555,"is_reserved":false,"is_disabled":false,"rental_uris":{"android":"levelo://app?vid=74620aff-b1f0-4b60-8841-bc8a0a2edc3e","ios":"levelo://app?vid=74620aff-b1f0-4b60-8841-bc8a0a2edc3e"},"vehicle_type_id":"4","last_reported":1742289048,"current_range_meters":4800,"station_id":"ce4bhu92rcd13ifvqi70","pricing_plan_id":"cebpf4jnsgd1na2vs0mg"},{"bike_id":"804128c7-633e-4c74-b021-ca536452f71f","system_id":"levelo_inurba_marseille","lat":43.31481,"lon":5.37305,"is_reserved":false,"is_disabled":false,"rental_uris":{"android":"levelo://app?vid=804128c7-633e-4c74-b021-ca536452f71f","ios":"levelo://app?vid=804128c7-633e-4c74-b021-ca536452f71f"},"vehicle_type_id":"4","last_reported":1742289048,"current_range_meters":4800,"station_id":"ce4bgt12rcd13ifvqcd0","pricing_plan_id":"cebpf4jnsgd1na2vs0mg"},{"bike_id":"259b2a62-eee3-46d4-9ba2-779b7755c371","system_id":"levelo_inurba_marseille","lat":43.26212,"lon":5.37443,"is_reserved":false,"is_disabled":true,"rental_uris":{"android":"levelo://app?vid=259b2a62-eee3-46d4-9ba2-779b7755c371","ios":"levelo://app?vid=259b2a62-eee3-46d4-9ba2-779b7755c371"},"vehicle_type_id":"4","last_reported":1742289048,"current_range_meters":4800,"station_id":"ce4bhgp2rcd13ifvqfc0","pricing_plan_id":"cebpf4jnsgd1na2vs0mg"},{"bike_id":"021238b5-2b9d-46d2-b80c-a5e816fdc135","system_id":"levelo_inurba_marseille","lat":43.29514,"lon":5.42487,"is_reserved":false,"is_disabled":false,"rental_uris":{"android":"levelo://app?vid=021238b5-2b9d-46d2-b80c-a5e816fdc135","ios":"levelo://app?vid=021238b5-2b9d-46d2-b80c-a5e816fdc135"},"vehicle_type_id":"4","last_reported":1742289048,"current_range_meters":4800,"station_id":"","pricing_plan_id":"cebpf4jnsgd1na2vs0mg"},{"bike_id":"c70d435c-2d58-4350-bb81-881acc979a21","system_id":"levelo_inurba_marseille","lat":43.22945,"lon":5.35379,"is_reserved":false,"is_disabled":false,"rental_uris":{"android":"levelo://app?vid=c70d435c-2d58-4350-bb81-881acc979a21","ios":"levelo://app?vid=c70d435c-2d58-4350-bb81-881acc979a21"},"vehicle_type_id":"4","last_reported":1742289048,"current_range_meters":4800,"station_id":"cpo3532slgdg3j2ikp40","pricing_plan_id":"cebpf4jnsgd1na2vs0mg"},{"bike_id":"2b7011fc-7dee-42c2-86d6-7293fa23c29b","system_id":"levelo_inurba_marseille","lat":43.286136,"lon":5.35108,"is_reserved":false,"is_disabled":true,"rental_uris":{"android":"levelo://app?vid=2b7011fc-7dee-42c2-86d6-7293fa23c29b","ios":"levelo://app?vid=2b7011fc-7dee-42c2-86d6-7293fa23c29b"},"vehicle_type_id":"4","last_reported":1742289048,"current_range_meters":4800,"station_id":"","pricing_plan_id":"cebpf4jnsgd1na2vs0mg"},{"bike_id":"5cfc60fd-a0bc-40a4-8145-0002e4a7b29e","system_id":"levelo_inurba_marseille","lat":43.24179,"lon":5.39728,"is_reserved":false,"is_disabled":false,"rental_uris":{"android":"levelo://app?vid=5cfc60fd-a0bc-40a4-8145-0002e4a7b29e","ios":"levelo://app?vid=5cfc60fd-a0bc-40a4-8145-0002e4a7b29e"},"vehicle_type_id":"4","last_reported":1742289048,"current_range_meters":4800,"station_id":"ce4bhn12rcd13ifvqgpg","pricing_plan_id":"cebpf4jnsgd1na2vs0mg"},{"bike_id":"ab829935-e4d8-4f05-8ec7-b2b12e5923d6","system_id":"levelo_inurba_marseille","lat":43.29634,"lon":5.4059,"is_reserved":false,"is_disabled":false,"rental_uris":{"android":"levelo://app?vid=ab829935-e4d8-4f05-8ec7-b2b12e5923d6","ios":"levelo://app?vid=ab829935-e4d8-4f05-8ec7-b2b12e5923d6"},"vehicle_type_id":"4","last_reported":1742289048,"current_range_meters":4400,"station_id":"ce4bh0h2rcd13ifvqd60","pricing_plan_id":"cebpf4jnsgd1na2vs0mg"},{"bike_id":"9b901284-d22c-458a-a33b-2c3451cdee4f","system_id":"levelo_inurba_marseille","lat":43.24997,"lon":5.38927,"is_reserved":false,"is_disabled":false,"rental_uris":{"android":"levelo://app?vid=9b901284-d22c-458a-a33b-2c3451cdee4f","ios":"levelo://app?vid=9b901284-d22c-458a-a33b-2c3451cdee4f"},"vehicle_type_id":"4","last_reported":1742289048,"current_range_meters":4800,"station_id":"ce4bhgp2rcd13ifvqfd0","pricing_plan_id":"cebpf4jnsgd1na2vs0mg"},{"bike_id":"4e98cc9a-2c15-4e32-9793-e01bc10451a4","system_id":"levelo_inurba_marseille","lat":43.26922,"lon":5.38661,"is_reserved":false,"is_disabled":false,"rental_uris":{"android":"levelo://app?vid=4e98cc9a-2c15-4e32-9793-e01bc10451a4","ios":"levelo://app?vid=4e98cc9a-2c15-4e32-9793-e01bc10451a4"},"vehicle_type_id":"4","last_reported":1742289048,"current_range_meters":5600,"station_id":"ce4bhh92rcd13ifvqfh0","pricing_plan_id":"cebpf4jnsgd1na2vs0mg"},{"bike_id":"9dcb622a-e621-4cef-b659-02a845217b91","system_id":"levelo_inurba_marseille","lat":43.3238,"lon":5.3887,"is_reserved":false,"is_disabled":false,"rental_uris":{"android":"levelo://app?vid=9dcb622a-e621-4cef-b659-02a845217b91","ios":"levelo://app?vid=9dcb622a-e621-4cef-b659-02a845217b91"},"vehicle_type_id":"4","last_reported":1742289048,"current_range_meters":5600,"station_id":"ce4bhqp2rcd13ifvqhog","pricing_plan_id":"cebpf4jnsgd1na2vs0mg"},{"bike_id":"919d8e58-a470-4e08-825a-6dd140c949fe","system_id":"levelo_inurba_marseille","lat":43.30308,"lon":5.36876,"is_reserved":false,"is_disabled":false,"rental_uris":{"android":"levelo://app?vid=919d8e58-a470-4e08-825a-6dd140c949fe","ios":"levelo://app?vid=919d8e58-a470-4e08-825a-6dd140c949fe"},"vehicle_type_id":"4","last_reported":1742289048,"current_range_meters":5600,"station_id":"ce4bgqh2rcd13ifvqc5g","pricing_plan_id":"cebpf4jnsgd1na2vs0mg"},{"bike_id":"9ee8265a-0fdc-4849-933f-8351e6c3b1de","system_id":"levelo_inurba_marseille","lat":43.23184,"lon":5.40011,"is_reserved":false,"is_disabled":false,"rental_uris":{"android":"levelo://app?vid=9ee8265a-0fdc-4849-933f-8351e6c3b1de","ios":"levelo://app?vid=9ee8265a-0fdc-4849-933f-8351e6c3b1de"},"vehicle_type_id":"4","last_reported":1742289048,"current_range_meters":5600,"station_id":"ce4bhn12rcd13ifvqgqg","pricing_plan_id":"cebpf4jnsgd1na2vs0mg"},{"bike_id":"bc8366ae-3c50-4279-bc44-f2d507109285","system_id":"levelo_inurba_marseille","lat":43.2827,"lon":5.35061,"is_reserved":false,"is_disabled":false,"rental_uris":{"android":"levelo://app?vid=bc8366ae-3c50-4279-bc44-f2d507109285","ios":"levelo://app?vid=bc8366ae-3c50-4279-bc44-f2d507109285"},"vehicle_type_id":"4","last_reported":1742289048,"current_range_meters":6000,"station_id":"ce4bhbp2rcd13ifvqerg","pricing_plan_id":"cebpf4jnsgd1na2vs0mg"},{"bike_id":"4d46e037-8954-462a-b34f-64963174e243","system_id":"levelo_inurba_marseille","lat":43.279339,"lon":5.411314,"is_reserved":false,"is_disabled":false,"rental_uris":{"android":"levelo://app?vid=4d46e037-8954-462a-b34f-64963174e243","ios":"levelo://app?vid=4d46e037-8954-462a-b34f-64963174e243"},"vehicle_type_id":"4","last_reported":1742289048,"current_range_meters":6000,"station_id":"","pricing_plan_id":"cebpf4jnsgd1na2vs0mg"},{"bike_id":"40d52e74-1999-437f-acf3-0bd9d37c759c","system_id":"levelo_inurba_marseille","lat":43.31217,"lon":5.36869,"is_reserved":false,"is_disabled":false,"rental_uris":{"android":"levelo://app?vid=40d52e74-1999-437f-acf3-0bd9d37c759c","ios":"levelo://app?vid=40d52e74-1999-437f-acf3-0bd9d37c759c"},"vehicle_type_id":"4","last_reported":1742289048,"current_range_meters":6000,"station_id":"ce4bgl92rcd13ifvqbq0","pricing_plan_id":"cebpf4jnsgd1na2vs0mg"},{"bike_id":"2bccc7ba-380a-4c14-b3e9-87e4e9df9a00","system_id":"levelo_inurba_marseille","lat":43.30564,"lon":5.36527,"is_reserved":false,"is_disabled":false,"rental_uris":{"android":"levelo://app?vid=2bccc7ba-380a-4c14-b3e9-87e4e9df9a00","ios":"levelo://app?vid=2bccc7ba-380a-4c14-b3e9-87e4e9df9a00"},"vehicle_type_id":"4","last_reported":1742289048,"current_range_meters":6000,"station_id":"ce4bgs12rcd13ifvqcag","pricing_plan_id":"cebpf4jnsgd1na2vs0mg"},{"bike_id":"9feeabdb-29d4-4f9e-9317-3955db79aeec","system_id":"levelo_inurba_marseille","lat":43.31357,"lon":5.38494,"is_reserved":false,"is_disabled":false,"rental_uris":{"android":"levelo://app?vid=9feeabdb-29d4-4f9e-9317-3955db79aeec","ios":"levelo://app?vid=9feeabdb-29d4-4f9e-9317-3955db79aeec"},"vehicle_type_id":"4","last_reported":1742289048,"current_range_meters":5600,"station_id":"ce4bgt92rcd13ifvqcf0","pricing_plan_id":"cebpf4jnsgd1na2vs0mg"},{"bike_id":"4c48a1e8-9634-41bb-bd23-7728db1b3820","system_id":"levelo_inurba_marseille","lat":43.29007,"lon":5.35608,"is_reserved":false,"is_disabled":false,"rental_uris":{"android":"levelo://app?vid=4c48a1e8-9634-41bb-bd23-7728db1b3820","ios":"levelo://app?vid=4c48a1e8-9634-41bb-bd23-7728db1b3820"},"vehicle_type_id":"4","last_reported":1742289048,"current_range_meters":5600,"station_id":"ce4bhb92rcd13ifvqen0","pricing_plan_id":"cebpf4jnsgd1na2vs0mg"},{"bike_id":"9a876529-7704-4aa8-90c0-945912f0b5b2","system_id":"levelo_inurba_marseille","lat":43.23155,"lon":5.43704,"is_reserved":false,"is_disabled":false,"rental_uris":{"android":"levelo://app?vid=9a876529-7704-4aa8-90c0-945912f0b5b2","ios":"levelo://app?vid=9a876529-7704-4aa8-90c0-945912f0b5b2"},"vehicle_type_id":"4","last_reported":1742289048,"current_range_meters":5600,"station_id":"ce4bhmp2rcd13ifvqgog","pricing_plan_id":"cebpf4jnsgd1na2vs0mg"},{"bike_id":"299e1023-94f9-44ff-aa28-69259b9be03b","system_id":"levelo_inurba_marseille","lat":43.3136,"lon":5.36704,"is_reserved":false,"is_disabled":false,"rental_uris":{"android":"levelo://app?vid=299e1023-94f9-44ff-aa28-69259b9be03b","ios":"levelo://app?vid=299e1023-94f9-44ff-aa28-69259b9be03b"},"vehicle_type_id":"4","last_reported":1742289048,"current_range_meters":6400,"station_id":"ce4bgr92rcd13ifvqc6g","pricing_plan_id":"cebpf4jnsgd1na2vs0mg"},{"bike_id":"2e116e74-087e-4a0e-8f61-9da0c1714d44","system_id":"levelo_inurba_marseille","lat":43.26028,"lon":5.41752,"is_reserved":false,"is_disabled":false,"rental_uris":{"android":"levelo://app?vid=2e116e74-087e-4a0e-8f61-9da0c1714d44","ios":"levelo://app?vid=2e116e74-087e-4a0e-8f61-9da0c1714d44"},"vehicle_type_id":"4","last_reported":1742289048,"current_range_meters":6400,"station_id":"","pricing_plan_id":"cebpf4jnsgd1na2vs0mg"},{"bike_id":"c54ce81b-17ae-4bbd-9817-7db2b440c88f","system_id":"levelo_inurba_marseille","lat":43.296,"lon":5.37735,"is_reserved":false,"is_disabled":false,"rental_uris":{"android":"levelo://app?vid=c54ce81b-17ae-4bbd-9817-7db2b440c88f","ios":"levelo://app?vid=c54ce81b-17ae-4bbd-9817-7db2b440c88f"},"vehicle_type_id":"4","last_reported":1742289048,"current_range_meters":6400,"station_id":"ce4bgi92rcd13ifvqb90","pricing_plan_id":"cebpf4jnsgd1na2vs0mg"},{"bike_id":"1ffc2ce7-fc8d-4088-8af1-7c559d45ff56","system_id":"levelo_inurba_marseille","lat":43.31397,"lon":5.36685,"is_reserved":false,"is_disabled":false,"rental_uris":{"android":"levelo://app?vid=1ffc2ce7-fc8d-4088-8af1-7c559d45ff56","ios":"levelo://app?vid=1ffc2ce7-fc8d-4088-8af1-7c559d45ff56"},"vehicle_type_id":"4","last_reported":1742289048,"current_range_meters":6400,"station_id":"ce4bgr92rcd13ifvqc6g","pricing_plan_id":"cebpf4jnsgd1na2vs0mg"},{"bike_id":"e95151cd-abc4-4dae-8ab5-1de4cba734f5","system_id":"levelo_inurba_marseille","lat":43.24174,"lon":5.39719,"is_reserved":false,"is_disabled":false,"rental_uris":{"android":"levelo://app?vid=e95151cd-abc4-4dae-8ab5-1de4cba734f5","ios":"levelo://app?vid=e95151cd-abc4-4dae-8ab5-1de4cba734f5"},"vehicle_type_id":"4","last_reported":1742289048,"current_range_meters":6400,"station_id":"ce4bhn12rcd13ifvqgpg","pricing_plan_id":"cebpf4jnsgd1na2vs0mg"},{"bike_id":"2e2b336b-74aa-4bc7-9bcb-98974336f2d7","system_id":"levelo_inurba_marseille","lat":43.2408,"lon":5.37714,"is_reserved":false,"is_disabled":false,"rental_uris":{"android":"levelo://app?vid=2e2b336b-74aa-4bc7-9bcb-98974336f2d7","ios":"levelo://app?vid=2e2b336b-74aa-4bc7-9bcb-98974336f2d7"},"vehicle_type_id":"4","last_reported":1742289048,"current_range_meters":6400,"station_id":"ce4bhnp2rcd13ifvqgvg","pricing_plan_id":"cebpf4jnsgd1na2vs0mg"},{"bike_id":"40805b97-fadb-44c2-9cd1-665899423e7e","system_id":"levelo_inurba_marseille","lat":43.25718,"lon":5.41112,"is_reserved":false,"is_disabled":false,"rental_uris":{"android":"levelo://app?vid=40805b97-fadb-44c2-9cd1-665899423e7e","ios":"levelo://app?vid=40805b97-fadb-44c2-9cd1-665899423e7e"},"vehicle_type_id":"4","last_reported":1742289048,"current_range_meters":6400,"station_id":"ce4bhkp2rcd13ifvqgd0","pricing_plan_id":"cebpf4jnsgd1na2vs0mg"},{"bike_id":"f7c857bd-4ed8-41c9-8704-9eff12a04d79","system_id":"levelo_inurba_marseille","lat":43.25931,"lon":5.40909,"is_reserved":false,"is_disabled":false,"rental_uris":{"android":"levelo://app?vid=f7c857bd-4ed8-41c9-8704-9eff12a04d79","ios":"levelo://app?vid=f7c857bd-4ed8-41c9-8704-9eff12a04d79"},"vehicle_type_id":"4","last_reported":1742289048,"current_range_meters":6400,"station_id":"ce4bhm92rcd13ifvqglg","pricing_plan_id":"cebpf4jnsgd1na2vs0mg"},{"bike_id":"33da823e-775b-4948-94de-d448c6b7682d","system_id":"levelo_inurba_marseille","lat":43.30542,"lon":5.36708,"is_reserved":false,"is_disabled":false,"rental_uris":{"android":"levelo://app?vid=33da823e-775b-4948-94de-d448c6b7682d","ios":"levelo://app?vid=33da823e-775b-4948-94de-d448c6b7682d"},"vehicle_type_id":"4","last_reported":1742289048,"current_range_meters":6800,"station_id":"ce4bgrp2rcd13ifvqc9g","pricing_plan_id":"cebpf4jnsgd1na2vs0mg"},{"bike_id":"73ba6054-b256-49f9-a881-8617a962027d","system_id":"levelo_inurba_marseille","lat":43.23057,"lon":5.35492,"is_reserved":false,"is_disabled":false,"rental_uris":{"android":"levelo://app?vid=73ba6054-b256-49f9-a881-8617a962027d","ios":"levelo://app?vid=73ba6054-b256-49f9-a881-8617a962027d"},"vehicle_type_id":"4","last_reported":1742289048,"current_range_meters":6800,"station_id":"cpo3342slgdg3j2ifvpg","pricing_plan_id":"cebpf4jnsgd1na2vs0mg"},{"bike_id":"057c4299-c24d-4a02-8ede-b4bf9523726b","system_id":"levelo_inurba_marseille","lat":43.23155,"lon":5.43719,"is_reserved":false,"is_disabled":false,"rental_uris":{"android":"levelo://app?vid=057c4299-c24d-4a02-8ede-b4bf9523726b","ios":"levelo://app?vid=057c4299-c24d-4a02-8ede-b4bf9523726b"},"vehicle_type_id":"4","last_reported":1742289048,"current_range_meters":6800,"station_id":"ce4bhmp2rcd13ifvqgog","pricing_plan_id":"cebpf4jnsgd1na2vs0mg"},{"bike_id":"d1676c12-45d0-460a-ab7d-e6bd42a8628c","system_id":"levelo_inurba_marseille","lat":43.25933,"lon":5.40909,"is_reserved":false,"is_disabled":false,"rental_uris":{"android":"levelo://app?vid=d1676c12-45d0-460a-ab7d-e6bd42a8628c","ios":"levelo://app?vid=d1676c12-45d0-460a-ab7d-e6bd42a8628c"},"vehicle_type_id":"4","last_reported":1742289048,"current_range_meters":6800,"station_id":"ce4bhm92rcd13ifvqglg","pricing_plan_id":"cebpf4jnsgd1na2vs0mg"},{"bike_id":"674c7d07-458f-47e4-acaf-0f15d57730f7","system_id":"levelo_inurba_marseille","lat":43.25503,"lon":5.37647,"is_reserved":false,"is_disabled":false,"rental_uris":{"android":"levelo://app?vid=674c7d07-458f-47e4-acaf-0f15d57730f7","ios":"levelo://app?vid=674c7d07-458f-47e4-acaf-0f15d57730f7"},"vehicle_type_id":"4","last_reported":1742289048,"current_range_meters":6800,"station_id":"ce4bhh12rcd13ifvqff0","pricing_plan_id":"cebpf4jnsgd1na2vs0mg"},{"bike_id":"fa5f15ab-8994-45e1-84de-31aa4c8b3ced","system_id":"levelo_inurba_marseille","lat":43.23189,"lon":5.35548,"is_reserved":false,"is_disabled":false,"rental_uris":{"android":"levelo://app?vid=fa5f15ab-8994-45e1-84de-31aa4c8b3ced","ios":"levelo://app?vid=fa5f15ab-8994-45e1-84de-31aa4c8b3ced"},"vehicle_type_id":"4","last_reported":1742289048,"current_range_meters":6800,"station_id":"ce4bhu92rcd13ifvqi70","pricing_plan_id":"cebpf4jnsgd1na2vs0mg"},{"bike_id":"e60a0425-d5c0-4d92-98e3-5c113deede8f","system_id":"levelo_inurba_marseille","lat":43.28353,"lon":5.38654,"is_reserved":false,"is_disabled":false,"rental_uris":{"android":"levelo://app?vid=e60a0425-d5c0-4d92-98e3-5c113deede8f","ios":"levelo://app?vid=e60a0425-d5c0-4d92-98e3-5c113deede8f"},"vehicle_type_id":"4","last_reported":1742289048,"current_range_meters":6800,"station_id":"ce4bh492rcd13ifvqdvg","pricing_plan_id":"cebpf4jnsgd1na2vs0mg"},{"bike_id":"443a43ca-6da0-4460-8048-a31901ee5c6d","system_id":"levelo_inurba_marseille","lat":43.31342,"lon":5.36719,"is_reserved":false,"is_disabled":false,"rental_uris":{"android":"levelo://app?vid=443a43ca-6da0-4460-8048-a31901ee5c6d","ios":"levelo://app?vid=443a43ca-6da0-4460-8048-a31901ee5c6d"},"vehicle_type_id":"4","last_reported":1742289048,"current_range_meters":6800,"station_id":"ce4bgr92rcd13ifvqc6g","pricing_plan_id":"cebpf4jnsgd1na2vs0mg"},{"bike_id":"e4808e8d-c82b-492a-9d20-0fe0e70a9d6c","system_id":"levelo_inurba_marseille","lat":43.29611,"lon":5.38103,"is_reserved":false,"is_disabled":false,"rental_uris":{"android":"levelo://app?vid=e4808e8d-c82b-492a-9d20-0fe0e70a9d6c","ios":"levelo://app?vid=e4808e8d-c82b-492a-9d20-0fe0e70a9d6c"},"vehicle_type_id":"4","last_reported":1742289048,"current_range_meters":6800,"station_id":"ce4bgl12rcd13ifvqbo0","pricing_plan_id":"cebpf4jnsgd1na2vs0mg"},{"bike_id":"b54a649d-2707-4569-87ee-d2c230e19409","system_id":"levelo_inurba_marseille","lat":43.27479,"lon":5.40895,"is_reserved":false,"is_disabled":false,"rental_uris":{"android":"levelo://app?vid=b54a649d-2707-4569-87ee-d2c230e19409","ios":"levelo://app?vid=b54a649d-2707-4569-87ee-d2c230e19409"},"vehicle_type_id":"4","last_reported":1742289048,"current_range_meters":6800,"station_id":"","pricing_plan_id":"cebpf4jnsgd1na2vs0mg"},{"bike_id":"dd117a7c-a536-40a1-91af-43693b0b8fe5","system_id":"levelo_inurba_marseille","lat":43.25956,"lon":5.40899,"is_reserved":false,"is_disabled":false,"rental_uris":{"android":"levelo://app?vid=dd117a7c-a536-40a1-91af-43693b0b8fe5","ios":"levelo://app?vid=dd117a7c-a536-40a1-91af-43693b0b8fe5"},"vehicle_type_id":"4","last_reported":1742289048,"current_range_meters":6800,"station_id":"ce4bhm92rcd13ifvqglg","pricing_plan_id":"cebpf4jnsgd1na2vs0mg"},{"bike_id":"645ff95b-2318-40d2-93be-25d0ea6d77e1","system_id":"levelo_inurba_marseille","lat":43.26206,"lon":5.37926,"is_reserved":false,"is_disabled":false,"rental_uris":{"android":"levelo://app?vid=645ff95b-2318-40d2-93be-25d0ea6d77e1","ios":"levelo://app?vid=645ff95b-2318-40d2-93be-25d0ea6d77e1"},"vehicle_type_id":"4","last_reported":1742289048,"current_range_meters":6800,"station_id":"ce4bhjp2rcd13ifvqg90","pricing_plan_id":"cebpf4jnsgd1na2vs0mg"},{"bike_id":"25ced1d0-c7f3-4b5e-b25e-0f66ead06834","system_id":"levelo_inurba_marseille","lat":43.25856,"lon":5.39907,"is_reserved":false,"is_disabled":true,"rental_uris":{"android":"levelo://app?vid=25ced1d0-c7f3-4b5e-b25e-0f66ead06834","ios":"levelo://app?vid=25ced1d0-c7f3-4b5e-b25e-0f66ead06834"},"vehicle_type_id":"4","last_reported":1742289048,"current_range_meters":7200,"station_id":"ce4bhl92rcd13ifvqghg","pricing_plan_id":"cebpf4jnsgd1na2vs0mg"},{"bike_id":"3c459cd2-8768-488c-884c-cabac00659be","system_id":"levelo_inurba_marseille","lat":43.298,"lon":5.381,"is_reserved":false,"is_disabled":false,"rental_uris":{"android":"levelo://app?vid=3c459cd2-8768-488c-884c-cabac00659be","ios":"levelo://app?vid=3c459cd2-8768-488c-884c-cabac00659be"},"vehicle_type_id":"4","last_reported":1742289048,"current_range_meters":7200,"station_id":"ce4bgip2rcd13ifvqbb0","pricing_plan_id":"cebpf4jnsgd1na2vs0mg"},{"bike_id":"d155b6d7-4f04-4869-a663-a1baa5b8f97e","system_id":"levelo_inurba_marseille","lat":43.231931,"lon":5.355575,"is_reserved":false,"is_disabled":false,"rental_uris":{"android":"levelo://app?vid=d155b6d7-4f04-4869-a663-a1baa5b8f97e","ios":"levelo://app?vid=d155b6d7-4f04-4869-a663-a1baa5b8f97e"},"vehicle_type_id":"4","last_reported":1742289048,"current_range_meters":7200,"station_id":"ce4bhu92rcd13ifvqi70","pricing_plan_id":"cebpf4jnsgd1na2vs0mg"},{"bike_id":"358749a9-bf0f-4427-9316-55aeb97b46e4","system_id":"levelo_inurba_marseille","lat":43.31374,"lon":5.36724,"is_reserved":false,"is_disabled":false,"rental_uris":{"android":"levelo://app?vid=358749a9-bf0f-4427-9316-55aeb97b46e4","ios":"levelo://app?vid=358749a9-bf0f-4427-9316-55aeb97b46e4"},"vehicle_type_id":"4","last_reported":1742289048,"current_range_meters":7200,"station_id":"ce4bgr92rcd13ifvqc6g","pricing_plan_id":"cebpf4jnsgd1na2vs0mg"},{"bike_id":"096f3235-a03e-44a1-ad27-a43f61217ea3","system_id":"levelo_inurba_marseille","lat":43.26681,"lon":5.38272,"is_reserved":false,"is_disabled":false,"rental_uris":{"android":"levelo://app?vid=096f3235-a03e-44a1-ad27-a43f61217ea3","ios":"levelo://app?vid=096f3235-a03e-44a1-ad27-a43f61217ea3"},"vehicle_type_id":"4","last_reported":1742289048,"current_range_meters":6800,"station_id":"ce4bhg92rcd13ifvqf90","pricing_plan_id":"cebpf4jnsgd1na2vs0mg"},{"bike_id":"a721223e-025d-42c9-b095-5c32c709b862","system_id":"levelo_inurba_marseille","lat":43.27071,"lon":5.42278,"is_reserved":false,"is_disabled":false,"rental_uris":{"android":"levelo://app?vid=a721223e-025d-42c9-b095-5c32c709b862","ios":"levelo://app?vid=a721223e-025d-42c9-b095-5c32c709b862"},"vehicle_type_id":"4","last_reported":1742289048,"current_range_meters":7200,"station_id":"ce4bhk92rcd13ifvqgb0","pricing_plan_id":"cebpf4jnsgd1na2vs0mg"},{"bike_id":"fc592314-6ddb-4b06-8ab3-83aa73e7be47","system_id":"levelo_inurba_marseille","lat":43.31081,"lon":5.42449,"is_reserved":false,"is_disabled":false,"rental_uris":{"android":"levelo://app?vid=fc592314-6ddb-4b06-8ab3-83aa73e7be47","ios":"levelo://app?vid=fc592314-6ddb-4b06-8ab3-83aa73e7be47"},"vehicle_type_id":"4","last_reported":1742289048,"current_range_meters":7200,"station_id":"ce4bhp92rcd13ifvqhag","pricing_plan_id":"cebpf4jnsgd1na2vs0mg"},{"bike_id":"edc13dec-1194-467d-8488-eaf3051c2717","system_id":"levelo_inurba_marseille","lat":43.308167,"lon":5.388192,"is_reserved":false,"is_disabled":false,"rental_uris":{"android":"levelo://app?vid=edc13dec-1194-467d-8488-eaf3051c2717","ios":"levelo://app?vid=edc13dec-1194-467d-8488-eaf3051c2717"},"vehicle_type_id":"4","last_reported":1742289048,"current_range_meters":8000,"station_id":"ce4bh4p2rcd13ifvqe1g","pricing_plan_id":"cebpf4jnsgd1na2vs0mg"},{"bike_id":"b1b41327-66f3-4983-ac80-93a6af2a034d","system_id":"levelo_inurba_marseille","lat":43.23066,"lon":5.35485,"is_reserved":false,"is_disabled":false,"rental_uris":{"android":"levelo://app?vid=b1b41327-66f3-4983-ac80-93a6af2a034d","ios":"levelo://app?vid=b1b41327-66f3-4983-ac80-93a6af2a034d"},"vehicle_type_id":"4","last_reported":1742289048,"current_range_meters":8000,"station_id":"cpo3342slgdg3j2ifvpg","pricing_plan_id":"cebpf4jnsgd1na2vs0mg"},{"bike_id":"6d8e8090-a4c7-4966-a3f4-a833922b9e5a","system_id":"levelo_inurba_marseille","lat":43.23206,"lon":5.35586,"is_reserved":false,"is_disabled":false,"rental_uris":{"android":"levelo://app?vid=6d8e8090-a4c7-4966-a3f4-a833922b9e5a","ios":"levelo://app?vid=6d8e8090-a4c7-4966-a3f4-a833922b9e5a"},"vehicle_type_id":"4","last_reported":1742289048,"current_range_meters":8000,"station_id":"ce4bhu92rcd13ifvqi70","pricing_plan_id":"cebpf4jnsgd1na2vs0mg"},{"bike_id":"2665cc4b-07ed-4ae6-a66f-2b09983c709d","system_id":"levelo_inurba_marseille","lat":43.33761,"lon":5.37489,"is_reserved":false,"is_disabled":false,"rental_uris":{"android":"levelo://app?vid=2665cc4b-07ed-4ae6-a66f-2b09983c709d","ios":"levelo://app?vid=2665cc4b-07ed-4ae6-a66f-2b09983c709d"},"vehicle_type_id":"4","last_reported":1742289048,"current_range_meters":8000,"station_id":"","pricing_plan_id":"cebpf4jnsgd1na2vs0mg"},{"bike_id":"7078dcbf-f47c-43c3-a870-34db39af921d","system_id":"levelo_inurba_marseille","lat":43.26202,"lon":5.379344,"is_reserved":false,"is_disabled":false,"rental_uris":{"android":"levelo://app?vid=7078dcbf-f47c-43c3-a870-34db39af921d","ios":"levelo://app?vid=7078dcbf-f47c-43c3-a870-34db39af921d"},"vehicle_type_id":"4","last_reported":1742289048,"current_range_meters":8000,"station_id":"ce4bhjp2rcd13ifvqg90","pricing_plan_id":"cebpf4jnsgd1na2vs0mg"},{"bike_id":"7e2fd363-1345-4671-93c3-9edc4652ce3c","system_id":"levelo_inurba_marseille","lat":43.240767,"lon":5.377467,"is_reserved":false,"is_disabled":false,"rental_uris":{"android":"levelo://app?vid=7e2fd363-1345-4671-93c3-9edc4652ce3c","ios":"levelo://app?vid=7e2fd363-1345-4671-93c3-9edc4652ce3c"},"vehicle_type_id":"4","last_reported":1742289048,"current_range_meters":8000,"station_id":"ce4bhnp2rcd13ifvqgvg","pricing_plan_id":"cebpf4jnsgd1na2vs0mg"},{"bike_id":"2c682ea6-4469-4f96-8519-814c870062cb","system_id":"levelo_inurba_marseille","lat":43.24382,"lon":5.3705,"is_reserved":false,"is_disabled":false,"rental_uris":{"android":"levelo://app?vid=2c682ea6-4469-4f96-8519-814c870062cb","ios":"levelo://app?vid=2c682ea6-4469-4f96-8519-814c870062cb"},"vehicle_type_id":"4","last_reported":1742289048,"current_range_meters":8000,"station_id":"ce4bhhh2rcd13ifvqfk0","pricing_plan_id":"cebpf4jnsgd1na2vs0mg"},{"bike_id":"0d3accb9-853e-4df0-b9d8-4607b8048f46","system_id":"levelo_inurba_marseille","lat":43.24166,"lon":5.36396,"is_reserved":false,"is_disabled":false,"rental_uris":{"android":"levelo://app?vid=0d3accb9-853e-4df0-b9d8-4607b8048f46","ios":"levelo://app?vid=0d3accb9-853e-4df0-b9d8-4607b8048f46"},"vehicle_type_id":"4","last_reported":1742289048,"current_range_meters":8000,"station_id":"cpo36qri1sfpv3e86is0","pricing_plan_id":"cebpf4jnsgd1na2vs0mg"},{"bike_id":"831df63a-07b0-45d0-97a5-ddebc7803c49","system_id":"levelo_inurba_marseille","lat":43.26681,"lon":5.38267,"is_reserved":false,"is_disabled":false,"rental_uris":{"android":"levelo://app?vid=831df63a-07b0-45d0-97a5-ddebc7803c49","ios":"levelo://app?vid=831df63a-07b0-45d0-97a5-ddebc7803c49"},"vehicle_type_id":"4","last_reported":1742289048,"current_range_meters":8000,"station_id":"ce4bhg92rcd13ifvqf90","pricing_plan_id":"cebpf4jnsgd1na2vs0mg"},{"bike_id":"ad552d4b-dc7e-45d1-ab1a-030768554e99","system_id":"levelo_inurba_marseille","lat":43.27497,"lon":5.42471,"is_reserved":false,"is_disabled":false,"rental_uris":{"android":"levelo://app?vid=ad552d4b-dc7e-45d1-ab1a-030768554e99","ios":"levelo://app?vid=ad552d4b-dc7e-45d1-ab1a-030768554e99"},"vehicle_type_id":"4","last_reported":1742289048,"current_range_meters":8000,"station_id":"ce4bhn92rcd13ifvqgrg","pricing_plan_id":"cebpf4jnsgd1na2vs0mg"},{"bike_id":"737a1d64-a21d-4452-b1f9-a22f87a8d6bd","system_id":"levelo_inurba_marseille","lat":43.23078,"lon":5.35497,"is_reserved":false,"is_disabled":false,"rental_uris":{"android":"levelo://app?vid=737a1d64-a21d-4452-b1f9-a22f87a8d6bd","ios":"levelo://app?vid=737a1d64-a21d-4452-b1f9-a22f87a8d6bd"},"vehicle_type_id":"4","last_reported":1742289048,"current_range_meters":8000,"station_id":"cpo3342slgdg3j2ifvpg","pricing_plan_id":"cebpf4jnsgd1na2vs0mg"},{"bike_id":"deda48ed-52b8-4927-8fe6-7c89c7071170","system_id":"levelo_inurba_marseille","lat":43.24085,"lon":5.3775,"is_reserved":false,"is_disabled":false,"rental_uris":{"android":"levelo://app?vid=deda48ed-52b8-4927-8fe6-7c89c7071170","ios":"levelo://app?vid=deda48ed-52b8-4927-8fe6-7c89c7071170"},"vehicle_type_id":"4","last_reported":1742289048,"current_range_meters":8000,"station_id":"ce4bhnp2rcd13ifvqgvg","pricing_plan_id":"cebpf4jnsgd1na2vs0mg"},{"bike_id":"70533b04-4f86-4823-8b2b-60cfc8ad8617","system_id":"levelo_inurba_marseille","lat":43.31343,"lon":5.36732,"is_reserved":false,"is_disabled":false,"rental_uris":{"android":"levelo://app?vid=70533b04-4f86-4823-8b2b-60cfc8ad8617","ios":"levelo://app?vid=70533b04-4f86-4823-8b2b-60cfc8ad8617"},"vehicle_type_id":"4","last_reported":1742289048,"current_range_meters":8000,"station_id":"ce4bgr92rcd13ifvqc6g","pricing_plan_id":"cebpf4jnsgd1na2vs0mg"},{"bike_id":"6d527f34-1ee7-445a-8e78-2ab5c724d4c9","system_id":"levelo_inurba_marseille","lat":43.29601,"lon":5.37717,"is_reserved":false,"is_disabled":false,"rental_uris":{"android":"levelo://app?vid=6d527f34-1ee7-445a-8e78-2ab5c724d4c9","ios":"levelo://app?vid=6d527f34-1ee7-445a-8e78-2ab5c724d4c9"},"vehicle_type_id":"4","last_reported":1742289048,"current_range_meters":8000,"station_id":"ce4bgi92rcd13ifvqb90","pricing_plan_id":"cebpf4jnsgd1na2vs0mg"},{"bike_id":"5acfff0d-6883-40b9-90d2-621af333cea4","system_id":"levelo_inurba_marseille","lat":43.25924,"lon":5.40911,"is_reserved":false,"is_disabled":false,"rental_uris":{"android":"levelo://app?vid=5acfff0d-6883-40b9-90d2-621af333cea4","ios":"levelo://app?vid=5acfff0d-6883-40b9-90d2-621af333cea4"},"vehicle_type_id":"4","last_reported":1742289048,"current_range_meters":8400,"station_id":"ce4bhm92rcd13ifvqglg","pricing_plan_id":"cebpf4jnsgd1na2vs0mg"},{"bike_id":"eb1c77a5-e872-49f2-aab4-89bb7dbdea8c","system_id":"levelo_inurba_marseille","lat":43.26683,"lon":5.38272,"is_reserved":false,"is_disabled":false,"rental_uris":{"android":"levelo://app?vid=eb1c77a5-e872-49f2-aab4-89bb7dbdea8c","ios":"levelo://app?vid=eb1c77a5-e872-49f2-aab4-89bb7dbdea8c"},"vehicle_type_id":"4","last_reported":1742289048,"current_range_meters":8400,"station_id":"ce4bhg92rcd13ifvqf90","pricing_plan_id":"cebpf4jnsgd1na2vs0mg"},{"bike_id":"9a82933c-4cbf-4e7f-8492-c81d97d1d570","system_id":"levelo_inurba_marseille","lat":43.33608,"lon":5.41033,"is_reserved":false,"is_disabled":false,"rental_uris":{"android":"levelo://app?vid=9a82933c-4cbf-4e7f-8492-c81d97d1d570","ios":"levelo://app?vid=9a82933c-4cbf-4e7f-8492-c81d97d1d570"},"vehicle_type_id":"4","last_reported":1742289048,"current_range_meters":8400,"station_id":"ce4bhqh2rcd13ifvqhmg","pricing_plan_id":"cebpf4jnsgd1na2vs0mg"},{"bike_id":"8fe7e33b-57fc-439c-ba02-015988635c80","system_id":"levelo_inurba_marseille","lat":43.270711,"lon":5.422804,"is_reserved":false,"is_disabled":true,"rental_uris":{"android":"levelo://app?vid=8fe7e33b-57fc-439c-ba02-015988635c80","ios":"levelo://app?vid=8fe7e33b-57fc-439c-ba02-015988635c80"},"vehicle_type_id":"4","last_reported":1742289048,"current_range_meters":8400,"station_id":"ce4bhk92rcd13ifvqgb0","pricing_plan_id":"cebpf4jnsgd1na2vs0mg"},{"bike_id":"bf53558a-323c-40e3-9c37-ac64ba388e1c","system_id":"levelo_inurba_marseille","lat":43.23959,"lon":5.36632,"is_reserved":false,"is_disabled":false,"rental_uris":{"android":"levelo://app?vid=bf53558a-323c-40e3-9c37-ac64ba388e1c","ios":"levelo://app?vid=bf53558a-323c-40e3-9c37-ac64ba388e1c"},"vehicle_type_id":"4","last_reported":1742289048,"current_range_meters":8400,"station_id":"ce4bhi12rcd13ifvqfp0","pricing_plan_id":"cebpf4jnsgd1na2vs0mg"},{"bike_id":"82d3dad7-63f3-4a7e-8219-54f8cb3f7636","system_id":"levelo_inurba_marseille","lat":43.23145,"lon":5.4372,"is_reserved":false,"is_disabled":false,"rental_uris":{"android":"levelo://app?vid=82d3dad7-63f3-4a7e-8219-54f8cb3f7636","ios":"levelo://app?vid=82d3dad7-63f3-4a7e-8219-54f8cb3f7636"},"vehicle_type_id":"4","last_reported":1742289048,"current_range_meters":8800,"station_id":"ce4bhmp2rcd13ifvqgog","pricing_plan_id":"cebpf4jnsgd1na2vs0mg"},{"bike_id":"1b3cc6c9-4228-43d9-b632-b84cec2340c1","system_id":"levelo_inurba_marseille","lat":43.28158,"lon":5.42645,"is_reserved":false,"is_disabled":false,"rental_uris":{"android":"levelo://app?vid=1b3cc6c9-4228-43d9-b632-b84cec2340c1","ios":"levelo://app?vid=1b3cc6c9-4228-43d9-b632-b84cec2340c1"},"vehicle_type_id":"4","last_reported":1742289048,"current_range_meters":8800,"station_id":"ce4bhnh2rcd13ifvqgug","pricing_plan_id":"cebpf4jnsgd1na2vs0mg"},{"bike_id":"97a1e633-c2b3-487e-8569-9036bf18d175","system_id":"levelo_inurba_marseille","lat":43.24169,"lon":5.36401,"is_reserved":false,"is_disabled":false,"rental_uris":{"android":"levelo://app?vid=97a1e633-c2b3-487e-8569-9036bf18d175","ios":"levelo://app?vid=97a1e633-c2b3-487e-8569-9036bf18d175"},"vehicle_type_id":"4","last_reported":1742289048,"current_range_meters":8800,"station_id":"cpo36qri1sfpv3e86is0","pricing_plan_id":"cebpf4jnsgd1na2vs0mg"},{"bike_id":"0414c92c-7144-48ed-abc0-69cdccd9ea5d","system_id":"levelo_inurba_marseille","lat":43.24178,"lon":5.39729,"is_reserved":false,"is_disabled":false,"rental_uris":{"android":"levelo://app?vid=0414c92c-7144-48ed-abc0-69cdccd9ea5d","ios":"levelo://app?vid=0414c92c-7144-48ed-abc0-69cdccd9ea5d"},"vehicle_type_id":"4","last_reported":1742289048,"current_range_meters":8800,"station_id":"ce4bhn12rcd13ifvqgpg","pricing_plan_id":"cebpf4jnsgd1na2vs0mg"},{"bike_id":"ef511bc9-127f-4f4c-82af-5f8602d7eff9","system_id":"levelo_inurba_marseille","lat":43.31394,"lon":5.36692,"is_reserved":false,"is_disabled":false,"rental_uris":{"android":"levelo://app?vid=ef511bc9-127f-4f4c-82af-5f8602d7eff9","ios":"levelo://app?vid=ef511bc9-127f-4f4c-82af-5f8602d7eff9"},"vehicle_type_id":"4","last_reported":1742289048,"current_range_meters":8800,"station_id":"","pricing_plan_id":"cebpf4jnsgd1na2vs0mg"},{"bike_id":"b73d4104-b747-4b3f-9858-c508f4b18edd","system_id":"levelo_inurba_marseille","lat":43.32484,"lon":5.36612,"is_reserved":false,"is_disabled":false,"rental_uris":{"android":"levelo://app?vid=b73d4104-b747-4b3f-9858-c508f4b18edd","ios":"levelo://app?vid=b73d4104-b747-4b3f-9858-c508f4b18edd"},"vehicle_type_id":"4","last_reported":1742289048,"current_range_meters":8800,"station_id":"ce4bhs12rcd13ifvqhvg","pricing_plan_id":"cebpf4jnsgd1na2vs0mg"},{"bike_id":"b98e3221-2ae6-41a2-9202-ae163e9517f2","system_id":"levelo_inurba_marseille","lat":43.25577,"lon":5.38224,"is_reserved":false,"is_disabled":false,"rental_uris":{"android":"levelo://app?vid=b98e3221-2ae6-41a2-9202-ae163e9517f2","ios":"levelo://app?vid=b98e3221-2ae6-41a2-9202-ae163e9517f2"},"vehicle_type_id":"4","last_reported":1742289048,"current_range_meters":8800,"station_id":"ce4bhih2rcd13ifvqfs0","pricing_plan_id":"cebpf4jnsgd1na2vs0mg"},{"bike_id":"5f45fabe-4370-4661-8c5d-1ccb3acdd2c3","system_id":"levelo_inurba_marseille","lat":43.32341,"lon":5.38902,"is_reserved":false,"is_disabled":false,"rental_uris":{"android":"levelo://app?vid=5f45fabe-4370-4661-8c5d-1ccb3acdd2c3","ios":"levelo://app?vid=5f45fabe-4370-4661-8c5d-1ccb3acdd2c3"},"vehicle_type_id":"4","last_reported":1742289048,"current_range_meters":8800,"station_id":"ce4bhqp2rcd13ifvqhog","pricing_plan_id":"cebpf4jnsgd1na2vs0mg"},{"bike_id":"ea7f16e6-de90-4692-b642-b4503d1ac536","system_id":"levelo_inurba_marseille","lat":43.24388,"lon":5.37057,"is_reserved":false,"is_disabled":false,"rental_uris":{"android":"levelo://app?vid=ea7f16e6-de90-4692-b642-b4503d1ac536","ios":"levelo://app?vid=ea7f16e6-de90-4692-b642-b4503d1ac536"},"vehicle_type_id":"4","last_reported":1742289048,"current_range_meters":9200,"station_id":"ce4bhhh2rcd13ifvqfk0","pricing_plan_id":"cebpf4jnsgd1na2vs0mg"},{"bike_id":"c9cc1538-4895-4ffe-a613-2e59efa5161b","system_id":"levelo_inurba_marseille","lat":43.28271,"lon":5.35065,"is_reserved":false,"is_disabled":false,"rental_uris":{"android":"levelo://app?vid=c9cc1538-4895-4ffe-a613-2e59efa5161b","ios":"levelo://app?vid=c9cc1538-4895-4ffe-a613-2e59efa5161b"},"vehicle_type_id":"4","last_reported":1742289048,"current_range_meters":9200,"station_id":"ce4bhbp2rcd13ifvqerg","pricing_plan_id":"cebpf4jnsgd1na2vs0mg"},{"bike_id":"1834627c-efb2-4695-9839-3a1bd82adef9","system_id":"levelo_inurba_marseille","lat":43.29566,"lon":5.37532,"is_reserved":false,"is_disabled":false,"rental_uris":{"android":"levelo://app?vid=1834627c-efb2-4695-9839-3a1bd82adef9","ios":"levelo://app?vid=1834627c-efb2-4695-9839-3a1bd82adef9"},"vehicle_type_id":"4","last_reported":1742289048,"current_range_meters":9200,"station_id":"ce4bgh92rcd13ifvqb50","pricing_plan_id":"cebpf4jnsgd1na2vs0mg"},{"bike_id":"08058f9b-5fd7-489c-a6cd-58711359da60","system_id":"levelo_inurba_marseille","lat":43.32533,"lon":5.41441,"is_reserved":false,"is_disabled":false,"rental_uris":{"android":"levelo://app?vid=08058f9b-5fd7-489c-a6cd-58711359da60","ios":"levelo://app?vid=08058f9b-5fd7-489c-a6cd-58711359da60"},"vehicle_type_id":"4","last_reported":1742289048,"current_range_meters":9200,"station_id":"ce4bhq12rcd13ifvqhhg","pricing_plan_id":"cebpf4jnsgd1na2vs0mg"},{"bike_id":"2dff31a0-4383-4cdd-a663-019526a3cfe7","system_id":"levelo_inurba_marseille","lat":43.28661,"lon":5.38664,"is_reserved":false,"is_disabled":false,"rental_uris":{"android":"levelo://app?vid=2dff31a0-4383-4cdd-a663-019526a3cfe7","ios":"levelo://app?vid=2dff31a0-4383-4cdd-a663-019526a3cfe7"},"vehicle_type_id":"4","last_reported":1742289048,"current_range_meters":9200,"station_id":"ce4bh492rcd13ifvqdug","pricing_plan_id":"cebpf4jnsgd1na2vs0mg"},{"bike_id":"ac13bb18-fac9-468b-a3ac-62f37833720e","system_id":"levelo_inurba_marseille","lat":43.29251,"lon":5.37634,"is_reserved":false,"is_disabled":false,"rental_uris":{"android":"levelo://app?vid=ac13bb18-fac9-468b-a3ac-62f37833720e","ios":"levelo://app?vid=ac13bb18-fac9-468b-a3ac-62f37833720e"},"vehicle_type_id":"4","last_reported":1742289048,"current_range_meters":9200,"station_id":"ce4bgi12rcd13ifvqb80","pricing_plan_id":"cebpf4jnsgd1na2vs0mg"},{"bike_id":"4bbbb9b8-8089-4f8a-9ab6-e8434065d7cd","system_id":"levelo_inurba_marseille","lat":43.29071,"lon":5.37179,"is_reserved":false,"is_disabled":false,"rental_uris":{"android":"levelo://app?vid=4bbbb9b8-8089-4f8a-9ab6-e8434065d7cd","ios":"levelo://app?vid=4bbbb9b8-8089-4f8a-9ab6-e8434065d7cd"},"vehicle_type_id":"4","last_reported":1742289048,"current_range_meters":9600,"station_id":"ce4bh5p2rcd13ifvqe4g","pricing_plan_id":"cebpf4jnsgd1na2vs0mg"},{"bike_id":"cc127605-97f5-449d-ad23-12b6f80c9639","system_id":"levelo_inurba_marseille","lat":43.29299,"lon":5.37453,"is_reserved":false,"is_disabled":false,"rental_uris":{"android":"levelo://app?vid=cc127605-97f5-449d-ad23-12b6f80c9639","ios":"levelo://app?vid=cc127605-97f5-449d-ad23-12b6f80c9639"},"vehicle_type_id":"4","last_reported":1742289048,"current_range_meters":9200,"station_id":"ce4bgi12rcd13ifvqb70","pricing_plan_id":"cebpf4jnsgd1na2vs0mg"},{"bike_id":"a6afbc5c-0f48-47ca-b482-47cd182694d0","system_id":"levelo_inurba_marseille","lat":43.24381,"lon":5.3706,"is_reserved":false,"is_disabled":false,"rental_uris":{"android":"levelo://app?vid=a6afbc5c-0f48-47ca-b482-47cd182694d0","ios":"levelo://app?vid=a6afbc5c-0f48-47ca-b482-47cd182694d0"},"vehicle_type_id":"4","last_reported":1742289048,"current_range_meters":9600,"station_id":"ce4bhhh2rcd13ifvqfk0","pricing_plan_id":"cebpf4jnsgd1na2vs0mg"},{"bike_id":"6ae89089-e9a4-4c17-97a1-ce9d0ea01326","system_id":"levelo_inurba_marseille","lat":43.24075,"lon":5.37755,"is_reserved":false,"is_disabled":false,"rental_uris":{"android":"levelo://app?vid=6ae89089-e9a4-4c17-97a1-ce9d0ea01326","ios":"levelo://app?vid=6ae89089-e9a4-4c17-97a1-ce9d0ea01326"},"vehicle_type_id":"4","last_reported":1742289048,"current_range_meters":9600,"station_id":"ce4bhnp2rcd13ifvqgvg","pricing_plan_id":"cebpf4jnsgd1na2vs0mg"},{"bike_id":"770f4ed4-632d-40a7-bf4e-83d00dfd866c","system_id":"levelo_inurba_marseille","lat":43.24088,"lon":5.37747,"is_reserved":false,"is_disabled":false,"rental_uris":{"android":"levelo://app?vid=770f4ed4-632d-40a7-bf4e-83d00dfd866c","ios":"levelo://app?vid=770f4ed4-632d-40a7-bf4e-83d00dfd866c"},"vehicle_type_id":"4","last_reported":1742289048,"current_range_meters":8400,"station_id":"ce4bhnp2rcd13ifvqgvg","pricing_plan_id":"cebpf4jnsgd1na2vs0mg"},{"bike_id":"09be20b3-ccfa-43d5-8616-036d82fe33a0","system_id":"levelo_inurba_marseille","lat":43.25013,"lon":5.38943,"is_reserved":false,"is_disabled":false,"rental_uris":{"android":"levelo://app?vid=09be20b3-ccfa-43d5-8616-036d82fe33a0","ios":"levelo://app?vid=09be20b3-ccfa-43d5-8616-036d82fe33a0"},"vehicle_type_id":"4","last_reported":1742289048,"current_range_meters":9600,"station_id":"ce4bhgp2rcd13ifvqfd0","pricing_plan_id":"cebpf4jnsgd1na2vs0mg"},{"bike_id":"799e3b42-750b-4ac2-b15d-a146857b0572","system_id":"levelo_inurba_marseille","lat":43.296235,"lon":5.371634,"is_reserved":false,"is_disabled":false,"rental_uris":{"android":"levelo://app?vid=799e3b42-750b-4ac2-b15d-a146857b0572","ios":"levelo://app?vid=799e3b42-750b-4ac2-b15d-a146857b0572"},"vehicle_type_id":"4","last_reported":1742289048,"current_range_meters":9600,"station_id":"ce4bgnh2rcd13ifvqc0g","pricing_plan_id":"cebpf4jnsgd1na2vs0mg"},{"bike_id":"5a39d515-1953-478c-a33c-978ec3753c2b","system_id":"levelo_inurba_marseille","lat":43.28354,"lon":5.38101,"is_reserved":false,"is_disabled":false,"rental_uris":{"android":"levelo://app?vid=5a39d515-1953-478c-a33c-978ec3753c2b","ios":"levelo://app?vid=5a39d515-1953-478c-a33c-978ec3753c2b"},"vehicle_type_id":"4","last_reported":1742289048,"current_range_meters":9600,"station_id":"ce4bh412rcd13ifvqdr0","pricing_plan_id":"cebpf4jnsgd1na2vs0mg"},{"bike_id":"51f23f44-adc9-49f8-8563-11e4ac2b1978","system_id":"levelo_inurba_marseille","lat":43.23149,"lon":5.43726,"is_reserved":false,"is_disabled":false,"rental_uris":{"android":"levelo://app?vid=51f23f44-adc9-49f8-8563-11e4ac2b1978","ios":"levelo://app?vid=51f23f44-adc9-49f8-8563-11e4ac2b1978"},"vehicle_type_id":"4","last_reported":1742289048,"current_range_meters":10000,"station_id":"ce4bhmp2rcd13ifvqgog","pricing_plan_id":"cebpf4jnsgd1na2vs0mg"},{"bike_id":"2e5d6cf4-8893-46b8-886b-3950dbb0f29a","system_id":"levelo_inurba_marseille","lat":43.26688,"lon":5.38261,"is_reserved":false,"is_disabled":false,"rental_uris":{"android":"levelo://app?vid=2e5d6cf4-8893-46b8-886b-3950dbb0f29a","ios":"levelo://app?vid=2e5d6cf4-8893-46b8-886b-3950dbb0f29a"},"vehicle_type_id":"4","last_reported":1742289048,"current_range_meters":9600,"station_id":"ce4bhg92rcd13ifvqf90","pricing_plan_id":"cebpf4jnsgd1na2vs0mg"},{"bike_id":"741d391f-90d7-4181-bd12-a5dd4665e554","system_id":"levelo_inurba_marseille","lat":43.25935,"lon":5.40909,"is_reserved":false,"is_disabled":false,"rental_uris":{"android":"levelo://app?vid=741d391f-90d7-4181-bd12-a5dd4665e554","ios":"levelo://app?vid=741d391f-90d7-4181-bd12-a5dd4665e554"},"vehicle_type_id":"4","last_reported":1742289048,"current_range_meters":9600,"station_id":"ce4bhm92rcd13ifvqglg","pricing_plan_id":"cebpf4jnsgd1na2vs0mg"},{"bike_id":"8ac28d78-5edd-4b74-a78b-469ba0ce1454","system_id":"levelo_inurba_marseille","lat":43.2706,"lon":5.42266,"is_reserved":false,"is_disabled":false,"rental_uris":{"android":"levelo://app?vid=8ac28d78-5edd-4b74-a78b-469ba0ce1454","ios":"levelo://app?vid=8ac28d78-5edd-4b74-a78b-469ba0ce1454"},"vehicle_type_id":"4","last_reported":1742289048,"current_range_meters":9600,"station_id":"ce4bhk92rcd13ifvqgb0","pricing_plan_id":"cebpf4jnsgd1na2vs0mg"},{"bike_id":"0b60e72b-d8b1-4266-9b63-b94b87c1ad4b","system_id":"levelo_inurba_marseille","lat":43.23196,"lon":5.39974,"is_reserved":false,"is_disabled":false,"rental_uris":{"android":"levelo://app?vid=0b60e72b-d8b1-4266-9b63-b94b87c1ad4b","ios":"levelo://app?vid=0b60e72b-d8b1-4266-9b63-b94b87c1ad4b"},"vehicle_type_id":"4","last_reported":1742289048,"current_range_meters":10000,"station_id":"ce4bhn12rcd13ifvqgqg","pricing_plan_id":"cebpf4jnsgd1na2vs0mg"},{"bike_id":"39d2df96-c36f-4593-8a68-432fe8c8d072","system_id":"levelo_inurba_marseille","lat":43.29903,"lon":5.43676,"is_reserved":false,"is_disabled":false,"rental_uris":{"android":"levelo://app?vid=39d2df96-c36f-4593-8a68-432fe8c8d072","ios":"levelo://app?vid=39d2df96-c36f-4593-8a68-432fe8c8d072"},"vehicle_type_id":"4","last_reported":1742289048,"current_range_meters":10000,"station_id":"ce4bhpp2rcd13ifvqhfg","pricing_plan_id":"cebpf4jnsgd1na2vs0mg"},{"bike_id":"29477c18-ae07-40ca-abca-b6a0b19bf64e","system_id":"levelo_inurba_marseille","lat":43.29246,"lon":5.37616,"is_reserved":false,"is_disabled":false,"rental_uris":{"android":"levelo://app?vid=29477c18-ae07-40ca-abca-b6a0b19bf64e","ios":"levelo://app?vid=29477c18-ae07-40ca-abca-b6a0b19bf64e"},"vehicle_type_id":"4","last_reported":1742289048,"current_range_meters":10000,"station_id":"ce4bgi12rcd13ifvqb80","pricing_plan_id":"cebpf4jnsgd1na2vs0mg"},{"bike_id":"647a1a8d-cf39-4842-8bd1-c9182494b41a","system_id":"levelo_inurba_marseille","lat":43.287,"lon":5.39987,"is_reserved":false,"is_disabled":false,"rental_uris":{"android":"levelo://app?vid=647a1a8d-cf39-4842-8bd1-c9182494b41a","ios":"levelo://app?vid=647a1a8d-cf39-4842-8bd1-c9182494b41a"},"vehicle_type_id":"4","last_reported":1742289048,"current_range_meters":10000,"station_id":"ce4bho92rcd13ifvqh3g","pricing_plan_id":"cebpf4jnsgd1na2vs0mg"},{"bike_id":"7a7480ac-785d-44e1-905f-ba4fe16871f9","system_id":"levelo_inurba_marseille","lat":43.25112,"lon":5.40317,"is_reserved":false,"is_disabled":false,"rental_uris":{"android":"levelo://app?vid=7a7480ac-785d-44e1-905f-ba4fe16871f9","ios":"levelo://app?vid=7a7480ac-785d-44e1-905f-ba4fe16871f9"},"vehicle_type_id":"4","last_reported":1742289048,"current_range_meters":9600,"station_id":"ce4bhlh2rcd13ifvqgig","pricing_plan_id":"cebpf4jnsgd1na2vs0mg"},{"bike_id":"d0ecd06f-b344-485c-8550-9fa5bf448f53","system_id":"levelo_inurba_marseille","lat":43.25827,"lon":5.39428,"is_reserved":false,"is_disabled":false,"rental_uris":{"android":"levelo://app?vid=d0ecd06f-b344-485c-8550-9fa5bf448f53","ios":"levelo://app?vid=d0ecd06f-b344-485c-8550-9fa5bf448f53"},"vehicle_type_id":"4","last_reported":1742289048,"current_range_meters":10000,"station_id":"ce4bhip2rcd13ifvqft0","pricing_plan_id":"cebpf4jnsgd1na2vs0mg"},{"bike_id":"9ce24cbf-a762-402d-998b-dad49805bbd4","system_id":"levelo_inurba_marseille","lat":43.283783,"lon":5.381054,"is_reserved":false,"is_disabled":false,"rental_uris":{"android":"levelo://app?vid=9ce24cbf-a762-402d-998b-dad49805bbd4","ios":"levelo://app?vid=9ce24cbf-a762-402d-998b-dad49805bbd4"},"vehicle_type_id":"4","last_reported":1742289048,"current_range_meters":10000,"station_id":"ce4bh412rcd13ifvqdr0","pricing_plan_id":"cebpf4jnsgd1na2vs0mg"},{"bike_id":"34899676-bd70-447c-bdd2-2c1d0fed5b4d","system_id":"levelo_inurba_marseille","lat":43.2408,"lon":5.37756,"is_reserved":false,"is_disabled":false,"rental_uris":{"android":"levelo://app?vid=34899676-bd70-447c-bdd2-2c1d0fed5b4d","ios":"levelo://app?vid=34899676-bd70-447c-bdd2-2c1d0fed5b4d"},"vehicle_type_id":"4","last_reported":1742289048,"current_range_meters":10000,"station_id":"ce4bhnp2rcd13ifvqgvg","pricing_plan_id":"cebpf4jnsgd1na2vs0mg"},{"bike_id":"02f219f4-ab1e-4f3c-b8f8-0f3f096d2dc6","system_id":"levelo_inurba_marseille","lat":43.2959,"lon":5.38102,"is_reserved":false,"is_disabled":true,"rental_uris":{"android":"levelo://app?vid=02f219f4-ab1e-4f3c-b8f8-0f3f096d2dc6","ios":"levelo://app?vid=02f219f4-ab1e-4f3c-b8f8-0f3f096d2dc6"},"vehicle_type_id":"4","last_reported":1742289048,"current_range_meters":10000,"station_id":"ce4bgl12rcd13ifvqbo0","pricing_plan_id":"cebpf4jnsgd1na2vs0mg"},{"bike_id":"60ba5b69-d171-44fe-b70d-d520985a06d5","system_id":"levelo_inurba_marseille","lat":43.32358,"lon":5.3887,"is_reserved":false,"is_disabled":false,"rental_uris":{"android":"levelo://app?vid=60ba5b69-d171-44fe-b70d-d520985a06d5","ios":"levelo://app?vid=60ba5b69-d171-44fe-b70d-d520985a06d5"},"vehicle_type_id":"4","last_reported":1742289048,"current_range_meters":10000,"station_id":"ce4bhqp2rcd13ifvqhog","pricing_plan_id":"cebpf4jnsgd1na2vs0mg"},{"bike_id":"55e2c491-50c0-4d8d-b4d9-56377f54f456","system_id":"levelo_inurba_marseille","lat":43.2695,"lon":5.3864,"is_reserved":false,"is_disabled":false,"rental_uris":{"android":"levelo://app?vid=55e2c491-50c0-4d8d-b4d9-56377f54f456","ios":"levelo://app?vid=55e2c491-50c0-4d8d-b4d9-56377f54f456"},"vehicle_type_id":"4","last_reported":1742289048,"current_range_meters":10000,"station_id":"ce4bhh92rcd13ifvqfh0","pricing_plan_id":"cebpf4jnsgd1na2vs0mg"},{"bike_id":"4e950670-b096-4049-8c8c-3012830ea5a4","system_id":"levelo_inurba_marseille","lat":43.24395,"lon":5.37058,"is_reserved":false,"is_disabled":false,"rental_uris":{"android":"levelo://app?vid=4e950670-b096-4049-8c8c-3012830ea5a4","ios":"levelo://app?vid=4e950670-b096-4049-8c8c-3012830ea5a4"},"vehicle_type_id":"4","last_reported":1742289048,"current_range_meters":10000,"station_id":"ce4bhhh2rcd13ifvqfk0","pricing_plan_id":"cebpf4jnsgd1na2vs0mg"},{"bike_id":"519efbbc-7577-4063-8eac-658ef30e98a3","system_id":"levelo_inurba_marseille","lat":43.25006,"lon":5.38938,"is_reserved":false,"is_disabled":false,"rental_uris":{"android":"levelo://app?vid=519efbbc-7577-4063-8eac-658ef30e98a3","ios":"levelo://app?vid=519efbbc-7577-4063-8eac-658ef30e98a3"},"vehicle_type_id":"4","last_reported":1742289048,"current_range_meters":10800,"station_id":"ce4bhgp2rcd13ifvqfd0","pricing_plan_id":"cebpf4jnsgd1na2vs0mg"},{"bike_id":"ba5d3480-1a5a-482d-ab61-a5d8efa4abbe","system_id":"levelo_inurba_marseille","lat":43.29263,"lon":5.37626,"is_reserved":false,"is_disabled":false,"rental_uris":{"android":"levelo://app?vid=ba5d3480-1a5a-482d-ab61-a5d8efa4abbe","ios":"levelo://app?vid=ba5d3480-1a5a-482d-ab61-a5d8efa4abbe"},"vehicle_type_id":"4","last_reported":1742289048,"current_range_meters":10800,"station_id":"ce4bgi12rcd13ifvqb80","pricing_plan_id":"cebpf4jnsgd1na2vs0mg"},{"bike_id":"96e89a39-929a-49fe-8d6c-e47bf8ca7a6f","system_id":"levelo_inurba_marseille","lat":43.23064,"lon":5.35495,"is_reserved":false,"is_disabled":false,"rental_uris":{"android":"levelo://app?vid=96e89a39-929a-49fe-8d6c-e47bf8ca7a6f","ios":"levelo://app?vid=96e89a39-929a-49fe-8d6c-e47bf8ca7a6f"},"vehicle_type_id":"4","last_reported":1742289048,"current_range_meters":10800,"station_id":"cpo3342slgdg3j2ifvpg","pricing_plan_id":"cebpf4jnsgd1na2vs0mg"},{"bike_id":"ac767398-3a37-4b25-a151-49e4b1e3ef78","system_id":"levelo_inurba_marseille","lat":43.25119,"lon":5.39523,"is_reserved":false,"is_disabled":false,"rental_uris":{"android":"levelo://app?vid=ac767398-3a37-4b25-a151-49e4b1e3ef78","ios":"levelo://app?vid=ac767398-3a37-4b25-a151-49e4b1e3ef78"},"vehicle_type_id":"4","last_reported":1742289048,"current_range_meters":10800,"station_id":"ce4bhm12rcd13ifvqgkg","pricing_plan_id":"cebpf4jnsgd1na2vs0mg"},{"bike_id":"89a9a07a-5569-426e-baa6-da72a98a25be","system_id":"levelo_inurba_marseille","lat":43.32366,"lon":5.38877,"is_reserved":false,"is_disabled":false,"rental_uris":{"android":"levelo://app?vid=89a9a07a-5569-426e-baa6-da72a98a25be","ios":"levelo://app?vid=89a9a07a-5569-426e-baa6-da72a98a25be"},"vehicle_type_id":"4","last_reported":1742289048,"current_range_meters":10800,"station_id":"ce4bhqp2rcd13ifvqhog","pricing_plan_id":"cebpf4jnsgd1na2vs0mg"},{"bike_id":"13ee90d6-43f1-4f5d-94d8-e0b0679e9a53","system_id":"levelo_inurba_marseille","lat":43.32109,"lon":5.36771,"is_reserved":false,"is_disabled":false,"rental_uris":{"android":"levelo://app?vid=13ee90d6-43f1-4f5d-94d8-e0b0679e9a53","ios":"levelo://app?vid=13ee90d6-43f1-4f5d-94d8-e0b0679e9a53"},"vehicle_type_id":"4","last_reported":1742289048,"current_range_meters":10800,"station_id":"ce4bhrh2rcd13ifvqhug","pricing_plan_id":"cebpf4jnsgd1na2vs0mg"},{"bike_id":"181e3e56-f011-4aab-956d-9d49d55e063c","system_id":"levelo_inurba_marseille","lat":43.32364,"lon":5.36759,"is_reserved":false,"is_disabled":false,"rental_uris":{"android":"levelo://app?vid=181e3e56-f011-4aab-956d-9d49d55e063c","ios":"levelo://app?vid=181e3e56-f011-4aab-956d-9d49d55e063c"},"vehicle_type_id":"4","last_reported":1742289048,"current_range_meters":7200,"station_id":"ce4bhsh2rcd13ifvqi2g","pricing_plan_id":"cebpf4jnsgd1na2vs0mg"},{"bike_id":"b611c071-f0bb-41a2-aa25-420b921bc079","system_id":"levelo_inurba_marseille","lat":43.2307,"lon":5.35493,"is_reserved":false,"is_disabled":false,"rental_uris":{"android":"levelo://app?vid=b611c071-f0bb-41a2-aa25-420b921bc079","ios":"levelo://app?vid=b611c071-f0bb-41a2-aa25-420b921bc079"},"vehicle_type_id":"4","last_reported":1742289048,"current_range_meters":10800,"station_id":"cpo3342slgdg3j2ifvpg","pricing_plan_id":"cebpf4jnsgd1na2vs0mg"},{"bike_id":"df22a083-8fbb-40ab-8bc3-4f155e555e5b","system_id":"levelo_inurba_marseille","lat":43.24075,"lon":5.37748,"is_reserved":false,"is_disabled":false,"rental_uris":{"android":"levelo://app?vid=df22a083-8fbb-40ab-8bc3-4f155e555e5b","ios":"levelo://app?vid=df22a083-8fbb-40ab-8bc3-4f155e555e5b"},"vehicle_type_id":"4","last_reported":1742289048,"current_range_meters":11200,"station_id":"ce4bhnp2rcd13ifvqgvg","pricing_plan_id":"cebpf4jnsgd1na2vs0mg"},{"bike_id":"a638afd4-73b2-4fae-a3e3-8c8574dae197","system_id":"levelo_inurba_marseille","lat":43.2862,"lon":5.35096,"is_reserved":false,"is_disabled":false,"rental_uris":{"android":"levelo://app?vid=a638afd4-73b2-4fae-a3e3-8c8574dae197","ios":"levelo://app?vid=a638afd4-73b2-4fae-a3e3-8c8574dae197"},"vehicle_type_id":"4","last_reported":1742289048,"current_range_meters":11200,"station_id":"ce4bhch2rcd13ifvqeug","pricing_plan_id":"cebpf4jnsgd1na2vs0mg"},{"bike_id":"51c488df-5f41-4a9d-84b2-384defeec645","system_id":"levelo_inurba_marseille","lat":43.2943,"lon":5.39761,"is_reserved":false,"is_disabled":false,"rental_uris":{"android":"levelo://app?vid=51c488df-5f41-4a9d-84b2-384defeec645","ios":"levelo://app?vid=51c488df-5f41-4a9d-84b2-384defeec645"},"vehicle_type_id":"4","last_reported":1742289048,"current_range_meters":10800,"station_id":"ce4bh3h2rcd13ifvqdo0","pricing_plan_id":"cebpf4jnsgd1na2vs0mg"},{"bike_id":"5b9abdf1-3bd3-4da9-8cf3-0850e045aa24","system_id":"levelo_inurba_marseille","lat":43.2308,"lon":5.35475,"is_reserved":false,"is_disabled":false,"rental_uris":{"android":"levelo://app?vid=5b9abdf1-3bd3-4da9-8cf3-0850e045aa24","ios":"levelo://app?vid=5b9abdf1-3bd3-4da9-8cf3-0850e045aa24"},"vehicle_type_id":"4","last_reported":1742289048,"current_range_meters":11200,"station_id":"cpo3342slgdg3j2ifvpg","pricing_plan_id":"cebpf4jnsgd1na2vs0mg"},{"bike_id":"d4622cc8-63da-48ca-a619-891bf5197ebe","system_id":"levelo_inurba_marseille","lat":43.30279,"lon":5.37682,"is_reserved":false,"is_disabled":false,"rental_uris":{"android":"levelo://app?vid=d4622cc8-63da-48ca-a619-891bf5197ebe","ios":"levelo://app?vid=d4622cc8-63da-48ca-a619-891bf5197ebe"},"vehicle_type_id":"4","last_reported":1742289048,"current_range_meters":11200,"station_id":"ce4bguh2rcd13ifvqcj0","pricing_plan_id":"cebpf4jnsgd1na2vs0mg"},{"bike_id":"3afcf692-5bfa-4193-89ba-37fd292554d0","system_id":"levelo_inurba_marseille","lat":43.29812,"lon":5.38095,"is_reserved":false,"is_disabled":false,"rental_uris":{"android":"levelo://app?vid=3afcf692-5bfa-4193-89ba-37fd292554d0","ios":"levelo://app?vid=3afcf692-5bfa-4193-89ba-37fd292554d0"},"vehicle_type_id":"4","last_reported":1742289048,"current_range_meters":11200,"station_id":"ce4bgip2rcd13ifvqbb0","pricing_plan_id":"cebpf4jnsgd1na2vs0mg"},{"bike_id":"34d1629b-6df8-4406-a813-43ef29045376","system_id":"levelo_inurba_marseille","lat":43.3014,"lon":5.3741,"is_reserved":false,"is_disabled":false,"rental_uris":{"android":"levelo://app?vid=34d1629b-6df8-4406-a813-43ef29045376","ios":"levelo://app?vid=34d1629b-6df8-4406-a813-43ef29045376"},"vehicle_type_id":"4","last_reported":1742289048,"current_range_meters":11200,"station_id":"ce4bgs92rcd13ifvqcc0","pricing_plan_id":"cebpf4jnsgd1na2vs0mg"},{"bike_id":"b885f75f-3c96-46ec-8caf-25e821eabbb9","system_id":"levelo_inurba_marseille","lat":43.23153,"lon":5.43712,"is_reserved":false,"is_disabled":false,"rental_uris":{"android":"levelo://app?vid=b885f75f-3c96-46ec-8caf-25e821eabbb9","ios":"levelo://app?vid=b885f75f-3c96-46ec-8caf-25e821eabbb9"},"vehicle_type_id":"4","last_reported":1742289048,"current_range_meters":11200,"station_id":"ce4bhmp2rcd13ifvqgog","pricing_plan_id":"cebpf4jnsgd1na2vs0mg"},{"bike_id":"7f2d3a10-fb38-49e6-9c91-ea2286af82e2","system_id":"levelo_inurba_marseille","lat":43.25924,"lon":5.40924,"is_reserved":false,"is_disabled":false,"rental_uris":{"android":"levelo://app?vid=7f2d3a10-fb38-49e6-9c91-ea2286af82e2","ios":"levelo://app?vid=7f2d3a10-fb38-49e6-9c91-ea2286af82e2"},"vehicle_type_id":"4","last_reported":1742289048,"current_range_meters":11200,"station_id":"ce4bhm92rcd13ifvqglg","pricing_plan_id":"cebpf4jnsgd1na2vs0mg"},{"bike_id":"fe78a566-04ec-4269-a62f-23329583c7d4","system_id":"levelo_inurba_marseille","lat":43.32484,"lon":5.36568,"is_reserved":false,"is_disabled":false,"rental_uris":{"android":"levelo://app?vid=fe78a566-04ec-4269-a62f-23329583c7d4","ios":"levelo://app?vid=fe78a566-04ec-4269-a62f-23329583c7d4"},"vehicle_type_id":"4","last_reported":1742289048,"current_range_meters":11200,"station_id":"ce4bhs12rcd13ifvqhvg","pricing_plan_id":"cebpf4jnsgd1na2vs0mg"},{"bike_id":"68cc12d4-dbb0-4edf-b050-67efc670d3a8","system_id":"levelo_inurba_marseille","lat":43.30899,"lon":5.36842,"is_reserved":false,"is_disabled":false,"rental_uris":{"android":"levelo://app?vid=68cc12d4-dbb0-4edf-b050-67efc670d3a8","ios":"levelo://app?vid=68cc12d4-dbb0-4edf-b050-67efc670d3a8"},"vehicle_type_id":"4","last_reported":1742289048,"current_range_meters":11200,"station_id":"ce4bgn92rcd13ifvqbvg","pricing_plan_id":"cebpf4jnsgd1na2vs0mg"},{"bike_id":"522f99cb-f105-4bf1-8b05-dccec75ba908","system_id":"levelo_inurba_marseille","lat":43.302756,"lon":5.37683,"is_reserved":false,"is_disabled":true,"rental_uris":{"android":"levelo://app?vid=522f99cb-f105-4bf1-8b05-dccec75ba908","ios":"levelo://app?vid=522f99cb-f105-4bf1-8b05-dccec75ba908"},"vehicle_type_id":"4","last_reported":1742289048,"current_range_meters":11600,"station_id":"","pricing_plan_id":"cebpf4jnsgd1na2vs0mg"},{"bike_id":"52f71405-f6a3-4dcb-9351-93f3d88614de","system_id":"levelo_inurba_marseille","lat":43.2827,"lon":5.35083,"is_reserved":false,"is_disabled":true,"rental_uris":{"android":"levelo://app?vid=52f71405-f6a3-4dcb-9351-93f3d88614de","ios":"levelo://app?vid=52f71405-f6a3-4dcb-9351-93f3d88614de"},"vehicle_type_id":"4","last_reported":1742289048,"current_range_meters":11600,"station_id":"ce4bhbp2rcd13ifvqerg","pricing_plan_id":"cebpf4jnsgd1na2vs0mg"},{"bike_id":"6d985db4-1dee-417e-a887-82d742f29815","system_id":"levelo_inurba_marseille","lat":43.27039,"lon":5.40283,"is_reserved":false,"is_disabled":true,"rental_uris":{"android":"levelo://app?vid=6d985db4-1dee-417e-a887-82d742f29815","ios":"levelo://app?vid=6d985db4-1dee-417e-a887-82d742f29815"},"vehicle_type_id":"4","last_reported":1742289048,"current_range_meters":12000,"station_id":"ce4bhk92rcd13ifvqgc0","pricing_plan_id":"cebpf4jnsgd1na2vs0mg"},{"bike_id":"2a9b0782-2b94-478a-8814-2c45cf492213","system_id":"levelo_inurba_marseille","lat":43.28287,"lon":5.35075,"is_reserved":false,"is_disabled":false,"rental_uris":{"android":"levelo://app?vid=2a9b0782-2b94-478a-8814-2c45cf492213","ios":"levelo://app?vid=2a9b0782-2b94-478a-8814-2c45cf492213"},"vehicle_type_id":"4","last_reported":1742289048,"current_range_meters":12000,"station_id":"ce4bhbp2rcd13ifvqerg","pricing_plan_id":"cebpf4jnsgd1na2vs0mg"},{"bike_id":"d00028dc-9b0d-47df-ad9d-778d21fb21b2","system_id":"levelo_inurba_marseille","lat":43.23196,"lon":5.35614,"is_reserved":false,"is_disabled":false,"rental_uris":{"android":"levelo://app?vid=d00028dc-9b0d-47df-ad9d-778d21fb21b2","ios":"levelo://app?vid=d00028dc-9b0d-47df-ad9d-778d21fb21b2"},"vehicle_type_id":"4","last_reported":1742289048,"current_range_meters":12400,"station_id":"ce4bhu92rcd13ifvqi70","pricing_plan_id":"cebpf4jnsgd1na2vs0mg"},{"bike_id":"0452794a-f238-449d-9cbc-919488d00919","system_id":"levelo_inurba_marseille","lat":43.26949,"lon":5.38629,"is_reserved":false,"is_disabled":false,"rental_uris":{"android":"levelo://app?vid=0452794a-f238-449d-9cbc-919488d00919","ios":"levelo://app?vid=0452794a-f238-449d-9cbc-919488d00919"},"vehicle_type_id":"4","last_reported":1742289048,"current_range_meters":12000,"station_id":"ce4bhh92rcd13ifvqfh0","pricing_plan_id":"cebpf4jnsgd1na2vs0mg"},{"bike_id":"7c5152e2-a35d-483e-9be2-8cbde26f245c","system_id":"levelo_inurba_marseille","lat":43.31476,"lon":5.37261,"is_reserved":false,"is_disabled":false,"rental_uris":{"android":"levelo://app?vid=7c5152e2-a35d-483e-9be2-8cbde26f245c","ios":"levelo://app?vid=7c5152e2-a35d-483e-9be2-8cbde26f245c"},"vehicle_type_id":"4","last_reported":1742289048,"current_range_meters":12000,"station_id":"ce4bgt12rcd13ifvqcd0","pricing_plan_id":"cebpf4jnsgd1na2vs0mg"},{"bike_id":"37962361-eb60-43c8-9b46-342d6fca5b1f","system_id":"levelo_inurba_marseille","lat":43.30137,"lon":5.37415,"is_reserved":false,"is_disabled":false,"rental_uris":{"android":"levelo://app?vid=37962361-eb60-43c8-9b46-342d6fca5b1f","ios":"levelo://app?vid=37962361-eb60-43c8-9b46-342d6fca5b1f"},"vehicle_type_id":"4","last_reported":1742289048,"current_range_meters":12000,"station_id":"ce4bgs92rcd13ifvqcc0","pricing_plan_id":"cebpf4jnsgd1na2vs0mg"},{"bike_id":"ad21d957-c0ea-4c86-82f5-b3682e2201c9","system_id":"levelo_inurba_marseille","lat":43.24182,"lon":5.39725,"is_reserved":false,"is_disabled":false,"rental_uris":{"android":"levelo://app?vid=ad21d957-c0ea-4c86-82f5-b3682e2201c9","ios":"levelo://app?vid=ad21d957-c0ea-4c86-82f5-b3682e2201c9"},"vehicle_type_id":"4","last_reported":1742289048,"current_range_meters":12000,"station_id":"ce4bhn12rcd13ifvqgpg","pricing_plan_id":"cebpf4jnsgd1na2vs0mg"},{"bike_id":"9603036f-f909-4536-879a-5d5942573840","system_id":"levelo_inurba_marseille","lat":43.30466,"lon":5.37914,"is_reserved":false,"is_disabled":false,"rental_uris":{"android":"levelo://app?vid=9603036f-f909-4536-879a-5d5942573840","ios":"levelo://app?vid=9603036f-f909-4536-879a-5d5942573840"},"vehicle_type_id":"4","last_reported":1742289048,"current_range_meters":12000,"station_id":"ce4bgup2rcd13ifvqcn0","pricing_plan_id":"cebpf4jnsgd1na2vs0mg"},{"bike_id":"54e75514-c8ee-4c64-8383-6331eb839ebc","system_id":"levelo_inurba_marseille","lat":43.31489,"lon":5.37304,"is_reserved":false,"is_disabled":false,"rental_uris":{"android":"levelo://app?vid=54e75514-c8ee-4c64-8383-6331eb839ebc","ios":"levelo://app?vid=54e75514-c8ee-4c64-8383-6331eb839ebc"},"vehicle_type_id":"4","last_reported":1742289048,"current_range_meters":12400,"station_id":"ce4bgt12rcd13ifvqcd0","pricing_plan_id":"cebpf4jnsgd1na2vs0mg"},{"bike_id":"ca1c0a28-8faf-435f-9d8b-370c3a07ff34","system_id":"levelo_inurba_marseille","lat":43.241636,"lon":5.363942,"is_reserved":false,"is_disabled":false,"rental_uris":{"android":"levelo://app?vid=ca1c0a28-8faf-435f-9d8b-370c3a07ff34","ios":"levelo://app?vid=ca1c0a28-8faf-435f-9d8b-370c3a07ff34"},"vehicle_type_id":"4","last_reported":1742289048,"current_range_meters":12400,"station_id":"cpo36qri1sfpv3e86is0","pricing_plan_id":"cebpf4jnsgd1na2vs0mg"},{"bike_id":"b58245d1-b5d0-418e-8aef-50685200062e","system_id":"levelo_inurba_marseille","lat":43.28682,"lon":5.37394,"is_reserved":false,"is_disabled":false,"rental_uris":{"android":"levelo://app?vid=b58245d1-b5d0-418e-8aef-50685200062e","ios":"levelo://app?vid=b58245d1-b5d0-418e-8aef-50685200062e"},"vehicle_type_id":"4","last_reported":1742289048,"current_range_meters":12400,"station_id":"ce4bh3p2rcd13ifvqdq0","pricing_plan_id":"cebpf4jnsgd1na2vs0mg"},{"bike_id":"71dd0600-0710-44a4-a251-04de9e0bf6be","system_id":"levelo_inurba_marseille","lat":43.29918,"lon":5.38139,"is_reserved":false,"is_disabled":true,"rental_uris":{"android":"levelo://app?vid=71dd0600-0710-44a4-a251-04de9e0bf6be","ios":"levelo://app?vid=71dd0600-0710-44a4-a251-04de9e0bf6be"},"vehicle_type_id":"4","last_reported":1742289048,"current_range_meters":12400,"station_id":"ce4bgj12rcd13ifvqbc0","pricing_plan_id":"cebpf4jnsgd1na2vs0mg"},{"bike_id":"c741a3f3-9460-417c-ace1-0d844f75bcd6","system_id":"levelo_inurba_marseille","lat":43.29308,"lon":5.37165,"is_reserved":false,"is_disabled":false,"rental_uris":{"android":"levelo://app?vid=c741a3f3-9460-417c-ace1-0d844f75bcd6","ios":"levelo://app?vid=c741a3f3-9460-417c-ace1-0d844f75bcd6"},"vehicle_type_id":"4","last_reported":1742289048,"current_range_meters":12400,"station_id":"ce4bgh92rcd13ifvqb40","pricing_plan_id":"cebpf4jnsgd1na2vs0mg"},{"bike_id":"30afd827-1af8-40de-a576-149b865b7207","system_id":"levelo_inurba_marseille","lat":43.24078,"lon":5.37741,"is_reserved":false,"is_disabled":false,"rental_uris":{"android":"levelo://app?vid=30afd827-1af8-40de-a576-149b865b7207","ios":"levelo://app?vid=30afd827-1af8-40de-a576-149b865b7207"},"vehicle_type_id":"4","last_reported":1742289048,"current_range_meters":12800,"station_id":"ce4bhnp2rcd13ifvqgvg","pricing_plan_id":"cebpf4jnsgd1na2vs0mg"},{"bike_id":"ee47dcd3-3269-4020-a078-5e48efdd9a1e","system_id":"levelo_inurba_marseille","lat":43.31489,"lon":5.37311,"is_reserved":false,"is_disabled":false,"rental_uris":{"android":"levelo://app?vid=ee47dcd3-3269-4020-a078-5e48efdd9a1e","ios":"levelo://app?vid=ee47dcd3-3269-4020-a078-5e48efdd9a1e"},"vehicle_type_id":"4","last_reported":1742289048,"current_range_meters":12400,"station_id":"ce4bgt12rcd13ifvqcd0","pricing_plan_id":"cebpf4jnsgd1na2vs0mg"},{"bike_id":"21ccb767-52a1-45b3-a164-abf872aeb2d6","system_id":"levelo_inurba_marseille","lat":43.33587,"lon":5.40991,"is_reserved":false,"is_disabled":false,"rental_uris":{"android":"levelo://app?vid=21ccb767-52a1-45b3-a164-abf872aeb2d6","ios":"levelo://app?vid=21ccb767-52a1-45b3-a164-abf872aeb2d6"},"vehicle_type_id":"4","last_reported":1742289048,"current_range_meters":12800,"station_id":"ce4bhqh2rcd13ifvqhmg","pricing_plan_id":"cebpf4jnsgd1na2vs0mg"},{"bike_id":"67544462-545a-4f47-ac3d-fcfa0a8754ec","system_id":"levelo_inurba_marseille","lat":43.2872,"lon":5.37939,"is_reserved":false,"is_disabled":false,"rental_uris":{"android":"levelo://app?vid=67544462-545a-4f47-ac3d-fcfa0a8754ec","ios":"levelo://app?vid=67544462-545a-4f47-ac3d-fcfa0a8754ec"},"vehicle_type_id":"4","last_reported":1742289048,"current_range_meters":12800,"station_id":"ce4bh292rcd13ifvqdg0","pricing_plan_id":"cebpf4jnsgd1na2vs0mg"},{"bike_id":"ae5607e8-7e53-43b8-bdfb-f4fb95825493","system_id":"levelo_inurba_marseille","lat":43.26933,"lon":5.38463,"is_reserved":false,"is_disabled":false,"rental_uris":{"android":"levelo://app?vid=ae5607e8-7e53-43b8-bdfb-f4fb95825493","ios":"levelo://app?vid=ae5607e8-7e53-43b8-bdfb-f4fb95825493"},"vehicle_type_id":"4","last_reported":1742289048,"current_range_meters":12800,"station_id":"","pricing_plan_id":"cebpf4jnsgd1na2vs0mg"},{"bike_id":"175919c0-deb0-4e48-9a06-eea90edc3e69","system_id":"levelo_inurba_marseille","lat":43.23203,"lon":5.35555,"is_reserved":false,"is_disabled":false,"rental_uris":{"android":"levelo://app?vid=175919c0-deb0-4e48-9a06-eea90edc3e69","ios":"levelo://app?vid=175919c0-deb0-4e48-9a06-eea90edc3e69"},"vehicle_type_id":"4","last_reported":1742289048,"current_range_meters":12800,"station_id":"ce4bhu92rcd13ifvqi70","pricing_plan_id":"cebpf4jnsgd1na2vs0mg"},{"bike_id":"ab11fa9b-759f-447f-a4f1-b143e2360775","system_id":"levelo_inurba_marseille","lat":43.31366,"lon":5.39155,"is_reserved":false,"is_disabled":false,"rental_uris":{"android":"levelo://app?vid=ab11fa9b-759f-447f-a4f1-b143e2360775","ios":"levelo://app?vid=ab11fa9b-759f-447f-a4f1-b143e2360775"},"vehicle_type_id":"4","last_reported":1742289048,"current_range_meters":12800,"station_id":"","pricing_plan_id":"cebpf4jnsgd1na2vs0mg"},{"bike_id":"858d25c4-ac98-4d98-8cf5-98c8469b7682","system_id":"levelo_inurba_marseille","lat":43.30465,"lon":5.37898,"is_reserved":false,"is_disabled":false,"rental_uris":{"android":"levelo://app?vid=858d25c4-ac98-4d98-8cf5-98c8469b7682","ios":"levelo://app?vid=858d25c4-ac98-4d98-8cf5-98c8469b7682"},"vehicle_type_id":"4","last_reported":1742289048,"current_range_meters":12800,"station_id":"ce4bgup2rcd13ifvqcn0","pricing_plan_id":"cebpf4jnsgd1na2vs0mg"},{"bike_id":"d36c89e8-07d2-4942-be59-0b2e43ed175d","system_id":"levelo_inurba_marseille","lat":43.25941,"lon":5.40872,"is_reserved":false,"is_disabled":false,"rental_uris":{"android":"levelo://app?vid=d36c89e8-07d2-4942-be59-0b2e43ed175d","ios":"levelo://app?vid=d36c89e8-07d2-4942-be59-0b2e43ed175d"},"vehicle_type_id":"4","last_reported":1742289048,"current_range_meters":12800,"station_id":"ce4bhm92rcd13ifvqglg","pricing_plan_id":"cebpf4jnsgd1na2vs0mg"},{"bike_id":"e6272449-0d1a-4b91-9b20-9ca253be67b9","system_id":"levelo_inurba_marseille","lat":43.29711,"lon":5.37687,"is_reserved":false,"is_disabled":false,"rental_uris":{"android":"levelo://app?vid=e6272449-0d1a-4b91-9b20-9ca253be67b9","ios":"levelo://app?vid=e6272449-0d1a-4b91-9b20-9ca253be67b9"},"vehicle_type_id":"4","last_reported":1742289048,"current_range_meters":12800,"station_id":"ce4bgkh2rcd13ifvqbl0","pricing_plan_id":"cebpf4jnsgd1na2vs0mg"},{"bike_id":"8581e34a-e545-4ecd-94c3-9ab5366e4794","system_id":"levelo_inurba_marseille","lat":43.274862,"lon":5.424664,"is_reserved":false,"is_disabled":false,"rental_uris":{"android":"levelo://app?vid=8581e34a-e545-4ecd-94c3-9ab5366e4794","ios":"levelo://app?vid=8581e34a-e545-4ecd-94c3-9ab5366e4794"},"vehicle_type_id":"4","last_reported":1742289048,"current_range_meters":12800,"station_id":"ce4bhn92rcd13ifvqgrg","pricing_plan_id":"cebpf4jnsgd1na2vs0mg"},{"bike_id":"26d3f0a3-4736-4466-9b23-cd440e12c74f","system_id":"levelo_inurba_marseille","lat":43.23969,"lon":5.36637,"is_reserved":false,"is_disabled":false,"rental_uris":{"android":"levelo://app?vid=26d3f0a3-4736-4466-9b23-cd440e12c74f","ios":"levelo://app?vid=26d3f0a3-4736-4466-9b23-cd440e12c74f"},"vehicle_type_id":"4","last_reported":1742289048,"current_range_meters":12800,"station_id":"ce4bhi12rcd13ifvqfp0","pricing_plan_id":"cebpf4jnsgd1na2vs0mg"},{"bike_id":"0cb439ba-c73c-4e00-a10d-d81c8bff11ec","system_id":"levelo_inurba_marseille","lat":43.32458,"lon":5.36587,"is_reserved":false,"is_disabled":false,"rental_uris":{"android":"levelo://app?vid=0cb439ba-c73c-4e00-a10d-d81c8bff11ec","ios":"levelo://app?vid=0cb439ba-c73c-4e00-a10d-d81c8bff11ec"},"vehicle_type_id":"4","last_reported":1742289048,"current_range_meters":13600,"station_id":"ce4bhs12rcd13ifvqhvg","pricing_plan_id":"cebpf4jnsgd1na2vs0mg"},{"bike_id":"42cf855c-0947-42b3-8343-9a4b0ad62d0a","system_id":"levelo_inurba_marseille","lat":43.275607,"lon":5.384141,"is_reserved":false,"is_disabled":false,"rental_uris":{"android":"levelo://app?vid=42cf855c-0947-42b3-8343-9a4b0ad62d0a","ios":"levelo://app?vid=42cf855c-0947-42b3-8343-9a4b0ad62d0a"},"vehicle_type_id":"4","last_reported":1742289048,"current_range_meters":12800,"station_id":"ce4bhhh2rcd13ifvqfl0","pricing_plan_id":"cebpf4jnsgd1na2vs0mg"},{"bike_id":"aa27012c-8a2b-4120-83a6-4c3640491807","system_id":"levelo_inurba_marseille","lat":43.25027,"lon":5.38917,"is_reserved":false,"is_disabled":false,"rental_uris":{"android":"levelo://app?vid=aa27012c-8a2b-4120-83a6-4c3640491807","ios":"levelo://app?vid=aa27012c-8a2b-4120-83a6-4c3640491807"},"vehicle_type_id":"4","last_reported":1742289048,"current_range_meters":13600,"station_id":"ce4bhgp2rcd13ifvqfd0","pricing_plan_id":"cebpf4jnsgd1na2vs0mg"},{"bike_id":"868be9a8-f36a-485e-a0ce-22cad0d8453f","system_id":"levelo_inurba_marseille","lat":43.25728,"lon":5.41109,"is_reserved":false,"is_disabled":false,"rental_uris":{"android":"levelo://app?vid=868be9a8-f36a-485e-a0ce-22cad0d8453f","ios":"levelo://app?vid=868be9a8-f36a-485e-a0ce-22cad0d8453f"},"vehicle_type_id":"4","last_reported":1742289048,"current_range_meters":13600,"station_id":"ce4bhkp2rcd13ifvqgd0","pricing_plan_id":"cebpf4jnsgd1na2vs0mg"},{"bike_id":"1787cd3c-5141-4d06-b4be-5f05d85aa4df","system_id":"levelo_inurba_marseille","lat":43.3119,"lon":5.36848,"is_reserved":false,"is_disabled":false,"rental_uris":{"android":"levelo://app?vid=1787cd3c-5141-4d06-b4be-5f05d85aa4df","ios":"levelo://app?vid=1787cd3c-5141-4d06-b4be-5f05d85aa4df"},"vehicle_type_id":"4","last_reported":1742289048,"current_range_meters":13600,"station_id":"ce4bgl92rcd13ifvqbq0","pricing_plan_id":"cebpf4jnsgd1na2vs0mg"},{"bike_id":"8b0e40ac-f244-4abc-99c1-75345666570d","system_id":"levelo_inurba_marseille","lat":43.29842,"lon":5.36267,"is_reserved":false,"is_disabled":false,"rental_uris":{"android":"levelo://app?vid=8b0e40ac-f244-4abc-99c1-75345666570d","ios":"levelo://app?vid=8b0e40ac-f244-4abc-99c1-75345666570d"},"vehicle_type_id":"4","last_reported":1742289048,"current_range_meters":13600,"station_id":"ce4bgpp2rcd13ifvqc3g","pricing_plan_id":"cebpf4jnsgd1na2vs0mg"},{"bike_id":"89cb3140-d211-4c4d-97ca-7e01c3c4da90","system_id":"levelo_inurba_marseille","lat":43.23186,"lon":5.3558,"is_reserved":false,"is_disabled":false,"rental_uris":{"android":"levelo://app?vid=89cb3140-d211-4c4d-97ca-7e01c3c4da90","ios":"levelo://app?vid=89cb3140-d211-4c4d-97ca-7e01c3c4da90"},"vehicle_type_id":"4","last_reported":1742289048,"current_range_meters":13600,"station_id":"ce4bhu92rcd13ifvqi70","pricing_plan_id":"cebpf4jnsgd1na2vs0mg"},{"bike_id":"0d8011d2-740d-4898-8f44-8bbfcee4f52c","system_id":"levelo_inurba_marseille","lat":43.29253,"lon":5.37623,"is_reserved":false,"is_disabled":false,"rental_uris":{"android":"levelo://app?vid=0d8011d2-740d-4898-8f44-8bbfcee4f52c","ios":"levelo://app?vid=0d8011d2-740d-4898-8f44-8bbfcee4f52c"},"vehicle_type_id":"4","last_reported":1742289048,"current_range_meters":13600,"station_id":"ce4bgi12rcd13ifvqb80","pricing_plan_id":"cebpf4jnsgd1na2vs0mg"},{"bike_id":"2ff0bf88-6fcd-42ec-a3e0-38f5efd75038","system_id":"levelo_inurba_marseille","lat":43.31223,"lon":5.36844,"is_reserved":false,"is_disabled":false,"rental_uris":{"android":"levelo://app?vid=2ff0bf88-6fcd-42ec-a3e0-38f5efd75038","ios":"levelo://app?vid=2ff0bf88-6fcd-42ec-a3e0-38f5efd75038"},"vehicle_type_id":"4","last_reported":1742289048,"current_range_meters":13600,"station_id":"ce4bgl92rcd13ifvqbq0","pricing_plan_id":"cebpf4jnsgd1na2vs0mg"},{"bike_id":"b6f9b9ce-289a-4e66-b4d0-984ba11df15f","system_id":"levelo_inurba_marseille","lat":43.31212,"lon":5.36854,"is_reserved":false,"is_disabled":false,"rental_uris":{"android":"levelo://app?vid=b6f9b9ce-289a-4e66-b4d0-984ba11df15f","ios":"levelo://app?vid=b6f9b9ce-289a-4e66-b4d0-984ba11df15f"},"vehicle_type_id":"4","last_reported":1742289048,"current_range_meters":14400,"station_id":"ce4bgl92rcd13ifvqbq0","pricing_plan_id":"cebpf4jnsgd1na2vs0mg"},{"bike_id":"6f2d066f-cc4f-473e-a070-cee8fcf3bef7","system_id":"levelo_inurba_marseille","lat":43.25719,"lon":5.41115,"is_reserved":false,"is_disabled":false,"rental_uris":{"android":"levelo://app?vid=6f2d066f-cc4f-473e-a070-cee8fcf3bef7","ios":"levelo://app?vid=6f2d066f-cc4f-473e-a070-cee8fcf3bef7"},"vehicle_type_id":"4","last_reported":1742289048,"current_range_meters":14400,"station_id":"ce4bhkp2rcd13ifvqgd0","pricing_plan_id":"cebpf4jnsgd1na2vs0mg"},{"bike_id":"01cd1ae6-bf8d-4270-b368-31e9791618b1","system_id":"levelo_inurba_marseille","lat":43.313488,"lon":5.367296,"is_reserved":false,"is_disabled":false,"rental_uris":{"android":"levelo://app?vid=01cd1ae6-bf8d-4270-b368-31e9791618b1","ios":"levelo://app?vid=01cd1ae6-bf8d-4270-b368-31e9791618b1"},"vehicle_type_id":"4","last_reported":1742289048,"current_range_meters":14400,"station_id":"ce4bgr92rcd13ifvqc6g","pricing_plan_id":"cebpf4jnsgd1na2vs0mg"},{"bike_id":"649ec251-b744-40bc-b64b-f428174a63d7","system_id":"levelo_inurba_marseille","lat":43.27058,"lon":5.40253,"is_reserved":false,"is_disabled":false,"rental_uris":{"android":"levelo://app?vid=649ec251-b744-40bc-b64b-f428174a63d7","ios":"levelo://app?vid=649ec251-b744-40bc-b64b-f428174a63d7"},"vehicle_type_id":"4","last_reported":1742289048,"current_range_meters":14400,"station_id":"ce4bhk92rcd13ifvqgc0","pricing_plan_id":"cebpf4jnsgd1na2vs0mg"},{"bike_id":"89c71be1-4e0c-4e4c-b380-146488b4338b","system_id":"levelo_inurba_marseille","lat":43.23051,"lon":5.35515,"is_reserved":false,"is_disabled":false,"rental_uris":{"android":"levelo://app?vid=89c71be1-4e0c-4e4c-b380-146488b4338b","ios":"levelo://app?vid=89c71be1-4e0c-4e4c-b380-146488b4338b"},"vehicle_type_id":"4","last_reported":1742289048,"current_range_meters":14400,"station_id":"cpo3342slgdg3j2ifvpg","pricing_plan_id":"cebpf4jnsgd1na2vs0mg"},{"bike_id":"86772c91-8eee-4915-8ccc-d74f8a2eb320","system_id":"levelo_inurba_marseille","lat":43.292697,"lon":5.384408,"is_reserved":false,"is_disabled":false,"rental_uris":{"android":"levelo://app?vid=86772c91-8eee-4915-8ccc-d74f8a2eb320","ios":"levelo://app?vid=86772c91-8eee-4915-8ccc-d74f8a2eb320"},"vehicle_type_id":"4","last_reported":1742289048,"current_range_meters":14400,"station_id":"ce4bha92rcd13ifvqeh0","pricing_plan_id":"cebpf4jnsgd1na2vs0mg"},{"bike_id":"50880c33-fb65-4637-84ac-20bb27eda8b5","system_id":"levelo_inurba_marseille","lat":43.23201,"lon":5.35557,"is_reserved":false,"is_disabled":false,"rental_uris":{"android":"levelo://app?vid=50880c33-fb65-4637-84ac-20bb27eda8b5","ios":"levelo://app?vid=50880c33-fb65-4637-84ac-20bb27eda8b5"},"vehicle_type_id":"4","last_reported":1742289048,"current_range_meters":14400,"station_id":"ce4bhu92rcd13ifvqi70","pricing_plan_id":"cebpf4jnsgd1na2vs0mg"},{"bike_id":"46fb0b1b-1955-4ab4-b766-1924deb90ec6","system_id":"levelo_inurba_marseille","lat":43.24072,"lon":5.37763,"is_reserved":false,"is_disabled":false,"rental_uris":{"android":"levelo://app?vid=46fb0b1b-1955-4ab4-b766-1924deb90ec6","ios":"levelo://app?vid=46fb0b1b-1955-4ab4-b766-1924deb90ec6"},"vehicle_type_id":"4","last_reported":1742289048,"current_range_meters":14400,"station_id":"ce4bhnp2rcd13ifvqgvg","pricing_plan_id":"cebpf4jnsgd1na2vs0mg"},{"bike_id":"4ea2f8ba-453f-42eb-a36d-78c8ddcfbee6","system_id":"levelo_inurba_marseille","lat":43.31384,"lon":5.36701,"is_reserved":false,"is_disabled":false,"rental_uris":{"android":"levelo://app?vid=4ea2f8ba-453f-42eb-a36d-78c8ddcfbee6","ios":"levelo://app?vid=4ea2f8ba-453f-42eb-a36d-78c8ddcfbee6"},"vehicle_type_id":"4","last_reported":1742289048,"current_range_meters":14400,"station_id":"","pricing_plan_id":"cebpf4jnsgd1na2vs0mg"},{"bike_id":"d52a076a-55d2-4155-a7a1-cabd1f501a5e","system_id":"levelo_inurba_marseille","lat":43.25495,"lon":5.37647,"is_reserved":false,"is_disabled":false,"rental_uris":{"android":"levelo://app?vid=d52a076a-55d2-4155-a7a1-cabd1f501a5e","ios":"levelo://app?vid=d52a076a-55d2-4155-a7a1-cabd1f501a5e"},"vehicle_type_id":"4","last_reported":1742289048,"current_range_meters":14800,"station_id":"ce4bhh12rcd13ifvqff0","pricing_plan_id":"cebpf4jnsgd1na2vs0mg"},{"bike_id":"374d2a4c-c58a-4e3b-acc4-2ff3f91a351b","system_id":"levelo_inurba_marseille","lat":43.30465,"lon":5.37911,"is_reserved":false,"is_disabled":false,"rental_uris":{"android":"levelo://app?vid=374d2a4c-c58a-4e3b-acc4-2ff3f91a351b","ios":"levelo://app?vid=374d2a4c-c58a-4e3b-acc4-2ff3f91a351b"},"vehicle_type_id":"4","last_reported":1742289048,"current_range_meters":14800,"station_id":"ce4bgup2rcd13ifvqcn0","pricing_plan_id":"cebpf4jnsgd1na2vs0mg"},{"bike_id":"3de59f78-f300-4a54-9926-b844c98baa30","system_id":"levelo_inurba_marseille","lat":43.27281,"lon":5.39122,"is_reserved":false,"is_disabled":false,"rental_uris":{"android":"levelo://app?vid=3de59f78-f300-4a54-9926-b844c98baa30","ios":"levelo://app?vid=3de59f78-f300-4a54-9926-b844c98baa30"},"vehicle_type_id":"4","last_reported":1742289048,"current_range_meters":14400,"station_id":"ce4bhgp2rcd13ifvqfe0","pricing_plan_id":"cebpf4jnsgd1na2vs0mg"},{"bike_id":"1b816da1-b5df-49f9-9180-41dff3e2b872","system_id":"levelo_inurba_marseille","lat":43.24176,"lon":5.39733,"is_reserved":false,"is_disabled":false,"rental_uris":{"android":"levelo://app?vid=1b816da1-b5df-49f9-9180-41dff3e2b872","ios":"levelo://app?vid=1b816da1-b5df-49f9-9180-41dff3e2b872"},"vehicle_type_id":"4","last_reported":1742289048,"current_range_meters":14800,"station_id":"ce4bhn12rcd13ifvqgpg","pricing_plan_id":"cebpf4jnsgd1na2vs0mg"},{"bike_id":"13497923-69e8-4913-8954-bd34798af567","system_id":"levelo_inurba_marseille","lat":43.31353,"lon":5.36719,"is_reserved":false,"is_disabled":false,"rental_uris":{"android":"levelo://app?vid=13497923-69e8-4913-8954-bd34798af567","ios":"levelo://app?vid=13497923-69e8-4913-8954-bd34798af567"},"vehicle_type_id":"4","last_reported":1742289048,"current_range_meters":14800,"station_id":"ce4bgr92rcd13ifvqc6g","pricing_plan_id":"cebpf4jnsgd1na2vs0mg"},{"bike_id":"623b1d48-fe8c-4a6a-b45e-f5a8ef1ac996","system_id":"levelo_inurba_marseille","lat":43.30532,"lon":5.36515,"is_reserved":false,"is_disabled":false,"rental_uris":{"android":"levelo://app?vid=623b1d48-fe8c-4a6a-b45e-f5a8ef1ac996","ios":"levelo://app?vid=623b1d48-fe8c-4a6a-b45e-f5a8ef1ac996"},"vehicle_type_id":"4","last_reported":1742289048,"current_range_meters":14800,"station_id":"ce4bgs12rcd13ifvqcag","pricing_plan_id":"cebpf4jnsgd1na2vs0mg"},{"bike_id":"ab89593c-4356-4819-999c-705f920e12f7","system_id":"levelo_inurba_marseille","lat":43.32365,"lon":5.3888,"is_reserved":false,"is_disabled":false,"rental_uris":{"android":"levelo://app?vid=ab89593c-4356-4819-999c-705f920e12f7","ios":"levelo://app?vid=ab89593c-4356-4819-999c-705f920e12f7"},"vehicle_type_id":"4","last_reported":1742289048,"current_range_meters":14800,"station_id":"ce4bhqp2rcd13ifvqhog","pricing_plan_id":"cebpf4jnsgd1na2vs0mg"},{"bike_id":"34c57257-f714-4b40-ae9d-cb0f08ec03c0","system_id":"levelo_inurba_marseille","lat":43.29802,"lon":5.38081,"is_reserved":false,"is_disabled":false,"rental_uris":{"android":"levelo://app?vid=34c57257-f714-4b40-ae9d-cb0f08ec03c0","ios":"levelo://app?vid=34c57257-f714-4b40-ae9d-cb0f08ec03c0"},"vehicle_type_id":"4","last_reported":1742289048,"current_range_meters":14800,"station_id":"ce4bgip2rcd13ifvqbb0","pricing_plan_id":"cebpf4jnsgd1na2vs0mg"},{"bike_id":"ecf39652-93f6-41c8-9e6c-a8506e206056","system_id":"levelo_inurba_marseille","lat":43.29705,"lon":5.377,"is_reserved":false,"is_disabled":false,"rental_uris":{"android":"levelo://app?vid=ecf39652-93f6-41c8-9e6c-a8506e206056","ios":"levelo://app?vid=ecf39652-93f6-41c8-9e6c-a8506e206056"},"vehicle_type_id":"4","last_reported":1742289048,"current_range_meters":14800,"station_id":"ce4bgkh2rcd13ifvqbl0","pricing_plan_id":"cebpf4jnsgd1na2vs0mg"},{"bike_id":"c01cdb3a-6c83-4c6f-9453-ef47f23ff0f3","system_id":"levelo_inurba_marseille","lat":43.23138,"lon":5.43752,"is_reserved":false,"is_disabled":false,"rental_uris":{"android":"levelo://app?vid=c01cdb3a-6c83-4c6f-9453-ef47f23ff0f3","ios":"levelo://app?vid=c01cdb3a-6c83-4c6f-9453-ef47f23ff0f3"},"vehicle_type_id":"4","last_reported":1742289048,"current_range_meters":15200,"station_id":"ce4bhmp2rcd13ifvqgog","pricing_plan_id":"cebpf4jnsgd1na2vs0mg"},{"bike_id":"3c054d98-734f-40a9-bc9f-5a6912ba9713","system_id":"levelo_inurba_marseille","lat":43.33598,"lon":5.41026,"is_reserved":false,"is_disabled":false,"rental_uris":{"android":"levelo://app?vid=3c054d98-734f-40a9-bc9f-5a6912ba9713","ios":"levelo://app?vid=3c054d98-734f-40a9-bc9f-5a6912ba9713"},"vehicle_type_id":"4","last_reported":1742289048,"current_range_meters":15200,"station_id":"ce4bhqh2rcd13ifvqhmg","pricing_plan_id":"cebpf4jnsgd1na2vs0mg"},{"bike_id":"4b15e9a2-6fce-4825-90dd-ee95e058d4ef","system_id":"levelo_inurba_marseille","lat":43.27212,"lon":5.39185,"is_reserved":false,"is_disabled":false,"rental_uris":{"android":"levelo://app?vid=4b15e9a2-6fce-4825-90dd-ee95e058d4ef","ios":"levelo://app?vid=4b15e9a2-6fce-4825-90dd-ee95e058d4ef"},"vehicle_type_id":"4","last_reported":1742289048,"current_range_meters":15200,"station_id":"ce4bhhp2rcd13ifvqfm0","pricing_plan_id":"cebpf4jnsgd1na2vs0mg"},{"bike_id":"e60c1153-ceb4-4f72-92cd-2dc1051b5e4c","system_id":"levelo_inurba_marseille","lat":43.26066,"lon":5.39392,"is_reserved":false,"is_disabled":true,"rental_uris":{"android":"levelo://app?vid=e60c1153-ceb4-4f72-92cd-2dc1051b5e4c","ios":"levelo://app?vid=e60c1153-ceb4-4f72-92cd-2dc1051b5e4c"},"vehicle_type_id":"4","last_reported":1742289048,"current_range_meters":16000,"station_id":"ce4bhh92rcd13ifvqfj0","pricing_plan_id":"cebpf4jnsgd1na2vs0mg"},{"bike_id":"36039125-2a17-48d0-b828-86cfdcb61646","system_id":"levelo_inurba_marseille","lat":43.30414,"lon":5.41302,"is_reserved":false,"is_disabled":true,"rental_uris":{"android":"levelo://app?vid=36039125-2a17-48d0-b828-86cfdcb61646","ios":"levelo://app?vid=36039125-2a17-48d0-b828-86cfdcb61646"},"vehicle_type_id":"4","last_reported":1742289048,"current_range_meters":16000,"station_id":"ce4bhop2rcd13ifvqh8g","pricing_plan_id":"cebpf4jnsgd1na2vs0mg"},{"bike_id":"ff037ac5-a7ea-45e6-93cf-7d394f2f7759","system_id":"levelo_inurba_marseille","lat":43.30554,"lon":5.36549,"is_reserved":false,"is_disabled":false,"rental_uris":{"android":"levelo://app?vid=ff037ac5-a7ea-45e6-93cf-7d394f2f7759","ios":"levelo://app?vid=ff037ac5-a7ea-45e6-93cf-7d394f2f7759"},"vehicle_type_id":"4","last_reported":1742289048,"current_range_meters":16000,"station_id":"ce4bgs12rcd13ifvqcag","pricing_plan_id":"cebpf4jnsgd1na2vs0mg"},{"bike_id":"3455258b-4135-46b9-9a26-10bf95160e40","system_id":"levelo_inurba_marseille","lat":43.23192,"lon":5.3556,"is_reserved":false,"is_disabled":false,"rental_uris":{"android":"levelo://app?vid=3455258b-4135-46b9-9a26-10bf95160e40","ios":"levelo://app?vid=3455258b-4135-46b9-9a26-10bf95160e40"},"vehicle_type_id":"4","last_reported":1742289048,"current_range_meters":16000,"station_id":"ce4bhu92rcd13ifvqi70","pricing_plan_id":"cebpf4jnsgd1na2vs0mg"},{"bike_id":"cf6265a1-47c3-4f28-82bd-a18b06e57bd4","system_id":"levelo_inurba_marseille","lat":43.2315,"lon":5.4371,"is_reserved":false,"is_disabled":false,"rental_uris":{"android":"levelo://app?vid=cf6265a1-47c3-4f28-82bd-a18b06e57bd4","ios":"levelo://app?vid=cf6265a1-47c3-4f28-82bd-a18b06e57bd4"},"vehicle_type_id":"4","last_reported":1742289048,"current_range_meters":16000,"station_id":"ce4bhmp2rcd13ifvqgog","pricing_plan_id":"cebpf4jnsgd1na2vs0mg"},{"bike_id":"2ebdd665-45bc-41e4-ba36-29ebf27d9e85","system_id":"levelo_inurba_marseille","lat":43.25941,"lon":5.409,"is_reserved":false,"is_disabled":false,"rental_uris":{"android":"levelo://app?vid=2ebdd665-45bc-41e4-ba36-29ebf27d9e85","ios":"levelo://app?vid=2ebdd665-45bc-41e4-ba36-29ebf27d9e85"},"vehicle_type_id":"4","last_reported":1742289048,"current_range_meters":16000,"station_id":"ce4bhm92rcd13ifvqglg","pricing_plan_id":"cebpf4jnsgd1na2vs0mg"},{"bike_id":"c08cbb70-84d6-4161-9491-997f32dfb1fb","system_id":"levelo_inurba_marseille","lat":43.27534,"lon":5.42452,"is_reserved":false,"is_disabled":false,"rental_uris":{"android":"levelo://app?vid=c08cbb70-84d6-4161-9491-997f32dfb1fb","ios":"levelo://app?vid=c08cbb70-84d6-4161-9491-997f32dfb1fb"},"vehicle_type_id":"4","last_reported":1742289048,"current_range_meters":16000,"station_id":"ce4bhn92rcd13ifvqgrg","pricing_plan_id":"cebpf4jnsgd1na2vs0mg"},{"bike_id":"f5b5b897-b776-4f00-9f85-b4d42ed7205c","system_id":"levelo_inurba_marseille","lat":43.259311,"lon":5.409336,"is_reserved":false,"is_disabled":false,"rental_uris":{"android":"levelo://app?vid=f5b5b897-b776-4f00-9f85-b4d42ed7205c","ios":"levelo://app?vid=f5b5b897-b776-4f00-9f85-b4d42ed7205c"},"vehicle_type_id":"4","last_reported":1742289048,"current_range_meters":16000,"station_id":"ce4bhm92rcd13ifvqglg","pricing_plan_id":"cebpf4jnsgd1na2vs0mg"},{"bike_id":"c5309401-9b7d-47d9-bc27-68e581fb9ae9","system_id":"levelo_inurba_marseille","lat":43.31367,"lon":5.38495,"is_reserved":false,"is_disabled":false,"rental_uris":{"android":"levelo://app?vid=c5309401-9b7d-47d9-bc27-68e581fb9ae9","ios":"levelo://app?vid=c5309401-9b7d-47d9-bc27-68e581fb9ae9"},"vehicle_type_id":"4","last_reported":1742289048,"current_range_meters":16000,"station_id":"ce4bgt92rcd13ifvqcf0","pricing_plan_id":"cebpf4jnsgd1na2vs0mg"},{"bike_id":"a5bae6f4-8213-4982-8623-d7bb4f603226","system_id":"levelo_inurba_marseille","lat":43.29586,"lon":5.36736,"is_reserved":false,"is_disabled":false,"rental_uris":{"android":"levelo://app?vid=a5bae6f4-8213-4982-8623-d7bb4f603226","ios":"levelo://app?vid=a5bae6f4-8213-4982-8623-d7bb4f603226"},"vehicle_type_id":"4","last_reported":1742289048,"current_range_meters":16000,"station_id":"ce4bgph2rcd13ifvqc2g","pricing_plan_id":"cebpf4jnsgd1na2vs0mg"},{"bike_id":"46d9b679-8ebc-4c21-835a-832ae81a8ee4","system_id":"levelo_inurba_marseille","lat":43.33002,"lon":5.39081,"is_reserved":false,"is_disabled":false,"rental_uris":{"android":"levelo://app?vid=46d9b679-8ebc-4c21-835a-832ae81a8ee4","ios":"levelo://app?vid=46d9b679-8ebc-4c21-835a-832ae81a8ee4"},"vehicle_type_id":"4","last_reported":1742289048,"current_range_meters":16400,"station_id":"ce4bhr92rcd13ifvqhrg","pricing_plan_id":"cebpf4jnsgd1na2vs0mg"},{"bike_id":"36f5e068-26e9-485b-84a3-fa1ce5017122","system_id":"levelo_inurba_marseille","lat":43.26936,"lon":5.38901,"is_reserved":false,"is_disabled":false,"rental_uris":{"android":"levelo://app?vid=36f5e068-26e9-485b-84a3-fa1ce5017122","ios":"levelo://app?vid=36f5e068-26e9-485b-84a3-fa1ce5017122"},"vehicle_type_id":"4","last_reported":1742289048,"current_range_meters":16400,"station_id":"ce4bhhh2rcd13ifvqfl0","pricing_plan_id":"cebpf4jnsgd1na2vs0mg"},