{"last_updated":1733803927,"ttl":60,"version":"2.2","data":{"bikes":[{"bike_id":"d3a909b4-b8a0-48dc-a4de-1e83b17ccfa0","system_id":"levelo_inurba_marseille","lat":43.3111,"lon":5.37763,"is_reserved":false,"is_disabled":false,"rental_uris":{"android":"levelo://app?vid=d3a909b4-b8a0-48dc-a4de-1e83b17ccfa0","ios":"levelo://app?vid=d3a909b4-b8a0-48dc-a4de-1e83b17ccfa0"},"vehicle_type_id":"4","last_reported":1733803928,"current_range_meters":37600,"station_id":"ce4bgt92rcd13ifvqcg0","pricing_plan_id":"cebpf4jnsgd1na2vs0mg"},{"bike_id":"2c2c4cba-98a7-4fbd-80fc-640737cfc718","system_id":"levelo_inurba_marseille","lat":43.279479,"lon":5.410426,"is_reserved":false,"is_disabled":false,"rental_uris":{"android":"levelo://app?vid=2c2c4cba-98a7-4fbd-80fc-640737cfc718","ios":"levelo://app?vid=2c2c4cba-98a7-4fbd-80fc-640737cfc718"},"vehicle_type_id":"4","last_reported":1733803928,"current_range_meters":8400,"station_id":"ce4bhnp2rcd13ifvqh0g","pricing_plan_id":"cebpf4jnsgd1na2vs0mg"},{"bike_id":"f23b8abc-c3d2-4caf-ae41-09355f4b342b","system_id":"levelo_inurba_marseille","lat":43.28342,"lon":5.38104,"is_reserved":false,"is_disabled":false,"rental_uris":{"android":"levelo://app?vid=f23b8abc-c3d2-4caf-ae41-09355f4b342b","ios":"levelo://app?vid=f23b8abc-c3d2-4caf-ae41-09355f4b342b"},"vehicle_type_id":"4","last_reported":1733803928,"current_range_meters":38800,"station_id":"ce4bh412rcd13ifvqdr0","pricing_plan_id":"cebpf4jnsgd1na2vs0mg"},{"bike_id":"8e029eaf-e104-4c5d-858d-6cd39de73d09","system_id":"levelo_inurba_marseille","lat":43.24168,"lon":5.36371,"is_reserved":false,"is_disabled":false,"rental_uris":{"android":"levelo://app?vid=8e029eaf-e104-4c5d-858d-6cd39de73d09","ios":"levelo://app?vid=8e029eaf-e104-4c5d-858d-6cd39de73d09"},"vehicle_type_id":"4","last_reported":1733803928,"current_range_meters":18000,"station_id":"cpo36qri1sfpv3e86is0","pricing_plan_id":"cebpf4jnsgd1na2vs0mg"},{"bike_id":"13cae269-f4b4-441c-afaf-fe77d6d91024","system_id":"levelo_inurba_marseille","lat":43.295093,"lon":5.374922,"is_reserved":false,"is_disabled":true,"rental_uris":{"android":"levelo://app?vid=13cae269-f4b4-441c-afaf-fe77d6d91024","ios":"levelo://app?vid=13cae269-f4b4-441c-afaf-fe77d6d91024"},"vehicle_type_id":"4","last_reported":1733803928,"current_range_meters":0,"station_id":"","pricing_plan_id":"cebpf4jnsgd1na2vs0mg"},{"bike_id":"5ee88fa2-ea43-4fcc-81b6-7c648141d8f2","system_id":"levelo_inurba_marseille","lat":43.27561,"lon":5.38429,"is_reserved":false,"is_disabled":false,"rental_uris":{"android":"levelo://app?vid=5ee88fa2-ea43-4fcc-81b6-7c648141d8f2","ios":"levelo://app?vid=5ee88fa2-ea43-4fcc-81b6-7c648141d8f2"},"vehicle_type_id":"4","last_reported":1733803928,"current_range_meters":38800,"station_id":"ce4bhh92rcd13ifvqfi0","pricing_plan_id":"cebpf4jnsgd1na2vs0mg"},{"bike_id":"49890e82-aa27-4846-9659-88aa2ac9ae8b","system_id":"levelo_inurba_marseille","lat":43.24668,"lon":5.38155,"is_reserved":false,"is_disabled":false,"rental_uris":{"android":"levelo://app?vid=49890e82-aa27-4846-9659-88aa2ac9ae8b","ios":"levelo://app?vid=49890e82-aa27-4846-9659-88aa2ac9ae8b"},"vehicle_type_id":"4","last_reported":1733803928,"current_range_meters":39200,"station_id":"ce4bhih2rcd13ifvqfr0","pricing_plan_id":"cebpf4jnsgd1na2vs0mg"},{"bike_id":"046febf9-c73f-444e-b819-58a835bbd451","system_id":"levelo_inurba_marseille","lat":43.30802,"lon":5.38151,"is_reserved":false,"is_disabled":false,"rental_uris":{"android":"levelo://app?vid=046febf9-c73f-444e-b819-58a835bbd451","ios":"levelo://app?vid=046febf9-c73f-444e-b819-58a835bbd451"},"vehicle_type_id":"4","last_reported":1733803928,"current_range_meters":27200,"station_id":"ce4bgt12rcd13ifvqce0","pricing_plan_id":"cebpf4jnsgd1na2vs0mg"},{"bike_id":"76639e26-0196-4fcf-ac89-85e5961f29e7","system_id":"levelo_inurba_marseille","lat":43.28194,"lon":5.39065,"is_reserved":false,"is_disabled":false,"rental_uris":{"android":"levelo://app?vid=76639e26-0196-4fcf-ac89-85e5961f29e7","ios":"levelo://app?vid=76639e26-0196-4fcf-ac89-85e5961f29e7"},"vehicle_type_id":"4","last_reported":1733803928,"current_range_meters":30800,"station_id":"","pricing_plan_id":"cebpf4jnsgd1na2vs0mg"},{"bike_id":"8895276b-228e-48c3-8cae-ed0058c414e1","system_id":"levelo_inurba_marseille","lat":43.25109,"lon":5.40325,"is_reserved":false,"is_disabled":false,"rental_uris":{"android":"levelo://app?vid=8895276b-228e-48c3-8cae-ed0058c414e1","ios":"levelo://app?vid=8895276b-228e-48c3-8cae-ed0058c414e1"},"vehicle_type_id":"4","last_reported":1733803928,"current_range_meters":28800,"station_id":"ce4bhlh2rcd13ifvqgig","pricing_plan_id":"cebpf4jnsgd1na2vs0mg"},{"bike_id":"d7c8c15b-fef7-401a-88a6-d231e1fbaaef","system_id":"levelo_inurba_marseille","lat":43.3064,"lon":5.40075,"is_reserved":false,"is_disabled":false,"rental_uris":{"android":"levelo://app?vid=d7c8c15b-fef7-401a-88a6-d231e1fbaaef","ios":"levelo://app?vid=d7c8c15b-fef7-401a-88a6-d231e1fbaaef"},"vehicle_type_id":"4","last_reported":1733803928,"current_range_meters":33200,"station_id":"ce4bh112rcd13ifvqda0","pricing_plan_id":"cebpf4jnsgd1na2vs0mg"},{"bike_id":"be08ff68-7243-47da-b677-72f2f0bf0d0a","system_id":"levelo_inurba_marseille","lat":43.27903,"lon":5.38287,"is_reserved":false,"is_disabled":false,"rental_uris":{"android":"levelo://app?vid=be08ff68-7243-47da-b677-72f2f0bf0d0a","ios":"levelo://app?vid=be08ff68-7243-47da-b677-72f2f0bf0d0a"},"vehicle_type_id":"4","last_reported":1733803928,"current_range_meters":33200,"station_id":"","pricing_plan_id":"cebpf4jnsgd1na2vs0mg"},{"bike_id":"0c49aba8-b913-484c-a46c-d4b704e34faa","system_id":"levelo_inurba_marseille","lat":43.30782,"lon":5.37652,"is_reserved":false,"is_disabled":false,"rental_uris":{"android":"levelo://app?vid=0c49aba8-b913-484c-a46c-d4b704e34faa","ios":"levelo://app?vid=0c49aba8-b913-484c-a46c-d4b704e34faa"},"vehicle_type_id":"4","last_reported":1733803928,"current_range_meters":39200,"station_id":"ce4bgv92rcd13ifvqcq0","pricing_plan_id":"cebpf4jnsgd1na2vs0mg"},{"bike_id":"8bd642b2-0279-44c7-9ee2-fc3b57332c83","system_id":"levelo_inurba_marseille","lat":43.27455,"lon":5.40073,"is_reserved":false,"is_disabled":true,"rental_uris":{"android":"levelo://app?vid=8bd642b2-0279-44c7-9ee2-fc3b57332c83","ios":"levelo://app?vid=8bd642b2-0279-44c7-9ee2-fc3b57332c83"},"vehicle_type_id":"4","last_reported":1733803928,"current_range_meters":0,"station_id":"","pricing_plan_id":"cebpf4jnsgd1na2vs0mg"},{"bike_id":"47b9d276-faca-4afc-8078-71ca58436a6a","system_id":"levelo_inurba_marseille","lat":43.27372,"lon":5.38526,"is_reserved":false,"is_disabled":false,"rental_uris":{"android":"levelo://app?vid=47b9d276-faca-4afc-8078-71ca58436a6a","ios":"levelo://app?vid=47b9d276-faca-4afc-8078-71ca58436a6a"},"vehicle_type_id":"4","last_reported":1733803928,"current_range_meters":38000,"station_id":"ce4bhh92rcd13ifvqfi0","pricing_plan_id":"cebpf4jnsgd1na2vs0mg"},{"bike_id":"8bbcb1c3-3c13-458a-a8cd-359d4a2951b7","system_id":"levelo_inurba_marseille","lat":43.25856,"lon":5.39904,"is_reserved":false,"is_disabled":false,"rental_uris":{"android":"levelo://app?vid=8bbcb1c3-3c13-458a-a8cd-359d4a2951b7","ios":"levelo://app?vid=8bbcb1c3-3c13-458a-a8cd-359d4a2951b7"},"vehicle_type_id":"4","last_reported":1733803928,"current_range_meters":29600,"station_id":"ce4bhl92rcd13ifvqghg","pricing_plan_id":"cebpf4jnsgd1na2vs0mg"},{"bike_id":"deedd7f7-fc9f-4027-90a0-1ae12c04a0ab","system_id":"levelo_inurba_marseille","lat":43.30135,"lon":5.39874,"is_reserved":false,"is_disabled":false,"rental_uris":{"android":"levelo://app?vid=deedd7f7-fc9f-4027-90a0-1ae12c04a0ab","ios":"levelo://app?vid=deedd7f7-fc9f-4027-90a0-1ae12c04a0ab"},"vehicle_type_id":"4","last_reported":1733803928,"current_range_meters":37600,"station_id":"ce4bh0h2rcd13ifvqd40","pricing_plan_id":"cebpf4jnsgd1na2vs0mg"},{"bike_id":"f09914a1-032a-4233-965f-c73f49a269ba","system_id":"levelo_inurba_marseille","lat":43.337444,"lon":5.374475,"is_reserved":false,"is_disabled":true,"rental_uris":{"android":"levelo://app?vid=f09914a1-032a-4233-965f-c73f49a269ba","ios":"levelo://app?vid=f09914a1-032a-4233-965f-c73f49a269ba"},"vehicle_type_id":"4","last_reported":1733803928,"current_range_meters":0,"station_id":"","pricing_plan_id":"cebpf4jnsgd1na2vs0mg"},{"bike_id":"88a4150c-c945-4c77-b494-3806bd64d2d1","system_id":"levelo_inurba_marseille","lat":43.32283,"lon":5.38275,"is_reserved":false,"is_disabled":false,"rental_uris":{"android":"levelo://app?vid=88a4150c-c945-4c77-b494-3806bd64d2d1","ios":"levelo://app?vid=88a4150c-c945-4c77-b494-3806bd64d2d1"},"vehicle_type_id":"4","last_reported":1733803928,"current_range_meters":30000,"station_id":"ce4bhr12rcd13ifvqhqg","pricing_plan_id":"cebpf4jnsgd1na2vs0mg"},{"bike_id":"f6ceca24-19af-4ed8-b20b-dad7699688ae","system_id":"levelo_inurba_marseille","lat":43.32481,"lon":5.36574,"is_reserved":false,"is_disabled":true,"rental_uris":{"android":"levelo://app?vid=f6ceca24-19af-4ed8-b20b-dad7699688ae","ios":"levelo://app?vid=f6ceca24-19af-4ed8-b20b-dad7699688ae"},"vehicle_type_id":"4","last_reported":1733803928,"current_range_meters":25200,"station_id":"ce4bhs12rcd13ifvqhvg","pricing_plan_id":"cebpf4jnsgd1na2vs0mg"},{"bike_id":"a955f565-33db-4fdc-bdbf-249121ea420f","system_id":"levelo_inurba_marseille","lat":43.29187,"lon":5.35794,"is_reserved":false,"is_disabled":true,"rental_uris":{"android":"levelo://app?vid=a955f565-33db-4fdc-bdbf-249121ea420f","ios":"levelo://app?vid=a955f565-33db-4fdc-bdbf-249121ea420f"},"vehicle_type_id":"4","last_reported":1733803928,"current_range_meters":28800,"station_id":"ce4bhb12rcd13ifvqel0","pricing_plan_id":"cebpf4jnsgd1na2vs0mg"},{"bike_id":"20028548-694c-4cef-aeb1-a524e5fd6c29","system_id":"levelo_inurba_marseille","lat":43.24071,"lon":5.37764,"is_reserved":false,"is_disabled":false,"rental_uris":{"android":"levelo://app?vid=20028548-694c-4cef-aeb1-a524e5fd6c29","ios":"levelo://app?vid=20028548-694c-4cef-aeb1-a524e5fd6c29"},"vehicle_type_id":"4","last_reported":1733803928,"current_range_meters":27200,"station_id":"ce4bhnp2rcd13ifvqgvg","pricing_plan_id":"cebpf4jnsgd1na2vs0mg"},{"bike_id":"1aa44ed9-e118-4ef3-bc76-ec2ddb64bcd0","system_id":"levelo_inurba_marseille","lat":43.273231,"lon":5.390893,"is_reserved":false,"is_disabled":true,"rental_uris":{"android":"levelo://app?vid=1aa44ed9-e118-4ef3-bc76-ec2ddb64bcd0","ios":"levelo://app?vid=1aa44ed9-e118-4ef3-bc76-ec2ddb64bcd0"},"vehicle_type_id":"4","last_reported":1733803928,"current_range_meters":14400,"station_id":"ce4bhgp2rcd13ifvqfe0","pricing_plan_id":"cebpf4jnsgd1na2vs0mg"},{"bike_id":"14c257dc-06bf-4a29-939b-9abb4cc4885a","system_id":"levelo_inurba_marseille","lat":43.28502,"lon":5.36812,"is_reserved":false,"is_disabled":false,"rental_uris":{"android":"levelo://app?vid=14c257dc-06bf-4a29-939b-9abb4cc4885a","ios":"levelo://app?vid=14c257dc-06bf-4a29-939b-9abb4cc4885a"},"vehicle_type_id":"4","last_reported":1733803928,"current_range_meters":4000,"station_id":"","pricing_plan_id":"cebpf4jnsgd1na2vs0mg"},{"bike_id":"79533f17-2510-4978-b3f7-d9e54ffe07ac","system_id":"levelo_inurba_marseille","lat":43.29626,"lon":5.40597,"is_reserved":false,"is_disabled":false,"rental_uris":{"android":"levelo://app?vid=79533f17-2510-4978-b3f7-d9e54ffe07ac","ios":"levelo://app?vid=79533f17-2510-4978-b3f7-d9e54ffe07ac"},"vehicle_type_id":"4","last_reported":1733803928,"current_range_meters":38400,"station_id":"ce4bh0h2rcd13ifvqd60","pricing_plan_id":"cebpf4jnsgd1na2vs0mg"},{"bike_id":"a3e8e9fb-04a5-4d06-af46-bac5ccdd7575","system_id":"levelo_inurba_marseille","lat":43.3115,"lon":5.39603,"is_reserved":false,"is_disabled":false,"rental_uris":{"android":"levelo://app?vid=a3e8e9fb-04a5-4d06-af46-bac5ccdd7575","ios":"levelo://app?vid=a3e8e9fb-04a5-4d06-af46-bac5ccdd7575"},"vehicle_type_id":"4","last_reported":1733803928,"current_range_meters":33200,"station_id":"ce4bgvp2rcd13ifvqcu0","pricing_plan_id":"cebpf4jnsgd1na2vs0mg"},{"bike_id":"6649269c-5c88-4f82-8516-469200adfc98","system_id":"levelo_inurba_marseille","lat":43.3014,"lon":5.38083,"is_reserved":false,"is_disabled":false,"rental_uris":{"android":"levelo://app?vid=6649269c-5c88-4f82-8516-469200adfc98","ios":"levelo://app?vid=6649269c-5c88-4f82-8516-469200adfc98"},"vehicle_type_id":"4","last_reported":1733803928,"current_range_meters":37600,"station_id":"ce4bgjp2rcd13ifvqbh0","pricing_plan_id":"cebpf4jnsgd1na2vs0mg"},{"bike_id":"82bd6dd3-b2f4-47d6-ac4d-974572fd8550","system_id":"levelo_inurba_marseille","lat":43.2928,"lon":5.40134,"is_reserved":false,"is_disabled":false,"rental_uris":{"android":"levelo://app?vid=82bd6dd3-b2f4-47d6-ac4d-974572fd8550","ios":"levelo://app?vid=82bd6dd3-b2f4-47d6-ac4d-974572fd8550"},"vehicle_type_id":"4","last_reported":1733803928,"current_range_meters":20400,"station_id":"ce4bh312rcd13ifvqdk0","pricing_plan_id":"cebpf4jnsgd1na2vs0mg"},{"bike_id":"748ed380-cc04-447e-a269-40aa2d7d60b0","system_id":"levelo_inurba_marseille","lat":43.27554,"lon":5.38432,"is_reserved":false,"is_disabled":false,"rental_uris":{"android":"levelo://app?vid=748ed380-cc04-447e-a269-40aa2d7d60b0","ios":"levelo://app?vid=748ed380-cc04-447e-a269-40aa2d7d60b0"},"vehicle_type_id":"4","last_reported":1733803928,"current_range_meters":36400,"station_id":"ce4bhh92rcd13ifvqfi0","pricing_plan_id":"cebpf4jnsgd1na2vs0mg"},{"bike_id":"1bc7ee23-af86-4249-ae87-23dab9957890","system_id":"levelo_inurba_marseille","lat":43.28102,"lon":5.37841,"is_reserved":false,"is_disabled":false,"rental_uris":{"android":"levelo://app?vid=1bc7ee23-af86-4249-ae87-23dab9957890","ios":"levelo://app?vid=1bc7ee23-af86-4249-ae87-23dab9957890"},"vehicle_type_id":"4","last_reported":1733803928,"current_range_meters":16000,"station_id":"ce4bha12rcd13ifvqee0","pricing_plan_id":"cebpf4jnsgd1na2vs0mg"},{"bike_id":"4d00115a-601e-40af-9d72-e89d80026000","system_id":"levelo_inurba_marseille","lat":43.30779,"lon":5.37652,"is_reserved":false,"is_disabled":false,"rental_uris":{"android":"levelo://app?vid=4d00115a-601e-40af-9d72-e89d80026000","ios":"levelo://app?vid=4d00115a-601e-40af-9d72-e89d80026000"},"vehicle_type_id":"4","last_reported":1733803928,"current_range_meters":30400,"station_id":"ce4bgv92rcd13ifvqcq0","pricing_plan_id":"cebpf4jnsgd1na2vs0mg"},{"bike_id":"e6550b39-6d6f-4de3-b7c0-2a7a2be3424b","system_id":"levelo_inurba_marseille","lat":43.28449,"lon":5.3589,"is_reserved":false,"is_disabled":false,"rental_uris":{"android":"levelo://app?vid=e6550b39-6d6f-4de3-b7c0-2a7a2be3424b","ios":"levelo://app?vid=e6550b39-6d6f-4de3-b7c0-2a7a2be3424b"},"vehicle_type_id":"4","last_reported":1733803928,"current_range_meters":6000,"station_id":"ce4bhah2rcd13ifvqei0","pricing_plan_id":"cebpf4jnsgd1na2vs0mg"},{"bike_id":"ab8c65b6-c08a-4b46-be03-4378127e95ea","system_id":"levelo_inurba_marseille","lat":43.31166,"lon":5.38709,"is_reserved":false,"is_disabled":false,"rental_uris":{"android":"levelo://app?vid=ab8c65b6-c08a-4b46-be03-4378127e95ea","ios":"levelo://app?vid=ab8c65b6-c08a-4b46-be03-4378127e95ea"},"vehicle_type_id":"4","last_reported":1733803928,"current_range_meters":39200,"station_id":"ce4bgv12rcd13ifvqcp0","pricing_plan_id":"cebpf4jnsgd1na2vs0mg"},{"bike_id":"480f28a2-7fc0-4293-a84e-a1f8167b279b","system_id":"levelo_inurba_marseille","lat":43.25863,"lon":5.39901,"is_reserved":false,"is_disabled":false,"rental_uris":{"android":"levelo://app?vid=480f28a2-7fc0-4293-a84e-a1f8167b279b","ios":"levelo://app?vid=480f28a2-7fc0-4293-a84e-a1f8167b279b"},"vehicle_type_id":"4","last_reported":1733803928,"current_range_meters":38000,"station_id":"ce4bhl92rcd13ifvqghg","pricing_plan_id":"cebpf4jnsgd1na2vs0mg"},{"bike_id":"c69f429e-b230-41f7-8fd5-7ba3d157dbbb","system_id":"levelo_inurba_marseille","lat":43.25002,"lon":5.38923,"is_reserved":false,"is_disabled":false,"rental_uris":{"android":"levelo://app?vid=c69f429e-b230-41f7-8fd5-7ba3d157dbbb","ios":"levelo://app?vid=c69f429e-b230-41f7-8fd5-7ba3d157dbbb"},"vehicle_type_id":"4","last_reported":1733803928,"current_range_meters":37600,"station_id":"ce4bhgp2rcd13ifvqfd0","pricing_plan_id":"cebpf4jnsgd1na2vs0mg"},{"bike_id":"938640b4-f78c-4def-9b16-e6205edb88bc","system_id":"levelo_inurba_marseille","lat":43.28152,"lon":5.42638,"is_reserved":false,"is_disabled":true,"rental_uris":{"android":"levelo://app?vid=938640b4-f78c-4def-9b16-e6205edb88bc","ios":"levelo://app?vid=938640b4-f78c-4def-9b16-e6205edb88bc"},"vehicle_type_id":"4","last_reported":1733803928,"current_range_meters":32000,"station_id":"ce4bhnh2rcd13ifvqgug","pricing_plan_id":"cebpf4jnsgd1na2vs0mg"},{"bike_id":"2aef1d2d-27cb-4f0b-8fe4-1297b5259969","system_id":"levelo_inurba_marseille","lat":43.317219,"lon":5.424022,"is_reserved":false,"is_disabled":false,"rental_uris":{"android":"levelo://app?vid=2aef1d2d-27cb-4f0b-8fe4-1297b5259969","ios":"levelo://app?vid=2aef1d2d-27cb-4f0b-8fe4-1297b5259969"},"vehicle_type_id":"4","last_reported":1733803928,"current_range_meters":38800,"station_id":"ce4bhp92rcd13ifvqhbg","pricing_plan_id":"cebpf4jnsgd1na2vs0mg"},{"bike_id":"ea9d4249-69ee-4a2d-857e-bb5f7820465f","system_id":"levelo_inurba_marseille","lat":43.29437,"lon":5.39737,"is_reserved":false,"is_disabled":false,"rental_uris":{"android":"levelo://app?vid=ea9d4249-69ee-4a2d-857e-bb5f7820465f","ios":"levelo://app?vid=ea9d4249-69ee-4a2d-857e-bb5f7820465f"},"vehicle_type_id":"4","last_reported":1733803928,"current_range_meters":38800,"station_id":"ce4bh3h2rcd13ifvqdo0","pricing_plan_id":"cebpf4jnsgd1na2vs0mg"},{"bike_id":"cf55b169-9388-4819-bfa4-c55a8fa03873","system_id":"levelo_inurba_marseille","lat":43.27619,"lon":5.36106,"is_reserved":false,"is_disabled":true,"rental_uris":{"android":"levelo://app?vid=cf55b169-9388-4819-bfa4-c55a8fa03873","ios":"levelo://app?vid=cf55b169-9388-4819-bfa4-c55a8fa03873"},"vehicle_type_id":"4","last_reported":1733803928,"current_range_meters":27200,"station_id":"ce4bgj92rcd13ifvqbe0","pricing_plan_id":"cebpf4jnsgd1na2vs0mg"},{"bike_id":"2f3968e7-9336-4ee4-ba78-8e92c0a818cc","system_id":"levelo_inurba_marseille","lat":43.31322,"lon":5.36647,"is_reserved":false,"is_disabled":true,"rental_uris":{"android":"levelo://app?vid=2f3968e7-9336-4ee4-ba78-8e92c0a818cc","ios":"levelo://app?vid=2f3968e7-9336-4ee4-ba78-8e92c0a818cc"},"vehicle_type_id":"4","last_reported":1733803928,"current_range_meters":0,"station_id":"","pricing_plan_id":"cebpf4jnsgd1na2vs0mg"},{"bike_id":"ba0855e1-a344-4ad4-b7ef-fa9c8edb2b41","system_id":"levelo_inurba_marseille","lat":43.28151,"lon":5.42649,"is_reserved":false,"is_disabled":false,"rental_uris":{"android":"levelo://app?vid=ba0855e1-a344-4ad4-b7ef-fa9c8edb2b41","ios":"levelo://app?vid=ba0855e1-a344-4ad4-b7ef-fa9c8edb2b41"},"vehicle_type_id":"4","last_reported":1733803928,"current_range_meters":38800,"station_id":"ce4bhnh2rcd13ifvqgug","pricing_plan_id":"cebpf4jnsgd1na2vs0mg"},{"bike_id":"e11ceba7-8db6-4ca1-8501-fec2b05fa281","system_id":"levelo_inurba_marseille","lat":43.32338,"lon":5.40616,"is_reserved":false,"is_disabled":false,"rental_uris":{"android":"levelo://app?vid=e11ceba7-8db6-4ca1-8501-fec2b05fa281","ios":"levelo://app?vid=e11ceba7-8db6-4ca1-8501-fec2b05fa281"},"vehicle_type_id":"4","last_reported":1733803928,"current_range_meters":6400,"station_id":"ce4bhq92rcd13ifvqhjg","pricing_plan_id":"cebpf4jnsgd1na2vs0mg"},{"bike_id":"d9ce6f26-74b9-450c-b032-b016d9a79a4d","system_id":"levelo_inurba_marseille","lat":43.28711,"lon":5.37933,"is_reserved":false,"is_disabled":false,"rental_uris":{"android":"levelo://app?vid=d9ce6f26-74b9-450c-b032-b016d9a79a4d","ios":"levelo://app?vid=d9ce6f26-74b9-450c-b032-b016d9a79a4d"},"vehicle_type_id":"4","last_reported":1733803928,"current_range_meters":38400,"station_id":"ce4bh9p2rcd13ifvqec0","pricing_plan_id":"cebpf4jnsgd1na2vs0mg"},{"bike_id":"b65f8e21-b872-4264-9697-a2a4eecb8b6f","system_id":"levelo_inurba_marseille","lat":43.30139,"lon":5.39875,"is_reserved":false,"is_disabled":false,"rental_uris":{"android":"levelo://app?vid=b65f8e21-b872-4264-9697-a2a4eecb8b6f","ios":"levelo://app?vid=b65f8e21-b872-4264-9697-a2a4eecb8b6f"},"vehicle_type_id":"4","last_reported":1733803928,"current_range_meters":38800,"station_id":"ce4bh0h2rcd13ifvqd40","pricing_plan_id":"cebpf4jnsgd1na2vs0mg"},{"bike_id":"33afcd88-0857-4b5d-8f95-a960d6eca619","system_id":"levelo_inurba_marseille","lat":43.25501,"lon":5.37652,"is_reserved":false,"is_disabled":false,"rental_uris":{"android":"levelo://app?vid=33afcd88-0857-4b5d-8f95-a960d6eca619","ios":"levelo://app?vid=33afcd88-0857-4b5d-8f95-a960d6eca619"},"vehicle_type_id":"4","last_reported":1733803928,"current_range_meters":22000,"station_id":"ce4bhh12rcd13ifvqff0","pricing_plan_id":"cebpf4jnsgd1na2vs0mg"},{"bike_id":"7f0b121b-7748-43bd-b861-318cbdf6fb69","system_id":"levelo_inurba_marseille","lat":43.28451,"lon":5.35885,"is_reserved":false,"is_disabled":true,"rental_uris":{"android":"levelo://app?vid=7f0b121b-7748-43bd-b861-318cbdf6fb69","ios":"levelo://app?vid=7f0b121b-7748-43bd-b861-318cbdf6fb69"},"vehicle_type_id":"4","last_reported":1733803928,"current_range_meters":39200,"station_id":"ce4bhah2rcd13ifvqei0","pricing_plan_id":"cebpf4jnsgd1na2vs0mg"},{"bike_id":"6583aefc-6815-4bd5-8f5c-a9c5d794f47e","system_id":"levelo_inurba_marseille","lat":43.36392,"lon":5.34188,"is_reserved":false,"is_disabled":false,"rental_uris":{"android":"levelo://app?vid=6583aefc-6815-4bd5-8f5c-a9c5d794f47e","ios":"levelo://app?vid=6583aefc-6815-4bd5-8f5c-a9c5d794f47e"},"vehicle_type_id":"4","last_reported":1733803928,"current_range_meters":9600,"station_id":"","pricing_plan_id":"cebpf4jnsgd1na2vs0mg"},{"bike_id":"300a0c65-55ac-4e00-a24d-19944889a4e4","system_id":"levelo_inurba_marseille","lat":43.27207,"lon":5.40978,"is_reserved":false,"is_disabled":false,"rental_uris":{"android":"levelo://app?vid=300a0c65-55ac-4e00-a24d-19944889a4e4","ios":"levelo://app?vid=300a0c65-55ac-4e00-a24d-19944889a4e4"},"vehicle_type_id":"4","last_reported":1733803928,"current_range_meters":28000,"station_id":"ce4bhl12rcd13ifvqgf0","pricing_plan_id":"cebpf4jnsgd1na2vs0mg"},{"bike_id":"6ab8009c-71e7-4b76-80db-c38f8eda6df9","system_id":"levelo_inurba_marseille","lat":43.32653,"lon":5.4099,"is_reserved":false,"is_disabled":false,"rental_uris":{"android":"levelo://app?vid=6ab8009c-71e7-4b76-80db-c38f8eda6df9","ios":"levelo://app?vid=6ab8009c-71e7-4b76-80db-c38f8eda6df9"},"vehicle_type_id":"4","last_reported":1733803928,"current_range_meters":35600,"station_id":"ce4bhpp2rcd13ifvqhgg","pricing_plan_id":"cebpf4jnsgd1na2vs0mg"},{"bike_id":"72a40c74-61ce-4e85-9c26-7501b1062d7a","system_id":"levelo_inurba_marseille","lat":43.32349,"lon":5.40622,"is_reserved":false,"is_disabled":false,"rental_uris":{"android":"levelo://app?vid=72a40c74-61ce-4e85-9c26-7501b1062d7a","ios":"levelo://app?vid=72a40c74-61ce-4e85-9c26-7501b1062d7a"},"vehicle_type_id":"4","last_reported":1733803928,"current_range_meters":12800,"station_id":"ce4bhq92rcd13ifvqhjg","pricing_plan_id":"cebpf4jnsgd1na2vs0mg"},{"bike_id":"b97d7574-49b3-4eea-b4a7-8d4ca9df8845","system_id":"levelo_inurba_marseille","lat":43.27176,"lon":5.409972,"is_reserved":false,"is_disabled":false,"rental_uris":{"android":"levelo://app?vid=b97d7574-49b3-4eea-b4a7-8d4ca9df8845","ios":"levelo://app?vid=b97d7574-49b3-4eea-b4a7-8d4ca9df8845"},"vehicle_type_id":"4","last_reported":1733803928,"current_range_meters":17200,"station_id":"ce4bhl12rcd13ifvqgf0","pricing_plan_id":"cebpf4jnsgd1na2vs0mg"},{"bike_id":"220bf674-5219-4134-b6e9-fb33684f460b","system_id":"levelo_inurba_marseille","lat":43.28465,"lon":5.35873,"is_reserved":false,"is_disabled":false,"rental_uris":{"android":"levelo://app?vid=220bf674-5219-4134-b6e9-fb33684f460b","ios":"levelo://app?vid=220bf674-5219-4134-b6e9-fb33684f460b"},"vehicle_type_id":"4","last_reported":1733803928,"current_range_meters":29600,"station_id":"ce4bhah2rcd13ifvqei0","pricing_plan_id":"cebpf4jnsgd1na2vs0mg"},{"bike_id":"8dacef60-e5ba-4aba-a655-d51e880d446f","system_id":"levelo_inurba_marseille","lat":43.31167,"lon":5.38729,"is_reserved":false,"is_disabled":false,"rental_uris":{"android":"levelo://app?vid=8dacef60-e5ba-4aba-a655-d51e880d446f","ios":"levelo://app?vid=8dacef60-e5ba-4aba-a655-d51e880d446f"},"vehicle_type_id":"4","last_reported":1733803928,"current_range_meters":8400,"station_id":"ce4bgv12rcd13ifvqcp0","pricing_plan_id":"cebpf4jnsgd1na2vs0mg"},{"bike_id":"9834911d-142d-4337-88be-175f15210504","system_id":"levelo_inurba_marseille","lat":43.29033,"lon":5.39925,"is_reserved":false,"is_disabled":false,"rental_uris":{"android":"levelo://app?vid=9834911d-142d-4337-88be-175f15210504","ios":"levelo://app?vid=9834911d-142d-4337-88be-175f15210504"},"vehicle_type_id":"4","last_reported":1733803928,"current_range_meters":39200,"station_id":"ce4bh392rcd13ifvqdm0","pricing_plan_id":"cebpf4jnsgd1na2vs0mg"},{"bike_id":"5c6f8c12-bf6a-4165-b04d-3cf20f2be756","system_id":"levelo_inurba_marseille","lat":43.29786,"lon":5.39349,"is_reserved":false,"is_disabled":false,"rental_uris":{"android":"levelo://app?vid=5c6f8c12-bf6a-4165-b04d-3cf20f2be756","ios":"levelo://app?vid=5c6f8c12-bf6a-4165-b04d-3cf20f2be756"},"vehicle_type_id":"4","last_reported":1733803928,"current_range_meters":38800,"station_id":"chh1huq6cuj3fo74tm60","pricing_plan_id":"cebpf4jnsgd1na2vs0mg"},{"bike_id":"3de7e4d7-f62b-4c89-925b-9aa6ec40d37f","system_id":"levelo_inurba_marseille","lat":43.2826,"lon":5.35081,"is_reserved":false,"is_disabled":false,"rental_uris":{"android":"levelo://app?vid=3de7e4d7-f62b-4c89-925b-9aa6ec40d37f","ios":"levelo://app?vid=3de7e4d7-f62b-4c89-925b-9aa6ec40d37f"},"vehicle_type_id":"4","last_reported":1733803928,"current_range_meters":26000,"station_id":"ce4bhbp2rcd13ifvqerg","pricing_plan_id":"cebpf4jnsgd1na2vs0mg"},{"bike_id":"f92b8cac-80c8-4728-b0dd-0ee589a076cf","system_id":"levelo_inurba_marseille","lat":43.31995,"lon":5.38147,"is_reserved":false,"is_disabled":false,"rental_uris":{"android":"levelo://app?vid=f92b8cac-80c8-4728-b0dd-0ee589a076cf","ios":"levelo://app?vid=f92b8cac-80c8-4728-b0dd-0ee589a076cf"},"vehicle_type_id":"4","last_reported":1733803928,"current_range_meters":6800,"station_id":"ce4bhr12rcd13ifvqhpg","pricing_plan_id":"cebpf4jnsgd1na2vs0mg"},{"bike_id":"f10c5e90-601b-4bd4-87e7-4cbb6a13a4fb","system_id":"levelo_inurba_marseille","lat":43.26123,"lon":5.39268,"is_reserved":false,"is_disabled":true,"rental_uris":{"android":"levelo://app?vid=f10c5e90-601b-4bd4-87e7-4cbb6a13a4fb","ios":"levelo://app?vid=f10c5e90-601b-4bd4-87e7-4cbb6a13a4fb"},"vehicle_type_id":"4","last_reported":1733803928,"current_range_meters":0,"station_id":"","pricing_plan_id":"cebpf4jnsgd1na2vs0mg"},{"bike_id":"fcc6364a-c9d9-4485-818a-5d0a5c003105","system_id":"levelo_inurba_marseille","lat":43.30801,"lon":5.43529,"is_reserved":false,"is_disabled":false,"rental_uris":{"android":"levelo://app?vid=fcc6364a-c9d9-4485-818a-5d0a5c003105","ios":"levelo://app?vid=fcc6364a-c9d9-4485-818a-5d0a5c003105"},"vehicle_type_id":"4","last_reported":1733803928,"current_range_meters":30400,"station_id":"ce4bhph2rcd13ifvqheg","pricing_plan_id":"cebpf4jnsgd1na2vs0mg"},{"bike_id":"49150bc7-9efd-4a6a-85e9-967a04de33de","system_id":"levelo_inurba_marseille","lat":43.312749,"lon":5.401647,"is_reserved":false,"is_disabled":false,"rental_uris":{"android":"levelo://app?vid=49150bc7-9efd-4a6a-85e9-967a04de33de","ios":"levelo://app?vid=49150bc7-9efd-4a6a-85e9-967a04de33de"},"vehicle_type_id":"4","last_reported":1733803928,"current_range_meters":26800,"station_id":"ce4bh092rcd13ifvqd30","pricing_plan_id":"cebpf4jnsgd1na2vs0mg"},{"bike_id":"8179a502-24d2-4fc0-958c-6bce9d778e94","system_id":"levelo_inurba_marseille","lat":43.278156,"lon":5.407137,"is_reserved":false,"is_disabled":false,"rental_uris":{"android":"levelo://app?vid=8179a502-24d2-4fc0-958c-6bce9d778e94","ios":"levelo://app?vid=8179a502-24d2-4fc0-958c-6bce9d778e94"},"vehicle_type_id":"4","last_reported":1733803928,"current_range_meters":30400,"station_id":"ce4bhnh2rcd13ifvqgtg","pricing_plan_id":"cebpf4jnsgd1na2vs0mg"},{"bike_id":"210863fa-6a5a-4271-b232-c5f2043230b9","system_id":"levelo_inurba_marseille","lat":43.28076,"lon":5.39646,"is_reserved":false,"is_disabled":false,"rental_uris":{"android":"levelo://app?vid=210863fa-6a5a-4271-b232-c5f2043230b9","ios":"levelo://app?vid=210863fa-6a5a-4271-b232-c5f2043230b9"},"vehicle_type_id":"4","last_reported":1733803928,"current_range_meters":17200,"station_id":"ce4bho12rcd13ifvqh2g","pricing_plan_id":"cebpf4jnsgd1na2vs0mg"},{"bike_id":"e0542593-8c87-4823-82b6-e7063271a43e","system_id":"levelo_inurba_marseille","lat":43.29192,"lon":5.39334,"is_reserved":false,"is_disabled":false,"rental_uris":{"android":"levelo://app?vid=e0542593-8c87-4823-82b6-e7063271a43e","ios":"levelo://app?vid=e0542593-8c87-4823-82b6-e7063271a43e"},"vehicle_type_id":"4","last_reported":1733803928,"current_range_meters":38800,"station_id":"ce4bh192rcd13ifvqdd0","pricing_plan_id":"cebpf4jnsgd1na2vs0mg"},{"bike_id":"c1af07c0-ed11-49c8-aa2e-1104638a28b7","system_id":"levelo_inurba_marseille","lat":43.23063,"lon":5.35501,"is_reserved":false,"is_disabled":false,"rental_uris":{"android":"levelo://app?vid=c1af07c0-ed11-49c8-aa2e-1104638a28b7","ios":"levelo://app?vid=c1af07c0-ed11-49c8-aa2e-1104638a28b7"},"vehicle_type_id":"4","last_reported":1733803928,"current_range_meters":22000,"station_id":"cpo3342slgdg3j2ifvpg","pricing_plan_id":"cebpf4jnsgd1na2vs0mg"},{"bike_id":"a1b7d0a9-885b-4563-80bb-c16c77a2747b","system_id":"levelo_inurba_marseille","lat":43.31077,"lon":5.38357,"is_reserved":false,"is_disabled":false,"rental_uris":{"android":"levelo://app?vid=a1b7d0a9-885b-4563-80bb-c16c77a2747b","ios":"levelo://app?vid=a1b7d0a9-885b-4563-80bb-c16c77a2747b"},"vehicle_type_id":"4","last_reported":1733803928,"current_range_meters":38400,"station_id":"ce4bgv92rcd13ifvqcr0","pricing_plan_id":"cebpf4jnsgd1na2vs0mg"},{"bike_id":"ccbed640-493a-42cd-8b56-d8d96e30f780","system_id":"levelo_inurba_marseille","lat":43.287193,"lon":5.37941,"is_reserved":false,"is_disabled":false,"rental_uris":{"android":"levelo://app?vid=ccbed640-493a-42cd-8b56-d8d96e30f780","ios":"levelo://app?vid=ccbed640-493a-42cd-8b56-d8d96e30f780"},"vehicle_type_id":"4","last_reported":1733803928,"current_range_meters":22800,"station_id":"ce4bh9p2rcd13ifvqec0","pricing_plan_id":"cebpf4jnsgd1na2vs0mg"},{"bike_id":"0706adb5-0c61-4c6b-9d93-aada612b11f4","system_id":"levelo_inurba_marseille","lat":43.2963,"lon":5.40598,"is_reserved":false,"is_disabled":false,"rental_uris":{"android":"levelo://app?vid=0706adb5-0c61-4c6b-9d93-aada612b11f4","ios":"levelo://app?vid=0706adb5-0c61-4c6b-9d93-aada612b11f4"},"vehicle_type_id":"4","last_reported":1733803928,"current_range_meters":36800,"station_id":"ce4bh0h2rcd13ifvqd60","pricing_plan_id":"cebpf4jnsgd1na2vs0mg"},{"bike_id":"4ffe0496-2948-4ad5-8b06-2d40da8c3995","system_id":"levelo_inurba_marseille","lat":43.309303,"lon":5.4014,"is_reserved":false,"is_disabled":false,"rental_uris":{"android":"levelo://app?vid=4ffe0496-2948-4ad5-8b06-2d40da8c3995","ios":"levelo://app?vid=4ffe0496-2948-4ad5-8b06-2d40da8c3995"},"vehicle_type_id":"4","last_reported":1733803928,"current_range_meters":38800,"station_id":"ce4bgvp2rcd13ifvqct0","pricing_plan_id":"cebpf4jnsgd1na2vs0mg"},{"bike_id":"6f5aafc4-06b9-4dba-b612-5d926167490b","system_id":"levelo_inurba_marseille","lat":43.32477,"lon":5.36582,"is_reserved":false,"is_disabled":true,"rental_uris":{"android":"levelo://app?vid=6f5aafc4-06b9-4dba-b612-5d926167490b","ios":"levelo://app?vid=6f5aafc4-06b9-4dba-b612-5d926167490b"},"vehicle_type_id":"4","last_reported":1733803928,"current_range_meters":0,"station_id":"ce4bhs12rcd13ifvqhvg","pricing_plan_id":"cebpf4jnsgd1na2vs0mg"},{"bike_id":"18b9f414-d8fd-40d1-8aec-43a58018843c","system_id":"levelo_inurba_marseille","lat":43.29567,"lon":5.39975,"is_reserved":false,"is_disabled":false,"rental_uris":{"android":"levelo://app?vid=18b9f414-d8fd-40d1-8aec-43a58018843c","ios":"levelo://app?vid=18b9f414-d8fd-40d1-8aec-43a58018843c"},"vehicle_type_id":"4","last_reported":1733803928,"current_range_meters":38800,"station_id":"ce4bh312rcd13ifvqdj0","pricing_plan_id":"cebpf4jnsgd1na2vs0mg"},{"bike_id":"5fefcf9d-7cc1-41a7-8c5a-70f7639f379f","system_id":"levelo_inurba_marseille","lat":43.30801,"lon":5.43521,"is_reserved":false,"is_disabled":false,"rental_uris":{"android":"levelo://app?vid=5fefcf9d-7cc1-41a7-8c5a-70f7639f379f","ios":"levelo://app?vid=5fefcf9d-7cc1-41a7-8c5a-70f7639f379f"},"vehicle_type_id":"4","last_reported":1733803928,"current_range_meters":14400,"station_id":"ce4bhph2rcd13ifvqheg","pricing_plan_id":"cebpf4jnsgd1na2vs0mg"},{"bike_id":"0021e2f0-593c-41bd-8542-81b1a5d32439","system_id":"levelo_inurba_marseille","lat":43.27803,"lon":5.40728,"is_reserved":false,"is_disabled":false,"rental_uris":{"android":"levelo://app?vid=0021e2f0-593c-41bd-8542-81b1a5d32439","ios":"levelo://app?vid=0021e2f0-593c-41bd-8542-81b1a5d32439"},"vehicle_type_id":"4","last_reported":1733803928,"current_range_meters":38800,"station_id":"ce4bhnh2rcd13ifvqgtg","pricing_plan_id":"cebpf4jnsgd1na2vs0mg"},{"bike_id":"b089d5a6-e8e6-4265-b578-f28e18d6c5ed","system_id":"levelo_inurba_marseille","lat":43.25497,"lon":5.37643,"is_reserved":false,"is_disabled":false,"rental_uris":{"android":"levelo://app?vid=b089d5a6-e8e6-4265-b578-f28e18d6c5ed","ios":"levelo://app?vid=b089d5a6-e8e6-4265-b578-f28e18d6c5ed"},"vehicle_type_id":"4","last_reported":1733803928,"current_range_meters":38800,"station_id":"ce4bhh12rcd13ifvqff0","pricing_plan_id":"cebpf4jnsgd1na2vs0mg"},{"bike_id":"74ddbdc3-b082-4f44-a075-38dfc2e6b2cd","system_id":"levelo_inurba_marseille","lat":43.24167,"lon":5.36387,"is_reserved":false,"is_disabled":false,"rental_uris":{"android":"levelo://app?vid=74ddbdc3-b082-4f44-a075-38dfc2e6b2cd","ios":"levelo://app?vid=74ddbdc3-b082-4f44-a075-38dfc2e6b2cd"},"vehicle_type_id":"4","last_reported":1733803928,"current_range_meters":24400,"station_id":"cpo36qri1sfpv3e86is0","pricing_plan_id":"cebpf4jnsgd1na2vs0mg"},{"bike_id":"bd5cf351-0ac5-4251-8c87-d57b89ea3995","system_id":"levelo_inurba_marseille","lat":43.2558,"lon":5.38228,"is_reserved":false,"is_disabled":false,"rental_uris":{"android":"levelo://app?vid=bd5cf351-0ac5-4251-8c87-d57b89ea3995","ios":"levelo://app?vid=bd5cf351-0ac5-4251-8c87-d57b89ea3995"},"vehicle_type_id":"4","last_reported":1733803928,"current_range_meters":18000,"station_id":"ce4bhih2rcd13ifvqfs0","pricing_plan_id":"cebpf4jnsgd1na2vs0mg"},{"bike_id":"778cfa67-5e48-43ac-bad2-c30d515ff32e","system_id":"levelo_inurba_marseille","lat":43.30795,"lon":5.43521,"is_reserved":false,"is_disabled":false,"rental_uris":{"android":"levelo://app?vid=778cfa67-5e48-43ac-bad2-c30d515ff32e","ios":"levelo://app?vid=778cfa67-5e48-43ac-bad2-c30d515ff32e"},"vehicle_type_id":"4","last_reported":1733803928,"current_range_meters":38400,"station_id":"ce4bhph2rcd13ifvqheg","pricing_plan_id":"cebpf4jnsgd1na2vs0mg"},{"bike_id":"19de0526-773c-4280-a5a2-e066f6e7fe57","system_id":"levelo_inurba_marseille","lat":43.28255,"lon":5.35078,"is_reserved":false,"is_disabled":false,"rental_uris":{"android":"levelo://app?vid=19de0526-773c-4280-a5a2-e066f6e7fe57","ios":"levelo://app?vid=19de0526-773c-4280-a5a2-e066f6e7fe57"},"vehicle_type_id":"4","last_reported":1733803928,"current_range_meters":25600,"station_id":"ce4bhbp2rcd13ifvqerg","pricing_plan_id":"cebpf4jnsgd1na2vs0mg"},{"bike_id":"f942e722-5039-4601-9971-0207b150598d","system_id":"levelo_inurba_marseille","lat":43.29847,"lon":5.36285,"is_reserved":false,"is_disabled":false,"rental_uris":{"android":"levelo://app?vid=f942e722-5039-4601-9971-0207b150598d","ios":"levelo://app?vid=f942e722-5039-4601-9971-0207b150598d"},"vehicle_type_id":"4","last_reported":1733803928,"current_range_meters":9600,"station_id":"ce4bgpp2rcd13ifvqc3g","pricing_plan_id":"cebpf4jnsgd1na2vs0mg"},{"bike_id":"9cd79aab-6f4c-4919-b570-803a9e8b35c5","system_id":"levelo_inurba_marseille","lat":43.30461,"lon":5.36722,"is_reserved":false,"is_disabled":true,"rental_uris":{"android":"levelo://app?vid=9cd79aab-6f4c-4919-b570-803a9e8b35c5","ios":"levelo://app?vid=9cd79aab-6f4c-4919-b570-803a9e8b35c5"},"vehicle_type_id":"4","last_reported":1733803928,"current_range_meters":25200,"station_id":"","pricing_plan_id":"cebpf4jnsgd1na2vs0mg"},{"bike_id":"2188871e-5cf2-45ad-8d7f-f6460777ea7c","system_id":"levelo_inurba_marseille","lat":43.25868,"lon":5.39898,"is_reserved":false,"is_disabled":false,"rental_uris":{"android":"levelo://app?vid=2188871e-5cf2-45ad-8d7f-f6460777ea7c","ios":"levelo://app?vid=2188871e-5cf2-45ad-8d7f-f6460777ea7c"},"vehicle_type_id":"4","last_reported":1733803928,"current_range_meters":36000,"station_id":"ce4bhl92rcd13ifvqghg","pricing_plan_id":"cebpf4jnsgd1na2vs0mg"},{"bike_id":"15af7b7a-6a43-4907-ab69-d83a6aa2cd93","system_id":"levelo_inurba_marseille","lat":43.29515,"lon":5.39041,"is_reserved":false,"is_disabled":false,"rental_uris":{"android":"levelo://app?vid=15af7b7a-6a43-4907-ab69-d83a6aa2cd93","ios":"levelo://app?vid=15af7b7a-6a43-4907-ab69-d83a6aa2cd93"},"vehicle_type_id":"4","last_reported":1733803928,"current_range_meters":38400,"station_id":"ce4bh3p2rcd13ifvqdp0","pricing_plan_id":"cebpf4jnsgd1na2vs0mg"},{"bike_id":"cf80ef54-0b0f-4dfe-80d1-0c382470e0e9","system_id":"levelo_inurba_marseille","lat":43.250775,"lon":5.395393,"is_reserved":false,"is_disabled":false,"rental_uris":{"android":"levelo://app?vid=cf80ef54-0b0f-4dfe-80d1-0c382470e0e9","ios":"levelo://app?vid=cf80ef54-0b0f-4dfe-80d1-0c382470e0e9"},"vehicle_type_id":"4","last_reported":1733803928,"current_range_meters":16000,"station_id":"","pricing_plan_id":"cebpf4jnsgd1na2vs0mg"},{"bike_id":"c4ed27d8-ea29-49fc-a6a8-71e1af9bdabf","system_id":"levelo_inurba_marseille","lat":43.30804,"lon":5.43535,"is_reserved":false,"is_disabled":false,"rental_uris":{"android":"levelo://app?vid=c4ed27d8-ea29-49fc-a6a8-71e1af9bdabf","ios":"levelo://app?vid=c4ed27d8-ea29-49fc-a6a8-71e1af9bdabf"},"vehicle_type_id":"4","last_reported":1733803928,"current_range_meters":38000,"station_id":"ce4bhph2rcd13ifvqheg","pricing_plan_id":"cebpf4jnsgd1na2vs0mg"},{"bike_id":"28585606-3f2c-4957-8135-d1754388e9c7","system_id":"levelo_inurba_marseille","lat":43.29625,"lon":5.40593,"is_reserved":false,"is_disabled":false,"rental_uris":{"android":"levelo://app?vid=28585606-3f2c-4957-8135-d1754388e9c7","ios":"levelo://app?vid=28585606-3f2c-4957-8135-d1754388e9c7"},"vehicle_type_id":"4","last_reported":1733803928,"current_range_meters":28400,"station_id":"ce4bh0h2rcd13ifvqd60","pricing_plan_id":"cebpf4jnsgd1na2vs0mg"},{"bike_id":"f97ddc52-5758-4192-8ca1-71254ad1a77e","system_id":"levelo_inurba_marseille","lat":43.26196,"lon":5.37452,"is_reserved":false,"is_disabled":false,"rental_uris":{"android":"levelo://app?vid=f97ddc52-5758-4192-8ca1-71254ad1a77e","ios":"levelo://app?vid=f97ddc52-5758-4192-8ca1-71254ad1a77e"},"vehicle_type_id":"4","last_reported":1733803928,"current_range_meters":37600,"station_id":"ce4bhgp2rcd13ifvqfc0","pricing_plan_id":"cebpf4jnsgd1na2vs0mg"},{"bike_id":"11e86528-eb6b-4391-86a5-9b1822d069a4","system_id":"levelo_inurba_marseille","lat":43.278805,"lon":5.388003,"is_reserved":false,"is_disabled":true,"rental_uris":{"android":"levelo://app?vid=11e86528-eb6b-4391-86a5-9b1822d069a4","ios":"levelo://app?vid=11e86528-eb6b-4391-86a5-9b1822d069a4"},"vehicle_type_id":"4","last_reported":1733803928,"current_range_meters":0,"station_id":"","pricing_plan_id":"cebpf4jnsgd1na2vs0mg"},{"bike_id":"6cc6805f-c0ca-4585-bdf1-b5a0339762b0","system_id":"levelo_inurba_marseille","lat":43.29027,"lon":5.42744,"is_reserved":false,"is_disabled":true,"rental_uris":{"android":"levelo://app?vid=6cc6805f-c0ca-4585-bdf1-b5a0339762b0","ios":"levelo://app?vid=6cc6805f-c0ca-4585-bdf1-b5a0339762b0"},"vehicle_type_id":"4","last_reported":1733803928,"current_range_meters":0,"station_id":"","pricing_plan_id":"cebpf4jnsgd1na2vs0mg"},{"bike_id":"45d0e926-ca3d-4f46-8cac-9527b775619c","system_id":"levelo_inurba_marseille","lat":43.262,"lon":5.37929,"is_reserved":false,"is_disabled":false,"rental_uris":{"android":"levelo://app?vid=45d0e926-ca3d-4f46-8cac-9527b775619c","ios":"levelo://app?vid=45d0e926-ca3d-4f46-8cac-9527b775619c"},"vehicle_type_id":"4","last_reported":1733803928,"current_range_meters":37600,"station_id":"ce4bhjp2rcd13ifvqg90","pricing_plan_id":"cebpf4jnsgd1na2vs0mg"},{"bike_id":"a478bcff-2af8-4db5-8351-cdbe6b849a6d","system_id":"levelo_inurba_marseille","lat":43.33408,"lon":5.36205,"is_reserved":false,"is_disabled":true,"rental_uris":{"android":"levelo://app?vid=a478bcff-2af8-4db5-8351-cdbe6b849a6d","ios":"levelo://app?vid=a478bcff-2af8-4db5-8351-cdbe6b849a6d"},"vehicle_type_id":"4","last_reported":1733803928,"current_range_meters":0,"station_id":"","pricing_plan_id":"cebpf4jnsgd1na2vs0mg"},{"bike_id":"55a1250f-62b2-4541-b677-efff294aa310","system_id":"levelo_inurba_marseille","lat":43.27425,"lon":5.39412,"is_reserved":false,"is_disabled":false,"rental_uris":{"android":"levelo://app?vid=55a1250f-62b2-4541-b677-efff294aa310","ios":"levelo://app?vid=55a1250f-62b2-4541-b677-efff294aa310"},"vehicle_type_id":"4","last_reported":1733803928,"current_range_meters":37600,"station_id":"ce4bhdp2rcd13ifvqf20","pricing_plan_id":"cebpf4jnsgd1na2vs0mg"},{"bike_id":"7677a60e-3941-4093-ac87-1320010f608f","system_id":"levelo_inurba_marseille","lat":43.29192,"lon":5.39332,"is_reserved":false,"is_disabled":false,"rental_uris":{"android":"levelo://app?vid=7677a60e-3941-4093-ac87-1320010f608f","ios":"levelo://app?vid=7677a60e-3941-4093-ac87-1320010f608f"},"vehicle_type_id":"4","last_reported":1733803928,"current_range_meters":38000,"station_id":"ce4bh192rcd13ifvqdd0","pricing_plan_id":"cebpf4jnsgd1na2vs0mg"},{"bike_id":"9f03dca4-237a-49dc-8f4b-3b6a07909c99","system_id":"levelo_inurba_marseille","lat":43.23193,"lon":5.35554,"is_reserved":false,"is_disabled":false,"rental_uris":{"android":"levelo://app?vid=9f03dca4-237a-49dc-8f4b-3b6a07909c99","ios":"levelo://app?vid=9f03dca4-237a-49dc-8f4b-3b6a07909c99"},"vehicle_type_id":"4","last_reported":1733803928,"current_range_meters":38800,"station_id":"ce4bhu92rcd13ifvqi70","pricing_plan_id":"cebpf4jnsgd1na2vs0mg"},{"bike_id":"b6fcd388-ab74-408f-9e17-a2445b649a56","system_id":"levelo_inurba_marseille","lat":43.28456,"lon":5.35895,"is_reserved":false,"is_disabled":false,"rental_uris":{"android":"levelo://app?vid=b6fcd388-ab74-408f-9e17-a2445b649a56","ios":"levelo://app?vid=b6fcd388-ab74-408f-9e17-a2445b649a56"},"vehicle_type_id":"4","last_reported":1733803928,"current_range_meters":18000,"station_id":"ce4bhah2rcd13ifvqei0","pricing_plan_id":"cebpf4jnsgd1na2vs0mg"},{"bike_id":"a1ed25ba-9ac1-49aa-9818-64170c7605cf","system_id":"levelo_inurba_marseille","lat":43.31177,"lon":5.3871,"is_reserved":false,"is_disabled":false,"rental_uris":{"android":"levelo://app?vid=a1ed25ba-9ac1-49aa-9818-64170c7605cf","ios":"levelo://app?vid=a1ed25ba-9ac1-49aa-9818-64170c7605cf"},"vehicle_type_id":"4","last_reported":1733803928,"current_range_meters":24000,"station_id":"ce4bgv12rcd13ifvqcp0","pricing_plan_id":"cebpf4jnsgd1na2vs0mg"},{"bike_id":"1893dd0f-e72d-42c7-9f7a-d443413ee8a1","system_id":"levelo_inurba_marseille","lat":43.27941,"lon":5.41053,"is_reserved":false,"is_disabled":false,"rental_uris":{"android":"levelo://app?vid=1893dd0f-e72d-42c7-9f7a-d443413ee8a1","ios":"levelo://app?vid=1893dd0f-e72d-42c7-9f7a-d443413ee8a1"},"vehicle_type_id":"4","last_reported":1733803928,"current_range_meters":38800,"station_id":"ce4bhnp2rcd13ifvqh0g","pricing_plan_id":"cebpf4jnsgd1na2vs0mg"},{"bike_id":"aa9050e6-a6d8-46f7-8e4a-741171c50581","system_id":"levelo_inurba_marseille","lat":43.25086,"lon":5.39509,"is_reserved":false,"is_disabled":false,"rental_uris":{"android":"levelo://app?vid=aa9050e6-a6d8-46f7-8e4a-741171c50581","ios":"levelo://app?vid=aa9050e6-a6d8-46f7-8e4a-741171c50581"},"vehicle_type_id":"4","last_reported":1733803928,"current_range_meters":32000,"station_id":"ce4bhm12rcd13ifvqgkg","pricing_plan_id":"cebpf4jnsgd1na2vs0mg"},{"bike_id":"3ec0a4b7-9409-4440-8a6a-f7eb6cd737cc","system_id":"levelo_inurba_marseille","lat":43.31996,"lon":5.38148,"is_reserved":false,"is_disabled":false,"rental_uris":{"android":"levelo://app?vid=3ec0a4b7-9409-4440-8a6a-f7eb6cd737cc","ios":"levelo://app?vid=3ec0a4b7-9409-4440-8a6a-f7eb6cd737cc"},"vehicle_type_id":"4","last_reported":1733803928,"current_range_meters":22400,"station_id":"ce4bhr12rcd13ifvqhpg","pricing_plan_id":"cebpf4jnsgd1na2vs0mg"},{"bike_id":"cf995f0f-a2d6-4303-85db-6d52c33aec36","system_id":"levelo_inurba_marseille","lat":43.33016,"lon":5.39035,"is_reserved":false,"is_disabled":false,"rental_uris":{"android":"levelo://app?vid=cf995f0f-a2d6-4303-85db-6d52c33aec36","ios":"levelo://app?vid=cf995f0f-a2d6-4303-85db-6d52c33aec36"},"vehicle_type_id":"4","last_reported":1733803928,"current_range_meters":38800,"station_id":"ce4bhr92rcd13ifvqhrg","pricing_plan_id":"cebpf4jnsgd1na2vs0mg"},{"bike_id":"c9586be8-c680-4e5b-8a9b-66fe6d3dfe62","system_id":"levelo_inurba_marseille","lat":43.320381,"lon":5.415671,"is_reserved":false,"is_disabled":false,"rental_uris":{"android":"levelo://app?vid=c9586be8-c680-4e5b-8a9b-66fe6d3dfe62","ios":"levelo://app?vid=c9586be8-c680-4e5b-8a9b-66fe6d3dfe62"},"vehicle_type_id":"4","last_reported":1733803928,"current_range_meters":21600,"station_id":"ce4bhq92rcd13ifvqhkg","pricing_plan_id":"cebpf4jnsgd1na2vs0mg"},{"bike_id":"f65be72c-3f8a-420a-98af-f7819d4a637a","system_id":"levelo_inurba_marseille","lat":43.31355,"lon":5.38497,"is_reserved":false,"is_disabled":false,"rental_uris":{"android":"levelo://app?vid=f65be72c-3f8a-420a-98af-f7819d4a637a","ios":"levelo://app?vid=f65be72c-3f8a-420a-98af-f7819d4a637a"},"vehicle_type_id":"4","last_reported":1733803928,"current_range_meters":38000,"station_id":"ce4bgt92rcd13ifvqcf0","pricing_plan_id":"cebpf4jnsgd1na2vs0mg"},{"bike_id":"243c0fa9-fb27-4111-81f0-175e30eaaaed","system_id":"levelo_inurba_marseille","lat":43.2904,"lon":5.35918,"is_reserved":false,"is_disabled":true,"rental_uris":{"android":"levelo://app?vid=243c0fa9-fb27-4111-81f0-175e30eaaaed","ios":"levelo://app?vid=243c0fa9-fb27-4111-81f0-175e30eaaaed"},"vehicle_type_id":"4","last_reported":1733803928,"current_range_meters":38000,"station_id":"ce4bha92rcd13ifvqeg0","pricing_plan_id":"cebpf4jnsgd1na2vs0mg"},{"bike_id":"ec50719b-4d96-4e25-bc96-5c048872ab73","system_id":"levelo_inurba_marseille","lat":43.286636,"lon":5.363545,"is_reserved":false,"is_disabled":false,"rental_uris":{"android":"levelo://app?vid=ec50719b-4d96-4e25-bc96-5c048872ab73","ios":"levelo://app?vid=ec50719b-4d96-4e25-bc96-5c048872ab73"},"vehicle_type_id":"4","last_reported":1733803928,"current_range_meters":26800,"station_id":"ce4bhah2rcd13ifvqej0","pricing_plan_id":"cebpf4jnsgd1na2vs0mg"},{"bike_id":"a873af9b-a353-4469-b239-adbb5bf5dc0d","system_id":"levelo_inurba_marseille","lat":43.25864,"lon":5.39901,"is_reserved":false,"is_disabled":false,"rental_uris":{"android":"levelo://app?vid=a873af9b-a353-4469-b239-adbb5bf5dc0d","ios":"levelo://app?vid=a873af9b-a353-4469-b239-adbb5bf5dc0d"},"vehicle_type_id":"4","last_reported":1733803928,"current_range_meters":38800,"station_id":"ce4bhl92rcd13ifvqghg","pricing_plan_id":"cebpf4jnsgd1na2vs0mg"},{"bike_id":"736f6ae6-7558-432f-bac9-25b0b9abee75","system_id":"levelo_inurba_marseille","lat":43.314873,"lon":5.372934,"is_reserved":false,"is_disabled":false,"rental_uris":{"android":"levelo://app?vid=736f6ae6-7558-432f-bac9-25b0b9abee75","ios":"levelo://app?vid=736f6ae6-7558-432f-bac9-25b0b9abee75"},"vehicle_type_id":"4","last_reported":1733803928,"current_range_meters":8000,"station_id":"ce4bgt12rcd13ifvqcd0","pricing_plan_id":"cebpf4jnsgd1na2vs0mg"},{"bike_id":"d2d1b95f-9e7f-4820-a2f2-7da027aea4a2","system_id":"levelo_inurba_marseille","lat":43.30422,"lon":5.3974,"is_reserved":false,"is_disabled":false,"rental_uris":{"android":"levelo://app?vid=d2d1b95f-9e7f-4820-a2f2-7da027aea4a2","ios":"levelo://app?vid=d2d1b95f-9e7f-4820-a2f2-7da027aea4a2"},"vehicle_type_id":"4","last_reported":1733803928,"current_range_meters":24400,"station_id":"ce4bh092rcd13ifvqd20","pricing_plan_id":"cebpf4jnsgd1na2vs0mg"},{"bike_id":"c8594cb2-be43-422e-9b17-658a17df5714","system_id":"levelo_inurba_marseille","lat":43.30639,"lon":5.40074,"is_reserved":false,"is_disabled":false,"rental_uris":{"android":"levelo://app?vid=c8594cb2-be43-422e-9b17-658a17df5714","ios":"levelo://app?vid=c8594cb2-be43-422e-9b17-658a17df5714"},"vehicle_type_id":"4","last_reported":1733803928,"current_range_meters":17600,"station_id":"ce4bh112rcd13ifvqda0","pricing_plan_id":"cebpf4jnsgd1na2vs0mg"},{"bike_id":"3fee833d-475f-4616-8694-7a4294aa1908","system_id":"levelo_inurba_marseille","lat":43.31358,"lon":5.38505,"is_reserved":false,"is_disabled":false,"rental_uris":{"android":"levelo://app?vid=3fee833d-475f-4616-8694-7a4294aa1908","ios":"levelo://app?vid=3fee833d-475f-4616-8694-7a4294aa1908"},"vehicle_type_id":"4","last_reported":1733803928,"current_range_meters":8800,"station_id":"ce4bgt92rcd13ifvqcf0","pricing_plan_id":"cebpf4jnsgd1na2vs0mg"},{"bike_id":"22a6bf1d-be6c-43cd-ac33-0ce352e1d59d","system_id":"levelo_inurba_marseille","lat":43.28699,"lon":5.39984,"is_reserved":false,"is_disabled":false,"rental_uris":{"android":"levelo://app?vid=22a6bf1d-be6c-43cd-ac33-0ce352e1d59d","ios":"levelo://app?vid=22a6bf1d-be6c-43cd-ac33-0ce352e1d59d"},"vehicle_type_id":"4","last_reported":1733803928,"current_range_meters":35600,"station_id":"ce4bho92rcd13ifvqh3g","pricing_plan_id":"cebpf4jnsgd1na2vs0mg"},{"bike_id":"1381d957-9c22-4679-9945-3cee5159e1e0","system_id":"levelo_inurba_marseille","lat":43.25113,"lon":5.40328,"is_reserved":false,"is_disabled":false,"rental_uris":{"android":"levelo://app?vid=1381d957-9c22-4679-9945-3cee5159e1e0","ios":"levelo://app?vid=1381d957-9c22-4679-9945-3cee5159e1e0"},"vehicle_type_id":"4","last_reported":1733803928,"current_range_meters":27200,"station_id":"ce4bhlh2rcd13ifvqgig","pricing_plan_id":"cebpf4jnsgd1na2vs0mg"},{"bike_id":"0527429a-2b93-476a-95b7-aa3b9c55cae3","system_id":"levelo_inurba_marseille","lat":43.29861,"lon":5.39746,"is_reserved":false,"is_disabled":false,"rental_uris":{"android":"levelo://app?vid=0527429a-2b93-476a-95b7-aa3b9c55cae3","ios":"levelo://app?vid=0527429a-2b93-476a-95b7-aa3b9c55cae3"},"vehicle_type_id":"4","last_reported":1733803928,"current_range_meters":37600,"station_id":"ce4bh0h2rcd13ifvqd50","pricing_plan_id":"cebpf4jnsgd1na2vs0mg"},{"bike_id":"72369e3c-7a31-4199-a732-76fa73093ac4","system_id":"levelo_inurba_marseille","lat":43.31369,"lon":5.36729,"is_reserved":false,"is_disabled":true,"rental_uris":{"android":"levelo://app?vid=72369e3c-7a31-4199-a732-76fa73093ac4","ios":"levelo://app?vid=72369e3c-7a31-4199-a732-76fa73093ac4"},"vehicle_type_id":"4","last_reported":1733803928,"current_range_meters":25600,"station_id":"ce4bgr92rcd13ifvqc6g","pricing_plan_id":"cebpf4jnsgd1na2vs0mg"},{"bike_id":"5fa91bad-b486-4700-aee0-3d40cbe09516","system_id":"levelo_inurba_marseille","lat":43.2417,"lon":5.36402,"is_reserved":false,"is_disabled":false,"rental_uris":{"android":"levelo://app?vid=5fa91bad-b486-4700-aee0-3d40cbe09516","ios":"levelo://app?vid=5fa91bad-b486-4700-aee0-3d40cbe09516"},"vehicle_type_id":"4","last_reported":1733803928,"current_range_meters":38400,"station_id":"cpo36qri1sfpv3e86is0","pricing_plan_id":"cebpf4jnsgd1na2vs0mg"},{"bike_id":"9a2ef368-ccbc-48df-bfe5-729b4ec1a778","system_id":"levelo_inurba_marseille","lat":43.3087,"lon":5.39642,"is_reserved":false,"is_disabled":false,"rental_uris":{"android":"levelo://app?vid=9a2ef368-ccbc-48df-bfe5-729b4ec1a778","ios":"levelo://app?vid=9a2ef368-ccbc-48df-bfe5-729b4ec1a778"},"vehicle_type_id":"4","last_reported":1733803928,"current_range_meters":38800,"station_id":"ce4bh012rcd13ifvqcv0","pricing_plan_id":"cebpf4jnsgd1na2vs0mg"},{"bike_id":"604b65e4-2a6b-4142-a6b5-6826372f5ac5","system_id":"levelo_inurba_marseille","lat":43.25107,"lon":5.4033,"is_reserved":false,"is_disabled":false,"rental_uris":{"android":"levelo://app?vid=604b65e4-2a6b-4142-a6b5-6826372f5ac5","ios":"levelo://app?vid=604b65e4-2a6b-4142-a6b5-6826372f5ac5"},"vehicle_type_id":"4","last_reported":1733803928,"current_range_meters":30000,"station_id":"ce4bhlh2rcd13ifvqgig","pricing_plan_id":"cebpf4jnsgd1na2vs0mg"},{"bike_id":"067d4f8e-eded-4040-9b89-eb14aebc4852","system_id":"levelo_inurba_marseille","lat":43.29896,"lon":5.43663,"is_reserved":false,"is_disabled":false,"rental_uris":{"android":"levelo://app?vid=067d4f8e-eded-4040-9b89-eb14aebc4852","ios":"levelo://app?vid=067d4f8e-eded-4040-9b89-eb14aebc4852"},"vehicle_type_id":"4","last_reported":1733803928,"current_range_meters":35600,"station_id":"ce4bhpp2rcd13ifvqhfg","pricing_plan_id":"cebpf4jnsgd1na2vs0mg"},{"bike_id":"23504e84-62de-4322-9c7d-5dbe7fb79461","system_id":"levelo_inurba_marseille","lat":43.28666,"lon":5.3634,"is_reserved":false,"is_disabled":false,"rental_uris":{"android":"levelo://app?vid=23504e84-62de-4322-9c7d-5dbe7fb79461","ios":"levelo://app?vid=23504e84-62de-4322-9c7d-5dbe7fb79461"},"vehicle_type_id":"4","last_reported":1733803928,"current_range_meters":38400,"station_id":"ce4bhah2rcd13ifvqej0","pricing_plan_id":"cebpf4jnsgd1na2vs0mg"},{"bike_id":"5296114b-8626-48f5-977d-e8d6150c1950","system_id":"levelo_inurba_marseille","lat":43.26024,"lon":5.37548,"is_reserved":false,"is_disabled":false,"rental_uris":{"android":"levelo://app?vid=5296114b-8626-48f5-977d-e8d6150c1950","ios":"levelo://app?vid=5296114b-8626-48f5-977d-e8d6150c1950"},"vehicle_type_id":"4","last_reported":1733803928,"current_range_meters":38800,"station_id":"ce4bhgh2rcd13ifvqfa0","pricing_plan_id":"cebpf4jnsgd1na2vs0mg"},{"bike_id":"9f3769a7-f392-475e-913a-8ad10d3e2daf","system_id":"levelo_inurba_marseille","lat":43.24167,"lon":5.36396,"is_reserved":false,"is_disabled":false,"rental_uris":{"android":"levelo://app?vid=9f3769a7-f392-475e-913a-8ad10d3e2daf","ios":"levelo://app?vid=9f3769a7-f392-475e-913a-8ad10d3e2daf"},"vehicle_type_id":"4","last_reported":1733803928,"current_range_meters":18000,"station_id":"cpo36qri1sfpv3e86is0","pricing_plan_id":"cebpf4jnsgd1na2vs0mg"},{"bike_id":"896d4ccf-3d83-4122-b2f2-1a77a517b0e7","system_id":"levelo_inurba_marseille","lat":43.23959,"lon":5.36635,"is_reserved":false,"is_disabled":false,"rental_uris":{"android":"levelo://app?vid=896d4ccf-3d83-4122-b2f2-1a77a517b0e7","ios":"levelo://app?vid=896d4ccf-3d83-4122-b2f2-1a77a517b0e7"},"vehicle_type_id":"4","last_reported":1733803928,"current_range_meters":37600,"station_id":"ce4bhi12rcd13ifvqfp0","pricing_plan_id":"cebpf4jnsgd1na2vs0mg"},{"bike_id":"973a4773-97d7-429d-8f91-369ad228afec","system_id":"levelo_inurba_marseille","lat":43.29561,"lon":5.39986,"is_reserved":false,"is_disabled":false,"rental_uris":{"android":"levelo://app?vid=973a4773-97d7-429d-8f91-369ad228afec","ios":"levelo://app?vid=973a4773-97d7-429d-8f91-369ad228afec"},"vehicle_type_id":"4","last_reported":1733803928,"current_range_meters":38800,"station_id":"ce4bh312rcd13ifvqdj0","pricing_plan_id":"cebpf4jnsgd1na2vs0mg"},{"bike_id":"78538ca3-c476-4016-a603-0265e1a2f841","system_id":"levelo_inurba_marseille","lat":43.3292,"lon":5.38007,"is_reserved":false,"is_disabled":false,"rental_uris":{"android":"levelo://app?vid=78538ca3-c476-4016-a603-0265e1a2f841","ios":"levelo://app?vid=78538ca3-c476-4016-a603-0265e1a2f841"},"vehicle_type_id":"4","last_reported":1733803928,"current_range_meters":37600,"station_id":"","pricing_plan_id":"cebpf4jnsgd1na2vs0mg"},{"bike_id":"3782d395-d4e4-41d8-8ef1-e17eba21c51a","system_id":"levelo_inurba_marseille","lat":43.29048,"lon":5.3591,"is_reserved":false,"is_disabled":false,"rental_uris":{"android":"levelo://app?vid=3782d395-d4e4-41d8-8ef1-e17eba21c51a","ios":"levelo://app?vid=3782d395-d4e4-41d8-8ef1-e17eba21c51a"},"vehicle_type_id":"4","last_reported":1733803928,"current_range_meters":37600,"station_id":"ce4bha92rcd13ifvqeg0","pricing_plan_id":"cebpf4jnsgd1na2vs0mg"},{"bike_id":"c3a949e2-4189-413a-b13d-13c85b2e6458","system_id":"levelo_inurba_marseille","lat":43.308895,"lon":5.396389,"is_reserved":false,"is_disabled":false,"rental_uris":{"android":"levelo://app?vid=c3a949e2-4189-413a-b13d-13c85b2e6458","ios":"levelo://app?vid=c3a949e2-4189-413a-b13d-13c85b2e6458"},"vehicle_type_id":"4","last_reported":1733803928,"current_range_meters":38000,"station_id":"ce4bh012rcd13ifvqcv0","pricing_plan_id":"cebpf4jnsgd1na2vs0mg"},{"bike_id":"6dd31b94-d18d-42c1-bca1-2a3c49f3f0a5","system_id":"levelo_inurba_marseille","lat":43.29892,"lon":5.43662,"is_reserved":false,"is_disabled":false,"rental_uris":{"android":"levelo://app?vid=6dd31b94-d18d-42c1-bca1-2a3c49f3f0a5","ios":"levelo://app?vid=6dd31b94-d18d-42c1-bca1-2a3c49f3f0a5"},"vehicle_type_id":"4","last_reported":1733803928,"current_range_meters":38000,"station_id":"ce4bhpp2rcd13ifvqhfg","pricing_plan_id":"cebpf4jnsgd1na2vs0mg"},{"bike_id":"d648f149-78bb-45c5-ab94-7303cb4dc35d","system_id":"levelo_inurba_marseille","lat":43.28148,"lon":5.42641,"is_reserved":false,"is_disabled":false,"rental_uris":{"android":"levelo://app?vid=d648f149-78bb-45c5-ab94-7303cb4dc35d","ios":"levelo://app?vid=d648f149-78bb-45c5-ab94-7303cb4dc35d"},"vehicle_type_id":"4","last_reported":1733803928,"current_range_meters":38800,"station_id":"ce4bhnh2rcd13ifvqgug","pricing_plan_id":"cebpf4jnsgd1na2vs0mg"},{"bike_id":"456ee3e2-7425-4120-bc59-2e964fa693a8","system_id":"levelo_inurba_marseille","lat":43.2439,"lon":5.37058,"is_reserved":false,"is_disabled":false,"rental_uris":{"android":"levelo://app?vid=456ee3e2-7425-4120-bc59-2e964fa693a8","ios":"levelo://app?vid=456ee3e2-7425-4120-bc59-2e964fa693a8"},"vehicle_type_id":"4","last_reported":1733803928,"current_range_meters":38400,"station_id":"ce4bhhh2rcd13ifvqfk0","pricing_plan_id":"cebpf4jnsgd1na2vs0mg"},{"bike_id":"3c2062af-ee33-42a5-bf68-d8b0edbf6fcf","system_id":"levelo_inurba_marseille","lat":43.31995,"lon":5.38141,"is_reserved":false,"is_disabled":false,"rental_uris":{"android":"levelo://app?vid=3c2062af-ee33-42a5-bf68-d8b0edbf6fcf","ios":"levelo://app?vid=3c2062af-ee33-42a5-bf68-d8b0edbf6fcf"},"vehicle_type_id":"4","last_reported":1733803928,"current_range_meters":38800,"station_id":"ce4bhr12rcd13ifvqhpg","pricing_plan_id":"cebpf4jnsgd1na2vs0mg"},{"bike_id":"fffe1299-c7b4-4089-b31f-29a46a680f0f","system_id":"levelo_inurba_marseille","lat":43.30253,"lon":5.40089,"is_reserved":false,"is_disabled":false,"rental_uris":{"android":"levelo://app?vid=fffe1299-c7b4-4089-b31f-29a46a680f0f","ios":"levelo://app?vid=fffe1299-c7b4-4089-b31f-29a46a680f0f"},"vehicle_type_id":"4","last_reported":1733803928,"current_range_meters":38800,"station_id":"ce4bgvh2rcd13ifvqcs0","pricing_plan_id":"cebpf4jnsgd1na2vs0mg"},{"bike_id":"99865193-4a4c-4fd2-a45f-3c978e84a380","system_id":"levelo_inurba_marseille","lat":43.26804,"lon":5.40257,"is_reserved":false,"is_disabled":false,"rental_uris":{"android":"levelo://app?vid=99865193-4a4c-4fd2-a45f-3c978e84a380","ios":"levelo://app?vid=99865193-4a4c-4fd2-a45f-3c978e84a380"},"vehicle_type_id":"4","last_reported":1733803928,"current_range_meters":31200,"station_id":"ce501612rcd8frsf0b60","pricing_plan_id":"cebpf4jnsgd1na2vs0mg"},{"bike_id":"c963389e-e51a-4a4e-a9ee-bf7c5ad89e2b","system_id":"levelo_inurba_marseille","lat":43.26496,"lon":5.39548,"is_reserved":false,"is_disabled":false,"rental_uris":{"android":"levelo://app?vid=c963389e-e51a-4a4e-a9ee-bf7c5ad89e2b","ios":"levelo://app?vid=c963389e-e51a-4a4e-a9ee-bf7c5ad89e2b"},"vehicle_type_id":"4","last_reported":1733803928,"current_range_meters":38400,"station_id":"ce4bhi12rcd13ifvqfq0","pricing_plan_id":"cebpf4jnsgd1na2vs0mg"},{"bike_id":"25a20b03-9830-4773-bc6b-d425633d2c5c","system_id":"levelo_inurba_marseille","lat":43.24767,"lon":5.40029,"is_reserved":false,"is_disabled":true,"rental_uris":{"android":"levelo://app?vid=25a20b03-9830-4773-bc6b-d425633d2c5c","ios":"levelo://app?vid=25a20b03-9830-4773-bc6b-d425633d2c5c"},"vehicle_type_id":"4","last_reported":1733803928,"current_range_meters":0,"station_id":"","pricing_plan_id":"cebpf4jnsgd1na2vs0mg"},{"bike_id":"75eb83c4-e905-4efe-8f57-088042638a09","system_id":"levelo_inurba_marseille","lat":43.24801,"lon":5.3745,"is_reserved":false,"is_disabled":false,"rental_uris":{"android":"levelo://app?vid=75eb83c4-e905-4efe-8f57-088042638a09","ios":"levelo://app?vid=75eb83c4-e905-4efe-8f57-088042638a09"},"vehicle_type_id":"4","last_reported":1733803928,"current_range_meters":38800,"station_id":"ce4bhgh2rcd13ifvqfb0","pricing_plan_id":"cebpf4jnsgd1na2vs0mg"},{"bike_id":"244bb482-bed4-4bba-8454-2dce8ec54fa7","system_id":"levelo_inurba_marseille","lat":43.28153,"lon":5.42641,"is_reserved":false,"is_disabled":false,"rental_uris":{"android":"levelo://app?vid=244bb482-bed4-4bba-8454-2dce8ec54fa7","ios":"levelo://app?vid=244bb482-bed4-4bba-8454-2dce8ec54fa7"},"vehicle_type_id":"4","last_reported":1733803928,"current_range_meters":38800,"station_id":"ce4bhnh2rcd13ifvqgug","pricing_plan_id":"cebpf4jnsgd1na2vs0mg"},{"bike_id":"fa9f837d-087b-417d-855e-bb2ca30d3b94","system_id":"levelo_inurba_marseille","lat":43.30607,"lon":5.372199,"is_reserved":false,"is_disabled":false,"rental_uris":{"android":"levelo://app?vid=fa9f837d-087b-417d-855e-bb2ca30d3b94","ios":"levelo://app?vid=fa9f837d-087b-417d-855e-bb2ca30d3b94"},"vehicle_type_id":"4","last_reported":1733803928,"current_range_meters":38000,"station_id":"ce4bgqh2rcd13ifvqc4g","pricing_plan_id":"cebpf4jnsgd1na2vs0mg"},{"bike_id":"96b4e0a8-8f98-4fc6-8d19-c0dca4f16ba5","system_id":"levelo_inurba_marseille","lat":43.28454,"lon":5.35878,"is_reserved":false,"is_disabled":false,"rental_uris":{"android":"levelo://app?vid=96b4e0a8-8f98-4fc6-8d19-c0dca4f16ba5","ios":"levelo://app?vid=96b4e0a8-8f98-4fc6-8d19-c0dca4f16ba5"},"vehicle_type_id":"4","last_reported":1733803928,"current_range_meters":38800,"station_id":"ce4bhah2rcd13ifvqei0","pricing_plan_id":"cebpf4jnsgd1na2vs0mg"},{"bike_id":"7292a2ac-73a1-4c5d-a38b-1ac906ea9f7d","system_id":"levelo_inurba_marseille","lat":43.29252,"lon":5.40913,"is_reserved":false,"is_disabled":false,"rental_uris":{"android":"levelo://app?vid=7292a2ac-73a1-4c5d-a38b-1ac906ea9f7d","ios":"levelo://app?vid=7292a2ac-73a1-4c5d-a38b-1ac906ea9f7d"},"vehicle_type_id":"4","last_reported":1733803928,"current_range_meters":36400,"station_id":"ce4bh192rcd13ifvqdc0","pricing_plan_id":"cebpf4jnsgd1na2vs0mg"},{"bike_id":"2c1fc921-bacd-4e06-b1ad-b0db031246cc","system_id":"levelo_inurba_marseille","lat":43.29194,"lon":5.39329,"is_reserved":false,"is_disabled":false,"rental_uris":{"android":"levelo://app?vid=2c1fc921-bacd-4e06-b1ad-b0db031246cc","ios":"levelo://app?vid=2c1fc921-bacd-4e06-b1ad-b0db031246cc"},"vehicle_type_id":"4","last_reported":1733803928,"current_range_meters":38800,"station_id":"ce4bh192rcd13ifvqdd0","pricing_plan_id":"cebpf4jnsgd1na2vs0mg"},{"bike_id":"f28f99b4-6cf7-4153-b870-5ede39787b28","system_id":"levelo_inurba_marseille","lat":43.29189,"lon":5.39316,"is_reserved":false,"is_disabled":false,"rental_uris":{"android":"levelo://app?vid=f28f99b4-6cf7-4153-b870-5ede39787b28","ios":"levelo://app?vid=f28f99b4-6cf7-4153-b870-5ede39787b28"},"vehicle_type_id":"4","last_reported":1733803928,"current_range_meters":32800,"station_id":"ce4bh192rcd13ifvqdd0","pricing_plan_id":"cebpf4jnsgd1na2vs0mg"},{"bike_id":"55e60e63-47ce-424d-ad59-1c9ec610c8a6","system_id":"levelo_inurba_marseille","lat":43.2846,"lon":5.35876,"is_reserved":false,"is_disabled":false,"rental_uris":{"android":"levelo://app?vid=55e60e63-47ce-424d-ad59-1c9ec610c8a6","ios":"levelo://app?vid=55e60e63-47ce-424d-ad59-1c9ec610c8a6"},"vehicle_type_id":"4","last_reported":1733803928,"current_range_meters":38800,"station_id":"ce4bhah2rcd13ifvqei0","pricing_plan_id":"cebpf4jnsgd1na2vs0mg"},{"bike_id":"79eec760-3148-415c-9486-9ff642f00208","system_id":"levelo_inurba_marseille","lat":43.34663,"lon":5.34557,"is_reserved":false,"is_disabled":true,"rental_uris":{"android":"levelo://app?vid=79eec760-3148-415c-9486-9ff642f00208","ios":"levelo://app?vid=79eec760-3148-415c-9486-9ff642f00208"},"vehicle_type_id":"4","last_reported":1733803928,"current_range_meters":0,"station_id":"","pricing_plan_id":"cebpf4jnsgd1na2vs0mg"},{"bike_id":"8aadf58a-87b6-43bc-bc7a-a77c93959c49","system_id":"levelo_inurba_marseille","lat":43.23187,"lon":5.3999,"is_reserved":false,"is_disabled":false,"rental_uris":{"android":"levelo://app?vid=8aadf58a-87b6-43bc-bc7a-a77c93959c49","ios":"levelo://app?vid=8aadf58a-87b6-43bc-bc7a-a77c93959c49"},"vehicle_type_id":"4","last_reported":1733803928,"current_range_meters":10000,"station_id":"ce4bhn12rcd13ifvqgqg","pricing_plan_id":"cebpf4jnsgd1na2vs0mg"},{"bike_id":"9a8f466b-8790-45e8-9233-f61a1cfa1f24","system_id":"levelo_inurba_marseille","lat":43.284644,"lon":5.358979,"is_reserved":false,"is_disabled":false,"rental_uris":{"android":"levelo://app?vid=9a8f466b-8790-45e8-9233-f61a1cfa1f24","ios":"levelo://app?vid=9a8f466b-8790-45e8-9233-f61a1cfa1f24"},"vehicle_type_id":"4","last_reported":1733803928,"current_range_meters":17600,"station_id":"ce4bhah2rcd13ifvqei0","pricing_plan_id":"cebpf4jnsgd1na2vs0mg"},{"bike_id":"4786878e-6c1c-455e-9149-40c0337cb4c3","system_id":"levelo_inurba_marseille","lat":43.27071,"lon":5.42281,"is_reserved":false,"is_disabled":false,"rental_uris":{"android":"levelo://app?vid=4786878e-6c1c-455e-9149-40c0337cb4c3","ios":"levelo://app?vid=4786878e-6c1c-455e-9149-40c0337cb4c3"},"vehicle_type_id":"4","last_reported":1733803928,"current_range_meters":38800,"station_id":"ce4bhk92rcd13ifvqgb0","pricing_plan_id":"cebpf4jnsgd1na2vs0mg"},{"bike_id":"2799e42a-2574-4188-a835-36cfe365646d","system_id":"levelo_inurba_marseille","lat":43.31531,"lon":5.38036,"is_reserved":false,"is_disabled":false,"rental_uris":{"android":"levelo://app?vid=2799e42a-2574-4188-a835-36cfe365646d","ios":"levelo://app?vid=2799e42a-2574-4188-a835-36cfe365646d"},"vehicle_type_id":"4","last_reported":1733803928,"current_range_meters":38800,"station_id":"ce4bhsp2rcd13ifvqi50","pricing_plan_id":"cebpf4jnsgd1na2vs0mg"},{"bike_id":"88a7ad66-e693-4411-a768-a5a47218de5e","system_id":"levelo_inurba_marseille","lat":43.27316,"lon":5.39105,"is_reserved":false,"is_disabled":false,"rental_uris":{"android":"levelo://app?vid=88a7ad66-e693-4411-a768-a5a47218de5e","ios":"levelo://app?vid=88a7ad66-e693-4411-a768-a5a47218de5e"},"vehicle_type_id":"4","last_reported":1733803928,"current_range_meters":37600,"station_id":"ce4bhgp2rcd13ifvqfe0","pricing_plan_id":"cebpf4jnsgd1na2vs0mg"},{"bike_id":"8a1ba367-d799-4041-a1b4-79dbb77ea30e","system_id":"levelo_inurba_marseille","lat":43.24071,"lon":5.37763,"is_reserved":false,"is_disabled":false,"rental_uris":{"android":"levelo://app?vid=8a1ba367-d799-4041-a1b4-79dbb77ea30e","ios":"levelo://app?vid=8a1ba367-d799-4041-a1b4-79dbb77ea30e"},"vehicle_type_id":"4","last_reported":1733803928,"current_range_meters":37600,"station_id":"ce4bhnp2rcd13ifvqgvg","pricing_plan_id":"cebpf4jnsgd1na2vs0mg"},{"bike_id":"09e8f3a7-5e09-4c1d-acc9-e200de530ef1","system_id":"levelo_inurba_marseille","lat":43.23154,"lon":5.43713,"is_reserved":false,"is_disabled":false,"rental_uris":{"android":"levelo://app?vid=09e8f3a7-5e09-4c1d-acc9-e200de530ef1","ios":"levelo://app?vid=09e8f3a7-5e09-4c1d-acc9-e200de530ef1"},"vehicle_type_id":"4","last_reported":1733803928,"current_range_meters":38000,"station_id":"ce4bhmp2rcd13ifvqgog","pricing_plan_id":"cebpf4jnsgd1na2vs0mg"},{"bike_id":"916a2d70-59d8-4425-95e0-fadd99f50cb5","system_id":"levelo_inurba_marseille","lat":43.31079,"lon":5.38365,"is_reserved":false,"is_disabled":false,"rental_uris":{"android":"levelo://app?vid=916a2d70-59d8-4425-95e0-fadd99f50cb5","ios":"levelo://app?vid=916a2d70-59d8-4425-95e0-fadd99f50cb5"},"vehicle_type_id":"4","last_reported":1733803928,"current_range_meters":33200,"station_id":"ce4bgv92rcd13ifvqcr0","pricing_plan_id":"cebpf4jnsgd1na2vs0mg"},{"bike_id":"84c02044-e8b7-4caf-b8d8-a75f1c60eb03","system_id":"levelo_inurba_marseille","lat":43.27561,"lon":5.38428,"is_reserved":false,"is_disabled":false,"rental_uris":{"android":"levelo://app?vid=84c02044-e8b7-4caf-b8d8-a75f1c60eb03","ios":"levelo://app?vid=84c02044-e8b7-4caf-b8d8-a75f1c60eb03"},"vehicle_type_id":"4","last_reported":1733803928,"current_range_meters":36400,"station_id":"ce4bhh92rcd13ifvqfi0","pricing_plan_id":"cebpf4jnsgd1na2vs0mg"},{"bike_id":"e3650a39-7faf-4bef-874a-053482a93766","system_id":"levelo_inurba_marseille","lat":43.297324,"lon":5.376815,"is_reserved":false,"is_disabled":true,"rental_uris":{"android":"levelo://app?vid=e3650a39-7faf-4bef-874a-053482a93766","ios":"levelo://app?vid=e3650a39-7faf-4bef-874a-053482a93766"},"vehicle_type_id":"4","last_reported":1733803928,"current_range_meters":28400,"station_id":"ce4bgkh2rcd13ifvqbl0","pricing_plan_id":"cebpf4jnsgd1na2vs0mg"},{"bike_id":"552782d8-e5d7-4772-94a4-001461c0cb80","system_id":"levelo_inurba_marseille","lat":43.2407,"lon":5.37762,"is_reserved":false,"is_disabled":false,"rental_uris":{"android":"levelo://app?vid=552782d8-e5d7-4772-94a4-001461c0cb80","ios":"levelo://app?vid=552782d8-e5d7-4772-94a4-001461c0cb80"},"vehicle_type_id":"4","last_reported":1733803928,"current_range_meters":38800,"station_id":"ce4bhnp2rcd13ifvqgvg","pricing_plan_id":"cebpf4jnsgd1na2vs0mg"},{"bike_id":"e652bd0e-f25c-4f49-88d2-3023d62cd5aa","system_id":"levelo_inurba_marseille","lat":43.295892,"lon":5.37506,"is_reserved":false,"is_disabled":true,"rental_uris":{"android":"levelo://app?vid=e652bd0e-f25c-4f49-88d2-3023d62cd5aa","ios":"levelo://app?vid=e652bd0e-f25c-4f49-88d2-3023d62cd5aa"},"vehicle_type_id":"4","last_reported":1733803928,"current_range_meters":0,"station_id":"","pricing_plan_id":"cebpf4jnsgd1na2vs0mg"},{"bike_id":"fe5707ac-071f-4824-98b8-d6b028bc38f8","system_id":"levelo_inurba_marseille","lat":43.25861,"lon":5.39903,"is_reserved":false,"is_disabled":false,"rental_uris":{"android":"levelo://app?vid=fe5707ac-071f-4824-98b8-d6b028bc38f8","ios":"levelo://app?vid=fe5707ac-071f-4824-98b8-d6b028bc38f8"},"vehicle_type_id":"4","last_reported":1733803928,"current_range_meters":28400,"station_id":"ce4bhl92rcd13ifvqghg","pricing_plan_id":"cebpf4jnsgd1na2vs0mg"},{"bike_id":"50f52497-54ca-47ea-a19e-1fc86f8c6045","system_id":"levelo_inurba_marseille","lat":43.28231,"lon":5.42407,"is_reserved":false,"is_disabled":true,"rental_uris":{"android":"levelo://app?vid=50f52497-54ca-47ea-a19e-1fc86f8c6045","ios":"levelo://app?vid=50f52497-54ca-47ea-a19e-1fc86f8c6045"},"vehicle_type_id":"4","last_reported":1733803928,"current_range_meters":6400,"station_id":"","pricing_plan_id":"cebpf4jnsgd1na2vs0mg"},{"bike_id":"1b2d4db1-cec0-4376-9abf-f3b964e5dcb7","system_id":"levelo_inurba_marseille","lat":43.23191,"lon":5.35546,"is_reserved":false,"is_disabled":false,"rental_uris":{"android":"levelo://app?vid=1b2d4db1-cec0-4376-9abf-f3b964e5dcb7","ios":"levelo://app?vid=1b2d4db1-cec0-4376-9abf-f3b964e5dcb7"},"vehicle_type_id":"4","last_reported":1733803928,"current_range_meters":37600,"station_id":"ce4bhu92rcd13ifvqi70","pricing_plan_id":"cebpf4jnsgd1na2vs0mg"},{"bike_id":"96bdbbf6-4e27-431a-9de0-61580f6be174","system_id":"levelo_inurba_marseille","lat":43.23187,"lon":5.39986,"is_reserved":false,"is_disabled":false,"rental_uris":{"android":"levelo://app?vid=96bdbbf6-4e27-431a-9de0-61580f6be174","ios":"levelo://app?vid=96bdbbf6-4e27-431a-9de0-61580f6be174"},"vehicle_type_id":"4","last_reported":1733803928,"current_range_meters":8000,"station_id":"ce4bhn12rcd13ifvqgqg","pricing_plan_id":"cebpf4jnsgd1na2vs0mg"},{"bike_id":"65a5d8de-101e-4549-82cc-0aa76cd0538b","system_id":"levelo_inurba_marseille","lat":43.30318,"lon":5.36899,"is_reserved":false,"is_disabled":true,"rental_uris":{"android":"levelo://app?vid=65a5d8de-101e-4549-82cc-0aa76cd0538b","ios":"levelo://app?vid=65a5d8de-101e-4549-82cc-0aa76cd0538b"},"vehicle_type_id":"4","last_reported":1733803928,"current_range_meters":0,"station_id":"ce4bgqh2rcd13ifvqc5g","pricing_plan_id":"cebpf4jnsgd1na2vs0mg"},{"bike_id":"33f1a526-a5a3-4261-b1e0-d90c46ff918d","system_id":"levelo_inurba_marseille","lat":43.28151,"lon":5.42643,"is_reserved":false,"is_disabled":true,"rental_uris":{"android":"levelo://app?vid=33f1a526-a5a3-4261-b1e0-d90c46ff918d","ios":"levelo://app?vid=33f1a526-a5a3-4261-b1e0-d90c46ff918d"},"vehicle_type_id":"4","last_reported":1733803928,"current_range_meters":17200,"station_id":"ce4bhnh2rcd13ifvqgug","pricing_plan_id":"cebpf4jnsgd1na2vs0mg"},{"bike_id":"3e9e2561-6f54-485e-84b2-cff5e0916c34","system_id":"levelo_inurba_marseille","lat":43.32335,"lon":5.40628,"is_reserved":false,"is_disabled":false,"rental_uris":{"android":"levelo://app?vid=3e9e2561-6f54-485e-84b2-cff5e0916c34","ios":"levelo://app?vid=3e9e2561-6f54-485e-84b2-cff5e0916c34"},"vehicle_type_id":"4","last_reported":1733803928,"current_range_meters":12400,"station_id":"ce4bhq92rcd13ifvqhjg","pricing_plan_id":"cebpf4jnsgd1na2vs0mg"},{"bike_id":"06bbb8b4-0aef-42cc-b45e-5e2f02e86954","system_id":"levelo_inurba_marseille","lat":43.2826,"lon":5.35082,"is_reserved":false,"is_disabled":false,"rental_uris":{"android":"levelo://app?vid=06bbb8b4-0aef-42cc-b45e-5e2f02e86954","ios":"levelo://app?vid=06bbb8b4-0aef-42cc-b45e-5e2f02e86954"},"vehicle_type_id":"4","last_reported":1733803928,"current_range_meters":22800,"station_id":"ce4bhbp2rcd13ifvqerg","pricing_plan_id":"cebpf4jnsgd1na2vs0mg"},{"bike_id":"6471b5c6-0904-4f8f-8900-ab02d9bb00c4","system_id":"levelo_inurba_marseille","lat":43.24808,"lon":5.37455,"is_reserved":false,"is_disabled":false,"rental_uris":{"android":"levelo://app?vid=6471b5c6-0904-4f8f-8900-ab02d9bb00c4","ios":"levelo://app?vid=6471b5c6-0904-4f8f-8900-ab02d9bb00c4"},"vehicle_type_id":"4","last_reported":1733803928,"current_range_meters":38000,"station_id":"ce4bhgh2rcd13ifvqfb0","pricing_plan_id":"cebpf4jnsgd1na2vs0mg"},{"bike_id":"76297273-a070-4aeb-9b97-514f5db3a44c","system_id":"levelo_inurba_marseille","lat":43.28267,"lon":5.35072,"is_reserved":false,"is_disabled":false,"rental_uris":{"android":"levelo://app?vid=76297273-a070-4aeb-9b97-514f5db3a44c","ios":"levelo://app?vid=76297273-a070-4aeb-9b97-514f5db3a44c"},"vehicle_type_id":"4","last_reported":1733803928,"current_range_meters":38800,"station_id":"ce4bhbp2rcd13ifvqerg","pricing_plan_id":"cebpf4jnsgd1na2vs0mg"},{"bike_id":"1c5491e3-5640-4dec-a041-cae84c60627c","system_id":"levelo_inurba_marseille","lat":43.29002,"lon":5.35613,"is_reserved":false,"is_disabled":true,"rental_uris":{"android":"levelo://app?vid=1c5491e3-5640-4dec-a041-cae84c60627c","ios":"levelo://app?vid=1c5491e3-5640-4dec-a041-cae84c60627c"},"vehicle_type_id":"4","last_reported":1733803928,"current_range_meters":23200,"station_id":"ce4bhb92rcd13ifvqen0","pricing_plan_id":"cebpf4jnsgd1na2vs0mg"},{"bike_id":"90ebbba3-1f93-4e94-b8e2-3a92e7a696f4","system_id":"levelo_inurba_marseille","lat":43.27964,"lon":5.38715,"is_reserved":false,"is_disabled":false,"rental_uris":{"android":"levelo://app?vid=90ebbba3-1f93-4e94-b8e2-3a92e7a696f4","ios":"levelo://app?vid=90ebbba3-1f93-4e94-b8e2-3a92e7a696f4"},"vehicle_type_id":"4","last_reported":1733803928,"current_range_meters":30000,"station_id":"ce4bhg12rcd13ifvqf80","pricing_plan_id":"cebpf4jnsgd1na2vs0mg"},{"bike_id":"5d9d33ed-3cf9-4f40-bcf4-4fd075009d99","system_id":"levelo_inurba_marseille","lat":43.26938,"lon":5.40252,"is_reserved":false,"is_disabled":false,"rental_uris":{"android":"levelo://app?vid=5d9d33ed-3cf9-4f40-bcf4-4fd075009d99","ios":"levelo://app?vid=5d9d33ed-3cf9-4f40-bcf4-4fd075009d99"},"vehicle_type_id":"4","last_reported":1733803928,"current_range_meters":38800,"station_id":"cjm6bp8fraef2m0cb0m0","pricing_plan_id":"cebpf4jnsgd1na2vs0mg"},{"bike_id":"e2e5fff8-dab3-4021-a87d-3c7c833d47d1","system_id":"levelo_inurba_marseille","lat":43.26207,"lon":5.37456,"is_reserved":false,"is_disabled":false,"rental_uris":{"android":"levelo://app?vid=e2e5fff8-dab3-4021-a87d-3c7c833d47d1","ios":"levelo://app?vid=e2e5fff8-dab3-4021-a87d-3c7c833d47d1"},"vehicle_type_id":"4","last_reported":1733803928,"current_range_meters":10000,"station_id":"ce4bhgp2rcd13ifvqfc0","pricing_plan_id":"cebpf4jnsgd1na2vs0mg"},{"bike_id":"b8ec9b64-e348-44c1-9548-0544741a8e35","system_id":"levelo_inurba_marseille","lat":43.31737,"lon":5.39028,"is_reserved":false,"is_disabled":false,"rental_uris":{"android":"levelo://app?vid=b8ec9b64-e348-44c1-9548-0544741a8e35","ios":"levelo://app?vid=b8ec9b64-e348-44c1-9548-0544741a8e35"},"vehicle_type_id":"4","last_reported":1733803928,"current_range_meters":38800,"station_id":"ce4bhqp2rcd13ifvqhng","pricing_plan_id":"cebpf4jnsgd1na2vs0mg"},{"bike_id":"5eea9a7b-3ff9-4927-b6f8-1a20fab034e8","system_id":"levelo_inurba_marseille","lat":43.29798,"lon":5.4041,"is_reserved":false,"is_disabled":false,"rental_uris":{"android":"levelo://app?vid=5eea9a7b-3ff9-4927-b6f8-1a20fab034e8","ios":"levelo://app?vid=5eea9a7b-3ff9-4927-b6f8-1a20fab034e8"},"vehicle_type_id":"4","last_reported":1733803928,"current_range_meters":34000,"station_id":"ce4bh112rcd13ifvqd90","pricing_plan_id":"cebpf4jnsgd1na2vs0mg"},{"bike_id":"f44c4128-7be2-4a46-a438-dfb677b443d7","system_id":"levelo_inurba_marseille","lat":43.31312,"lon":5.39687,"is_reserved":false,"is_disabled":false,"rental_uris":{"android":"levelo://app?vid=f44c4128-7be2-4a46-a438-dfb677b443d7","ios":"levelo://app?vid=f44c4128-7be2-4a46-a438-dfb677b443d7"},"vehicle_type_id":"4","last_reported":1733803928,"current_range_meters":27200,"station_id":"ce4bgvp2rcd13ifvqcu0","pricing_plan_id":"cebpf4jnsgd1na2vs0mg"},{"bike_id":"2cdc68bc-783f-42f1-8a2a-30a830fd99d3","system_id":"levelo_inurba_marseille","lat":43.30136,"lon":5.37415,"is_reserved":false,"is_disabled":true,"rental_uris":{"android":"levelo://app?vid=2cdc68bc-783f-42f1-8a2a-30a830fd99d3","ios":"levelo://app?vid=2cdc68bc-783f-42f1-8a2a-30a830fd99d3"},"vehicle_type_id":"4","last_reported":1733803928,"current_range_meters":36400,"station_id":"ce4bgs92rcd13ifvqcc0","pricing_plan_id":"cebpf4jnsgd1na2vs0mg"},{"bike_id":"4018d084-9958-4047-90d2-c124b53a7f36","system_id":"levelo_inurba_marseille","lat":43.24386,"lon":5.37049,"is_reserved":false,"is_disabled":false,"rental_uris":{"android":"levelo://app?vid=4018d084-9958-4047-90d2-c124b53a7f36","ios":"levelo://app?vid=4018d084-9958-4047-90d2-c124b53a7f36"},"vehicle_type_id":"4","last_reported":1733803928,"current_range_meters":37600,"station_id":"ce4bhhh2rcd13ifvqfk0","pricing_plan_id":"cebpf4jnsgd1na2vs0mg"},{"bike_id":"f04c662a-4856-4b9e-9ba1-300effb74f28","system_id":"levelo_inurba_marseille","lat":43.29969,"lon":5.38488,"is_reserved":false,"is_disabled":true,"rental_uris":{"android":"levelo://app?vid=f04c662a-4856-4b9e-9ba1-300effb74f28","ios":"levelo://app?vid=f04c662a-4856-4b9e-9ba1-300effb74f28"},"vehicle_type_id":"4","last_reported":1733803928,"current_range_meters":0,"station_id":"ce4bgj92rcd13ifvqbd0","pricing_plan_id":"cebpf4jnsgd1na2vs0mg"},{"bike_id":"b77f54b8-0618-490b-9929-20052e5f0ec6","system_id":"levelo_inurba_marseille","lat":43.293,"lon":5.37446,"is_reserved":false,"is_disabled":true,"rental_uris":{"android":"levelo://app?vid=b77f54b8-0618-490b-9929-20052e5f0ec6","ios":"levelo://app?vid=b77f54b8-0618-490b-9929-20052e5f0ec6"},"vehicle_type_id":"4","last_reported":1733803928,"current_range_meters":27600,"station_id":"ce4bgi12rcd13ifvqb70","pricing_plan_id":"cebpf4jnsgd1na2vs0mg"},{"bike_id":"ac678e73-d27e-419d-895b-380a318f19a9","system_id":"levelo_inurba_marseille","lat":43.31752,"lon":5.39018,"is_reserved":false,"is_disabled":false,"rental_uris":{"android":"levelo://app?vid=ac678e73-d27e-419d-895b-380a318f19a9","ios":"levelo://app?vid=ac678e73-d27e-419d-895b-380a318f19a9"},"vehicle_type_id":"4","last_reported":1733803928,"current_range_meters":38800,"station_id":"ce4bhqp2rcd13ifvqhng","pricing_plan_id":"cebpf4jnsgd1na2vs0mg"},{"bike_id":"b7704992-265d-44ce-8e30-e3b1a140a380","system_id":"levelo_inurba_marseille","lat":43.29794,"lon":5.38091,"is_reserved":false,"is_disabled":true,"rental_uris":{"android":"levelo://app?vid=b7704992-265d-44ce-8e30-e3b1a140a380","ios":"levelo://app?vid=b7704992-265d-44ce-8e30-e3b1a140a380"},"vehicle_type_id":"4","last_reported":1733803928,"current_range_meters":36400,"station_id":"ce4bgip2rcd13ifvqbb0","pricing_plan_id":"cebpf4jnsgd1na2vs0mg"},{"bike_id":"276f5c33-3128-4ec1-9275-8dcf87254262","system_id":"levelo_inurba_marseille","lat":43.30135,"lon":5.39878,"is_reserved":false,"is_disabled":false,"rental_uris":{"android":"levelo://app?vid=276f5c33-3128-4ec1-9275-8dcf87254262","ios":"levelo://app?vid=276f5c33-3128-4ec1-9275-8dcf87254262"},"vehicle_type_id":"4","last_reported":1733803928,"current_range_meters":38800,"station_id":"ce4bh0h2rcd13ifvqd40","pricing_plan_id":"cebpf4jnsgd1na2vs0mg"},{"bike_id":"2ce995c6-27a7-422d-8781-ba97f0a03799","system_id":"levelo_inurba_marseille","lat":43.31116,"lon":5.37765,"is_reserved":false,"is_disabled":false,"rental_uris":{"android":"levelo://app?vid=2ce995c6-27a7-422d-8781-ba97f0a03799","ios":"levelo://app?vid=2ce995c6-27a7-422d-8781-ba97f0a03799"},"vehicle_type_id":"4","last_reported":1733803928,"current_range_meters":36800,"station_id":"ce4bgt92rcd13ifvqcg0","pricing_plan_id":"cebpf4jnsgd1na2vs0mg"},{"bike_id":"d43e5ea8-13b0-4ee3-b5ea-caee40935a00","system_id":"levelo_inurba_marseille","lat":43.27179,"lon":5.40989,"is_reserved":false,"is_disabled":false,"rental_uris":{"android":"levelo://app?vid=d43e5ea8-13b0-4ee3-b5ea-caee40935a00","ios":"levelo://app?vid=d43e5ea8-13b0-4ee3-b5ea-caee40935a00"},"vehicle_type_id":"4","last_reported":1733803928,"current_range_meters":4400,"station_id":"ce4bhl12rcd13ifvqgf0","pricing_plan_id":"cebpf4jnsgd1na2vs0mg"},{"bike_id":"bfaf37b6-7bf4-4204-9796-300fb9c2be05","system_id":"levelo_inurba_marseille","lat":43.28613,"lon":5.35102,"is_reserved":false,"is_disabled":false,"rental_uris":{"android":"levelo://app?vid=bfaf37b6-7bf4-4204-9796-300fb9c2be05","ios":"levelo://app?vid=bfaf37b6-7bf4-4204-9796-300fb9c2be05"},"vehicle_type_id":"4","last_reported":1733803928,"current_range_meters":35200,"station_id":"ce4bhch2rcd13ifvqeug","pricing_plan_id":"cebpf4jnsgd1na2vs0mg"},{"bike_id":"41a533a6-1746-4ecb-9fb6-37e0d094bf17","system_id":"levelo_inurba_marseille","lat":43.26787,"lon":5.39423,"is_reserved":false,"is_disabled":false,"rental_uris":{"android":"levelo://app?vid=41a533a6-1746-4ecb-9fb6-37e0d094bf17","ios":"levelo://app?vid=41a533a6-1746-4ecb-9fb6-37e0d094bf17"},"vehicle_type_id":"4","last_reported":1733803928,"current_range_meters":38000,"station_id":"ce4bhh12rcd13ifvqfg0","pricing_plan_id":"cebpf4jnsgd1na2vs0mg"},{"bike_id":"33202a87-d45c-43a2-88f7-5f0e79720587","system_id":"levelo_inurba_marseille","lat":43.27893,"lon":5.39597,"is_reserved":false,"is_disabled":false,"rental_uris":{"android":"levelo://app?vid=33202a87-d45c-43a2-88f7-5f0e79720587","ios":"levelo://app?vid=33202a87-d45c-43a2-88f7-5f0e79720587"},"vehicle_type_id":"4","last_reported":1733803928,"current_range_meters":35600,"station_id":"ce4bhf92rcd13ifvqf40","pricing_plan_id":"cebpf4jnsgd1na2vs0mg"},{"bike_id":"85ae9581-4a72-48d0-b14a-1d5f0b790f3a","system_id":"levelo_inurba_marseille","lat":43.28653,"lon":5.36346,"is_reserved":false,"is_disabled":false,"rental_uris":{"android":"levelo://app?vid=85ae9581-4a72-48d0-b14a-1d5f0b790f3a","ios":"levelo://app?vid=85ae9581-4a72-48d0-b14a-1d5f0b790f3a"},"vehicle_type_id":"4","last_reported":1733803928,"current_range_meters":8400,"station_id":"ce4bhah2rcd13ifvqej0","pricing_plan_id":"cebpf4jnsgd1na2vs0mg"},{"bike_id":"69a2726b-4c7b-4276-bc7b-f63452d45c65","system_id":"levelo_inurba_marseille","lat":43.27172,"lon":5.4099,"is_reserved":false,"is_disabled":false,"rental_uris":{"android":"levelo://app?vid=69a2726b-4c7b-4276-bc7b-f63452d45c65","ios":"levelo://app?vid=69a2726b-4c7b-4276-bc7b-f63452d45c65"},"vehicle_type_id":"4","last_reported":1733803928,"current_range_meters":11200,"station_id":"ce4bhl12rcd13ifvqgf0","pricing_plan_id":"cebpf4jnsgd1na2vs0mg"},{"bike_id":"eb4e32cd-a02d-4e92-a013-1fdc0dd71ccb","system_id":"levelo_inurba_marseille","lat":43.324799,"lon":5.365716,"is_reserved":false,"is_disabled":true,"rental_uris":{"android":"levelo://app?vid=eb4e32cd-a02d-4e92-a013-1fdc0dd71ccb","ios":"levelo://app?vid=eb4e32cd-a02d-4e92-a013-1fdc0dd71ccb"},"vehicle_type_id":"4","last_reported":1733803928,"current_range_meters":0,"station_id":"","pricing_plan_id":"cebpf4jnsgd1na2vs0mg"},{"bike_id":"ad24f16e-2206-4a3c-9b57-73b59ffe17ba","system_id":"levelo_inurba_marseille","lat":43.24165,"lon":5.36396,"is_reserved":false,"is_disabled":false,"rental_uris":{"android":"levelo://app?vid=ad24f16e-2206-4a3c-9b57-73b59ffe17ba","ios":"levelo://app?vid=ad24f16e-2206-4a3c-9b57-73b59ffe17ba"},"vehicle_type_id":"4","last_reported":1733803928,"current_range_meters":36800,"station_id":"cpo36qri1sfpv3e86is0","pricing_plan_id":"cebpf4jnsgd1na2vs0mg"},{"bike_id":"0d85aea1-3dc9-4857-8032-fe4189ddab21","system_id":"levelo_inurba_marseille","lat":43.25111,"lon":5.40324,"is_reserved":false,"is_disabled":false,"rental_uris":{"android":"levelo://app?vid=0d85aea1-3dc9-4857-8032-fe4189ddab21","ios":"levelo://app?vid=0d85aea1-3dc9-4857-8032-fe4189ddab21"},"vehicle_type_id":"4","last_reported":1733803928,"current_range_meters":38000,"station_id":"ce4bhlh2rcd13ifvqgig","pricing_plan_id":"cebpf4jnsgd1na2vs0mg"},{"bike_id":"cbc57f5d-e055-44c8-8ce3-da47a52445cd","system_id":"levelo_inurba_marseille","lat":43.28408,"lon":5.37524,"is_reserved":false,"is_disabled":false,"rental_uris":{"android":"levelo://app?vid=cbc57f5d-e055-44c8-8ce3-da47a52445cd","ios":"levelo://app?vid=cbc57f5d-e055-44c8-8ce3-da47a52445cd"},"vehicle_type_id":"4","last_reported":1733803928,"current_range_meters":35200,"station_id":"ce4bh412rcd13ifvqds0","pricing_plan_id":"cebpf4jnsgd1na2vs0mg"},{"bike_id":"8c8d06dc-ee48-40c3-9d53-3e832f30dcbf","system_id":"levelo_inurba_marseille","lat":43.246642,"lon":5.381691,"is_reserved":false,"is_disabled":false,"rental_uris":{"android":"levelo://app?vid=8c8d06dc-ee48-40c3-9d53-3e832f30dcbf","ios":"levelo://app?vid=8c8d06dc-ee48-40c3-9d53-3e832f30dcbf"},"vehicle_type_id":"4","last_reported":1733803928,"current_range_meters":13600,"station_id":"ce4bhih2rcd13ifvqfr0","pricing_plan_id":"cebpf4jnsgd1na2vs0mg"},{"bike_id":"a7315204-04ec-4ba8-a095-857e3593e956","system_id":"levelo_inurba_marseille","lat":43.26805,"lon":5.40257,"is_reserved":false,"is_disabled":false,"rental_uris":{"android":"levelo://app?vid=a7315204-04ec-4ba8-a095-857e3593e956","ios":"levelo://app?vid=a7315204-04ec-4ba8-a095-857e3593e956"},"vehicle_type_id":"4","last_reported":1733803928,"current_range_meters":33200,"station_id":"ce501612rcd8frsf0b60","pricing_plan_id":"cebpf4jnsgd1na2vs0mg"},{"bike_id":"0fdd6727-2bc3-47df-b102-b89c7db134be","system_id":"levelo_inurba_marseille","lat":43.29707,"lon":5.36609,"is_reserved":false,"is_disabled":true,"rental_uris":{"android":"levelo://app?vid=0fdd6727-2bc3-47df-b102-b89c7db134be","ios":"levelo://app?vid=0fdd6727-2bc3-47df-b102-b89c7db134be"},"vehicle_type_id":"4","last_reported":1733803928,"current_range_meters":36400,"station_id":"ce4bgn12rcd13ifvqbt0","pricing_plan_id":"cebpf4jnsgd1na2vs0mg"},{"bike_id":"26924fb9-4179-4abe-8b03-e0d47c141d92","system_id":"levelo_inurba_marseille","lat":43.27171,"lon":5.40991,"is_reserved":false,"is_disabled":false,"rental_uris":{"android":"levelo://app?vid=26924fb9-4179-4abe-8b03-e0d47c141d92","ios":"levelo://app?vid=26924fb9-4179-4abe-8b03-e0d47c141d92"},"vehicle_type_id":"4","last_reported":1733803928,"current_range_meters":28400,"station_id":"ce4bhl12rcd13ifvqgf0","pricing_plan_id":"cebpf4jnsgd1na2vs0mg"},{"bike_id":"ca32be18-d25c-4351-ba57-a1d78797eab5","system_id":"levelo_inurba_marseille","lat":43.262,"lon":5.37926,"is_reserved":false,"is_disabled":false,"rental_uris":{"android":"levelo://app?vid=ca32be18-d25c-4351-ba57-a1d78797eab5","ios":"levelo://app?vid=ca32be18-d25c-4351-ba57-a1d78797eab5"},"vehicle_type_id":"4","last_reported":1733803928,"current_range_meters":36000,"station_id":"ce4bhjp2rcd13ifvqg90","pricing_plan_id":"cebpf4jnsgd1na2vs0mg"},{"bike_id":"db14e876-0fd6-46a7-8620-bb06967f83cc","system_id":"levelo_inurba_marseille","lat":43.31311,"lon":5.39729,"is_reserved":false,"is_disabled":true,"rental_uris":{"android":"levelo://app?vid=db14e876-0fd6-46a7-8620-bb06967f83cc","ios":"levelo://app?vid=db14e876-0fd6-46a7-8620-bb06967f83cc"},"vehicle_type_id":"4","last_reported":1733803928,"current_range_meters":30000,"station_id":"ce4bgvp2rcd13ifvqcu0","pricing_plan_id":"cebpf4jnsgd1na2vs0mg"},{"bike_id":"68999c1c-0eda-4f25-bfa9-b62eccf76ad4","system_id":"levelo_inurba_marseille","lat":43.326559,"lon":5.409905,"is_reserved":false,"is_disabled":false,"rental_uris":{"android":"levelo://app?vid=68999c1c-0eda-4f25-bfa9-b62eccf76ad4","ios":"levelo://app?vid=68999c1c-0eda-4f25-bfa9-b62eccf76ad4"},"vehicle_type_id":"4","last_reported":1733803928,"current_range_meters":38800,"station_id":"ce4bhpp2rcd13ifvqhgg","pricing_plan_id":"cebpf4jnsgd1na2vs0mg"},{"bike_id":"3c62b3c8-9c09-4406-9d79-211c0dada988","system_id":"levelo_inurba_marseille","lat":43.30253,"lon":5.40057,"is_reserved":false,"is_disabled":false,"rental_uris":{"android":"levelo://app?vid=3c62b3c8-9c09-4406-9d79-211c0dada988","ios":"levelo://app?vid=3c62b3c8-9c09-4406-9d79-211c0dada988"},"vehicle_type_id":"4","last_reported":1733803928,"current_range_meters":38800,"station_id":"ce4bgvh2rcd13ifvqcs0","pricing_plan_id":"cebpf4jnsgd1na2vs0mg"},{"bike_id":"47477b93-743f-4f58-9134-17598e24555d","system_id":"levelo_inurba_marseille","lat":43.27061,"lon":5.40255,"is_reserved":false,"is_disabled":false,"rental_uris":{"android":"levelo://app?vid=47477b93-743f-4f58-9134-17598e24555d","ios":"levelo://app?vid=47477b93-743f-4f58-9134-17598e24555d"},"vehicle_type_id":"4","last_reported":1733803928,"current_range_meters":38800,"station_id":"ce4bhk92rcd13ifvqgc0","pricing_plan_id":"cebpf4jnsgd1na2vs0mg"},{"bike_id":"41779133-479a-49fa-b9df-dc99edff42f5","system_id":"levelo_inurba_marseille","lat":43.28691,"lon":5.39989,"is_reserved":false,"is_disabled":false,"rental_uris":{"android":"levelo://app?vid=41779133-479a-49fa-b9df-dc99edff42f5","ios":"levelo://app?vid=41779133-479a-49fa-b9df-dc99edff42f5"},"vehicle_type_id":"4","last_reported":1733803928,"current_range_meters":39200,"station_id":"ce4bho92rcd13ifvqh3g","pricing_plan_id":"cebpf4jnsgd1na2vs0mg"},{"bike_id":"a89836c6-3050-4667-854e-1466f93f223f","system_id":"levelo_inurba_marseille","lat":43.30928,"lon":5.40149,"is_reserved":false,"is_disabled":false,"rental_uris":{"android":"levelo://app?vid=a89836c6-3050-4667-854e-1466f93f223f","ios":"levelo://app?vid=a89836c6-3050-4667-854e-1466f93f223f"},"vehicle_type_id":"4","last_reported":1733803928,"current_range_meters":38800,"station_id":"ce4bgvp2rcd13ifvqct0","pricing_plan_id":"cebpf4jnsgd1na2vs0mg"},{"bike_id":"0558129a-3523-4429-bed4-46d25a338222","system_id":"levelo_inurba_marseille","lat":43.30093,"lon":5.39069,"is_reserved":false,"is_disabled":false,"rental_uris":{"android":"levelo://app?vid=0558129a-3523-4429-bed4-46d25a338222","ios":"levelo://app?vid=0558129a-3523-4429-bed4-46d25a338222"},"vehicle_type_id":"4","last_reported":1733803928,"current_range_meters":38400,"station_id":"ce4bh192rcd13ifvqdb0","pricing_plan_id":"cebpf4jnsgd1na2vs0mg"},{"bike_id":"80de590b-e7e2-4334-8c3f-1906440fa371","system_id":"levelo_inurba_marseille","lat":43.26803,"lon":5.40264,"is_reserved":false,"is_disabled":false,"rental_uris":{"android":"levelo://app?vid=80de590b-e7e2-4334-8c3f-1906440fa371","ios":"levelo://app?vid=80de590b-e7e2-4334-8c3f-1906440fa371"},"vehicle_type_id":"4","last_reported":1733803928,"current_range_meters":35600,"station_id":"ce501612rcd8frsf0b60","pricing_plan_id":"cebpf4jnsgd1na2vs0mg"},{"bike_id":"c901627f-e5d2-45af-ab18-d7a8310fd4f0","system_id":"levelo_inurba_marseille","lat":43.25105,"lon":5.40324,"is_reserved":false,"is_disabled":false,"rental_uris":{"android":"levelo://app?vid=c901627f-e5d2-45af-ab18-d7a8310fd4f0","ios":"levelo://app?vid=c901627f-e5d2-45af-ab18-d7a8310fd4f0"},"vehicle_type_id":"4","last_reported":1733803928,"current_range_meters":38000,"station_id":"ce4bhlh2rcd13ifvqgig","pricing_plan_id":"cebpf4jnsgd1na2vs0mg"},{"bike_id":"0ccd581d-9c76-4795-b702-2d923b116e9d","system_id":"levelo_inurba_marseille","lat":43.271783,"lon":5.409848,"is_reserved":false,"is_disabled":false,"rental_uris":{"android":"levelo://app?vid=0ccd581d-9c76-4795-b702-2d923b116e9d","ios":"levelo://app?vid=0ccd581d-9c76-4795-b702-2d923b116e9d"},"vehicle_type_id":"4","last_reported":1733803928,"current_range_meters":33600,"station_id":"ce4bhl12rcd13ifvqgf0","pricing_plan_id":"cebpf4jnsgd1na2vs0mg"},{"bike_id":"05575073-9c9a-45fe-abff-84c01dd1532a","system_id":"levelo_inurba_marseille","lat":43.28852,"lon":5.393161,"is_reserved":false,"is_disabled":false,"rental_uris":{"android":"levelo://app?vid=05575073-9c9a-45fe-abff-84c01dd1532a","ios":"levelo://app?vid=05575073-9c9a-45fe-abff-84c01dd1532a"},"vehicle_type_id":"4","last_reported":1733803928,"current_range_meters":38000,"station_id":"ce4bh2p2rcd13ifvqdi0","pricing_plan_id":"cebpf4jnsgd1na2vs0mg"},{"bike_id":"83942ea7-b85f-4912-a1d0-24e70602f26e","system_id":"levelo_inurba_marseille","lat":43.28699,"lon":5.39973,"is_reserved":false,"is_disabled":false,"rental_uris":{"android":"levelo://app?vid=83942ea7-b85f-4912-a1d0-24e70602f26e","ios":"levelo://app?vid=83942ea7-b85f-4912-a1d0-24e70602f26e"},"vehicle_type_id":"4","last_reported":1733803928,"current_range_meters":38800,"station_id":"ce4bho92rcd13ifvqh3g","pricing_plan_id":"cebpf4jnsgd1na2vs0mg"},{"bike_id":"95d8628d-10b1-47e7-9a42-9b126ec315c6","system_id":"levelo_inurba_marseille","lat":43.23187,"lon":5.35546,"is_reserved":false,"is_disabled":false,"rental_uris":{"android":"levelo://app?vid=95d8628d-10b1-47e7-9a42-9b126ec315c6","ios":"levelo://app?vid=95d8628d-10b1-47e7-9a42-9b126ec315c6"},"vehicle_type_id":"4","last_reported":1733803928,"current_range_meters":26000,"station_id":"ce4bhu92rcd13ifvqi70","pricing_plan_id":"cebpf4jnsgd1na2vs0mg"},{"bike_id":"9572a350-7aec-4471-ab74-7c61417a7cf8","system_id":"levelo_inurba_marseille","lat":43.30883,"lon":5.3964,"is_reserved":false,"is_disabled":false,"rental_uris":{"android":"levelo://app?vid=9572a350-7aec-4471-ab74-7c61417a7cf8","ios":"levelo://app?vid=9572a350-7aec-4471-ab74-7c61417a7cf8"},"vehicle_type_id":"4","last_reported":1733803928,"current_range_meters":32400,"station_id":"ce4bh012rcd13ifvqcv0","pricing_plan_id":"cebpf4jnsgd1na2vs0mg"},{"bike_id":"d6476c12-9601-48bb-81d1-c130012be534","system_id":"levelo_inurba_marseille","lat":43.24673,"lon":5.38164,"is_reserved":false,"is_disabled":false,"rental_uris":{"android":"levelo://app?vid=d6476c12-9601-48bb-81d1-c130012be534","ios":"levelo://app?vid=d6476c12-9601-48bb-81d1-c130012be534"},"vehicle_type_id":"4","last_reported":1733803928,"current_range_meters":20000,"station_id":"ce4bhih2rcd13ifvqfr0","pricing_plan_id":"cebpf4jnsgd1na2vs0mg"},{"bike_id":"0fb8b81e-e227-40e6-8c2b-fad206d96df6","system_id":"levelo_inurba_marseille","lat":43.28453,"lon":5.35878,"is_reserved":false,"is_disabled":false,"rental_uris":{"android":"levelo://app?vid=0fb8b81e-e227-40e6-8c2b-fad206d96df6","ios":"levelo://app?vid=0fb8b81e-e227-40e6-8c2b-fad206d96df6"},"vehicle_type_id":"4","last_reported":1733803928,"current_range_meters":27200,"station_id":"ce4bhah2rcd13ifvqei0","pricing_plan_id":"cebpf4jnsgd1na2vs0mg"},{"bike_id":"cbb22546-b293-4666-8142-6ea9c108ac61","system_id":"levelo_inurba_marseille","lat":43.28267,"lon":5.35086,"is_reserved":false,"is_disabled":false,"rental_uris":{"android":"levelo://app?vid=cbb22546-b293-4666-8142-6ea9c108ac61","ios":"levelo://app?vid=cbb22546-b293-4666-8142-6ea9c108ac61"},"vehicle_type_id":"4","last_reported":1733803928,"current_range_meters":38800,"station_id":"ce4bhbp2rcd13ifvqerg","pricing_plan_id":"cebpf4jnsgd1na2vs0mg"},{"bike_id":"c88e03a1-64d1-4f76-994d-95ac44db4eaa","system_id":"levelo_inurba_marseille","lat":43.31272,"lon":5.40168,"is_reserved":false,"is_disabled":false,"rental_uris":{"android":"levelo://app?vid=c88e03a1-64d1-4f76-994d-95ac44db4eaa","ios":"levelo://app?vid=c88e03a1-64d1-4f76-994d-95ac44db4eaa"},"vehicle_type_id":"4","last_reported":1733803928,"current_range_meters":27200,"station_id":"ce4bh092rcd13ifvqd30","pricing_plan_id":"cebpf4jnsgd1na2vs0mg"},{"bike_id":"1c09659f-8187-4d2e-9ee4-357905cd7540","system_id":"levelo_inurba_marseille","lat":43.29029,"lon":5.38642,"is_reserved":false,"is_disabled":false,"rental_uris":{"android":"levelo://app?vid=1c09659f-8187-4d2e-9ee4-357905cd7540","ios":"levelo://app?vid=1c09659f-8187-4d2e-9ee4-357905cd7540"},"vehicle_type_id":"4","last_reported":1733803928,"current_range_meters":8800,"station_id":"ce4bh4p2rcd13ifvqe0g","pricing_plan_id":"cebpf4jnsgd1na2vs0mg"},{"bike_id":"570bad79-da0a-4f0e-bd71-fcfb4fde31b3","system_id":"levelo_inurba_marseille","lat":43.23966,"lon":5.3664,"is_reserved":false,"is_disabled":false,"rental_uris":{"android":"levelo://app?vid=570bad79-da0a-4f0e-bd71-fcfb4fde31b3","ios":"levelo://app?vid=570bad79-da0a-4f0e-bd71-fcfb4fde31b3"},"vehicle_type_id":"4","last_reported":1733803928,"current_range_meters":35600,"station_id":"ce4bhi12rcd13ifvqfp0","pricing_plan_id":"cebpf4jnsgd1na2vs0mg"},{"bike_id":"0f20b602-7b45-4989-92b6-4d1c64ab5468","system_id":"levelo_inurba_marseille","lat":43.26553,"lon":5.37292,"is_reserved":false,"is_disabled":false,"rental_uris":{"android":"levelo://app?vid=0f20b602-7b45-4989-92b6-4d1c64ab5468","ios":"levelo://app?vid=0f20b602-7b45-4989-92b6-4d1c64ab5468"},"vehicle_type_id":"4","last_reported":1733803928,"current_range_meters":35600,"station_id":"ce4bhg12rcd13ifvqf70","pricing_plan_id":"cebpf4jnsgd1na2vs0mg"},{"bike_id":"a82d634a-a49c-4d39-abc7-6109fc7823f3","system_id":"levelo_inurba_marseille","lat":43.2694,"lon":5.40259,"is_reserved":false,"is_disabled":false,"rental_uris":{"android":"levelo://app?vid=a82d634a-a49c-4d39-abc7-6109fc7823f3","ios":"levelo://app?vid=a82d634a-a49c-4d39-abc7-6109fc7823f3"},"vehicle_type_id":"4","last_reported":1733803928,"current_range_meters":39200,"station_id":"cjm6bp8fraef2m0cb0m0","pricing_plan_id":"cebpf4jnsgd1na2vs0mg"},{"bike_id":"97268095-b81c-416d-83ee-09dde6b7d281","system_id":"levelo_inurba_marseille","lat":43.29027,"lon":5.39976,"is_reserved":false,"is_disabled":false,"rental_uris":{"android":"levelo://app?vid=97268095-b81c-416d-83ee-09dde6b7d281","ios":"levelo://app?vid=97268095-b81c-416d-83ee-09dde6b7d281"},"vehicle_type_id":"4","last_reported":1733803928,"current_range_meters":25200,"station_id":"ce4bh392rcd13ifvqdm0","pricing_plan_id":"cebpf4jnsgd1na2vs0mg"},{"bike_id":"21549fae-1307-4053-a372-dd84b023e4d1","system_id":"levelo_inurba_marseille","lat":43.28354,"lon":5.38103,"is_reserved":false,"is_disabled":false,"rental_uris":{"android":"levelo://app?vid=21549fae-1307-4053-a372-dd84b023e4d1","ios":"levelo://app?vid=21549fae-1307-4053-a372-dd84b023e4d1"},"vehicle_type_id":"4","last_reported":1733803928,"current_range_meters":38800,"station_id":"ce4bh412rcd13ifvqdr0","pricing_plan_id":"cebpf4jnsgd1na2vs0mg"},{"bike_id":"cc326830-3867-4cd6-8a7d-b547a60814e2","system_id":"levelo_inurba_marseille","lat":43.30603,"lon":5.37218,"is_reserved":false,"is_disabled":false,"rental_uris":{"android":"levelo://app?vid=cc326830-3867-4cd6-8a7d-b547a60814e2","ios":"levelo://app?vid=cc326830-3867-4cd6-8a7d-b547a60814e2"},"vehicle_type_id":"4","last_reported":1733803928,"current_range_meters":38800,"station_id":"ce4bgqh2rcd13ifvqc4g","pricing_plan_id":"cebpf4jnsgd1na2vs0mg"},{"bike_id":"5573568e-c8b4-4e57-a88b-1942563357c9","system_id":"levelo_inurba_marseille","lat":43.29254,"lon":5.40901,"is_reserved":false,"is_disabled":false,"rental_uris":{"android":"levelo://app?vid=5573568e-c8b4-4e57-a88b-1942563357c9","ios":"levelo://app?vid=5573568e-c8b4-4e57-a88b-1942563357c9"},"vehicle_type_id":"4","last_reported":1733803928,"current_range_meters":38800,"station_id":"ce4bh192rcd13ifvqdc0","pricing_plan_id":"cebpf4jnsgd1na2vs0mg"},{"bike_id":"7bdd6ea7-bb42-4e6e-800a-52cdbbc2d2d3","system_id":"levelo_inurba_marseille","lat":43.30319,"lon":5.40444,"is_reserved":false,"is_disabled":false,"rental_uris":{"android":"levelo://app?vid=7bdd6ea7-bb42-4e6e-800a-52cdbbc2d2d3","ios":"levelo://app?vid=7bdd6ea7-bb42-4e6e-800a-52cdbbc2d2d3"},"vehicle_type_id":"4","last_reported":1733803928,"current_range_meters":38400,"station_id":"ce4bh012rcd13ifvqd10","pricing_plan_id":"cebpf4jnsgd1na2vs0mg"},{"bike_id":"b8e7f883-5b9b-422d-81e9-d00c2442da3b","system_id":"levelo_inurba_marseille","lat":43.23055,"lon":5.35491,"is_reserved":false,"is_disabled":false,"rental_uris":{"android":"levelo://app?vid=b8e7f883-5b9b-422d-81e9-d00c2442da3b","ios":"levelo://app?vid=b8e7f883-5b9b-422d-81e9-d00c2442da3b"},