{"last_updated":1703689601,"ttl":30,"version":"2.2","data":{"bikes":[{"bike_id":"7ff544cd-f6f9-4c95-869b-68403f84580b","system_id":"levelo_inurba_marseille","lat":43.312239,"lon":5.368562,"is_reserved":false,"is_disabled":false,"rental_uris":{"android":"levelo://app?vid=7ff544cd-f6f9-4c95-869b-68403f84580b","ios":"levelo://app?vid=7ff544cd-f6f9-4c95-869b-68403f84580b"},"vehicle_type_id":"4","last_reported":1703689601,"current_range_meters":22400,"station_id":"ce4bgl92rcd13ifvqbq0","pricing_plan_id":"free"},{"bike_id":"40adef53-cff5-4c29-b101-10efbbe5daf7","system_id":"levelo_inurba_marseille","lat":43.312239,"lon":5.368562,"is_reserved":false,"is_disabled":false,"rental_uris":{"android":"levelo://app?vid=40adef53-cff5-4c29-b101-10efbbe5daf7","ios":"levelo://app?vid=40adef53-cff5-4c29-b101-10efbbe5daf7"},"vehicle_type_id":"4","last_reported":1703689601,"current_range_meters":30400,"station_id":"ce4bgl92rcd13ifvqbq0","pricing_plan_id":"free"},{"bike_id":"835be162-da94-49bf-8ef5-31f3bdee986f","system_id":"levelo_inurba_marseille","lat":43.312239,"lon":5.368562,"is_reserved":false,"is_disabled":false,"rental_uris":{"android":"levelo://app?vid=835be162-da94-49bf-8ef5-31f3bdee986f","ios":"levelo://app?vid=835be162-da94-49bf-8ef5-31f3bdee986f"},"vehicle_type_id":"4","last_reported":1703689601,"current_range_meters":22000,"station_id":"ce4bgl92rcd13ifvqbq0","pricing_plan_id":"free"},{"bike_id":"2e0fe500-a3c5-48d8-857d-33d776d243b2","system_id":"levelo_inurba_marseille","lat":43.312239,"lon":5.368562,"is_reserved":false,"is_disabled":false,"rental_uris":{"android":"levelo://app?vid=2e0fe500-a3c5-48d8-857d-33d776d243b2","ios":"levelo://app?vid=2e0fe500-a3c5-48d8-857d-33d776d243b2"},"vehicle_type_id":"4","last_reported":1703689601,"current_range_meters":7600,"station_id":"ce4bgl92rcd13ifvqbq0","pricing_plan_id":"free"},{"bike_id":"dd87958b-d763-46bc-ab8b-511bb4008748","system_id":"levelo_inurba_marseille","lat":43.312239,"lon":5.368562,"is_reserved":false,"is_disabled":false,"rental_uris":{"android":"levelo://app?vid=dd87958b-d763-46bc-ab8b-511bb4008748","ios":"levelo://app?vid=dd87958b-d763-46bc-ab8b-511bb4008748"},"vehicle_type_id":"4","last_reported":1703689601,"current_range_meters":11200,"station_id":"ce4bgl92rcd13ifvqbq0","pricing_plan_id":"free"},{"bike_id":"0757bcff-76f4-47fb-946d-4434ab8ed276","system_id":"levelo_inurba_marseille","lat":43.309076,"lon":5.368465,"is_reserved":false,"is_disabled":false,"rental_uris":{"android":"levelo://app?vid=0757bcff-76f4-47fb-946d-4434ab8ed276","ios":"levelo://app?vid=0757bcff-76f4-47fb-946d-4434ab8ed276"},"vehicle_type_id":"4","last_reported":1703689601,"current_range_meters":26800,"station_id":"ce4bgn92rcd13ifvqbvg","pricing_plan_id":"free"},{"bike_id":"60e6c787-fc2b-4a8a-8bbf-c307acfbf39e","system_id":"levelo_inurba_marseille","lat":43.309076,"lon":5.368465,"is_reserved":false,"is_disabled":false,"rental_uris":{"android":"levelo://app?vid=60e6c787-fc2b-4a8a-8bbf-c307acfbf39e","ios":"levelo://app?vid=60e6c787-fc2b-4a8a-8bbf-c307acfbf39e"},"vehicle_type_id":"4","last_reported":1703689601,"current_range_meters":31600,"station_id":"ce4bgn92rcd13ifvqbvg","pricing_plan_id":"free"},{"bike_id":"bd790008-e89c-4d93-a43e-70dfca5d0aea","system_id":"levelo_inurba_marseille","lat":43.309039,"lon":5.371797,"is_reserved":false,"is_disabled":false,"rental_uris":{"android":"levelo://app?vid=bd790008-e89c-4d93-a43e-70dfca5d0aea","ios":"levelo://app?vid=bd790008-e89c-4d93-a43e-70dfca5d0aea"},"vehicle_type_id":"4","last_reported":1703689601,"current_range_meters":30400,"station_id":"ce4bguh2rcd13ifvqckg","pricing_plan_id":"free"},{"bike_id":"437be774-9347-4f56-865e-861017296255","system_id":"levelo_inurba_marseille","lat":43.318964,"lon":5.36877,"is_reserved":false,"is_disabled":false,"rental_uris":{"android":"levelo://app?vid=437be774-9347-4f56-865e-861017296255","ios":"levelo://app?vid=437be774-9347-4f56-865e-861017296255"},"vehicle_type_id":"4","last_reported":1703689601,"current_range_meters":8000,"station_id":"","pricing_plan_id":"free"},{"bike_id":"5d7049f3-2163-4dcf-bd79-6c1b3f34c0aa","system_id":"levelo_inurba_marseille","lat":43.30546,"lon":5.36712,"is_reserved":false,"is_disabled":false,"rental_uris":{"android":"levelo://app?vid=5d7049f3-2163-4dcf-bd79-6c1b3f34c0aa","ios":"levelo://app?vid=5d7049f3-2163-4dcf-bd79-6c1b3f34c0aa"},"vehicle_type_id":"4","last_reported":1703689601,"current_range_meters":9200,"station_id":"ce4bgrp2rcd13ifvqc9g","pricing_plan_id":"free"},{"bike_id":"e65a2858-3bdd-448d-8218-902c01daa429","system_id":"levelo_inurba_marseille","lat":43.30537,"lon":5.367345,"is_reserved":false,"is_disabled":false,"rental_uris":{"android":"levelo://app?vid=e65a2858-3bdd-448d-8218-902c01daa429","ios":"levelo://app?vid=e65a2858-3bdd-448d-8218-902c01daa429"},"vehicle_type_id":"4","last_reported":1703689601,"current_range_meters":31600,"station_id":"ce4bgrp2rcd13ifvqc9g","pricing_plan_id":"free"},{"bike_id":"4d973bd6-70df-43c1-92b0-911cb77aa873","system_id":"levelo_inurba_marseille","lat":43.30537,"lon":5.367345,"is_reserved":false,"is_disabled":false,"rental_uris":{"android":"levelo://app?vid=4d973bd6-70df-43c1-92b0-911cb77aa873","ios":"levelo://app?vid=4d973bd6-70df-43c1-92b0-911cb77aa873"},"vehicle_type_id":"4","last_reported":1703689601,"current_range_meters":22400,"station_id":"ce4bgrp2rcd13ifvqc9g","pricing_plan_id":"free"},{"bike_id":"95f35649-c5ff-426b-927f-6ea500caf11d","system_id":"levelo_inurba_marseille","lat":43.30537,"lon":5.367345,"is_reserved":false,"is_disabled":false,"rental_uris":{"android":"levelo://app?vid=95f35649-c5ff-426b-927f-6ea500caf11d","ios":"levelo://app?vid=95f35649-c5ff-426b-927f-6ea500caf11d"},"vehicle_type_id":"4","last_reported":1703689601,"current_range_meters":13600,"station_id":"ce4bgrp2rcd13ifvqc9g","pricing_plan_id":"free"},{"bike_id":"a2c859d8-46dd-403f-8539-d587cd951704","system_id":"levelo_inurba_marseille","lat":43.30547,"lon":5.36548,"is_reserved":false,"is_disabled":false,"rental_uris":{"android":"levelo://app?vid=a2c859d8-46dd-403f-8539-d587cd951704","ios":"levelo://app?vid=a2c859d8-46dd-403f-8539-d587cd951704"},"vehicle_type_id":"4","last_reported":1703689601,"current_range_meters":28000,"station_id":"ce4bgs12rcd13ifvqcag","pricing_plan_id":"free"},{"bike_id":"b3c87acb-d0ca-448f-bd14-eb84d28124d6","system_id":"levelo_inurba_marseille","lat":43.305368,"lon":5.367343,"is_reserved":false,"is_disabled":false,"rental_uris":{"android":"levelo://app?vid=b3c87acb-d0ca-448f-bd14-eb84d28124d6","ios":"levelo://app?vid=b3c87acb-d0ca-448f-bd14-eb84d28124d6"},"vehicle_type_id":"4","last_reported":1703689601,"current_range_meters":18000,"station_id":"ce4bgrp2rcd13ifvqc9g","pricing_plan_id":"free"},{"bike_id":"a6caf4e2-87ff-4b49-b9cf-8b755a13ff89","system_id":"levelo_inurba_marseille","lat":43.305368,"lon":5.367343,"is_reserved":false,"is_disabled":false,"rental_uris":{"android":"levelo://app?vid=a6caf4e2-87ff-4b49-b9cf-8b755a13ff89","ios":"levelo://app?vid=a6caf4e2-87ff-4b49-b9cf-8b755a13ff89"},"vehicle_type_id":"4","last_reported":1703689601,"current_range_meters":29200,"station_id":"ce4bgrp2rcd13ifvqc9g","pricing_plan_id":"free"},{"bike_id":"9a250c46-26f9-4cd7-875f-087addca6455","system_id":"levelo_inurba_marseille","lat":43.305368,"lon":5.367343,"is_reserved":false,"is_disabled":false,"rental_uris":{"android":"levelo://app?vid=9a250c46-26f9-4cd7-875f-087addca6455","ios":"levelo://app?vid=9a250c46-26f9-4cd7-875f-087addca6455"},"vehicle_type_id":"4","last_reported":1703689601,"current_range_meters":13200,"station_id":"ce4bgrp2rcd13ifvqc9g","pricing_plan_id":"free"},{"bike_id":"a34621bf-d8fd-4419-8277-2c6a27c2a2f0","system_id":"levelo_inurba_marseille","lat":43.30543,"lon":5.36565,"is_reserved":false,"is_disabled":false,"rental_uris":{"android":"levelo://app?vid=a34621bf-d8fd-4419-8277-2c6a27c2a2f0","ios":"levelo://app?vid=a34621bf-d8fd-4419-8277-2c6a27c2a2f0"},"vehicle_type_id":"4","last_reported":1703689601,"current_range_meters":24800,"station_id":"ce4bgs12rcd13ifvqcag","pricing_plan_id":"free"},{"bike_id":"0f2e4b17-bc08-4785-9ac4-32d02dd3db3e","system_id":"levelo_inurba_marseille","lat":43.305368,"lon":5.367343,"is_reserved":false,"is_disabled":false,"rental_uris":{"android":"levelo://app?vid=0f2e4b17-bc08-4785-9ac4-32d02dd3db3e","ios":"levelo://app?vid=0f2e4b17-bc08-4785-9ac4-32d02dd3db3e"},"vehicle_type_id":"4","last_reported":1703689601,"current_range_meters":19600,"station_id":"ce4bgrp2rcd13ifvqc9g","pricing_plan_id":"free"},{"bike_id":"e589d7d5-1da7-4d76-9f22-f1e9c6680567","system_id":"levelo_inurba_marseille","lat":43.305714,"lon":5.365633,"is_reserved":false,"is_disabled":false,"rental_uris":{"android":"levelo://app?vid=e589d7d5-1da7-4d76-9f22-f1e9c6680567","ios":"levelo://app?vid=e589d7d5-1da7-4d76-9f22-f1e9c6680567"},"vehicle_type_id":"4","last_reported":1703689601,"current_range_meters":20000,"station_id":"ce4bgs12rcd13ifvqcag","pricing_plan_id":"free"},{"bike_id":"bee8be2a-ab3f-45a1-be6b-6ae4016e3bf8","system_id":"levelo_inurba_marseille","lat":43.305706,"lon":5.365654,"is_reserved":false,"is_disabled":false,"rental_uris":{"android":"levelo://app?vid=bee8be2a-ab3f-45a1-be6b-6ae4016e3bf8","ios":"levelo://app?vid=bee8be2a-ab3f-45a1-be6b-6ae4016e3bf8"},"vehicle_type_id":"4","last_reported":1703689601,"current_range_meters":25600,"station_id":"ce4bgs12rcd13ifvqcag","pricing_plan_id":"free"},{"bike_id":"b8a0a6c4-cae7-48f6-98c4-ed3156645f67","system_id":"levelo_inurba_marseille","lat":43.305368,"lon":5.367343,"is_reserved":false,"is_disabled":false,"rental_uris":{"android":"levelo://app?vid=b8a0a6c4-cae7-48f6-98c4-ed3156645f67","ios":"levelo://app?vid=b8a0a6c4-cae7-48f6-98c4-ed3156645f67"},"vehicle_type_id":"4","last_reported":1703689601,"current_range_meters":20800,"station_id":"ce4bgrp2rcd13ifvqc9g","pricing_plan_id":"free"},{"bike_id":"b3bf9311-16be-4fe1-b3f6-a7df6af8c6d7","system_id":"levelo_inurba_marseille","lat":43.30539,"lon":5.36555,"is_reserved":false,"is_disabled":false,"rental_uris":{"android":"levelo://app?vid=b3bf9311-16be-4fe1-b3f6-a7df6af8c6d7","ios":"levelo://app?vid=b3bf9311-16be-4fe1-b3f6-a7df6af8c6d7"},"vehicle_type_id":"4","last_reported":1703689601,"current_range_meters":14000,"station_id":"ce4bgs12rcd13ifvqcag","pricing_plan_id":"free"},{"bike_id":"f89f2e4f-4298-4b1e-afbb-86ec5ae97288","system_id":"levelo_inurba_marseille","lat":43.305706,"lon":5.365654,"is_reserved":false,"is_disabled":false,"rental_uris":{"android":"levelo://app?vid=f89f2e4f-4298-4b1e-afbb-86ec5ae97288","ios":"levelo://app?vid=f89f2e4f-4298-4b1e-afbb-86ec5ae97288"},"vehicle_type_id":"4","last_reported":1703689601,"current_range_meters":19600,"station_id":"ce4bgs12rcd13ifvqcag","pricing_plan_id":"free"},{"bike_id":"4d00a7ff-7a52-4696-8dcb-f0cbb4b34bd1","system_id":"levelo_inurba_marseille","lat":43.305368,"lon":5.367343,"is_reserved":false,"is_disabled":false,"rental_uris":{"android":"levelo://app?vid=4d00a7ff-7a52-4696-8dcb-f0cbb4b34bd1","ios":"levelo://app?vid=4d00a7ff-7a52-4696-8dcb-f0cbb4b34bd1"},"vehicle_type_id":"4","last_reported":1703689601,"current_range_meters":14000,"station_id":"ce4bgrp2rcd13ifvqc9g","pricing_plan_id":"free"},{"bike_id":"ad0c40ed-ad71-4261-8197-1c29ec52e262","system_id":"levelo_inurba_marseille","lat":43.3054,"lon":5.36526,"is_reserved":false,"is_disabled":false,"rental_uris":{"android":"levelo://app?vid=ad0c40ed-ad71-4261-8197-1c29ec52e262","ios":"levelo://app?vid=ad0c40ed-ad71-4261-8197-1c29ec52e262"},"vehicle_type_id":"4","last_reported":1703689601,"current_range_meters":31200,"station_id":"ce4bgs12rcd13ifvqcag","pricing_plan_id":"free"},{"bike_id":"08e924f2-712e-4bf2-9429-cd47f7071929","system_id":"levelo_inurba_marseille","lat":43.305368,"lon":5.367343,"is_reserved":false,"is_disabled":false,"rental_uris":{"android":"levelo://app?vid=08e924f2-712e-4bf2-9429-cd47f7071929","ios":"levelo://app?vid=08e924f2-712e-4bf2-9429-cd47f7071929"},"vehicle_type_id":"4","last_reported":1703689601,"current_range_meters":28400,"station_id":"ce4bgrp2rcd13ifvqc9g","pricing_plan_id":"free"},{"bike_id":"fff16be8-883e-43cd-aef3-c03772c120a8","system_id":"levelo_inurba_marseille","lat":43.305706,"lon":5.365654,"is_reserved":false,"is_disabled":false,"rental_uris":{"android":"levelo://app?vid=fff16be8-883e-43cd-aef3-c03772c120a8","ios":"levelo://app?vid=fff16be8-883e-43cd-aef3-c03772c120a8"},"vehicle_type_id":"4","last_reported":1703689601,"current_range_meters":32000,"station_id":"ce4bgs12rcd13ifvqcag","pricing_plan_id":"free"},{"bike_id":"d1a05984-5484-40db-bf2e-1373b1705ee3","system_id":"levelo_inurba_marseille","lat":43.305706,"lon":5.365654,"is_reserved":false,"is_disabled":false,"rental_uris":{"android":"levelo://app?vid=d1a05984-5484-40db-bf2e-1373b1705ee3","ios":"levelo://app?vid=d1a05984-5484-40db-bf2e-1373b1705ee3"},"vehicle_type_id":"4","last_reported":1703689601,"current_range_meters":29200,"station_id":"ce4bgs12rcd13ifvqcag","pricing_plan_id":"free"},{"bike_id":"b5b266e0-35a5-4ee8-ab12-5727bc705513","system_id":"levelo_inurba_marseille","lat":43.305706,"lon":5.365654,"is_reserved":false,"is_disabled":false,"rental_uris":{"android":"levelo://app?vid=b5b266e0-35a5-4ee8-ab12-5727bc705513","ios":"levelo://app?vid=b5b266e0-35a5-4ee8-ab12-5727bc705513"},"vehicle_type_id":"4","last_reported":1703689601,"current_range_meters":26800,"station_id":"ce4bgs12rcd13ifvqcag","pricing_plan_id":"free"},{"bike_id":"15e0bc0c-3f20-4972-8a1c-a6b2a2cc89e5","system_id":"levelo_inurba_marseille","lat":43.305706,"lon":5.365654,"is_reserved":false,"is_disabled":false,"rental_uris":{"android":"levelo://app?vid=15e0bc0c-3f20-4972-8a1c-a6b2a2cc89e5","ios":"levelo://app?vid=15e0bc0c-3f20-4972-8a1c-a6b2a2cc89e5"},"vehicle_type_id":"4","last_reported":1703689601,"current_range_meters":25200,"station_id":"ce4bgs12rcd13ifvqcag","pricing_plan_id":"free"},{"bike_id":"132f30dc-50ba-4eb7-a01e-21cf3379f689","system_id":"levelo_inurba_marseille","lat":43.305706,"lon":5.365654,"is_reserved":false,"is_disabled":false,"rental_uris":{"android":"levelo://app?vid=132f30dc-50ba-4eb7-a01e-21cf3379f689","ios":"levelo://app?vid=132f30dc-50ba-4eb7-a01e-21cf3379f689"},"vehicle_type_id":"4","last_reported":1703689601,"current_range_meters":23200,"station_id":"ce4bgs12rcd13ifvqcag","pricing_plan_id":"free"},{"bike_id":"e91243af-7bb7-4de7-a9e2-268acebb3db5","system_id":"levelo_inurba_marseille","lat":43.305706,"lon":5.365654,"is_reserved":false,"is_disabled":false,"rental_uris":{"android":"levelo://app?vid=e91243af-7bb7-4de7-a9e2-268acebb3db5","ios":"levelo://app?vid=e91243af-7bb7-4de7-a9e2-268acebb3db5"},"vehicle_type_id":"4","last_reported":1703689601,"current_range_meters":28000,"station_id":"ce4bgs12rcd13ifvqcag","pricing_plan_id":"free"},{"bike_id":"3905d9a7-d95a-4f99-be86-3f2c61fa7e09","system_id":"levelo_inurba_marseille","lat":43.305989,"lon":5.37225,"is_reserved":false,"is_disabled":false,"rental_uris":{"android":"levelo://app?vid=3905d9a7-d95a-4f99-be86-3f2c61fa7e09","ios":"levelo://app?vid=3905d9a7-d95a-4f99-be86-3f2c61fa7e09"},"vehicle_type_id":"4","last_reported":1703689601,"current_range_meters":18000,"station_id":"ce4bgqh2rcd13ifvqc4g","pricing_plan_id":"free"},{"bike_id":"7ff4dbf2-a40c-4aca-beea-fbbb65081b3b","system_id":"levelo_inurba_marseille","lat":43.305989,"lon":5.37225,"is_reserved":false,"is_disabled":false,"rental_uris":{"android":"levelo://app?vid=7ff4dbf2-a40c-4aca-beea-fbbb65081b3b","ios":"levelo://app?vid=7ff4dbf2-a40c-4aca-beea-fbbb65081b3b"},"vehicle_type_id":"4","last_reported":1703689601,"current_range_meters":25600,"station_id":"ce4bgqh2rcd13ifvqc4g","pricing_plan_id":"free"},{"bike_id":"90c76f30-b356-4e16-a50e-678c048c8524","system_id":"levelo_inurba_marseille","lat":43.305989,"lon":5.37225,"is_reserved":false,"is_disabled":false,"rental_uris":{"android":"levelo://app?vid=90c76f30-b356-4e16-a50e-678c048c8524","ios":"levelo://app?vid=90c76f30-b356-4e16-a50e-678c048c8524"},"vehicle_type_id":"4","last_reported":1703689601,"current_range_meters":6000,"station_id":"ce4bgqh2rcd13ifvqc4g","pricing_plan_id":"free"},{"bike_id":"c6b62185-920e-45ee-9235-872e55a7766f","system_id":"levelo_inurba_marseille","lat":43.305989,"lon":5.37225,"is_reserved":false,"is_disabled":false,"rental_uris":{"android":"levelo://app?vid=c6b62185-920e-45ee-9235-872e55a7766f","ios":"levelo://app?vid=c6b62185-920e-45ee-9235-872e55a7766f"},"vehicle_type_id":"4","last_reported":1703689601,"current_range_meters":27600,"station_id":"ce4bgqh2rcd13ifvqc4g","pricing_plan_id":"free"},{"bike_id":"463d6edd-2377-46b6-80ee-54d3d0d246d1","system_id":"levelo_inurba_marseille","lat":43.311131,"lon":5.377651,"is_reserved":false,"is_disabled":false,"rental_uris":{"android":"levelo://app?vid=463d6edd-2377-46b6-80ee-54d3d0d246d1","ios":"levelo://app?vid=463d6edd-2377-46b6-80ee-54d3d0d246d1"},"vehicle_type_id":"4","last_reported":1703689601,"current_range_meters":11600,"station_id":"ce4bgt92rcd13ifvqcg0","pricing_plan_id":"free"},{"bike_id":"088ec782-ddc2-45a1-86ca-ae05c03a53ca","system_id":"levelo_inurba_marseille","lat":43.307945,"lon":5.376487,"is_reserved":false,"is_disabled":false,"rental_uris":{"android":"levelo://app?vid=088ec782-ddc2-45a1-86ca-ae05c03a53ca","ios":"levelo://app?vid=088ec782-ddc2-45a1-86ca-ae05c03a53ca"},"vehicle_type_id":"4","last_reported":1703689601,"current_range_meters":28000,"station_id":"ce4bgv92rcd13ifvqcq0","pricing_plan_id":"free"},{"bike_id":"f77e0003-67cb-4f32-be2d-a54219b2cd0a","system_id":"levelo_inurba_marseille","lat":43.307945,"lon":5.376487,"is_reserved":false,"is_disabled":false,"rental_uris":{"android":"levelo://app?vid=f77e0003-67cb-4f32-be2d-a54219b2cd0a","ios":"levelo://app?vid=f77e0003-67cb-4f32-be2d-a54219b2cd0a"},"vehicle_type_id":"4","last_reported":1703689601,"current_range_meters":30400,"station_id":"ce4bgv92rcd13ifvqcq0","pricing_plan_id":"free"},{"bike_id":"2e57c8cc-b497-4d9d-8e0d-3f8f0ed909fc","system_id":"levelo_inurba_marseille","lat":43.307945,"lon":5.376487,"is_reserved":false,"is_disabled":false,"rental_uris":{"android":"levelo://app?vid=2e57c8cc-b497-4d9d-8e0d-3f8f0ed909fc","ios":"levelo://app?vid=2e57c8cc-b497-4d9d-8e0d-3f8f0ed909fc"},"vehicle_type_id":"4","last_reported":1703689601,"current_range_meters":17200,"station_id":"ce4bgv92rcd13ifvqcq0","pricing_plan_id":"free"},{"bike_id":"6a87f49c-2593-440a-961f-46410ce0abd4","system_id":"levelo_inurba_marseille","lat":43.317075,"lon":5.377367,"is_reserved":false,"is_disabled":false,"rental_uris":{"android":"levelo://app?vid=6a87f49c-2593-440a-961f-46410ce0abd4","ios":"levelo://app?vid=6a87f49c-2593-440a-961f-46410ce0abd4"},"vehicle_type_id":"4","last_reported":1703689601,"current_range_meters":29200,"station_id":"ce4bgth2rcd13ifvqch0","pricing_plan_id":"free"},{"bike_id":"e8e8d881-1a7f-4d9e-a736-17b59aa4fefa","system_id":"levelo_inurba_marseille","lat":43.317075,"lon":5.377367,"is_reserved":false,"is_disabled":false,"rental_uris":{"android":"levelo://app?vid=e8e8d881-1a7f-4d9e-a736-17b59aa4fefa","ios":"levelo://app?vid=e8e8d881-1a7f-4d9e-a736-17b59aa4fefa"},"vehicle_type_id":"4","last_reported":1703689601,"current_range_meters":29600,"station_id":"ce4bgth2rcd13ifvqch0","pricing_plan_id":"free"},{"bike_id":"12de8f02-c3f8-4577-afbd-9bb8e20d2e5b","system_id":"levelo_inurba_marseille","lat":43.317075,"lon":5.377367,"is_reserved":false,"is_disabled":false,"rental_uris":{"android":"levelo://app?vid=12de8f02-c3f8-4577-afbd-9bb8e20d2e5b","ios":"levelo://app?vid=12de8f02-c3f8-4577-afbd-9bb8e20d2e5b"},"vehicle_type_id":"4","last_reported":1703689601,"current_range_meters":32000,"station_id":"ce4bgth2rcd13ifvqch0","pricing_plan_id":"free"},{"bike_id":"4ea0f6e7-d27a-4a75-9d40-86a755ec474e","system_id":"levelo_inurba_marseille","lat":43.317075,"lon":5.377367,"is_reserved":false,"is_disabled":false,"rental_uris":{"android":"levelo://app?vid=4ea0f6e7-d27a-4a75-9d40-86a755ec474e","ios":"levelo://app?vid=4ea0f6e7-d27a-4a75-9d40-86a755ec474e"},"vehicle_type_id":"4","last_reported":1703689601,"current_range_meters":28800,"station_id":"ce4bgth2rcd13ifvqch0","pricing_plan_id":"free"},{"bike_id":"57c7c24c-52dc-4788-b3ce-c7c1879b6b3b","system_id":"levelo_inurba_marseille","lat":43.317075,"lon":5.377367,"is_reserved":false,"is_disabled":false,"rental_uris":{"android":"levelo://app?vid=57c7c24c-52dc-4788-b3ce-c7c1879b6b3b","ios":"levelo://app?vid=57c7c24c-52dc-4788-b3ce-c7c1879b6b3b"},"vehicle_type_id":"4","last_reported":1703689601,"current_range_meters":31600,"station_id":"ce4bgth2rcd13ifvqch0","pricing_plan_id":"free"},{"bike_id":"4632df8f-03e1-4a41-a3b9-e16a4d5ad9b7","system_id":"levelo_inurba_marseille","lat":43.30312,"lon":5.36891,"is_reserved":false,"is_disabled":false,"rental_uris":{"android":"levelo://app?vid=4632df8f-03e1-4a41-a3b9-e16a4d5ad9b7","ios":"levelo://app?vid=4632df8f-03e1-4a41-a3b9-e16a4d5ad9b7"},"vehicle_type_id":"4","last_reported":1703689601,"current_range_meters":30400,"station_id":"ce4bgqh2rcd13ifvqc5g","pricing_plan_id":"free"},{"bike_id":"453cf3fe-914f-47d7-bb0b-9e3076dc1b66","system_id":"levelo_inurba_marseille","lat":43.30985,"lon":5.38157,"is_reserved":false,"is_disabled":false,"rental_uris":{"android":"levelo://app?vid=453cf3fe-914f-47d7-bb0b-9e3076dc1b66","ios":"levelo://app?vid=453cf3fe-914f-47d7-bb0b-9e3076dc1b66"},"vehicle_type_id":"4","last_reported":1703689601,"current_range_meters":10000,"station_id":"","pricing_plan_id":"free"},{"bike_id":"fcad7328-5118-4b77-a8a2-3278f7ed5317","system_id":"levelo_inurba_marseille","lat":43.308012,"lon":5.381511,"is_reserved":false,"is_disabled":false,"rental_uris":{"android":"levelo://app?vid=fcad7328-5118-4b77-a8a2-3278f7ed5317","ios":"levelo://app?vid=fcad7328-5118-4b77-a8a2-3278f7ed5317"},"vehicle_type_id":"4","last_reported":1703689601,"current_range_meters":28800,"station_id":"ce4bgt12rcd13ifvqce0","pricing_plan_id":"free"},{"bike_id":"1adf19a1-e7c3-4af6-be7f-0aea16e8d8f6","system_id":"levelo_inurba_marseille","lat":43.308012,"lon":5.381511,"is_reserved":false,"is_disabled":false,"rental_uris":{"android":"levelo://app?vid=1adf19a1-e7c3-4af6-be7f-0aea16e8d8f6","ios":"levelo://app?vid=1adf19a1-e7c3-4af6-be7f-0aea16e8d8f6"},"vehicle_type_id":"4","last_reported":1703689601,"current_range_meters":2400,"station_id":"ce4bgt12rcd13ifvqce0","pricing_plan_id":"free"},{"bike_id":"5c3120fc-3167-462a-8b40-58c57a05850b","system_id":"levelo_inurba_marseille","lat":43.30465,"lon":5.37898,"is_reserved":false,"is_disabled":false,"rental_uris":{"android":"levelo://app?vid=5c3120fc-3167-462a-8b40-58c57a05850b","ios":"levelo://app?vid=5c3120fc-3167-462a-8b40-58c57a05850b"},"vehicle_type_id":"4","last_reported":1703689601,"current_range_meters":22000,"station_id":"ce4bgup2rcd13ifvqcn0","pricing_plan_id":"free"},{"bike_id":"bea53d04-e229-4f19-a7f6-8945b3a45f4f","system_id":"levelo_inurba_marseille","lat":43.30466,"lon":5.37902,"is_reserved":false,"is_disabled":false,"rental_uris":{"android":"levelo://app?vid=bea53d04-e229-4f19-a7f6-8945b3a45f4f","ios":"levelo://app?vid=bea53d04-e229-4f19-a7f6-8945b3a45f4f"},"vehicle_type_id":"4","last_reported":1703689601,"current_range_meters":7200,"station_id":"ce4bgup2rcd13ifvqcn0","pricing_plan_id":"free"},{"bike_id":"993f8bbc-e889-4f3e-b207-5281d20a3ebb","system_id":"levelo_inurba_marseille","lat":43.304469,"lon":5.378876,"is_reserved":false,"is_disabled":false,"rental_uris":{"android":"levelo://app?vid=993f8bbc-e889-4f3e-b207-5281d20a3ebb","ios":"levelo://app?vid=993f8bbc-e889-4f3e-b207-5281d20a3ebb"},"vehicle_type_id":"4","last_reported":1703689601,"current_range_meters":21200,"station_id":"ce4bgup2rcd13ifvqcn0","pricing_plan_id":"free"},{"bike_id":"d3df8c1f-09c9-448d-97d6-daf6e6951a61","system_id":"levelo_inurba_marseille","lat":43.302784,"lon":5.377158,"is_reserved":false,"is_disabled":false,"rental_uris":{"android":"levelo://app?vid=d3df8c1f-09c9-448d-97d6-daf6e6951a61","ios":"levelo://app?vid=d3df8c1f-09c9-448d-97d6-daf6e6951a61"},"vehicle_type_id":"4","last_reported":1703689601,"current_range_meters":24400,"station_id":"ce4bguh2rcd13ifvqcj0","pricing_plan_id":"free"},{"bike_id":"eec999d6-9128-405e-95a0-18d1c0f9a51b","system_id":"levelo_inurba_marseille","lat":43.302784,"lon":5.377158,"is_reserved":false,"is_disabled":false,"rental_uris":{"android":"levelo://app?vid=eec999d6-9128-405e-95a0-18d1c0f9a51b","ios":"levelo://app?vid=eec999d6-9128-405e-95a0-18d1c0f9a51b"},"vehicle_type_id":"4","last_reported":1703689601,"current_range_meters":28800,"station_id":"ce4bguh2rcd13ifvqcj0","pricing_plan_id":"free"},{"bike_id":"6fa9613b-1944-4bf5-87f2-ee1ed7d14e91","system_id":"levelo_inurba_marseille","lat":43.30143,"lon":5.37413,"is_reserved":false,"is_disabled":false,"rental_uris":{"android":"levelo://app?vid=6fa9613b-1944-4bf5-87f2-ee1ed7d14e91","ios":"levelo://app?vid=6fa9613b-1944-4bf5-87f2-ee1ed7d14e91"},"vehicle_type_id":"4","last_reported":1703689601,"current_range_meters":27600,"station_id":"ce4bgs92rcd13ifvqcc0","pricing_plan_id":"free"},{"bike_id":"0fa9138b-1f55-4a0d-a908-98664f004dc1","system_id":"levelo_inurba_marseille","lat":43.302784,"lon":5.377158,"is_reserved":false,"is_disabled":false,"rental_uris":{"android":"levelo://app?vid=0fa9138b-1f55-4a0d-a908-98664f004dc1","ios":"levelo://app?vid=0fa9138b-1f55-4a0d-a908-98664f004dc1"},"vehicle_type_id":"4","last_reported":1703689601,"current_range_meters":22800,"station_id":"ce4bguh2rcd13ifvqcj0","pricing_plan_id":"free"},{"bike_id":"b4b21e72-2e3a-4531-8f6e-e3b8e1b435b1","system_id":"levelo_inurba_marseille","lat":43.301429,"lon":5.37413,"is_reserved":false,"is_disabled":false,"rental_uris":{"android":"levelo://app?vid=b4b21e72-2e3a-4531-8f6e-e3b8e1b435b1","ios":"levelo://app?vid=b4b21e72-2e3a-4531-8f6e-e3b8e1b435b1"},"vehicle_type_id":"4","last_reported":1703689601,"current_range_meters":29600,"station_id":"ce4bgs92rcd13ifvqcc0","pricing_plan_id":"free"},{"bike_id":"eb75f652-373e-4726-9e33-c05a085e4a2d","system_id":"levelo_inurba_marseille","lat":43.301453,"lon":5.37416,"is_reserved":false,"is_disabled":false,"rental_uris":{"android":"levelo://app?vid=eb75f652-373e-4726-9e33-c05a085e4a2d","ios":"levelo://app?vid=eb75f652-373e-4726-9e33-c05a085e4a2d"},"vehicle_type_id":"4","last_reported":1703689601,"current_range_meters":9200,"station_id":"","pricing_plan_id":"free"},{"bike_id":"d5219808-27fb-44a2-8cf4-51d1ae3ecab8","system_id":"levelo_inurba_marseille","lat":43.301429,"lon":5.37413,"is_reserved":false,"is_disabled":false,"rental_uris":{"android":"levelo://app?vid=d5219808-27fb-44a2-8cf4-51d1ae3ecab8","ios":"levelo://app?vid=d5219808-27fb-44a2-8cf4-51d1ae3ecab8"},"vehicle_type_id":"4","last_reported":1703689601,"current_range_meters":31600,"station_id":"ce4bgs92rcd13ifvqcc0","pricing_plan_id":"free"},{"bike_id":"ecb0ac07-2193-48f9-b6ef-9b809da4cfa5","system_id":"levelo_inurba_marseille","lat":43.31362,"lon":5.384992,"is_reserved":false,"is_disabled":false,"rental_uris":{"android":"levelo://app?vid=ecb0ac07-2193-48f9-b6ef-9b809da4cfa5","ios":"levelo://app?vid=ecb0ac07-2193-48f9-b6ef-9b809da4cfa5"},"vehicle_type_id":"4","last_reported":1703689601,"current_range_meters":24800,"station_id":"ce4bgt92rcd13ifvqcf0","pricing_plan_id":"free"},{"bike_id":"f54eaf08-30ce-4790-8545-55b2d428b63e","system_id":"levelo_inurba_marseille","lat":43.305364,"lon":5.384119,"is_reserved":false,"is_disabled":false,"rental_uris":{"android":"levelo://app?vid=f54eaf08-30ce-4790-8545-55b2d428b63e","ios":"levelo://app?vid=f54eaf08-30ce-4790-8545-55b2d428b63e"},"vehicle_type_id":"4","last_reported":1703689601,"current_range_meters":28000,"station_id":"ce4bgg92rcd13ifvqb30","pricing_plan_id":"free"},{"bike_id":"5f65dff8-7425-401d-b7a3-0e3430481123","system_id":"levelo_inurba_marseille","lat":43.299243,"lon":5.37481,"is_reserved":false,"is_disabled":false,"rental_uris":{"android":"levelo://app?vid=5f65dff8-7425-401d-b7a3-0e3430481123","ios":"levelo://app?vid=5f65dff8-7425-401d-b7a3-0e3430481123"},"vehicle_type_id":"4","last_reported":1703689601,"current_range_meters":20400,"station_id":"ce4bgjh2rcd13ifvqbg0","pricing_plan_id":"free"},{"bike_id":"c122f1b5-dd66-476e-bdd2-d1646aeab5c8","system_id":"levelo_inurba_marseille","lat":43.299243,"lon":5.37481,"is_reserved":false,"is_disabled":false,"rental_uris":{"android":"levelo://app?vid=c122f1b5-dd66-476e-bdd2-d1646aeab5c8","ios":"levelo://app?vid=c122f1b5-dd66-476e-bdd2-d1646aeab5c8"},"vehicle_type_id":"4","last_reported":1703689601,"current_range_meters":26800,"station_id":"ce4bgjh2rcd13ifvqbg0","pricing_plan_id":"free"},{"bike_id":"247fbf8d-6a39-4275-9da1-d464804c1ee6","system_id":"levelo_inurba_marseille","lat":43.299243,"lon":5.37481,"is_reserved":false,"is_disabled":false,"rental_uris":{"android":"levelo://app?vid=247fbf8d-6a39-4275-9da1-d464804c1ee6","ios":"levelo://app?vid=247fbf8d-6a39-4275-9da1-d464804c1ee6"},"vehicle_type_id":"4","last_reported":1703689601,"current_range_meters":2000,"station_id":"ce4bgjh2rcd13ifvqbg0","pricing_plan_id":"free"},{"bike_id":"3270f28d-7b09-46cb-ba43-f40752fc3385","system_id":"levelo_inurba_marseille","lat":43.322872,"lon":5.382756,"is_reserved":false,"is_disabled":false,"rental_uris":{"android":"levelo://app?vid=3270f28d-7b09-46cb-ba43-f40752fc3385","ios":"levelo://app?vid=3270f28d-7b09-46cb-ba43-f40752fc3385"},"vehicle_type_id":"4","last_reported":1703689601,"current_range_meters":30400,"station_id":"ce4bhr12rcd13ifvqhqg","pricing_plan_id":"free"},{"bike_id":"a677cd10-a09b-4b2e-bffd-45b05d2c9229","system_id":"levelo_inurba_marseille","lat":43.32822,"lon":5.36679,"is_reserved":false,"is_disabled":false,"rental_uris":{"android":"levelo://app?vid=a677cd10-a09b-4b2e-bffd-45b05d2c9229","ios":"levelo://app?vid=a677cd10-a09b-4b2e-bffd-45b05d2c9229"},"vehicle_type_id":"4","last_reported":1703689601,"current_range_meters":29600,"station_id":"ce4bhs92rcd13ifvqi0g","pricing_plan_id":"free"},{"bike_id":"77306845-75bd-4093-8444-1137af26bb3b","system_id":"levelo_inurba_marseille","lat":43.32825,"lon":5.36693,"is_reserved":false,"is_disabled":false,"rental_uris":{"android":"levelo://app?vid=77306845-75bd-4093-8444-1137af26bb3b","ios":"levelo://app?vid=77306845-75bd-4093-8444-1137af26bb3b"},"vehicle_type_id":"4","last_reported":1703689601,"current_range_meters":23600,"station_id":"ce4bhs92rcd13ifvqi0g","pricing_plan_id":"free"},{"bike_id":"1ea82e61-37ea-4b15-a6ef-01d29683b9fd","system_id":"levelo_inurba_marseille","lat":43.32825,"lon":5.36683,"is_reserved":false,"is_disabled":false,"rental_uris":{"android":"levelo://app?vid=1ea82e61-37ea-4b15-a6ef-01d29683b9fd","ios":"levelo://app?vid=1ea82e61-37ea-4b15-a6ef-01d29683b9fd"},"vehicle_type_id":"4","last_reported":1703689601,"current_range_meters":26000,"station_id":"ce4bhs92rcd13ifvqi0g","pricing_plan_id":"free"},{"bike_id":"51714c4a-3132-4951-88ec-80e85fa125e8","system_id":"levelo_inurba_marseille","lat":43.328274,"lon":5.366888,"is_reserved":false,"is_disabled":false,"rental_uris":{"android":"levelo://app?vid=51714c4a-3132-4951-88ec-80e85fa125e8","ios":"levelo://app?vid=51714c4a-3132-4951-88ec-80e85fa125e8"},"vehicle_type_id":"4","last_reported":1703689601,"current_range_meters":23600,"station_id":"ce4bhs92rcd13ifvqi0g","pricing_plan_id":"free"},{"bike_id":"5c89eee7-6e83-42b4-bd81-efdcf68f6666","system_id":"levelo_inurba_marseille","lat":43.32828,"lon":5.36679,"is_reserved":false,"is_disabled":false,"rental_uris":{"android":"levelo://app?vid=5c89eee7-6e83-42b4-bd81-efdcf68f6666","ios":"levelo://app?vid=5c89eee7-6e83-42b4-bd81-efdcf68f6666"},"vehicle_type_id":"4","last_reported":1703689601,"current_range_meters":27600,"station_id":"ce4bhs92rcd13ifvqi0g","pricing_plan_id":"free"},{"bike_id":"a448ca86-2b35-41e1-89c4-32a99bab0563","system_id":"levelo_inurba_marseille","lat":43.328371,"lon":5.366912,"is_reserved":false,"is_disabled":false,"rental_uris":{"android":"levelo://app?vid=a448ca86-2b35-41e1-89c4-32a99bab0563","ios":"levelo://app?vid=a448ca86-2b35-41e1-89c4-32a99bab0563"},"vehicle_type_id":"4","last_reported":1703689601,"current_range_meters":28400,"station_id":"ce4bhs92rcd13ifvqi0g","pricing_plan_id":"free"},{"bike_id":"6f67326a-1664-406f-9978-902e013e2357","system_id":"levelo_inurba_marseille","lat":43.32829,"lon":5.36675,"is_reserved":false,"is_disabled":false,"rental_uris":{"android":"levelo://app?vid=6f67326a-1664-406f-9978-902e013e2357","ios":"levelo://app?vid=6f67326a-1664-406f-9978-902e013e2357"},"vehicle_type_id":"4","last_reported":1703689601,"current_range_meters":27600,"station_id":"ce4bhs92rcd13ifvqi0g","pricing_plan_id":"free"},{"bike_id":"b33e79d7-85bd-413c-801b-bcd1df69d847","system_id":"levelo_inurba_marseille","lat":43.328306,"lon":5.366812,"is_reserved":false,"is_disabled":false,"rental_uris":{"android":"levelo://app?vid=b33e79d7-85bd-413c-801b-bcd1df69d847","ios":"levelo://app?vid=b33e79d7-85bd-413c-801b-bcd1df69d847"},"vehicle_type_id":"4","last_reported":1703689601,"current_range_meters":22000,"station_id":"ce4bhs92rcd13ifvqi0g","pricing_plan_id":"free"},{"bike_id":"de708f00-7118-4d7c-9021-d7dcbd798473","system_id":"levelo_inurba_marseille","lat":43.328371,"lon":5.366909,"is_reserved":false,"is_disabled":false,"rental_uris":{"android":"levelo://app?vid=de708f00-7118-4d7c-9021-d7dcbd798473","ios":"levelo://app?vid=de708f00-7118-4d7c-9021-d7dcbd798473"},"vehicle_type_id":"4","last_reported":1703689601,"current_range_meters":21200,"station_id":"ce4bhs92rcd13ifvqi0g","pricing_plan_id":"free"},{"bike_id":"904f83aa-e9ab-401d-84c1-9edfed82b884","system_id":"levelo_inurba_marseille","lat":43.328371,"lon":5.366909,"is_reserved":false,"is_disabled":false,"rental_uris":{"android":"levelo://app?vid=904f83aa-e9ab-401d-84c1-9edfed82b884","ios":"levelo://app?vid=904f83aa-e9ab-401d-84c1-9edfed82b884"},"vehicle_type_id":"4","last_reported":1703689601,"current_range_meters":14800,"station_id":"ce4bhs92rcd13ifvqi0g","pricing_plan_id":"free"},{"bike_id":"ea7074d7-b7c9-4941-82c2-dff391bae9cb","system_id":"levelo_inurba_marseille","lat":43.32834,"lon":5.36688,"is_reserved":false,"is_disabled":false,"rental_uris":{"android":"levelo://app?vid=ea7074d7-b7c9-4941-82c2-dff391bae9cb","ios":"levelo://app?vid=ea7074d7-b7c9-4941-82c2-dff391bae9cb"},"vehicle_type_id":"4","last_reported":1703689601,"current_range_meters":19600,"station_id":"ce4bhs92rcd13ifvqi0g","pricing_plan_id":"free"},{"bike_id":"6516e11b-ff9a-4979-b85a-a42584b5c933","system_id":"levelo_inurba_marseille","lat":43.32834,"lon":5.36683,"is_reserved":false,"is_disabled":false,"rental_uris":{"android":"levelo://app?vid=6516e11b-ff9a-4979-b85a-a42584b5c933","ios":"levelo://app?vid=6516e11b-ff9a-4979-b85a-a42584b5c933"},"vehicle_type_id":"4","last_reported":1703689601,"current_range_meters":28000,"station_id":"ce4bhs92rcd13ifvqi0g","pricing_plan_id":"free"},{"bike_id":"be72c8fa-57ca-4b39-a06f-106528121e53","system_id":"levelo_inurba_marseille","lat":43.32835,"lon":5.36681,"is_reserved":false,"is_disabled":false,"rental_uris":{"android":"levelo://app?vid=be72c8fa-57ca-4b39-a06f-106528121e53","ios":"levelo://app?vid=be72c8fa-57ca-4b39-a06f-106528121e53"},"vehicle_type_id":"4","last_reported":1703689601,"current_range_meters":4800,"station_id":"ce4bhs92rcd13ifvqi0g","pricing_plan_id":"free"},{"bike_id":"2f686872-4a87-417c-99d0-857b3ef463a5","system_id":"levelo_inurba_marseille","lat":43.297163,"lon":5.365866,"is_reserved":false,"is_disabled":false,"rental_uris":{"android":"levelo://app?vid=2f686872-4a87-417c-99d0-857b3ef463a5","ios":"levelo://app?vid=2f686872-4a87-417c-99d0-857b3ef463a5"},"vehicle_type_id":"4","last_reported":1703689601,"current_range_meters":25200,"station_id":"ce4bgn12rcd13ifvqbt0","pricing_plan_id":"free"},{"bike_id":"c5094cea-93a2-406c-8386-8a7cb332ba17","system_id":"levelo_inurba_marseille","lat":43.297163,"lon":5.365866,"is_reserved":false,"is_disabled":false,"rental_uris":{"android":"levelo://app?vid=c5094cea-93a2-406c-8386-8a7cb332ba17","ios":"levelo://app?vid=c5094cea-93a2-406c-8386-8a7cb332ba17"},"vehicle_type_id":"4","last_reported":1703689601,"current_range_meters":16000,"station_id":"ce4bgn12rcd13ifvqbt0","pricing_plan_id":"free"},{"bike_id":"921b424d-ad0d-4c7a-9d74-66e3a49bfa19","system_id":"levelo_inurba_marseille","lat":43.32934,"lon":5.36612,"is_reserved":false,"is_disabled":false,"rental_uris":{"android":"levelo://app?vid=921b424d-ad0d-4c7a-9d74-66e3a49bfa19","ios":"levelo://app?vid=921b424d-ad0d-4c7a-9d74-66e3a49bfa19"},"vehicle_type_id":"4","last_reported":1703689601,"current_range_meters":16800,"station_id":"","pricing_plan_id":"free"},{"bike_id":"9d1b725f-ee12-4369-97aa-cb5e28a191f8","system_id":"levelo_inurba_marseille","lat":43.296131,"lon":5.370791,"is_reserved":false,"is_disabled":false,"rental_uris":{"android":"levelo://app?vid=9d1b725f-ee12-4369-97aa-cb5e28a191f8","ios":"levelo://app?vid=9d1b725f-ee12-4369-97aa-cb5e28a191f8"},"vehicle_type_id":"4","last_reported":1703689601,"current_range_meters":30400,"station_id":"ce4bgnh2rcd13ifvqc0g","pricing_plan_id":"free"},{"bike_id":"1235c6de-b187-4db6-9e38-0983888e3b6c","system_id":"levelo_inurba_marseille","lat":43.309589,"lon":5.390258,"is_reserved":false,"is_disabled":false,"rental_uris":{"android":"levelo://app?vid=1235c6de-b187-4db6-9e38-0983888e3b6c","ios":"levelo://app?vid=1235c6de-b187-4db6-9e38-0983888e3b6c"},"vehicle_type_id":"4","last_reported":1703689601,"current_range_meters":11600,"station_id":"ce4bgup2rcd13ifvqco0","pricing_plan_id":"free"},{"bike_id":"1ea0486d-80c3-4e51-be10-d22d3ea28b94","system_id":"levelo_inurba_marseille","lat":43.309589,"lon":5.390258,"is_reserved":false,"is_disabled":false,"rental_uris":{"android":"levelo://app?vid=1ea0486d-80c3-4e51-be10-d22d3ea28b94","ios":"levelo://app?vid=1ea0486d-80c3-4e51-be10-d22d3ea28b94"},"vehicle_type_id":"4","last_reported":1703689601,"current_range_meters":22400,"station_id":"ce4bgup2rcd13ifvqco0","pricing_plan_id":"free"},{"bike_id":"c5f13dc8-90cc-4cba-bb54-f5acfc8918d5","system_id":"levelo_inurba_marseille","lat":43.296935,"lon":5.376544,"is_reserved":false,"is_disabled":false,"rental_uris":{"android":"levelo://app?vid=c5f13dc8-90cc-4cba-bb54-f5acfc8918d5","ios":"levelo://app?vid=c5f13dc8-90cc-4cba-bb54-f5acfc8918d5"},"vehicle_type_id":"4","last_reported":1703689601,"current_range_meters":25200,"station_id":"ce4bgkh2rcd13ifvqbl0","pricing_plan_id":"free"},{"bike_id":"36b5a54b-5510-4850-9f43-15be6ffee769","system_id":"levelo_inurba_marseille","lat":43.295748,"lon":5.37522,"is_reserved":false,"is_disabled":false,"rental_uris":{"android":"levelo://app?vid=36b5a54b-5510-4850-9f43-15be6ffee769","ios":"levelo://app?vid=36b5a54b-5510-4850-9f43-15be6ffee769"},"vehicle_type_id":"4","last_reported":1703689601,"current_range_meters":0,"station_id":"ce4bgh92rcd13ifvqb50","pricing_plan_id":"free"},{"bike_id":"82fb2499-2b2f-4aff-aeea-58470a14dfcc","system_id":"levelo_inurba_marseille","lat":43.298037,"lon":5.381066,"is_reserved":false,"is_disabled":false,"rental_uris":{"android":"levelo://app?vid=82fb2499-2b2f-4aff-aeea-58470a14dfcc","ios":"levelo://app?vid=82fb2499-2b2f-4aff-aeea-58470a14dfcc"},"vehicle_type_id":"4","last_reported":1703689601,"current_range_meters":7600,"station_id":"ce4bgip2rcd13ifvqbb0","pricing_plan_id":"free"},{"bike_id":"92bf4771-a088-4f4a-b816-e90d8062e712","system_id":"levelo_inurba_marseille","lat":43.304274,"lon":5.388873,"is_reserved":false,"is_disabled":false,"rental_uris":{"android":"levelo://app?vid=92bf4771-a088-4f4a-b816-e90d8062e712","ios":"levelo://app?vid=92bf4771-a088-4f4a-b816-e90d8062e712"},"vehicle_type_id":"4","last_reported":1703689601,"current_range_meters":31600,"station_id":"ce4bgk12rcd13ifvqbi0","pricing_plan_id":"free"},{"bike_id":"27a3c5d7-ac1c-44dd-99c0-5debf729f9dc","system_id":"levelo_inurba_marseille","lat":43.304278,"lon":5.388868,"is_reserved":false,"is_disabled":false,"rental_uris":{"android":"levelo://app?vid=27a3c5d7-ac1c-44dd-99c0-5debf729f9dc","ios":"levelo://app?vid=27a3c5d7-ac1c-44dd-99c0-5debf729f9dc"},"vehicle_type_id":"4","last_reported":1703689601,"current_range_meters":27200,"station_id":"ce4bgk12rcd13ifvqbi0","pricing_plan_id":"free"},{"bike_id":"aebade93-cf84-480d-bd67-bce65aa42c37","system_id":"levelo_inurba_marseille","lat":43.296263,"lon":5.377094,"is_reserved":false,"is_disabled":false,"rental_uris":{"android":"levelo://app?vid=aebade93-cf84-480d-bd67-bce65aa42c37","ios":"levelo://app?vid=aebade93-cf84-480d-bd67-bce65aa42c37"},"vehicle_type_id":"4","last_reported":1703689601,"current_range_meters":23200,"station_id":"ce4bgi92rcd13ifvqb90","pricing_plan_id":"free"},{"bike_id":"eeb9d48d-efc5-40d6-bc03-670d241dd63a","system_id":"levelo_inurba_marseille","lat":43.295279,"lon":5.375048,"is_reserved":false,"is_disabled":false,"rental_uris":{"android":"levelo://app?vid=eeb9d48d-efc5-40d6-bc03-670d241dd63a","ios":"levelo://app?vid=eeb9d48d-efc5-40d6-bc03-670d241dd63a"},"vehicle_type_id":"4","last_reported":1703689601,"current_range_meters":26400,"station_id":"ce4bgkp2rcd13ifvqbmg","pricing_plan_id":"free"},{"bike_id":"94a70657-973e-4a4a-8e5f-48624fa95146","system_id":"levelo_inurba_marseille","lat":43.32362,"lon":5.38882,"is_reserved":false,"is_disabled":false,"rental_uris":{"android":"levelo://app?vid=94a70657-973e-4a4a-8e5f-48624fa95146","ios":"levelo://app?vid=94a70657-973e-4a4a-8e5f-48624fa95146"},"vehicle_type_id":"4","last_reported":1703689601,"current_range_meters":12400,"station_id":"ce4bhqp2rcd13ifvqhog","pricing_plan_id":"free"},{"bike_id":"cdca5cfa-638f-4765-a46d-5ba1985dddf7","system_id":"levelo_inurba_marseille","lat":43.29601,"lon":5.381084,"is_reserved":false,"is_disabled":false,"rental_uris":{"android":"levelo://app?vid=cdca5cfa-638f-4765-a46d-5ba1985dddf7","ios":"levelo://app?vid=cdca5cfa-638f-4765-a46d-5ba1985dddf7"},"vehicle_type_id":"4","last_reported":1703689601,"current_range_meters":4000,"station_id":"ce4bgl12rcd13ifvqbo0","pricing_plan_id":"free"},{"bike_id":"dcb5ca07-daac-439c-ae66-a69e825affc9","system_id":"levelo_inurba_marseille","lat":43.29278,"lon":5.3685,"is_reserved":false,"is_disabled":false,"rental_uris":{"android":"levelo://app?vid=dcb5ca07-daac-439c-ae66-a69e825affc9","ios":"levelo://app?vid=dcb5ca07-daac-439c-ae66-a69e825affc9"},"vehicle_type_id":"4","last_reported":1703689601,"current_range_meters":20000,"station_id":"ce4bhbp2rcd13ifvqesg","pricing_plan_id":"free"},{"bike_id":"a379ddf1-a3fa-4f71-8281-744b6f6f058a","system_id":"levelo_inurba_marseille","lat":43.29276,"lon":5.36846,"is_reserved":false,"is_disabled":false,"rental_uris":{"android":"levelo://app?vid=a379ddf1-a3fa-4f71-8281-744b6f6f058a","ios":"levelo://app?vid=a379ddf1-a3fa-4f71-8281-744b6f6f058a"},"vehicle_type_id":"4","last_reported":1703689601,"current_range_meters":13600,"station_id":"ce4bhbp2rcd13ifvqesg","pricing_plan_id":"free"},{"bike_id":"d3bb85f7-aa5d-45dd-ab24-f6269947525b","system_id":"levelo_inurba_marseille","lat":43.305994,"lon":5.393687,"is_reserved":false,"is_disabled":false,"rental_uris":{"android":"levelo://app?vid=d3bb85f7-aa5d-45dd-ab24-f6269947525b","ios":"levelo://app?vid=d3bb85f7-aa5d-45dd-ab24-f6269947525b"},"vehicle_type_id":"4","last_reported":1703689601,"current_range_meters":22800,"station_id":"ce4bh0p2rcd13ifvqd80","pricing_plan_id":"free"},{"bike_id":"ade84258-13c3-4439-ade0-75ddeda7cc9b","system_id":"levelo_inurba_marseille","lat":43.292311,"lon":5.360731,"is_reserved":false,"is_disabled":false,"rental_uris":{"android":"levelo://app?vid=ade84258-13c3-4439-ade0-75ddeda7cc9b","ios":"levelo://app?vid=ade84258-13c3-4439-ade0-75ddeda7cc9b"},"vehicle_type_id":"4","last_reported":1703689601,"current_range_meters":30800,"station_id":"ce4bhbh2rcd13ifvqeqg","pricing_plan_id":"free"},{"bike_id":"e303929f-9afa-41b7-8797-acc258326de5","system_id":"levelo_inurba_marseille","lat":43.292311,"lon":5.360731,"is_reserved":false,"is_disabled":false,"rental_uris":{"android":"levelo://app?vid=e303929f-9afa-41b7-8797-acc258326de5","ios":"levelo://app?vid=e303929f-9afa-41b7-8797-acc258326de5"},"vehicle_type_id":"4","last_reported":1703689601,"current_range_meters":21600,"station_id":"ce4bhbh2rcd13ifvqeqg","pricing_plan_id":"free"},{"bike_id":"3055722a-0409-4b6a-b1f9-3667fd3d8a2f","system_id":"levelo_inurba_marseille","lat":43.292311,"lon":5.360731,"is_reserved":false,"is_disabled":false,"rental_uris":{"android":"levelo://app?vid=3055722a-0409-4b6a-b1f9-3667fd3d8a2f","ios":"levelo://app?vid=3055722a-0409-4b6a-b1f9-3667fd3d8a2f"},"vehicle_type_id":"4","last_reported":1703689601,"current_range_meters":22000,"station_id":"ce4bhbh2rcd13ifvqeqg","pricing_plan_id":"free"},{"bike_id":"73d9c30e-c317-43c6-80b1-67dccb9a3177","system_id":"levelo_inurba_marseille","lat":43.2936,"lon":5.37835,"is_reserved":false,"is_disabled":false,"rental_uris":{"android":"levelo://app?vid=73d9c30e-c317-43c6-80b1-67dccb9a3177","ios":"levelo://app?vid=73d9c30e-c317-43c6-80b1-67dccb9a3177"},"vehicle_type_id":"4","last_reported":1703689601,"current_range_meters":24400,"station_id":"ce4bgjh2rcd13ifvqbf0","pricing_plan_id":"free"},{"bike_id":"b986daa5-ac74-431c-bbf2-1a1d5423b015","system_id":"levelo_inurba_marseille","lat":43.2927,"lon":5.37622,"is_reserved":false,"is_disabled":false,"rental_uris":{"android":"levelo://app?vid=b986daa5-ac74-431c-bbf2-1a1d5423b015","ios":"levelo://app?vid=b986daa5-ac74-431c-bbf2-1a1d5423b015"},"vehicle_type_id":"4","last_reported":1703689601,"current_range_meters":30400,"station_id":"","pricing_plan_id":"free"},{"bike_id":"59b2b330-756e-4bea-b982-8f81568dcf2d","system_id":"levelo_inurba_marseille","lat":43.29896,"lon":5.38906,"is_reserved":false,"is_disabled":false,"rental_uris":{"android":"levelo://app?vid=59b2b330-756e-4bea-b982-8f81568dcf2d","ios":"levelo://app?vid=59b2b330-756e-4bea-b982-8f81568dcf2d"},"vehicle_type_id":"4","last_reported":1703689601,"current_range_meters":22800,"station_id":"","pricing_plan_id":"free"},{"bike_id":"1ca85318-3844-4c28-a474-ff1336369378","system_id":"levelo_inurba_marseille","lat":43.291671,"lon":5.371575,"is_reserved":false,"is_disabled":false,"rental_uris":{"android":"levelo://app?vid=1ca85318-3844-4c28-a474-ff1336369378","ios":"levelo://app?vid=1ca85318-3844-4c28-a474-ff1336369378"},"vehicle_type_id":"4","last_reported":1703689601,"current_range_meters":29200,"station_id":"ce4bha92rcd13ifvqeh0","pricing_plan_id":"free"},{"bike_id":"b36cb058-91d0-4fa9-bd48-5ece9470dd3f","system_id":"levelo_inurba_marseille","lat":43.291671,"lon":5.371575,"is_reserved":false,"is_disabled":false,"rental_uris":{"android":"levelo://app?vid=b36cb058-91d0-4fa9-bd48-5ece9470dd3f","ios":"levelo://app?vid=b36cb058-91d0-4fa9-bd48-5ece9470dd3f"},"vehicle_type_id":"4","last_reported":1703689601,"current_range_meters":10400,"station_id":"ce4bha92rcd13ifvqeh0","pricing_plan_id":"free"},{"bike_id":"5d9353be-fcd1-43a8-aaf0-a270c0b44233","system_id":"levelo_inurba_marseille","lat":43.313291,"lon":5.396838,"is_reserved":false,"is_disabled":false,"rental_uris":{"android":"levelo://app?vid=5d9353be-fcd1-43a8-aaf0-a270c0b44233","ios":"levelo://app?vid=5d9353be-fcd1-43a8-aaf0-a270c0b44233"},"vehicle_type_id":"4","last_reported":1703689601,"current_range_meters":18800,"station_id":"ce4bgvp2rcd13ifvqcu0","pricing_plan_id":"free"},{"bike_id":"3cc93a6a-22c2-4147-9c75-e78b846fe919","system_id":"levelo_inurba_marseille","lat":43.309038,"lon":5.396546,"is_reserved":false,"is_disabled":false,"rental_uris":{"android":"levelo://app?vid=3cc93a6a-22c2-4147-9c75-e78b846fe919","ios":"levelo://app?vid=3cc93a6a-22c2-4147-9c75-e78b846fe919"},"vehicle_type_id":"4","last_reported":1703689601,"current_range_meters":20800,"station_id":"ce4bh012rcd13ifvqcv0","pricing_plan_id":"free"},{"bike_id":"84135b8a-4c9e-411a-8459-1c8a2df63fb3","system_id":"levelo_inurba_marseille","lat":43.29529,"lon":5.385581,"is_reserved":false,"is_disabled":false,"rental_uris":{"android":"levelo://app?vid=84135b8a-4c9e-411a-8459-1c8a2df63fb3","ios":"levelo://app?vid=84135b8a-4c9e-411a-8459-1c8a2df63fb3"},"vehicle_type_id":"4","last_reported":1703689601,"current_range_meters":28000,"station_id":"ce4bgih2rcd13ifvqba0","pricing_plan_id":"free"},{"bike_id":"57e9791f-a6df-4848-a1d2-106e904458b5","system_id":"levelo_inurba_marseille","lat":43.3022,"lon":5.39484,"is_reserved":false,"is_disabled":false,"rental_uris":{"android":"levelo://app?vid=57e9791f-a6df-4848-a1d2-106e904458b5","ios":"levelo://app?vid=57e9791f-a6df-4848-a1d2-106e904458b5"},"vehicle_type_id":"4","last_reported":1703689601,"current_range_meters":2000,"station_id":"ce4bh0p2rcd13ifvqd70","pricing_plan_id":"free"},{"bike_id":"e36433f4-6f9a-41f7-bfc9-4cd244f0199d","system_id":"levelo_inurba_marseille","lat":43.290631,"lon":5.359244,"is_reserved":false,"is_disabled":false,"rental_uris":{"android":"levelo://app?vid=e36433f4-6f9a-41f7-bfc9-4cd244f0199d","ios":"levelo://app?vid=e36433f4-6f9a-41f7-bfc9-4cd244f0199d"},"vehicle_type_id":"4","last_reported":1703689601,"current_range_meters":27200,"station_id":"ce4bha92rcd13ifvqeg0","pricing_plan_id":"free"},{"bike_id":"e0c75bef-ce4f-4399-b5c2-0845bbf58b51","system_id":"levelo_inurba_marseille","lat":43.290624,"lon":5.359245,"is_reserved":false,"is_disabled":false,"rental_uris":{"android":"levelo://app?vid=e0c75bef-ce4f-4399-b5c2-0845bbf58b51","ios":"levelo://app?vid=e0c75bef-ce4f-4399-b5c2-0845bbf58b51"},"vehicle_type_id":"4","last_reported":1703689601,"current_range_meters":22400,"station_id":"ce4bha92rcd13ifvqeg0","pricing_plan_id":"free"},{"bike_id":"96cf95d9-877c-468b-9dd3-78deb948c775","system_id":"levelo_inurba_marseille","lat":43.289184,"lon":5.366408,"is_reserved":false,"is_disabled":false,"rental_uris":{"android":"levelo://app?vid=96cf95d9-877c-468b-9dd3-78deb948c775","ios":"levelo://app?vid=96cf95d9-877c-468b-9dd3-78deb948c775"},"vehicle_type_id":"4","last_reported":1703689601,"current_range_meters":5600,"station_id":"ce4bhap2rcd13ifvqek0","pricing_plan_id":"free"},{"bike_id":"5b65562d-a9e3-4ffe-98ba-b2758c4e02e5","system_id":"levelo_inurba_marseille","lat":43.289184,"lon":5.366408,"is_reserved":false,"is_disabled":false,"rental_uris":{"android":"levelo://app?vid=5b65562d-a9e3-4ffe-98ba-b2758c4e02e5","ios":"levelo://app?vid=5b65562d-a9e3-4ffe-98ba-b2758c4e02e5"},"vehicle_type_id":"4","last_reported":1703689601,"current_range_meters":27200,"station_id":"ce4bhap2rcd13ifvqek0","pricing_plan_id":"free"},{"bike_id":"ef4d3f97-1118-4c92-99ae-81db773494be","system_id":"levelo_inurba_marseille","lat":43.289468,"lon":5.363719,"is_reserved":false,"is_disabled":false,"rental_uris":{"android":"levelo://app?vid=ef4d3f97-1118-4c92-99ae-81db773494be","ios":"levelo://app?vid=ef4d3f97-1118-4c92-99ae-81db773494be"},"vehicle_type_id":"4","last_reported":1703689601,"current_range_meters":22400,"station_id":"ce4bhc92rcd13ifvqetg","pricing_plan_id":"free"},{"bike_id":"140cdbc1-754e-4851-83e7-c17221613dc7","system_id":"levelo_inurba_marseille","lat":43.289468,"lon":5.363719,"is_reserved":false,"is_disabled":false,"rental_uris":{"android":"levelo://app?vid=140cdbc1-754e-4851-83e7-c17221613dc7","ios":"levelo://app?vid=140cdbc1-754e-4851-83e7-c17221613dc7"},"vehicle_type_id":"4","last_reported":1703689601,"current_range_meters":23200,"station_id":"ce4bhc92rcd13ifvqetg","pricing_plan_id":"free"},{"bike_id":"ba9ff484-22c9-4de9-9832-2d07c68350a3","system_id":"levelo_inurba_marseille","lat":43.292628,"lon":5.384444,"is_reserved":false,"is_disabled":false,"rental_uris":{"android":"levelo://app?vid=ba9ff484-22c9-4de9-9832-2d07c68350a3","ios":"levelo://app?vid=ba9ff484-22c9-4de9-9832-2d07c68350a3"},"vehicle_type_id":"4","last_reported":1703689601,"current_range_meters":6800,"station_id":"ce4bh3p2rcd13ifvqdq0","pricing_plan_id":"free"},{"bike_id":"44ad4934-7a60-4d89-9adf-1187d6cc91a6","system_id":"levelo_inurba_marseille","lat":43.290104,"lon":5.356111,"is_reserved":false,"is_disabled":false,"rental_uris":{"android":"levelo://app?vid=44ad4934-7a60-4d89-9adf-1187d6cc91a6","ios":"levelo://app?vid=44ad4934-7a60-4d89-9adf-1187d6cc91a6"},"vehicle_type_id":"4","last_reported":1703689601,"current_range_meters":29200,"station_id":"ce4bhb92rcd13ifvqen0","pricing_plan_id":"free"},{"bike_id":"8457731f-2d6f-44d6-bff5-753496b6b070","system_id":"levelo_inurba_marseille","lat":43.290103,"lon":5.356114,"is_reserved":false,"is_disabled":false,"rental_uris":{"android":"levelo://app?vid=8457731f-2d6f-44d6-bff5-753496b6b070","ios":"levelo://app?vid=8457731f-2d6f-44d6-bff5-753496b6b070"},"vehicle_type_id":"4","last_reported":1703689601,"current_range_meters":12400,"station_id":"ce4bhb92rcd13ifvqen0","pricing_plan_id":"free"},{"bike_id":"d4d5dbff-6274-4f81-8ff3-868ac2ca5036","system_id":"levelo_inurba_marseille","lat":43.295169,"lon":5.390426,"is_reserved":false,"is_disabled":false,"rental_uris":{"android":"levelo://app?vid=d4d5dbff-6274-4f81-8ff3-868ac2ca5036","ios":"levelo://app?vid=d4d5dbff-6274-4f81-8ff3-868ac2ca5036"},"vehicle_type_id":"4","last_reported":1703689601,"current_range_meters":27200,"station_id":"ce4bh3p2rcd13ifvqdp0","pricing_plan_id":"free"},{"bike_id":"495faf64-a935-4c6e-b77f-2b296d14493a","system_id":"levelo_inurba_marseille","lat":43.331017,"lon":5.389194,"is_reserved":false,"is_disabled":false,"rental_uris":{"android":"levelo://app?vid=495faf64-a935-4c6e-b77f-2b296d14493a","ios":"levelo://app?vid=495faf64-a935-4c6e-b77f-2b296d14493a"},"vehicle_type_id":"4","last_reported":1703689601,"current_range_meters":16000,"station_id":"","pricing_plan_id":"free"},{"bike_id":"da82727f-5090-4dcc-9a39-e49701b0afae","system_id":"levelo_inurba_marseille","lat":43.330442,"lon":5.389148,"is_reserved":false,"is_disabled":false,"rental_uris":{"android":"levelo://app?vid=da82727f-5090-4dcc-9a39-e49701b0afae","ios":"levelo://app?vid=da82727f-5090-4dcc-9a39-e49701b0afae"},"vehicle_type_id":"4","last_reported":1703689601,"current_range_meters":18400,"station_id":"ce4bhr92rcd13ifvqhrg","pricing_plan_id":"free"},{"bike_id":"837e4840-f9f0-42f2-896f-fa90e31fab8a","system_id":"levelo_inurba_marseille","lat":43.330442,"lon":5.389148,"is_reserved":false,"is_disabled":false,"rental_uris":{"android":"levelo://app?vid=837e4840-f9f0-42f2-896f-fa90e31fab8a","ios":"levelo://app?vid=837e4840-f9f0-42f2-896f-fa90e31fab8a"},"vehicle_type_id":"4","last_reported":1703689601,"current_range_meters":26400,"station_id":"ce4bhr92rcd13ifvqhrg","pricing_plan_id":"free"},{"bike_id":"a1a72df3-b9a3-48f2-afa0-e1571b3291dc","system_id":"levelo_inurba_marseille","lat":43.295169,"lon":5.390426,"is_reserved":false,"is_disabled":false,"rental_uris":{"android":"levelo://app?vid=a1a72df3-b9a3-48f2-afa0-e1571b3291dc","ios":"levelo://app?vid=a1a72df3-b9a3-48f2-afa0-e1571b3291dc"},"vehicle_type_id":"4","last_reported":1703689601,"current_range_meters":15200,"station_id":"ce4bh3p2rcd13ifvqdp0","pricing_plan_id":"free"},{"bike_id":"0ac73994-dab6-4dcb-81e9-d0623f10c6c2","system_id":"levelo_inurba_marseille","lat":43.28856,"lon":5.358371,"is_reserved":false,"is_disabled":false,"rental_uris":{"android":"levelo://app?vid=0ac73994-dab6-4dcb-81e9-d0623f10c6c2","ios":"levelo://app?vid=0ac73994-dab6-4dcb-81e9-d0623f10c6c2"},"vehicle_type_id":"4","last_reported":1703689601,"current_range_meters":23200,"station_id":"ce4bhb12rcd13ifvqem0","pricing_plan_id":"free"},{"bike_id":"96a1dbc7-fd25-474d-aa49-27646a0f56af","system_id":"levelo_inurba_marseille","lat":43.28856,"lon":5.358371,"is_reserved":false,"is_disabled":false,"rental_uris":{"android":"levelo://app?vid=96a1dbc7-fd25-474d-aa49-27646a0f56af","ios":"levelo://app?vid=96a1dbc7-fd25-474d-aa49-27646a0f56af"},"vehicle_type_id":"4","last_reported":1703689601,"current_range_meters":9200,"station_id":"ce4bhb12rcd13ifvqem0","pricing_plan_id":"free"},{"bike_id":"6c18c1d1-1746-49d8-81cb-46723d20d36b","system_id":"levelo_inurba_marseille","lat":43.312609,"lon":5.401662,"is_reserved":false,"is_disabled":false,"rental_uris":{"android":"levelo://app?vid=6c18c1d1-1746-49d8-81cb-46723d20d36b","ios":"levelo://app?vid=6c18c1d1-1746-49d8-81cb-46723d20d36b"},"vehicle_type_id":"4","last_reported":1703689601,"current_range_meters":1200,"station_id":"ce4bh092rcd13ifvqd30","pricing_plan_id":"free"},{"bike_id":"7a543b19-90cd-4a87-b80d-37f423d89307","system_id":"levelo_inurba_marseille","lat":43.33025,"lon":5.39208,"is_reserved":false,"is_disabled":false,"rental_uris":{"android":"levelo://app?vid=7a543b19-90cd-4a87-b80d-37f423d89307","ios":"levelo://app?vid=7a543b19-90cd-4a87-b80d-37f423d89307"},"vehicle_type_id":"4","last_reported":1703689601,"current_range_meters":4000,"station_id":"","pricing_plan_id":"free"},{"bike_id":"b8ad220d-c11d-4378-a8cf-420aaf9df86f","system_id":"levelo_inurba_marseille","lat":43.33747,"lon":5.37452,"is_reserved":false,"is_disabled":false,"rental_uris":{"android":"levelo://app?vid=b8ad220d-c11d-4378-a8cf-420aaf9df86f","ios":"levelo://app?vid=b8ad220d-c11d-4378-a8cf-420aaf9df86f"},"vehicle_type_id":"4","last_reported":1703689601,"current_range_meters":26400,"station_id":"","pricing_plan_id":"free"},{"bike_id":"828bae32-b022-4c79-b2d3-838b28686c60","system_id":"levelo_inurba_marseille","lat":43.33754,"lon":5.3744,"is_reserved":false,"is_disabled":false,"rental_uris":{"android":"levelo://app?vid=828bae32-b022-4c79-b2d3-838b28686c60","ios":"levelo://app?vid=828bae32-b022-4c79-b2d3-838b28686c60"},"vehicle_type_id":"4","last_reported":1703689601,"current_range_meters":30400,"station_id":"","pricing_plan_id":"free"},{"bike_id":"7689537c-0815-4498-a1a6-b3af9d200d6b","system_id":"levelo_inurba_marseille","lat":43.312609,"lon":5.401662,"is_reserved":false,"is_disabled":false,"rental_uris":{"android":"levelo://app?vid=7689537c-0815-4498-a1a6-b3af9d200d6b","ios":"levelo://app?vid=7689537c-0815-4498-a1a6-b3af9d200d6b"},"vehicle_type_id":"4","last_reported":1703689601,"current_range_meters":27200,"station_id":"ce4bh092rcd13ifvqd30","pricing_plan_id":"free"},{"bike_id":"02b31deb-8d27-47bf-bbf0-4ae52b237d44","system_id":"levelo_inurba_marseille","lat":43.33759,"lon":5.37462,"is_reserved":false,"is_disabled":false,"rental_uris":{"android":"levelo://app?vid=02b31deb-8d27-47bf-bbf0-4ae52b237d44","ios":"levelo://app?vid=02b31deb-8d27-47bf-bbf0-4ae52b237d44"},"vehicle_type_id":"4","last_reported":1703689601,"current_range_meters":9200,"station_id":"","pricing_plan_id":"free"},{"bike_id":"a4722d16-57e8-4795-8d7e-904785c95a5d","system_id":"levelo_inurba_marseille","lat":43.337614,"lon":5.374629,"is_reserved":false,"is_disabled":false,"rental_uris":{"android":"levelo://app?vid=a4722d16-57e8-4795-8d7e-904785c95a5d","ios":"levelo://app?vid=a4722d16-57e8-4795-8d7e-904785c95a5d"},"vehicle_type_id":"4","last_reported":1703689601,"current_range_meters":31200,"station_id":"","pricing_plan_id":"free"},{"bike_id":"5810a51d-900e-4f21-b011-504985336ccb","system_id":"levelo_inurba_marseille","lat":43.337654,"lon":5.374434,"is_reserved":false,"is_disabled":false,"rental_uris":{"android":"levelo://app?vid=5810a51d-900e-4f21-b011-504985336ccb","ios":"levelo://app?vid=5810a51d-900e-4f21-b011-504985336ccb"},"vehicle_type_id":"4","last_reported":1703689601,"current_range_meters":29200,"station_id":"ce4rr2p2rcd13i802rgg","pricing_plan_id":"free"},{"bike_id":"7c36b62c-c004-4d67-b653-b334ae65bf07","system_id":"levelo_inurba_marseille","lat":43.306412,"lon":5.401035,"is_reserved":false,"is_disabled":false,"rental_uris":{"android":"levelo://app?vid=7c36b62c-c004-4d67-b653-b334ae65bf07","ios":"levelo://app?vid=7c36b62c-c004-4d67-b653-b334ae65bf07"},"vehicle_type_id":"4","last_reported":1703689601,"current_range_meters":18400,"station_id":"ce4bh112rcd13ifvqda0","pricing_plan_id":"free"},{"bike_id":"1f3163e0-822c-4793-9875-dc41b85e16ca","system_id":"levelo_inurba_marseille","lat":43.306412,"lon":5.401035,"is_reserved":false,"is_disabled":false,"rental_uris":{"android":"levelo://app?vid=1f3163e0-822c-4793-9875-dc41b85e16ca","ios":"levelo://app?vid=1f3163e0-822c-4793-9875-dc41b85e16ca"},"vehicle_type_id":"4","last_reported":1703689601,"current_range_meters":29200,"station_id":"ce4bh112rcd13ifvqda0","pricing_plan_id":"free"},{"bike_id":"395b4c6b-2846-48f8-adf3-a7b6e4defa20","system_id":"levelo_inurba_marseille","lat":43.28727,"lon":5.36078,"is_reserved":false,"is_disabled":false,"rental_uris":{"android":"levelo://app?vid=395b4c6b-2846-48f8-adf3-a7b6e4defa20","ios":"levelo://app?vid=395b4c6b-2846-48f8-adf3-a7b6e4defa20"},"vehicle_type_id":"4","last_reported":1703689601,"current_range_meters":31600,"station_id":"cki0cbj6b192h4jlfktg","pricing_plan_id":"free"},{"bike_id":"d60802d6-4f47-444a-b234-883690eec05b","system_id":"levelo_inurba_marseille","lat":43.33107,"lon":5.39284,"is_reserved":false,"is_disabled":false,"rental_uris":{"android":"levelo://app?vid=d60802d6-4f47-444a-b234-883690eec05b","ios":"levelo://app?vid=d60802d6-4f47-444a-b234-883690eec05b"},"vehicle_type_id":"4","last_reported":1703689601,"current_range_meters":31200,"station_id":"","pricing_plan_id":"free"},{"bike_id":"371c9bdb-69f2-461d-9654-76b44d3bd37a","system_id":"levelo_inurba_marseille","lat":43.290345,"lon":5.38646,"is_reserved":false,"is_disabled":false,"rental_uris":{"android":"levelo://app?vid=371c9bdb-69f2-461d-9654-76b44d3bd37a","ios":"levelo://app?vid=371c9bdb-69f2-461d-9654-76b44d3bd37a"},"vehicle_type_id":"4","last_reported":1703689601,"current_range_meters":24400,"station_id":"ce4bh4p2rcd13ifvqe0g","pricing_plan_id":"free"},{"bike_id":"a2d1699c-0583-4f63-8504-451278b8afe7","system_id":"levelo_inurba_marseille","lat":43.290345,"lon":5.38646,"is_reserved":false,"is_disabled":false,"rental_uris":{"android":"levelo://app?vid=a2d1699c-0583-4f63-8504-451278b8afe7","ios":"levelo://app?vid=a2d1699c-0583-4f63-8504-451278b8afe7"},"vehicle_type_id":"4","last_reported":1703689601,"current_range_meters":20000,"station_id":"ce4bh4p2rcd13ifvqe0g","pricing_plan_id":"free"},{"bike_id":"52534ed7-1809-4093-a5b4-67deca9988be","system_id":"levelo_inurba_marseille","lat":43.302759,"lon":5.400793,"is_reserved":false,"is_disabled":false,"rental_uris":{"android":"levelo://app?vid=52534ed7-1809-4093-a5b4-67deca9988be","ios":"levelo://app?vid=52534ed7-1809-4093-a5b4-67deca9988be"},"vehicle_type_id":"4","last_reported":1703689601,"current_range_meters":24800,"station_id":"ce4bgvh2rcd13ifvqcs0","pricing_plan_id":"free"},{"bike_id":"0a417a43-5140-4a33-9aaa-064c6134ebe4","system_id":"levelo_inurba_marseille","lat":43.286039,"lon":5.370679,"is_reserved":false,"is_disabled":false,"rental_uris":{"android":"levelo://app?vid=0a417a43-5140-4a33-9aaa-064c6134ebe4","ios":"levelo://app?vid=0a417a43-5140-4a33-9aaa-064c6134ebe4"},"vehicle_type_id":"4","last_reported":1703689601,"current_range_meters":30400,"station_id":"ce4bht12rcd13ifvqi60","pricing_plan_id":"free"},{"bike_id":"b7fdfbba-e7df-4062-8e1b-fcfbf27ddd1c","system_id":"levelo_inurba_marseille","lat":43.286039,"lon":5.370679,"is_reserved":false,"is_disabled":false,"rental_uris":{"android":"levelo://app?vid=b7fdfbba-e7df-4062-8e1b-fcfbf27ddd1c","ios":"levelo://app?vid=b7fdfbba-e7df-4062-8e1b-fcfbf27ddd1c"},"vehicle_type_id":"4","last_reported":1703689601,"current_range_meters":23200,"station_id":"ce4bht12rcd13ifvqi60","pricing_plan_id":"free"},{"bike_id":"38d8412b-e1eb-44d4-a17e-b0db5dad2402","system_id":"levelo_inurba_marseille","lat":43.286039,"lon":5.370679,"is_reserved":false,"is_disabled":false,"rental_uris":{"android":"levelo://app?vid=38d8412b-e1eb-44d4-a17e-b0db5dad2402","ios":"levelo://app?vid=38d8412b-e1eb-44d4-a17e-b0db5dad2402"},"vehicle_type_id":"4","last_reported":1703689601,"current_range_meters":27200,"station_id":"ce4bht12rcd13ifvqi60","pricing_plan_id":"free"},{"bike_id":"44d42284-3b9c-4c47-a1d1-6ebbbbadde56","system_id":"levelo_inurba_marseille","lat":43.287184,"lon":5.37937,"is_reserved":false,"is_disabled":false,"rental_uris":{"android":"levelo://app?vid=44d42284-3b9c-4c47-a1d1-6ebbbbadde56","ios":"levelo://app?vid=44d42284-3b9c-4c47-a1d1-6ebbbbadde56"},"vehicle_type_id":"4","last_reported":1703689601,"current_range_meters":18800,"station_id":"ce4bh9p2rcd13ifvqec0","pricing_plan_id":"free"},{"bike_id":"0d6ca7e3-7785-46a5-bdc5-c6b447a42758","system_id":"levelo_inurba_marseille","lat":43.287185,"lon":5.379373,"is_reserved":false,"is_disabled":false,"rental_uris":{"android":"levelo://app?vid=0d6ca7e3-7785-46a5-bdc5-c6b447a42758","ios":"levelo://app?vid=0d6ca7e3-7785-46a5-bdc5-c6b447a42758"},"vehicle_type_id":"4","last_reported":1703689601,"current_range_meters":26000,"station_id":"ce4bh9p2rcd13ifvqec0","pricing_plan_id":"free"},{"bike_id":"b372a28f-23b9-40cd-bedd-d71950391ac4","system_id":"levelo_inurba_marseille","lat":43.287185,"lon":5.379373,"is_reserved":false,"is_disabled":false,"rental_uris":{"android":"levelo://app?vid=b372a28f-23b9-40cd-bedd-d71950391ac4","ios":"levelo://app?vid=b372a28f-23b9-40cd-bedd-d71950391ac4"},"vehicle_type_id":"4","last_reported":1703689601,"current_range_meters":17600,"station_id":"ce4bh9p2rcd13ifvqec0","pricing_plan_id":"free"},{"bike_id":"e750f7e4-82d2-4937-95f6-45e85fb54b21","system_id":"levelo_inurba_marseille","lat":43.31698,"lon":5.40466,"is_reserved":false,"is_disabled":false,"rental_uris":{"android":"levelo://app?vid=e750f7e4-82d2-4937-95f6-45e85fb54b21","ios":"levelo://app?vid=e750f7e4-82d2-4937-95f6-45e85fb54b21"},"vehicle_type_id":"4","last_reported":1703689601,"current_range_meters":12800,"station_id":"ce4bh012rcd13ifvqd00","pricing_plan_id":"free"},{"bike_id":"e2adfa7c-882e-48a1-9ee4-b36e6186ebbf","system_id":"levelo_inurba_marseille","lat":43.330912,"lon":5.396935,"is_reserved":false,"is_disabled":false,"rental_uris":{"android":"levelo://app?vid=e2adfa7c-882e-48a1-9ee4-b36e6186ebbf","ios":"levelo://app?vid=e2adfa7c-882e-48a1-9ee4-b36e6186ebbf"},"vehicle_type_id":"4","last_reported":1703689601,"current_range_meters":0,"station_id":"","pricing_plan_id":"free"},{"bike_id":"5502deba-c151-4d5d-b424-ed0b6955faa2","system_id":"levelo_inurba_marseille","lat":43.294314,"lon":5.397498,"is_reserved":false,"is_disabled":false,"rental_uris":{"android":"levelo://app?vid=5502deba-c151-4d5d-b424-ed0b6955faa2","ios":"levelo://app?vid=5502deba-c151-4d5d-b424-ed0b6955faa2"},"vehicle_type_id":"4","last_reported":1703689601,"current_range_meters":16400,"station_id":"ce4bh3h2rcd13ifvqdo0","pricing_plan_id":"free"},{"bike_id":"0ab4666b-bf20-4a52-9edf-f7ba1ebba282","system_id":"levelo_inurba_marseille","lat":43.294314,"lon":5.397498,"is_reserved":false,"is_disabled":false,"rental_uris":{"android":"levelo://app?vid=0ab4666b-bf20-4a52-9edf-f7ba1ebba282","ios":"levelo://app?vid=0ab4666b-bf20-4a52-9edf-f7ba1ebba282"},"vehicle_type_id":"4","last_reported":1703689601,"current_range_meters":17600,"station_id":"ce4bh3h2rcd13ifvqdo0","pricing_plan_id":"free"},{"bike_id":"7119845d-00aa-4d9f-be8c-fc97d41f1380","system_id":"levelo_inurba_marseille","lat":43.32904,"lon":5.39972,"is_reserved":false,"is_disabled":false,"rental_uris":{"android":"levelo://app?vid=7119845d-00aa-4d9f-be8c-fc97d41f1380","ios":"levelo://app?vid=7119845d-00aa-4d9f-be8c-fc97d41f1380"},"vehicle_type_id":"4","last_reported":1703689601,"current_range_meters":20800,"station_id":"","pricing_plan_id":"free"},{"bike_id":"cdb39455-279c-4931-9a1a-50fb7176a1e0","system_id":"levelo_inurba_marseille","lat":43.294314,"lon":5.397498,"is_reserved":false,"is_disabled":false,"rental_uris":{"android":"levelo://app?vid=cdb39455-279c-4931-9a1a-50fb7176a1e0","ios":"levelo://app?vid=cdb39455-279c-4931-9a1a-50fb7176a1e0"},"vehicle_type_id":"4","last_reported":1703689601,"current_range_meters":7200,"station_id":"ce4bh3h2rcd13ifvqdo0","pricing_plan_id":"free"},{"bike_id":"774c18f5-2070-4236-8e10-6e3669bd8f11","system_id":"levelo_inurba_marseille","lat":43.285848,"lon":5.350787,"is_reserved":false,"is_disabled":false,"rental_uris":{"android":"levelo://app?vid=774c18f5-2070-4236-8e10-6e3669bd8f11","ios":"levelo://app?vid=774c18f5-2070-4236-8e10-6e3669bd8f11"},"vehicle_type_id":"4","last_reported":1703689601,"current_range_meters":16800,"station_id":"ce4bhch2rcd13ifvqeug","pricing_plan_id":"free"},{"bike_id":"653cc390-f554-4b40-b516-481d3cf5e380","system_id":"levelo_inurba_marseille","lat":43.285856,"lon":5.350771,"is_reserved":false,"is_disabled":false,"rental_uris":{"android":"levelo://app?vid=653cc390-f554-4b40-b516-481d3cf5e380","ios":"levelo://app?vid=653cc390-f554-4b40-b516-481d3cf5e380"},"vehicle_type_id":"4","last_reported":1703689601,"current_range_meters":14000,"station_id":"ce4bhch2rcd13ifvqeug","pricing_plan_id":"free"},{"bike_id":"0316090b-c9d7-4467-915a-295b044fbfee","system_id":"levelo_inurba_marseille","lat":43.283998,"lon":5.375062,"is_reserved":false,"is_disabled":false,"rental_uris":{"android":"levelo://app?vid=0316090b-c9d7-4467-915a-295b044fbfee","ios":"levelo://app?vid=0316090b-c9d7-4467-915a-295b044fbfee"},"vehicle_type_id":"4","last_reported":1703689601,"current_range_meters":31600,"station_id":"ce4bh412rcd13ifvqds0","pricing_plan_id":"free"},{"bike_id":"d7bea775-b801-4a8d-a719-34d127f24d01","system_id":"levelo_inurba_marseille","lat":43.283998,"lon":5.375062,"is_reserved":false,"is_disabled":false,"rental_uris":{"android":"levelo://app?vid=d7bea775-b801-4a8d-a719-34d127f24d01","ios":"levelo://app?vid=d7bea775-b801-4a8d-a719-34d127f24d01"},"vehicle_type_id":"4","last_reported":1703689601,"current_range_meters":18000,"station_id":"ce4bh412rcd13ifvqds0","pricing_plan_id":"free"},{"bike_id":"cdb63b9a-d087-4bcc-9202-4f3862241a13","system_id":"levelo_inurba_marseille","lat":43.283998,"lon":5.375062,"is_reserved":false,"is_disabled":false,"rental_uris":{"android":"levelo://app?vid=cdb63b9a-d087-4bcc-9202-4f3862241a13","ios":"levelo://app?vid=cdb63b9a-d087-4bcc-9202-4f3862241a13"},"vehicle_type_id":"4","last_reported":1703689601,"current_range_meters":19600,"station_id":"ce4bh412rcd13ifvqds0","pricing_plan_id":"free"},{"bike_id":"2342d79d-d847-4ff2-b376-afca40a1c0af","system_id":"levelo_inurba_marseille","lat":43.295713,"lon":5.399639,"is_reserved":false,"is_disabled":false,"rental_uris":{"android":"levelo://app?vid=2342d79d-d847-4ff2-b376-afca40a1c0af","ios":"levelo://app?vid=2342d79d-d847-4ff2-b376-afca40a1c0af"},"vehicle_type_id":"4","last_reported":1703689601,"current_range_meters":26000,"station_id":"ce4bh312rcd13ifvqdj0","pricing_plan_id":"free"},{"bike_id":"85a69208-e55f-476d-8474-4d68de385927","system_id":"levelo_inurba_marseille","lat":43.283998,"lon":5.375062,"is_reserved":false,"is_disabled":false,"rental_uris":{"android":"levelo://app?vid=85a69208-e55f-476d-8474-4d68de385927","ios":"levelo://app?vid=85a69208-e55f-476d-8474-4d68de385927"},"vehicle_type_id":"4","last_reported":1703689601,"current_range_meters":19600,"station_id":"ce4bh412rcd13ifvqds0","pricing_plan_id":"free"},{"bike_id":"92dfc673-e718-46a1-b62e-f5f6548945d2","system_id":"levelo_inurba_marseille","lat":43.283998,"lon":5.375062,"is_reserved":false,"is_disabled":false,"rental_uris":{"android":"levelo://app?vid=92dfc673-e718-46a1-b62e-f5f6548945d2","ios":"levelo://app?vid=92dfc673-e718-46a1-b62e-f5f6548945d2"},"vehicle_type_id":"4","last_reported":1703689601,"current_range_meters":30400,"station_id":"ce4bh412rcd13ifvqds0","pricing_plan_id":"free"},{"bike_id":"370cccf7-c9ba-46c2-819b-c8e8cacc4c21","system_id":"levelo_inurba_marseille","lat":43.33208,"lon":5.39823,"is_reserved":false,"is_disabled":false,"rental_uris":{"android":"levelo://app?vid=370cccf7-c9ba-46c2-819b-c8e8cacc4c21","ios":"levelo://app?vid=370cccf7-c9ba-46c2-819b-c8e8cacc4c21"},"vehicle_type_id":"4","last_reported":1703689601,"current_range_meters":18000,"station_id":"","pricing_plan_id":"free"},{"bike_id":"769019c4-eb9e-4a31-95b4-3ef192cc753f","system_id":"levelo_inurba_marseille","lat":43.28741,"lon":5.38986,"is_reserved":false,"is_disabled":false,"rental_uris":{"android":"levelo://app?vid=769019c4-eb9e-4a31-95b4-3ef192cc753f","ios":"levelo://app?vid=769019c4-eb9e-4a31-95b4-3ef192cc753f"},"vehicle_type_id":"4","last_reported":1703689601,"current_range_meters":2400,"station_id":"","pricing_plan_id":"free"},{"bike_id":"c7c8ccaa-d6d5-4917-845e-623b7ee4bd16","system_id":"levelo_inurba_marseille","lat":43.284793,"lon":5.384113,"is_reserved":false,"is_disabled":false,"rental_uris":{"android":"levelo://app?vid=c7c8ccaa-d6d5-4917-845e-623b7ee4bd16","ios":"levelo://app?vid=c7c8ccaa-d6d5-4917-845e-623b7ee4bd16"},"vehicle_type_id":"4","last_reported":1703689601,"current_range_meters":5200,"station_id":"ce4bh512rcd13ifvqe3g","pricing_plan_id":"free"},{"bike_id":"49b1c88b-18f4-45e6-8539-960a1d0da850","system_id":"levelo_inurba_marseille","lat":43.33717,"lon":5.391857,"is_reserved":false,"is_disabled":false,"rental_uris":{"android":"levelo://app?vid=49b1c88b-18f4-45e6-8539-960a1d0da850","ios":"levelo://app?vid=49b1c88b-18f4-45e6-8539-960a1d0da850"},"vehicle_type_id":"4","last_reported":1703689601,"current_range_meters":28400,"station_id":"ce4bhr92rcd13ifvqhsg","pricing_plan_id":"free"},{"bike_id":"8865aa9a-2b57-4a92-a147-c83ce68928ba","system_id":"levelo_inurba_marseille","lat":43.284793,"lon":5.384119,"is_reserved":false,"is_disabled":false,"rental_uris":{"android":"levelo://app?vid=8865aa9a-2b57-4a92-a147-c83ce68928ba","ios":"levelo://app?vid=8865aa9a-2b57-4a92-a147-c83ce68928ba"},"vehicle_type_id":"4","last_reported":1703689601,"current_range_meters":28000,"station_id":"ce4bh512rcd13ifvqe3g","pricing_plan_id":"free"},{"bike_id":"e0fdeb00-e73e-46c8-9f96-c7538d648e96","system_id":"levelo_inurba_marseille","lat":43.284793,"lon":5.384113,"is_reserved":false,"is_disabled":false,"rental_uris":{"android":"levelo://app?vid=e0fdeb00-e73e-46c8-9f96-c7538d648e96","ios":"levelo://app?vid=e0fdeb00-e73e-46c8-9f96-c7538d648e96"},"vehicle_type_id":"4","last_reported":1703689601,"current_range_meters":5600,"station_id":"ce4bh512rcd13ifvqe3g","pricing_plan_id":"free"},{"bike_id":"1c5237de-b7d3-408c-a61f-d6c253d3ac49","system_id":"levelo_inurba_marseille","lat":43.284793,"lon":5.384113,"is_reserved":false,"is_disabled":false,"rental_uris":{"android":"levelo://app?vid=1c5237de-b7d3-408c-a61f-d6c253d3ac49","ios":"levelo://app?vid=1c5237de-b7d3-408c-a61f-d6c253d3ac49"},"vehicle_type_id":"4","last_reported":1703689601,"current_range_meters":26400,"station_id":"ce4bh512rcd13ifvqe3g","pricing_plan_id":"free"},{"bike_id":"451bd9c9-0358-4cb1-ad9b-641191002563","system_id":"levelo_inurba_marseille","lat":43.284787,"lon":5.384116,"is_reserved":false,"is_disabled":false,"rental_uris":{"android":"levelo://app?vid=451bd9c9-0358-4cb1-ad9b-641191002563","ios":"levelo://app?vid=451bd9c9-0358-4cb1-ad9b-641191002563"},"vehicle_type_id":"4","last_reported":1703689601,"current_range_meters":27600,"station_id":"ce4bh512rcd13ifvqe3g","pricing_plan_id":"free"},{"bike_id":"9427769c-92c5-40ae-a233-995be376db33","system_id":"levelo_inurba_marseille","lat":43.28456,"lon":5.38407,"is_reserved":false,"is_disabled":false,"rental_uris":{"android":"levelo://app?vid=9427769c-92c5-40ae-a233-995be376db33","ios":"levelo://app?vid=9427769c-92c5-40ae-a233-995be376db33"},"vehicle_type_id":"4","last_reported":1703689601,"current_range_meters":17600,"station_id":"ce4bh512rcd13ifvqe3g","pricing_plan_id":"free"},{"bike_id":"b656be9b-a244-4c51-8a52-54c1000fd10f","system_id":"levelo_inurba_marseille","lat":43.283494,"lon":5.380945,"is_reserved":false,"is_disabled":false,"rental_uris":{"android":"levelo://app?vid=b656be9b-a244-4c51-8a52-54c1000fd10f","ios":"levelo://app?vid=b656be9b-a244-4c51-8a52-54c1000fd10f"},"vehicle_type_id":"4","last_reported":1703689601,"current_range_meters":27600,"station_id":"ce4bh412rcd13ifvqdr0","pricing_plan_id":"free"},{"bike_id":"5461f1d9-29fb-4a1d-8529-d52b54e22948","system_id":"levelo_inurba_marseille","lat":43.283498,"lon":5.380948,"is_reserved":false,"is_disabled":false,"rental_uris":{"android":"levelo://app?vid=5461f1d9-29fb-4a1d-8529-d52b54e22948","ios":"levelo://app?vid=5461f1d9-29fb-4a1d-8529-d52b54e22948"},"vehicle_type_id":"4","last_reported":1703689601,"current_range_meters":19200,"station_id":"ce4bh412rcd13ifvqdr0","pricing_plan_id":"free"},{"bike_id":"e485450b-2736-4f4c-b94b-0da5a69b88aa","system_id":"levelo_inurba_marseille","lat":43.33385,"lon":5.39822,"is_reserved":false,"is_disabled":false,"rental_uris":{"android":"levelo://app?vid=e485450b-2736-4f4c-b94b-0da5a69b88aa","ios":"levelo://app?vid=e485450b-2736-4f4c-b94b-0da5a69b88aa"},"vehicle_type_id":"4","last_reported":1703689601,"current_range_meters":18400,"station_id":"","pricing_plan_id":"free"},{"bike_id":"29be96c4-8a7c-422e-9442-784d28e24ba6","system_id":"levelo_inurba_marseille","lat":43.28425,"lon":5.34993,"is_reserved":false,"is_disabled":false,"rental_uris":{"android":"levelo://app?vid=29be96c4-8a7c-422e-9442-784d28e24ba6","ios":"levelo://app?vid=29be96c4-8a7c-422e-9442-784d28e24ba6"},"vehicle_type_id":"4","last_reported":1703689601,"current_range_meters":26000,"station_id":"ce4bhbh2rcd13ifvqepg","pricing_plan_id":"free"},{"bike_id":"8b53f325-6522-48a0-9cbd-fe6b30631221","system_id":"levelo_inurba_marseille","lat":43.284217,"lon":5.349697,"is_reserved":false,"is_disabled":false,"rental_uris":{"android":"levelo://app?vid=8b53f325-6522-48a0-9cbd-fe6b30631221","ios":"levelo://app?vid=8b53f325-6522-48a0-9cbd-fe6b30631221"},"vehicle_type_id":"4","last_reported":1703689601,"current_range_meters":5600,"station_id":"ce4bhbh2rcd13ifvqepg","pricing_plan_id":"free"},{"bike_id":"611c83d8-582c-4051-8040-2639a99a7223","system_id":"levelo_inurba_marseille","lat":43.284219,"lon":5.3497,"is_reserved":false,"is_disabled":false,"rental_uris":{"android":"levelo://app?vid=611c83d8-582c-4051-8040-2639a99a7223","ios":"levelo://app?vid=611c83d8-582c-4051-8040-2639a99a7223"},"vehicle_type_id":"4","last_reported":1703689601,"current_range_meters":28800,"station_id":"ce4bhbh2rcd13ifvqepg","pricing_plan_id":"free"},{"bike_id":"b5c6f71d-8038-4cc3-acb9-4741dd10c5e6","system_id":"levelo_inurba_marseille","lat":43.284214,"lon":5.349706,"is_reserved":false,"is_disabled":false,"rental_uris":{"android":"levelo://app?vid=b5c6f71d-8038-4cc3-acb9-4741dd10c5e6","ios":"levelo://app?vid=b5c6f71d-8038-4cc3-acb9-4741dd10c5e6"},"vehicle_type_id":"4","last_reported":1703689601,"current_range_meters":27600,"station_id":"ce4bhbh2rcd13ifvqepg","pricing_plan_id":"free"},{"bike_id":"3e074324-e504-47b6-b95a-b5c868882bb7","system_id":"levelo_inurba_marseille","lat":43.292724,"lon":5.401131,"is_reserved":false,"is_disabled":false,"rental_uris":{"android":"levelo://app?vid=3e074324-e504-47b6-b95a-b5c868882bb7","ios":"levelo://app?vid=3e074324-e504-47b6-b95a-b5c868882bb7"},"vehicle_type_id":"4","last_reported":1703689601,"current_range_meters":8800,"station_id":"ce4bh312rcd13ifvqdk0","pricing_plan_id":"free"},{"bike_id":"62b15d91-0cc5-4474-ac3b-90ce27f1c91f","system_id":"levelo_inurba_marseille","lat":43.28277,"lon":5.35071,"is_reserved":false,"is_disabled":false,"rental_uris":{"android":"levelo://app?vid=62b15d91-0cc5-4474-ac3b-90ce27f1c91f","ios":"levelo://app?vid=62b15d91-0cc5-4474-ac3b-90ce27f1c91f"},"vehicle_type_id":"4","last_reported":1703689601,"current_range_meters":16000,"station_id":"ce4bhbp2rcd13ifvqerg","pricing_plan_id":"free"},{"bike_id":"3a74cfd9-bc3b-44a5-9a4c-116edcb062fa","system_id":"levelo_inurba_marseille","lat":43.281044,"lon":5.378308,"is_reserved":false,"is_disabled":false,"rental_uris":{"android":"levelo://app?vid=3a74cfd9-bc3b-44a5-9a4c-116edcb062fa","ios":"levelo://app?vid=3a74cfd9-bc3b-44a5-9a4c-116edcb062fa"},"vehicle_type_id":"4","last_reported":1703689601,"current_range_meters":26000,"station_id":"ce4bha12rcd13ifvqee0","pricing_plan_id":"free"},{"bike_id":"1038e9cf-c9bc-4448-882c-c5f16453c99a","system_id":"levelo_inurba_marseille","lat":43.282744,"lon":5.350533,"is_reserved":false,"is_disabled":false,"rental_uris":{"android":"levelo://app?vid=1038e9cf-c9bc-4448-882c-c5f16453c99a","ios":"levelo://app?vid=1038e9cf-c9bc-4448-882c-c5f16453c99a"},"vehicle_type_id":"4","last_reported":1703689601,"current_range_meters":31600,"station_id":"ce4bhbp2rcd13ifvqerg","pricing_plan_id":"free"},{"bike_id":"2cf51f8f-6489-4d0a-a107-105b12366eb4","system_id":"levelo_inurba_marseille","lat":43.28267,"lon":5.35068,"is_reserved":false,"is_disabled":false,"rental_uris":{"android":"levelo://app?vid=2cf51f8f-6489-4d0a-a107-105b12366eb4","ios":"levelo://app?vid=2cf51f8f-6489-4d0a-a107-105b12366eb4"},"vehicle_type_id":"4","last_reported":1703689601,"current_range_meters":13200,"station_id":"ce4bhbp2rcd13ifvqerg","pricing_plan_id":"free"},{"bike_id":"fbe80c66-9d03-4ab7-aec0-24d826a89bd7","system_id":"levelo_inurba_marseille","lat":43.283502,"lon":5.386471,"is_reserved":false,"is_disabled":false,"rental_uris":{"android":"levelo://app?vid=fbe80c66-9d03-4ab7-aec0-24d826a89bd7","ios":"levelo://app?vid=fbe80c66-9d03-4ab7-aec0-24d826a89bd7"},"vehicle_type_id":"4","last_reported":1703689601,"current_range_meters":22000,"station_id":"ce4bh492rcd13ifvqdvg","pricing_plan_id":"free"},{"bike_id":"7bd9a1b8-a674-42a7-ad4e-5b4ff6674cd8","system_id":"levelo_inurba_marseille","lat":43.283502,"lon":5.386471,"is_reserved":false,"is_disabled":false,"rental_uris":{"android":"levelo://app?vid=7bd9a1b8-a674-42a7-ad4e-5b4ff6674cd8","ios":"levelo://app?vid=7bd9a1b8-a674-42a7-ad4e-5b4ff6674cd8"},"vehicle_type_id":"4","last_reported":1703689601,"current_range_meters":28800,"station_id":"ce4bh492rcd13ifvqdvg","pricing_plan_id":"free"},{"bike_id":"f3215e3a-43f4-4b72-8e79-df3713dfa20d","system_id":"levelo_inurba_marseille","lat":43.283502,"lon":5.386471,"is_reserved":false,"is_disabled":false,"rental_uris":{"android":"levelo://app?vid=f3215e3a-43f4-4b72-8e79-df3713dfa20d","ios":"levelo://app?vid=f3215e3a-43f4-4b72-8e79-df3713dfa20d"},"vehicle_type_id":"4","last_reported":1703689601,"current_range_meters":2400,"station_id":"ce4bh492rcd13ifvqdvg","pricing_plan_id":"free"},{"bike_id":"c76c9d00-3daa-4be1-8746-1522b4d2a218","system_id":"levelo_inurba_marseille","lat":43.290412,"lon":5.399633,"is_reserved":false,"is_disabled":false,"rental_uris":{"android":"levelo://app?vid=c76c9d00-3daa-4be1-8746-1522b4d2a218","ios":"levelo://app?vid=c76c9d00-3daa-4be1-8746-1522b4d2a218"},"vehicle_type_id":"4","last_reported":1703689601,"current_range_meters":30400,"station_id":"ce4bh392rcd13ifvqdm0","pricing_plan_id":"free"},{"bike_id":"17204cf8-c840-4d71-a9c2-b527a9754092","system_id":"levelo_inurba_marseille","lat":43.284462,"lon":5.392121,"is_reserved":false,"is_disabled":false,"rental_uris":{"android":"levelo://app?vid=17204cf8-c840-4d71-a9c2-b527a9754092","ios":"levelo://app?vid=17204cf8-c840-4d71-a9c2-b527a9754092"},"vehicle_type_id":"4","last_reported":1703689601,"current_range_meters":4800,"station_id":"ce4bhoh2rcd13ifvqh5g","pricing_plan_id":"free"},{"bike_id":"0dc1b787-9a31-4303-b73e-d83403e5a592","system_id":"levelo_inurba_marseille","lat":43.284462,"lon":5.392121,"is_reserved":false,"is_disabled":false,"rental_uris":{"android":"levelo://app?vid=0dc1b787-9a31-4303-b73e-d83403e5a592","ios":"levelo://app?vid=0dc1b787-9a31-4303-b73e-d83403e5a592"},"vehicle_type_id":"4","last_reported":1703689601,"current_range_meters":6400,"station_id":"ce4bhoh2rcd13ifvqh5g","pricing_plan_id":"free"},{"bike_id":"dd8d6bab-9427-4615-8dbc-fcdbb4400c5b","system_id":"levelo_inurba_marseille","lat":43.284462,"lon":5.392121,"is_reserved":false,"is_disabled":false,"rental_uris":{"android":"levelo://app?vid=dd8d6bab-9427-4615-8dbc-fcdbb4400c5b","ios":"levelo://app?vid=dd8d6bab-9427-4615-8dbc-fcdbb4400c5b"},"vehicle_type_id":"4","last_reported":1703689601,"current_range_meters":25200,"station_id":"ce4bhoh2rcd13ifvqh5g","pricing_plan_id":"free"},{"bike_id":"475d19d3-f75b-4d7c-b3b3-99f9449b2106","system_id":"levelo_inurba_marseille","lat":43.284462,"lon":5.392121,"is_reserved":false,"is_disabled":false,"rental_uris":{"android":"levelo://app?vid=475d19d3-f75b-4d7c-b3b3-99f9449b2106","ios":"levelo://app?vid=475d19d3-f75b-4d7c-b3b3-99f9449b2106"},"vehicle_type_id":"4","last_reported":1703689601,"current_range_meters":12800,"station_id":"ce4bhoh2rcd13ifvqh5g","pricing_plan_id":"free"},{"bike_id":"5e0d68ce-7025-4e78-b380-5c234ff3c49b","system_id":"levelo_inurba_marseille","lat":43.28573,"lon":5.394992,"is_reserved":false,"is_disabled":false,"rental_uris":{"android":"levelo://app?vid=5e0d68ce-7025-4e78-b380-5c234ff3c49b","ios":"levelo://app?vid=5e0d68ce-7025-4e78-b380-5c234ff3c49b"},"vehicle_type_id":"4","last_reported":1703689601,"current_range_meters":30800,"station_id":"ce4bh292rcd13ifvqdg0","pricing_plan_id":"free"},{"bike_id":"50f5f9f1-88bd-4e16-9dd2-87d1d8a558fa","system_id":"levelo_inurba_marseille","lat":43.326605,"lon":5.409903,"is_reserved":false,"is_disabled":false,"rental_uris":{"android":"levelo://app?vid=50f5f9f1-88bd-4e16-9dd2-87d1d8a558fa","ios":"levelo://app?vid=50f5f9f1-88bd-4e16-9dd2-87d1d8a558fa"},"vehicle_type_id":"4","last_reported":1703689601,"current_range_meters":19600,"station_id":"ce4bhpp2rcd13ifvqhgg","pricing_plan_id":"free"},{"bike_id":"c9d73eed-5888-4e39-be0e-da9a3b48d0b3","system_id":"levelo_inurba_marseille","lat":43.283633,"lon":5.392028,"is_reserved":false,"is_disabled":false,"rental_uris":{"android":"levelo://app?vid=c9d73eed-5888-4e39-be0e-da9a3b48d0b3","ios":"levelo://app?vid=c9d73eed-5888-4e39-be0e-da9a3b48d0b3"},"vehicle_type_id":"4","last_reported":1703689601,"current_range_meters":22400,"station_id":"","pricing_plan_id":"free"},{"bike_id":"a4a5ccde-62af-4c28-95c1-d68b50703509","system_id":"levelo_inurba_marseille","lat":43.32672,"lon":5.41037,"is_reserved":false,"is_disabled":false,"rental_uris":{"android":"levelo://app?vid=a4a5ccde-62af-4c28-95c1-d68b50703509","ios":"levelo://app?vid=a4a5ccde-62af-4c28-95c1-d68b50703509"},"vehicle_type_id":"4","last_reported":1703689601,"current_range_meters":26000,"station_id":"ce4bhpp2rcd13ifvqhgg","pricing_plan_id":"free"},{"bike_id":"f7b0ffed-dd9c-4a5e-8afd-73a5ba21531d","system_id":"levelo_inurba_marseille","lat":43.304188,"lon":5.412904,"is_reserved":false,"is_disabled":false,"rental_uris":{"android":"levelo://app?vid=f7b0ffed-dd9c-4a5e-8afd-73a5ba21531d","ios":"levelo://app?vid=f7b0ffed-dd9c-4a5e-8afd-73a5ba21531d"},"vehicle_type_id":"4","last_reported":1703689601,"current_range_meters":28000,"station_id":"ce4bhop2rcd13ifvqh8g","pricing_plan_id":"free"},{"bike_id":"00fad0ce-589e-4e38-ab50-946323d11194","system_id":"levelo_inurba_marseille","lat":43.287154,"lon":5.399979,"is_reserved":false,"is_disabled":false,"rental_uris":{"android":"levelo://app?vid=00fad0ce-589e-4e38-ab50-946323d11194","ios":"levelo://app?vid=00fad0ce-589e-4e38-ab50-946323d11194"},"vehicle_type_id":"4","last_reported":1703689601,"current_range_meters":13600,"station_id":"ce4bho92rcd13ifvqh3g","pricing_plan_id":"free"},{"bike_id":"baa4941f-f0c2-4347-89f7-bd9dafbab2f3","system_id":"levelo_inurba_marseille","lat":43.320045,"lon":5.415046,"is_reserved":false,"is_disabled":false,"rental_uris":{"android":"levelo://app?vid=baa4941f-f0c2-4347-89f7-bd9dafbab2f3","ios":"levelo://app?vid=baa4941f-f0c2-4347-89f7-bd9dafbab2f3"},"vehicle_type_id":"4","last_reported":1703689601,"current_range_meters":31600,"station_id":"ce4bhq92rcd13ifvqhkg","pricing_plan_id":"free"},{"bike_id":"3081593e-f160-42c7-a5f1-30ca2ae173a0","system_id":"levelo_inurba_marseille","lat":43.279742,"lon":5.38744,"is_reserved":false,"is_disabled":false,"rental_uris":{"android":"levelo://app?vid=3081593e-f160-42c7-a5f1-30ca2ae173a0","ios":"levelo://app?vid=3081593e-f160-42c7-a5f1-30ca2ae173a0"},"vehicle_type_id":"4","last_reported":1703689601,"current_range_meters":26400,"station_id":"ce4bhg12rcd13ifvqf80","pricing_plan_id":"free"},{"bike_id":"ba1cc8a2-1c33-4e9e-bba8-3b64c225b2a2","system_id":"levelo_inurba_marseille","lat":43.292569,"lon":5.409107,"is_reserved":false,"is_disabled":false,"rental_uris":{"android":"levelo://app?vid=ba1cc8a2-1c33-4e9e-bba8-3b64c225b2a2","ios":"levelo://app?vid=ba1cc8a2-1c33-4e9e-bba8-3b64c225b2a2"},"vehicle_type_id":"4","last_reported":1703689601,"current_range_meters":0,"station_id":"ce4bh192rcd13ifvqdc0","pricing_plan_id":"free"},{"bike_id":"c45a87f0-ec58-44d2-980c-70c0561feff1","system_id":"levelo_inurba_marseille","lat":43.292569,"lon":5.409107,"is_reserved":false,"is_disabled":false,"rental_uris":{"android":"levelo://app?vid=c45a87f0-ec58-44d2-980c-70c0561feff1","ios":"levelo://app?vid=c45a87f0-ec58-44d2-980c-70c0561feff1"},"vehicle_type_id":"4","last_reported":1703689601,"current_range_meters":20400,"station_id":"ce4bh192rcd13ifvqdc0","pricing_plan_id":"free"},{"bike_id":"63324265-fc07-487f-b91f-814bdc148cdc","system_id":"levelo_inurba_marseille","lat":43.276179,"lon":5.361009,"is_reserved":false,"is_disabled":false,"rental_uris":{"android":"levelo://app?vid=63324265-fc07-487f-b91f-814bdc148cdc","ios":"levelo://app?vid=63324265-fc07-487f-b91f-814bdc148cdc"},"vehicle_type_id":"4","last_reported":1703689601,"current_range_meters":3600,"station_id":"ce4bgj92rcd13ifvqbe0","pricing_plan_id":"free"},{"bike_id":"58fc3a68-db05-469e-80df-da54c38579af","system_id":"levelo_inurba_marseille","lat":43.280784,"lon":5.396622,"is_reserved":false,"is_disabled":false,"rental_uris":{"android":"levelo://app?vid=58fc3a68-db05-469e-80df-da54c38579af","ios":"levelo://app?vid=58fc3a68-db05-469e-80df-da54c38579af"},"vehicle_type_id":"4","last_reported":1703689601,"current_range_meters":27600,"station_id":"ce4bho12rcd13ifvqh2g","pricing_plan_id":"free"},{"bike_id":"25942bb0-b36d-4798-85fb-8742c4290c24","system_id":"levelo_inurba_marseille","lat":43.280784,"lon":5.396622,"is_reserved":false,"is_disabled":false,"rental_uris":{"android":"levelo://app?vid=25942bb0-b36d-4798-85fb-8742c4290c24","ios":"levelo://app?vid=25942bb0-b36d-4798-85fb-8742c4290c24"},"vehicle_type_id":"4","last_reported":1703689601,"current_range_meters":28400,"station_id":"ce4bho12rcd13ifvqh2g","pricing_plan_id":"free"},{"bike_id":"7fe023ff-e0ac-4f01-9f56-563010cc4eb9","system_id":"levelo_inurba_marseille","lat":43.280784,"lon":5.396622,"is_reserved":false,"is_disabled":false,"rental_uris":{"android":"levelo://app?vid=7fe023ff-e0ac-4f01-9f56-563010cc4eb9","ios":"levelo://app?vid=7fe023ff-e0ac-4f01-9f56-563010cc4eb9"},"vehicle_type_id":"4","last_reported":1703689601,"current_range_meters":24000,"station_id":"ce4bho12rcd13ifvqh2g","pricing_plan_id":"free"},{"bike_id":"e0218d20-9552-4779-a19f-f85e36cf46c5","system_id":"levelo_inurba_marseille","lat":43.280784,"lon":5.396622,"is_reserved":false,"is_disabled":false,"rental_uris":{"android":"levelo://app?vid=e0218d20-9552-4779-a19f-f85e36cf46c5","ios":"levelo://app?vid=e0218d20-9552-4779-a19f-f85e36cf46c5"},"vehicle_type_id":"4","last_reported":1703689601,"current_range_meters":16000,"station_id":"ce4bho12rcd13ifvqh2g","pricing_plan_id":"free"},{"bike_id":"07f2d084-bf1a-4fd8-a25a-a1422c9e0271","system_id":"levelo_inurba_marseille","lat":43.278399,"lon":5.392139,"is_reserved":false,"is_disabled":false,"rental_uris":{"android":"levelo://app?vid=07f2d084-bf1a-4fd8-a25a-a1422c9e0271","ios":"levelo://app?vid=07f2d084-bf1a-4fd8-a25a-a1422c9e0271"},"vehicle_type_id":"4","last_reported":1703689601,"current_range_meters":25200,"station_id":"ce4bhjp2rcd13ifvqga0","pricing_plan_id":"free"},{"bike_id":"540d184b-98af-48e8-8a62-dcee3f1fd80e","system_id":"levelo_inurba_marseille","lat":43.278401,"lon":5.392152,"is_reserved":false,"is_disabled":false,"rental_uris":{"android":"levelo://app?vid=540d184b-98af-48e8-8a62-dcee3f1fd80e","ios":"levelo://app?vid=540d184b-98af-48e8-8a62-dcee3f1fd80e"},"vehicle_type_id":"4","last_reported":1703689601,"current_range_meters":12000,"station_id":"ce4bhjp2rcd13ifvqga0","pricing_plan_id":"free"},{"bike_id":"5a8b82f8-9994-4874-89a9-1e647a91eaf0","system_id":"levelo_inurba_marseille","lat":43.273609,"lon":5.362708,"is_reserved":false,"is_disabled":false,"rental_uris":{"android":"levelo://app?vid=5a8b82f8-9994-4874-89a9-1e647a91eaf0","ios":"levelo://app?vid=5a8b82f8-9994-4874-89a9-1e647a91eaf0"},"vehicle_type_id":"4","last_reported":1703689601,"current_range_meters":6400,"station_id":"ce4bhbh2rcd13ifvqeo0","pricing_plan_id":"free"},{"bike_id":"0609db92-e176-4cce-a001-d1f1726a4874","system_id":"levelo_inurba_marseille","lat":43.275625,"lon":5.384392,"is_reserved":false,"is_disabled":false,"rental_uris":{"android":"levelo://app?vid=0609db92-e176-4cce-a001-d1f1726a4874","ios":"levelo://app?vid=0609db92-e176-4cce-a001-d1f1726a4874"},"vehicle_type_id":"4","last_reported":1703689601,"current_range_meters":28800,"station_id":"ce4bhh92rcd13ifvqfi0","pricing_plan_id":"free"},{"bike_id":"07420988-1b2a-413c-9baf-8abcc9ce393e","system_id":"levelo_inurba_marseille","lat":43.276769,"lon":5.388787,"is_reserved":false,"is_disabled":false,"rental_uris":{"android":"levelo://app?vid=07420988-1b2a-413c-9baf-8abcc9ce393e","ios":"levelo://app?vid=07420988-1b2a-413c-9baf-8abcc9ce393e"},"vehicle_type_id":"4","last_reported":1703689601,"current_range_meters":31600,"station_id":"ce4bhi12rcd13ifvqfo0","pricing_plan_id":"free"},{"bike_id":"99911d44-47b6-4cb3-911d-336158b55a34","system_id":"levelo_inurba_marseille","lat":43.276771,"lon":5.388799,"is_reserved":false,"is_disabled":false,"rental_uris":{"android":"levelo://app?vid=99911d44-47b6-4cb3-911d-336158b55a34","ios":"levelo://app?vid=99911d44-47b6-4cb3-911d-336158b55a34"},"vehicle_type_id":"4","last_reported":1703689601,"current_range_meters":22400,"station_id":"ce4bhi12rcd13ifvqfo0","pricing_plan_id":"free"},{"bike_id":"8bc894b3-933b-4404-a006-f1ff6a38e7d4","system_id":"levelo_inurba_marseille","lat":43.276769,"lon":5.388787,"is_reserved":false,"is_disabled":false,"rental_uris":{"android":"levelo://app?vid=8bc894b3-933b-4404-a006-f1ff6a38e7d4","ios":"levelo://app?vid=8bc894b3-933b-4404-a006-f1ff6a38e7d4"},"vehicle_type_id":"4","last_reported":1703689601,"current_range_meters":24400,"station_id":"ce4bhi12rcd13ifvqfo0","pricing_plan_id":"free"},{"bike_id":"9b7c9227-2a85-4c97-a6c3-379ff93654d7","system_id":"levelo_inurba_marseille","lat":43.279975,"lon":5.40009,"is_reserved":false,"is_disabled":false,"rental_uris":{"android":"levelo://app?vid=9b7c9227-2a85-4c97-a6c3-379ff93654d7","ios":"levelo://app?vid=9b7c9227-2a85-4c97-a6c3-379ff93654d7"},"vehicle_type_id":"4","last_reported":1703689601,"current_range_meters":14400,"station_id":"ce4bho92rcd13ifvqh4g","pricing_plan_id":"free"},{"bike_id":"39e4a4de-7183-413c-90b9-af8b9fa11574","system_id":"levelo_inurba_marseille","lat":43.279975,"lon":5.40009,"is_reserved":false,"is_disabled":false,"rental_uris":{"android":"levelo://app?vid=39e4a4de-7183-413c-90b9-af8b9fa11574","ios":"levelo://app?vid=39e4a4de-7183-413c-90b9-af8b9fa11574"},"vehicle_type_id":"4","last_reported":1703689601,"current_range_meters":26000,"station_id":"ce4bho92rcd13ifvqh4g","pricing_plan_id":"free"},{"bike_id":"27bd0fb1-1faf-489f-b3a7-4ae03239416b","system_id":"levelo_inurba_marseille","lat":43.279975,"lon":5.40009,"is_reserved":false,"is_disabled":false,"rental_uris":{"android":"levelo://app?vid=27bd0fb1-1faf-489f-b3a7-4ae03239416b","ios":"levelo://app?vid=27bd0fb1-1faf-489f-b3a7-4ae03239416b"},"vehicle_type_id":"4","last_reported":1703689601,"current_range_meters":16800,"station_id":"ce4bho92rcd13ifvqh4g","pricing_plan_id":"free"},{"bike_id":"3883b015-0a68-4ac7-b528-4c81100d058c","system_id":"levelo_inurba_marseille","lat":43.31079,"lon":5.4243,"is_reserved":false,"is_disabled":false,"rental_uris":{"android":"levelo://app?vid=3883b015-0a68-4ac7-b528-4c81100d058c","ios":"levelo://app?vid=3883b015-0a68-4ac7-b528-4c81100d058c"},"vehicle_type_id":"4","last_reported":1703689601,"current_range_meters":8800,"station_id":"ce4bhp92rcd13ifvqhag","pricing_plan_id":"free"},{"bike_id":"658cd607-6078-4dcd-a4e7-bfb57d256032","system_id":"levelo_inurba_marseille","lat":43.31079,"lon":5.42431,"is_reserved":false,"is_disabled":false,"rental_uris":{"android":"levelo://app?vid=658cd607-6078-4dcd-a4e7-bfb57d256032","ios":"levelo://app?vid=658cd607-6078-4dcd-a4e7-bfb57d256032"},"vehicle_type_id":"4","last_reported":1703689601,"current_range_meters":26000,"station_id":"ce4bhp92rcd13ifvqhag","pricing_plan_id":"free"},{"bike_id":"b2974ce4-58ca-4652-8486-f4891c019db7","system_id":"levelo_inurba_marseille","lat":43.310785,"lon":5.424305,"is_reserved":false,"is_disabled":false,"rental_uris":{"android":"levelo://app?vid=b2974ce4-58ca-4652-8486-f4891c019db7","ios":"levelo://app?vid=b2974ce4-58ca-4652-8486-f4891c019db7"},"vehicle_type_id":"4","last_reported":1703689601,"current_range_meters":26000,"station_id":"ce4bhp92rcd13ifvqhag","pricing_plan_id":"free"},{"bike_id":"06dff4b7-34ec-49f3-84cc-5158fac7eedd","system_id":"levelo_inurba_marseille","lat":43.31085,"lon":5.42434,"is_reserved":false,"is_disabled":false,"rental_uris":{"android":"levelo://app?vid=06dff4b7-34ec-49f3-84cc-5158fac7eedd","ios":"levelo://app?vid=06dff4b7-34ec-49f3-84cc-5158fac7eedd"},"vehicle_type_id":"4","last_reported":1703689601,"current_range_meters":7600,"station_id":"ce4bhp92rcd13ifvqhag","pricing_plan_id":"free"},{"bike_id":"a1b09ca3-f72b-4fa1-a6d9-44acdefd8154","system_id":"levelo_inurba_marseille","lat":43.31082,"lon":5.42438,"is_reserved":false,"is_disabled":false,"rental_uris":{"android":"levelo://app?vid=a1b09ca3-f72b-4fa1-a6d9-44acdefd8154","ios":"levelo://app?vid=a1b09ca3-f72b-4fa1-a6d9-44acdefd8154"},"vehicle_type_id":"4","last_reported":1703689601,"current_range_meters":22800,"station_id":"ce4bhp92rcd13ifvqhag","pricing_plan_id":"free"},{"bike_id":"7800ed68-be44-4bc6-9baf-8fc3a6e3cf49","system_id":"levelo_inurba_marseille","lat":43.274103,"lon":5.394016,"is_reserved":false,"is_disabled":false,"rental_uris":{"android":"levelo://app?vid=7800ed68-be44-4bc6-9baf-8fc3a6e3cf49","ios":"levelo://app?vid=7800ed68-be44-4bc6-9baf-8fc3a6e3cf49"},"vehicle_type_id":"4","last_reported":1703689601,"current_range_meters":26000,"station_id":"ce4bhdp2rcd13ifvqf20","pricing_plan_id":"free"},{"bike_id":"c45558ca-9652-41ec-8da9-2fc8b14361f1","system_id":"levelo_inurba_marseille","lat":43.304096,"lon":5.425385,"is_reserved":false,"is_disabled":false,"rental_uris":{"android":"levelo://app?vid=c45558ca-9652-41ec-8da9-2fc8b14361f1","ios":"levelo://app?vid=c45558ca-9652-41ec-8da9-2fc8b14361f1"},"vehicle_type_id":"4","last_reported":1703689601,"current_range_meters":29200,"station_id":"ce4bhoh2rcd13ifvqh6g","pricing_plan_id":"free"},{"bike_id":"3f4121fe-0fed-4216-90c6-3d3cf8f2061e","system_id":"levelo_inurba_marseille","lat":43.304096,"lon":5.425385,"is_reserved":false,"is_disabled":false,"rental_uris":{"android":"levelo://app?vid=3f4121fe-0fed-4216-90c6-3d3cf8f2061e","ios":"levelo://app?vid=3f4121fe-0fed-4216-90c6-3d3cf8f2061e"},"vehicle_type_id":"4","last_reported":1703689601,"current_range_meters":8400,"station_id":"ce4bhoh2rcd13ifvqh6g","pricing_plan_id":"free"},{"bike_id":"5dce59aa-68db-4936-9324-1bbfd670d2c1","system_id":"levelo_inurba_marseille","lat":43.304096,"lon":5.425385,"is_reserved":false,"is_disabled":false,"rental_uris":{"android":"levelo://app?vid=5dce59aa-68db-4936-9324-1bbfd670d2c1","ios":"levelo://app?vid=5dce59aa-68db-4936-9324-1bbfd670d2c1"},"vehicle_type_id":"4","last_reported":1703689601,"current_range_meters":13200,"station_id":"ce4bhoh2rcd13ifvqh6g","pricing_plan_id":"free"},{"bike_id":"6d735bdc-6834-49ef-ad58-2a1b73a15a49","system_id":"levelo_inurba_marseille","lat":43.295523,"lon":5.422926,"is_reserved":false,"is_disabled":false,"rental_uris":{"android":"levelo://app?vid=6d735bdc-6834-49ef-ad58-2a1b73a15a49","ios":"levelo://app?vid=6d735bdc-6834-49ef-ad58-2a1b73a15a49"},"vehicle_type_id":"4","last_reported":1703689601,"current_range_meters":30800,"station_id":"ce4bhph2rcd13ifvqhdg","pricing_plan_id":"free"},{"bike_id":"b3b92fe6-b208-4696-8621-033bbf104440","system_id":"levelo_inurba_marseille","lat":43.29552,"lon":5.42279,"is_reserved":false,"is_disabled":false,"rental_uris":{"android":"levelo://app?vid=b3b92fe6-b208-4696-8621-033bbf104440","ios":"levelo://app?vid=b3b92fe6-b208-4696-8621-033bbf104440"},"vehicle_type_id":"4","last_reported":1703689601,"current_range_meters":23200,"station_id":"ce4bhph2rcd13ifvqhdg","pricing_plan_id":"free"},{"bike_id":"5456a702-a979-42d5-b86e-c4b52fa3cf50","system_id":"levelo_inurba_marseille","lat":43.29556,"lon":5.42283,"is_reserved":false,"is_disabled":false,"rental_uris":{"android":"levelo://app?vid=5456a702-a979-42d5-b86e-c4b52fa3cf50","ios":"levelo://app?vid=5456a702-a979-42d5-b86e-c4b52fa3cf50"},"vehicle_type_id":"4","last_reported":1703689601,"current_range_meters":14800,"station_id":"ce4bhph2rcd13ifvqhdg","pricing_plan_id":"free"},{"bike_id":"b2af877c-8730-408b-a6da-cc78a4de17c9","system_id":"levelo_inurba_marseille","lat":43.29555,"lon":5.42283,"is_reserved":false,"is_disabled":false,"rental_uris":{"android":"levelo://app?vid=b2af877c-8730-408b-a6da-cc78a4de17c9","ios":"levelo://app?vid=b2af877c-8730-408b-a6da-cc78a4de17c9"},