{"last_updated":1707843945,"ttl":30,"version":"2.2","data":{"bikes":[{"bike_id":"25ad759b-50ec-4a2d-bc6b-ab39e2d85896","system_id":"levelo_inurba_marseille","lat":43.312239,"lon":5.368562,"is_reserved":false,"is_disabled":false,"rental_uris":{"android":"levelo://app?vid=25ad759b-50ec-4a2d-bc6b-ab39e2d85896","ios":"levelo://app?vid=25ad759b-50ec-4a2d-bc6b-ab39e2d85896"},"vehicle_type_id":"4","last_reported":1707843945,"current_range_meters":0,"station_id":"ce4bgl92rcd13ifvqbq0","pricing_plan_id":"cebpf4jnsgd1na2vs0mg"},{"bike_id":"941e1a41-0ea2-4c41-840f-58a9f8026d49","system_id":"levelo_inurba_marseille","lat":43.312274,"lon":5.368606,"is_reserved":false,"is_disabled":false,"rental_uris":{"android":"levelo://app?vid=941e1a41-0ea2-4c41-840f-58a9f8026d49","ios":"levelo://app?vid=941e1a41-0ea2-4c41-840f-58a9f8026d49"},"vehicle_type_id":"4","last_reported":1707843945,"current_range_meters":16400,"station_id":"ce4bgl92rcd13ifvqbq0","pricing_plan_id":"cebpf4jnsgd1na2vs0mg"},{"bike_id":"106de249-8d62-42ff-98e5-0393056a2ef9","system_id":"levelo_inurba_marseille","lat":43.299724,"lon":5.384848,"is_reserved":false,"is_disabled":false,"rental_uris":{"android":"levelo://app?vid=106de249-8d62-42ff-98e5-0393056a2ef9","ios":"levelo://app?vid=106de249-8d62-42ff-98e5-0393056a2ef9"},"vehicle_type_id":"4","last_reported":1707843945,"current_range_meters":30000,"station_id":"ce4bgj92rcd13ifvqbd0","pricing_plan_id":"cebpf4jnsgd1na2vs0mg"},{"bike_id":"7aa6bd73-78ad-48a2-b25f-b5bf764e0b45","system_id":"levelo_inurba_marseille","lat":43.314811,"lon":5.373103,"is_reserved":false,"is_disabled":false,"rental_uris":{"android":"levelo://app?vid=7aa6bd73-78ad-48a2-b25f-b5bf764e0b45","ios":"levelo://app?vid=7aa6bd73-78ad-48a2-b25f-b5bf764e0b45"},"vehicle_type_id":"4","last_reported":1707843945,"current_range_meters":28800,"station_id":"ce4bgt12rcd13ifvqcd0","pricing_plan_id":"cebpf4jnsgd1na2vs0mg"},{"bike_id":"a50a12b7-40d5-4516-804f-f42c3353be3b","system_id":"levelo_inurba_marseille","lat":43.31474,"lon":5.37315,"is_reserved":false,"is_disabled":false,"rental_uris":{"android":"levelo://app?vid=a50a12b7-40d5-4516-804f-f42c3353be3b","ios":"levelo://app?vid=a50a12b7-40d5-4516-804f-f42c3353be3b"},"vehicle_type_id":"4","last_reported":1707843945,"current_range_meters":0,"station_id":"ce4bgt12rcd13ifvqcd0","pricing_plan_id":"cebpf4jnsgd1na2vs0mg"},{"bike_id":"d8f892b8-c684-4c36-9571-5df856e951ba","system_id":"levelo_inurba_marseille","lat":43.309039,"lon":5.371797,"is_reserved":false,"is_disabled":false,"rental_uris":{"android":"levelo://app?vid=d8f892b8-c684-4c36-9571-5df856e951ba","ios":"levelo://app?vid=d8f892b8-c684-4c36-9571-5df856e951ba"},"vehicle_type_id":"4","last_reported":1707843945,"current_range_meters":31200,"station_id":"ce4bguh2rcd13ifvqckg","pricing_plan_id":"cebpf4jnsgd1na2vs0mg"},{"bike_id":"ed5b48c1-c8db-424f-ab26-a4871681282f","system_id":"levelo_inurba_marseille","lat":43.3072,"lon":5.368423,"is_reserved":false,"is_disabled":false,"rental_uris":{"android":"levelo://app?vid=ed5b48c1-c8db-424f-ab26-a4871681282f","ios":"levelo://app?vid=ed5b48c1-c8db-424f-ab26-a4871681282f"},"vehicle_type_id":"4","last_reported":1707843945,"current_range_meters":11600,"station_id":"","pricing_plan_id":"cebpf4jnsgd1na2vs0mg"},{"bike_id":"15faaff6-e1c1-4cd7-9745-cdd88735f5f7","system_id":"levelo_inurba_marseille","lat":43.309034,"lon":5.371783,"is_reserved":false,"is_disabled":false,"rental_uris":{"android":"levelo://app?vid=15faaff6-e1c1-4cd7-9745-cdd88735f5f7","ios":"levelo://app?vid=15faaff6-e1c1-4cd7-9745-cdd88735f5f7"},"vehicle_type_id":"4","last_reported":1707843945,"current_range_meters":6000,"station_id":"ce4bguh2rcd13ifvqckg","pricing_plan_id":"cebpf4jnsgd1na2vs0mg"},{"bike_id":"24141e23-0c7c-406f-a237-4918c06e395e","system_id":"levelo_inurba_marseille","lat":43.30559,"lon":5.36696,"is_reserved":false,"is_disabled":false,"rental_uris":{"android":"levelo://app?vid=24141e23-0c7c-406f-a237-4918c06e395e","ios":"levelo://app?vid=24141e23-0c7c-406f-a237-4918c06e395e"},"vehicle_type_id":"4","last_reported":1707843945,"current_range_meters":14400,"station_id":"ce4bgrp2rcd13ifvqc9g","pricing_plan_id":"cebpf4jnsgd1na2vs0mg"},{"bike_id":"b1902465-35d6-4430-a77a-a64702b07a8e","system_id":"levelo_inurba_marseille","lat":43.30563,"lon":5.36538,"is_reserved":false,"is_disabled":false,"rental_uris":{"android":"levelo://app?vid=b1902465-35d6-4430-a77a-a64702b07a8e","ios":"levelo://app?vid=b1902465-35d6-4430-a77a-a64702b07a8e"},"vehicle_type_id":"4","last_reported":1707843945,"current_range_meters":0,"station_id":"ce4bgs12rcd13ifvqcag","pricing_plan_id":"cebpf4jnsgd1na2vs0mg"},{"bike_id":"ce5b82e3-38bc-4011-a106-53f460039995","system_id":"levelo_inurba_marseille","lat":43.305368,"lon":5.367343,"is_reserved":false,"is_disabled":false,"rental_uris":{"android":"levelo://app?vid=ce5b82e3-38bc-4011-a106-53f460039995","ios":"levelo://app?vid=ce5b82e3-38bc-4011-a106-53f460039995"},"vehicle_type_id":"4","last_reported":1707843945,"current_range_meters":17200,"station_id":"ce4bgrp2rcd13ifvqc9g","pricing_plan_id":"cebpf4jnsgd1na2vs0mg"},{"bike_id":"e831da13-9cd7-4d73-966f-b2ccaa807d88","system_id":"levelo_inurba_marseille","lat":43.305714,"lon":5.365633,"is_reserved":false,"is_disabled":false,"rental_uris":{"android":"levelo://app?vid=e831da13-9cd7-4d73-966f-b2ccaa807d88","ios":"levelo://app?vid=e831da13-9cd7-4d73-966f-b2ccaa807d88"},"vehicle_type_id":"4","last_reported":1707843945,"current_range_meters":23600,"station_id":"ce4bgs12rcd13ifvqcag","pricing_plan_id":"cebpf4jnsgd1na2vs0mg"},{"bike_id":"22b17fb0-9e3e-4019-be7d-fa21aaf5f029","system_id":"levelo_inurba_marseille","lat":43.30545,"lon":5.36707,"is_reserved":false,"is_disabled":false,"rental_uris":{"android":"levelo://app?vid=22b17fb0-9e3e-4019-be7d-fa21aaf5f029","ios":"levelo://app?vid=22b17fb0-9e3e-4019-be7d-fa21aaf5f029"},"vehicle_type_id":"4","last_reported":1707843945,"current_range_meters":0,"station_id":"ce4bgrp2rcd13ifvqc9g","pricing_plan_id":"cebpf4jnsgd1na2vs0mg"},{"bike_id":"82bcb003-c9ab-4b7c-8e80-65b131e54552","system_id":"levelo_inurba_marseille","lat":43.305706,"lon":5.365654,"is_reserved":false,"is_disabled":false,"rental_uris":{"android":"levelo://app?vid=82bcb003-c9ab-4b7c-8e80-65b131e54552","ios":"levelo://app?vid=82bcb003-c9ab-4b7c-8e80-65b131e54552"},"vehicle_type_id":"4","last_reported":1707843945,"current_range_meters":15600,"station_id":"ce4bgs12rcd13ifvqcag","pricing_plan_id":"cebpf4jnsgd1na2vs0mg"},{"bike_id":"d244acfd-e7f6-4d1f-9e5f-5ef677c2e05e","system_id":"levelo_inurba_marseille","lat":43.305714,"lon":5.365633,"is_reserved":false,"is_disabled":false,"rental_uris":{"android":"levelo://app?vid=d244acfd-e7f6-4d1f-9e5f-5ef677c2e05e","ios":"levelo://app?vid=d244acfd-e7f6-4d1f-9e5f-5ef677c2e05e"},"vehicle_type_id":"4","last_reported":1707843945,"current_range_meters":31200,"station_id":"ce4bgs12rcd13ifvqcag","pricing_plan_id":"cebpf4jnsgd1na2vs0mg"},{"bike_id":"61a0105b-e2e6-42c0-8af2-11840a1acd4c","system_id":"levelo_inurba_marseille","lat":43.305396,"lon":5.365494,"is_reserved":false,"is_disabled":false,"rental_uris":{"android":"levelo://app?vid=61a0105b-e2e6-42c0-8af2-11840a1acd4c","ios":"levelo://app?vid=61a0105b-e2e6-42c0-8af2-11840a1acd4c"},"vehicle_type_id":"4","last_reported":1707843945,"current_range_meters":28000,"station_id":"ce4bgs12rcd13ifvqcag","pricing_plan_id":"cebpf4jnsgd1na2vs0mg"},{"bike_id":"b3f7e7bc-e2a3-4762-a758-2bb1926a7357","system_id":"levelo_inurba_marseille","lat":43.305714,"lon":5.365633,"is_reserved":false,"is_disabled":false,"rental_uris":{"android":"levelo://app?vid=b3f7e7bc-e2a3-4762-a758-2bb1926a7357","ios":"levelo://app?vid=b3f7e7bc-e2a3-4762-a758-2bb1926a7357"},"vehicle_type_id":"4","last_reported":1707843945,"current_range_meters":27600,"station_id":"ce4bgs12rcd13ifvqcag","pricing_plan_id":"cebpf4jnsgd1na2vs0mg"},{"bike_id":"943c4df3-f108-4b7c-896d-5fd53e6a0e36","system_id":"levelo_inurba_marseille","lat":43.30537,"lon":5.36555,"is_reserved":false,"is_disabled":false,"rental_uris":{"android":"levelo://app?vid=943c4df3-f108-4b7c-896d-5fd53e6a0e36","ios":"levelo://app?vid=943c4df3-f108-4b7c-896d-5fd53e6a0e36"},"vehicle_type_id":"4","last_reported":1707843945,"current_range_meters":22400,"station_id":"ce4bgs12rcd13ifvqcag","pricing_plan_id":"cebpf4jnsgd1na2vs0mg"},{"bike_id":"99afb887-fcd5-477d-996e-3293e05cdfbf","system_id":"levelo_inurba_marseille","lat":43.307945,"lon":5.376487,"is_reserved":false,"is_disabled":false,"rental_uris":{"android":"levelo://app?vid=99afb887-fcd5-477d-996e-3293e05cdfbf","ios":"levelo://app?vid=99afb887-fcd5-477d-996e-3293e05cdfbf"},"vehicle_type_id":"4","last_reported":1707843945,"current_range_meters":12800,"station_id":"ce4bgv92rcd13ifvqcq0","pricing_plan_id":"cebpf4jnsgd1na2vs0mg"},{"bike_id":"30e8601b-f5c9-49ec-b45e-d2adda6a9376","system_id":"levelo_inurba_marseille","lat":43.305338,"lon":5.365372,"is_reserved":false,"is_disabled":false,"rental_uris":{"android":"levelo://app?vid=30e8601b-f5c9-49ec-b45e-d2adda6a9376","ios":"levelo://app?vid=30e8601b-f5c9-49ec-b45e-d2adda6a9376"},"vehicle_type_id":"4","last_reported":1707843945,"current_range_meters":30000,"station_id":"ce4bgs12rcd13ifvqcag","pricing_plan_id":"cebpf4jnsgd1na2vs0mg"},{"bike_id":"40bfbe4b-8f36-4fff-88e8-c461df02aff4","system_id":"levelo_inurba_marseille","lat":43.305368,"lon":5.367343,"is_reserved":false,"is_disabled":false,"rental_uris":{"android":"levelo://app?vid=40bfbe4b-8f36-4fff-88e8-c461df02aff4","ios":"levelo://app?vid=40bfbe4b-8f36-4fff-88e8-c461df02aff4"},"vehicle_type_id":"4","last_reported":1707843945,"current_range_meters":15200,"station_id":"ce4bgrp2rcd13ifvqc9g","pricing_plan_id":"cebpf4jnsgd1na2vs0mg"},{"bike_id":"d1067b4a-21f2-4531-b256-7e47e2f31466","system_id":"levelo_inurba_marseille","lat":43.305989,"lon":5.37225,"is_reserved":false,"is_disabled":false,"rental_uris":{"android":"levelo://app?vid=d1067b4a-21f2-4531-b256-7e47e2f31466","ios":"levelo://app?vid=d1067b4a-21f2-4531-b256-7e47e2f31466"},"vehicle_type_id":"4","last_reported":1707843945,"current_range_meters":20800,"station_id":"ce4bgqh2rcd13ifvqc4g","pricing_plan_id":"cebpf4jnsgd1na2vs0mg"},{"bike_id":"fdb338b4-498a-4311-a87b-48099fbdbef0","system_id":"levelo_inurba_marseille","lat":43.311131,"lon":5.377651,"is_reserved":false,"is_disabled":false,"rental_uris":{"android":"levelo://app?vid=fdb338b4-498a-4311-a87b-48099fbdbef0","ios":"levelo://app?vid=fdb338b4-498a-4311-a87b-48099fbdbef0"},"vehicle_type_id":"4","last_reported":1707843945,"current_range_meters":12400,"station_id":"ce4bgt92rcd13ifvqcg0","pricing_plan_id":"cebpf4jnsgd1na2vs0mg"},{"bike_id":"bdaa1503-6912-4967-b689-8d7b943af830","system_id":"levelo_inurba_marseille","lat":43.311191,"lon":5.377671,"is_reserved":false,"is_disabled":false,"rental_uris":{"android":"levelo://app?vid=bdaa1503-6912-4967-b689-8d7b943af830","ios":"levelo://app?vid=bdaa1503-6912-4967-b689-8d7b943af830"},"vehicle_type_id":"4","last_reported":1707843945,"current_range_meters":0,"station_id":"","pricing_plan_id":"cebpf4jnsgd1na2vs0mg"},{"bike_id":"638baba5-0dcd-4881-9fcf-94948a3abf9b","system_id":"levelo_inurba_marseille","lat":43.311131,"lon":5.377651,"is_reserved":false,"is_disabled":false,"rental_uris":{"android":"levelo://app?vid=638baba5-0dcd-4881-9fcf-94948a3abf9b","ios":"levelo://app?vid=638baba5-0dcd-4881-9fcf-94948a3abf9b"},"vehicle_type_id":"4","last_reported":1707843945,"current_range_meters":20400,"station_id":"ce4bgt92rcd13ifvqcg0","pricing_plan_id":"cebpf4jnsgd1na2vs0mg"},{"bike_id":"9715a955-74fd-4384-96db-bbdec1c63650","system_id":"levelo_inurba_marseille","lat":43.311125,"lon":5.377624,"is_reserved":false,"is_disabled":false,"rental_uris":{"android":"levelo://app?vid=9715a955-74fd-4384-96db-bbdec1c63650","ios":"levelo://app?vid=9715a955-74fd-4384-96db-bbdec1c63650"},"vehicle_type_id":"4","last_reported":1707843945,"current_range_meters":8000,"station_id":"ce4bgt92rcd13ifvqcg0","pricing_plan_id":"cebpf4jnsgd1na2vs0mg"},{"bike_id":"fe9c4264-f4f5-403f-8b85-74f1e731445f","system_id":"levelo_inurba_marseille","lat":43.311125,"lon":5.377624,"is_reserved":false,"is_disabled":false,"rental_uris":{"android":"levelo://app?vid=fe9c4264-f4f5-403f-8b85-74f1e731445f","ios":"levelo://app?vid=fe9c4264-f4f5-403f-8b85-74f1e731445f"},"vehicle_type_id":"4","last_reported":1707843945,"current_range_meters":2800,"station_id":"ce4bgt92rcd13ifvqcg0","pricing_plan_id":"cebpf4jnsgd1na2vs0mg"},{"bike_id":"d5acf25d-30cb-44e2-8ef1-4e1895b7ec0b","system_id":"levelo_inurba_marseille","lat":43.317289,"lon":5.376498,"is_reserved":false,"is_disabled":false,"rental_uris":{"android":"levelo://app?vid=d5acf25d-30cb-44e2-8ef1-4e1895b7ec0b","ios":"levelo://app?vid=d5acf25d-30cb-44e2-8ef1-4e1895b7ec0b"},"vehicle_type_id":"4","last_reported":1707843945,"current_range_meters":7200,"station_id":"ce4bgth2rcd13ifvqch0","pricing_plan_id":"cebpf4jnsgd1na2vs0mg"},{"bike_id":"9b44c6d0-7b8d-43e5-af99-7abcbce8f157","system_id":"levelo_inurba_marseille","lat":43.317075,"lon":5.377367,"is_reserved":false,"is_disabled":false,"rental_uris":{"android":"levelo://app?vid=9b44c6d0-7b8d-43e5-af99-7abcbce8f157","ios":"levelo://app?vid=9b44c6d0-7b8d-43e5-af99-7abcbce8f157"},"vehicle_type_id":"4","last_reported":1707843945,"current_range_meters":3200,"station_id":"ce4bgth2rcd13ifvqch0","pricing_plan_id":"cebpf4jnsgd1na2vs0mg"},{"bike_id":"2c5feb5a-a836-45e8-ae6a-f472e8b18f73","system_id":"levelo_inurba_marseille","lat":43.317075,"lon":5.377367,"is_reserved":false,"is_disabled":false,"rental_uris":{"android":"levelo://app?vid=2c5feb5a-a836-45e8-ae6a-f472e8b18f73","ios":"levelo://app?vid=2c5feb5a-a836-45e8-ae6a-f472e8b18f73"},"vehicle_type_id":"4","last_reported":1707843945,"current_range_meters":16800,"station_id":"ce4bgth2rcd13ifvqch0","pricing_plan_id":"cebpf4jnsgd1na2vs0mg"},{"bike_id":"9af3685d-3ea5-454c-8eea-95d7ee845669","system_id":"levelo_inurba_marseille","lat":43.317075,"lon":5.377367,"is_reserved":false,"is_disabled":false,"rental_uris":{"android":"levelo://app?vid=9af3685d-3ea5-454c-8eea-95d7ee845669","ios":"levelo://app?vid=9af3685d-3ea5-454c-8eea-95d7ee845669"},"vehicle_type_id":"4","last_reported":1707843945,"current_range_meters":28000,"station_id":"ce4bgth2rcd13ifvqch0","pricing_plan_id":"cebpf4jnsgd1na2vs0mg"},{"bike_id":"3a34f312-c0c2-4fb7-8b2c-ddf415b6e967","system_id":"levelo_inurba_marseille","lat":43.317075,"lon":5.377367,"is_reserved":false,"is_disabled":false,"rental_uris":{"android":"levelo://app?vid=3a34f312-c0c2-4fb7-8b2c-ddf415b6e967","ios":"levelo://app?vid=3a34f312-c0c2-4fb7-8b2c-ddf415b6e967"},"vehicle_type_id":"4","last_reported":1707843945,"current_range_meters":31200,"station_id":"ce4bgth2rcd13ifvqch0","pricing_plan_id":"cebpf4jnsgd1na2vs0mg"},{"bike_id":"28b4055f-8f02-43bc-bb6e-8b9cf542a4c2","system_id":"levelo_inurba_marseille","lat":43.317075,"lon":5.377367,"is_reserved":false,"is_disabled":false,"rental_uris":{"android":"levelo://app?vid=28b4055f-8f02-43bc-bb6e-8b9cf542a4c2","ios":"levelo://app?vid=28b4055f-8f02-43bc-bb6e-8b9cf542a4c2"},"vehicle_type_id":"4","last_reported":1707843945,"current_range_meters":24000,"station_id":"ce4bgth2rcd13ifvqch0","pricing_plan_id":"cebpf4jnsgd1na2vs0mg"},{"bike_id":"9eb79805-5ac5-4eb2-8a5c-c4bb37b8e536","system_id":"levelo_inurba_marseille","lat":43.317075,"lon":5.377367,"is_reserved":false,"is_disabled":false,"rental_uris":{"android":"levelo://app?vid=9eb79805-5ac5-4eb2-8a5c-c4bb37b8e536","ios":"levelo://app?vid=9eb79805-5ac5-4eb2-8a5c-c4bb37b8e536"},"vehicle_type_id":"4","last_reported":1707843945,"current_range_meters":2400,"station_id":"ce4bgth2rcd13ifvqch0","pricing_plan_id":"cebpf4jnsgd1na2vs0mg"},{"bike_id":"60b64816-a5c4-488c-be88-10ae7da9df80","system_id":"levelo_inurba_marseille","lat":43.303046,"lon":5.368981,"is_reserved":false,"is_disabled":false,"rental_uris":{"android":"levelo://app?vid=60b64816-a5c4-488c-be88-10ae7da9df80","ios":"levelo://app?vid=60b64816-a5c4-488c-be88-10ae7da9df80"},"vehicle_type_id":"4","last_reported":1707843945,"current_range_meters":11600,"station_id":"ce4bgqh2rcd13ifvqc5g","pricing_plan_id":"cebpf4jnsgd1na2vs0mg"},{"bike_id":"c477a042-4f18-41f7-865d-52969932d51d","system_id":"levelo_inurba_marseille","lat":43.303046,"lon":5.368981,"is_reserved":false,"is_disabled":false,"rental_uris":{"android":"levelo://app?vid=c477a042-4f18-41f7-865d-52969932d51d","ios":"levelo://app?vid=c477a042-4f18-41f7-865d-52969932d51d"},"vehicle_type_id":"4","last_reported":1707843945,"current_range_meters":6000,"station_id":"ce4bgqh2rcd13ifvqc5g","pricing_plan_id":"cebpf4jnsgd1na2vs0mg"},{"bike_id":"99b25015-5bc0-4096-9668-a27a161256eb","system_id":"levelo_inurba_marseille","lat":43.32273,"lon":5.36961,"is_reserved":false,"is_disabled":false,"rental_uris":{"android":"levelo://app?vid=99b25015-5bc0-4096-9668-a27a161256eb","ios":"levelo://app?vid=99b25015-5bc0-4096-9668-a27a161256eb"},"vehicle_type_id":"4","last_reported":1707843945,"current_range_meters":10400,"station_id":"","pricing_plan_id":"cebpf4jnsgd1na2vs0mg"},{"bike_id":"b4a0ff24-6731-4f40-aa50-8b855423418e","system_id":"levelo_inurba_marseille","lat":43.301939,"lon":5.366286,"is_reserved":false,"is_disabled":false,"rental_uris":{"android":"levelo://app?vid=b4a0ff24-6731-4f40-aa50-8b855423418e","ios":"levelo://app?vid=b4a0ff24-6731-4f40-aa50-8b855423418e"},"vehicle_type_id":"4","last_reported":1707843945,"current_range_meters":6000,"station_id":"ce4bgrh2rcd13ifvqc8g","pricing_plan_id":"cebpf4jnsgd1na2vs0mg"},{"bike_id":"306f33d4-37b6-4ebb-a3ab-ca360bde88f8","system_id":"levelo_inurba_marseille","lat":43.301939,"lon":5.366286,"is_reserved":false,"is_disabled":false,"rental_uris":{"android":"levelo://app?vid=306f33d4-37b6-4ebb-a3ab-ca360bde88f8","ios":"levelo://app?vid=306f33d4-37b6-4ebb-a3ab-ca360bde88f8"},"vehicle_type_id":"4","last_reported":1707843945,"current_range_meters":30400,"station_id":"ce4bgrh2rcd13ifvqc8g","pricing_plan_id":"cebpf4jnsgd1na2vs0mg"},{"bike_id":"9837374c-3dde-4b97-8ea7-61be83a641cc","system_id":"levelo_inurba_marseille","lat":43.301939,"lon":5.366286,"is_reserved":false,"is_disabled":false,"rental_uris":{"android":"levelo://app?vid=9837374c-3dde-4b97-8ea7-61be83a641cc","ios":"levelo://app?vid=9837374c-3dde-4b97-8ea7-61be83a641cc"},"vehicle_type_id":"4","last_reported":1707843945,"current_range_meters":26000,"station_id":"ce4bgrh2rcd13ifvqc8g","pricing_plan_id":"cebpf4jnsgd1na2vs0mg"},{"bike_id":"8b4b7ed5-9acd-488a-b123-9ea5d5006d42","system_id":"levelo_inurba_marseille","lat":43.301939,"lon":5.366286,"is_reserved":false,"is_disabled":false,"rental_uris":{"android":"levelo://app?vid=8b4b7ed5-9acd-488a-b123-9ea5d5006d42","ios":"levelo://app?vid=8b4b7ed5-9acd-488a-b123-9ea5d5006d42"},"vehicle_type_id":"4","last_reported":1707843945,"current_range_meters":27200,"station_id":"ce4bgrh2rcd13ifvqc8g","pricing_plan_id":"cebpf4jnsgd1na2vs0mg"},{"bike_id":"566ec557-2218-4bad-8b35-fccf19bc05ea","system_id":"levelo_inurba_marseille","lat":43.308022,"lon":5.381546,"is_reserved":false,"is_disabled":false,"rental_uris":{"android":"levelo://app?vid=566ec557-2218-4bad-8b35-fccf19bc05ea","ios":"levelo://app?vid=566ec557-2218-4bad-8b35-fccf19bc05ea"},"vehicle_type_id":"4","last_reported":1707843945,"current_range_meters":18400,"station_id":"ce4bgt12rcd13ifvqce0","pricing_plan_id":"cebpf4jnsgd1na2vs0mg"},{"bike_id":"f7a4fa99-17ef-40bc-8ae8-89b22126256b","system_id":"levelo_inurba_marseille","lat":43.308012,"lon":5.381511,"is_reserved":false,"is_disabled":false,"rental_uris":{"android":"levelo://app?vid=f7a4fa99-17ef-40bc-8ae8-89b22126256b","ios":"levelo://app?vid=f7a4fa99-17ef-40bc-8ae8-89b22126256b"},"vehicle_type_id":"4","last_reported":1707843945,"current_range_meters":10400,"station_id":"ce4bgt12rcd13ifvqce0","pricing_plan_id":"cebpf4jnsgd1na2vs0mg"},{"bike_id":"31b8ace9-b8c5-4177-b9c8-29109b5dd9d7","system_id":"levelo_inurba_marseille","lat":43.303028,"lon":5.376916,"is_reserved":false,"is_disabled":false,"rental_uris":{"android":"levelo://app?vid=31b8ace9-b8c5-4177-b9c8-29109b5dd9d7","ios":"levelo://app?vid=31b8ace9-b8c5-4177-b9c8-29109b5dd9d7"},"vehicle_type_id":"4","last_reported":1707843945,"current_range_meters":21200,"station_id":"ce4bguh2rcd13ifvqcj0","pricing_plan_id":"cebpf4jnsgd1na2vs0mg"},{"bike_id":"964daab9-c96c-41b7-ac75-f41880ed8238","system_id":"levelo_inurba_marseille","lat":43.310804,"lon":5.38359,"is_reserved":false,"is_disabled":false,"rental_uris":{"android":"levelo://app?vid=964daab9-c96c-41b7-ac75-f41880ed8238","ios":"levelo://app?vid=964daab9-c96c-41b7-ac75-f41880ed8238"},"vehicle_type_id":"4","last_reported":1707843945,"current_range_meters":18400,"station_id":"ce4bgv92rcd13ifvqcr0","pricing_plan_id":"cebpf4jnsgd1na2vs0mg"},{"bike_id":"237d60d5-e9da-4c8d-9843-6915d4445eeb","system_id":"levelo_inurba_marseille","lat":43.302784,"lon":5.377158,"is_reserved":false,"is_disabled":false,"rental_uris":{"android":"levelo://app?vid=237d60d5-e9da-4c8d-9843-6915d4445eeb","ios":"levelo://app?vid=237d60d5-e9da-4c8d-9843-6915d4445eeb"},"vehicle_type_id":"4","last_reported":1707843945,"current_range_meters":20000,"station_id":"ce4bguh2rcd13ifvqcj0","pricing_plan_id":"cebpf4jnsgd1na2vs0mg"},{"bike_id":"a6770d17-d550-4749-bd5a-00a53087bf3a","system_id":"levelo_inurba_marseille","lat":43.30277,"lon":5.3769,"is_reserved":false,"is_disabled":false,"rental_uris":{"android":"levelo://app?vid=a6770d17-d550-4749-bd5a-00a53087bf3a","ios":"levelo://app?vid=a6770d17-d550-4749-bd5a-00a53087bf3a"},"vehicle_type_id":"4","last_reported":1707843945,"current_range_meters":20800,"station_id":"ce4bguh2rcd13ifvqcj0","pricing_plan_id":"cebpf4jnsgd1na2vs0mg"},{"bike_id":"d6ed3ef5-5422-4328-bb16-8cf173248aa5","system_id":"levelo_inurba_marseille","lat":43.302784,"lon":5.377158,"is_reserved":false,"is_disabled":false,"rental_uris":{"android":"levelo://app?vid=d6ed3ef5-5422-4328-bb16-8cf173248aa5","ios":"levelo://app?vid=d6ed3ef5-5422-4328-bb16-8cf173248aa5"},"vehicle_type_id":"4","last_reported":1707843945,"current_range_meters":7600,"station_id":"ce4bguh2rcd13ifvqcj0","pricing_plan_id":"cebpf4jnsgd1na2vs0mg"},{"bike_id":"c8069bb2-3b6d-42bb-a704-01ce0e0716af","system_id":"levelo_inurba_marseille","lat":43.30143,"lon":5.37413,"is_reserved":false,"is_disabled":false,"rental_uris":{"android":"levelo://app?vid=c8069bb2-3b6d-42bb-a704-01ce0e0716af","ios":"levelo://app?vid=c8069bb2-3b6d-42bb-a704-01ce0e0716af"},"vehicle_type_id":"4","last_reported":1707843945,"current_range_meters":7600,"station_id":"ce4bgs92rcd13ifvqcc0","pricing_plan_id":"cebpf4jnsgd1na2vs0mg"},{"bike_id":"a06ae933-46a2-4e1b-aca7-f35842b3c584","system_id":"levelo_inurba_marseille","lat":43.30143,"lon":5.37413,"is_reserved":false,"is_disabled":false,"rental_uris":{"android":"levelo://app?vid=a06ae933-46a2-4e1b-aca7-f35842b3c584","ios":"levelo://app?vid=a06ae933-46a2-4e1b-aca7-f35842b3c584"},"vehicle_type_id":"4","last_reported":1707843945,"current_range_meters":0,"station_id":"ce4bgs92rcd13ifvqcc0","pricing_plan_id":"cebpf4jnsgd1na2vs0mg"},{"bike_id":"904717e0-567f-402b-b8fb-82da03c63213","system_id":"levelo_inurba_marseille","lat":43.319935,"lon":5.381699,"is_reserved":false,"is_disabled":false,"rental_uris":{"android":"levelo://app?vid=904717e0-567f-402b-b8fb-82da03c63213","ios":"levelo://app?vid=904717e0-567f-402b-b8fb-82da03c63213"},"vehicle_type_id":"4","last_reported":1707843945,"current_range_meters":7200,"station_id":"ce4bhr12rcd13ifvqhpg","pricing_plan_id":"cebpf4jnsgd1na2vs0mg"},{"bike_id":"eb96f043-aa07-4374-9834-1b9dcb674e11","system_id":"levelo_inurba_marseille","lat":43.31993,"lon":5.38156,"is_reserved":false,"is_disabled":false,"rental_uris":{"android":"levelo://app?vid=eb96f043-aa07-4374-9834-1b9dcb674e11","ios":"levelo://app?vid=eb96f043-aa07-4374-9834-1b9dcb674e11"},"vehicle_type_id":"4","last_reported":1707843945,"current_range_meters":17200,"station_id":"ce4bhr12rcd13ifvqhpg","pricing_plan_id":"cebpf4jnsgd1na2vs0mg"},{"bike_id":"94f6da97-1379-414a-b1fc-5de4b0219ef7","system_id":"levelo_inurba_marseille","lat":43.313571,"lon":5.384829,"is_reserved":false,"is_disabled":false,"rental_uris":{"android":"levelo://app?vid=94f6da97-1379-414a-b1fc-5de4b0219ef7","ios":"levelo://app?vid=94f6da97-1379-414a-b1fc-5de4b0219ef7"},"vehicle_type_id":"4","last_reported":1707843945,"current_range_meters":2800,"station_id":"ce4bgt92rcd13ifvqcf0","pricing_plan_id":"cebpf4jnsgd1na2vs0mg"},{"bike_id":"5b0b111e-2e4b-4d09-8e98-ccffb19cc220","system_id":"levelo_inurba_marseille","lat":43.313571,"lon":5.384829,"is_reserved":false,"is_disabled":false,"rental_uris":{"android":"levelo://app?vid=5b0b111e-2e4b-4d09-8e98-ccffb19cc220","ios":"levelo://app?vid=5b0b111e-2e4b-4d09-8e98-ccffb19cc220"},"vehicle_type_id":"4","last_reported":1707843945,"current_range_meters":3200,"station_id":"ce4bgt92rcd13ifvqcf0","pricing_plan_id":"cebpf4jnsgd1na2vs0mg"},{"bike_id":"32ab5c19-1225-4254-b071-d8925a93e7a1","system_id":"levelo_inurba_marseille","lat":43.299724,"lon":5.371829,"is_reserved":false,"is_disabled":false,"rental_uris":{"android":"levelo://app?vid=32ab5c19-1225-4254-b071-d8925a93e7a1","ios":"levelo://app?vid=32ab5c19-1225-4254-b071-d8925a93e7a1"},"vehicle_type_id":"4","last_reported":1707843945,"current_range_meters":0,"station_id":"ce4bgr92rcd13ifvqc7g","pricing_plan_id":"cebpf4jnsgd1na2vs0mg"},{"bike_id":"fde1c42f-5353-4cb6-9d33-362da2410c65","system_id":"levelo_inurba_marseille","lat":43.299222,"lon":5.365554,"is_reserved":false,"is_disabled":false,"rental_uris":{"android":"levelo://app?vid=fde1c42f-5353-4cb6-9d33-362da2410c65","ios":"levelo://app?vid=fde1c42f-5353-4cb6-9d33-362da2410c65"},"vehicle_type_id":"4","last_reported":1707843945,"current_range_meters":26800,"station_id":"ce4bgm92rcd13ifvqbr0","pricing_plan_id":"cebpf4jnsgd1na2vs0mg"},{"bike_id":"2f4536f6-736b-44ba-9cba-f534cd5e15f7","system_id":"levelo_inurba_marseille","lat":43.299222,"lon":5.365554,"is_reserved":false,"is_disabled":false,"rental_uris":{"android":"levelo://app?vid=2f4536f6-736b-44ba-9cba-f534cd5e15f7","ios":"levelo://app?vid=2f4536f6-736b-44ba-9cba-f534cd5e15f7"},"vehicle_type_id":"4","last_reported":1707843945,"current_range_meters":10800,"station_id":"ce4bgm92rcd13ifvqbr0","pricing_plan_id":"cebpf4jnsgd1na2vs0mg"},{"bike_id":"3b6fd47c-f860-4967-b147-3526322b443e","system_id":"levelo_inurba_marseille","lat":43.311546,"lon":5.386761,"is_reserved":false,"is_disabled":false,"rental_uris":{"android":"levelo://app?vid=3b6fd47c-f860-4967-b147-3526322b443e","ios":"levelo://app?vid=3b6fd47c-f860-4967-b147-3526322b443e"},"vehicle_type_id":"4","last_reported":1707843945,"current_range_meters":15200,"station_id":"ce4bgv12rcd13ifvqcp0","pricing_plan_id":"cebpf4jnsgd1na2vs0mg"},{"bike_id":"2ee4eea4-efa9-41f4-9650-0af19f0c8237","system_id":"levelo_inurba_marseille","lat":43.299243,"lon":5.374807,"is_reserved":false,"is_disabled":false,"rental_uris":{"android":"levelo://app?vid=2ee4eea4-efa9-41f4-9650-0af19f0c8237","ios":"levelo://app?vid=2ee4eea4-efa9-41f4-9650-0af19f0c8237"},"vehicle_type_id":"4","last_reported":1707843945,"current_range_meters":0,"station_id":"ce4bgjh2rcd13ifvqbg0","pricing_plan_id":"cebpf4jnsgd1na2vs0mg"},{"bike_id":"af674353-7ec3-42d0-9b91-eea8d8744879","system_id":"levelo_inurba_marseille","lat":43.299243,"lon":5.374807,"is_reserved":false,"is_disabled":false,"rental_uris":{"android":"levelo://app?vid=af674353-7ec3-42d0-9b91-eea8d8744879","ios":"levelo://app?vid=af674353-7ec3-42d0-9b91-eea8d8744879"},"vehicle_type_id":"4","last_reported":1707843945,"current_range_meters":22400,"station_id":"ce4bgjh2rcd13ifvqbg0","pricing_plan_id":"cebpf4jnsgd1na2vs0mg"},{"bike_id":"2b36c752-1389-4cda-b617-4a0bf00a13c9","system_id":"levelo_inurba_marseille","lat":43.299243,"lon":5.374807,"is_reserved":false,"is_disabled":false,"rental_uris":{"android":"levelo://app?vid=2b36c752-1389-4cda-b617-4a0bf00a13c9","ios":"levelo://app?vid=2b36c752-1389-4cda-b617-4a0bf00a13c9"},"vehicle_type_id":"4","last_reported":1707843945,"current_range_meters":24000,"station_id":"ce4bgjh2rcd13ifvqbg0","pricing_plan_id":"cebpf4jnsgd1na2vs0mg"},{"bike_id":"a8b5180e-f39f-407d-b5d0-52b35fd20ac4","system_id":"levelo_inurba_marseille","lat":43.311722,"lon":5.387247,"is_reserved":false,"is_disabled":false,"rental_uris":{"android":"levelo://app?vid=a8b5180e-f39f-407d-b5d0-52b35fd20ac4","ios":"levelo://app?vid=a8b5180e-f39f-407d-b5d0-52b35fd20ac4"},"vehicle_type_id":"4","last_reported":1707843945,"current_range_meters":31200,"station_id":"ce4bgv12rcd13ifvqcp0","pricing_plan_id":"cebpf4jnsgd1na2vs0mg"},{"bike_id":"629590b9-de9c-4dcd-8e57-66c97a2a40ae","system_id":"levelo_inurba_marseille","lat":43.327841,"lon":5.367047,"is_reserved":false,"is_disabled":false,"rental_uris":{"android":"levelo://app?vid=629590b9-de9c-4dcd-8e57-66c97a2a40ae","ios":"levelo://app?vid=629590b9-de9c-4dcd-8e57-66c97a2a40ae"},"vehicle_type_id":"4","last_reported":1707843945,"current_range_meters":20000,"station_id":"ce4bhs92rcd13ifvqi0g","pricing_plan_id":"cebpf4jnsgd1na2vs0mg"},{"bike_id":"b5d4267e-8bbf-4d80-9885-5b0f43dd1515","system_id":"levelo_inurba_marseille","lat":43.311557,"lon":5.387697,"is_reserved":false,"is_disabled":false,"rental_uris":{"android":"levelo://app?vid=b5d4267e-8bbf-4d80-9885-5b0f43dd1515","ios":"levelo://app?vid=b5d4267e-8bbf-4d80-9885-5b0f43dd1515"},"vehicle_type_id":"4","last_reported":1707843945,"current_range_meters":20400,"station_id":"ce4bgv12rcd13ifvqcp0","pricing_plan_id":"cebpf4jnsgd1na2vs0mg"},{"bike_id":"f9a328d6-c6dc-4cba-aea7-5d42634a1c6c","system_id":"levelo_inurba_marseille","lat":43.322872,"lon":5.382756,"is_reserved":false,"is_disabled":false,"rental_uris":{"android":"levelo://app?vid=f9a328d6-c6dc-4cba-aea7-5d42634a1c6c","ios":"levelo://app?vid=f9a328d6-c6dc-4cba-aea7-5d42634a1c6c"},"vehicle_type_id":"4","last_reported":1707843945,"current_range_meters":17200,"station_id":"ce4bhr12rcd13ifvqhqg","pricing_plan_id":"cebpf4jnsgd1na2vs0mg"},{"bike_id":"88c1afde-4863-4c74-a203-6c82ce46597f","system_id":"levelo_inurba_marseille","lat":43.322872,"lon":5.382756,"is_reserved":false,"is_disabled":false,"rental_uris":{"android":"levelo://app?vid=88c1afde-4863-4c74-a203-6c82ce46597f","ios":"levelo://app?vid=88c1afde-4863-4c74-a203-6c82ce46597f"},"vehicle_type_id":"4","last_reported":1707843945,"current_range_meters":11600,"station_id":"ce4bhr12rcd13ifvqhqg","pricing_plan_id":"cebpf4jnsgd1na2vs0mg"},{"bike_id":"d74bd2a1-22ad-4021-869f-09a8873f8a42","system_id":"levelo_inurba_marseille","lat":43.322872,"lon":5.382756,"is_reserved":false,"is_disabled":false,"rental_uris":{"android":"levelo://app?vid=d74bd2a1-22ad-4021-869f-09a8873f8a42","ios":"levelo://app?vid=d74bd2a1-22ad-4021-869f-09a8873f8a42"},"vehicle_type_id":"4","last_reported":1707843945,"current_range_meters":15600,"station_id":"ce4bhr12rcd13ifvqhqg","pricing_plan_id":"cebpf4jnsgd1na2vs0mg"},{"bike_id":"aed9e4ad-9c1a-4a51-8095-58a12f0b44f4","system_id":"levelo_inurba_marseille","lat":43.322872,"lon":5.382756,"is_reserved":false,"is_disabled":false,"rental_uris":{"android":"levelo://app?vid=aed9e4ad-9c1a-4a51-8095-58a12f0b44f4","ios":"levelo://app?vid=aed9e4ad-9c1a-4a51-8095-58a12f0b44f4"},"vehicle_type_id":"4","last_reported":1707843945,"current_range_meters":30800,"station_id":"ce4bhr12rcd13ifvqhqg","pricing_plan_id":"cebpf4jnsgd1na2vs0mg"},{"bike_id":"24cbb04a-c763-4b6c-91c7-7ce4ce9a6969","system_id":"levelo_inurba_marseille","lat":43.32822,"lon":5.36686,"is_reserved":false,"is_disabled":false,"rental_uris":{"android":"levelo://app?vid=24cbb04a-c763-4b6c-91c7-7ce4ce9a6969","ios":"levelo://app?vid=24cbb04a-c763-4b6c-91c7-7ce4ce9a6969"},"vehicle_type_id":"4","last_reported":1707843945,"current_range_meters":21200,"station_id":"ce4bhs92rcd13ifvqi0g","pricing_plan_id":"cebpf4jnsgd1na2vs0mg"},{"bike_id":"ec21c626-faeb-41e5-9192-4d2bef3ee4d3","system_id":"levelo_inurba_marseille","lat":43.32822,"lon":5.36682,"is_reserved":false,"is_disabled":false,"rental_uris":{"android":"levelo://app?vid=ec21c626-faeb-41e5-9192-4d2bef3ee4d3","ios":"levelo://app?vid=ec21c626-faeb-41e5-9192-4d2bef3ee4d3"},"vehicle_type_id":"4","last_reported":1707843945,"current_range_meters":14000,"station_id":"ce4bhs92rcd13ifvqi0g","pricing_plan_id":"cebpf4jnsgd1na2vs0mg"},{"bike_id":"07a2b44b-47c4-46fe-b8d8-d7ad3b775366","system_id":"levelo_inurba_marseille","lat":43.32826,"lon":5.36681,"is_reserved":false,"is_disabled":false,"rental_uris":{"android":"levelo://app?vid=07a2b44b-47c4-46fe-b8d8-d7ad3b775366","ios":"levelo://app?vid=07a2b44b-47c4-46fe-b8d8-d7ad3b775366"},"vehicle_type_id":"4","last_reported":1707843945,"current_range_meters":30800,"station_id":"ce4bhs92rcd13ifvqi0g","pricing_plan_id":"cebpf4jnsgd1na2vs0mg"},{"bike_id":"8b36ce43-3bc7-4f8a-bb1e-1f87c12ac26a","system_id":"levelo_inurba_marseille","lat":43.32827,"lon":5.36691,"is_reserved":false,"is_disabled":false,"rental_uris":{"android":"levelo://app?vid=8b36ce43-3bc7-4f8a-bb1e-1f87c12ac26a","ios":"levelo://app?vid=8b36ce43-3bc7-4f8a-bb1e-1f87c12ac26a"},"vehicle_type_id":"4","last_reported":1707843945,"current_range_meters":14000,"station_id":"ce4bhs92rcd13ifvqi0g","pricing_plan_id":"cebpf4jnsgd1na2vs0mg"},{"bike_id":"b354d40e-f748-45df-b8a4-085ee0f39b31","system_id":"levelo_inurba_marseille","lat":43.32827,"lon":5.36682,"is_reserved":false,"is_disabled":false,"rental_uris":{"android":"levelo://app?vid=b354d40e-f748-45df-b8a4-085ee0f39b31","ios":"levelo://app?vid=b354d40e-f748-45df-b8a4-085ee0f39b31"},"vehicle_type_id":"4","last_reported":1707843945,"current_range_meters":28800,"station_id":"ce4bhs92rcd13ifvqi0g","pricing_plan_id":"cebpf4jnsgd1na2vs0mg"},{"bike_id":"c9b88aad-86c2-4a51-9436-08e8586a0048","system_id":"levelo_inurba_marseille","lat":43.32827,"lon":5.36682,"is_reserved":false,"is_disabled":false,"rental_uris":{"android":"levelo://app?vid=c9b88aad-86c2-4a51-9436-08e8586a0048","ios":"levelo://app?vid=c9b88aad-86c2-4a51-9436-08e8586a0048"},"vehicle_type_id":"4","last_reported":1707843945,"current_range_meters":24000,"station_id":"ce4bhs92rcd13ifvqi0g","pricing_plan_id":"cebpf4jnsgd1na2vs0mg"},{"bike_id":"f41ceea4-9289-4d6b-990c-9f2656a72f3b","system_id":"levelo_inurba_marseille","lat":43.32828,"lon":5.36692,"is_reserved":false,"is_disabled":false,"rental_uris":{"android":"levelo://app?vid=f41ceea4-9289-4d6b-990c-9f2656a72f3b","ios":"levelo://app?vid=f41ceea4-9289-4d6b-990c-9f2656a72f3b"},"vehicle_type_id":"4","last_reported":1707843945,"current_range_meters":8000,"station_id":"ce4bhs92rcd13ifvqi0g","pricing_plan_id":"cebpf4jnsgd1na2vs0mg"},{"bike_id":"eea4305d-d908-4776-ad17-d91241674871","system_id":"levelo_inurba_marseille","lat":43.32829,"lon":5.36692,"is_reserved":false,"is_disabled":false,"rental_uris":{"android":"levelo://app?vid=eea4305d-d908-4776-ad17-d91241674871","ios":"levelo://app?vid=eea4305d-d908-4776-ad17-d91241674871"},"vehicle_type_id":"4","last_reported":1707843945,"current_range_meters":7200,"station_id":"ce4bhs92rcd13ifvqi0g","pricing_plan_id":"cebpf4jnsgd1na2vs0mg"},{"bike_id":"7c47e388-9433-4092-857a-2e1a28e7faaa","system_id":"levelo_inurba_marseille","lat":43.32829,"lon":5.36685,"is_reserved":false,"is_disabled":false,"rental_uris":{"android":"levelo://app?vid=7c47e388-9433-4092-857a-2e1a28e7faaa","ios":"levelo://app?vid=7c47e388-9433-4092-857a-2e1a28e7faaa"},"vehicle_type_id":"4","last_reported":1707843945,"current_range_meters":31200,"station_id":"ce4bhs92rcd13ifvqi0g","pricing_plan_id":"cebpf4jnsgd1na2vs0mg"},{"bike_id":"4e0662dd-f42e-4625-95be-fcd4e4158af1","system_id":"levelo_inurba_marseille","lat":43.32829,"lon":5.36679,"is_reserved":false,"is_disabled":false,"rental_uris":{"android":"levelo://app?vid=4e0662dd-f42e-4625-95be-fcd4e4158af1","ios":"levelo://app?vid=4e0662dd-f42e-4625-95be-fcd4e4158af1"},"vehicle_type_id":"4","last_reported":1707843945,"current_range_meters":16400,"station_id":"ce4bhs92rcd13ifvqi0g","pricing_plan_id":"cebpf4jnsgd1na2vs0mg"},{"bike_id":"6df14f4e-5762-4688-823c-207c1d70636e","system_id":"levelo_inurba_marseille","lat":43.3283,"lon":5.3668,"is_reserved":false,"is_disabled":false,"rental_uris":{"android":"levelo://app?vid=6df14f4e-5762-4688-823c-207c1d70636e","ios":"levelo://app?vid=6df14f4e-5762-4688-823c-207c1d70636e"},"vehicle_type_id":"4","last_reported":1707843945,"current_range_meters":9600,"station_id":"ce4bhs92rcd13ifvqi0g","pricing_plan_id":"cebpf4jnsgd1na2vs0mg"},{"bike_id":"8d4d4aba-3495-4235-ada7-809a0bcb5c57","system_id":"levelo_inurba_marseille","lat":43.3283,"lon":5.36677,"is_reserved":false,"is_disabled":false,"rental_uris":{"android":"levelo://app?vid=8d4d4aba-3495-4235-ada7-809a0bcb5c57","ios":"levelo://app?vid=8d4d4aba-3495-4235-ada7-809a0bcb5c57"},"vehicle_type_id":"4","last_reported":1707843945,"current_range_meters":27600,"station_id":"ce4bhs92rcd13ifvqi0g","pricing_plan_id":"cebpf4jnsgd1na2vs0mg"},{"bike_id":"00c486e2-5b6f-4240-9c00-f34f4cd392e2","system_id":"levelo_inurba_marseille","lat":43.32831,"lon":5.36677,"is_reserved":false,"is_disabled":false,"rental_uris":{"android":"levelo://app?vid=00c486e2-5b6f-4240-9c00-f34f4cd392e2","ios":"levelo://app?vid=00c486e2-5b6f-4240-9c00-f34f4cd392e2"},"vehicle_type_id":"4","last_reported":1707843945,"current_range_meters":21600,"station_id":"ce4bhs92rcd13ifvqi0g","pricing_plan_id":"cebpf4jnsgd1na2vs0mg"},{"bike_id":"be51589e-7cba-42db-b428-aff85ce164db","system_id":"levelo_inurba_marseille","lat":43.32832,"lon":5.36695,"is_reserved":false,"is_disabled":false,"rental_uris":{"android":"levelo://app?vid=be51589e-7cba-42db-b428-aff85ce164db","ios":"levelo://app?vid=be51589e-7cba-42db-b428-aff85ce164db"},"vehicle_type_id":"4","last_reported":1707843945,"current_range_meters":24800,"station_id":"ce4bhs92rcd13ifvqi0g","pricing_plan_id":"cebpf4jnsgd1na2vs0mg"},{"bike_id":"e53477e0-6f81-44d0-bf92-8c0c4ae8ef5b","system_id":"levelo_inurba_marseille","lat":43.32832,"lon":5.36686,"is_reserved":false,"is_disabled":false,"rental_uris":{"android":"levelo://app?vid=e53477e0-6f81-44d0-bf92-8c0c4ae8ef5b","ios":"levelo://app?vid=e53477e0-6f81-44d0-bf92-8c0c4ae8ef5b"},"vehicle_type_id":"4","last_reported":1707843945,"current_range_meters":24400,"station_id":"ce4bhs92rcd13ifvqi0g","pricing_plan_id":"cebpf4jnsgd1na2vs0mg"},{"bike_id":"9490975f-68e5-4701-bbb9-fae5c68c09dd","system_id":"levelo_inurba_marseille","lat":43.32833,"lon":5.36681,"is_reserved":false,"is_disabled":false,"rental_uris":{"android":"levelo://app?vid=9490975f-68e5-4701-bbb9-fae5c68c09dd","ios":"levelo://app?vid=9490975f-68e5-4701-bbb9-fae5c68c09dd"},"vehicle_type_id":"4","last_reported":1707843945,"current_range_meters":16800,"station_id":"ce4bhs92rcd13ifvqi0g","pricing_plan_id":"cebpf4jnsgd1na2vs0mg"},{"bike_id":"ca9eb2bd-76f0-467a-b34d-3f09418a4a5b","system_id":"levelo_inurba_marseille","lat":43.297163,"lon":5.365866,"is_reserved":false,"is_disabled":false,"rental_uris":{"android":"levelo://app?vid=ca9eb2bd-76f0-467a-b34d-3f09418a4a5b","ios":"levelo://app?vid=ca9eb2bd-76f0-467a-b34d-3f09418a4a5b"},"vehicle_type_id":"4","last_reported":1707843945,"current_range_meters":31200,"station_id":"ce4bgn12rcd13ifvqbt0","pricing_plan_id":"cebpf4jnsgd1na2vs0mg"},{"bike_id":"a0e66be9-6092-4ebb-9269-39210451653a","system_id":"levelo_inurba_marseille","lat":43.29573,"lon":5.367355,"is_reserved":false,"is_disabled":false,"rental_uris":{"android":"levelo://app?vid=a0e66be9-6092-4ebb-9269-39210451653a","ios":"levelo://app?vid=a0e66be9-6092-4ebb-9269-39210451653a"},"vehicle_type_id":"4","last_reported":1707843945,"current_range_meters":18000,"station_id":"ce4bgph2rcd13ifvqc2g","pricing_plan_id":"cebpf4jnsgd1na2vs0mg"},{"bike_id":"b6c02c00-55b6-409b-a38f-7917d143766c","system_id":"levelo_inurba_marseille","lat":43.29584,"lon":5.3675,"is_reserved":false,"is_disabled":false,"rental_uris":{"android":"levelo://app?vid=b6c02c00-55b6-409b-a38f-7917d143766c","ios":"levelo://app?vid=b6c02c00-55b6-409b-a38f-7917d143766c"},"vehicle_type_id":"4","last_reported":1707843945,"current_range_meters":5600,"station_id":"","pricing_plan_id":"cebpf4jnsgd1na2vs0mg"},{"bike_id":"564bde8c-3f51-46dd-bb48-365477eeb747","system_id":"levelo_inurba_marseille","lat":43.29573,"lon":5.367355,"is_reserved":false,"is_disabled":false,"rental_uris":{"android":"levelo://app?vid=564bde8c-3f51-46dd-bb48-365477eeb747","ios":"levelo://app?vid=564bde8c-3f51-46dd-bb48-365477eeb747"},"vehicle_type_id":"4","last_reported":1707843945,"current_range_meters":1200,"station_id":"ce4bgph2rcd13ifvqc2g","pricing_plan_id":"cebpf4jnsgd1na2vs0mg"},{"bike_id":"cb36edbb-87a7-4d49-a2b4-b3139d4a586f","system_id":"levelo_inurba_marseille","lat":43.29573,"lon":5.367355,"is_reserved":false,"is_disabled":false,"rental_uris":{"android":"levelo://app?vid=cb36edbb-87a7-4d49-a2b4-b3139d4a586f","ios":"levelo://app?vid=cb36edbb-87a7-4d49-a2b4-b3139d4a586f"},"vehicle_type_id":"4","last_reported":1707843945,"current_range_meters":17600,"station_id":"ce4bgph2rcd13ifvqc2g","pricing_plan_id":"cebpf4jnsgd1na2vs0mg"},{"bike_id":"c236caf6-3798-40e4-9db9-72504454f289","system_id":"levelo_inurba_marseille","lat":43.29573,"lon":5.367355,"is_reserved":false,"is_disabled":false,"rental_uris":{"android":"levelo://app?vid=c236caf6-3798-40e4-9db9-72504454f289","ios":"levelo://app?vid=c236caf6-3798-40e4-9db9-72504454f289"},"vehicle_type_id":"4","last_reported":1707843945,"current_range_meters":0,"station_id":"ce4bgph2rcd13ifvqc2g","pricing_plan_id":"cebpf4jnsgd1na2vs0mg"},{"bike_id":"635b827c-7351-4e6f-aef7-43f359d5db38","system_id":"levelo_inurba_marseille","lat":43.32892,"lon":5.37498,"is_reserved":false,"is_disabled":false,"rental_uris":{"android":"levelo://app?vid=635b827c-7351-4e6f-aef7-43f359d5db38","ios":"levelo://app?vid=635b827c-7351-4e6f-aef7-43f359d5db38"},"vehicle_type_id":"4","last_reported":1707843945,"current_range_meters":28400,"station_id":"","pricing_plan_id":"cebpf4jnsgd1na2vs0mg"},{"bike_id":"d0441ffa-52e8-4663-b61e-5ace3ff25022","system_id":"levelo_inurba_marseille","lat":43.299028,"lon":5.381509,"is_reserved":false,"is_disabled":false,"rental_uris":{"android":"levelo://app?vid=d0441ffa-52e8-4663-b61e-5ace3ff25022","ios":"levelo://app?vid=d0441ffa-52e8-4663-b61e-5ace3ff25022"},"vehicle_type_id":"4","last_reported":1707843945,"current_range_meters":15600,"station_id":"ce4bgj12rcd13ifvqbc0","pricing_plan_id":"cebpf4jnsgd1na2vs0mg"},{"bike_id":"72af6b8a-edd8-4be4-91fe-62a356de54ee","system_id":"levelo_inurba_marseille","lat":43.309589,"lon":5.390258,"is_reserved":false,"is_disabled":false,"rental_uris":{"android":"levelo://app?vid=72af6b8a-edd8-4be4-91fe-62a356de54ee","ios":"levelo://app?vid=72af6b8a-edd8-4be4-91fe-62a356de54ee"},"vehicle_type_id":"4","last_reported":1707843945,"current_range_meters":10400,"station_id":"ce4bgup2rcd13ifvqco0","pricing_plan_id":"cebpf4jnsgd1na2vs0mg"},{"bike_id":"361c1cec-19a1-4b5c-9230-6ff1ab44bee0","system_id":"levelo_inurba_marseille","lat":43.295748,"lon":5.37522,"is_reserved":false,"is_disabled":false,"rental_uris":{"android":"levelo://app?vid=361c1cec-19a1-4b5c-9230-6ff1ab44bee0","ios":"levelo://app?vid=361c1cec-19a1-4b5c-9230-6ff1ab44bee0"},"vehicle_type_id":"4","last_reported":1707843945,"current_range_meters":19200,"station_id":"ce4bgh92rcd13ifvqb50","pricing_plan_id":"cebpf4jnsgd1na2vs0mg"},{"bike_id":"c5a1b981-4746-44b3-8543-4b5e6c0474dc","system_id":"levelo_inurba_marseille","lat":43.299028,"lon":5.381509,"is_reserved":false,"is_disabled":false,"rental_uris":{"android":"levelo://app?vid=c5a1b981-4746-44b3-8543-4b5e6c0474dc","ios":"levelo://app?vid=c5a1b981-4746-44b3-8543-4b5e6c0474dc"},"vehicle_type_id":"4","last_reported":1707843945,"current_range_meters":14800,"station_id":"ce4bgj12rcd13ifvqbc0","pricing_plan_id":"cebpf4jnsgd1na2vs0mg"},{"bike_id":"f64ebc6a-59c8-4321-b427-588607fa2f8c","system_id":"levelo_inurba_marseille","lat":43.299028,"lon":5.381509,"is_reserved":false,"is_disabled":false,"rental_uris":{"android":"levelo://app?vid=f64ebc6a-59c8-4321-b427-588607fa2f8c","ios":"levelo://app?vid=f64ebc6a-59c8-4321-b427-588607fa2f8c"},"vehicle_type_id":"4","last_reported":1707843945,"current_range_meters":16000,"station_id":"ce4bgj12rcd13ifvqbc0","pricing_plan_id":"cebpf4jnsgd1na2vs0mg"},{"bike_id":"2cf10082-dcc3-4794-b770-7eaf19fc61cb","system_id":"levelo_inurba_marseille","lat":43.31742,"lon":5.39,"is_reserved":false,"is_disabled":false,"rental_uris":{"android":"levelo://app?vid=2cf10082-dcc3-4794-b770-7eaf19fc61cb","ios":"levelo://app?vid=2cf10082-dcc3-4794-b770-7eaf19fc61cb"},"vehicle_type_id":"4","last_reported":1707843945,"current_range_meters":8000,"station_id":"","pricing_plan_id":"cebpf4jnsgd1na2vs0mg"},{"bike_id":"9310559c-22d3-4744-8b16-cacb48dba489","system_id":"levelo_inurba_marseille","lat":43.317557,"lon":5.390173,"is_reserved":false,"is_disabled":false,"rental_uris":{"android":"levelo://app?vid=9310559c-22d3-4744-8b16-cacb48dba489","ios":"levelo://app?vid=9310559c-22d3-4744-8b16-cacb48dba489"},"vehicle_type_id":"4","last_reported":1707843945,"current_range_meters":31200,"station_id":"ce4bhqp2rcd13ifvqhng","pricing_plan_id":"cebpf4jnsgd1na2vs0mg"},{"bike_id":"56248476-4f8c-46b8-bc3b-371e42bea68f","system_id":"levelo_inurba_marseille","lat":43.317557,"lon":5.390173,"is_reserved":false,"is_disabled":false,"rental_uris":{"android":"levelo://app?vid=56248476-4f8c-46b8-bc3b-371e42bea68f","ios":"levelo://app?vid=56248476-4f8c-46b8-bc3b-371e42bea68f"},"vehicle_type_id":"4","last_reported":1707843945,"current_range_meters":31200,"station_id":"ce4bhqp2rcd13ifvqhng","pricing_plan_id":"cebpf4jnsgd1na2vs0mg"},{"bike_id":"0d568f49-9e25-417a-91e9-babe78949eca","system_id":"levelo_inurba_marseille","lat":43.317557,"lon":5.390173,"is_reserved":false,"is_disabled":false,"rental_uris":{"android":"levelo://app?vid=0d568f49-9e25-417a-91e9-babe78949eca","ios":"levelo://app?vid=0d568f49-9e25-417a-91e9-babe78949eca"},"vehicle_type_id":"4","last_reported":1707843945,"current_range_meters":30400,"station_id":"ce4bhqp2rcd13ifvqhng","pricing_plan_id":"cebpf4jnsgd1na2vs0mg"},{"bike_id":"3a8256a7-5c98-4e7e-8621-8a921558ea8d","system_id":"levelo_inurba_marseille","lat":43.317557,"lon":5.390173,"is_reserved":false,"is_disabled":false,"rental_uris":{"android":"levelo://app?vid=3a8256a7-5c98-4e7e-8621-8a921558ea8d","ios":"levelo://app?vid=3a8256a7-5c98-4e7e-8621-8a921558ea8d"},"vehicle_type_id":"4","last_reported":1707843945,"current_range_meters":31200,"station_id":"ce4bhqp2rcd13ifvqhng","pricing_plan_id":"cebpf4jnsgd1na2vs0mg"},{"bike_id":"6bbdbcf9-8545-4c1a-866f-b1aacd2086cc","system_id":"levelo_inurba_marseille","lat":43.317557,"lon":5.390173,"is_reserved":false,"is_disabled":false,"rental_uris":{"android":"levelo://app?vid=6bbdbcf9-8545-4c1a-866f-b1aacd2086cc","ios":"levelo://app?vid=6bbdbcf9-8545-4c1a-866f-b1aacd2086cc"},"vehicle_type_id":"4","last_reported":1707843945,"current_range_meters":22000,"station_id":"ce4bhqp2rcd13ifvqhng","pricing_plan_id":"cebpf4jnsgd1na2vs0mg"},{"bike_id":"a66fec16-5c26-4073-bc2a-b4cafe2573db","system_id":"levelo_inurba_marseille","lat":43.2975,"lon":5.37929,"is_reserved":false,"is_disabled":false,"rental_uris":{"android":"levelo://app?vid=a66fec16-5c26-4073-bc2a-b4cafe2573db","ios":"levelo://app?vid=a66fec16-5c26-4073-bc2a-b4cafe2573db"},"vehicle_type_id":"4","last_reported":1707843945,"current_range_meters":4000,"station_id":"","pricing_plan_id":"cebpf4jnsgd1na2vs0mg"},{"bike_id":"87dca717-0ccb-4731-8b48-48db74325e38","system_id":"levelo_inurba_marseille","lat":43.298037,"lon":5.381066,"is_reserved":false,"is_disabled":false,"rental_uris":{"android":"levelo://app?vid=87dca717-0ccb-4731-8b48-48db74325e38","ios":"levelo://app?vid=87dca717-0ccb-4731-8b48-48db74325e38"},"vehicle_type_id":"4","last_reported":1707843945,"current_range_meters":31200,"station_id":"ce4bgip2rcd13ifvqbb0","pricing_plan_id":"cebpf4jnsgd1na2vs0mg"},{"bike_id":"cfbbf573-b4f8-4883-baf0-ceacbdeda221","system_id":"levelo_inurba_marseille","lat":43.29798,"lon":5.380967,"is_reserved":false,"is_disabled":false,"rental_uris":{"android":"levelo://app?vid=cfbbf573-b4f8-4883-baf0-ceacbdeda221","ios":"levelo://app?vid=cfbbf573-b4f8-4883-baf0-ceacbdeda221"},"vehicle_type_id":"4","last_reported":1707843945,"current_range_meters":14000,"station_id":"ce4bgip2rcd13ifvqbb0","pricing_plan_id":"cebpf4jnsgd1na2vs0mg"},{"bike_id":"828a125f-aa0c-4973-acec-eed2dc253f1f","system_id":"levelo_inurba_marseille","lat":43.304311,"lon":5.388736,"is_reserved":false,"is_disabled":false,"rental_uris":{"android":"levelo://app?vid=828a125f-aa0c-4973-acec-eed2dc253f1f","ios":"levelo://app?vid=828a125f-aa0c-4973-acec-eed2dc253f1f"},"vehicle_type_id":"4","last_reported":1707843945,"current_range_meters":16400,"station_id":"ce4bgk12rcd13ifvqbi0","pricing_plan_id":"cebpf4jnsgd1na2vs0mg"},{"bike_id":"95d0c323-3d08-48ea-903f-77794dc40bee","system_id":"levelo_inurba_marseille","lat":43.298037,"lon":5.381066,"is_reserved":false,"is_disabled":false,"rental_uris":{"android":"levelo://app?vid=95d0c323-3d08-48ea-903f-77794dc40bee","ios":"levelo://app?vid=95d0c323-3d08-48ea-903f-77794dc40bee"},"vehicle_type_id":"4","last_reported":1707843945,"current_range_meters":23200,"station_id":"ce4bgip2rcd13ifvqbb0","pricing_plan_id":"cebpf4jnsgd1na2vs0mg"},{"bike_id":"8c455002-8501-4512-9c0d-329865224a2d","system_id":"levelo_inurba_marseille","lat":43.304274,"lon":5.388873,"is_reserved":false,"is_disabled":false,"rental_uris":{"android":"levelo://app?vid=8c455002-8501-4512-9c0d-329865224a2d","ios":"levelo://app?vid=8c455002-8501-4512-9c0d-329865224a2d"},"vehicle_type_id":"4","last_reported":1707843945,"current_range_meters":23600,"station_id":"ce4bgk12rcd13ifvqbi0","pricing_plan_id":"cebpf4jnsgd1na2vs0mg"},{"bike_id":"85270255-8aa0-483e-b33e-694abe7d2afa","system_id":"levelo_inurba_marseille","lat":43.304274,"lon":5.388873,"is_reserved":false,"is_disabled":false,"rental_uris":{"android":"levelo://app?vid=85270255-8aa0-483e-b33e-694abe7d2afa","ios":"levelo://app?vid=85270255-8aa0-483e-b33e-694abe7d2afa"},"vehicle_type_id":"4","last_reported":1707843945,"current_range_meters":20000,"station_id":"ce4bgk12rcd13ifvqbi0","pricing_plan_id":"cebpf4jnsgd1na2vs0mg"},{"bike_id":"914e47b7-9c23-44bd-a09f-cb3eae1a4118","system_id":"levelo_inurba_marseille","lat":43.304274,"lon":5.388873,"is_reserved":false,"is_disabled":false,"rental_uris":{"android":"levelo://app?vid=914e47b7-9c23-44bd-a09f-cb3eae1a4118","ios":"levelo://app?vid=914e47b7-9c23-44bd-a09f-cb3eae1a4118"},"vehicle_type_id":"4","last_reported":1707843945,"current_range_meters":2000,"station_id":"ce4bgk12rcd13ifvqbi0","pricing_plan_id":"cebpf4jnsgd1na2vs0mg"},{"bike_id":"29086e52-d608-46de-adcf-77d8c40e82e5","system_id":"levelo_inurba_marseille","lat":43.297375,"lon":5.380005,"is_reserved":false,"is_disabled":false,"rental_uris":{"android":"levelo://app?vid=29086e52-d608-46de-adcf-77d8c40e82e5","ios":"levelo://app?vid=29086e52-d608-46de-adcf-77d8c40e82e5"},"vehicle_type_id":"4","last_reported":1707843945,"current_range_meters":0,"station_id":"","pricing_plan_id":"cebpf4jnsgd1na2vs0mg"},{"bike_id":"7391e440-ab1d-4138-a779-49c61e52fa00","system_id":"levelo_inurba_marseille","lat":43.295748,"lon":5.37522,"is_reserved":false,"is_disabled":false,"rental_uris":{"android":"levelo://app?vid=7391e440-ab1d-4138-a779-49c61e52fa00","ios":"levelo://app?vid=7391e440-ab1d-4138-a779-49c61e52fa00"},"vehicle_type_id":"4","last_reported":1707843945,"current_range_meters":22800,"station_id":"ce4bgh92rcd13ifvqb50","pricing_plan_id":"cebpf4jnsgd1na2vs0mg"},{"bike_id":"88dcc8fa-eda2-406e-8daa-4a86ad32696c","system_id":"levelo_inurba_marseille","lat":43.29617,"lon":5.377274,"is_reserved":false,"is_disabled":false,"rental_uris":{"android":"levelo://app?vid=88dcc8fa-eda2-406e-8daa-4a86ad32696c","ios":"levelo://app?vid=88dcc8fa-eda2-406e-8daa-4a86ad32696c"},"vehicle_type_id":"4","last_reported":1707843945,"current_range_meters":23200,"station_id":"ce4bgi92rcd13ifvqb90","pricing_plan_id":"cebpf4jnsgd1na2vs0mg"},{"bike_id":"a3f38656-e994-4932-9aa2-4fd6a3149bf0","system_id":"levelo_inurba_marseille","lat":43.295279,"lon":5.375048,"is_reserved":false,"is_disabled":false,"rental_uris":{"android":"levelo://app?vid=a3f38656-e994-4932-9aa2-4fd6a3149bf0","ios":"levelo://app?vid=a3f38656-e994-4932-9aa2-4fd6a3149bf0"},"vehicle_type_id":"4","last_reported":1707843945,"current_range_meters":22000,"station_id":"ce4bgkp2rcd13ifvqbmg","pricing_plan_id":"cebpf4jnsgd1na2vs0mg"},{"bike_id":"35042f18-6424-432c-b8cf-1776f681171b","system_id":"levelo_inurba_marseille","lat":43.304274,"lon":5.388873,"is_reserved":false,"is_disabled":false,"rental_uris":{"android":"levelo://app?vid=35042f18-6424-432c-b8cf-1776f681171b","ios":"levelo://app?vid=35042f18-6424-432c-b8cf-1776f681171b"},"vehicle_type_id":"4","last_reported":1707843945,"current_range_meters":10000,"station_id":"ce4bgk12rcd13ifvqbi0","pricing_plan_id":"cebpf4jnsgd1na2vs0mg"},{"bike_id":"705da99b-eb32-4593-9ce5-3afb7f6b914a","system_id":"levelo_inurba_marseille","lat":43.29605,"lon":5.3773,"is_reserved":false,"is_disabled":false,"rental_uris":{"android":"levelo://app?vid=705da99b-eb32-4593-9ce5-3afb7f6b914a","ios":"levelo://app?vid=705da99b-eb32-4593-9ce5-3afb7f6b914a"},"vehicle_type_id":"4","last_reported":1707843945,"current_range_meters":0,"station_id":"ce4bgi92rcd13ifvqb90","pricing_plan_id":"cebpf4jnsgd1na2vs0mg"},{"bike_id":"4ef1a50c-1356-41c1-9852-5394425684e2","system_id":"levelo_inurba_marseille","lat":43.295279,"lon":5.375048,"is_reserved":false,"is_disabled":false,"rental_uris":{"android":"levelo://app?vid=4ef1a50c-1356-41c1-9852-5394425684e2","ios":"levelo://app?vid=4ef1a50c-1356-41c1-9852-5394425684e2"},"vehicle_type_id":"4","last_reported":1707843945,"current_range_meters":3600,"station_id":"ce4bgkp2rcd13ifvqbmg","pricing_plan_id":"cebpf4jnsgd1na2vs0mg"},{"bike_id":"598e263e-e7fb-46a8-a930-daabc38e6fae","system_id":"levelo_inurba_marseille","lat":43.295279,"lon":5.375048,"is_reserved":false,"is_disabled":false,"rental_uris":{"android":"levelo://app?vid=598e263e-e7fb-46a8-a930-daabc38e6fae","ios":"levelo://app?vid=598e263e-e7fb-46a8-a930-daabc38e6fae"},"vehicle_type_id":"4","last_reported":1707843945,"current_range_meters":5600,"station_id":"ce4bgkp2rcd13ifvqbmg","pricing_plan_id":"cebpf4jnsgd1na2vs0mg"},{"bike_id":"6596a3d4-ecc2-4fd5-af40-e04a8c40d629","system_id":"levelo_inurba_marseille","lat":43.299707,"lon":5.384859,"is_reserved":false,"is_disabled":false,"rental_uris":{"android":"levelo://app?vid=6596a3d4-ecc2-4fd5-af40-e04a8c40d629","ios":"levelo://app?vid=6596a3d4-ecc2-4fd5-af40-e04a8c40d629"},"vehicle_type_id":"4","last_reported":1707843945,"current_range_meters":7600,"station_id":"ce4bgj92rcd13ifvqbd0","pricing_plan_id":"cebpf4jnsgd1na2vs0mg"},{"bike_id":"1e16e64f-4481-46c7-9313-7361bc0c28bd","system_id":"levelo_inurba_marseille","lat":43.299707,"lon":5.384859,"is_reserved":false,"is_disabled":false,"rental_uris":{"android":"levelo://app?vid=1e16e64f-4481-46c7-9313-7361bc0c28bd","ios":"levelo://app?vid=1e16e64f-4481-46c7-9313-7361bc0c28bd"},"vehicle_type_id":"4","last_reported":1707843945,"current_range_meters":12000,"station_id":"ce4bgj92rcd13ifvqbd0","pricing_plan_id":"cebpf4jnsgd1na2vs0mg"},{"bike_id":"afa133fe-7615-4f73-8973-ba4ad4f7f42f","system_id":"levelo_inurba_marseille","lat":43.295279,"lon":5.375048,"is_reserved":false,"is_disabled":false,"rental_uris":{"android":"levelo://app?vid=afa133fe-7615-4f73-8973-ba4ad4f7f42f","ios":"levelo://app?vid=afa133fe-7615-4f73-8973-ba4ad4f7f42f"},"vehicle_type_id":"4","last_reported":1707843945,"current_range_meters":27600,"station_id":"ce4bgkp2rcd13ifvqbmg","pricing_plan_id":"cebpf4jnsgd1na2vs0mg"},{"bike_id":"4aca934d-1685-4ab4-8a61-ed3b54e9b816","system_id":"levelo_inurba_marseille","lat":43.299707,"lon":5.384859,"is_reserved":false,"is_disabled":false,"rental_uris":{"android":"levelo://app?vid=4aca934d-1685-4ab4-8a61-ed3b54e9b816","ios":"levelo://app?vid=4aca934d-1685-4ab4-8a61-ed3b54e9b816"},"vehicle_type_id":"4","last_reported":1707843945,"current_range_meters":18800,"station_id":"ce4bgj92rcd13ifvqbd0","pricing_plan_id":"cebpf4jnsgd1na2vs0mg"},{"bike_id":"cd5f1323-9f88-4566-808c-faf87e3f5be2","system_id":"levelo_inurba_marseille","lat":43.299717,"lon":5.384845,"is_reserved":false,"is_disabled":false,"rental_uris":{"android":"levelo://app?vid=cd5f1323-9f88-4566-808c-faf87e3f5be2","ios":"levelo://app?vid=cd5f1323-9f88-4566-808c-faf87e3f5be2"},"vehicle_type_id":"4","last_reported":1707843945,"current_range_meters":11600,"station_id":"ce4bgj92rcd13ifvqbd0","pricing_plan_id":"cebpf4jnsgd1na2vs0mg"},{"bike_id":"62d51d57-9823-456e-bcb4-89cae27fb62f","system_id":"levelo_inurba_marseille","lat":43.299717,"lon":5.384845,"is_reserved":false,"is_disabled":false,"rental_uris":{"android":"levelo://app?vid=62d51d57-9823-456e-bcb4-89cae27fb62f","ios":"levelo://app?vid=62d51d57-9823-456e-bcb4-89cae27fb62f"},"vehicle_type_id":"4","last_reported":1707843945,"current_range_meters":16000,"station_id":"ce4bgj92rcd13ifvqbd0","pricing_plan_id":"cebpf4jnsgd1na2vs0mg"},{"bike_id":"9e561770-7148-4dac-b4e8-355850f3da0d","system_id":"levelo_inurba_marseille","lat":43.2997,"lon":5.38493,"is_reserved":false,"is_disabled":false,"rental_uris":{"android":"levelo://app?vid=9e561770-7148-4dac-b4e8-355850f3da0d","ios":"levelo://app?vid=9e561770-7148-4dac-b4e8-355850f3da0d"},"vehicle_type_id":"4","last_reported":1707843945,"current_range_meters":4800,"station_id":"ce4bgj92rcd13ifvqbd0","pricing_plan_id":"cebpf4jnsgd1na2vs0mg"},{"bike_id":"aef8989e-b5ee-4c40-ae72-7549f49165e7","system_id":"levelo_inurba_marseille","lat":43.299717,"lon":5.384845,"is_reserved":false,"is_disabled":false,"rental_uris":{"android":"levelo://app?vid=aef8989e-b5ee-4c40-ae72-7549f49165e7","ios":"levelo://app?vid=aef8989e-b5ee-4c40-ae72-7549f49165e7"},"vehicle_type_id":"4","last_reported":1707843945,"current_range_meters":18800,"station_id":"ce4bgj92rcd13ifvqbd0","pricing_plan_id":"cebpf4jnsgd1na2vs0mg"},{"bike_id":"6b7e86e5-da10-412f-ac8f-e93c1e41f445","system_id":"levelo_inurba_marseille","lat":43.299724,"lon":5.384848,"is_reserved":false,"is_disabled":false,"rental_uris":{"android":"levelo://app?vid=6b7e86e5-da10-412f-ac8f-e93c1e41f445","ios":"levelo://app?vid=6b7e86e5-da10-412f-ac8f-e93c1e41f445"},"vehicle_type_id":"4","last_reported":1707843945,"current_range_meters":12400,"station_id":"ce4bgj92rcd13ifvqbd0","pricing_plan_id":"cebpf4jnsgd1na2vs0mg"},{"bike_id":"88cc0243-2081-45f3-8e5d-77819dfd71a3","system_id":"levelo_inurba_marseille","lat":43.295279,"lon":5.375048,"is_reserved":false,"is_disabled":false,"rental_uris":{"android":"levelo://app?vid=88cc0243-2081-45f3-8e5d-77819dfd71a3","ios":"levelo://app?vid=88cc0243-2081-45f3-8e5d-77819dfd71a3"},"vehicle_type_id":"4","last_reported":1707843945,"current_range_meters":9600,"station_id":"ce4bgkp2rcd13ifvqbmg","pricing_plan_id":"cebpf4jnsgd1na2vs0mg"},{"bike_id":"3c0add47-f927-44e9-8cac-97f556432ba7","system_id":"levelo_inurba_marseille","lat":43.29963,"lon":5.38505,"is_reserved":false,"is_disabled":false,"rental_uris":{"android":"levelo://app?vid=3c0add47-f927-44e9-8cac-97f556432ba7","ios":"levelo://app?vid=3c0add47-f927-44e9-8cac-97f556432ba7"},"vehicle_type_id":"4","last_reported":1707843945,"current_range_meters":17600,"station_id":"ce4bgj92rcd13ifvqbd0","pricing_plan_id":"cebpf4jnsgd1na2vs0mg"},{"bike_id":"4ffa3c67-16a4-4159-b4b8-c2ee238d9b41","system_id":"levelo_inurba_marseille","lat":43.295279,"lon":5.375048,"is_reserved":false,"is_disabled":false,"rental_uris":{"android":"levelo://app?vid=4ffa3c67-16a4-4159-b4b8-c2ee238d9b41","ios":"levelo://app?vid=4ffa3c67-16a4-4159-b4b8-c2ee238d9b41"},"vehicle_type_id":"4","last_reported":1707843945,"current_range_meters":2800,"station_id":"ce4bgkp2rcd13ifvqbmg","pricing_plan_id":"cebpf4jnsgd1na2vs0mg"},{"bike_id":"635e7e0c-6f57-400e-9f7d-398fea80d231","system_id":"levelo_inurba_marseille","lat":43.32358,"lon":5.38881,"is_reserved":false,"is_disabled":false,"rental_uris":{"android":"levelo://app?vid=635e7e0c-6f57-400e-9f7d-398fea80d231","ios":"levelo://app?vid=635e7e0c-6f57-400e-9f7d-398fea80d231"},"vehicle_type_id":"4","last_reported":1707843945,"current_range_meters":18400,"station_id":"ce4bhqp2rcd13ifvqhog","pricing_plan_id":"cebpf4jnsgd1na2vs0mg"},{"bike_id":"0b347062-1331-48cb-b403-04c6d1e698b4","system_id":"levelo_inurba_marseille","lat":43.32365,"lon":5.38879,"is_reserved":false,"is_disabled":false,"rental_uris":{"android":"levelo://app?vid=0b347062-1331-48cb-b403-04c6d1e698b4","ios":"levelo://app?vid=0b347062-1331-48cb-b403-04c6d1e698b4"},"vehicle_type_id":"4","last_reported":1707843945,"current_range_meters":16800,"station_id":"ce4bhqp2rcd13ifvqhog","pricing_plan_id":"cebpf4jnsgd1na2vs0mg"},{"bike_id":"cb18e477-469c-4e90-8bdd-e86ad008f8e6","system_id":"levelo_inurba_marseille","lat":43.32363,"lon":5.38883,"is_reserved":false,"is_disabled":false,"rental_uris":{"android":"levelo://app?vid=cb18e477-469c-4e90-8bdd-e86ad008f8e6","ios":"levelo://app?vid=cb18e477-469c-4e90-8bdd-e86ad008f8e6"},"vehicle_type_id":"4","last_reported":1707843945,"current_range_meters":10400,"station_id":"ce4bhqp2rcd13ifvqhog","pricing_plan_id":"cebpf4jnsgd1na2vs0mg"},{"bike_id":"f5282dfa-c86f-4ec3-950f-72b13da3aa9f","system_id":"levelo_inurba_marseille","lat":43.32367,"lon":5.388836,"is_reserved":false,"is_disabled":false,"rental_uris":{"android":"levelo://app?vid=f5282dfa-c86f-4ec3-950f-72b13da3aa9f","ios":"levelo://app?vid=f5282dfa-c86f-4ec3-950f-72b13da3aa9f"},"vehicle_type_id":"4","last_reported":1707843945,"current_range_meters":15200,"station_id":"ce4bhqp2rcd13ifvqhog","pricing_plan_id":"cebpf4jnsgd1na2vs0mg"},{"bike_id":"812e6cd4-fc1c-470d-b7d4-b263c08a1fad","system_id":"levelo_inurba_marseille","lat":43.32366,"lon":5.38886,"is_reserved":false,"is_disabled":false,"rental_uris":{"android":"levelo://app?vid=812e6cd4-fc1c-470d-b7d4-b263c08a1fad","ios":"levelo://app?vid=812e6cd4-fc1c-470d-b7d4-b263c08a1fad"},"vehicle_type_id":"4","last_reported":1707843945,"current_range_meters":30400,"station_id":"ce4bhqp2rcd13ifvqhog","pricing_plan_id":"cebpf4jnsgd1na2vs0mg"},{"bike_id":"c8da6197-88bc-4d80-b1b0-408123696975","system_id":"levelo_inurba_marseille","lat":43.323949,"lon":5.388608,"is_reserved":false,"is_disabled":false,"rental_uris":{"android":"levelo://app?vid=c8da6197-88bc-4d80-b1b0-408123696975","ios":"levelo://app?vid=c8da6197-88bc-4d80-b1b0-408123696975"},"vehicle_type_id":"4","last_reported":1707843945,"current_range_meters":20000,"station_id":"ce4bhqp2rcd13ifvqhog","pricing_plan_id":"cebpf4jnsgd1na2vs0mg"},{"bike_id":"0e0699ad-67da-434d-ada2-b82f05322f52","system_id":"levelo_inurba_marseille","lat":43.32368,"lon":5.38887,"is_reserved":false,"is_disabled":false,"rental_uris":{"android":"levelo://app?vid=0e0699ad-67da-434d-ada2-b82f05322f52","ios":"levelo://app?vid=0e0699ad-67da-434d-ada2-b82f05322f52"},"vehicle_type_id":"4","last_reported":1707843945,"current_range_meters":11200,"station_id":"ce4bhqp2rcd13ifvqhog","pricing_plan_id":"cebpf4jnsgd1na2vs0mg"},{"bike_id":"c814b3c0-3206-4333-9010-f90f4bcf60b7","system_id":"levelo_inurba_marseille","lat":43.32367,"lon":5.38889,"is_reserved":false,"is_disabled":false,"rental_uris":{"android":"levelo://app?vid=c814b3c0-3206-4333-9010-f90f4bcf60b7","ios":"levelo://app?vid=c814b3c0-3206-4333-9010-f90f4bcf60b7"},"vehicle_type_id":"4","last_reported":1707843945,"current_range_meters":26400,"station_id":"ce4bhqp2rcd13ifvqhog","pricing_plan_id":"cebpf4jnsgd1na2vs0mg"},{"bike_id":"dda016c9-25a8-4e98-89c2-61cf41b68115","system_id":"levelo_inurba_marseille","lat":43.32368,"lon":5.38889,"is_reserved":false,"is_disabled":false,"rental_uris":{"android":"levelo://app?vid=dda016c9-25a8-4e98-89c2-61cf41b68115","ios":"levelo://app?vid=dda016c9-25a8-4e98-89c2-61cf41b68115"},"vehicle_type_id":"4","last_reported":1707843945,"current_range_meters":14800,"station_id":"ce4bhqp2rcd13ifvqhog","pricing_plan_id":"cebpf4jnsgd1na2vs0mg"},{"bike_id":"962a2672-753a-4167-9ccf-0e439c02e452","system_id":"levelo_inurba_marseille","lat":43.29601,"lon":5.381084,"is_reserved":false,"is_disabled":false,"rental_uris":{"android":"levelo://app?vid=962a2672-753a-4167-9ccf-0e439c02e452","ios":"levelo://app?vid=962a2672-753a-4167-9ccf-0e439c02e452"},"vehicle_type_id":"4","last_reported":1707843945,"current_range_meters":0,"station_id":"ce4bgl12rcd13ifvqbo0","pricing_plan_id":"cebpf4jnsgd1na2vs0mg"},{"bike_id":"9b233d2e-e9e1-4503-9543-381c61b430ad","system_id":"levelo_inurba_marseille","lat":43.292749,"lon":5.368398,"is_reserved":false,"is_disabled":false,"rental_uris":{"android":"levelo://app?vid=9b233d2e-e9e1-4503-9543-381c61b430ad","ios":"levelo://app?vid=9b233d2e-e9e1-4503-9543-381c61b430ad"},"vehicle_type_id":"4","last_reported":1707843945,"current_range_meters":26400,"station_id":"ce4bhbp2rcd13ifvqesg","pricing_plan_id":"cebpf4jnsgd1na2vs0mg"},{"bike_id":"2f89af73-7d6c-4fc5-be27-3f8aef168f39","system_id":"levelo_inurba_marseille","lat":43.292749,"lon":5.368402,"is_reserved":false,"is_disabled":false,"rental_uris":{"android":"levelo://app?vid=2f89af73-7d6c-4fc5-be27-3f8aef168f39","ios":"levelo://app?vid=2f89af73-7d6c-4fc5-be27-3f8aef168f39"},"vehicle_type_id":"4","last_reported":1707843945,"current_range_meters":22800,"station_id":"ce4bhbp2rcd13ifvqesg","pricing_plan_id":"cebpf4jnsgd1na2vs0mg"},{"bike_id":"a0861711-6a5c-43ee-a5f6-d1ee93a3ff85","system_id":"levelo_inurba_marseille","lat":43.293249,"lon":5.371578,"is_reserved":false,"is_disabled":false,"rental_uris":{"android":"levelo://app?vid=a0861711-6a5c-43ee-a5f6-d1ee93a3ff85","ios":"levelo://app?vid=a0861711-6a5c-43ee-a5f6-d1ee93a3ff85"},"vehicle_type_id":"4","last_reported":1707843945,"current_range_meters":29600,"station_id":"ce4bgh92rcd13ifvqb40","pricing_plan_id":"cebpf4jnsgd1na2vs0mg"},{"bike_id":"d9cfde08-72d0-4be2-bc71-80633255060a","system_id":"levelo_inurba_marseille","lat":43.292749,"lon":5.368402,"is_reserved":false,"is_disabled":false,"rental_uris":{"android":"levelo://app?vid=d9cfde08-72d0-4be2-bc71-80633255060a","ios":"levelo://app?vid=d9cfde08-72d0-4be2-bc71-80633255060a"},"vehicle_type_id":"4","last_reported":1707843945,"current_range_meters":21200,"station_id":"ce4bhbp2rcd13ifvqesg","pricing_plan_id":"cebpf4jnsgd1na2vs0mg"},{"bike_id":"2eb24528-edf4-499f-8352-1f99b499691f","system_id":"levelo_inurba_marseille","lat":43.293259,"lon":5.371586,"is_reserved":false,"is_disabled":false,"rental_uris":{"android":"levelo://app?vid=2eb24528-edf4-499f-8352-1f99b499691f","ios":"levelo://app?vid=2eb24528-edf4-499f-8352-1f99b499691f"},"vehicle_type_id":"4","last_reported":1707843945,"current_range_meters":20000,"station_id":"ce4bgh92rcd13ifvqb40","pricing_plan_id":"cebpf4jnsgd1na2vs0mg"},{"bike_id":"5d69e9e9-d25c-4057-bef3-b90319ca515d","system_id":"levelo_inurba_marseille","lat":43.292715,"lon":5.36843,"is_reserved":false,"is_disabled":false,"rental_uris":{"android":"levelo://app?vid=5d69e9e9-d25c-4057-bef3-b90319ca515d","ios":"levelo://app?vid=5d69e9e9-d25c-4057-bef3-b90319ca515d"},"vehicle_type_id":"4","last_reported":1707843945,"current_range_meters":25200,"station_id":"ce4bhbp2rcd13ifvqesg","pricing_plan_id":"cebpf4jnsgd1na2vs0mg"},{"bike_id":"c0473769-7da7-4024-84b8-805611e335d9","system_id":"levelo_inurba_marseille","lat":43.292749,"lon":5.368402,"is_reserved":false,"is_disabled":false,"rental_uris":{"android":"levelo://app?vid=c0473769-7da7-4024-84b8-805611e335d9","ios":"levelo://app?vid=c0473769-7da7-4024-84b8-805611e335d9"},"vehicle_type_id":"4","last_reported":1707843945,"current_range_meters":27200,"station_id":"ce4bhbp2rcd13ifvqesg","pricing_plan_id":"cebpf4jnsgd1na2vs0mg"},{"bike_id":"32932803-5e4c-4fc5-88b5-5e271b041d82","system_id":"levelo_inurba_marseille","lat":43.29264,"lon":5.3684,"is_reserved":false,"is_disabled":false,"rental_uris":{"android":"levelo://app?vid=32932803-5e4c-4fc5-88b5-5e271b041d82","ios":"levelo://app?vid=32932803-5e4c-4fc5-88b5-5e271b041d82"},"vehicle_type_id":"4","last_reported":1707843945,"current_range_meters":30000,"station_id":"ce4bhbp2rcd13ifvqesg","pricing_plan_id":"cebpf4jnsgd1na2vs0mg"},{"bike_id":"05b6e15b-940b-4bbe-bce3-af532a15d6d8","system_id":"levelo_inurba_marseille","lat":43.292749,"lon":5.368402,"is_reserved":false,"is_disabled":false,"rental_uris":{"android":"levelo://app?vid=05b6e15b-940b-4bbe-bce3-af532a15d6d8","ios":"levelo://app?vid=05b6e15b-940b-4bbe-bce3-af532a15d6d8"},"vehicle_type_id":"4","last_reported":1707843945,"current_range_meters":8400,"station_id":"ce4bhbp2rcd13ifvqesg","pricing_plan_id":"cebpf4jnsgd1na2vs0mg"},{"bike_id":"6dd66214-c896-402d-9b87-add061b95e25","system_id":"levelo_inurba_marseille","lat":43.293009,"lon":5.374584,"is_reserved":false,"is_disabled":false,"rental_uris":{"android":"levelo://app?vid=6dd66214-c896-402d-9b87-add061b95e25","ios":"levelo://app?vid=6dd66214-c896-402d-9b87-add061b95e25"},"vehicle_type_id":"4","last_reported":1707843945,"current_range_meters":22000,"station_id":"ce4bgi12rcd13ifvqb70","pricing_plan_id":"cebpf4jnsgd1na2vs0mg"},{"bike_id":"e5a014f1-0a04-4de7-bc20-97bbef356053","system_id":"levelo_inurba_marseille","lat":43.293009,"lon":5.374584,"is_reserved":false,"is_disabled":false,"rental_uris":{"android":"levelo://app?vid=e5a014f1-0a04-4de7-bc20-97bbef356053","ios":"levelo://app?vid=e5a014f1-0a04-4de7-bc20-97bbef356053"},"vehicle_type_id":"4","last_reported":1707843945,"current_range_meters":13600,"station_id":"ce4bgi12rcd13ifvqb70","pricing_plan_id":"cebpf4jnsgd1na2vs0mg"},{"bike_id":"33a88b48-08bc-4b71-82fe-357e300af754","system_id":"levelo_inurba_marseille","lat":43.305994,"lon":5.393687,"is_reserved":false,"is_disabled":false,"rental_uris":{"android":"levelo://app?vid=33a88b48-08bc-4b71-82fe-357e300af754","ios":"levelo://app?vid=33a88b48-08bc-4b71-82fe-357e300af754"},"vehicle_type_id":"4","last_reported":1707843945,"current_range_meters":2000,"station_id":"ce4bh0p2rcd13ifvqd80","pricing_plan_id":"cebpf4jnsgd1na2vs0mg"},{"bike_id":"cedbbdd9-b7c9-45bc-b634-d42a9d17d68b","system_id":"levelo_inurba_marseille","lat":43.300852,"lon":5.390859,"is_reserved":false,"is_disabled":false,"rental_uris":{"android":"levelo://app?vid=cedbbdd9-b7c9-45bc-b634-d42a9d17d68b","ios":"levelo://app?vid=cedbbdd9-b7c9-45bc-b634-d42a9d17d68b"},"vehicle_type_id":"4","last_reported":1707843945,"current_range_meters":9200,"station_id":"ce4bh192rcd13ifvqdb0","pricing_plan_id":"cebpf4jnsgd1na2vs0mg"},{"bike_id":"6b1b40eb-7df6-4e5f-b6b9-8345877823d9","system_id":"levelo_inurba_marseille","lat":43.305986,"lon":5.393646,"is_reserved":false,"is_disabled":false,"rental_uris":{"android":"levelo://app?vid=6b1b40eb-7df6-4e5f-b6b9-8345877823d9","ios":"levelo://app?vid=6b1b40eb-7df6-4e5f-b6b9-8345877823d9"},"vehicle_type_id":"4","last_reported":1707843945,"current_range_meters":4400,"station_id":"","pricing_plan_id":"cebpf4jnsgd1na2vs0mg"},{"bike_id":"2c047f34-0955-45c9-89c1-32f72d95892e","system_id":"levelo_inurba_marseille","lat":43.305994,"lon":5.393687,"is_reserved":false,"is_disabled":false,"rental_uris":{"android":"levelo://app?vid=2c047f34-0955-45c9-89c1-32f72d95892e","ios":"levelo://app?vid=2c047f34-0955-45c9-89c1-32f72d95892e"},"vehicle_type_id":"4","last_reported":1707843945,"current_range_meters":0,"station_id":"ce4bh0p2rcd13ifvqd80","pricing_plan_id":"cebpf4jnsgd1na2vs0mg"},{"bike_id":"4856efca-5531-407b-84e7-0dbcf9e2d3d0","system_id":"levelo_inurba_marseille","lat":43.302992,"lon":5.392136,"is_reserved":false,"is_disabled":false,"rental_uris":{"android":"levelo://app?vid=4856efca-5531-407b-84e7-0dbcf9e2d3d0","ios":"levelo://app?vid=4856efca-5531-407b-84e7-0dbcf9e2d3d0"},"vehicle_type_id":"4","last_reported":1707843945,"current_range_meters":8000,"station_id":"ce4bgkh2rcd13ifvqbk0","pricing_plan_id":"cebpf4jnsgd1na2vs0mg"},{"bike_id":"2c711e81-fb1f-4a8c-864b-5045668ff007","system_id":"levelo_inurba_marseille","lat":43.292311,"lon":5.360731,"is_reserved":false,"is_disabled":false,"rental_uris":{"android":"levelo://app?vid=2c711e81-fb1f-4a8c-864b-5045668ff007","ios":"levelo://app?vid=2c711e81-fb1f-4a8c-864b-5045668ff007"},"vehicle_type_id":"4","last_reported":1707843945,"current_range_meters":0,"station_id":"ce4bhbh2rcd13ifvqeqg","pricing_plan_id":"cebpf4jnsgd1na2vs0mg"},{"bike_id":"1eee4478-502c-4c80-bbc5-dd47e7db06f3","system_id":"levelo_inurba_marseille","lat":43.292311,"lon":5.360731,"is_reserved":false,"is_disabled":false,"rental_uris":{"android":"levelo://app?vid=1eee4478-502c-4c80-bbc5-dd47e7db06f3","ios":"levelo://app?vid=1eee4478-502c-4c80-bbc5-dd47e7db06f3"},"vehicle_type_id":"4","last_reported":1707843945,"current_range_meters":12000,"station_id":"ce4bhbh2rcd13ifvqeqg","pricing_plan_id":"cebpf4jnsgd1na2vs0mg"},{"bike_id":"de212873-0c8f-4872-a4db-db3da43e255d","system_id":"levelo_inurba_marseille","lat":43.292311,"lon":5.360731,"is_reserved":false,"is_disabled":false,"rental_uris":{"android":"levelo://app?vid=de212873-0c8f-4872-a4db-db3da43e255d","ios":"levelo://app?vid=de212873-0c8f-4872-a4db-db3da43e255d"},"vehicle_type_id":"4","last_reported":1707843945,"current_range_meters":28800,"station_id":"ce4bhbh2rcd13ifvqeqg","pricing_plan_id":"cebpf4jnsgd1na2vs0mg"},{"bike_id":"83688e26-a0f9-43b4-9974-f4f7abd1920a","system_id":"levelo_inurba_marseille","lat":43.29229,"lon":5.36066,"is_reserved":false,"is_disabled":false,"rental_uris":{"android":"levelo://app?vid=83688e26-a0f9-43b4-9974-f4f7abd1920a","ios":"levelo://app?vid=83688e26-a0f9-43b4-9974-f4f7abd1920a"},"vehicle_type_id":"4","last_reported":1707843945,"current_range_meters":31200,"station_id":"ce4bhbh2rcd13ifvqeqg","pricing_plan_id":"cebpf4jnsgd1na2vs0mg"},{"bike_id":"9dea550a-7845-419a-b9d1-a0e0e8adb64f","system_id":"levelo_inurba_marseille","lat":43.300852,"lon":5.390859,"is_reserved":false,"is_disabled":false,"rental_uris":{"android":"levelo://app?vid=9dea550a-7845-419a-b9d1-a0e0e8adb64f","ios":"levelo://app?vid=9dea550a-7845-419a-b9d1-a0e0e8adb64f"},"vehicle_type_id":"4","last_reported":1707843945,"current_range_meters":14400,"station_id":"ce4bh192rcd13ifvqdb0","pricing_plan_id":"cebpf4jnsgd1na2vs0mg"},{"bike_id":"4fc65759-2cf8-410a-8bd2-269a6dbde5a4","system_id":"levelo_inurba_marseille","lat":43.300852,"lon":5.390859,"is_reserved":false,"is_disabled":false,"rental_uris":{"android":"levelo://app?vid=4fc65759-2cf8-410a-8bd2-269a6dbde5a4","ios":"levelo://app?vid=4fc65759-2cf8-410a-8bd2-269a6dbde5a4"},"vehicle_type_id":"4","last_reported":1707843945,"current_range_meters":5600,"station_id":"ce4bh192rcd13ifvqdb0","pricing_plan_id":"cebpf4jnsgd1na2vs0mg"},{"bike_id":"2e7b1602-4be8-4e17-82ca-52a6cd0a117e","system_id":"levelo_inurba_marseille","lat":43.29227,"lon":5.3606,"is_reserved":false,"is_disabled":false,"rental_uris":{"android":"levelo://app?vid=2e7b1602-4be8-4e17-82ca-52a6cd0a117e","ios":"levelo://app?vid=2e7b1602-4be8-4e17-82ca-52a6cd0a117e"},"vehicle_type_id":"4","last_reported":1707843945,"current_range_meters":12000,"station_id":"ce4bhbh2rcd13ifvqeqg","pricing_plan_id":"cebpf4jnsgd1na2vs0mg"},{"bike_id":"ff760cc2-b458-4560-a902-ee8fb30f8443","system_id":"levelo_inurba_marseille","lat":43.292213,"lon":5.360507,"is_reserved":false,"is_disabled":false,"rental_uris":{"android":"levelo://app?vid=ff760cc2-b458-4560-a902-ee8fb30f8443","ios":"levelo://app?vid=ff760cc2-b458-4560-a902-ee8fb30f8443"},"vehicle_type_id":"4","last_reported":1707843945,"current_range_meters":22800,"station_id":"ce4bhbh2rcd13ifvqeqg","pricing_plan_id":"cebpf4jnsgd1na2vs0mg"},{"bike_id":"372d89c2-66e3-4e2a-896d-dba4e185d653","system_id":"levelo_inurba_marseille","lat":43.29221,"lon":5.36044,"is_reserved":false,"is_disabled":false,"rental_uris":{"android":"levelo://app?vid=372d89c2-66e3-4e2a-896d-dba4e185d653","ios":"levelo://app?vid=372d89c2-66e3-4e2a-896d-dba4e185d653"},"vehicle_type_id":"4","last_reported":1707843945,"current_range_meters":21200,"station_id":"ce4bhbh2rcd13ifvqeqg","pricing_plan_id":"cebpf4jnsgd1na2vs0mg"},{"bike_id":"4ab85746-87df-43da-8d6f-2f4b9c3e626e","system_id":"levelo_inurba_marseille","lat":43.298764,"lon":5.388973,"is_reserved":false,"is_disabled":false,"rental_uris":{"android":"levelo://app?vid=4ab85746-87df-43da-8d6f-2f4b9c3e626e","ios":"levelo://app?vid=4ab85746-87df-43da-8d6f-2f4b9c3e626e"},"vehicle_type_id":"4","last_reported":1707843945,"current_range_meters":24400,"station_id":"ce4bh392rcd13ifvqdl0","pricing_plan_id":"cebpf4jnsgd1na2vs0mg"},{"bike_id":"f9e978b6-d1ad-471f-a92f-ff3ad1d69ab1","system_id":"levelo_inurba_marseille","lat":43.291671,"lon":5.371575,"is_reserved":false,"is_disabled":false,"rental_uris":{"android":"levelo://app?vid=f9e978b6-d1ad-471f-a92f-ff3ad1d69ab1","ios":"levelo://app?vid=f9e978b6-d1ad-471f-a92f-ff3ad1d69ab1"},"vehicle_type_id":"4","last_reported":1707843945,"current_range_meters":24800,"station_id":"ce4bha92rcd13ifvqeh0","pricing_plan_id":"cebpf4jnsgd1na2vs0mg"},{"bike_id":"d8df728b-0112-40e0-b770-66b971f9bb68","system_id":"levelo_inurba_marseille","lat":43.291671,"lon":5.371575,"is_reserved":false,"is_disabled":false,"rental_uris":{"android":"levelo://app?vid=d8df728b-0112-40e0-b770-66b971f9bb68","ios":"levelo://app?vid=d8df728b-0112-40e0-b770-66b971f9bb68"},"vehicle_type_id":"4","last_reported":1707843945,"current_range_meters":18400,"station_id":"ce4bha92rcd13ifvqeh0","pricing_plan_id":"cebpf4jnsgd1na2vs0mg"},{"bike_id":"b73c9f58-e9bb-44be-8881-8e21a3b8f293","system_id":"levelo_inurba_marseille","lat":43.291671,"lon":5.371575,"is_reserved":false,"is_disabled":false,"rental_uris":{"android":"levelo://app?vid=b73c9f58-e9bb-44be-8881-8e21a3b8f293","ios":"levelo://app?vid=b73c9f58-e9bb-44be-8881-8e21a3b8f293"},"vehicle_type_id":"4","last_reported":1707843945,"current_range_meters":26000,"station_id":"ce4bha92rcd13ifvqeh0","pricing_plan_id":"cebpf4jnsgd1na2vs0mg"},{"bike_id":"ccc19883-8684-416c-8e01-74b55fd016d6","system_id":"levelo_inurba_marseille","lat":43.291675,"lon":5.371583,"is_reserved":false,"is_disabled":false,"rental_uris":{"android":"levelo://app?vid=ccc19883-8684-416c-8e01-74b55fd016d6","ios":"levelo://app?vid=ccc19883-8684-416c-8e01-74b55fd016d6"},"vehicle_type_id":"4","last_reported":1707843945,"current_range_meters":19200,"station_id":"ce4bha92rcd13ifvqeh0","pricing_plan_id":"cebpf4jnsgd1na2vs0mg"},{"bike_id":"e02e6e08-0133-46f9-8398-a60d56774e0f","system_id":"levelo_inurba_marseille","lat":43.291671,"lon":5.371575,"is_reserved":false,"is_disabled":false,"rental_uris":{"android":"levelo://app?vid=e02e6e08-0133-46f9-8398-a60d56774e0f","ios":"levelo://app?vid=e02e6e08-0133-46f9-8398-a60d56774e0f"},"vehicle_type_id":"4","last_reported":1707843945,"current_range_meters":14800,"station_id":"ce4bha92rcd13ifvqeh0","pricing_plan_id":"cebpf4jnsgd1na2vs0mg"},{"bike_id":"67729e0b-1291-41ed-b675-eb142e08908c","system_id":"levelo_inurba_marseille","lat":43.291675,"lon":5.371583,"is_reserved":false,"is_disabled":false,"rental_uris":{"android":"levelo://app?vid=67729e0b-1291-41ed-b675-eb142e08908c","ios":"levelo://app?vid=67729e0b-1291-41ed-b675-eb142e08908c"},"vehicle_type_id":"4","last_reported":1707843945,"current_range_meters":6000,"station_id":"ce4bha92rcd13ifvqeh0","pricing_plan_id":"cebpf4jnsgd1na2vs0mg"},{"bike_id":"767030c7-2fcd-4bca-9d6a-0c4d144101fb","system_id":"levelo_inurba_marseille","lat":43.291675,"lon":5.371583,"is_reserved":false,"is_disabled":false,"rental_uris":{"android":"levelo://app?vid=767030c7-2fcd-4bca-9d6a-0c4d144101fb","ios":"levelo://app?vid=767030c7-2fcd-4bca-9d6a-0c4d144101fb"},"vehicle_type_id":"4","last_reported":1707843945,"current_range_meters":8800,"station_id":"ce4bha92rcd13ifvqeh0","pricing_plan_id":"cebpf4jnsgd1na2vs0mg"},{"bike_id":"0e5fd863-cdab-40f4-bdda-749534ff7e20","system_id":"levelo_inurba_marseille","lat":43.291675,"lon":5.371583,"is_reserved":false,"is_disabled":false,"rental_uris":{"android":"levelo://app?vid=0e5fd863-cdab-40f4-bdda-749534ff7e20","ios":"levelo://app?vid=0e5fd863-cdab-40f4-bdda-749534ff7e20"},"vehicle_type_id":"4","last_reported":1707843945,"current_range_meters":31200,"station_id":"ce4bha92rcd13ifvqeh0","pricing_plan_id":"cebpf4jnsgd1na2vs0mg"},{"bike_id":"e5f63a71-fad5-453a-ad72-ff3a4005993e","system_id":"levelo_inurba_marseille","lat":43.30319,"lon":5.393444,"is_reserved":false,"is_disabled":false,"rental_uris":{"android":"levelo://app?vid=e5f63a71-fad5-453a-ad72-ff3a4005993e","ios":"levelo://app?vid=e5f63a71-fad5-453a-ad72-ff3a4005993e"},"vehicle_type_id":"4","last_reported":1707843945,"current_range_meters":14800,"station_id":"ce4bgkh2rcd13ifvqbk0","pricing_plan_id":"cebpf4jnsgd1na2vs0mg"},{"bike_id":"eb389b2c-da94-4dc6-81d3-dcd04625fad3","system_id":"levelo_inurba_marseille","lat":43.292571,"lon":5.409107,"is_reserved":false,"is_disabled":false,"rental_uris":{"android":"levelo://app?vid=eb389b2c-da94-4dc6-81d3-dcd04625fad3","ios":"levelo://app?vid=eb389b2c-da94-4dc6-81d3-dcd04625fad3"},"vehicle_type_id":"4","last_reported":1707843945,"current_range_meters":18400,"station_id":"ce4bh192rcd13ifvqdc0","pricing_plan_id":"cebpf4jnsgd1na2vs0mg"},{"bike_id":"d6cd38b4-678b-4b08-94a2-c080fcf3634e","system_id":"levelo_inurba_marseille","lat":43.29199,"lon":5.358074,"is_reserved":false,"is_disabled":false,"rental_uris":{"android":"levelo://app?vid=d6cd38b4-678b-4b08-94a2-c080fcf3634e","ios":"levelo://app?vid=d6cd38b4-678b-4b08-94a2-c080fcf3634e"},"vehicle_type_id":"4","last_reported":1707843945,"current_range_meters":30400,"station_id":"ce4bhb12rcd13ifvqel0","pricing_plan_id":"cebpf4jnsgd1na2vs0mg"},{"bike_id":"7099b47e-b54b-4de5-a48c-533418422f76","system_id":"levelo_inurba_marseille","lat":43.313291,"lon":5.396838,"is_reserved":false,"is_disabled":false,"rental_uris":{"android":"levelo://app?vid=7099b47e-b54b-4de5-a48c-533418422f76","ios":"levelo://app?vid=7099b47e-b54b-4de5-a48c-533418422f76"},"vehicle_type_id":"4","last_reported":1707843945,"current_range_meters":1600,"station_id":"ce4bgvp2rcd13ifvqcu0","pricing_plan_id":"cebpf4jnsgd1na2vs0mg"},{"bike_id":"9c229404-84ad-4b13-a885-0acc2e42a3f0","system_id":"levelo_inurba_marseille","lat":43.313291,"lon":5.396838,"is_reserved":false,"is_disabled":false,"rental_uris":{"android":"levelo://app?vid=9c229404-84ad-4b13-a885-0acc2e42a3f0","ios":"levelo://app?vid=9c229404-84ad-4b13-a885-0acc2e42a3f0"},"vehicle_type_id":"4","last_reported":1707843945,"current_range_meters":29200,"station_id":"ce4bgvp2rcd13ifvqcu0","pricing_plan_id":"cebpf4jnsgd1na2vs0mg"},{"bike_id":"f2b92030-6ab1-4561-97d1-e2181282cfec","system_id":"levelo_inurba_marseille","lat":43.308877,"lon":5.39646,"is_reserved":false,"is_disabled":false,"rental_uris":{"android":"levelo://app?vid=f2b92030-6ab1-4561-97d1-e2181282cfec","ios":"levelo://app?vid=f2b92030-6ab1-4561-97d1-e2181282cfec"},"vehicle_type_id":"4","last_reported":1707843945,"current_range_meters":16000,"station_id":"ce4bh012rcd13ifvqcv0","pricing_plan_id":"cebpf4jnsgd1na2vs0mg"},{"bike_id":"261fd362-8e49-49e9-b6d2-d0b95440969f","system_id":"levelo_inurba_marseille","lat":43.313291,"lon":5.396838,"is_reserved":false,"is_disabled":false,"rental_uris":{"android":"levelo://app?vid=261fd362-8e49-49e9-b6d2-d0b95440969f","ios":"levelo://app?vid=261fd362-8e49-49e9-b6d2-d0b95440969f"},"vehicle_type_id":"4","last_reported":1707843945,"current_range_meters":25600,"station_id":"ce4bgvp2rcd13ifvqcu0","pricing_plan_id":"cebpf4jnsgd1na2vs0mg"},{"bike_id":"a6792690-b47e-4ee3-bd1d-a9c233b8e6c5","system_id":"levelo_inurba_marseille","lat":43.313291,"lon":5.396838,"is_reserved":false,"is_disabled":false,"rental_uris":{"android":"levelo://app?vid=a6792690-b47e-4ee3-bd1d-a9c233b8e6c5","ios":"levelo://app?vid=a6792690-b47e-4ee3-bd1d-a9c233b8e6c5"},"vehicle_type_id":"4","last_reported":1707843945,"current_range_meters":30000,"station_id":"ce4bgvp2rcd13ifvqcu0","pricing_plan_id":"cebpf4jnsgd1na2vs0mg"},{"bike_id":"4f8dbb17-76f6-4346-b5d2-c1c4431403c9","system_id":"levelo_inurba_marseille","lat":43.309038,"lon":5.396546,"is_reserved":false,"is_disabled":false,"rental_uris":{"android":"levelo://app?vid=4f8dbb17-76f6-4346-b5d2-c1c4431403c9","ios":"levelo://app?vid=4f8dbb17-76f6-4346-b5d2-c1c4431403c9"},"vehicle_type_id":"4","last_reported":1707843945,"current_range_meters":1600,"station_id":"ce4bh012rcd13ifvqcv0","pricing_plan_id":"cebpf4jnsgd1na2vs0mg"},{"bike_id":"96d5d210-2897-4318-9246-8eb6af5975cc","system_id":"levelo_inurba_marseille","lat":43.313291,"lon":5.396838,"is_reserved":false,"is_disabled":false,"rental_uris":{"android":"levelo://app?vid=96d5d210-2897-4318-9246-8eb6af5975cc","ios":"levelo://app?vid=96d5d210-2897-4318-9246-8eb6af5975cc"},"vehicle_type_id":"4","last_reported":1707843945,"current_range_meters":31200,"station_id":"ce4bgvp2rcd13ifvqcu0","pricing_plan_id":"cebpf4jnsgd1na2vs0mg"},{"bike_id":"fefd639a-3050-402b-bd69-7bce7fbb501f","system_id":"levelo_inurba_marseille","lat":43.309038,"lon":5.396546,"is_reserved":false,"is_disabled":false,"rental_uris":{"android":"levelo://app?vid=fefd639a-3050-402b-bd69-7bce7fbb501f","ios":"levelo://app?vid=fefd639a-3050-402b-bd69-7bce7fbb501f"},"vehicle_type_id":"4","last_reported":1707843945,"current_range_meters":8400,"station_id":"ce4bh012rcd13ifvqcv0","pricing_plan_id":"cebpf4jnsgd1na2vs0mg"},{"bike_id":"90d6c536-af1e-4041-a8ab-2384ee8519d8","system_id":"levelo_inurba_marseille","lat":43.309038,"lon":5.396546,"is_reserved":false,"is_disabled":false,"rental_uris":{"android":"levelo://app?vid=90d6c536-af1e-4041-a8ab-2384ee8519d8","ios":"levelo://app?vid=90d6c536-af1e-4041-a8ab-2384ee8519d8"},"vehicle_type_id":"4","last_reported":1707843945,"current_range_meters":23600,"station_id":"ce4bh012rcd13ifvqcv0","pricing_plan_id":"cebpf4jnsgd1na2vs0mg"},{"bike_id":"68dd0483-ffa3-4448-b7f4-4bf8c6b8bbf4","system_id":"levelo_inurba_marseille","lat":43.30888,"lon":5.39654,"is_reserved":false,"is_disabled":false,"rental_uris":{"android":"levelo://app?vid=68dd0483-ffa3-4448-b7f4-4bf8c6b8bbf4","ios":"levelo://app?vid=68dd0483-ffa3-4448-b7f4-4bf8c6b8bbf4"},"vehicle_type_id":"4","last_reported":1707843945,"current_range_meters":20000,"station_id":"ce4bh012rcd13ifvqcv0","pricing_plan_id":"cebpf4jnsgd1na2vs0mg"},{"bike_id":"659734ea-b364-465a-b184-9c4a54c20185","system_id":"levelo_inurba_marseille","lat":43.309038,"lon":5.396546,"is_reserved":false,"is_disabled":false,"rental_uris":{"android":"levelo://app?vid=659734ea-b364-465a-b184-9c4a54c20185","ios":"levelo://app?vid=659734ea-b364-465a-b184-9c4a54c20185"},"vehicle_type_id":"4","last_reported":1707843945,"current_range_meters":12000,"station_id":"ce4bh012rcd13ifvqcv0","pricing_plan_id":"cebpf4jnsgd1na2vs0mg"},{"bike_id":"e2dedb3d-e038-4997-9975-e022a475308f","system_id":"levelo_inurba_marseille","lat":43.309038,"lon":5.396546,"is_reserved":false,"is_disabled":false,"rental_uris":{"android":"levelo://app?vid=e2dedb3d-e038-4997-9975-e022a475308f","ios":"levelo://app?vid=e2dedb3d-e038-4997-9975-e022a475308f"},"vehicle_type_id":"4","last_reported":1707843945,"current_range_meters":400,"station_id":"ce4bh012rcd13ifvqcv0","pricing_plan_id":"cebpf4jnsgd1na2vs0mg"},{"bike_id":"b00867d7-26a6-42cc-ad2e-ad01281240aa","system_id":"levelo_inurba_marseille","lat":43.313291,"lon":5.396838,"is_reserved":false,"is_disabled":false,"rental_uris":{"android":"levelo://app?vid=b00867d7-26a6-42cc-ad2e-ad01281240aa","ios":"levelo://app?vid=b00867d7-26a6-42cc-ad2e-ad01281240aa"},"vehicle_type_id":"4","last_reported":1707843945,"current_range_meters":26400,"station_id":"ce4bgvp2rcd13ifvqcu0","pricing_plan_id":"cebpf4jnsgd1na2vs0mg"},{"bike_id":"8bf9391a-9f35-470f-a634-39b1947bc311","system_id":"levelo_inurba_marseille","lat":43.29534,"lon":5.38547,"is_reserved":false,"is_disabled":false,"rental_uris":{"android":"levelo://app?vid=8bf9391a-9f35-470f-a634-39b1947bc311","ios":"levelo://app?vid=8bf9391a-9f35-470f-a634-39b1947bc311"},"vehicle_type_id":"4","last_reported":1707843945,"current_range_meters":7600,"station_id":"ce4bgih2rcd13ifvqba0","pricing_plan_id":"cebpf4jnsgd1na2vs0mg"},{"bike_id":"77ef0e33-d007-45a0-bb42-c40241a26662","system_id":"levelo_inurba_marseille","lat":43.29529,"lon":5.385581,"is_reserved":false,"is_disabled":false,"rental_uris":{"android":"levelo://app?vid=77ef0e33-d007-45a0-bb42-c40241a26662","ios":"levelo://app?vid=77ef0e33-d007-45a0-bb42-c40241a26662"},"vehicle_type_id":"4","last_reported":1707843945,"current_range_meters":14000,"station_id":"ce4bgih2rcd13ifvqba0","pricing_plan_id":"cebpf4jnsgd1na2vs0mg"},{"bike_id":"13719646-c949-42b9-8b37-189268480c39","system_id":"levelo_inurba_marseille","lat":43.29529,"lon":5.385581,"is_reserved":false,"is_disabled":false,"rental_uris":{"android":"levelo://app?vid=13719646-c949-42b9-8b37-189268480c39","ios":"levelo://app?vid=13719646-c949-42b9-8b37-189268480c39"},"vehicle_type_id":"4","last_reported":1707843945,"current_range_meters":400,"station_id":"ce4bgih2rcd13ifvqba0","pricing_plan_id":"cebpf4jnsgd1na2vs0mg"},{"bike_id":"1ac10612-40ce-4c5a-a4a4-e21b3d0ea078","system_id":"levelo_inurba_marseille","lat":43.29529,"lon":5.385581,"is_reserved":false,"is_disabled":false,"rental_uris":{"android":"levelo://app?vid=1ac10612-40ce-4c5a-a4a4-e21b3d0ea078","ios":"levelo://app?vid=1ac10612-40ce-4c5a-a4a4-e21b3d0ea078"},"vehicle_type_id":"4","last_reported":1707843945,"current_range_meters":30400,"station_id":"ce4bgih2rcd13ifvqba0","pricing_plan_id":"cebpf4jnsgd1na2vs0mg"},{"bike_id":"b68c3a23-5515-4a00-81de-77efdc214044","system_id":"levelo_inurba_marseille","lat":43.29529,"lon":5.385581,"is_reserved":false,"is_disabled":false,"rental_uris":{"android":"levelo://app?vid=b68c3a23-5515-4a00-81de-77efdc214044","ios":"levelo://app?vid=b68c3a23-5515-4a00-81de-77efdc214044"},"vehicle_type_id":"4","last_reported":1707843945,"current_range_meters":22000,"station_id":"ce4bgih2rcd13ifvqba0","pricing_plan_id":"cebpf4jnsgd1na2vs0mg"},{"bike_id":"3a6f680b-a3bc-45e8-939c-97fff3d7a1c9","system_id":"levelo_inurba_marseille","lat":43.29529,"lon":5.385581,"is_reserved":false,"is_disabled":false,"rental_uris":{"android":"levelo://app?vid=3a6f680b-a3bc-45e8-939c-97fff3d7a1c9","ios":"levelo://app?vid=3a6f680b-a3bc-45e8-939c-97fff3d7a1c9"},"vehicle_type_id":"4","last_reported":1707843945,"current_range_meters":26800,"station_id":"ce4bgih2rcd13ifvqba0","pricing_plan_id":"cebpf4jnsgd1na2vs0mg"},{"bike_id":"386b996d-39ef-428c-b13b-eafb44a4053e","system_id":"levelo_inurba_marseille","lat":43.29529,"lon":5.385581,"is_reserved":false,"is_disabled":false,"rental_uris":{"android":"levelo://app?vid=386b996d-39ef-428c-b13b-eafb44a4053e","ios":"levelo://app?vid=386b996d-39ef-428c-b13b-eafb44a4053e"},"vehicle_type_id":"4","last_reported":1707843945,"current_range_meters":30800,"station_id":"ce4bgih2rcd13ifvqba0","pricing_plan_id":"cebpf4jnsgd1na2vs0mg"},{"bike_id":"90197f4f-6eb3-4a4a-b7ec-968726d8eae3","system_id":"levelo_inurba_marseille","lat":43.29529,"lon":5.385581,"is_reserved":false,"is_disabled":false,"rental_uris":{"android":"levelo://app?vid=90197f4f-6eb3-4a4a-b7ec-968726d8eae3","ios":"levelo://app?vid=90197f4f-6eb3-4a4a-b7ec-968726d8eae3"},"vehicle_type_id":"4","last_reported":1707843945,"current_range_meters":4400,"station_id":"ce4bgih2rcd13ifvqba0","pricing_plan_id":"cebpf4jnsgd1na2vs0mg"},{"bike_id":"0bacce6a-2d93-476d-96c3-154426c19311","system_id":"levelo_inurba_marseille","lat":43.302008,"lon":5.394694,"is_reserved":false,"is_disabled":false,"rental_uris":{"android":"levelo://app?vid=0bacce6a-2d93-476d-96c3-154426c19311","ios":"levelo://app?vid=0bacce6a-2d93-476d-96c3-154426c19311"},"vehicle_type_id":"4","last_reported":1707843945,"current_range_meters":5600,"station_id":"ce4bh0p2rcd13ifvqd70","pricing_plan_id":"cebpf4jnsgd1na2vs0mg"},{"bike_id":"18bd592a-c942-4d0e-b4da-950369ab2aef","system_id":"levelo_inurba_marseille","lat":43.290631,"lon":5.359244,"is_reserved":false,"is_disabled":false,"rental_uris":{"android":"levelo://app?vid=18bd592a-c942-4d0e-b4da-950369ab2aef","ios":"levelo://app?vid=18bd592a-c942-4d0e-b4da-950369ab2aef"},"vehicle_type_id":"4","last_reported":1707843945,"current_range_meters":30800,"station_id":"ce4bha92rcd13ifvqeg0","pricing_plan_id":"cebpf4jnsgd1na2vs0mg"},{"bike_id":"1545af12-6829-44fb-ac0b-6c9dd2c1ee62","system_id":"levelo_inurba_marseille","lat":43.294153,"lon":5.386305,"is_reserved":false,"is_disabled":false,"rental_uris":{"android":"levelo://app?vid=1545af12-6829-44fb-ac0b-6c9dd2c1ee62","ios":"levelo://app?vid=1545af12-6829-44fb-ac0b-6c9dd2c1ee62"},"vehicle_type_id":"4","last_reported":1707843945,"current_range_meters":3200,"station_id":"ce4bh2h2rcd13ifvqdh0","pricing_plan_id":"cebpf4jnsgd1na2vs0mg"},{"bike_id":"568fff12-a03c-4b8a-9d62-313b31e526dc","system_id":"levelo_inurba_marseille","lat":43.28942,"lon":5.36641,"is_reserved":false,"is_disabled":false,"rental_uris":{"android":"levelo://app?vid=568fff12-a03c-4b8a-9d62-313b31e526dc","ios":"levelo://app?vid=568fff12-a03c-4b8a-9d62-313b31e526dc"},"vehicle_type_id":"4","last_reported":1707843945,"current_range_meters":0,"station_id":"ce4bhap2rcd13ifvqek0","pricing_plan_id":"cebpf4jnsgd1na2vs0mg"},{"bike_id":"7c351f4e-0d09-4a7b-aa30-b850ae27d7eb","system_id":"levelo_inurba_marseille","lat":43.289184,"lon":5.366408,"is_reserved":false,"is_disabled":false,"rental_uris":{"android":"levelo://app?vid=7c351f4e-0d09-4a7b-aa30-b850ae27d7eb","ios":"levelo://app?vid=7c351f4e-0d09-4a7b-aa30-b850ae27d7eb"},"vehicle_type_id":"4","last_reported":1707843945,"current_range_meters":25200,"station_id":"ce4bhap2rcd13ifvqek0","pricing_plan_id":"cebpf4jnsgd1na2vs0mg"},{"bike_id":"0d92bc4e-2fbb-4e97-8cfb-ec959245ff6a","system_id":"levelo_inurba_marseille","lat":43.294162,"lon":5.386292,"is_reserved":false,"is_disabled":false,"rental_uris":{"android":"levelo://app?vid=0d92bc4e-2fbb-4e97-8cfb-ec959245ff6a","ios":"levelo://app?vid=0d92bc4e-2fbb-4e97-8cfb-ec959245ff6a"},"vehicle_type_id":"4","last_reported":1707843945,"current_range_meters":4800,"station_id":"ce4bh2h2rcd13ifvqdh0","pricing_plan_id":"cebpf4jnsgd1na2vs0mg"},{"bike_id":"8a0960c4-2dc4-4e6d-b86a-280a45d40387","system_id":"levelo_inurba_marseille","lat":43.294162,"lon":5.386292,"is_reserved":false,"is_disabled":false,"rental_uris":{"android":"levelo://app?vid=8a0960c4-2dc4-4e6d-b86a-280a45d40387","ios":"levelo://app?vid=8a0960c4-2dc4-4e6d-b86a-280a45d40387"},"vehicle_type_id":"4","last_reported":1707843945,"current_range_meters":19200,"station_id":"ce4bh2h2rcd13ifvqdh0","pricing_plan_id":"cebpf4jnsgd1na2vs0mg"},{"bike_id":"48cf8c91-81c4-4d7c-876d-d423bc9cc5a6","system_id":"levelo_inurba_marseille","lat":43.289184,"lon":5.366408,"is_reserved":false,"is_disabled":false,"rental_uris":{"android":"levelo://app?vid=48cf8c91-81c4-4d7c-876d-d423bc9cc5a6","ios":"levelo://app?vid=48cf8c91-81c4-4d7c-876d-d423bc9cc5a6"},"vehicle_type_id":"4","last_reported":1707843945,"current_range_meters":400,"station_id":"ce4bhap2rcd13ifvqek0","pricing_plan_id":"cebpf4jnsgd1na2vs0mg"},{"bike_id":"462cd33d-20a7-4953-84a1-e24988761b12","system_id":"levelo_inurba_marseille","lat":43.289184,"lon":5.366408,"is_reserved":false,"is_disabled":false,"rental_uris":{"android":"levelo://app?vid=462cd33d-20a7-4953-84a1-e24988761b12","ios":"levelo://app?vid=462cd33d-20a7-4953-84a1-e24988761b12"},"vehicle_type_id":"4","last_reported":1707843945,"current_range_meters":15600,"station_id":"ce4bhap2rcd13ifvqek0","pricing_plan_id":"cebpf4jnsgd1na2vs0mg"},{"bike_id":"279a1500-acbf-4efd-b21e-ec0ab4219b88","system_id":"levelo_inurba_marseille","lat":43.289184,"lon":5.366408,"is_reserved":false,"is_disabled":false,"rental_uris":{"android":"levelo://app?vid=279a1500-acbf-4efd-b21e-ec0ab4219b88","ios":"levelo://app?vid=279a1500-acbf-4efd-b21e-ec0ab4219b88"},"vehicle_type_id":"4","last_reported":1707843945,"current_range_meters":20400,"station_id":"ce4bhap2rcd13ifvqek0","pricing_plan_id":"cebpf4jnsgd1na2vs0mg"},{"bike_id":"ef989d41-f699-4aff-a5d7-d890720d12a8","system_id":"levelo_inurba_marseille","lat":43.289468,"lon":5.363719,"is_reserved":false,"is_disabled":false,"rental_uris":{"android":"levelo://app?vid=ef989d41-f699-4aff-a5d7-d890720d12a8","ios":"levelo://app?vid=ef989d41-f699-4aff-a5d7-d890720d12a8"},"vehicle_type_id":"4","last_reported":1707843945,"current_range_meters":16400,"station_id":"ce4bhc92rcd13ifvqetg","pricing_plan_id":"cebpf4jnsgd1na2vs0mg"},{"bike_id":"6e7f0d17-6d7f-476f-905a-66158a069e9b","system_id":"levelo_inurba_marseille","lat":43.294057,"lon":5.386314,"is_reserved":false,"is_disabled":false,"rental_uris":{"android":"levelo://app?vid=6e7f0d17-6d7f-476f-905a-66158a069e9b","ios":"levelo://app?vid=6e7f0d17-6d7f-476f-905a-66158a069e9b"},"vehicle_type_id":"4","last_reported":1707843945,"current_range_meters":2800,"station_id":"ce4bh2h2rcd13ifvqdh0","pricing_plan_id":"cebpf4jnsgd1na2vs0mg"},{"bike_id":"51108adc-bd90-4522-9346-6ceeaa0e6177","system_id":"levelo_inurba_marseille","lat":43.289184,"lon":5.366408,"is_reserved":false,"is_disabled":false,"rental_uris":{"android":"levelo://app?vid=51108adc-bd90-4522-9346-6ceeaa0e6177","ios":"levelo://app?vid=51108adc-bd90-4522-9346-6ceeaa0e6177"},"vehicle_type_id":"4","last_reported":1707843945,"current_range_meters":9200,"station_id":"ce4bhap2rcd13ifvqek0","pricing_plan_id":"cebpf4jnsgd1na2vs0mg"},{"bike_id":"2091069a-9467-479c-abd9-23ee470f2205","system_id":"levelo_inurba_marseille","lat":43.289468,"lon":5.363719,"is_reserved":false,"is_disabled":false,"rental_uris":{"android":"levelo://app?vid=2091069a-9467-479c-abd9-23ee470f2205","ios":"levelo://app?vid=2091069a-9467-479c-abd9-23ee470f2205"},"vehicle_type_id":"4","last_reported":1707843945,"current_range_meters":22800,"station_id":"ce4bhc92rcd13ifvqetg","pricing_plan_id":"cebpf4jnsgd1na2vs0mg"},{"bike_id":"ab321b40-b356-49d4-b0fc-c3fedaee97af","system_id":"levelo_inurba_marseille","lat":43.304274,"lon":5.397513,"is_reserved":false,"is_disabled":false,"rental_uris":{"android":"levelo://app?vid=ab321b40-b356-49d4-b0fc-c3fedaee97af","ios":"levelo://app?vid=ab321b40-b356-49d4-b0fc-c3fedaee97af"},"vehicle_type_id":"4","last_reported":1707843945,"current_range_meters":9200,"station_id":"ce4bh092rcd13ifvqd20","pricing_plan_id":"cebpf4jnsgd1na2vs0mg"},{"bike_id":"49c2af7d-fa8d-4b66-b5d4-2410f43d846c","system_id":"levelo_inurba_marseille","lat":43.290104,"lon":5.356111,"is_reserved":false,"is_disabled":false,"rental_uris":{"android":"levelo://app?vid=49c2af7d-fa8d-4b66-b5d4-2410f43d846c","ios":"levelo://app?vid=49c2af7d-fa8d-4b66-b5d4-2410f43d846c"},"vehicle_type_id":"4","last_reported":1707843945,"current_range_meters":18800,"station_id":"ce4bhb92rcd13ifvqen0","pricing_plan_id":"cebpf4jnsgd1na2vs0mg"},{"bike_id":"d72abf4e-b541-4f54-9367-c8c6b89ffe6d","system_id":"levelo_inurba_marseille","lat":43.290104,"lon":5.356111,"is_reserved":false,"is_disabled":false,"rental_uris":{"android":"levelo://app?vid=d72abf4e-b541-4f54-9367-c8c6b89ffe6d","ios":"levelo://app?vid=d72abf4e-b541-4f54-9367-c8c6b89ffe6d"},"vehicle_type_id":"4","last_reported":1707843945,"current_range_meters":7200,"station_id":"ce4bhb92rcd13ifvqen0","pricing_plan_id":"cebpf4jnsgd1na2vs0mg"},{"bike_id":"b7e760ab-4a54-4284-871d-89f982e04e35","system_id":"levelo_inurba_marseille","lat":43.290104,"lon":5.356111,"is_reserved":false,"is_disabled":false,"rental_uris":{"android":"levelo://app?vid=b7e760ab-4a54-4284-871d-89f982e04e35","ios":"levelo://app?vid=b7e760ab-4a54-4284-871d-89f982e04e35"},"vehicle_type_id":"4","last_reported":1707843945,"current_range_meters":6000,"station_id":"ce4bhb92rcd13ifvqen0","pricing_plan_id":"cebpf4jnsgd1na2vs0mg"},{"bike_id":"688c88e0-c29b-412e-a191-d1e6b9fd34e4","system_id":"levelo_inurba_marseille","lat":43.290103,"lon":5.356114,"is_reserved":false,"is_disabled":false,"rental_uris":{"android":"levelo://app?vid=688c88e0-c29b-412e-a191-d1e6b9fd34e4","ios":"levelo://app?vid=688c88e0-c29b-412e-a191-d1e6b9fd34e4"},"vehicle_type_id":"4","last_reported":1707843945,"current_range_meters":10000,"station_id":"ce4bhb92rcd13ifvqen0","pricing_plan_id":"cebpf4jnsgd1na2vs0mg"},{"bike_id":"cfff330f-e97e-4829-9f5b-eeebe9518289","system_id":"levelo_inurba_marseille","lat":43.290104,"lon":5.356111,"is_reserved":false,"is_disabled":false,"rental_uris":{"android":"levelo://app?vid=cfff330f-e97e-4829-9f5b-eeebe9518289","ios":"levelo://app?vid=cfff330f-e97e-4829-9f5b-eeebe9518289"},"vehicle_type_id":"4","last_reported":1707843945,"current_range_meters":800,"station_id":"ce4bhb92rcd13ifvqen0","pricing_plan_id":"cebpf4jnsgd1na2vs0mg"},